{"last_updated":1748470207,"ttl":60,"version":"2.2","data":{"bikes":[{"bike_id":"55d42eeb-6b71-4987-a0f2-3d758b10d43e","system_id":"levelo_inurba_marseille","lat":43.33771,"lon":5.37424,"is_reserved":false,"is_disabled":true,"rental_uris":{"android":"levelo://app?vid=55d42eeb-6b71-4987-a0f2-3d758b10d43e","ios":"levelo://app?vid=55d42eeb-6b71-4987-a0f2-3d758b10d43e"},"vehicle_type_id":"4","last_reported":1748470207,"current_range_meters":0,"station_id":"","pricing_plan_id":"cebpf4jnsgd1na2vs0mg"},{"bike_id":"ca0b726f-f1b3-41a7-9914-6a3a0140eb6e","system_id":"levelo_inurba_marseille","lat":43.246487,"lon":5.393983,"is_reserved":false,"is_disabled":true,"rental_uris":{"android":"levelo://app?vid=ca0b726f-f1b3-41a7-9914-6a3a0140eb6e","ios":"levelo://app?vid=ca0b726f-f1b3-41a7-9914-6a3a0140eb6e"},"vehicle_type_id":"4","last_reported":1748470207,"current_range_meters":0,"station_id":"","pricing_plan_id":"cebpf4jnsgd1na2vs0mg"},{"bike_id":"7f4b6069-304f-4d75-a8b9-d3db83a055ca","system_id":"levelo_inurba_marseille","lat":43.21751,"lon":5.34593,"is_reserved":false,"is_disabled":true,"rental_uris":{"android":"levelo://app?vid=7f4b6069-304f-4d75-a8b9-d3db83a055ca","ios":"levelo://app?vid=7f4b6069-304f-4d75-a8b9-d3db83a055ca"},"vehicle_type_id":"4","last_reported":1748470207,"current_range_meters":0,"station_id":"","pricing_plan_id":"cebpf4jnsgd1na2vs0mg"},{"bike_id":"b7fe4621-b706-42f0-9085-4811142f84e8","system_id":"levelo_inurba_marseille","lat":43.337499,"lon":5.374469,"is_reserved":false,"is_disabled":true,"rental_uris":{"android":"levelo://app?vid=b7fe4621-b706-42f0-9085-4811142f84e8","ios":"levelo://app?vid=b7fe4621-b706-42f0-9085-4811142f84e8"},"vehicle_type_id":"4","last_reported":1748470207,"current_range_meters":0,"station_id":"","pricing_plan_id":"cebpf4jnsgd1na2vs0mg"},{"bike_id":"ad402f0f-3192-410c-afac-8cf064a40c6d","system_id":"levelo_inurba_marseille","lat":43.337444,"lon":5.374475,"is_reserved":false,"is_disabled":true,"rental_uris":{"android":"levelo://app?vid=ad402f0f-3192-410c-afac-8cf064a40c6d","ios":"levelo://app?vid=ad402f0f-3192-410c-afac-8cf064a40c6d"},"vehicle_type_id":"4","last_reported":1748470207,"current_range_meters":0,"station_id":"","pricing_plan_id":"cebpf4jnsgd1na2vs0mg"},{"bike_id":"80dc1064-d63f-4a22-ad21-d8abd70986c0","system_id":"levelo_inurba_marseille","lat":43.337677,"lon":5.374741,"is_reserved":false,"is_disabled":true,"rental_uris":{"android":"levelo://app?vid=80dc1064-d63f-4a22-ad21-d8abd70986c0","ios":"levelo://app?vid=80dc1064-d63f-4a22-ad21-d8abd70986c0"},"vehicle_type_id":"4","last_reported":1748470207,"current_range_meters":0,"station_id":"","pricing_plan_id":"cebpf4jnsgd1na2vs0mg"},{"bike_id":"a7498786-a3df-4f7f-b7af-960818561250","system_id":"levelo_inurba_marseille","lat":43.25273,"lon":5.42049,"is_reserved":false,"is_disabled":true,"rental_uris":{"android":"levelo://app?vid=a7498786-a3df-4f7f-b7af-960818561250","ios":"levelo://app?vid=a7498786-a3df-4f7f-b7af-960818561250"},"vehicle_type_id":"4","last_reported":1748470207,"current_range_meters":0,"station_id":"","pricing_plan_id":"cebpf4jnsgd1na2vs0mg"},{"bike_id":"2fd7e160-685c-4858-b57b-dcaef27a8e94","system_id":"levelo_inurba_marseille","lat":43.230331,"lon":5.401847,"is_reserved":false,"is_disabled":true,"rental_uris":{"android":"levelo://app?vid=2fd7e160-685c-4858-b57b-dcaef27a8e94","ios":"levelo://app?vid=2fd7e160-685c-4858-b57b-dcaef27a8e94"},"vehicle_type_id":"4","last_reported":1748470207,"current_range_meters":0,"station_id":"","pricing_plan_id":"cebpf4jnsgd1na2vs0mg"},{"bike_id":"65c3f4ef-60c0-4c74-8198-94fc629fb895","system_id":"levelo_inurba_marseille","lat":43.29252,"lon":5.40899,"is_reserved":false,"is_disabled":true,"rental_uris":{"android":"levelo://app?vid=65c3f4ef-60c0-4c74-8198-94fc629fb895","ios":"levelo://app?vid=65c3f4ef-60c0-4c74-8198-94fc629fb895"},"vehicle_type_id":"4","last_reported":1748470207,"current_range_meters":0,"station_id":"ce4bh192rcd13ifvqdc0","pricing_plan_id":"cebpf4jnsgd1na2vs0mg"},{"bike_id":"e73357c5-67ed-4075-84be-4246c5fbde4a","system_id":"levelo_inurba_marseille","lat":43.23142,"lon":5.4371,"is_reserved":false,"is_disabled":true,"rental_uris":{"android":"levelo://app?vid=e73357c5-67ed-4075-84be-4246c5fbde4a","ios":"levelo://app?vid=e73357c5-67ed-4075-84be-4246c5fbde4a"},"vehicle_type_id":"4","last_reported":1748470207,"current_range_meters":0,"station_id":"ce4bhmp2rcd13ifvqgog","pricing_plan_id":"cebpf4jnsgd1na2vs0mg"},{"bike_id":"ac941aa7-ae64-4e06-9ba9-ae9b002a5c62","system_id":"levelo_inurba_marseille","lat":43.30371,"lon":5.42474,"is_reserved":false,"is_disabled":true,"rental_uris":{"android":"levelo://app?vid=ac941aa7-ae64-4e06-9ba9-ae9b002a5c62","ios":"levelo://app?vid=ac941aa7-ae64-4e06-9ba9-ae9b002a5c62"},"vehicle_type_id":"4","last_reported":1748470207,"current_range_meters":0,"station_id":"ce4bhoh2rcd13ifvqh6g","pricing_plan_id":"cebpf4jnsgd1na2vs0mg"},{"bike_id":"0d16491c-abaf-49ec-8676-8595a7c9f9c4","system_id":"levelo_inurba_marseille","lat":43.3042,"lon":5.41289,"is_reserved":false,"is_disabled":true,"rental_uris":{"android":"levelo://app?vid=0d16491c-abaf-49ec-8676-8595a7c9f9c4","ios":"levelo://app?vid=0d16491c-abaf-49ec-8676-8595a7c9f9c4"},"vehicle_type_id":"4","last_reported":1748470207,"current_range_meters":0,"station_id":"ce4bhop2rcd13ifvqh8g","pricing_plan_id":"cebpf4jnsgd1na2vs0mg"},{"bike_id":"bc554b9f-2071-4757-ad49-3ebb887229cd","system_id":"levelo_inurba_marseille","lat":43.31712,"lon":5.43695,"is_reserved":false,"is_disabled":true,"rental_uris":{"android":"levelo://app?vid=bc554b9f-2071-4757-ad49-3ebb887229cd","ios":"levelo://app?vid=bc554b9f-2071-4757-ad49-3ebb887229cd"},"vehicle_type_id":"4","last_reported":1748470207,"current_range_meters":0,"station_id":"ce4bhp92rcd13ifvqhcg","pricing_plan_id":"cebpf4jnsgd1na2vs0mg"},{"bike_id":"ce526b8a-caa2-4d66-9928-344df9acf135","system_id":"levelo_inurba_marseille","lat":43.32365,"lon":5.38879,"is_reserved":false,"is_disabled":true,"rental_uris":{"android":"levelo://app?vid=ce526b8a-caa2-4d66-9928-344df9acf135","ios":"levelo://app?vid=ce526b8a-caa2-4d66-9928-344df9acf135"},"vehicle_type_id":"4","last_reported":1748470207,"current_range_meters":0,"station_id":"ce4bhqp2rcd13ifvqhog","pricing_plan_id":"cebpf4jnsgd1na2vs0mg"},{"bike_id":"2be24aa1-6951-46cb-af14-12526f40824a","system_id":"levelo_inurba_marseille","lat":43.27378,"lon":5.36261,"is_reserved":false,"is_disabled":true,"rental_uris":{"android":"levelo://app?vid=2be24aa1-6951-46cb-af14-12526f40824a","ios":"levelo://app?vid=2be24aa1-6951-46cb-af14-12526f40824a"},"vehicle_type_id":"4","last_reported":1748470207,"current_range_meters":400,"station_id":"ce4bhbh2rcd13ifvqeo0","pricing_plan_id":"cebpf4jnsgd1na2vs0mg"},{"bike_id":"09e5fca8-749e-4e37-86fe-12b1a295b5fa","system_id":"levelo_inurba_marseille","lat":43.27376,"lon":5.36255,"is_reserved":false,"is_disabled":true,"rental_uris":{"android":"levelo://app?vid=09e5fca8-749e-4e37-86fe-12b1a295b5fa","ios":"levelo://app?vid=09e5fca8-749e-4e37-86fe-12b1a295b5fa"},"vehicle_type_id":"4","last_reported":1748470207,"current_range_meters":400,"station_id":"ce4bhbh2rcd13ifvqeo0","pricing_plan_id":"cebpf4jnsgd1na2vs0mg"},{"bike_id":"8a08e02a-b4ba-4d84-af0c-9b3d06cae183","system_id":"levelo_inurba_marseille","lat":43.27828,"lon":5.39202,"is_reserved":false,"is_disabled":true,"rental_uris":{"android":"levelo://app?vid=8a08e02a-b4ba-4d84-af0c-9b3d06cae183","ios":"levelo://app?vid=8a08e02a-b4ba-4d84-af0c-9b3d06cae183"},"vehicle_type_id":"4","last_reported":1748470207,"current_range_meters":400,"station_id":"ce4bhjp2rcd13ifvqga0","pricing_plan_id":"cebpf4jnsgd1na2vs0mg"},{"bike_id":"5aefb386-e416-4906-998c-ff23207edc6c","system_id":"levelo_inurba_marseille","lat":43.21751,"lon":5.34615,"is_reserved":false,"is_disabled":true,"rental_uris":{"android":"levelo://app?vid=5aefb386-e416-4906-998c-ff23207edc6c","ios":"levelo://app?vid=5aefb386-e416-4906-998c-ff23207edc6c"},"vehicle_type_id":"4","last_reported":1748470207,"current_range_meters":400,"station_id":"st_cvj6r9ubvosntc0bgbag","pricing_plan_id":"cebpf4jnsgd1na2vs0mg"},{"bike_id":"d58172cd-84e2-4b2a-af66-4911637094ee","system_id":"levelo_inurba_marseille","lat":43.30642,"lon":5.401,"is_reserved":false,"is_disabled":true,"rental_uris":{"android":"levelo://app?vid=d58172cd-84e2-4b2a-af66-4911637094ee","ios":"levelo://app?vid=d58172cd-84e2-4b2a-af66-4911637094ee"},"vehicle_type_id":"4","last_reported":1748470207,"current_range_meters":800,"station_id":"ce4bh112rcd13ifvqda0","pricing_plan_id":"cebpf4jnsgd1na2vs0mg"},{"bike_id":"e7635fc3-d658-4655-b74e-9cf95bc03af6","system_id":"levelo_inurba_marseille","lat":43.28467,"lon":5.38415,"is_reserved":false,"is_disabled":true,"rental_uris":{"android":"levelo://app?vid=e7635fc3-d658-4655-b74e-9cf95bc03af6","ios":"levelo://app?vid=e7635fc3-d658-4655-b74e-9cf95bc03af6"},"vehicle_type_id":"4","last_reported":1748470207,"current_range_meters":800,"station_id":"ce4bh512rcd13ifvqe3g","pricing_plan_id":"cebpf4jnsgd1na2vs0mg"},{"bike_id":"1d3ea032-e25d-4521-bb08-01e5a1cd90ae","system_id":"levelo_inurba_marseille","lat":43.27068,"lon":5.42279,"is_reserved":false,"is_disabled":true,"rental_uris":{"android":"levelo://app?vid=1d3ea032-e25d-4521-bb08-01e5a1cd90ae","ios":"levelo://app?vid=1d3ea032-e25d-4521-bb08-01e5a1cd90ae"},"vehicle_type_id":"4","last_reported":1748470207,"current_range_meters":800,"station_id":"ce4bhk92rcd13ifvqgb0","pricing_plan_id":"cebpf4jnsgd1na2vs0mg"},{"bike_id":"ef53bb08-3221-45a4-aeab-27ec5b84f36b","system_id":"levelo_inurba_marseille","lat":43.307344,"lon":5.424502,"is_reserved":false,"is_disabled":true,"rental_uris":{"android":"levelo://app?vid=ef53bb08-3221-45a4-aeab-27ec5b84f36b","ios":"levelo://app?vid=ef53bb08-3221-45a4-aeab-27ec5b84f36b"},"vehicle_type_id":"4","last_reported":1748470207,"current_range_meters":800,"station_id":"st_cvj6ca6bvosntc0bfgr0","pricing_plan_id":"cebpf4jnsgd1na2vs0mg"},{"bike_id":"f8e924ef-8382-4fc7-88a5-a20b67849f04","system_id":"levelo_inurba_marseille","lat":43.30252,"lon":5.4004,"is_reserved":false,"is_disabled":true,"rental_uris":{"android":"levelo://app?vid=f8e924ef-8382-4fc7-88a5-a20b67849f04","ios":"levelo://app?vid=f8e924ef-8382-4fc7-88a5-a20b67849f04"},"vehicle_type_id":"4","last_reported":1748470207,"current_range_meters":1200,"station_id":"ce4bgvh2rcd13ifvqcs0","pricing_plan_id":"cebpf4jnsgd1na2vs0mg"},{"bike_id":"6a96fe31-1583-4b2f-bfe4-01b095d63149","system_id":"levelo_inurba_marseille","lat":43.29417,"lon":5.38637,"is_reserved":false,"is_disabled":true,"rental_uris":{"android":"levelo://app?vid=6a96fe31-1583-4b2f-bfe4-01b095d63149","ios":"levelo://app?vid=6a96fe31-1583-4b2f-bfe4-01b095d63149"},"vehicle_type_id":"4","last_reported":1748470207,"current_range_meters":1200,"station_id":"ce4bh2h2rcd13ifvqdh0","pricing_plan_id":"cebpf4jnsgd1na2vs0mg"},{"bike_id":"c6aca5c1-1f20-45c3-b586-34d557758aa5","system_id":"levelo_inurba_marseille","lat":43.28463,"lon":5.35873,"is_reserved":false,"is_disabled":false,"rental_uris":{"android":"levelo://app?vid=c6aca5c1-1f20-45c3-b586-34d557758aa5","ios":"levelo://app?vid=c6aca5c1-1f20-45c3-b586-34d557758aa5"},"vehicle_type_id":"4","last_reported":1748470207,"current_range_meters":1200,"station_id":"ce4bhah2rcd13ifvqei0","pricing_plan_id":"cebpf4jnsgd1na2vs0mg"},{"bike_id":"29399905-8efd-47f7-bdd9-fb9e1b85256f","system_id":"levelo_inurba_marseille","lat":43.27836,"lon":5.39213,"is_reserved":false,"is_disabled":true,"rental_uris":{"android":"levelo://app?vid=29399905-8efd-47f7-bdd9-fb9e1b85256f","ios":"levelo://app?vid=29399905-8efd-47f7-bdd9-fb9e1b85256f"},"vehicle_type_id":"4","last_reported":1748470207,"current_range_meters":1200,"station_id":"ce4bhjp2rcd13ifvqga0","pricing_plan_id":"cebpf4jnsgd1na2vs0mg"},{"bike_id":"1be25f1a-182d-41f2-8d4f-cf02fa7aa93b","system_id":"levelo_inurba_marseille","lat":43.28153,"lon":5.42635,"is_reserved":false,"is_disabled":true,"rental_uris":{"android":"levelo://app?vid=1be25f1a-182d-41f2-8d4f-cf02fa7aa93b","ios":"levelo://app?vid=1be25f1a-182d-41f2-8d4f-cf02fa7aa93b"},"vehicle_type_id":"4","last_reported":1748470207,"current_range_meters":1200,"station_id":"ce4bhnh2rcd13ifvqgug","pricing_plan_id":"cebpf4jnsgd1na2vs0mg"},{"bike_id":"95905bdb-1cb7-4f3d-94bb-8ac9edfe1a32","system_id":"levelo_inurba_marseille","lat":43.26264,"lon":5.40471,"is_reserved":false,"is_disabled":true,"rental_uris":{"android":"levelo://app?vid=95905bdb-1cb7-4f3d-94bb-8ac9edfe1a32","ios":"levelo://app?vid=95905bdb-1cb7-4f3d-94bb-8ac9edfe1a32"},"vehicle_type_id":"4","last_reported":1748470207,"current_range_meters":1600,"station_id":"ce4bhmh2rcd13ifvqgmg","pricing_plan_id":"cebpf4jnsgd1na2vs0mg"},{"bike_id":"f4c45e95-54cf-46e5-83c5-d89c27c9a69c","system_id":"levelo_inurba_marseille","lat":43.273041,"lon":5.415769,"is_reserved":false,"is_disabled":true,"rental_uris":{"android":"levelo://app?vid=f4c45e95-54cf-46e5-83c5-d89c27c9a69c","ios":"levelo://app?vid=f4c45e95-54cf-46e5-83c5-d89c27c9a69c"},"vehicle_type_id":"4","last_reported":1748470207,"current_range_meters":2000,"station_id":"","pricing_plan_id":"cebpf4jnsgd1na2vs0mg"},{"bike_id":"a4b57c13-9d5e-4aaf-a1b1-54fe52a2bb6d","system_id":"levelo_inurba_marseille","lat":43.30625,"lon":5.36668,"is_reserved":false,"is_disabled":true,"rental_uris":{"android":"levelo://app?vid=a4b57c13-9d5e-4aaf-a1b1-54fe52a2bb6d","ios":"levelo://app?vid=a4b57c13-9d5e-4aaf-a1b1-54fe52a2bb6d"},"vehicle_type_id":"4","last_reported":1748470207,"current_range_meters":2000,"station_id":"","pricing_plan_id":"cebpf4jnsgd1na2vs0mg"},{"bike_id":"443004d0-5e76-4011-aa1d-e28b9d37d601","system_id":"levelo_inurba_marseille","lat":43.31595,"lon":5.36908,"is_reserved":false,"is_disabled":true,"rental_uris":{"android":"levelo://app?vid=443004d0-5e76-4011-aa1d-e28b9d37d601","ios":"levelo://app?vid=443004d0-5e76-4011-aa1d-e28b9d37d601"},"vehicle_type_id":"4","last_reported":1748470207,"current_range_meters":2000,"station_id":"","pricing_plan_id":"cebpf4jnsgd1na2vs0mg"},{"bike_id":"204b3f30-daa2-40f0-9387-4257fcee2cf5","system_id":"levelo_inurba_marseille","lat":43.2919,"lon":5.39334,"is_reserved":false,"is_disabled":true,"rental_uris":{"android":"levelo://app?vid=204b3f30-daa2-40f0-9387-4257fcee2cf5","ios":"levelo://app?vid=204b3f30-daa2-40f0-9387-4257fcee2cf5"},"vehicle_type_id":"4","last_reported":1748470207,"current_range_meters":2000,"station_id":"ce4bh192rcd13ifvqdd0","pricing_plan_id":"cebpf4jnsgd1na2vs0mg"},{"bike_id":"861ca05e-27ed-4f0b-9b40-090302e61cea","system_id":"levelo_inurba_marseille","lat":43.29271,"lon":5.40115,"is_reserved":false,"is_disabled":true,"rental_uris":{"android":"levelo://app?vid=861ca05e-27ed-4f0b-9b40-090302e61cea","ios":"levelo://app?vid=861ca05e-27ed-4f0b-9b40-090302e61cea"},"vehicle_type_id":"4","last_reported":1748470207,"current_range_meters":2000,"station_id":"ce4bh312rcd13ifvqdk0","pricing_plan_id":"cebpf4jnsgd1na2vs0mg"},{"bike_id":"0233c6de-a237-4091-8c9e-b8fe0bcb1b1a","system_id":"levelo_inurba_marseille","lat":43.28566,"lon":5.39498,"is_reserved":false,"is_disabled":false,"rental_uris":{"android":"levelo://app?vid=0233c6de-a237-4091-8c9e-b8fe0bcb1b1a","ios":"levelo://app?vid=0233c6de-a237-4091-8c9e-b8fe0bcb1b1a"},"vehicle_type_id":"4","last_reported":1748470207,"current_range_meters":2800,"station_id":"ce4bh292rcd13ifvqdg0","pricing_plan_id":"cebpf4jnsgd1na2vs0mg"},{"bike_id":"fd594a8f-7576-42e0-aa85-feb0e15efc00","system_id":"levelo_inurba_marseille","lat":43.2902,"lon":5.38641,"is_reserved":false,"is_disabled":false,"rental_uris":{"android":"levelo://app?vid=fd594a8f-7576-42e0-aa85-feb0e15efc00","ios":"levelo://app?vid=fd594a8f-7576-42e0-aa85-feb0e15efc00"},"vehicle_type_id":"4","last_reported":1748470207,"current_range_meters":2800,"station_id":"ce4bh4p2rcd13ifvqe0g","pricing_plan_id":"cebpf4jnsgd1na2vs0mg"},{"bike_id":"67366e97-23da-403a-a5fc-cf8951ed5a7d","system_id":"levelo_inurba_marseille","lat":43.29031,"lon":5.38644,"is_reserved":false,"is_disabled":false,"rental_uris":{"android":"levelo://app?vid=67366e97-23da-403a-a5fc-cf8951ed5a7d","ios":"levelo://app?vid=67366e97-23da-403a-a5fc-cf8951ed5a7d"},"vehicle_type_id":"4","last_reported":1748470207,"current_range_meters":3200,"station_id":"ce4bh4p2rcd13ifvqe0g","pricing_plan_id":"cebpf4jnsgd1na2vs0mg"},{"bike_id":"d7030c22-81b0-491e-945a-0d5a27989104","system_id":"levelo_inurba_marseille","lat":43.3148,"lon":5.37304,"is_reserved":false,"is_disabled":false,"rental_uris":{"android":"levelo://app?vid=d7030c22-81b0-491e-945a-0d5a27989104","ios":"levelo://app?vid=d7030c22-81b0-491e-945a-0d5a27989104"},"vehicle_type_id":"4","last_reported":1748470207,"current_range_meters":3600,"station_id":"ce4bgt12rcd13ifvqcd0","pricing_plan_id":"cebpf4jnsgd1na2vs0mg"},{"bike_id":"d36e3fa9-2ddc-4d83-8c18-565efe5cc0c2","system_id":"levelo_inurba_marseille","lat":43.29032,"lon":5.37566,"is_reserved":false,"is_disabled":false,"rental_uris":{"android":"levelo://app?vid=d36e3fa9-2ddc-4d83-8c18-565efe5cc0c2","ios":"levelo://app?vid=d36e3fa9-2ddc-4d83-8c18-565efe5cc0c2"},"vehicle_type_id":"4","last_reported":1748470207,"current_range_meters":3600,"station_id":"ce4bh692rcd13ifvqe90","pricing_plan_id":"cebpf4jnsgd1na2vs0mg"},{"bike_id":"831ca35f-e4b8-48b9-9590-7a5af245ba54","system_id":"levelo_inurba_marseille","lat":43.27912,"lon":5.39578,"is_reserved":false,"is_disabled":false,"rental_uris":{"android":"levelo://app?vid=831ca35f-e4b8-48b9-9590-7a5af245ba54","ios":"levelo://app?vid=831ca35f-e4b8-48b9-9590-7a5af245ba54"},"vehicle_type_id":"4","last_reported":1748470207,"current_range_meters":3600,"station_id":"ce4bhf92rcd13ifvqf40","pricing_plan_id":"cebpf4jnsgd1na2vs0mg"},{"bike_id":"5880f429-6632-415b-9dee-6b4e29420505","system_id":"levelo_inurba_marseille","lat":43.30789,"lon":5.38161,"is_reserved":false,"is_disabled":false,"rental_uris":{"android":"levelo://app?vid=5880f429-6632-415b-9dee-6b4e29420505","ios":"levelo://app?vid=5880f429-6632-415b-9dee-6b4e29420505"},"vehicle_type_id":"4","last_reported":1748470207,"current_range_meters":4000,"station_id":"ce4bgt12rcd13ifvqce0","pricing_plan_id":"cebpf4jnsgd1na2vs0mg"},{"bike_id":"295dc99a-2a8c-4930-8b1a-dce2c11ad24e","system_id":"levelo_inurba_marseille","lat":43.28361,"lon":5.38098,"is_reserved":false,"is_disabled":false,"rental_uris":{"android":"levelo://app?vid=295dc99a-2a8c-4930-8b1a-dce2c11ad24e","ios":"levelo://app?vid=295dc99a-2a8c-4930-8b1a-dce2c11ad24e"},"vehicle_type_id":"4","last_reported":1748470207,"current_range_meters":4000,"station_id":"ce4bh412rcd13ifvqdr0","pricing_plan_id":"cebpf4jnsgd1na2vs0mg"},{"bike_id":"99f2b025-b8e6-4d78-9a11-d06c6b66b1cd","system_id":"levelo_inurba_marseille","lat":43.27389,"lon":5.36237,"is_reserved":false,"is_disabled":false,"rental_uris":{"android":"levelo://app?vid=99f2b025-b8e6-4d78-9a11-d06c6b66b1cd","ios":"levelo://app?vid=99f2b025-b8e6-4d78-9a11-d06c6b66b1cd"},"vehicle_type_id":"4","last_reported":1748470207,"current_range_meters":4400,"station_id":"","pricing_plan_id":"cebpf4jnsgd1na2vs0mg"},{"bike_id":"77ebea7b-2576-4d09-8171-14448cf2db37","system_id":"levelo_inurba_marseille","lat":43.29271,"lon":5.38468,"is_reserved":false,"is_disabled":false,"rental_uris":{"android":"levelo://app?vid=77ebea7b-2576-4d09-8171-14448cf2db37","ios":"levelo://app?vid=77ebea7b-2576-4d09-8171-14448cf2db37"},"vehicle_type_id":"4","last_reported":1748470207,"current_range_meters":4400,"station_id":"ce4bh692rcd13ifvqea0","pricing_plan_id":"cebpf4jnsgd1na2vs0mg"},{"bike_id":"02876833-2e8c-4c92-8dcd-48331d0ab1cc","system_id":"levelo_inurba_marseille","lat":43.29417,"lon":5.38635,"is_reserved":false,"is_disabled":false,"rental_uris":{"android":"levelo://app?vid=02876833-2e8c-4c92-8dcd-48331d0ab1cc","ios":"levelo://app?vid=02876833-2e8c-4c92-8dcd-48331d0ab1cc"},"vehicle_type_id":"4","last_reported":1748470207,"current_range_meters":4800,"station_id":"ce4bh2h2rcd13ifvqdh0","pricing_plan_id":"cebpf4jnsgd1na2vs0mg"},{"bike_id":"a5f90b1e-a09e-40ad-8d54-7442721c8689","system_id":"levelo_inurba_marseille","lat":43.24603,"lon":5.39239,"is_reserved":false,"is_disabled":false,"rental_uris":{"android":"levelo://app?vid=a5f90b1e-a09e-40ad-8d54-7442721c8689","ios":"levelo://app?vid=a5f90b1e-a09e-40ad-8d54-7442721c8689"},"vehicle_type_id":"4","last_reported":1748470207,"current_range_meters":5600,"station_id":"","pricing_plan_id":"cebpf4jnsgd1na2vs0mg"},{"bike_id":"e662cfdf-7308-445f-8e14-4d33034d33f2","system_id":"levelo_inurba_marseille","lat":43.2511,"lon":5.40322,"is_reserved":false,"is_disabled":false,"rental_uris":{"android":"levelo://app?vid=e662cfdf-7308-445f-8e14-4d33034d33f2","ios":"levelo://app?vid=e662cfdf-7308-445f-8e14-4d33034d33f2"},"vehicle_type_id":"4","last_reported":1748470207,"current_range_meters":5600,"station_id":"ce4bhlh2rcd13ifvqgig","pricing_plan_id":"cebpf4jnsgd1na2vs0mg"},{"bike_id":"40534855-b614-44f3-ad48-a461d75afc35","system_id":"levelo_inurba_marseille","lat":43.29276,"lon":5.40116,"is_reserved":false,"is_disabled":false,"rental_uris":{"android":"levelo://app?vid=40534855-b614-44f3-ad48-a461d75afc35","ios":"levelo://app?vid=40534855-b614-44f3-ad48-a461d75afc35"},"vehicle_type_id":"4","last_reported":1748470207,"current_range_meters":6000,"station_id":"ce4bh312rcd13ifvqdk0","pricing_plan_id":"cebpf4jnsgd1na2vs0mg"},{"bike_id":"0e39d1ee-bbfc-4211-9b9b-215f0dc89261","system_id":"levelo_inurba_marseille","lat":43.2842,"lon":5.37502,"is_reserved":false,"is_disabled":false,"rental_uris":{"android":"levelo://app?vid=0e39d1ee-bbfc-4211-9b9b-215f0dc89261","ios":"levelo://app?vid=0e39d1ee-bbfc-4211-9b9b-215f0dc89261"},"vehicle_type_id":"4","last_reported":1748470207,"current_range_meters":6000,"station_id":"ce4bh412rcd13ifvqds0","pricing_plan_id":"cebpf4jnsgd1na2vs0mg"},{"bike_id":"db1992ae-8df0-45a1-a5da-5a7c5ed89646","system_id":"levelo_inurba_marseille","lat":43.26212,"lon":5.37435,"is_reserved":false,"is_disabled":false,"rental_uris":{"android":"levelo://app?vid=db1992ae-8df0-45a1-a5da-5a7c5ed89646","ios":"levelo://app?vid=db1992ae-8df0-45a1-a5da-5a7c5ed89646"},"vehicle_type_id":"4","last_reported":1748470207,"current_range_meters":6000,"station_id":"ce4bhgp2rcd13ifvqfc0","pricing_plan_id":"cebpf4jnsgd1na2vs0mg"},{"bike_id":"6d2f49d4-4079-41f0-a189-90db2e417369","system_id":"levelo_inurba_marseille","lat":43.33339,"lon":5.40039,"is_reserved":false,"is_disabled":false,"rental_uris":{"android":"levelo://app?vid=6d2f49d4-4079-41f0-a189-90db2e417369","ios":"levelo://app?vid=6d2f49d4-4079-41f0-a189-90db2e417369"},"vehicle_type_id":"4","last_reported":1748470207,"current_range_meters":6400,"station_id":"","pricing_plan_id":"cebpf4jnsgd1na2vs0mg"},{"bike_id":"de4711e6-44d3-43d7-9803-e25de99ff234","system_id":"levelo_inurba_marseille","lat":43.2998,"lon":5.38484,"is_reserved":false,"is_disabled":false,"rental_uris":{"android":"levelo://app?vid=de4711e6-44d3-43d7-9803-e25de99ff234","ios":"levelo://app?vid=de4711e6-44d3-43d7-9803-e25de99ff234"},"vehicle_type_id":"4","last_reported":1748470207,"current_range_meters":6400,"station_id":"ce4bgj92rcd13ifvqbd0","pricing_plan_id":"cebpf4jnsgd1na2vs0mg"},{"bike_id":"8163d6a9-c4a7-47e4-997f-0310a16165b4","system_id":"levelo_inurba_marseille","lat":43.29268,"lon":5.38433,"is_reserved":false,"is_disabled":false,"rental_uris":{"android":"levelo://app?vid=8163d6a9-c4a7-47e4-997f-0310a16165b4","ios":"levelo://app?vid=8163d6a9-c4a7-47e4-997f-0310a16165b4"},"vehicle_type_id":"4","last_reported":1748470207,"current_range_meters":6400,"station_id":"ce4bh692rcd13ifvqea0","pricing_plan_id":"cebpf4jnsgd1na2vs0mg"},{"bike_id":"0e298602-0967-4a15-8f4b-da3075b94a79","system_id":"levelo_inurba_marseille","lat":43.24813,"lon":5.37458,"is_reserved":false,"is_disabled":false,"rental_uris":{"android":"levelo://app?vid=0e298602-0967-4a15-8f4b-da3075b94a79","ios":"levelo://app?vid=0e298602-0967-4a15-8f4b-da3075b94a79"},"vehicle_type_id":"4","last_reported":1748470207,"current_range_meters":6400,"station_id":"ce4bhgh2rcd13ifvqfb0","pricing_plan_id":"cebpf4jnsgd1na2vs0mg"},{"bike_id":"3db0d194-6c21-43d9-8f99-ae0c48f2f2f6","system_id":"levelo_inurba_marseille","lat":43.31711,"lon":5.43708,"is_reserved":false,"is_disabled":false,"rental_uris":{"android":"levelo://app?vid=3db0d194-6c21-43d9-8f99-ae0c48f2f2f6","ios":"levelo://app?vid=3db0d194-6c21-43d9-8f99-ae0c48f2f2f6"},"vehicle_type_id":"4","last_reported":1748470207,"current_range_meters":6400,"station_id":"ce4bhp92rcd13ifvqhcg","pricing_plan_id":"cebpf4jnsgd1na2vs0mg"},{"bike_id":"87b395fb-0dfd-464d-b68d-3afc622e0d48","system_id":"levelo_inurba_marseille","lat":43.29566,"lon":5.39442,"is_reserved":false,"is_disabled":false,"rental_uris":{"android":"levelo://app?vid=87b395fb-0dfd-464d-b68d-3afc622e0d48","ios":"levelo://app?vid=87b395fb-0dfd-464d-b68d-3afc622e0d48"},"vehicle_type_id":"4","last_reported":1748470207,"current_range_meters":6800,"station_id":"","pricing_plan_id":"cebpf4jnsgd1na2vs0mg"},{"bike_id":"1a9deaa6-5b0b-41ea-a3a0-9c49f0de8473","system_id":"levelo_inurba_marseille","lat":43.293274,"lon":5.411652,"is_reserved":false,"is_disabled":false,"rental_uris":{"android":"levelo://app?vid=1a9deaa6-5b0b-41ea-a3a0-9c49f0de8473","ios":"levelo://app?vid=1a9deaa6-5b0b-41ea-a3a0-9c49f0de8473"},"vehicle_type_id":"4","last_reported":1748470207,"current_range_meters":6800,"station_id":"","pricing_plan_id":"cebpf4jnsgd1na2vs0mg"},{"bike_id":"d3bf3c55-5769-4b15-9eb1-28f17ada09fd","system_id":"levelo_inurba_marseille","lat":43.30597,"lon":5.37185,"is_reserved":false,"is_disabled":false,"rental_uris":{"android":"levelo://app?vid=d3bf3c55-5769-4b15-9eb1-28f17ada09fd","ios":"levelo://app?vid=d3bf3c55-5769-4b15-9eb1-28f17ada09fd"},"vehicle_type_id":"4","last_reported":1748470207,"current_range_meters":6800,"station_id":"ce4bgqh2rcd13ifvqc4g","pricing_plan_id":"cebpf4jnsgd1na2vs0mg"},{"bike_id":"12c4b419-574d-4ca5-ac97-ad8a96c5c281","system_id":"levelo_inurba_marseille","lat":43.28457,"lon":5.358868,"is_reserved":false,"is_disabled":false,"rental_uris":{"android":"levelo://app?vid=12c4b419-574d-4ca5-ac97-ad8a96c5c281","ios":"levelo://app?vid=12c4b419-574d-4ca5-ac97-ad8a96c5c281"},"vehicle_type_id":"4","last_reported":1748470207,"current_range_meters":6800,"station_id":"ce4bhah2rcd13ifvqei0","pricing_plan_id":"cebpf4jnsgd1na2vs0mg"},{"bike_id":"6595edd8-f6c5-43de-9b73-30ef41d96c74","system_id":"levelo_inurba_marseille","lat":43.23189,"lon":5.39977,"is_reserved":false,"is_disabled":false,"rental_uris":{"android":"levelo://app?vid=6595edd8-f6c5-43de-9b73-30ef41d96c74","ios":"levelo://app?vid=6595edd8-f6c5-43de-9b73-30ef41d96c74"},"vehicle_type_id":"4","last_reported":1748470207,"current_range_meters":6800,"station_id":"ce4bhn12rcd13ifvqgqg","pricing_plan_id":"cebpf4jnsgd1na2vs0mg"},{"bike_id":"7dde676c-38c9-4b2b-8b31-2e8abd3218c3","system_id":"levelo_inurba_marseille","lat":43.281546,"lon":5.426386,"is_reserved":false,"is_disabled":false,"rental_uris":{"android":"levelo://app?vid=7dde676c-38c9-4b2b-8b31-2e8abd3218c3","ios":"levelo://app?vid=7dde676c-38c9-4b2b-8b31-2e8abd3218c3"},"vehicle_type_id":"4","last_reported":1748470207,"current_range_meters":6800,"station_id":"ce4bhnh2rcd13ifvqgug","pricing_plan_id":"cebpf4jnsgd1na2vs0mg"},{"bike_id":"697f1bc0-ae34-4ad9-8ede-6a27c99a6ea7","system_id":"levelo_inurba_marseille","lat":43.28017,"lon":5.41662,"is_reserved":false,"is_disabled":false,"rental_uris":{"android":"levelo://app?vid=697f1bc0-ae34-4ad9-8ede-6a27c99a6ea7","ios":"levelo://app?vid=697f1bc0-ae34-4ad9-8ede-6a27c99a6ea7"},"vehicle_type_id":"4","last_reported":1748470207,"current_range_meters":6800,"station_id":"ce4bho12rcd13ifvqh1g","pricing_plan_id":"cebpf4jnsgd1na2vs0mg"},{"bike_id":"d71181b1-0736-4809-ae68-de4917bcbebf","system_id":"levelo_inurba_marseille","lat":43.309325,"lon":5.401391,"is_reserved":false,"is_disabled":false,"rental_uris":{"android":"levelo://app?vid=d71181b1-0736-4809-ae68-de4917bcbebf","ios":"levelo://app?vid=d71181b1-0736-4809-ae68-de4917bcbebf"},"vehicle_type_id":"4","last_reported":1748470207,"current_range_meters":7200,"station_id":"ce4bgvp2rcd13ifvqct0","pricing_plan_id":"cebpf4jnsgd1na2vs0mg"},{"bike_id":"2158c43c-d715-4e16-8a68-9f1aee55fabd","system_id":"levelo_inurba_marseille","lat":43.29246,"lon":5.40894,"is_reserved":false,"is_disabled":false,"rental_uris":{"android":"levelo://app?vid=2158c43c-d715-4e16-8a68-9f1aee55fabd","ios":"levelo://app?vid=2158c43c-d715-4e16-8a68-9f1aee55fabd"},"vehicle_type_id":"4","last_reported":1748470207,"current_range_meters":7200,"station_id":"ce4bh192rcd13ifvqdc0","pricing_plan_id":"cebpf4jnsgd1na2vs0mg"},{"bike_id":"e1364e17-964d-4c3a-a68e-ace0c23aee68","system_id":"levelo_inurba_marseille","lat":43.28851,"lon":5.39299,"is_reserved":false,"is_disabled":false,"rental_uris":{"android":"levelo://app?vid=e1364e17-964d-4c3a-a68e-ace0c23aee68","ios":"levelo://app?vid=e1364e17-964d-4c3a-a68e-ace0c23aee68"},"vehicle_type_id":"4","last_reported":1748470207,"current_range_meters":7200,"station_id":"ce4bh2p2rcd13ifvqdi0","pricing_plan_id":"cebpf4jnsgd1na2vs0mg"},{"bike_id":"d440bf96-43ec-45b0-b01f-1c5328ca29b2","system_id":"levelo_inurba_marseille","lat":43.27967,"lon":5.387335,"is_reserved":false,"is_disabled":false,"rental_uris":{"android":"levelo://app?vid=d440bf96-43ec-45b0-b01f-1c5328ca29b2","ios":"levelo://app?vid=d440bf96-43ec-45b0-b01f-1c5328ca29b2"},"vehicle_type_id":"4","last_reported":1748470207,"current_range_meters":7200,"station_id":"ce4bhg12rcd13ifvqf80","pricing_plan_id":"cebpf4jnsgd1na2vs0mg"},{"bike_id":"e79ef05e-bb28-4c4b-a45f-1945f54353c7","system_id":"levelo_inurba_marseille","lat":43.24069,"lon":5.37753,"is_reserved":false,"is_disabled":false,"rental_uris":{"android":"levelo://app?vid=e79ef05e-bb28-4c4b-a45f-1945f54353c7","ios":"levelo://app?vid=e79ef05e-bb28-4c4b-a45f-1945f54353c7"},"vehicle_type_id":"4","last_reported":1748470207,"current_range_meters":7200,"station_id":"ce4bhnp2rcd13ifvqgvg","pricing_plan_id":"cebpf4jnsgd1na2vs0mg"},{"bike_id":"e81c314f-503d-4896-a793-3e0edb6bdb80","system_id":"levelo_inurba_marseille","lat":43.3228,"lon":5.38287,"is_reserved":false,"is_disabled":false,"rental_uris":{"android":"levelo://app?vid=e81c314f-503d-4896-a793-3e0edb6bdb80","ios":"levelo://app?vid=e81c314f-503d-4896-a793-3e0edb6bdb80"},"vehicle_type_id":"4","last_reported":1748470207,"current_range_meters":7200,"station_id":"ce4bhr12rcd13ifvqhqg","pricing_plan_id":"cebpf4jnsgd1na2vs0mg"},{"bike_id":"98234324-f3a3-438f-801c-39490a7c5660","system_id":"levelo_inurba_marseille","lat":43.33727,"lon":5.39188,"is_reserved":false,"is_disabled":false,"rental_uris":{"android":"levelo://app?vid=98234324-f3a3-438f-801c-39490a7c5660","ios":"levelo://app?vid=98234324-f3a3-438f-801c-39490a7c5660"},"vehicle_type_id":"4","last_reported":1748470207,"current_range_meters":7200,"station_id":"ce4bhr92rcd13ifvqhsg","pricing_plan_id":"cebpf4jnsgd1na2vs0mg"},{"bike_id":"c3a0bd73-5813-47f0-a5c8-27701041c8ba","system_id":"levelo_inurba_marseille","lat":43.27253,"lon":5.42414,"is_reserved":false,"is_disabled":false,"rental_uris":{"android":"levelo://app?vid=c3a0bd73-5813-47f0-a5c8-27701041c8ba","ios":"levelo://app?vid=c3a0bd73-5813-47f0-a5c8-27701041c8ba"},"vehicle_type_id":"4","last_reported":1748470207,"current_range_meters":8000,"station_id":"","pricing_plan_id":"cebpf4jnsgd1na2vs0mg"},{"bike_id":"e7c8a9b9-0f7e-4f93-8f26-86f0646a609e","system_id":"levelo_inurba_marseille","lat":43.3311,"lon":5.38523,"is_reserved":false,"is_disabled":false,"rental_uris":{"android":"levelo://app?vid=e7c8a9b9-0f7e-4f93-8f26-86f0646a609e","ios":"levelo://app?vid=e7c8a9b9-0f7e-4f93-8f26-86f0646a609e"},"vehicle_type_id":"4","last_reported":1748470207,"current_range_meters":8000,"station_id":"","pricing_plan_id":"cebpf4jnsgd1na2vs0mg"},{"bike_id":"f0e44009-6064-4d67-80b4-0bb60ffccf01","system_id":"levelo_inurba_marseille","lat":43.28547,"lon":5.36667,"is_reserved":false,"is_disabled":false,"rental_uris":{"android":"levelo://app?vid=f0e44009-6064-4d67-80b4-0bb60ffccf01","ios":"levelo://app?vid=f0e44009-6064-4d67-80b4-0bb60ffccf01"},"vehicle_type_id":"4","last_reported":1748470207,"current_range_meters":8000,"station_id":"","pricing_plan_id":"cebpf4jnsgd1na2vs0mg"},{"bike_id":"9139eb8a-873e-4aa8-836a-e86282d655a7","system_id":"levelo_inurba_marseille","lat":43.27624,"lon":5.36098,"is_reserved":false,"is_disabled":false,"rental_uris":{"android":"levelo://app?vid=9139eb8a-873e-4aa8-836a-e86282d655a7","ios":"levelo://app?vid=9139eb8a-873e-4aa8-836a-e86282d655a7"},"vehicle_type_id":"4","last_reported":1748470207,"current_range_meters":8000,"station_id":"ce4bgj92rcd13ifvqbe0","pricing_plan_id":"cebpf4jnsgd1na2vs0mg"},{"bike_id":"b0699ab7-0cef-41f6-879c-b66ce18aff02","system_id":"levelo_inurba_marseille","lat":43.27624,"lon":5.36098,"is_reserved":false,"is_disabled":false,"rental_uris":{"android":"levelo://app?vid=b0699ab7-0cef-41f6-879c-b66ce18aff02","ios":"levelo://app?vid=b0699ab7-0cef-41f6-879c-b66ce18aff02"},"vehicle_type_id":"4","last_reported":1748470207,"current_range_meters":8000,"station_id":"ce4bgj92rcd13ifvqbe0","pricing_plan_id":"cebpf4jnsgd1na2vs0mg"},{"bike_id":"346b4841-9c0b-4ec9-8c69-927873e37bb5","system_id":"levelo_inurba_marseille","lat":43.29856,"lon":5.36274,"is_reserved":false,"is_disabled":false,"rental_uris":{"android":"levelo://app?vid=346b4841-9c0b-4ec9-8c69-927873e37bb5","ios":"levelo://app?vid=346b4841-9c0b-4ec9-8c69-927873e37bb5"},"vehicle_type_id":"4","last_reported":1748470207,"current_range_meters":8000,"station_id":"ce4bgpp2rcd13ifvqc3g","pricing_plan_id":"cebpf4jnsgd1na2vs0mg"},{"bike_id":"206852d6-3016-4cd6-9177-36af0b65377c","system_id":"levelo_inurba_marseille","lat":43.301,"lon":5.39067,"is_reserved":false,"is_disabled":false,"rental_uris":{"android":"levelo://app?vid=206852d6-3016-4cd6-9177-36af0b65377c","ios":"levelo://app?vid=206852d6-3016-4cd6-9177-36af0b65377c"},"vehicle_type_id":"4","last_reported":1748470207,"current_range_meters":8000,"station_id":"ce4bh192rcd13ifvqdb0","pricing_plan_id":"cebpf4jnsgd1na2vs0mg"},{"bike_id":"50efd735-7c87-4888-aca3-92a671843bf8","system_id":"levelo_inurba_marseille","lat":43.2927,"lon":5.38444,"is_reserved":false,"is_disabled":false,"rental_uris":{"android":"levelo://app?vid=50efd735-7c87-4888-aca3-92a671843bf8","ios":"levelo://app?vid=50efd735-7c87-4888-aca3-92a671843bf8"},"vehicle_type_id":"4","last_reported":1748470207,"current_range_meters":8000,"station_id":"ce4bh692rcd13ifvqea0","pricing_plan_id":"cebpf4jnsgd1na2vs0mg"},{"bike_id":"594fa21a-e4ec-4adb-b66e-58ef99b2c5c6","system_id":"levelo_inurba_marseille","lat":43.24816,"lon":5.37449,"is_reserved":false,"is_disabled":false,"rental_uris":{"android":"levelo://app?vid=594fa21a-e4ec-4adb-b66e-58ef99b2c5c6","ios":"levelo://app?vid=594fa21a-e4ec-4adb-b66e-58ef99b2c5c6"},"vehicle_type_id":"4","last_reported":1748470207,"current_range_meters":8000,"station_id":"ce4bhgh2rcd13ifvqfb0","pricing_plan_id":"cebpf4jnsgd1na2vs0mg"},{"bike_id":"69764f42-9c92-445f-936a-157bbf235d43","system_id":"levelo_inurba_marseille","lat":43.275683,"lon":5.384178,"is_reserved":false,"is_disabled":false,"rental_uris":{"android":"levelo://app?vid=69764f42-9c92-445f-936a-157bbf235d43","ios":"levelo://app?vid=69764f42-9c92-445f-936a-157bbf235d43"},"vehicle_type_id":"4","last_reported":1748470207,"current_range_meters":8000,"station_id":"ce4bhh92rcd13ifvqfi0","pricing_plan_id":"cebpf4jnsgd1na2vs0mg"},{"bike_id":"b7c3f369-2ba0-4cb9-96f0-a45973a40bef","system_id":"levelo_inurba_marseille","lat":43.25585,"lon":5.38237,"is_reserved":false,"is_disabled":false,"rental_uris":{"android":"levelo://app?vid=b7c3f369-2ba0-4cb9-96f0-a45973a40bef","ios":"levelo://app?vid=b7c3f369-2ba0-4cb9-96f0-a45973a40bef"},"vehicle_type_id":"4","last_reported":1748470207,"current_range_meters":8000,"station_id":"ce4bhih2rcd13ifvqfs0","pricing_plan_id":"cebpf4jnsgd1na2vs0mg"},{"bike_id":"b80ee325-09b2-4724-993d-4f8d3707c41c","system_id":"levelo_inurba_marseille","lat":43.25862,"lon":5.39902,"is_reserved":false,"is_disabled":false,"rental_uris":{"android":"levelo://app?vid=b80ee325-09b2-4724-993d-4f8d3707c41c","ios":"levelo://app?vid=b80ee325-09b2-4724-993d-4f8d3707c41c"},"vehicle_type_id":"4","last_reported":1748470207,"current_range_meters":8000,"station_id":"ce4bhl92rcd13ifvqghg","pricing_plan_id":"cebpf4jnsgd1na2vs0mg"},{"bike_id":"98d347c6-14e6-4d92-b31c-7483df770580","system_id":"levelo_inurba_marseille","lat":43.2623,"lon":5.40451,"is_reserved":false,"is_disabled":false,"rental_uris":{"android":"levelo://app?vid=98d347c6-14e6-4d92-b31c-7483df770580","ios":"levelo://app?vid=98d347c6-14e6-4d92-b31c-7483df770580"},"vehicle_type_id":"4","last_reported":1748470207,"current_range_meters":8000,"station_id":"ce4bhmh2rcd13ifvqgmg","pricing_plan_id":"cebpf4jnsgd1na2vs0mg"},{"bike_id":"9167ea6a-ce66-49ff-859f-3ca7c151003d","system_id":"levelo_inurba_marseille","lat":43.24179,"lon":5.39734,"is_reserved":false,"is_disabled":false,"rental_uris":{"android":"levelo://app?vid=9167ea6a-ce66-49ff-859f-3ca7c151003d","ios":"levelo://app?vid=9167ea6a-ce66-49ff-859f-3ca7c151003d"},"vehicle_type_id":"4","last_reported":1748470207,"current_range_meters":8000,"station_id":"ce4bhn12rcd13ifvqgpg","pricing_plan_id":"cebpf4jnsgd1na2vs0mg"},{"bike_id":"44a04aac-0228-4a88-b1c4-62daa67746f4","system_id":"levelo_inurba_marseille","lat":43.30375,"lon":5.42494,"is_reserved":false,"is_disabled":false,"rental_uris":{"android":"levelo://app?vid=44a04aac-0228-4a88-b1c4-62daa67746f4","ios":"levelo://app?vid=44a04aac-0228-4a88-b1c4-62daa67746f4"},"vehicle_type_id":"4","last_reported":1748470207,"current_range_meters":8000,"station_id":"ce4bhoh2rcd13ifvqh6g","pricing_plan_id":"cebpf4jnsgd1na2vs0mg"},{"bike_id":"5ae6a790-62ab-42ea-baed-eafc474ab230","system_id":"levelo_inurba_marseille","lat":43.28442,"lon":5.37532,"is_reserved":false,"is_disabled":false,"rental_uris":{"android":"levelo://app?vid=5ae6a790-62ab-42ea-baed-eafc474ab230","ios":"levelo://app?vid=5ae6a790-62ab-42ea-baed-eafc474ab230"},"vehicle_type_id":"4","last_reported":1748470207,"current_range_meters":8400,"station_id":"","pricing_plan_id":"cebpf4jnsgd1na2vs0mg"},{"bike_id":"b7a33bbb-6066-48e1-b85c-2222ee8ba61d","system_id":"levelo_inurba_marseille","lat":43.29731,"lon":5.37698,"is_reserved":false,"is_disabled":false,"rental_uris":{"android":"levelo://app?vid=b7a33bbb-6066-48e1-b85c-2222ee8ba61d","ios":"levelo://app?vid=b7a33bbb-6066-48e1-b85c-2222ee8ba61d"},"vehicle_type_id":"4","last_reported":1748470207,"current_range_meters":8400,"station_id":"ce4bgkh2rcd13ifvqbl0","pricing_plan_id":"cebpf4jnsgd1na2vs0mg"},{"bike_id":"777c1035-5b28-4724-85d6-d5b6653db66e","system_id":"levelo_inurba_marseille","lat":43.29412,"lon":5.38605,"is_reserved":false,"is_disabled":false,"rental_uris":{"android":"levelo://app?vid=777c1035-5b28-4724-85d6-d5b6653db66e","ios":"levelo://app?vid=777c1035-5b28-4724-85d6-d5b6653db66e"},"vehicle_type_id":"4","last_reported":1748470207,"current_range_meters":8400,"station_id":"ce4bh2h2rcd13ifvqdh0","pricing_plan_id":"cebpf4jnsgd1na2vs0mg"},{"bike_id":"df8ccc15-7280-4ebc-92f9-f3f47b172164","system_id":"levelo_inurba_marseille","lat":43.29888,"lon":5.38891,"is_reserved":false,"is_disabled":false,"rental_uris":{"android":"levelo://app?vid=df8ccc15-7280-4ebc-92f9-f3f47b172164","ios":"levelo://app?vid=df8ccc15-7280-4ebc-92f9-f3f47b172164"},"vehicle_type_id":"4","last_reported":1748470207,"current_range_meters":8400,"station_id":"ce4bh392rcd13ifvqdl0","pricing_plan_id":"cebpf4jnsgd1na2vs0mg"},{"bike_id":"74249071-63db-4f03-b5e8-a7c6d462fbc3","system_id":"levelo_inurba_marseille","lat":43.29031,"lon":5.3865,"is_reserved":false,"is_disabled":false,"rental_uris":{"android":"levelo://app?vid=74249071-63db-4f03-b5e8-a7c6d462fbc3","ios":"levelo://app?vid=74249071-63db-4f03-b5e8-a7c6d462fbc3"},"vehicle_type_id":"4","last_reported":1748470207,"current_range_meters":8400,"station_id":"ce4bh4p2rcd13ifvqe0g","pricing_plan_id":"cebpf4jnsgd1na2vs0mg"},{"bike_id":"44c03c77-874f-4b10-90cf-3825840aaba8","system_id":"levelo_inurba_marseille","lat":43.29261,"lon":5.38452,"is_reserved":false,"is_disabled":false,"rental_uris":{"android":"levelo://app?vid=44c03c77-874f-4b10-90cf-3825840aaba8","ios":"levelo://app?vid=44c03c77-874f-4b10-90cf-3825840aaba8"},"vehicle_type_id":"4","last_reported":1748470207,"current_range_meters":8400,"station_id":"ce4bh692rcd13ifvqea0","pricing_plan_id":"cebpf4jnsgd1na2vs0mg"},{"bike_id":"deeabfb3-f2a1-4dea-8a93-e9a060871ccd","system_id":"levelo_inurba_marseille","lat":43.28953,"lon":5.36388,"is_reserved":false,"is_disabled":false,"rental_uris":{"android":"levelo://app?vid=deeabfb3-f2a1-4dea-8a93-e9a060871ccd","ios":"levelo://app?vid=deeabfb3-f2a1-4dea-8a93-e9a060871ccd"},"vehicle_type_id":"4","last_reported":1748470207,"current_range_meters":8400,"station_id":"ce4bhc92rcd13ifvqetg","pricing_plan_id":"cebpf4jnsgd1na2vs0mg"},{"bike_id":"8f873e24-264b-446b-82f7-9634ff6df46c","system_id":"levelo_inurba_marseille","lat":43.275672,"lon":5.384033,"is_reserved":false,"is_disabled":false,"rental_uris":{"android":"levelo://app?vid=8f873e24-264b-446b-82f7-9634ff6df46c","ios":"levelo://app?vid=8f873e24-264b-446b-82f7-9634ff6df46c"},"vehicle_type_id":"4","last_reported":1748470207,"current_range_meters":8400,"station_id":"ce4bhh92rcd13ifvqfi0","pricing_plan_id":"cebpf4jnsgd1na2vs0mg"},{"bike_id":"c2695326-f3eb-4763-9eb1-bd6f2d75705f","system_id":"levelo_inurba_marseille","lat":43.25124,"lon":5.40319,"is_reserved":false,"is_disabled":false,"rental_uris":{"android":"levelo://app?vid=c2695326-f3eb-4763-9eb1-bd6f2d75705f","ios":"levelo://app?vid=c2695326-f3eb-4763-9eb1-bd6f2d75705f"},"vehicle_type_id":"4","last_reported":1748470207,"current_range_meters":8400,"station_id":"ce4bhlh2rcd13ifvqgig","pricing_plan_id":"cebpf4jnsgd1na2vs0mg"},{"bike_id":"b6194222-a80b-43bc-b765-fba2143e9c5c","system_id":"levelo_inurba_marseille","lat":43.23183,"lon":5.35556,"is_reserved":false,"is_disabled":false,"rental_uris":{"android":"levelo://app?vid=b6194222-a80b-43bc-b765-fba2143e9c5c","ios":"levelo://app?vid=b6194222-a80b-43bc-b765-fba2143e9c5c"},"vehicle_type_id":"4","last_reported":1748470207,"current_range_meters":8400,"station_id":"ce4bhu92rcd13ifvqi70","pricing_plan_id":"cebpf4jnsgd1na2vs0mg"},{"bike_id":"07a1eddd-644e-4ba6-a9fd-ca2a7be32f04","system_id":"levelo_inurba_marseille","lat":43.28717,"lon":5.36085,"is_reserved":false,"is_disabled":false,"rental_uris":{"android":"levelo://app?vid=07a1eddd-644e-4ba6-a9fd-ca2a7be32f04","ios":"levelo://app?vid=07a1eddd-644e-4ba6-a9fd-ca2a7be32f04"},"vehicle_type_id":"4","last_reported":1748470207,"current_range_meters":8400,"station_id":"cki0cbj6b192h4jlfktg","pricing_plan_id":"cebpf4jnsgd1na2vs0mg"},{"bike_id":"6d7cfdcd-f061-4eee-b4e5-78d9b6729328","system_id":"levelo_inurba_marseille","lat":43.329993,"lon":5.438544,"is_reserved":false,"is_disabled":false,"rental_uris":{"android":"levelo://app?vid=6d7cfdcd-f061-4eee-b4e5-78d9b6729328","ios":"levelo://app?vid=6d7cfdcd-f061-4eee-b4e5-78d9b6729328"},"vehicle_type_id":"4","last_reported":1748470207,"current_range_meters":8800,"station_id":"","pricing_plan_id":"cebpf4jnsgd1na2vs0mg"},{"bike_id":"a09d9f3d-435b-42a4-b533-6b0196c08dd6","system_id":"levelo_inurba_marseille","lat":43.30891,"lon":5.39652,"is_reserved":false,"is_disabled":false,"rental_uris":{"android":"levelo://app?vid=a09d9f3d-435b-42a4-b533-6b0196c08dd6","ios":"levelo://app?vid=a09d9f3d-435b-42a4-b533-6b0196c08dd6"},"vehicle_type_id":"4","last_reported":1748470207,"current_range_meters":8800,"station_id":"ce4bh012rcd13ifvqcv0","pricing_plan_id":"cebpf4jnsgd1na2vs0mg"},{"bike_id":"c14734d7-9d32-4b6a-9101-7cee78d55328","system_id":"levelo_inurba_marseille","lat":43.29881,"lon":5.39732,"is_reserved":false,"is_disabled":false,"rental_uris":{"android":"levelo://app?vid=c14734d7-9d32-4b6a-9101-7cee78d55328","ios":"levelo://app?vid=c14734d7-9d32-4b6a-9101-7cee78d55328"},"vehicle_type_id":"4","last_reported":1748470207,"current_range_meters":8800,"station_id":"ce4bh0h2rcd13ifvqd50","pricing_plan_id":"cebpf4jnsgd1na2vs0mg"},{"bike_id":"2b4cf0b8-d941-4c6f-9210-dd364701f124","system_id":"levelo_inurba_marseille","lat":43.29207,"lon":5.3934,"is_reserved":false,"is_disabled":false,"rental_uris":{"android":"levelo://app?vid=2b4cf0b8-d941-4c6f-9210-dd364701f124","ios":"levelo://app?vid=2b4cf0b8-d941-4c6f-9210-dd364701f124"},"vehicle_type_id":"4","last_reported":1748470207,"current_range_meters":8800,"station_id":"ce4bh192rcd13ifvqdd0","pricing_plan_id":"cebpf4jnsgd1na2vs0mg"},{"bike_id":"eefe570c-430c-4e8e-bd16-4851cb8f2242","system_id":"levelo_inurba_marseille","lat":43.289097,"lon":5.384136,"is_reserved":false,"is_disabled":false,"rental_uris":{"android":"levelo://app?vid=eefe570c-430c-4e8e-bd16-4851cb8f2242","ios":"levelo://app?vid=eefe570c-430c-4e8e-bd16-4851cb8f2242"},"vehicle_type_id":"4","last_reported":1748470207,"current_range_meters":8800,"station_id":"ce4bh612rcd13ifvqe6g","pricing_plan_id":"cebpf4jnsgd1na2vs0mg"},{"bike_id":"51136395-37d5-466a-97a7-ca61939c67e7","system_id":"levelo_inurba_marseille","lat":43.24389,"lon":5.37074,"is_reserved":false,"is_disabled":false,"rental_uris":{"android":"levelo://app?vid=51136395-37d5-466a-97a7-ca61939c67e7","ios":"levelo://app?vid=51136395-37d5-466a-97a7-ca61939c67e7"},"vehicle_type_id":"4","last_reported":1748470207,"current_range_meters":8800,"station_id":"ce4bhhh2rcd13ifvqfk0","pricing_plan_id":"cebpf4jnsgd1na2vs0mg"},{"bike_id":"9b5dd5f2-1172-4cfd-a154-89a9206947c6","system_id":"levelo_inurba_marseille","lat":43.33609,"lon":5.41037,"is_reserved":false,"is_disabled":false,"rental_uris":{"android":"levelo://app?vid=9b5dd5f2-1172-4cfd-a154-89a9206947c6","ios":"levelo://app?vid=9b5dd5f2-1172-4cfd-a154-89a9206947c6"},"vehicle_type_id":"4","last_reported":1748470207,"current_range_meters":8800,"station_id":"ce4bhqh2rcd13ifvqhmg","pricing_plan_id":"cebpf4jnsgd1na2vs0mg"},{"bike_id":"be4b293e-8744-4637-8ca2-a3e9032e9cec","system_id":"levelo_inurba_marseille","lat":43.22921,"lon":5.35377,"is_reserved":false,"is_disabled":false,"rental_uris":{"android":"levelo://app?vid=be4b293e-8744-4637-8ca2-a3e9032e9cec","ios":"levelo://app?vid=be4b293e-8744-4637-8ca2-a3e9032e9cec"},"vehicle_type_id":"4","last_reported":1748470207,"current_range_meters":8800,"station_id":"cpo3532slgdg3j2ikp40","pricing_plan_id":"cebpf4jnsgd1na2vs0mg"},{"bike_id":"4e9c0d33-96b9-4025-b4e5-c57900c7a815","system_id":"levelo_inurba_marseille","lat":43.28225,"lon":5.39064,"is_reserved":false,"is_disabled":false,"rental_uris":{"android":"levelo://app?vid=4e9c0d33-96b9-4025-b4e5-c57900c7a815","ios":"levelo://app?vid=4e9c0d33-96b9-4025-b4e5-c57900c7a815"},"vehicle_type_id":"4","last_reported":1748470207,"current_range_meters":9200,"station_id":"","pricing_plan_id":"cebpf4jnsgd1na2vs0mg"},{"bike_id":"16578a9c-c460-4d38-be25-a20250881a73","system_id":"levelo_inurba_marseille","lat":43.32228,"lon":5.38418,"is_reserved":false,"is_disabled":false,"rental_uris":{"android":"levelo://app?vid=16578a9c-c460-4d38-be25-a20250881a73","ios":"levelo://app?vid=16578a9c-c460-4d38-be25-a20250881a73"},"vehicle_type_id":"4","last_reported":1748470207,"current_range_meters":9200,"station_id":"","pricing_plan_id":"cebpf4jnsgd1na2vs0mg"},{"bike_id":"3c68f385-ffba-4d15-b971-4641effeeac9","system_id":"levelo_inurba_marseille","lat":43.28229,"lon":5.39078,"is_reserved":false,"is_disabled":false,"rental_uris":{"android":"levelo://app?vid=3c68f385-ffba-4d15-b971-4641effeeac9","ios":"levelo://app?vid=3c68f385-ffba-4d15-b971-4641effeeac9"},"vehicle_type_id":"4","last_reported":1748470207,"current_range_meters":9200,"station_id":"","pricing_plan_id":"cebpf4jnsgd1na2vs0mg"},{"bike_id":"4dd763bd-b2de-4f7e-98ae-6afd9152310c","system_id":"levelo_inurba_marseille","lat":43.30097,"lon":5.39098,"is_reserved":false,"is_disabled":false,"rental_uris":{"android":"levelo://app?vid=4dd763bd-b2de-4f7e-98ae-6afd9152310c","ios":"levelo://app?vid=4dd763bd-b2de-4f7e-98ae-6afd9152310c"},"vehicle_type_id":"4","last_reported":1748470207,"current_range_meters":9200,"station_id":"ce4bh192rcd13ifvqdb0","pricing_plan_id":"cebpf4jnsgd1na2vs0mg"},{"bike_id":"39237a4d-1869-4c40-896a-ab5c39731355","system_id":"levelo_inurba_marseille","lat":43.28082,"lon":5.39657,"is_reserved":false,"is_disabled":false,"rental_uris":{"android":"levelo://app?vid=39237a4d-1869-4c40-896a-ab5c39731355","ios":"levelo://app?vid=39237a4d-1869-4c40-896a-ab5c39731355"},"vehicle_type_id":"4","last_reported":1748470207,"current_range_meters":9200,"station_id":"ce4bho12rcd13ifvqh2g","pricing_plan_id":"cebpf4jnsgd1na2vs0mg"},{"bike_id":"ce7b18e4-7948-40ae-b647-c69f45870dbb","system_id":"levelo_inurba_marseille","lat":43.3089,"lon":5.40252,"is_reserved":false,"is_disabled":false,"rental_uris":{"android":"levelo://app?vid=ce7b18e4-7948-40ae-b647-c69f45870dbb","ios":"levelo://app?vid=ce7b18e4-7948-40ae-b647-c69f45870dbb"},"vehicle_type_id":"4","last_reported":1748470207,"current_range_meters":9600,"station_id":"","pricing_plan_id":"cebpf4jnsgd1na2vs0mg"},{"bike_id":"30c624de-a5e5-4c9c-8b95-e6369377f406","system_id":"levelo_inurba_marseille","lat":43.31074,"lon":5.38363,"is_reserved":false,"is_disabled":false,"rental_uris":{"android":"levelo://app?vid=30c624de-a5e5-4c9c-8b95-e6369377f406","ios":"levelo://app?vid=30c624de-a5e5-4c9c-8b95-e6369377f406"},"vehicle_type_id":"4","last_reported":1748470207,"current_range_meters":9600,"station_id":"ce4bgv92rcd13ifvqcr0","pricing_plan_id":"cebpf4jnsgd1na2vs0mg"},{"bike_id":"74198e31-5a38-4bf6-8ca9-d01d013dbe2c","system_id":"levelo_inurba_marseille","lat":43.29872,"lon":5.39721,"is_reserved":false,"is_disabled":false,"rental_uris":{"android":"levelo://app?vid=74198e31-5a38-4bf6-8ca9-d01d013dbe2c","ios":"levelo://app?vid=74198e31-5a38-4bf6-8ca9-d01d013dbe2c"},"vehicle_type_id":"4","last_reported":1748470207,"current_range_meters":9600,"station_id":"ce4bh0h2rcd13ifvqd50","pricing_plan_id":"cebpf4jnsgd1na2vs0mg"},{"bike_id":"26669b7c-a985-49bc-b9d8-e031c6d333e2","system_id":"levelo_inurba_marseille","lat":43.29865,"lon":5.39725,"is_reserved":false,"is_disabled":false,"rental_uris":{"android":"levelo://app?vid=26669b7c-a985-49bc-b9d8-e031c6d333e2","ios":"levelo://app?vid=26669b7c-a985-49bc-b9d8-e031c6d333e2"},"vehicle_type_id":"4","last_reported":1748470207,"current_range_meters":9600,"station_id":"ce4bh0h2rcd13ifvqd50","pricing_plan_id":"cebpf4jnsgd1na2vs0mg"},{"bike_id":"7015be31-c290-47fb-b078-6d0198301cb5","system_id":"levelo_inurba_marseille","lat":43.28851,"lon":5.3932,"is_reserved":false,"is_disabled":false,"rental_uris":{"android":"levelo://app?vid=7015be31-c290-47fb-b078-6d0198301cb5","ios":"levelo://app?vid=7015be31-c290-47fb-b078-6d0198301cb5"},"vehicle_type_id":"4","last_reported":1748470207,"current_range_meters":9600,"station_id":"ce4bh2p2rcd13ifvqdi0","pricing_plan_id":"cebpf4jnsgd1na2vs0mg"},{"bike_id":"5971a270-a06b-40fc-9a6d-21ba6c0b20ff","system_id":"levelo_inurba_marseille","lat":43.28403,"lon":5.37511,"is_reserved":false,"is_disabled":false,"rental_uris":{"android":"levelo://app?vid=5971a270-a06b-40fc-9a6d-21ba6c0b20ff","ios":"levelo://app?vid=5971a270-a06b-40fc-9a6d-21ba6c0b20ff"},"vehicle_type_id":"4","last_reported":1748470207,"current_range_meters":9600,"station_id":"ce4bh412rcd13ifvqds0","pricing_plan_id":"cebpf4jnsgd1na2vs0mg"},{"bike_id":"5b40c94a-678d-404a-8aa9-ae2cd0712be5","system_id":"levelo_inurba_marseille","lat":43.26678,"lon":5.38269,"is_reserved":false,"is_disabled":false,"rental_uris":{"android":"levelo://app?vid=5b40c94a-678d-404a-8aa9-ae2cd0712be5","ios":"levelo://app?vid=5b40c94a-678d-404a-8aa9-ae2cd0712be5"},"vehicle_type_id":"4","last_reported":1748470207,"current_range_meters":9600,"station_id":"ce4bhg92rcd13ifvqf90","pricing_plan_id":"cebpf4jnsgd1na2vs0mg"},{"bike_id":"0dde7803-e4b4-44c8-98fe-68ad6fa3cde1","system_id":"levelo_inurba_marseille","lat":43.31703,"lon":5.38902,"is_reserved":false,"is_disabled":false,"rental_uris":{"android":"levelo://app?vid=0dde7803-e4b4-44c8-98fe-68ad6fa3cde1","ios":"levelo://app?vid=0dde7803-e4b4-44c8-98fe-68ad6fa3cde1"},"vehicle_type_id":"4","last_reported":1748470207,"current_range_meters":10000,"station_id":"","pricing_plan_id":"cebpf4jnsgd1na2vs0mg"},{"bike_id":"2f650bb1-6027-4191-83d2-16315820a0a7","system_id":"levelo_inurba_marseille","lat":43.29998,"lon":5.37349,"is_reserved":false,"is_disabled":false,"rental_uris":{"android":"levelo://app?vid=2f650bb1-6027-4191-83d2-16315820a0a7","ios":"levelo://app?vid=2f650bb1-6027-4191-83d2-16315820a0a7"},"vehicle_type_id":"4","last_reported":1748470207,"current_range_meters":10000,"station_id":"","pricing_plan_id":"cebpf4jnsgd1na2vs0mg"},{"bike_id":"c84f8025-f392-4efb-8662-faa8b7ebbd21","system_id":"levelo_inurba_marseille","lat":43.295066,"lon":5.374448,"is_reserved":false,"is_disabled":false,"rental_uris":{"android":"levelo://app?vid=c84f8025-f392-4efb-8662-faa8b7ebbd21","ios":"levelo://app?vid=c84f8025-f392-4efb-8662-faa8b7ebbd21"},"vehicle_type_id":"4","last_reported":1748470207,"current_range_meters":10000,"station_id":"ce4bgh92rcd13ifvqb50","pricing_plan_id":"cebpf4jnsgd1na2vs0mg"},{"bike_id":"5f20d45f-d2e9-4d77-8040-0742797294b7","system_id":"levelo_inurba_marseille","lat":43.298337,"lon":5.362657,"is_reserved":false,"is_disabled":false,"rental_uris":{"android":"levelo://app?vid=5f20d45f-d2e9-4d77-8040-0742797294b7","ios":"levelo://app?vid=5f20d45f-d2e9-4d77-8040-0742797294b7"},"vehicle_type_id":"4","last_reported":1748470207,"current_range_meters":10000,"station_id":"ce4bgpp2rcd13ifvqc3g","pricing_plan_id":"cebpf4jnsgd1na2vs0mg"},{"bike_id":"898da01d-629a-4b72-bd02-cbf9a6bf3098","system_id":"levelo_inurba_marseille","lat":43.29255,"lon":5.40896,"is_reserved":false,"is_disabled":false,"rental_uris":{"android":"levelo://app?vid=898da01d-629a-4b72-bd02-cbf9a6bf3098","ios":"levelo://app?vid=898da01d-629a-4b72-bd02-cbf9a6bf3098"},"vehicle_type_id":"4","last_reported":1748470207,"current_range_meters":10000,"station_id":"ce4bh192rcd13ifvqdc0","pricing_plan_id":"cebpf4jnsgd1na2vs0mg"},{"bike_id":"20795f93-dfcb-4d17-a396-e3027ac3fe8f","system_id":"levelo_inurba_marseille","lat":43.28701,"lon":5.37414,"is_reserved":false,"is_disabled":false,"rental_uris":{"android":"levelo://app?vid=20795f93-dfcb-4d17-a396-e3027ac3fe8f","ios":"levelo://app?vid=20795f93-dfcb-4d17-a396-e3027ac3fe8f"},"vehicle_type_id":"4","last_reported":1748470207,"current_range_meters":10000,"station_id":"ce4bh3p2rcd13ifvqdq0","pricing_plan_id":"cebpf4jnsgd1na2vs0mg"},{"bike_id":"6829a806-ab7a-47ae-8b36-f6c09a461789","system_id":"levelo_inurba_marseille","lat":43.283485,"lon":5.381014,"is_reserved":false,"is_disabled":false,"rental_uris":{"android":"levelo://app?vid=6829a806-ab7a-47ae-8b36-f6c09a461789","ios":"levelo://app?vid=6829a806-ab7a-47ae-8b36-f6c09a461789"},"vehicle_type_id":"4","last_reported":1748470207,"current_range_meters":10000,"station_id":"ce4bh412rcd13ifvqdr0","pricing_plan_id":"cebpf4jnsgd1na2vs0mg"},{"bike_id":"8b3f6b67-4a99-4d17-a934-8c447cefc7fa","system_id":"levelo_inurba_marseille","lat":43.281007,"lon":5.373017,"is_reserved":false,"is_disabled":false,"rental_uris":{"android":"levelo://app?vid=8b3f6b67-4a99-4d17-a934-8c447cefc7fa","ios":"levelo://app?vid=8b3f6b67-4a99-4d17-a934-8c447cefc7fa"},"vehicle_type_id":"4","last_reported":1748470207,"current_range_meters":10000,"station_id":"ce4bh412rcd13ifvqds0","pricing_plan_id":"cebpf4jnsgd1na2vs0mg"},{"bike_id":"247d9efb-32a4-4fb4-b454-4c5933d33414","system_id":"levelo_inurba_marseille","lat":43.25862,"lon":5.39895,"is_reserved":false,"is_disabled":false,"rental_uris":{"android":"levelo://app?vid=247d9efb-32a4-4fb4-b454-4c5933d33414","ios":"levelo://app?vid=247d9efb-32a4-4fb4-b454-4c5933d33414"},"vehicle_type_id":"4","last_reported":1748470207,"current_range_meters":10000,"station_id":"ce4bhl92rcd13ifvqghg","pricing_plan_id":"cebpf4jnsgd1na2vs0mg"},{"bike_id":"5bda20a1-4642-4989-8aa9-61ce114b94f8","system_id":"levelo_inurba_marseille","lat":43.241788,"lon":5.397254,"is_reserved":false,"is_disabled":false,"rental_uris":{"android":"levelo://app?vid=5bda20a1-4642-4989-8aa9-61ce114b94f8","ios":"levelo://app?vid=5bda20a1-4642-4989-8aa9-61ce114b94f8"},"vehicle_type_id":"4","last_reported":1748470207,"current_range_meters":10000,"station_id":"ce4bhn12rcd13ifvqgpg","pricing_plan_id":"cebpf4jnsgd1na2vs0mg"},{"bike_id":"5eedf8cd-6009-48a0-ab67-8011518e1e5b","system_id":"levelo_inurba_marseille","lat":43.27812,"lon":5.40703,"is_reserved":false,"is_disabled":false,"rental_uris":{"android":"levelo://app?vid=5eedf8cd-6009-48a0-ab67-8011518e1e5b","ios":"levelo://app?vid=5eedf8cd-6009-48a0-ab67-8011518e1e5b"},"vehicle_type_id":"4","last_reported":1748470207,"current_range_meters":10000,"station_id":"ce4bhnh2rcd13ifvqgtg","pricing_plan_id":"cebpf4jnsgd1na2vs0mg"},{"bike_id":"3b3f20fb-be76-498a-a9f5-ae1aa0fc1802","system_id":"levelo_inurba_marseille","lat":43.27993,"lon":5.4166,"is_reserved":false,"is_disabled":false,"rental_uris":{"android":"levelo://app?vid=3b3f20fb-be76-498a-a9f5-ae1aa0fc1802","ios":"levelo://app?vid=3b3f20fb-be76-498a-a9f5-ae1aa0fc1802"},"vehicle_type_id":"4","last_reported":1748470207,"current_range_meters":10000,"station_id":"ce4bho12rcd13ifvqh1g","pricing_plan_id":"cebpf4jnsgd1na2vs0mg"},{"bike_id":"16f8c46e-dbc6-4ab1-941f-3d93ad546819","system_id":"levelo_inurba_marseille","lat":43.32286,"lon":5.38266,"is_reserved":false,"is_disabled":false,"rental_uris":{"android":"levelo://app?vid=16f8c46e-dbc6-4ab1-941f-3d93ad546819","ios":"levelo://app?vid=16f8c46e-dbc6-4ab1-941f-3d93ad546819"},"vehicle_type_id":"4","last_reported":1748470207,"current_range_meters":10000,"station_id":"ce4bhr12rcd13ifvqhqg","pricing_plan_id":"cebpf4jnsgd1na2vs0mg"},{"bike_id":"e96e6ad8-66a5-4a74-9b8a-04311f0e6684","system_id":"levelo_inurba_marseille","lat":43.33089,"lon":5.38935,"is_reserved":false,"is_disabled":false,"rental_uris":{"android":"levelo://app?vid=e96e6ad8-66a5-4a74-9b8a-04311f0e6684","ios":"levelo://app?vid=e96e6ad8-66a5-4a74-9b8a-04311f0e6684"},"vehicle_type_id":"4","last_reported":1748470207,"current_range_meters":10800,"station_id":"","pricing_plan_id":"cebpf4jnsgd1na2vs0mg"},{"bike_id":"f3e4f3f3-c911-4be0-9d64-d265a033aedc","system_id":"levelo_inurba_marseille","lat":43.29601,"lon":5.38104,"is_reserved":false,"is_disabled":false,"rental_uris":{"android":"levelo://app?vid=f3e4f3f3-c911-4be0-9d64-d265a033aedc","ios":"levelo://app?vid=f3e4f3f3-c911-4be0-9d64-d265a033aedc"},"vehicle_type_id":"4","last_reported":1748470207,"current_range_meters":10800,"station_id":"ce4bgl12rcd13ifvqbo0","pricing_plan_id":"cebpf4jnsgd1na2vs0mg"},{"bike_id":"7a414216-b92f-4893-8a09-1474cd45f1b3","system_id":"levelo_inurba_marseille","lat":43.31222,"lon":5.3687,"is_reserved":false,"is_disabled":false,"rental_uris":{"android":"levelo://app?vid=7a414216-b92f-4893-8a09-1474cd45f1b3","ios":"levelo://app?vid=7a414216-b92f-4893-8a09-1474cd45f1b3"},"vehicle_type_id":"4","last_reported":1748470207,"current_range_meters":10800,"station_id":"ce4bgl92rcd13ifvqbq0","pricing_plan_id":"cebpf4jnsgd1na2vs0mg"},{"bike_id":"e2695898-3d8e-445c-b107-83d988a84c50","system_id":"levelo_inurba_marseille","lat":43.28036,"lon":5.36956,"is_reserved":false,"is_disabled":false,"rental_uris":{"android":"levelo://app?vid=e2695898-3d8e-445c-b107-83d988a84c50","ios":"levelo://app?vid=e2695898-3d8e-445c-b107-83d988a84c50"},"vehicle_type_id":"4","last_reported":1748470207,"current_range_meters":10800,"station_id":"ce4bha12rcd13ifvqef0","pricing_plan_id":"cebpf4jnsgd1na2vs0mg"},{"bike_id":"4c5086a1-75d0-4d75-b775-7ecc5efd28d9","system_id":"levelo_inurba_marseille","lat":43.28677,"lon":5.36334,"is_reserved":false,"is_disabled":false,"rental_uris":{"android":"levelo://app?vid=4c5086a1-75d0-4d75-b775-7ecc5efd28d9","ios":"levelo://app?vid=4c5086a1-75d0-4d75-b775-7ecc5efd28d9"},"vehicle_type_id":"4","last_reported":1748470207,"current_range_meters":10800,"station_id":"ce4bhah2rcd13ifvqej0","pricing_plan_id":"cebpf4jnsgd1na2vs0mg"},{"bike_id":"31c3b208-56cd-46d6-99c4-93414088c6fa","system_id":"levelo_inurba_marseille","lat":43.28152,"lon":5.42643,"is_reserved":false,"is_disabled":false,"rental_uris":{"android":"levelo://app?vid=31c3b208-56cd-46d6-99c4-93414088c6fa","ios":"levelo://app?vid=31c3b208-56cd-46d6-99c4-93414088c6fa"},"vehicle_type_id":"4","last_reported":1748470207,"current_range_meters":10800,"station_id":"ce4bhnh2rcd13ifvqgug","pricing_plan_id":"cebpf4jnsgd1na2vs0mg"},{"bike_id":"1839a72b-1f19-439f-ba17-e7974ed596b4","system_id":"levelo_inurba_marseille","lat":43.32129,"lon":5.37485,"is_reserved":false,"is_disabled":false,"rental_uris":{"android":"levelo://app?vid=1839a72b-1f19-439f-ba17-e7974ed596b4","ios":"levelo://app?vid=1839a72b-1f19-439f-ba17-e7974ed596b4"},"vehicle_type_id":"4","last_reported":1748470207,"current_range_meters":11200,"station_id":"","pricing_plan_id":"cebpf4jnsgd1na2vs0mg"},{"bike_id":"311c0577-bc31-40ec-8254-c6c9677162f1","system_id":"levelo_inurba_marseille","lat":43.28415,"lon":5.37531,"is_reserved":false,"is_disabled":false,"rental_uris":{"android":"levelo://app?vid=311c0577-bc31-40ec-8254-c6c9677162f1","ios":"levelo://app?vid=311c0577-bc31-40ec-8254-c6c9677162f1"},"vehicle_type_id":"4","last_reported":1748470207,"current_range_meters":11200,"station_id":"ce4bh412rcd13ifvqds0","pricing_plan_id":"cebpf4jnsgd1na2vs0mg"},{"bike_id":"db46cd93-68ce-4316-819a-93bc3d72015d","system_id":"levelo_inurba_marseille","lat":43.248041,"lon":5.374531,"is_reserved":false,"is_disabled":false,"rental_uris":{"android":"levelo://app?vid=db46cd93-68ce-4316-819a-93bc3d72015d","ios":"levelo://app?vid=db46cd93-68ce-4316-819a-93bc3d72015d"},"vehicle_type_id":"4","last_reported":1748470207,"current_range_meters":11200,"station_id":"ce4bhgh2rcd13ifvqfb0","pricing_plan_id":"cebpf4jnsgd1na2vs0mg"},{"bike_id":"87bbad0c-8c28-481d-9de5-144650e2492b","system_id":"levelo_inurba_marseille","lat":43.24805,"lon":5.37463,"is_reserved":false,"is_disabled":false,"rental_uris":{"android":"levelo://app?vid=87bbad0c-8c28-481d-9de5-144650e2492b","ios":"levelo://app?vid=87bbad0c-8c28-481d-9de5-144650e2492b"},"vehicle_type_id":"4","last_reported":1748470207,"current_range_meters":11200,"station_id":"ce4bhgh2rcd13ifvqfb0","pricing_plan_id":"cebpf4jnsgd1na2vs0mg"},{"bike_id":"227c140e-986f-47f3-b7f7-f50deb393074","system_id":"levelo_inurba_marseille","lat":43.26209,"lon":5.37442,"is_reserved":false,"is_disabled":false,"rental_uris":{"android":"levelo://app?vid=227c140e-986f-47f3-b7f7-f50deb393074","ios":"levelo://app?vid=227c140e-986f-47f3-b7f7-f50deb393074"},"vehicle_type_id":"4","last_reported":1748470207,"current_range_meters":11200,"station_id":"ce4bhgp2rcd13ifvqfc0","pricing_plan_id":"cebpf4jnsgd1na2vs0mg"},{"bike_id":"84117a33-ee2b-4781-9be6-b1046e63a82a","system_id":"levelo_inurba_marseille","lat":43.3172,"lon":5.42394,"is_reserved":false,"is_disabled":false,"rental_uris":{"android":"levelo://app?vid=84117a33-ee2b-4781-9be6-b1046e63a82a","ios":"levelo://app?vid=84117a33-ee2b-4781-9be6-b1046e63a82a"},"vehicle_type_id":"4","last_reported":1748470207,"current_range_meters":11200,"station_id":"ce4bhp92rcd13ifvqhbg","pricing_plan_id":"cebpf4jnsgd1na2vs0mg"},{"bike_id":"60af92f5-378b-4ca7-965f-8544c59fbbda","system_id":"levelo_inurba_marseille","lat":43.282303,"lon":5.390443,"is_reserved":false,"is_disabled":false,"rental_uris":{"android":"levelo://app?vid=60af92f5-378b-4ca7-965f-8544c59fbbda","ios":"levelo://app?vid=60af92f5-378b-4ca7-965f-8544c59fbbda"},"vehicle_type_id":"4","last_reported":1748470207,"current_range_meters":11600,"station_id":"","pricing_plan_id":"cebpf4jnsgd1na2vs0mg"},{"bike_id":"22771043-09b1-43eb-91e0-5c845144e1e3","system_id":"levelo_inurba_marseille","lat":43.277117,"lon":5.408784,"is_reserved":false,"is_disabled":false,"rental_uris":{"android":"levelo://app?vid=22771043-09b1-43eb-91e0-5c845144e1e3","ios":"levelo://app?vid=22771043-09b1-43eb-91e0-5c845144e1e3"},"vehicle_type_id":"4","last_reported":1748470207,"current_range_meters":11600,"station_id":"","pricing_plan_id":"cebpf4jnsgd1na2vs0mg"},{"bike_id":"3013266d-03ec-4779-8d20-2e5da0a480f7","system_id":"levelo_inurba_marseille","lat":43.31632,"lon":5.38787,"is_reserved":false,"is_disabled":false,"rental_uris":{"android":"levelo://app?vid=3013266d-03ec-4779-8d20-2e5da0a480f7","ios":"levelo://app?vid=3013266d-03ec-4779-8d20-2e5da0a480f7"},"vehicle_type_id":"4","last_reported":1748470207,"current_range_meters":11600,"station_id":"","pricing_plan_id":"cebpf4jnsgd1na2vs0mg"},{"bike_id":"231c9d6e-c63b-4c25-868b-c0939ff68de2","system_id":"levelo_inurba_marseille","lat":43.295398,"lon":5.39411,"is_reserved":false,"is_disabled":false,"rental_uris":{"android":"levelo://app?vid=231c9d6e-c63b-4c25-868b-c0939ff68de2","ios":"levelo://app?vid=231c9d6e-c63b-4c25-868b-c0939ff68de2"},"vehicle_type_id":"4","last_reported":1748470207,"current_range_meters":11600,"station_id":"ce4bh292rcd13ifvqdf0","pricing_plan_id":"cebpf4jnsgd1na2vs0mg"},{"bike_id":"847031ec-c235-4f90-8158-8e4eae043a67","system_id":"levelo_inurba_marseille","lat":43.28933,"lon":5.366353,"is_reserved":false,"is_disabled":false,"rental_uris":{"android":"levelo://app?vid=847031ec-c235-4f90-8158-8e4eae043a67","ios":"levelo://app?vid=847031ec-c235-4f90-8158-8e4eae043a67"},"vehicle_type_id":"4","last_reported":1748470207,"current_range_meters":11600,"station_id":"ce4bhap2rcd13ifvqek0","pricing_plan_id":"cebpf4jnsgd1na2vs0mg"},{"bike_id":"6c86f7ff-ad78-4e49-8658-eecf613c5f27","system_id":"levelo_inurba_marseille","lat":43.25867,"lon":5.39895,"is_reserved":false,"is_disabled":false,"rental_uris":{"android":"levelo://app?vid=6c86f7ff-ad78-4e49-8658-eecf613c5f27","ios":"levelo://app?vid=6c86f7ff-ad78-4e49-8658-eecf613c5f27"},"vehicle_type_id":"4","last_reported":1748470207,"current_range_meters":11600,"station_id":"ce4bhl92rcd13ifvqghg","pricing_plan_id":"cebpf4jnsgd1na2vs0mg"},{"bike_id":"2864c75b-5c31-4f51-804b-e90944a6d524","system_id":"levelo_inurba_marseille","lat":43.25114,"lon":5.40319,"is_reserved":false,"is_disabled":false,"rental_uris":{"android":"levelo://app?vid=2864c75b-5c31-4f51-804b-e90944a6d524","ios":"levelo://app?vid=2864c75b-5c31-4f51-804b-e90944a6d524"},"vehicle_type_id":"4","last_reported":1748470207,"current_range_meters":11600,"station_id":"ce4bhlh2rcd13ifvqgig","pricing_plan_id":"cebpf4jnsgd1na2vs0mg"},{"bike_id":"47f55a1f-8588-4781-bc30-f75474d90e6f","system_id":"levelo_inurba_marseille","lat":43.24172,"lon":5.39717,"is_reserved":false,"is_disabled":false,"rental_uris":{"android":"levelo://app?vid=47f55a1f-8588-4781-bc30-f75474d90e6f","ios":"levelo://app?vid=47f55a1f-8588-4781-bc30-f75474d90e6f"},"vehicle_type_id":"4","last_reported":1748470207,"current_range_meters":11600,"station_id":"ce4bhn12rcd13ifvqgpg","pricing_plan_id":"cebpf4jnsgd1na2vs0mg"},{"bike_id":"a7b28dad-b0e3-4373-84c9-ca1db05de1f6","system_id":"levelo_inurba_marseille","lat":43.29985,"lon":5.38383,"is_reserved":false,"is_disabled":false,"rental_uris":{"android":"levelo://app?vid=a7b28dad-b0e3-4373-84c9-ca1db05de1f6","ios":"levelo://app?vid=a7b28dad-b0e3-4373-84c9-ca1db05de1f6"},"vehicle_type_id":"4","last_reported":1748470207,"current_range_meters":12000,"station_id":"","pricing_plan_id":"cebpf4jnsgd1na2vs0mg"},{"bike_id":"7270ff1a-574f-4ae9-8b4f-de038997e410","system_id":"levelo_inurba_marseille","lat":43.30857,"lon":5.3966,"is_reserved":false,"is_disabled":false,"rental_uris":{"android":"levelo://app?vid=7270ff1a-574f-4ae9-8b4f-de038997e410","ios":"levelo://app?vid=7270ff1a-574f-4ae9-8b4f-de038997e410"},"vehicle_type_id":"4","last_reported":1748470207,"current_range_meters":12000,"station_id":"","pricing_plan_id":"cebpf4jnsgd1na2vs0mg"},{"bike_id":"7b64b9e6-3c9a-49de-ae0e-b49897caef8d","system_id":"levelo_inurba_marseille","lat":43.30879,"lon":5.39654,"is_reserved":false,"is_disabled":false,"rental_uris":{"android":"levelo://app?vid=7b64b9e6-3c9a-49de-ae0e-b49897caef8d","ios":"levelo://app?vid=7b64b9e6-3c9a-49de-ae0e-b49897caef8d"},"vehicle_type_id":"4","last_reported":1748470207,"current_range_meters":12000,"station_id":"ce4bh012rcd13ifvqcv0","pricing_plan_id":"cebpf4jnsgd1na2vs0mg"},{"bike_id":"c8a50c97-f517-4b42-a241-221a52490a3e","system_id":"levelo_inurba_marseille","lat":43.29024,"lon":5.38643,"is_reserved":false,"is_disabled":false,"rental_uris":{"android":"levelo://app?vid=c8a50c97-f517-4b42-a241-221a52490a3e","ios":"levelo://app?vid=c8a50c97-f517-4b42-a241-221a52490a3e"},"vehicle_type_id":"4","last_reported":1748470207,"current_range_meters":12000,"station_id":"ce4bh4p2rcd13ifvqe0g","pricing_plan_id":"cebpf4jnsgd1na2vs0mg"},{"bike_id":"f892b13e-e581-4f88-9846-d9cf553f8640","system_id":"levelo_inurba_marseille","lat":43.2894,"lon":5.36389,"is_reserved":false,"is_disabled":false,"rental_uris":{"android":"levelo://app?vid=f892b13e-e581-4f88-9846-d9cf553f8640","ios":"levelo://app?vid=f892b13e-e581-4f88-9846-d9cf553f8640"},"vehicle_type_id":"4","last_reported":1748470207,"current_range_meters":12000,"station_id":"ce4bhc92rcd13ifvqetg","pricing_plan_id":"cebpf4jnsgd1na2vs0mg"},{"bike_id":"c791b162-f969-4a54-9010-7bbc6e180952","system_id":"levelo_inurba_marseille","lat":43.24805,"lon":5.37456,"is_reserved":false,"is_disabled":false,"rental_uris":{"android":"levelo://app?vid=c791b162-f969-4a54-9010-7bbc6e180952","ios":"levelo://app?vid=c791b162-f969-4a54-9010-7bbc6e180952"},"vehicle_type_id":"4","last_reported":1748470207,"current_range_meters":12000,"station_id":"ce4bhgh2rcd13ifvqfb0","pricing_plan_id":"cebpf4jnsgd1na2vs0mg"},{"bike_id":"25c8e570-5052-40c4-b2f0-e69c7dc4b204","system_id":"levelo_inurba_marseille","lat":43.261957,"lon":5.374413,"is_reserved":false,"is_disabled":false,"rental_uris":{"android":"levelo://app?vid=25c8e570-5052-40c4-b2f0-e69c7dc4b204","ios":"levelo://app?vid=25c8e570-5052-40c4-b2f0-e69c7dc4b204"},"vehicle_type_id":"4","last_reported":1748470207,"current_range_meters":12000,"station_id":"ce4bhgp2rcd13ifvqfc0","pricing_plan_id":"cebpf4jnsgd1na2vs0mg"},{"bike_id":"1f05a494-96b9-47a4-8160-db2c6c734351","system_id":"levelo_inurba_marseille","lat":43.25117,"lon":5.40295,"is_reserved":false,"is_disabled":false,"rental_uris":{"android":"levelo://app?vid=1f05a494-96b9-47a4-8160-db2c6c734351","ios":"levelo://app?vid=1f05a494-96b9-47a4-8160-db2c6c734351"},"vehicle_type_id":"4","last_reported":1748470207,"current_range_meters":12000,"station_id":"ce4bhlh2rcd13ifvqgig","pricing_plan_id":"cebpf4jnsgd1na2vs0mg"},{"bike_id":"cc2536f5-d400-4045-ae04-96109c4d0ea4","system_id":"levelo_inurba_marseille","lat":43.30378,"lon":5.42491,"is_reserved":false,"is_disabled":false,"rental_uris":{"android":"levelo://app?vid=cc2536f5-d400-4045-ae04-96109c4d0ea4","ios":"levelo://app?vid=cc2536f5-d400-4045-ae04-96109c4d0ea4"},"vehicle_type_id":"4","last_reported":1748470207,"current_range_meters":12000,"station_id":"ce4bhoh2rcd13ifvqh6g","pricing_plan_id":"cebpf4jnsgd1na2vs0mg"},{"bike_id":"aadac860-d43c-4062-897b-20d300d16764","system_id":"levelo_inurba_marseille","lat":43.26805,"lon":5.40258,"is_reserved":false,"is_disabled":false,"rental_uris":{"android":"levelo://app?vid=aadac860-d43c-4062-897b-20d300d16764","ios":"levelo://app?vid=aadac860-d43c-4062-897b-20d300d16764"},"vehicle_type_id":"4","last_reported":1748470207,"current_range_meters":12000,"station_id":"ce501612rcd8frsf0b60","pricing_plan_id":"cebpf4jnsgd1na2vs0mg"},{"bike_id":"7b211c25-c9c7-4aa1-a3b7-3a4d91771e16","system_id":"levelo_inurba_marseille","lat":43.25084,"lon":5.39522,"is_reserved":false,"is_disabled":false,"rental_uris":{"android":"levelo://app?vid=7b211c25-c9c7-4aa1-a3b7-3a4d91771e16","ios":"levelo://app?vid=7b211c25-c9c7-4aa1-a3b7-3a4d91771e16"},"vehicle_type_id":"4","last_reported":1748470207,"current_range_meters":12400,"station_id":"","pricing_plan_id":"cebpf4jnsgd1na2vs0mg"},{"bike_id":"50276fe4-732b-4479-9945-a0eb7d2d974f","system_id":"levelo_inurba_marseille","lat":43.29299,"lon":5.3746,"is_reserved":false,"is_disabled":false,"rental_uris":{"android":"levelo://app?vid=50276fe4-732b-4479-9945-a0eb7d2d974f","ios":"levelo://app?vid=50276fe4-732b-4479-9945-a0eb7d2d974f"},"vehicle_type_id":"4","last_reported":1748470207,"current_range_meters":12400,"station_id":"ce4bgi12rcd13ifvqb70","pricing_plan_id":"cebpf4jnsgd1na2vs0mg"},{"bike_id":"cf56ca3a-9667-40b3-b31a-fbe1289b5f3b","system_id":"levelo_inurba_marseille","lat":43.27618,"lon":5.36091,"is_reserved":false,"is_disabled":false,"rental_uris":{"android":"levelo://app?vid=cf56ca3a-9667-40b3-b31a-fbe1289b5f3b","ios":"levelo://app?vid=cf56ca3a-9667-40b3-b31a-fbe1289b5f3b"},"vehicle_type_id":"4","last_reported":1748470207,"current_range_meters":12400,"station_id":"ce4bgj92rcd13ifvqbe0","pricing_plan_id":"cebpf4jnsgd1na2vs0mg"},{"bike_id":"67244c7f-eecd-4514-8dc0-c3b18c7056ff","system_id":"levelo_inurba_marseille","lat":43.28922,"lon":5.38396,"is_reserved":false,"is_disabled":false,"rental_uris":{"android":"levelo://app?vid=67244c7f-eecd-4514-8dc0-c3b18c7056ff","ios":"levelo://app?vid=67244c7f-eecd-4514-8dc0-c3b18c7056ff"},"vehicle_type_id":"4","last_reported":1748470207,"current_range_meters":12400,"station_id":"ce4bh612rcd13ifvqe6g","pricing_plan_id":"cebpf4jnsgd1na2vs0mg"},{"bike_id":"0b3c6073-412c-4928-932e-c191cc6778a6","system_id":"levelo_inurba_marseille","lat":43.2482,"lon":5.37447,"is_reserved":false,"is_disabled":false,"rental_uris":{"android":"levelo://app?vid=0b3c6073-412c-4928-932e-c191cc6778a6","ios":"levelo://app?vid=0b3c6073-412c-4928-932e-c191cc6778a6"},"vehicle_type_id":"4","last_reported":1748470207,"current_range_meters":12400,"station_id":"ce4bhgh2rcd13ifvqfb0","pricing_plan_id":"cebpf4jnsgd1na2vs0mg"},{"bike_id":"60ed8704-5638-4035-bdb4-338a8485c111","system_id":"levelo_inurba_marseille","lat":43.26212,"lon":5.37438,"is_reserved":false,"is_disabled":false,"rental_uris":{"android":"levelo://app?vid=60ed8704-5638-4035-bdb4-338a8485c111","ios":"levelo://app?vid=60ed8704-5638-4035-bdb4-338a8485c111"},"vehicle_type_id":"4","last_reported":1748470207,"current_range_meters":12400,"station_id":"ce4bhgp2rcd13ifvqfc0","pricing_plan_id":"cebpf4jnsgd1na2vs0mg"},{"bike_id":"6aee7286-7c1c-4b5f-a14b-2b7840021176","system_id":"levelo_inurba_marseille","lat":43.271785,"lon":5.409974,"is_reserved":false,"is_disabled":false,"rental_uris":{"android":"levelo://app?vid=6aee7286-7c1c-4b5f-a14b-2b7840021176","ios":"levelo://app?vid=6aee7286-7c1c-4b5f-a14b-2b7840021176"},"vehicle_type_id":"4","last_reported":1748470207,"current_range_meters":12400,"station_id":"ce4bhl12rcd13ifvqgf0","pricing_plan_id":"cebpf4jnsgd1na2vs0mg"},{"bike_id":"2b8cf201-3f6a-4001-9ca8-0b486ebce4e1","system_id":"levelo_inurba_marseille","lat":43.28157,"lon":5.4264,"is_reserved":false,"is_disabled":false,"rental_uris":{"android":"levelo://app?vid=2b8cf201-3f6a-4001-9ca8-0b486ebce4e1","ios":"levelo://app?vid=2b8cf201-3f6a-4001-9ca8-0b486ebce4e1"},"vehicle_type_id":"4","last_reported":1748470207,"current_range_meters":12400,"station_id":"ce4bhnh2rcd13ifvqgug","pricing_plan_id":"cebpf4jnsgd1na2vs0mg"},{"bike_id":"dfab039a-5ae9-4e6c-aa3c-81b4f281139e","system_id":"levelo_inurba_marseille","lat":43.32473,"lon":5.36565,"is_reserved":false,"is_disabled":false,"rental_uris":{"android":"levelo://app?vid=dfab039a-5ae9-4e6c-aa3c-81b4f281139e","ios":"levelo://app?vid=dfab039a-5ae9-4e6c-aa3c-81b4f281139e"},"vehicle_type_id":"4","last_reported":1748470207,"current_range_meters":12400,"station_id":"ce4bhs12rcd13ifvqhvg","pricing_plan_id":"cebpf4jnsgd1na2vs0mg"},{"bike_id":"c7b8b51e-c853-4352-9193-32615af234ef","system_id":"levelo_inurba_marseille","lat":43.26199,"lon":5.42059,"is_reserved":false,"is_disabled":false,"rental_uris":{"android":"levelo://app?vid=c7b8b51e-c853-4352-9193-32615af234ef","ios":"levelo://app?vid=c7b8b51e-c853-4352-9193-32615af234ef"},"vehicle_type_id":"4","last_reported":1748470207,"current_range_meters":12800,"station_id":"","pricing_plan_id":"cebpf4jnsgd1na2vs0mg"},{"bike_id":"ab18719d-c5e7-4613-9c7e-1fe47406cb4b","system_id":"levelo_inurba_marseille","lat":43.30931,"lon":5.40144,"is_reserved":false,"is_disabled":false,"rental_uris":{"android":"levelo://app?vid=ab18719d-c5e7-4613-9c7e-1fe47406cb4b","ios":"levelo://app?vid=ab18719d-c5e7-4613-9c7e-1fe47406cb4b"},"vehicle_type_id":"4","last_reported":1748470207,"current_range_meters":12800,"station_id":"ce4bgvp2rcd13ifvqct0","pricing_plan_id":"cebpf4jnsgd1na2vs0mg"},{"bike_id":"82fa4e8c-3134-4f76-95de-396eb362a742","system_id":"levelo_inurba_marseille","lat":43.31329,"lon":5.39691,"is_reserved":false,"is_disabled":false,"rental_uris":{"android":"levelo://app?vid=82fa4e8c-3134-4f76-95de-396eb362a742","ios":"levelo://app?vid=82fa4e8c-3134-4f76-95de-396eb362a742"},"vehicle_type_id":"4","last_reported":1748470207,"current_range_meters":12800,"station_id":"ce4bgvp2rcd13ifvqcu0","pricing_plan_id":"cebpf4jnsgd1na2vs0mg"},{"bike_id":"87eee157-b9a1-4629-a67f-35c0758860ff","system_id":"levelo_inurba_marseille","lat":43.29252,"lon":5.38406,"is_reserved":false,"is_disabled":false,"rental_uris":{"android":"levelo://app?vid=87eee157-b9a1-4629-a67f-35c0758860ff","ios":"levelo://app?vid=87eee157-b9a1-4629-a67f-35c0758860ff"},"vehicle_type_id":"4","last_reported":1748470207,"current_range_meters":12800,"station_id":"ce4bh692rcd13ifvqea0","pricing_plan_id":"cebpf4jnsgd1na2vs0mg"},{"bike_id":"32ce1fee-e11e-4b6b-91ef-373111975b5a","system_id":"levelo_inurba_marseille","lat":43.28078,"lon":5.39647,"is_reserved":false,"is_disabled":false,"rental_uris":{"android":"levelo://app?vid=32ce1fee-e11e-4b6b-91ef-373111975b5a","ios":"levelo://app?vid=32ce1fee-e11e-4b6b-91ef-373111975b5a"},"vehicle_type_id":"4","last_reported":1748470207,"current_range_meters":12800,"station_id":"ce4bho12rcd13ifvqh2g","pricing_plan_id":"cebpf4jnsgd1na2vs0mg"},{"bike_id":"34947d76-9f89-40c9-a3f1-086d000aa683","system_id":"levelo_inurba_marseille","lat":43.29527,"lon":5.38542,"is_reserved":false,"is_disabled":false,"rental_uris":{"android":"levelo://app?vid=34947d76-9f89-40c9-a3f1-086d000aa683","ios":"levelo://app?vid=34947d76-9f89-40c9-a3f1-086d000aa683"},"vehicle_type_id":"4","last_reported":1748470207,"current_range_meters":13600,"station_id":"ce4bgih2rcd13ifvqba0","pricing_plan_id":"cebpf4jnsgd1na2vs0mg"},{"bike_id":"89df2267-1fe5-45e2-8165-18fe7aded8ab","system_id":"levelo_inurba_marseille","lat":43.30091,"lon":5.39071,"is_reserved":false,"is_disabled":false,"rental_uris":{"android":"levelo://app?vid=89df2267-1fe5-45e2-8165-18fe7aded8ab","ios":"levelo://app?vid=89df2267-1fe5-45e2-8165-18fe7aded8ab"},"vehicle_type_id":"4","last_reported":1748470207,"current_range_meters":13600,"station_id":"ce4bh192rcd13ifvqdb0","pricing_plan_id":"cebpf4jnsgd1na2vs0mg"},{"bike_id":"9a7ce25c-cbcf-4aac-acf7-3d032c62f0d0","system_id":"levelo_inurba_marseille","lat":43.28573,"lon":5.39491,"is_reserved":false,"is_disabled":false,"rental_uris":{"android":"levelo://app?vid=9a7ce25c-cbcf-4aac-acf7-3d032c62f0d0","ios":"levelo://app?vid=9a7ce25c-cbcf-4aac-acf7-3d032c62f0d0"},"vehicle_type_id":"4","last_reported":1748470207,"current_range_meters":13600,"station_id":"ce4bh292rcd13ifvqdg0","pricing_plan_id":"cebpf4jnsgd1na2vs0mg"},{"bike_id":"de7a1fa1-b433-4f0b-8978-8a294639406e","system_id":"levelo_inurba_marseille","lat":43.29412,"lon":5.38639,"is_reserved":false,"is_disabled":false,"rental_uris":{"android":"levelo://app?vid=de7a1fa1-b433-4f0b-8978-8a294639406e","ios":"levelo://app?vid=de7a1fa1-b433-4f0b-8978-8a294639406e"},"vehicle_type_id":"4","last_reported":1748470207,"current_range_meters":13600,"station_id":"ce4bh2h2rcd13ifvqdh0","pricing_plan_id":"cebpf4jnsgd1na2vs0mg"},{"bike_id":"4a53d1d4-6ae1-4f20-92d6-e06b58ed8a12","system_id":"levelo_inurba_marseille","lat":43.26678,"lon":5.38268,"is_reserved":false,"is_disabled":false,"rental_uris":{"android":"levelo://app?vid=4a53d1d4-6ae1-4f20-92d6-e06b58ed8a12","ios":"levelo://app?vid=4a53d1d4-6ae1-4f20-92d6-e06b58ed8a12"},"vehicle_type_id":"4","last_reported":1748470207,"current_range_meters":13600,"station_id":"ce4bhg92rcd13ifvqf90","pricing_plan_id":"cebpf4jnsgd1na2vs0mg"},{"bike_id":"1308050e-a7d8-427f-bac3-1f4f14fdad9a","system_id":"levelo_inurba_marseille","lat":43.2757,"lon":5.3841,"is_reserved":false,"is_disabled":false,"rental_uris":{"android":"levelo://app?vid=1308050e-a7d8-427f-bac3-1f4f14fdad9a","ios":"levelo://app?vid=1308050e-a7d8-427f-bac3-1f4f14fdad9a"},"vehicle_type_id":"4","last_reported":1748470207,"current_range_meters":13600,"station_id":"ce4bhh92rcd13ifvqfi0","pricing_plan_id":"cebpf4jnsgd1na2vs0mg"},{"bike_id":"ae9abbf2-b91a-46d7-b826-ff2bfe50810f","system_id":"levelo_inurba_marseille","lat":43.28469,"lon":5.38558,"is_reserved":false,"is_disabled":false,"rental_uris":{"android":"levelo://app?vid=ae9abbf2-b91a-46d7-b826-ff2bfe50810f","ios":"levelo://app?vid=ae9abbf2-b91a-46d7-b826-ff2bfe50810f"},"vehicle_type_id":"4","last_reported":1748470207,"current_range_meters":14000,"station_id":"ce4bh8p2rcd13ifvqeb0","pricing_plan_id":"cebpf4jnsgd1na2vs0mg"},{"bike_id":"61b14401-4371-410e-97a4-9d823c67ce1c","system_id":"levelo_inurba_marseille","lat":43.27587,"lon":5.38409,"is_reserved":false,"is_disabled":false,"rental_uris":{"android":"levelo://app?vid=61b14401-4371-410e-97a4-9d823c67ce1c","ios":"levelo://app?vid=61b14401-4371-410e-97a4-9d823c67ce1c"},"vehicle_type_id":"4","last_reported":1748470207,"current_range_meters":14000,"station_id":"ce4bhh92rcd13ifvqfi0","pricing_plan_id":"cebpf4jnsgd1na2vs0mg"},{"bike_id":"5b831007-7721-42b7-936d-e1bfd4cbadf5","system_id":"levelo_inurba_marseille","lat":43.30929,"lon":5.40141,"is_reserved":false,"is_disabled":false,"rental_uris":{"android":"levelo://app?vid=5b831007-7721-42b7-936d-e1bfd4cbadf5","ios":"levelo://app?vid=5b831007-7721-42b7-936d-e1bfd4cbadf5"},"vehicle_type_id":"4","last_reported":1748470207,"current_range_meters":14400,"station_id":"ce4bgvp2rcd13ifvqct0","pricing_plan_id":"cebpf4jnsgd1na2vs0mg"},{"bike_id":"91046403-976c-40af-9461-4147f870a06d","system_id":"levelo_inurba_marseille","lat":43.30884,"lon":5.39651,"is_reserved":false,"is_disabled":false,"rental_uris":{"android":"levelo://app?vid=91046403-976c-40af-9461-4147f870a06d","ios":"levelo://app?vid=91046403-976c-40af-9461-4147f870a06d"},"vehicle_type_id":"4","last_reported":1748470207,"current_range_meters":14400,"station_id":"ce4bh012rcd13ifvqcv0","pricing_plan_id":"cebpf4jnsgd1na2vs0mg"},{"bike_id":"6a11e115-d711-4524-b10e-165ab480022a","system_id":"levelo_inurba_marseille","lat":43.30096,"lon":5.39071,"is_reserved":false,"is_disabled":false,"rental_uris":{"android":"levelo://app?vid=6a11e115-d711-4524-b10e-165ab480022a","ios":"levelo://app?vid=6a11e115-d711-4524-b10e-165ab480022a"},"vehicle_type_id":"4","last_reported":1748470207,"current_range_meters":14400,"station_id":"ce4bh192rcd13ifvqdb0","pricing_plan_id":"cebpf4jnsgd1na2vs0mg"},{"bike_id":"4925cd35-74ab-43e3-8abf-5b8e9493c07a","system_id":"levelo_inurba_marseille","lat":43.284038,"lon":5.375042,"is_reserved":false,"is_disabled":false,"rental_uris":{"android":"levelo://app?vid=4925cd35-74ab-43e3-8abf-5b8e9493c07a","ios":"levelo://app?vid=4925cd35-74ab-43e3-8abf-5b8e9493c07a"},"vehicle_type_id":"4","last_reported":1748470207,"current_range_meters":14400,"station_id":"ce4bh412rcd13ifvqds0","pricing_plan_id":"cebpf4jnsgd1na2vs0mg"},{"bike_id":"21b7f9fc-05d2-49f9-ac80-669e905fcf34","system_id":"levelo_inurba_marseille","lat":43.29026,"lon":5.38649,"is_reserved":false,"is_disabled":false,"rental_uris":{"android":"levelo://app?vid=21b7f9fc-05d2-49f9-ac80-669e905fcf34","ios":"levelo://app?vid=21b7f9fc-05d2-49f9-ac80-669e905fcf34"},"vehicle_type_id":"4","last_reported":1748470207,"current_range_meters":14400,"station_id":"ce4bh4p2rcd13ifvqe0g","pricing_plan_id":"cebpf4jnsgd1na2vs0mg"},{"bike_id":"13a19345-96a2-48fd-ac90-0580f98f811b","system_id":"levelo_inurba_marseille","lat":43.26954,"lon":5.38625,"is_reserved":false,"is_disabled":false,"rental_uris":{"android":"levelo://app?vid=13a19345-96a2-48fd-ac90-0580f98f811b","ios":"levelo://app?vid=13a19345-96a2-48fd-ac90-0580f98f811b"},"vehicle_type_id":"4","last_reported":1748470207,"current_range_meters":14400,"station_id":"ce4bhh92rcd13ifvqfh0","pricing_plan_id":"cebpf4jnsgd1na2vs0mg"},{"bike_id":"d1160911-5dba-4a70-bdeb-2e5a47931200","system_id":"levelo_inurba_marseille","lat":43.280078,"lon":5.416639,"is_reserved":false,"is_disabled":false,"rental_uris":{"android":"levelo://app?vid=d1160911-5dba-4a70-bdeb-2e5a47931200","ios":"levelo://app?vid=d1160911-5dba-4a70-bdeb-2e5a47931200"},"vehicle_type_id":"4","last_reported":1748470207,"current_range_meters":14400,"station_id":"ce4bho12rcd13ifvqh1g","pricing_plan_id":"cebpf4jnsgd1na2vs0mg"},{"bike_id":"20216ba5-61bf-44de-983d-1d2b80d544f3","system_id":"levelo_inurba_marseille","lat":43.21755,"lon":5.34597,"is_reserved":false,"is_disabled":false,"rental_uris":{"android":"levelo://app?vid=20216ba5-61bf-44de-983d-1d2b80d544f3","ios":"levelo://app?vid=20216ba5-61bf-44de-983d-1d2b80d544f3"},"vehicle_type_id":"4","last_reported":1748470207,"current_range_meters":14400,"station_id":"st_cvj6r9ubvosntc0bgbag","pricing_plan_id":"cebpf4jnsgd1na2vs0mg"},{"bike_id":"42dca157-bdb0-4361-8022-7979135f94aa","system_id":"levelo_inurba_marseille","lat":43.28549,"lon":5.36656,"is_reserved":false,"is_disabled":false,"rental_uris":{"android":"levelo://app?vid=42dca157-bdb0-4361-8022-7979135f94aa","ios":"levelo://app?vid=42dca157-bdb0-4361-8022-7979135f94aa"},"vehicle_type_id":"4","last_reported":1748470207,"current_range_meters":14800,"station_id":"","pricing_plan_id":"cebpf4jnsgd1na2vs0mg"},{"bike_id":"8eb73b80-4622-42bf-bee5-6a1dc8b9e6e5","system_id":"levelo_inurba_marseille","lat":43.3228,"lon":5.38273,"is_reserved":false,"is_disabled":false,"rental_uris":{"android":"levelo://app?vid=8eb73b80-4622-42bf-bee5-6a1dc8b9e6e5","ios":"levelo://app?vid=8eb73b80-4622-42bf-bee5-6a1dc8b9e6e5"},"vehicle_type_id":"4","last_reported":1748470207,"current_range_meters":14800,"station_id":"","pricing_plan_id":"cebpf4jnsgd1na2vs0mg"},{"bike_id":"74596cad-01b8-4827-9b35-ca1f4056673c","system_id":"levelo_inurba_marseille","lat":43.3239,"lon":5.38385,"is_reserved":false,"is_disabled":false,"rental_uris":{"android":"levelo://app?vid=74596cad-01b8-4827-9b35-ca1f4056673c","ios":"levelo://app?vid=74596cad-01b8-4827-9b35-ca1f4056673c"},"vehicle_type_id":"4","last_reported":1748470207,"current_range_meters":14800,"station_id":"","pricing_plan_id":"cebpf4jnsgd1na2vs0mg"},{"bike_id":"8164f536-a5e1-4257-80fe-acff6f05e3dc","system_id":"levelo_inurba_marseille","lat":43.29029,"lon":5.38643,"is_reserved":false,"is_disabled":false,"rental_uris":{"android":"levelo://app?vid=8164f536-a5e1-4257-80fe-acff6f05e3dc","ios":"levelo://app?vid=8164f536-a5e1-4257-80fe-acff6f05e3dc"},"vehicle_type_id":"4","last_reported":1748470207,"current_range_meters":14800,"station_id":"ce4bh4p2rcd13ifvqe0g","pricing_plan_id":"cebpf4jnsgd1na2vs0mg"},{"bike_id":"6d0fd9e3-c2ac-47fd-8428-06d287e68107","system_id":"levelo_inurba_marseille","lat":43.28942,"lon":5.36399,"is_reserved":false,"is_disabled":false,"rental_uris":{"android":"levelo://app?vid=6d0fd9e3-c2ac-47fd-8428-06d287e68107","ios":"levelo://app?vid=6d0fd9e3-c2ac-47fd-8428-06d287e68107"},"vehicle_type_id":"4","last_reported":1748470207,"current_range_meters":14800,"station_id":"ce4bhc92rcd13ifvqetg","pricing_plan_id":"cebpf4jnsgd1na2vs0mg"},{"bike_id":"19c319b8-cb5c-4a9f-a123-c087da106c08","system_id":"levelo_inurba_marseille","lat":43.25957,"lon":5.40906,"is_reserved":false,"is_disabled":false,"rental_uris":{"android":"levelo://app?vid=19c319b8-cb5c-4a9f-a123-c087da106c08","ios":"levelo://app?vid=19c319b8-cb5c-4a9f-a123-c087da106c08"},"vehicle_type_id":"4","last_reported":1748470207,"current_range_meters":14800,"station_id":"ce4bhm92rcd13ifvqglg","pricing_plan_id":"cebpf4jnsgd1na2vs0mg"},{"bike_id":"2c93eced-7185-435a-a2f0-e70605d2ce8d","system_id":"levelo_inurba_marseille","lat":43.306997,"lon":5.382344,"is_reserved":false,"is_disabled":false,"rental_uris":{"android":"levelo://app?vid=2c93eced-7185-435a-a2f0-e70605d2ce8d","ios":"levelo://app?vid=2c93eced-7185-435a-a2f0-e70605d2ce8d"},"vehicle_type_id":"4","last_reported":1748470207,"current_range_meters":15200,"station_id":"ce4bgg92rcd13ifvqb30","pricing_plan_id":"cebpf4jnsgd1na2vs0mg"},{"bike_id":"a8df0f50-e238-464d-9f62-ca42e984d069","system_id":"levelo_inurba_marseille","lat":43.295296,"lon":5.385418,"is_reserved":false,"is_disabled":false,"rental_uris":{"android":"levelo://app?vid=a8df0f50-e238-464d-9f62-ca42e984d069","ios":"levelo://app?vid=a8df0f50-e238-464d-9f62-ca42e984d069"},"vehicle_type_id":"4","last_reported":1748470207,"current_range_meters":15200,"station_id":"ce4bgih2rcd13ifvqba0","pricing_plan_id":"cebpf4jnsgd1na2vs0mg"},{"bike_id":"c1ec72c5-b677-46da-823c-46df5c15390c","system_id":"levelo_inurba_marseille","lat":43.30797,"lon":5.38171,"is_reserved":false,"is_disabled":false,"rental_uris":{"android":"levelo://app?vid=c1ec72c5-b677-46da-823c-46df5c15390c","ios":"levelo://app?vid=c1ec72c5-b677-46da-823c-46df5c15390c"},"vehicle_type_id":"4","last_reported":1748470207,"current_range_meters":15200,"station_id":"ce4bgt12rcd13ifvqce0","pricing_plan_id":"cebpf4jnsgd1na2vs0mg"},{"bike_id":"ace11747-a0de-462d-8e70-b82dd1c36579","system_id":"levelo_inurba_marseille","lat":43.292,"lon":5.39324,"is_reserved":false,"is_disabled":false,"rental_uris":{"android":"levelo://app?vid=ace11747-a0de-462d-8e70-b82dd1c36579","ios":"levelo://app?vid=ace11747-a0de-462d-8e70-b82dd1c36579"},"vehicle_type_id":"4","last_reported":1748470207,"current_range_meters":15200,"station_id":"ce4bh192rcd13ifvqdd0","pricing_plan_id":"cebpf4jnsgd1na2vs0mg"},{"bike_id":"00a53984-321d-43cd-9111-75df4f4f8ff5","system_id":"levelo_inurba_marseille","lat":43.29034,"lon":5.39969,"is_reserved":false,"is_disabled":false,"rental_uris":{"android":"levelo://app?vid=00a53984-321d-43cd-9111-75df4f4f8ff5","ios":"levelo://app?vid=00a53984-321d-43cd-9111-75df4f4f8ff5"},"vehicle_type_id":"4","last_reported":1748470207,"current_range_meters":15200,"station_id":"ce4bh392rcd13ifvqdm0","pricing_plan_id":"cebpf4jnsgd1na2vs0mg"},{"bike_id":"8c23aeab-2fd0-434b-97eb-3fc676cd179c","system_id":"levelo_inurba_marseille","lat":43.284795,"lon":5.38427,"is_reserved":false,"is_disabled":false,"rental_uris":{"android":"levelo://app?vid=8c23aeab-2fd0-434b-97eb-3fc676cd179c","ios":"levelo://app?vid=8c23aeab-2fd0-434b-97eb-3fc676cd179c"},"vehicle_type_id":"4","last_reported":1748470207,"current_range_meters":15200,"station_id":"ce4bh512rcd13ifvqe3g","pricing_plan_id":"cebpf4jnsgd1na2vs0mg"},{"bike_id":"ae9e0357-b73f-43bb-ad14-492ca30fa510","system_id":"levelo_inurba_marseille","lat":43.25935,"lon":5.40886,"is_reserved":false,"is_disabled":false,"rental_uris":{"android":"levelo://app?vid=ae9e0357-b73f-43bb-ad14-492ca30fa510","ios":"levelo://app?vid=ae9e0357-b73f-43bb-ad14-492ca30fa510"},"vehicle_type_id":"4","last_reported":1748470207,"current_range_meters":15200,"station_id":"ce4bhm92rcd13ifvqglg","pricing_plan_id":"cebpf4jnsgd1na2vs0mg"},{"bike_id":"bf49c372-d2a2-4889-8d63-b0c39a9cd911","system_id":"levelo_inurba_marseille","lat":43.30536,"lon":5.36694,"is_reserved":false,"is_disabled":false,"rental_uris":{"android":"levelo://app?vid=bf49c372-d2a2-4889-8d63-b0c39a9cd911","ios":"levelo://app?vid=bf49c372-d2a2-4889-8d63-b0c39a9cd911"},"vehicle_type_id":"4","last_reported":1748470207,"current_range_meters":16000,"station_id":"ce4bgrp2rcd13ifvqc9g","pricing_plan_id":"cebpf4jnsgd1na2vs0mg"},{"bike_id":"658a3173-993a-420e-baac-64692dead9f5","system_id":"levelo_inurba_marseille","lat":43.30883,"lon":5.39632,"is_reserved":false,"is_disabled":false,"rental_uris":{"android":"levelo://app?vid=658a3173-993a-420e-baac-64692dead9f5","ios":"levelo://app?vid=658a3173-993a-420e-baac-64692dead9f5"},"vehicle_type_id":"4","last_reported":1748470207,"current_range_meters":16000,"station_id":"ce4bh012rcd13ifvqcv0","pricing_plan_id":"cebpf4jnsgd1na2vs0mg"},{"bike_id":"4d1e7c52-7cfa-42a7-aef8-0c0c70549609","system_id":"levelo_inurba_marseille","lat":43.29258,"lon":5.38432,"is_reserved":false,"is_disabled":false,"rental_uris":{"android":"levelo://app?vid=4d1e7c52-7cfa-42a7-aef8-0c0c70549609","ios":"levelo://app?vid=4d1e7c52-7cfa-42a7-aef8-0c0c70549609"},"vehicle_type_id":"4","last_reported":1748470207,"current_range_meters":16000,"station_id":"ce4bh692rcd13ifvqea0","pricing_plan_id":"cebpf4jnsgd1na2vs0mg"},{"bike_id":"057891ca-d092-456d-a189-115276fd0030","system_id":"levelo_inurba_marseille","lat":43.28464,"lon":5.3587,"is_reserved":false,"is_disabled":false,"rental_uris":{"android":"levelo://app?vid=057891ca-d092-456d-a189-115276fd0030","ios":"levelo://app?vid=057891ca-d092-456d-a189-115276fd0030"},"vehicle_type_id":"4","last_reported":1748470207,"current_range_meters":16000,"station_id":"ce4bhah2rcd13ifvqei0","pricing_plan_id":"cebpf4jnsgd1na2vs0mg"},{"bike_id":"39b6dbd8-0489-4c5c-8c37-706ea99fe370","system_id":"levelo_inurba_marseille","lat":43.27554,"lon":5.38444,"is_reserved":false,"is_disabled":false,"rental_uris":{"android":"levelo://app?vid=39b6dbd8-0489-4c5c-8c37-706ea99fe370","ios":"levelo://app?vid=39b6dbd8-0489-4c5c-8c37-706ea99fe370"},"vehicle_type_id":"4","last_reported":1748470207,"current_range_meters":16000,"station_id":"ce4bhh92rcd13ifvqfi0","pricing_plan_id":"cebpf4jnsgd1na2vs0mg"},{"bike_id":"3d20b60e-73d8-4394-ba63-0cf59de05dfc","system_id":"levelo_inurba_marseille","lat":43.24683,"lon":5.38177,"is_reserved":false,"is_disabled":false,"rental_uris":{"android":"levelo://app?vid=3d20b60e-73d8-4394-ba63-0cf59de05dfc","ios":"levelo://app?vid=3d20b60e-73d8-4394-ba63-0cf59de05dfc"},"vehicle_type_id":"4","last_reported":1748470207,"current_range_meters":16000,"station_id":"ce4bhih2rcd13ifvqfr0","pricing_plan_id":"cebpf4jnsgd1na2vs0mg"},{"bike_id":"221eab07-12e0-4f23-8c3a-9f3c22311a6b","system_id":"levelo_inurba_marseille","lat":43.23191,"lon":5.39985,"is_reserved":false,"is_disabled":false,"rental_uris":{"android":"levelo://app?vid=221eab07-12e0-4f23-8c3a-9f3c22311a6b","ios":"levelo://app?vid=221eab07-12e0-4f23-8c3a-9f3c22311a6b"},"vehicle_type_id":"4","last_reported":1748470207,"current_range_meters":16000,"station_id":"ce4bhn12rcd13ifvqgqg","pricing_plan_id":"cebpf4jnsgd1na2vs0mg"},{"bike_id":"7f6715e0-d18e-4ef9-8f33-a547c45e9245","system_id":"levelo_inurba_marseille","lat":43.31709,"lon":5.43708,"is_reserved":false,"is_disabled":false,"rental_uris":{"android":"levelo://app?vid=7f6715e0-d18e-4ef9-8f33-a547c45e9245","ios":"levelo://app?vid=7f6715e0-d18e-4ef9-8f33-a547c45e9245"},"vehicle_type_id":"4","last_reported":1748470207,"current_range_meters":16000,"station_id":"ce4bhp92rcd13ifvqhcg","pricing_plan_id":"cebpf4jnsgd1na2vs0mg"},{"bike_id":"4c053a53-5a50-4e31-8104-9b41d82b2307","system_id":"levelo_inurba_marseille","lat":43.330253,"lon":5.392624,"is_reserved":false,"is_disabled":false,"rental_uris":{"android":"levelo://app?vid=4c053a53-5a50-4e31-8104-9b41d82b2307","ios":"levelo://app?vid=4c053a53-5a50-4e31-8104-9b41d82b2307"},"vehicle_type_id":"4","last_reported":1748470207,"current_range_meters":16400,"station_id":"","pricing_plan_id":"cebpf4jnsgd1na2vs0mg"},{"bike_id":"f5733814-9732-4748-bcc9-3b2fac8e1564","system_id":"levelo_inurba_marseille","lat":43.31256,"lon":5.37829,"is_reserved":false,"is_disabled":false,"rental_uris":{"android":"levelo://app?vid=f5733814-9732-4748-bcc9-3b2fac8e1564","ios":"levelo://app?vid=f5733814-9732-4748-bcc9-3b2fac8e1564"},"vehicle_type_id":"4","last_reported":1748470207,"current_range_meters":16400,"station_id":"","pricing_plan_id":"cebpf4jnsgd1na2vs0mg"},{"bike_id":"4ee5be97-d114-4c15-9476-1c9905166ea9","system_id":"levelo_inurba_marseille","lat":43.29522,"lon":5.38544,"is_reserved":false,"is_disabled":false,"rental_uris":{"android":"levelo://app?vid=4ee5be97-d114-4c15-9476-1c9905166ea9","ios":"levelo://app?vid=4ee5be97-d114-4c15-9476-1c9905166ea9"},"vehicle_type_id":"4","last_reported":1748470207,"current_range_meters":16400,"station_id":"ce4bgih2rcd13ifvqba0","pricing_plan_id":"cebpf4jnsgd1na2vs0mg"},{"bike_id":"1593ae6e-a41f-4398-8a0d-d8943190b5f1","system_id":"levelo_inurba_marseille","lat":43.28413,"lon":5.37497,"is_reserved":false,"is_disabled":false,"rental_uris":{"android":"levelo://app?vid=1593ae6e-a41f-4398-8a0d-d8943190b5f1","ios":"levelo://app?vid=1593ae6e-a41f-4398-8a0d-d8943190b5f1"},"vehicle_type_id":"4","last_reported":1748470207,"current_range_meters":16400,"station_id":"ce4bh412rcd13ifvqds0","pricing_plan_id":"cebpf4jnsgd1na2vs0mg"},{"bike_id":"c330c008-d87e-45a6-885f-3fc89288a877","system_id":"levelo_inurba_marseille","lat":43.299655,"lon":5.413302,"is_reserved":false,"is_disabled":false,"rental_uris":{"android":"levelo://app?vid=c330c008-d87e-45a6-885f-3fc89288a877","ios":"levelo://app?vid=c330c008-d87e-45a6-885f-3fc89288a877"},"vehicle_type_id":"4","last_reported":1748470207,"current_range_meters":16400,"station_id":"ce4bhp12rcd13ifvqh9g","pricing_plan_id":"cebpf4jnsgd1na2vs0mg"},{"bike_id":"a426f99b-d34a-41bf-bbda-59f7dfd6939b","system_id":"levelo_inurba_marseille","lat":43.255796,"lon":5.382262,"is_reserved":false,"is_disabled":false,"rental_uris":{"android":"levelo://app?vid=a426f99b-d34a-41bf-bbda-59f7dfd6939b","ios":"levelo://app?vid=a426f99b-d34a-41bf-bbda-59f7dfd6939b"},"vehicle_type_id":"4","last_reported":1748470207,"current_range_meters":16400,"station_id":"ce501612rcd8frsf0b60","pricing_plan_id":"cebpf4jnsgd1na2vs0mg"},{"bike_id":"cac8f927-1593-4cc8-862c-5c2958b08bd6","system_id":"levelo_inurba_marseille","lat":43.30532,"lon":5.38419,"is_reserved":false,"is_disabled":false,"rental_uris":{"android":"levelo://app?vid=cac8f927-1593-4cc8-862c-5c2958b08bd6","ios":"levelo://app?vid=cac8f927-1593-4cc8-862c-5c2958b08bd6"},"vehicle_type_id":"4","last_reported":1748470207,"current_range_meters":16800,"station_id":"ce4bgg92rcd13ifvqb30","pricing_plan_id":"cebpf4jnsgd1na2vs0mg"},{"bike_id":"3a44b427-635c-4151-a15f-521b47226020","system_id":"levelo_inurba_marseille","lat":43.295306,"lon":5.385348,"is_reserved":false,"is_disabled":false,"rental_uris":{"android":"levelo://app?vid=3a44b427-635c-4151-a15f-521b47226020","ios":"levelo://app?vid=3a44b427-635c-4151-a15f-521b47226020"},"vehicle_type_id":"4","last_reported":1748470207,"current_range_meters":16800,"station_id":"ce4bgih2rcd13ifvqba0","pricing_plan_id":"cebpf4jnsgd1na2vs0mg"},{"bike_id":"e9cda520-c6f4-465d-ad7f-8c059b3dc45a","system_id":"levelo_inurba_marseille","lat":43.31335,"lon":5.38461,"is_reserved":false,"is_disabled":false,"rental_uris":{"android":"levelo://app?vid=e9cda520-c6f4-465d-ad7f-8c059b3dc45a","ios":"levelo://app?vid=e9cda520-c6f4-465d-ad7f-8c059b3dc45a"},"vehicle_type_id":"4","last_reported":1748470207,"current_range_meters":16800,"station_id":"ce4bgt92rcd13ifvqcf0","pricing_plan_id":"cebpf4jnsgd1na2vs0mg"},{"bike_id":"8f7f9dba-c1a2-4705-9cfb-78b381b601cf","system_id":"levelo_inurba_marseille","lat":43.30933,"lon":5.40159,"is_reserved":false,"is_disabled":false,"rental_uris":{"android":"levelo://app?vid=8f7f9dba-c1a2-4705-9cfb-78b381b601cf","ios":"levelo://app?vid=8f7f9dba-c1a2-4705-9cfb-78b381b601cf"},"vehicle_type_id":"4","last_reported":1748470207,"current_range_meters":16800,"station_id":"ce4bgvp2rcd13ifvqct0","pricing_plan_id":"cebpf4jnsgd1na2vs0mg"},{"bike_id":"1ae9bfcf-ee2e-4ff0-9860-44a949eed23f","system_id":"levelo_inurba_marseille","lat":43.29418,"lon":5.38641,"is_reserved":false,"is_disabled":false,"rental_uris":{"android":"levelo://app?vid=1ae9bfcf-ee2e-4ff0-9860-44a949eed23f","ios":"levelo://app?vid=1ae9bfcf-ee2e-4ff0-9860-44a949eed23f"},"vehicle_type_id":"4","last_reported":1748470207,"current_range_meters":16800,"station_id":"ce4bh2h2rcd13ifvqdh0","pricing_plan_id":"cebpf4jnsgd1na2vs0mg"},{"bike_id":"a829ba8e-bf90-4a53-baee-0213b780debc","system_id":"levelo_inurba_marseille","lat":43.29286,"lon":5.40144,"is_reserved":false,"is_disabled":false,"rental_uris":{"android":"levelo://app?vid=a829ba8e-bf90-4a53-baee-0213b780debc","ios":"levelo://app?vid=a829ba8e-bf90-4a53-baee-0213b780debc"},"vehicle_type_id":"4","last_reported":1748470207,"current_range_meters":16800,"station_id":"ce4bh312rcd13ifvqdk0","pricing_plan_id":"cebpf4jnsgd1na2vs0mg"},{"bike_id":"fd5d8641-0a6f-401c-9ff8-956e663286ba","system_id":"levelo_inurba_marseille","lat":43.29037,"lon":5.39954,"is_reserved":false,"is_disabled":false,"rental_uris":{"android":"levelo://app?vid=fd5d8641-0a6f-401c-9ff8-956e663286ba","ios":"levelo://app?vid=fd5d8641-0a6f-401c-9ff8-956e663286ba"},