{"last_updated":1724508483,"ttl":30,"version":"2.2","data":{"bikes":[{"bike_id":"a09abf48-784b-4175-946b-d820ad3743dd","system_id":"levelo_inurba_marseille","lat":43.312239,"lon":5.368562,"is_reserved":false,"is_disabled":false,"rental_uris":{"android":"levelo://app?vid=a09abf48-784b-4175-946b-d820ad3743dd","ios":"levelo://app?vid=a09abf48-784b-4175-946b-d820ad3743dd"},"vehicle_type_id":"4","last_reported":1724508483,"current_range_meters":12400,"station_id":"ce4bgl92rcd13ifvqbq0","pricing_plan_id":"cebpf4jnsgd1na2vs0mg"},{"bike_id":"0c72db77-31e3-473f-8b60-6e706f380ce0","system_id":"levelo_inurba_marseille","lat":43.312019,"lon":5.368928,"is_reserved":false,"is_disabled":false,"rental_uris":{"android":"levelo://app?vid=0c72db77-31e3-473f-8b60-6e706f380ce0","ios":"levelo://app?vid=0c72db77-31e3-473f-8b60-6e706f380ce0"},"vehicle_type_id":"4","last_reported":1724508483,"current_range_meters":21600,"station_id":"ce4bgl92rcd13ifvqbq0","pricing_plan_id":"cebpf4jnsgd1na2vs0mg"},{"bike_id":"7efda9b0-f295-4c73-b648-dc61d45dbe3d","system_id":"levelo_inurba_marseille","lat":43.309076,"lon":5.368465,"is_reserved":false,"is_disabled":false,"rental_uris":{"android":"levelo://app?vid=7efda9b0-f295-4c73-b648-dc61d45dbe3d","ios":"levelo://app?vid=7efda9b0-f295-4c73-b648-dc61d45dbe3d"},"vehicle_type_id":"4","last_reported":1724508483,"current_range_meters":23200,"station_id":"ce4bgn92rcd13ifvqbvg","pricing_plan_id":"cebpf4jnsgd1na2vs0mg"},{"bike_id":"084065ed-a0ab-43de-b890-a49519ea1ade","system_id":"levelo_inurba_marseille","lat":43.309076,"lon":5.368465,"is_reserved":false,"is_disabled":false,"rental_uris":{"android":"levelo://app?vid=084065ed-a0ab-43de-b890-a49519ea1ade","ios":"levelo://app?vid=084065ed-a0ab-43de-b890-a49519ea1ade"},"vehicle_type_id":"4","last_reported":1724508483,"current_range_meters":5200,"station_id":"ce4bgn92rcd13ifvqbvg","pricing_plan_id":"cebpf4jnsgd1na2vs0mg"},{"bike_id":"9ba244cd-1bfc-4b4c-a4c8-aed6efc2504b","system_id":"levelo_inurba_marseille","lat":43.309039,"lon":5.371797,"is_reserved":false,"is_disabled":false,"rental_uris":{"android":"levelo://app?vid=9ba244cd-1bfc-4b4c-a4c8-aed6efc2504b","ios":"levelo://app?vid=9ba244cd-1bfc-4b4c-a4c8-aed6efc2504b"},"vehicle_type_id":"4","last_reported":1724508483,"current_range_meters":24400,"station_id":"ce4bguh2rcd13ifvqckg","pricing_plan_id":"cebpf4jnsgd1na2vs0mg"},{"bike_id":"57b9f1c2-4cdd-4363-a717-76bf9d62c30e","system_id":"levelo_inurba_marseille","lat":43.306149,"lon":5.366721,"is_reserved":false,"is_disabled":false,"rental_uris":{"android":"levelo://app?vid=57b9f1c2-4cdd-4363-a717-76bf9d62c30e","ios":"levelo://app?vid=57b9f1c2-4cdd-4363-a717-76bf9d62c30e"},"vehicle_type_id":"4","last_reported":1724508483,"current_range_meters":13200,"station_id":"","pricing_plan_id":"cebpf4jnsgd1na2vs0mg"},{"bike_id":"f69b7b64-de8a-4543-8a69-b181fcfd1a12","system_id":"levelo_inurba_marseille","lat":43.305712,"lon":5.365641,"is_reserved":false,"is_disabled":false,"rental_uris":{"android":"levelo://app?vid=f69b7b64-de8a-4543-8a69-b181fcfd1a12","ios":"levelo://app?vid=f69b7b64-de8a-4543-8a69-b181fcfd1a12"},"vehicle_type_id":"4","last_reported":1724508483,"current_range_meters":18400,"station_id":"ce4bgs12rcd13ifvqcag","pricing_plan_id":"cebpf4jnsgd1na2vs0mg"},{"bike_id":"94d78d2d-405a-45d8-8eb3-4b1a3aa8bf93","system_id":"levelo_inurba_marseille","lat":43.305712,"lon":5.365641,"is_reserved":false,"is_disabled":false,"rental_uris":{"android":"levelo://app?vid=94d78d2d-405a-45d8-8eb3-4b1a3aa8bf93","ios":"levelo://app?vid=94d78d2d-405a-45d8-8eb3-4b1a3aa8bf93"},"vehicle_type_id":"4","last_reported":1724508483,"current_range_meters":29600,"station_id":"ce4bgs12rcd13ifvqcag","pricing_plan_id":"cebpf4jnsgd1na2vs0mg"},{"bike_id":"28550f85-31d7-4790-8174-d76bbc1bf8b4","system_id":"levelo_inurba_marseille","lat":43.305368,"lon":5.367343,"is_reserved":false,"is_disabled":false,"rental_uris":{"android":"levelo://app?vid=28550f85-31d7-4790-8174-d76bbc1bf8b4","ios":"levelo://app?vid=28550f85-31d7-4790-8174-d76bbc1bf8b4"},"vehicle_type_id":"4","last_reported":1724508483,"current_range_meters":5200,"station_id":"ce4bgrp2rcd13ifvqc9g","pricing_plan_id":"cebpf4jnsgd1na2vs0mg"},{"bike_id":"8c2da25a-d528-4675-9cb7-fb8ec67161ba","system_id":"levelo_inurba_marseille","lat":43.305706,"lon":5.365654,"is_reserved":false,"is_disabled":false,"rental_uris":{"android":"levelo://app?vid=8c2da25a-d528-4675-9cb7-fb8ec67161ba","ios":"levelo://app?vid=8c2da25a-d528-4675-9cb7-fb8ec67161ba"},"vehicle_type_id":"4","last_reported":1724508483,"current_range_meters":31600,"station_id":"ce4bgs12rcd13ifvqcag","pricing_plan_id":"cebpf4jnsgd1na2vs0mg"},{"bike_id":"6ad180c8-b85f-4abc-a203-8939bd8ad241","system_id":"levelo_inurba_marseille","lat":43.305706,"lon":5.365654,"is_reserved":false,"is_disabled":false,"rental_uris":{"android":"levelo://app?vid=6ad180c8-b85f-4abc-a203-8939bd8ad241","ios":"levelo://app?vid=6ad180c8-b85f-4abc-a203-8939bd8ad241"},"vehicle_type_id":"4","last_reported":1724508483,"current_range_meters":0,"station_id":"ce4bgs12rcd13ifvqcag","pricing_plan_id":"cebpf4jnsgd1na2vs0mg"},{"bike_id":"832846e8-83ec-4b04-92a9-630e551f85d1","system_id":"levelo_inurba_marseille","lat":43.305706,"lon":5.365654,"is_reserved":false,"is_disabled":false,"rental_uris":{"android":"levelo://app?vid=832846e8-83ec-4b04-92a9-630e551f85d1","ios":"levelo://app?vid=832846e8-83ec-4b04-92a9-630e551f85d1"},"vehicle_type_id":"4","last_reported":1724508483,"current_range_meters":13600,"station_id":"ce4bgs12rcd13ifvqcag","pricing_plan_id":"cebpf4jnsgd1na2vs0mg"},{"bike_id":"1bebf9ab-4545-4448-90cf-f931312ee64c","system_id":"levelo_inurba_marseille","lat":43.305989,"lon":5.37225,"is_reserved":false,"is_disabled":false,"rental_uris":{"android":"levelo://app?vid=1bebf9ab-4545-4448-90cf-f931312ee64c","ios":"levelo://app?vid=1bebf9ab-4545-4448-90cf-f931312ee64c"},"vehicle_type_id":"4","last_reported":1724508483,"current_range_meters":21600,"station_id":"ce4bgqh2rcd13ifvqc4g","pricing_plan_id":"cebpf4jnsgd1na2vs0mg"},{"bike_id":"7dfaa5c3-d30a-473b-958a-386b9f820ae0","system_id":"levelo_inurba_marseille","lat":43.311131,"lon":5.377651,"is_reserved":false,"is_disabled":false,"rental_uris":{"android":"levelo://app?vid=7dfaa5c3-d30a-473b-958a-386b9f820ae0","ios":"levelo://app?vid=7dfaa5c3-d30a-473b-958a-386b9f820ae0"},"vehicle_type_id":"4","last_reported":1724508483,"current_range_meters":26800,"station_id":"ce4bgt92rcd13ifvqcg0","pricing_plan_id":"cebpf4jnsgd1na2vs0mg"},{"bike_id":"85b9f635-a4d7-4a57-b8ad-8295357afc05","system_id":"levelo_inurba_marseille","lat":43.307945,"lon":5.376487,"is_reserved":false,"is_disabled":false,"rental_uris":{"android":"levelo://app?vid=85b9f635-a4d7-4a57-b8ad-8295357afc05","ios":"levelo://app?vid=85b9f635-a4d7-4a57-b8ad-8295357afc05"},"vehicle_type_id":"4","last_reported":1724508483,"current_range_meters":10800,"station_id":"ce4bgv92rcd13ifvqcq0","pricing_plan_id":"cebpf4jnsgd1na2vs0mg"},{"bike_id":"ed587f3a-6682-4fac-a137-61f637abdb0c","system_id":"levelo_inurba_marseille","lat":43.307945,"lon":5.376487,"is_reserved":false,"is_disabled":false,"rental_uris":{"android":"levelo://app?vid=ed587f3a-6682-4fac-a137-61f637abdb0c","ios":"levelo://app?vid=ed587f3a-6682-4fac-a137-61f637abdb0c"},"vehicle_type_id":"4","last_reported":1724508483,"current_range_meters":31600,"station_id":"ce4bgv92rcd13ifvqcq0","pricing_plan_id":"cebpf4jnsgd1na2vs0mg"},{"bike_id":"5acfe90b-407e-41c5-9bd4-ee9940a32496","system_id":"levelo_inurba_marseille","lat":43.307945,"lon":5.376487,"is_reserved":false,"is_disabled":false,"rental_uris":{"android":"levelo://app?vid=5acfe90b-407e-41c5-9bd4-ee9940a32496","ios":"levelo://app?vid=5acfe90b-407e-41c5-9bd4-ee9940a32496"},"vehicle_type_id":"4","last_reported":1724508483,"current_range_meters":6800,"station_id":"ce4bgv92rcd13ifvqcq0","pricing_plan_id":"cebpf4jnsgd1na2vs0mg"},{"bike_id":"716de3cc-eb43-47a4-ab9f-df4688e4818b","system_id":"levelo_inurba_marseille","lat":43.317075,"lon":5.377367,"is_reserved":false,"is_disabled":false,"rental_uris":{"android":"levelo://app?vid=716de3cc-eb43-47a4-ab9f-df4688e4818b","ios":"levelo://app?vid=716de3cc-eb43-47a4-ab9f-df4688e4818b"},"vehicle_type_id":"4","last_reported":1724508483,"current_range_meters":24400,"station_id":"ce4bgth2rcd13ifvqch0","pricing_plan_id":"cebpf4jnsgd1na2vs0mg"},{"bike_id":"68f0f528-b7b7-4758-b898-92ce51204b68","system_id":"levelo_inurba_marseille","lat":43.30304,"lon":5.368987,"is_reserved":false,"is_disabled":false,"rental_uris":{"android":"levelo://app?vid=68f0f528-b7b7-4758-b898-92ce51204b68","ios":"levelo://app?vid=68f0f528-b7b7-4758-b898-92ce51204b68"},"vehicle_type_id":"4","last_reported":1724508483,"current_range_meters":17200,"station_id":"ce4bgqh2rcd13ifvqc5g","pricing_plan_id":"cebpf4jnsgd1na2vs0mg"},{"bike_id":"1baa3f0e-0d4a-45b2-af62-a1b3aa09110f","system_id":"levelo_inurba_marseille","lat":43.30304,"lon":5.368987,"is_reserved":false,"is_disabled":false,"rental_uris":{"android":"levelo://app?vid=1baa3f0e-0d4a-45b2-af62-a1b3aa09110f","ios":"levelo://app?vid=1baa3f0e-0d4a-45b2-af62-a1b3aa09110f"},"vehicle_type_id":"4","last_reported":1724508483,"current_range_meters":19600,"station_id":"ce4bgqh2rcd13ifvqc5g","pricing_plan_id":"cebpf4jnsgd1na2vs0mg"},{"bike_id":"2257751e-97df-47d1-a0c9-870091a73fd9","system_id":"levelo_inurba_marseille","lat":43.303046,"lon":5.368981,"is_reserved":false,"is_disabled":false,"rental_uris":{"android":"levelo://app?vid=2257751e-97df-47d1-a0c9-870091a73fd9","ios":"levelo://app?vid=2257751e-97df-47d1-a0c9-870091a73fd9"},"vehicle_type_id":"4","last_reported":1724508483,"current_range_meters":400,"station_id":"ce4bgqh2rcd13ifvqc5g","pricing_plan_id":"cebpf4jnsgd1na2vs0mg"},{"bike_id":"c1ecd319-90d8-4b76-bab5-b5a410c13fe7","system_id":"levelo_inurba_marseille","lat":43.303,"lon":5.36913,"is_reserved":false,"is_disabled":false,"rental_uris":{"android":"levelo://app?vid=c1ecd319-90d8-4b76-bab5-b5a410c13fe7","ios":"levelo://app?vid=c1ecd319-90d8-4b76-bab5-b5a410c13fe7"},"vehicle_type_id":"4","last_reported":1724508483,"current_range_meters":31200,"station_id":"ce4bgqh2rcd13ifvqc5g","pricing_plan_id":"cebpf4jnsgd1na2vs0mg"},{"bike_id":"1ac971b5-8672-422d-a2c9-0978fd7467f3","system_id":"levelo_inurba_marseille","lat":43.30304,"lon":5.368987,"is_reserved":false,"is_disabled":false,"rental_uris":{"android":"levelo://app?vid=1ac971b5-8672-422d-a2c9-0978fd7467f3","ios":"levelo://app?vid=1ac971b5-8672-422d-a2c9-0978fd7467f3"},"vehicle_type_id":"4","last_reported":1724508483,"current_range_meters":26400,"station_id":"ce4bgqh2rcd13ifvqc5g","pricing_plan_id":"cebpf4jnsgd1na2vs0mg"},{"bike_id":"2c57e77f-26af-42a7-8e00-5edb64c24c31","system_id":"levelo_inurba_marseille","lat":43.315289,"lon":5.380349,"is_reserved":false,"is_disabled":false,"rental_uris":{"android":"levelo://app?vid=2c57e77f-26af-42a7-8e00-5edb64c24c31","ios":"levelo://app?vid=2c57e77f-26af-42a7-8e00-5edb64c24c31"},"vehicle_type_id":"4","last_reported":1724508483,"current_range_meters":18800,"station_id":"ce4bhsp2rcd13ifvqi50","pricing_plan_id":"cebpf4jnsgd1na2vs0mg"},{"bike_id":"12f5bdf9-3a59-434f-bb1b-a5f0a2e0c2e4","system_id":"levelo_inurba_marseille","lat":43.301939,"lon":5.366286,"is_reserved":false,"is_disabled":false,"rental_uris":{"android":"levelo://app?vid=12f5bdf9-3a59-434f-bb1b-a5f0a2e0c2e4","ios":"levelo://app?vid=12f5bdf9-3a59-434f-bb1b-a5f0a2e0c2e4"},"vehicle_type_id":"4","last_reported":1724508483,"current_range_meters":18400,"station_id":"ce4bgrh2rcd13ifvqc8g","pricing_plan_id":"cebpf4jnsgd1na2vs0mg"},{"bike_id":"4e070ed4-d9e2-4f2f-8a18-44f3dd7a78f9","system_id":"levelo_inurba_marseille","lat":43.30192,"lon":5.36616,"is_reserved":false,"is_disabled":false,"rental_uris":{"android":"levelo://app?vid=4e070ed4-d9e2-4f2f-8a18-44f3dd7a78f9","ios":"levelo://app?vid=4e070ed4-d9e2-4f2f-8a18-44f3dd7a78f9"},"vehicle_type_id":"4","last_reported":1724508483,"current_range_meters":22000,"station_id":"ce4bgrh2rcd13ifvqc8g","pricing_plan_id":"cebpf4jnsgd1na2vs0mg"},{"bike_id":"8352df6c-369f-4cf3-81e3-528e6a1612ec","system_id":"levelo_inurba_marseille","lat":43.301939,"lon":5.366286,"is_reserved":false,"is_disabled":false,"rental_uris":{"android":"levelo://app?vid=8352df6c-369f-4cf3-81e3-528e6a1612ec","ios":"levelo://app?vid=8352df6c-369f-4cf3-81e3-528e6a1612ec"},"vehicle_type_id":"4","last_reported":1724508483,"current_range_meters":22000,"station_id":"ce4bgrh2rcd13ifvqc8g","pricing_plan_id":"cebpf4jnsgd1na2vs0mg"},{"bike_id":"326ec30c-a98d-42f6-b935-55534505781b","system_id":"levelo_inurba_marseille","lat":43.301939,"lon":5.366286,"is_reserved":false,"is_disabled":false,"rental_uris":{"android":"levelo://app?vid=326ec30c-a98d-42f6-b935-55534505781b","ios":"levelo://app?vid=326ec30c-a98d-42f6-b935-55534505781b"},"vehicle_type_id":"4","last_reported":1724508483,"current_range_meters":15200,"station_id":"ce4bgrh2rcd13ifvqc8g","pricing_plan_id":"cebpf4jnsgd1na2vs0mg"},{"bike_id":"e3d15664-ef31-4eca-86ce-06af625b551a","system_id":"levelo_inurba_marseille","lat":43.301939,"lon":5.366286,"is_reserved":false,"is_disabled":false,"rental_uris":{"android":"levelo://app?vid=e3d15664-ef31-4eca-86ce-06af625b551a","ios":"levelo://app?vid=e3d15664-ef31-4eca-86ce-06af625b551a"},"vehicle_type_id":"4","last_reported":1724508483,"current_range_meters":27600,"station_id":"ce4bgrh2rcd13ifvqc8g","pricing_plan_id":"cebpf4jnsgd1na2vs0mg"},{"bike_id":"a6a2160c-fa12-4632-908a-a89239f2b8e4","system_id":"levelo_inurba_marseille","lat":43.301939,"lon":5.366286,"is_reserved":false,"is_disabled":false,"rental_uris":{"android":"levelo://app?vid=a6a2160c-fa12-4632-908a-a89239f2b8e4","ios":"levelo://app?vid=a6a2160c-fa12-4632-908a-a89239f2b8e4"},"vehicle_type_id":"4","last_reported":1724508483,"current_range_meters":24000,"station_id":"ce4bgrh2rcd13ifvqc8g","pricing_plan_id":"cebpf4jnsgd1na2vs0mg"},{"bike_id":"f6da76f2-980e-438d-99d7-763b5eb9ca46","system_id":"levelo_inurba_marseille","lat":43.301939,"lon":5.366286,"is_reserved":false,"is_disabled":false,"rental_uris":{"android":"levelo://app?vid=f6da76f2-980e-438d-99d7-763b5eb9ca46","ios":"levelo://app?vid=f6da76f2-980e-438d-99d7-763b5eb9ca46"},"vehicle_type_id":"4","last_reported":1724508483,"current_range_meters":28000,"station_id":"ce4bgrh2rcd13ifvqc8g","pricing_plan_id":"cebpf4jnsgd1na2vs0mg"},{"bike_id":"171e1d00-5245-4d0a-971a-21fb66a864d8","system_id":"levelo_inurba_marseille","lat":43.304606,"lon":5.379026,"is_reserved":false,"is_disabled":false,"rental_uris":{"android":"levelo://app?vid=171e1d00-5245-4d0a-971a-21fb66a864d8","ios":"levelo://app?vid=171e1d00-5245-4d0a-971a-21fb66a864d8"},"vehicle_type_id":"4","last_reported":1724508483,"current_range_meters":19200,"station_id":"ce4bgup2rcd13ifvqcn0","pricing_plan_id":"cebpf4jnsgd1na2vs0mg"},{"bike_id":"4579a03c-c1a3-402f-89d9-c877a6cd2992","system_id":"levelo_inurba_marseille","lat":43.304606,"lon":5.379026,"is_reserved":false,"is_disabled":false,"rental_uris":{"android":"levelo://app?vid=4579a03c-c1a3-402f-89d9-c877a6cd2992","ios":"levelo://app?vid=4579a03c-c1a3-402f-89d9-c877a6cd2992"},"vehicle_type_id":"4","last_reported":1724508483,"current_range_meters":31200,"station_id":"ce4bgup2rcd13ifvqcn0","pricing_plan_id":"cebpf4jnsgd1na2vs0mg"},{"bike_id":"d02f4922-fdb7-4f30-a932-3511a2399db6","system_id":"levelo_inurba_marseille","lat":43.304606,"lon":5.379026,"is_reserved":false,"is_disabled":false,"rental_uris":{"android":"levelo://app?vid=d02f4922-fdb7-4f30-a932-3511a2399db6","ios":"levelo://app?vid=d02f4922-fdb7-4f30-a932-3511a2399db6"},"vehicle_type_id":"4","last_reported":1724508483,"current_range_meters":31600,"station_id":"ce4bgup2rcd13ifvqcn0","pricing_plan_id":"cebpf4jnsgd1na2vs0mg"},{"bike_id":"3264fff0-72fb-40d6-a47c-bc9d41f036cd","system_id":"levelo_inurba_marseille","lat":43.304606,"lon":5.379026,"is_reserved":false,"is_disabled":false,"rental_uris":{"android":"levelo://app?vid=3264fff0-72fb-40d6-a47c-bc9d41f036cd","ios":"levelo://app?vid=3264fff0-72fb-40d6-a47c-bc9d41f036cd"},"vehicle_type_id":"4","last_reported":1724508483,"current_range_meters":28400,"station_id":"ce4bgup2rcd13ifvqcn0","pricing_plan_id":"cebpf4jnsgd1na2vs0mg"},{"bike_id":"36a443a4-09f9-4e7e-a95a-ee0ef0e4a34e","system_id":"levelo_inurba_marseille","lat":43.304606,"lon":5.379026,"is_reserved":false,"is_disabled":false,"rental_uris":{"android":"levelo://app?vid=36a443a4-09f9-4e7e-a95a-ee0ef0e4a34e","ios":"levelo://app?vid=36a443a4-09f9-4e7e-a95a-ee0ef0e4a34e"},"vehicle_type_id":"4","last_reported":1724508483,"current_range_meters":31600,"station_id":"ce4bgup2rcd13ifvqcn0","pricing_plan_id":"cebpf4jnsgd1na2vs0mg"},{"bike_id":"97d3d4a8-b9f3-4dbc-b33c-7224db1ea1cb","system_id":"levelo_inurba_marseille","lat":43.304606,"lon":5.379026,"is_reserved":false,"is_disabled":false,"rental_uris":{"android":"levelo://app?vid=97d3d4a8-b9f3-4dbc-b33c-7224db1ea1cb","ios":"levelo://app?vid=97d3d4a8-b9f3-4dbc-b33c-7224db1ea1cb"},"vehicle_type_id":"4","last_reported":1724508483,"current_range_meters":18800,"station_id":"ce4bgup2rcd13ifvqcn0","pricing_plan_id":"cebpf4jnsgd1na2vs0mg"},{"bike_id":"5d1aa754-fbd9-4d19-9188-ff97b820e8ab","system_id":"levelo_inurba_marseille","lat":43.304606,"lon":5.379026,"is_reserved":false,"is_disabled":false,"rental_uris":{"android":"levelo://app?vid=5d1aa754-fbd9-4d19-9188-ff97b820e8ab","ios":"levelo://app?vid=5d1aa754-fbd9-4d19-9188-ff97b820e8ab"},"vehicle_type_id":"4","last_reported":1724508483,"current_range_meters":13200,"station_id":"ce4bgup2rcd13ifvqcn0","pricing_plan_id":"cebpf4jnsgd1na2vs0mg"},{"bike_id":"57a8231d-bdd8-4b66-ad03-091eff45034d","system_id":"levelo_inurba_marseille","lat":43.304606,"lon":5.379026,"is_reserved":false,"is_disabled":false,"rental_uris":{"android":"levelo://app?vid=57a8231d-bdd8-4b66-ad03-091eff45034d","ios":"levelo://app?vid=57a8231d-bdd8-4b66-ad03-091eff45034d"},"vehicle_type_id":"4","last_reported":1724508483,"current_range_meters":22000,"station_id":"ce4bgup2rcd13ifvqcn0","pricing_plan_id":"cebpf4jnsgd1na2vs0mg"},{"bike_id":"dc83ccb0-35c5-41a6-9601-e479378a9abd","system_id":"levelo_inurba_marseille","lat":43.304606,"lon":5.379026,"is_reserved":false,"is_disabled":false,"rental_uris":{"android":"levelo://app?vid=dc83ccb0-35c5-41a6-9601-e479378a9abd","ios":"levelo://app?vid=dc83ccb0-35c5-41a6-9601-e479378a9abd"},"vehicle_type_id":"4","last_reported":1724508483,"current_range_meters":31600,"station_id":"ce4bgup2rcd13ifvqcn0","pricing_plan_id":"cebpf4jnsgd1na2vs0mg"},{"bike_id":"ae95873f-f14f-4d35-b942-fa940c80daab","system_id":"levelo_inurba_marseille","lat":43.324771,"lon":5.36557,"is_reserved":false,"is_disabled":false,"rental_uris":{"android":"levelo://app?vid=ae95873f-f14f-4d35-b942-fa940c80daab","ios":"levelo://app?vid=ae95873f-f14f-4d35-b942-fa940c80daab"},"vehicle_type_id":"4","last_reported":1724508483,"current_range_meters":13600,"station_id":"ce4bhs12rcd13ifvqhvg","pricing_plan_id":"cebpf4jnsgd1na2vs0mg"},{"bike_id":"99e5e427-5a35-4ea2-97a7-7f522a761281","system_id":"levelo_inurba_marseille","lat":43.324771,"lon":5.36557,"is_reserved":false,"is_disabled":false,"rental_uris":{"android":"levelo://app?vid=99e5e427-5a35-4ea2-97a7-7f522a761281","ios":"levelo://app?vid=99e5e427-5a35-4ea2-97a7-7f522a761281"},"vehicle_type_id":"4","last_reported":1724508483,"current_range_meters":17200,"station_id":"ce4bhs12rcd13ifvqhvg","pricing_plan_id":"cebpf4jnsgd1na2vs0mg"},{"bike_id":"5185f4c2-737b-4f08-bac3-02542fd05de5","system_id":"levelo_inurba_marseille","lat":43.324771,"lon":5.36557,"is_reserved":false,"is_disabled":false,"rental_uris":{"android":"levelo://app?vid=5185f4c2-737b-4f08-bac3-02542fd05de5","ios":"levelo://app?vid=5185f4c2-737b-4f08-bac3-02542fd05de5"},"vehicle_type_id":"4","last_reported":1724508483,"current_range_meters":25200,"station_id":"ce4bhs12rcd13ifvqhvg","pricing_plan_id":"cebpf4jnsgd1na2vs0mg"},{"bike_id":"4cc2080c-2720-43e9-a55a-8550022b2885","system_id":"levelo_inurba_marseille","lat":43.324771,"lon":5.36557,"is_reserved":false,"is_disabled":false,"rental_uris":{"android":"levelo://app?vid=4cc2080c-2720-43e9-a55a-8550022b2885","ios":"levelo://app?vid=4cc2080c-2720-43e9-a55a-8550022b2885"},"vehicle_type_id":"4","last_reported":1724508483,"current_range_meters":10800,"station_id":"ce4bhs12rcd13ifvqhvg","pricing_plan_id":"cebpf4jnsgd1na2vs0mg"},{"bike_id":"80d5f80b-e55b-47c8-8800-b00739e4e523","system_id":"levelo_inurba_marseille","lat":43.324771,"lon":5.36557,"is_reserved":false,"is_disabled":false,"rental_uris":{"android":"levelo://app?vid=80d5f80b-e55b-47c8-8800-b00739e4e523","ios":"levelo://app?vid=80d5f80b-e55b-47c8-8800-b00739e4e523"},"vehicle_type_id":"4","last_reported":1724508483,"current_range_meters":17600,"station_id":"ce4bhs12rcd13ifvqhvg","pricing_plan_id":"cebpf4jnsgd1na2vs0mg"},{"bike_id":"92329e79-4d9b-4cc4-841f-110517f4933a","system_id":"levelo_inurba_marseille","lat":43.32483,"lon":5.36549,"is_reserved":false,"is_disabled":false,"rental_uris":{"android":"levelo://app?vid=92329e79-4d9b-4cc4-841f-110517f4933a","ios":"levelo://app?vid=92329e79-4d9b-4cc4-841f-110517f4933a"},"vehicle_type_id":"4","last_reported":1724508483,"current_range_meters":25600,"station_id":"ce4bhs12rcd13ifvqhvg","pricing_plan_id":"cebpf4jnsgd1na2vs0mg"},{"bike_id":"9effbf2b-abbc-4d9f-aaeb-845cee3dd12e","system_id":"levelo_inurba_marseille","lat":43.324771,"lon":5.36557,"is_reserved":false,"is_disabled":false,"rental_uris":{"android":"levelo://app?vid=9effbf2b-abbc-4d9f-aaeb-845cee3dd12e","ios":"levelo://app?vid=9effbf2b-abbc-4d9f-aaeb-845cee3dd12e"},"vehicle_type_id":"4","last_reported":1724508483,"current_range_meters":8800,"station_id":"ce4bhs12rcd13ifvqhvg","pricing_plan_id":"cebpf4jnsgd1na2vs0mg"},{"bike_id":"37987f2b-3750-406b-8bf4-fbef977d64db","system_id":"levelo_inurba_marseille","lat":43.32485,"lon":5.36554,"is_reserved":false,"is_disabled":false,"rental_uris":{"android":"levelo://app?vid=37987f2b-3750-406b-8bf4-fbef977d64db","ios":"levelo://app?vid=37987f2b-3750-406b-8bf4-fbef977d64db"},"vehicle_type_id":"4","last_reported":1724508483,"current_range_meters":0,"station_id":"ce4bhs12rcd13ifvqhvg","pricing_plan_id":"cebpf4jnsgd1na2vs0mg"},{"bike_id":"e9e32c1c-2e97-40cc-840e-6cbb5c5fc1dc","system_id":"levelo_inurba_marseille","lat":43.310804,"lon":5.38359,"is_reserved":false,"is_disabled":false,"rental_uris":{"android":"levelo://app?vid=e9e32c1c-2e97-40cc-840e-6cbb5c5fc1dc","ios":"levelo://app?vid=e9e32c1c-2e97-40cc-840e-6cbb5c5fc1dc"},"vehicle_type_id":"4","last_reported":1724508483,"current_range_meters":30800,"station_id":"ce4bgv92rcd13ifvqcr0","pricing_plan_id":"cebpf4jnsgd1na2vs0mg"},{"bike_id":"7a27bac6-0e6b-4ae9-930c-4e63535844eb","system_id":"levelo_inurba_marseille","lat":43.324771,"lon":5.36557,"is_reserved":false,"is_disabled":false,"rental_uris":{"android":"levelo://app?vid=7a27bac6-0e6b-4ae9-930c-4e63535844eb","ios":"levelo://app?vid=7a27bac6-0e6b-4ae9-930c-4e63535844eb"},"vehicle_type_id":"4","last_reported":1724508483,"current_range_meters":26800,"station_id":"ce4bhs12rcd13ifvqhvg","pricing_plan_id":"cebpf4jnsgd1na2vs0mg"},{"bike_id":"4b068ad2-1221-4476-9487-2b7eb5619d8a","system_id":"levelo_inurba_marseille","lat":43.31366,"lon":5.38364,"is_reserved":false,"is_disabled":false,"rental_uris":{"android":"levelo://app?vid=4b068ad2-1221-4476-9487-2b7eb5619d8a","ios":"levelo://app?vid=4b068ad2-1221-4476-9487-2b7eb5619d8a"},"vehicle_type_id":"4","last_reported":1724508483,"current_range_meters":5200,"station_id":"","pricing_plan_id":"cebpf4jnsgd1na2vs0mg"},{"bike_id":"5cd39a6c-a7d6-4e0b-b40a-3bd3bcfed82e","system_id":"levelo_inurba_marseille","lat":43.31071,"lon":5.38367,"is_reserved":false,"is_disabled":false,"rental_uris":{"android":"levelo://app?vid=5cd39a6c-a7d6-4e0b-b40a-3bd3bcfed82e","ios":"levelo://app?vid=5cd39a6c-a7d6-4e0b-b40a-3bd3bcfed82e"},"vehicle_type_id":"4","last_reported":1724508483,"current_range_meters":6000,"station_id":"ce4bgv92rcd13ifvqcr0","pricing_plan_id":"cebpf4jnsgd1na2vs0mg"},{"bike_id":"a6e731c1-436a-41b5-8346-ecb6bb653b15","system_id":"levelo_inurba_marseille","lat":43.302784,"lon":5.377158,"is_reserved":false,"is_disabled":false,"rental_uris":{"android":"levelo://app?vid=a6e731c1-436a-41b5-8346-ecb6bb653b15","ios":"levelo://app?vid=a6e731c1-436a-41b5-8346-ecb6bb653b15"},"vehicle_type_id":"4","last_reported":1724508483,"current_range_meters":31200,"station_id":"ce4bguh2rcd13ifvqcj0","pricing_plan_id":"cebpf4jnsgd1na2vs0mg"},{"bike_id":"26cc948b-928e-4ea9-a633-21d5698c98d7","system_id":"levelo_inurba_marseille","lat":43.301429,"lon":5.37413,"is_reserved":false,"is_disabled":false,"rental_uris":{"android":"levelo://app?vid=26cc948b-928e-4ea9-a633-21d5698c98d7","ios":"levelo://app?vid=26cc948b-928e-4ea9-a633-21d5698c98d7"},"vehicle_type_id":"4","last_reported":1724508483,"current_range_meters":21600,"station_id":"ce4bgs92rcd13ifvqcc0","pricing_plan_id":"cebpf4jnsgd1na2vs0mg"},{"bike_id":"576b1d8d-3014-4215-8fd0-1165fdd8865e","system_id":"levelo_inurba_marseille","lat":43.301429,"lon":5.37413,"is_reserved":false,"is_disabled":false,"rental_uris":{"android":"levelo://app?vid=576b1d8d-3014-4215-8fd0-1165fdd8865e","ios":"levelo://app?vid=576b1d8d-3014-4215-8fd0-1165fdd8865e"},"vehicle_type_id":"4","last_reported":1724508483,"current_range_meters":20800,"station_id":"ce4bgs92rcd13ifvqcc0","pricing_plan_id":"cebpf4jnsgd1na2vs0mg"},{"bike_id":"515ac7ae-fbed-49cb-82f4-5638b62e3bdb","system_id":"levelo_inurba_marseille","lat":43.30143,"lon":5.37413,"is_reserved":false,"is_disabled":false,"rental_uris":{"android":"levelo://app?vid=515ac7ae-fbed-49cb-82f4-5638b62e3bdb","ios":"levelo://app?vid=515ac7ae-fbed-49cb-82f4-5638b62e3bdb"},"vehicle_type_id":"4","last_reported":1724508483,"current_range_meters":31200,"station_id":"ce4bgs92rcd13ifvqcc0","pricing_plan_id":"cebpf4jnsgd1na2vs0mg"},{"bike_id":"3223b460-4e0b-424e-b47f-0dba9ec4d2ec","system_id":"levelo_inurba_marseille","lat":43.31994,"lon":5.38147,"is_reserved":false,"is_disabled":false,"rental_uris":{"android":"levelo://app?vid=3223b460-4e0b-424e-b47f-0dba9ec4d2ec","ios":"levelo://app?vid=3223b460-4e0b-424e-b47f-0dba9ec4d2ec"},"vehicle_type_id":"4","last_reported":1724508483,"current_range_meters":31200,"station_id":"ce4bhr12rcd13ifvqhpg","pricing_plan_id":"cebpf4jnsgd1na2vs0mg"},{"bike_id":"49a8a06d-a3e0-452a-96de-eed526ea47b1","system_id":"levelo_inurba_marseille","lat":43.299222,"lon":5.365554,"is_reserved":false,"is_disabled":false,"rental_uris":{"android":"levelo://app?vid=49a8a06d-a3e0-452a-96de-eed526ea47b1","ios":"levelo://app?vid=49a8a06d-a3e0-452a-96de-eed526ea47b1"},"vehicle_type_id":"4","last_reported":1724508483,"current_range_meters":18800,"station_id":"ce4bgm92rcd13ifvqbr0","pricing_plan_id":"cebpf4jnsgd1na2vs0mg"},{"bike_id":"e9a1d078-a814-41e3-9df6-09bcedfbf257","system_id":"levelo_inurba_marseille","lat":43.299783,"lon":5.37166,"is_reserved":false,"is_disabled":false,"rental_uris":{"android":"levelo://app?vid=e9a1d078-a814-41e3-9df6-09bcedfbf257","ios":"levelo://app?vid=e9a1d078-a814-41e3-9df6-09bcedfbf257"},"vehicle_type_id":"4","last_reported":1724508483,"current_range_meters":25600,"station_id":"ce4bgr92rcd13ifvqc7g","pricing_plan_id":"cebpf4jnsgd1na2vs0mg"},{"bike_id":"c5e0c1ad-5c69-4179-8bc5-e94bc5adb025","system_id":"levelo_inurba_marseille","lat":43.299222,"lon":5.365554,"is_reserved":false,"is_disabled":false,"rental_uris":{"android":"levelo://app?vid=c5e0c1ad-5c69-4179-8bc5-e94bc5adb025","ios":"levelo://app?vid=c5e0c1ad-5c69-4179-8bc5-e94bc5adb025"},"vehicle_type_id":"4","last_reported":1724508483,"current_range_meters":22000,"station_id":"ce4bgm92rcd13ifvqbr0","pricing_plan_id":"cebpf4jnsgd1na2vs0mg"},{"bike_id":"9c3f25cd-282b-4f24-8002-b1cf02192658","system_id":"levelo_inurba_marseille","lat":43.2998,"lon":5.3718,"is_reserved":false,"is_disabled":false,"rental_uris":{"android":"levelo://app?vid=9c3f25cd-282b-4f24-8002-b1cf02192658","ios":"levelo://app?vid=9c3f25cd-282b-4f24-8002-b1cf02192658"},"vehicle_type_id":"4","last_reported":1724508483,"current_range_meters":20400,"station_id":"ce4bgr92rcd13ifvqc7g","pricing_plan_id":"cebpf4jnsgd1na2vs0mg"},{"bike_id":"cfe37fc3-e0a8-45b7-acf6-eb38fdecdb5b","system_id":"levelo_inurba_marseille","lat":43.29973,"lon":5.37186,"is_reserved":false,"is_disabled":false,"rental_uris":{"android":"levelo://app?vid=cfe37fc3-e0a8-45b7-acf6-eb38fdecdb5b","ios":"levelo://app?vid=cfe37fc3-e0a8-45b7-acf6-eb38fdecdb5b"},"vehicle_type_id":"4","last_reported":1724508483,"current_range_meters":24400,"station_id":"ce4bgr92rcd13ifvqc7g","pricing_plan_id":"cebpf4jnsgd1na2vs0mg"},{"bike_id":"a5d87e8f-3ced-4926-9e22-1158d378690f","system_id":"levelo_inurba_marseille","lat":43.29961,"lon":5.37168,"is_reserved":false,"is_disabled":false,"rental_uris":{"android":"levelo://app?vid=a5d87e8f-3ced-4926-9e22-1158d378690f","ios":"levelo://app?vid=a5d87e8f-3ced-4926-9e22-1158d378690f"},"vehicle_type_id":"4","last_reported":1724508483,"current_range_meters":2800,"station_id":"ce4bgr92rcd13ifvqc7g","pricing_plan_id":"cebpf4jnsgd1na2vs0mg"},{"bike_id":"68fdfbed-c46a-4158-8133-b7e387e3fcd0","system_id":"levelo_inurba_marseille","lat":43.29857,"lon":5.36468,"is_reserved":false,"is_disabled":false,"rental_uris":{"android":"levelo://app?vid=68fdfbed-c46a-4158-8133-b7e387e3fcd0","ios":"levelo://app?vid=68fdfbed-c46a-4158-8133-b7e387e3fcd0"},"vehicle_type_id":"4","last_reported":1724508483,"current_range_meters":20000,"station_id":"ce4bgr92rcd13ifvqc7g","pricing_plan_id":"cebpf4jnsgd1na2vs0mg"},{"bike_id":"936f077c-3577-4ae9-bcd2-2fa7f3ba8832","system_id":"levelo_inurba_marseille","lat":43.29851,"lon":5.36289,"is_reserved":false,"is_disabled":false,"rental_uris":{"android":"levelo://app?vid=936f077c-3577-4ae9-bcd2-2fa7f3ba8832","ios":"levelo://app?vid=936f077c-3577-4ae9-bcd2-2fa7f3ba8832"},"vehicle_type_id":"4","last_reported":1724508483,"current_range_meters":30400,"station_id":"ce4bgpp2rcd13ifvqc3g","pricing_plan_id":"cebpf4jnsgd1na2vs0mg"},{"bike_id":"d40be6d4-00b0-4f80-b930-0cd231b7f43f","system_id":"levelo_inurba_marseille","lat":43.29851,"lon":5.36283,"is_reserved":false,"is_disabled":false,"rental_uris":{"android":"levelo://app?vid=d40be6d4-00b0-4f80-b930-0cd231b7f43f","ios":"levelo://app?vid=d40be6d4-00b0-4f80-b930-0cd231b7f43f"},"vehicle_type_id":"4","last_reported":1724508483,"current_range_meters":31200,"station_id":"ce4bgpp2rcd13ifvqc3g","pricing_plan_id":"cebpf4jnsgd1na2vs0mg"},{"bike_id":"4b38f9b4-fd18-4421-8781-b15651ec70b8","system_id":"levelo_inurba_marseille","lat":43.2985,"lon":5.36289,"is_reserved":false,"is_disabled":false,"rental_uris":{"android":"levelo://app?vid=4b38f9b4-fd18-4421-8781-b15651ec70b8","ios":"levelo://app?vid=4b38f9b4-fd18-4421-8781-b15651ec70b8"},"vehicle_type_id":"4","last_reported":1724508483,"current_range_meters":18000,"station_id":"ce4bgpp2rcd13ifvqc3g","pricing_plan_id":"cebpf4jnsgd1na2vs0mg"},{"bike_id":"19e14428-5d4f-4674-8396-5d2f28f0470e","system_id":"levelo_inurba_marseille","lat":43.2985,"lon":5.36286,"is_reserved":false,"is_disabled":false,"rental_uris":{"android":"levelo://app?vid=19e14428-5d4f-4674-8396-5d2f28f0470e","ios":"levelo://app?vid=19e14428-5d4f-4674-8396-5d2f28f0470e"},"vehicle_type_id":"4","last_reported":1724508483,"current_range_meters":6000,"station_id":"ce4bgpp2rcd13ifvqc3g","pricing_plan_id":"cebpf4jnsgd1na2vs0mg"},{"bike_id":"e6824d13-a5f2-43f4-8cba-d1ced3c80129","system_id":"levelo_inurba_marseille","lat":43.2985,"lon":5.36283,"is_reserved":false,"is_disabled":false,"rental_uris":{"android":"levelo://app?vid=e6824d13-a5f2-43f4-8cba-d1ced3c80129","ios":"levelo://app?vid=e6824d13-a5f2-43f4-8cba-d1ced3c80129"},"vehicle_type_id":"4","last_reported":1724508483,"current_range_meters":22000,"station_id":"ce4bgpp2rcd13ifvqc3g","pricing_plan_id":"cebpf4jnsgd1na2vs0mg"},{"bike_id":"cca6275b-8213-4f39-b38e-538f65891115","system_id":"levelo_inurba_marseille","lat":43.298433,"lon":5.362774,"is_reserved":false,"is_disabled":false,"rental_uris":{"android":"levelo://app?vid=cca6275b-8213-4f39-b38e-538f65891115","ios":"levelo://app?vid=cca6275b-8213-4f39-b38e-538f65891115"},"vehicle_type_id":"4","last_reported":1724508483,"current_range_meters":26400,"station_id":"ce4bgpp2rcd13ifvqc3g","pricing_plan_id":"cebpf4jnsgd1na2vs0mg"},{"bike_id":"b258267a-78d0-4151-90ce-dc42538c6648","system_id":"levelo_inurba_marseille","lat":43.29848,"lon":5.36285,"is_reserved":false,"is_disabled":false,"rental_uris":{"android":"levelo://app?vid=b258267a-78d0-4151-90ce-dc42538c6648","ios":"levelo://app?vid=b258267a-78d0-4151-90ce-dc42538c6648"},"vehicle_type_id":"4","last_reported":1724508483,"current_range_meters":5200,"station_id":"ce4bgpp2rcd13ifvqc3g","pricing_plan_id":"cebpf4jnsgd1na2vs0mg"},{"bike_id":"3c2f370e-f01d-4acc-91fb-0a25ff65d162","system_id":"levelo_inurba_marseille","lat":43.298433,"lon":5.362774,"is_reserved":false,"is_disabled":false,"rental_uris":{"android":"levelo://app?vid=3c2f370e-f01d-4acc-91fb-0a25ff65d162","ios":"levelo://app?vid=3c2f370e-f01d-4acc-91fb-0a25ff65d162"},"vehicle_type_id":"4","last_reported":1724508483,"current_range_meters":30000,"station_id":"ce4bgpp2rcd13ifvqc3g","pricing_plan_id":"cebpf4jnsgd1na2vs0mg"},{"bike_id":"ff1f204d-f949-4659-aa12-01ebce364c6b","system_id":"levelo_inurba_marseille","lat":43.298433,"lon":5.362774,"is_reserved":false,"is_disabled":false,"rental_uris":{"android":"levelo://app?vid=ff1f204d-f949-4659-aa12-01ebce364c6b","ios":"levelo://app?vid=ff1f204d-f949-4659-aa12-01ebce364c6b"},"vehicle_type_id":"4","last_reported":1724508483,"current_range_meters":18000,"station_id":"ce4bgpp2rcd13ifvqc3g","pricing_plan_id":"cebpf4jnsgd1na2vs0mg"},{"bike_id":"a4529eb2-1ca5-4324-9865-9d86eeef5339","system_id":"levelo_inurba_marseille","lat":43.298433,"lon":5.362774,"is_reserved":false,"is_disabled":false,"rental_uris":{"android":"levelo://app?vid=a4529eb2-1ca5-4324-9865-9d86eeef5339","ios":"levelo://app?vid=a4529eb2-1ca5-4324-9865-9d86eeef5339"},"vehicle_type_id":"4","last_reported":1724508483,"current_range_meters":22000,"station_id":"ce4bgpp2rcd13ifvqc3g","pricing_plan_id":"cebpf4jnsgd1na2vs0mg"},{"bike_id":"9d6ee737-581e-4164-bb0c-58ee958d8352","system_id":"levelo_inurba_marseille","lat":43.298433,"lon":5.362774,"is_reserved":false,"is_disabled":false,"rental_uris":{"android":"levelo://app?vid=9d6ee737-581e-4164-bb0c-58ee958d8352","ios":"levelo://app?vid=9d6ee737-581e-4164-bb0c-58ee958d8352"},"vehicle_type_id":"4","last_reported":1724508483,"current_range_meters":28000,"station_id":"ce4bgpp2rcd13ifvqc3g","pricing_plan_id":"cebpf4jnsgd1na2vs0mg"},{"bike_id":"b5071d2f-56ff-4d82-9a61-8ea50e4235f0","system_id":"levelo_inurba_marseille","lat":43.298433,"lon":5.362774,"is_reserved":false,"is_disabled":false,"rental_uris":{"android":"levelo://app?vid=b5071d2f-56ff-4d82-9a61-8ea50e4235f0","ios":"levelo://app?vid=b5071d2f-56ff-4d82-9a61-8ea50e4235f0"},"vehicle_type_id":"4","last_reported":1724508483,"current_range_meters":31200,"station_id":"ce4bgpp2rcd13ifvqc3g","pricing_plan_id":"cebpf4jnsgd1na2vs0mg"},{"bike_id":"858f1589-05fa-4828-945e-cf38cfb86e27","system_id":"levelo_inurba_marseille","lat":43.30536,"lon":5.38424,"is_reserved":false,"is_disabled":false,"rental_uris":{"android":"levelo://app?vid=858f1589-05fa-4828-945e-cf38cfb86e27","ios":"levelo://app?vid=858f1589-05fa-4828-945e-cf38cfb86e27"},"vehicle_type_id":"4","last_reported":1724508483,"current_range_meters":9200,"station_id":"ce4bgg92rcd13ifvqb30","pricing_plan_id":"cebpf4jnsgd1na2vs0mg"},{"bike_id":"691e0954-3162-49ea-85a9-aad5a1bd8fea","system_id":"levelo_inurba_marseille","lat":43.298433,"lon":5.362774,"is_reserved":false,"is_disabled":false,"rental_uris":{"android":"levelo://app?vid=691e0954-3162-49ea-85a9-aad5a1bd8fea","ios":"levelo://app?vid=691e0954-3162-49ea-85a9-aad5a1bd8fea"},"vehicle_type_id":"4","last_reported":1724508483,"current_range_meters":29200,"station_id":"ce4bgpp2rcd13ifvqc3g","pricing_plan_id":"cebpf4jnsgd1na2vs0mg"},{"bike_id":"39fa6562-df3a-4ac6-93bd-22bcaa272d84","system_id":"levelo_inurba_marseille","lat":43.299243,"lon":5.37481,"is_reserved":false,"is_disabled":false,"rental_uris":{"android":"levelo://app?vid=39fa6562-df3a-4ac6-93bd-22bcaa272d84","ios":"levelo://app?vid=39fa6562-df3a-4ac6-93bd-22bcaa272d84"},"vehicle_type_id":"4","last_reported":1724508483,"current_range_meters":20400,"station_id":"ce4bgjh2rcd13ifvqbg0","pricing_plan_id":"cebpf4jnsgd1na2vs0mg"},{"bike_id":"34f27d7f-3720-4ff4-8d1c-072e5c9490b3","system_id":"levelo_inurba_marseille","lat":43.29845,"lon":5.36268,"is_reserved":false,"is_disabled":false,"rental_uris":{"android":"levelo://app?vid=34f27d7f-3720-4ff4-8d1c-072e5c9490b3","ios":"levelo://app?vid=34f27d7f-3720-4ff4-8d1c-072e5c9490b3"},"vehicle_type_id":"4","last_reported":1724508483,"current_range_meters":13200,"station_id":"ce4bgpp2rcd13ifvqc3g","pricing_plan_id":"cebpf4jnsgd1na2vs0mg"},{"bike_id":"5afe63ba-7e0b-4d6f-97a2-c9c21a314dff","system_id":"levelo_inurba_marseille","lat":43.298433,"lon":5.362774,"is_reserved":false,"is_disabled":false,"rental_uris":{"android":"levelo://app?vid=5afe63ba-7e0b-4d6f-97a2-c9c21a314dff","ios":"levelo://app?vid=5afe63ba-7e0b-4d6f-97a2-c9c21a314dff"},"vehicle_type_id":"4","last_reported":1724508483,"current_range_meters":15600,"station_id":"ce4bgpp2rcd13ifvqc3g","pricing_plan_id":"cebpf4jnsgd1na2vs0mg"},{"bike_id":"403a8f8a-fb99-491e-b35a-7f7f1e047c3d","system_id":"levelo_inurba_marseille","lat":43.29845,"lon":5.36264,"is_reserved":false,"is_disabled":false,"rental_uris":{"android":"levelo://app?vid=403a8f8a-fb99-491e-b35a-7f7f1e047c3d","ios":"levelo://app?vid=403a8f8a-fb99-491e-b35a-7f7f1e047c3d"},"vehicle_type_id":"4","last_reported":1724508483,"current_range_meters":30400,"station_id":"ce4bgpp2rcd13ifvqc3g","pricing_plan_id":"cebpf4jnsgd1na2vs0mg"},{"bike_id":"16ebc2bf-fb8b-4815-ae90-15500272b51b","system_id":"levelo_inurba_marseille","lat":43.29844,"lon":5.36264,"is_reserved":false,"is_disabled":false,"rental_uris":{"android":"levelo://app?vid=16ebc2bf-fb8b-4815-ae90-15500272b51b","ios":"levelo://app?vid=16ebc2bf-fb8b-4815-ae90-15500272b51b"},"vehicle_type_id":"4","last_reported":1724508483,"current_range_meters":20800,"station_id":"ce4bgpp2rcd13ifvqc3g","pricing_plan_id":"cebpf4jnsgd1na2vs0mg"},{"bike_id":"426b293b-6819-4655-a170-93cc1169ae84","system_id":"levelo_inurba_marseille","lat":43.29843,"lon":5.36266,"is_reserved":false,"is_disabled":false,"rental_uris":{"android":"levelo://app?vid=426b293b-6819-4655-a170-93cc1169ae84","ios":"levelo://app?vid=426b293b-6819-4655-a170-93cc1169ae84"},"vehicle_type_id":"4","last_reported":1724508483,"current_range_meters":31200,"station_id":"ce4bgpp2rcd13ifvqc3g","pricing_plan_id":"cebpf4jnsgd1na2vs0mg"},{"bike_id":"24729af2-6db7-4906-a0b2-477f1f84f365","system_id":"levelo_inurba_marseille","lat":43.29843,"lon":5.36265,"is_reserved":false,"is_disabled":false,"rental_uris":{"android":"levelo://app?vid=24729af2-6db7-4906-a0b2-477f1f84f365","ios":"levelo://app?vid=24729af2-6db7-4906-a0b2-477f1f84f365"},"vehicle_type_id":"4","last_reported":1724508483,"current_range_meters":26800,"station_id":"ce4bgpp2rcd13ifvqc3g","pricing_plan_id":"cebpf4jnsgd1na2vs0mg"},{"bike_id":"4cf2a1ef-0588-4334-b513-d12308353bc6","system_id":"levelo_inurba_marseille","lat":43.2984,"lon":5.36264,"is_reserved":false,"is_disabled":false,"rental_uris":{"android":"levelo://app?vid=4cf2a1ef-0588-4334-b513-d12308353bc6","ios":"levelo://app?vid=4cf2a1ef-0588-4334-b513-d12308353bc6"},"vehicle_type_id":"4","last_reported":1724508483,"current_range_meters":31200,"station_id":"ce4bgpp2rcd13ifvqc3g","pricing_plan_id":"cebpf4jnsgd1na2vs0mg"},{"bike_id":"b2950555-26b1-4d86-ada0-f0f6a4a37852","system_id":"levelo_inurba_marseille","lat":43.298398,"lon":5.362627,"is_reserved":false,"is_disabled":false,"rental_uris":{"android":"levelo://app?vid=b2950555-26b1-4d86-ada0-f0f6a4a37852","ios":"levelo://app?vid=b2950555-26b1-4d86-ada0-f0f6a4a37852"},"vehicle_type_id":"4","last_reported":1724508483,"current_range_meters":30400,"station_id":"ce4bgpp2rcd13ifvqc3g","pricing_plan_id":"cebpf4jnsgd1na2vs0mg"},{"bike_id":"52f3e34d-34a2-496f-b71e-09444295cc72","system_id":"levelo_inurba_marseille","lat":43.298433,"lon":5.362774,"is_reserved":false,"is_disabled":false,"rental_uris":{"android":"levelo://app?vid=52f3e34d-34a2-496f-b71e-09444295cc72","ios":"levelo://app?vid=52f3e34d-34a2-496f-b71e-09444295cc72"},"vehicle_type_id":"4","last_reported":1724508483,"current_range_meters":28000,"station_id":"ce4bgpp2rcd13ifvqc3g","pricing_plan_id":"cebpf4jnsgd1na2vs0mg"},{"bike_id":"6736e928-4c84-4780-8243-0e82655cf25a","system_id":"levelo_inurba_marseille","lat":43.311722,"lon":5.387247,"is_reserved":false,"is_disabled":false,"rental_uris":{"android":"levelo://app?vid=6736e928-4c84-4780-8243-0e82655cf25a","ios":"levelo://app?vid=6736e928-4c84-4780-8243-0e82655cf25a"},"vehicle_type_id":"4","last_reported":1724508483,"current_range_meters":12800,"station_id":"ce4bgv12rcd13ifvqcp0","pricing_plan_id":"cebpf4jnsgd1na2vs0mg"},{"bike_id":"33eb9b2e-c6c8-4f15-b30a-dff2879eced4","system_id":"levelo_inurba_marseille","lat":43.30154,"lon":5.38091,"is_reserved":false,"is_disabled":false,"rental_uris":{"android":"levelo://app?vid=33eb9b2e-c6c8-4f15-b30a-dff2879eced4","ios":"levelo://app?vid=33eb9b2e-c6c8-4f15-b30a-dff2879eced4"},"vehicle_type_id":"4","last_reported":1724508483,"current_range_meters":24800,"station_id":"ce4bgjp2rcd13ifvqbh0","pricing_plan_id":"cebpf4jnsgd1na2vs0mg"},{"bike_id":"def42c1f-e425-4e22-a742-f14b550d1372","system_id":"levelo_inurba_marseille","lat":43.297794,"lon":5.370888,"is_reserved":false,"is_disabled":false,"rental_uris":{"android":"levelo://app?vid=def42c1f-e425-4e22-a742-f14b550d1372","ios":"levelo://app?vid=def42c1f-e425-4e22-a742-f14b550d1372"},"vehicle_type_id":"4","last_reported":1724508483,"current_range_meters":14400,"station_id":"ce4bgop2rcd13ifvqc1g","pricing_plan_id":"cebpf4jnsgd1na2vs0mg"},{"bike_id":"43637faa-bc57-4af9-9031-ccf7137dafc6","system_id":"levelo_inurba_marseille","lat":43.322914,"lon":5.382574,"is_reserved":false,"is_disabled":false,"rental_uris":{"android":"levelo://app?vid=43637faa-bc57-4af9-9031-ccf7137dafc6","ios":"levelo://app?vid=43637faa-bc57-4af9-9031-ccf7137dafc6"},"vehicle_type_id":"4","last_reported":1724508483,"current_range_meters":23600,"station_id":"ce4bhr12rcd13ifvqhqg","pricing_plan_id":"cebpf4jnsgd1na2vs0mg"},{"bike_id":"1ce863d3-c410-4f93-87a8-691a34b06e77","system_id":"levelo_inurba_marseille","lat":43.32296,"lon":5.38254,"is_reserved":false,"is_disabled":false,"rental_uris":{"android":"levelo://app?vid=1ce863d3-c410-4f93-87a8-691a34b06e77","ios":"levelo://app?vid=1ce863d3-c410-4f93-87a8-691a34b06e77"},"vehicle_type_id":"4","last_reported":1724508483,"current_range_meters":26800,"station_id":"ce4bhr12rcd13ifvqhqg","pricing_plan_id":"cebpf4jnsgd1na2vs0mg"},{"bike_id":"03c09c79-b029-4978-a79b-7e064eefc860","system_id":"levelo_inurba_marseille","lat":43.29775,"lon":5.37112,"is_reserved":false,"is_disabled":false,"rental_uris":{"android":"levelo://app?vid=03c09c79-b029-4978-a79b-7e064eefc860","ios":"levelo://app?vid=03c09c79-b029-4978-a79b-7e064eefc860"},"vehicle_type_id":"4","last_reported":1724508483,"current_range_meters":0,"station_id":"ce4bgop2rcd13ifvqc1g","pricing_plan_id":"cebpf4jnsgd1na2vs0mg"},{"bike_id":"998b6081-91b9-4285-807a-44e00de84fbf","system_id":"levelo_inurba_marseille","lat":43.297163,"lon":5.365866,"is_reserved":false,"is_disabled":false,"rental_uris":{"android":"levelo://app?vid=998b6081-91b9-4285-807a-44e00de84fbf","ios":"levelo://app?vid=998b6081-91b9-4285-807a-44e00de84fbf"},"vehicle_type_id":"4","last_reported":1724508483,"current_range_meters":3600,"station_id":"ce4bgn12rcd13ifvqbt0","pricing_plan_id":"cebpf4jnsgd1na2vs0mg"},{"bike_id":"a84929d9-e0f5-47e3-abf4-5c209557aecb","system_id":"levelo_inurba_marseille","lat":43.297163,"lon":5.365866,"is_reserved":false,"is_disabled":false,"rental_uris":{"android":"levelo://app?vid=a84929d9-e0f5-47e3-abf4-5c209557aecb","ios":"levelo://app?vid=a84929d9-e0f5-47e3-abf4-5c209557aecb"},"vehicle_type_id":"4","last_reported":1724508483,"current_range_meters":4000,"station_id":"ce4bgn12rcd13ifvqbt0","pricing_plan_id":"cebpf4jnsgd1na2vs0mg"},{"bike_id":"f4ad4c97-cb2a-4078-a0eb-6ba72eff2b8e","system_id":"levelo_inurba_marseille","lat":43.297163,"lon":5.365866,"is_reserved":false,"is_disabled":false,"rental_uris":{"android":"levelo://app?vid=f4ad4c97-cb2a-4078-a0eb-6ba72eff2b8e","ios":"levelo://app?vid=f4ad4c97-cb2a-4078-a0eb-6ba72eff2b8e"},"vehicle_type_id":"4","last_reported":1724508483,"current_range_meters":2000,"station_id":"ce4bgn12rcd13ifvqbt0","pricing_plan_id":"cebpf4jnsgd1na2vs0mg"},{"bike_id":"176f42e6-7464-4d17-860d-5e7a38d73c0b","system_id":"levelo_inurba_marseille","lat":43.297163,"lon":5.365866,"is_reserved":false,"is_disabled":false,"rental_uris":{"android":"levelo://app?vid=176f42e6-7464-4d17-860d-5e7a38d73c0b","ios":"levelo://app?vid=176f42e6-7464-4d17-860d-5e7a38d73c0b"},"vehicle_type_id":"4","last_reported":1724508483,"current_range_meters":14800,"station_id":"ce4bgn12rcd13ifvqbt0","pricing_plan_id":"cebpf4jnsgd1na2vs0mg"},{"bike_id":"c6c1e67c-691b-4850-92c5-627f46dbd81d","system_id":"levelo_inurba_marseille","lat":43.2968,"lon":5.37291,"is_reserved":false,"is_disabled":false,"rental_uris":{"android":"levelo://app?vid=c6c1e67c-691b-4850-92c5-627f46dbd81d","ios":"levelo://app?vid=c6c1e67c-691b-4850-92c5-627f46dbd81d"},"vehicle_type_id":"4","last_reported":1724508483,"current_range_meters":31200,"station_id":"ce4bgk12rcd13ifvqbj0","pricing_plan_id":"cebpf4jnsgd1na2vs0mg"},{"bike_id":"b5c6a6d8-dc31-496c-a2b0-a0d48faaa2fc","system_id":"levelo_inurba_marseille","lat":43.2968,"lon":5.37291,"is_reserved":false,"is_disabled":false,"rental_uris":{"android":"levelo://app?vid=b5c6a6d8-dc31-496c-a2b0-a0d48faaa2fc","ios":"levelo://app?vid=b5c6a6d8-dc31-496c-a2b0-a0d48faaa2fc"},"vehicle_type_id":"4","last_reported":1724508483,"current_range_meters":4400,"station_id":"ce4bgk12rcd13ifvqbj0","pricing_plan_id":"cebpf4jnsgd1na2vs0mg"},{"bike_id":"e9023613-e60d-4b1e-8bdf-fb986dc0b62d","system_id":"levelo_inurba_marseille","lat":43.2968,"lon":5.37291,"is_reserved":false,"is_disabled":false,"rental_uris":{"android":"levelo://app?vid=e9023613-e60d-4b1e-8bdf-fb986dc0b62d","ios":"levelo://app?vid=e9023613-e60d-4b1e-8bdf-fb986dc0b62d"},"vehicle_type_id":"4","last_reported":1724508483,"current_range_meters":23600,"station_id":"ce4bgk12rcd13ifvqbj0","pricing_plan_id":"cebpf4jnsgd1na2vs0mg"},{"bike_id":"4ecc939b-72a7-40c3-8e20-6bffdb27d08a","system_id":"levelo_inurba_marseille","lat":43.29588,"lon":5.36747,"is_reserved":false,"is_disabled":false,"rental_uris":{"android":"levelo://app?vid=4ecc939b-72a7-40c3-8e20-6bffdb27d08a","ios":"levelo://app?vid=4ecc939b-72a7-40c3-8e20-6bffdb27d08a"},"vehicle_type_id":"4","last_reported":1724508483,"current_range_meters":0,"station_id":"ce4bgph2rcd13ifvqc2g","pricing_plan_id":"cebpf4jnsgd1na2vs0mg"},{"bike_id":"d74582a9-1a02-4e80-a9f8-5f91c37f9d42","system_id":"levelo_inurba_marseille","lat":43.29573,"lon":5.367355,"is_reserved":false,"is_disabled":false,"rental_uris":{"android":"levelo://app?vid=d74582a9-1a02-4e80-a9f8-5f91c37f9d42","ios":"levelo://app?vid=d74582a9-1a02-4e80-a9f8-5f91c37f9d42"},"vehicle_type_id":"4","last_reported":1724508483,"current_range_meters":27600,"station_id":"ce4bgph2rcd13ifvqc2g","pricing_plan_id":"cebpf4jnsgd1na2vs0mg"},{"bike_id":"6b0413e2-133d-4259-a3de-c90dc0698f19","system_id":"levelo_inurba_marseille","lat":43.309589,"lon":5.390258,"is_reserved":false,"is_disabled":false,"rental_uris":{"android":"levelo://app?vid=6b0413e2-133d-4259-a3de-c90dc0698f19","ios":"levelo://app?vid=6b0413e2-133d-4259-a3de-c90dc0698f19"},"vehicle_type_id":"4","last_reported":1724508483,"current_range_meters":5600,"station_id":"ce4bgup2rcd13ifvqco0","pricing_plan_id":"cebpf4jnsgd1na2vs0mg"},{"bike_id":"70114a63-b049-4d8e-b316-f73a6e59f572","system_id":"levelo_inurba_marseille","lat":43.296935,"lon":5.376544,"is_reserved":false,"is_disabled":false,"rental_uris":{"android":"levelo://app?vid=70114a63-b049-4d8e-b316-f73a6e59f572","ios":"levelo://app?vid=70114a63-b049-4d8e-b316-f73a6e59f572"},"vehicle_type_id":"4","last_reported":1724508483,"current_range_meters":8000,"station_id":"ce4bgkh2rcd13ifvqbl0","pricing_plan_id":"cebpf4jnsgd1na2vs0mg"},{"bike_id":"0f80e4a7-dd24-4bcb-898e-d82ea20cfec9","system_id":"levelo_inurba_marseille","lat":43.29601,"lon":5.36041,"is_reserved":false,"is_disabled":false,"rental_uris":{"android":"levelo://app?vid=0f80e4a7-dd24-4bcb-898e-d82ea20cfec9","ios":"levelo://app?vid=0f80e4a7-dd24-4bcb-898e-d82ea20cfec9"},"vehicle_type_id":"4","last_reported":1724508483,"current_range_meters":4000,"station_id":"","pricing_plan_id":"cebpf4jnsgd1na2vs0mg"},{"bike_id":"6fdf576a-b3c6-4615-913b-3c694885c634","system_id":"levelo_inurba_marseille","lat":43.296935,"lon":5.376544,"is_reserved":false,"is_disabled":false,"rental_uris":{"android":"levelo://app?vid=6fdf576a-b3c6-4615-913b-3c694885c634","ios":"levelo://app?vid=6fdf576a-b3c6-4615-913b-3c694885c634"},"vehicle_type_id":"4","last_reported":1724508483,"current_range_meters":25200,"station_id":"ce4bgkh2rcd13ifvqbl0","pricing_plan_id":"cebpf4jnsgd1na2vs0mg"},{"bike_id":"51f0422a-7761-4081-ae61-438b7056184b","system_id":"levelo_inurba_marseille","lat":43.317557,"lon":5.390173,"is_reserved":false,"is_disabled":false,"rental_uris":{"android":"levelo://app?vid=51f0422a-7761-4081-ae61-438b7056184b","ios":"levelo://app?vid=51f0422a-7761-4081-ae61-438b7056184b"},"vehicle_type_id":"4","last_reported":1724508483,"current_range_meters":28400,"station_id":"ce4bhqp2rcd13ifvqhng","pricing_plan_id":"cebpf4jnsgd1na2vs0mg"},{"bike_id":"a2318dce-829d-4cee-b04b-4e186d6b13a6","system_id":"levelo_inurba_marseille","lat":43.317557,"lon":5.390173,"is_reserved":false,"is_disabled":false,"rental_uris":{"android":"levelo://app?vid=a2318dce-829d-4cee-b04b-4e186d6b13a6","ios":"levelo://app?vid=a2318dce-829d-4cee-b04b-4e186d6b13a6"},"vehicle_type_id":"4","last_reported":1724508483,"current_range_meters":24000,"station_id":"ce4bhqp2rcd13ifvqhng","pricing_plan_id":"cebpf4jnsgd1na2vs0mg"},{"bike_id":"514fc42f-aa48-4ab5-8f61-bb5c22267f2a","system_id":"levelo_inurba_marseille","lat":43.296921,"lon":5.376579,"is_reserved":false,"is_disabled":false,"rental_uris":{"android":"levelo://app?vid=514fc42f-aa48-4ab5-8f61-bb5c22267f2a","ios":"levelo://app?vid=514fc42f-aa48-4ab5-8f61-bb5c22267f2a"},"vehicle_type_id":"4","last_reported":1724508483,"current_range_meters":22400,"station_id":"ce4bgkh2rcd13ifvqbl0","pricing_plan_id":"cebpf4jnsgd1na2vs0mg"},{"bike_id":"eb4b2aad-c4b7-4488-a501-49e086478804","system_id":"levelo_inurba_marseille","lat":43.298037,"lon":5.381066,"is_reserved":false,"is_disabled":false,"rental_uris":{"android":"levelo://app?vid=eb4b2aad-c4b7-4488-a501-49e086478804","ios":"levelo://app?vid=eb4b2aad-c4b7-4488-a501-49e086478804"},"vehicle_type_id":"4","last_reported":1724508483,"current_range_meters":26400,"station_id":"ce4bgip2rcd13ifvqbb0","pricing_plan_id":"cebpf4jnsgd1na2vs0mg"},{"bike_id":"39d9f978-cf43-43ef-b78b-0a04de92fa50","system_id":"levelo_inurba_marseille","lat":43.29617,"lon":5.37718,"is_reserved":false,"is_disabled":false,"rental_uris":{"android":"levelo://app?vid=39d9f978-cf43-43ef-b78b-0a04de92fa50","ios":"levelo://app?vid=39d9f978-cf43-43ef-b78b-0a04de92fa50"},"vehicle_type_id":"4","last_reported":1724508483,"current_range_meters":0,"station_id":"ce4bgi92rcd13ifvqb90","pricing_plan_id":"cebpf4jnsgd1na2vs0mg"},{"bike_id":"ec19a7e5-b646-407b-aced-92aeaf749f3c","system_id":"levelo_inurba_marseille","lat":43.295279,"lon":5.375048,"is_reserved":false,"is_disabled":false,"rental_uris":{"android":"levelo://app?vid=ec19a7e5-b646-407b-aced-92aeaf749f3c","ios":"levelo://app?vid=ec19a7e5-b646-407b-aced-92aeaf749f3c"},"vehicle_type_id":"4","last_reported":1724508483,"current_range_meters":26800,"station_id":"ce4bgkp2rcd13ifvqbmg","pricing_plan_id":"cebpf4jnsgd1na2vs0mg"},{"bike_id":"1345b1ba-3795-4efc-8128-d6ba5e77d977","system_id":"levelo_inurba_marseille","lat":43.299707,"lon":5.384859,"is_reserved":false,"is_disabled":false,"rental_uris":{"android":"levelo://app?vid=1345b1ba-3795-4efc-8128-d6ba5e77d977","ios":"levelo://app?vid=1345b1ba-3795-4efc-8128-d6ba5e77d977"},"vehicle_type_id":"4","last_reported":1724508483,"current_range_meters":7200,"station_id":"ce4bgj92rcd13ifvqbd0","pricing_plan_id":"cebpf4jnsgd1na2vs0mg"},{"bike_id":"5bfac602-caaf-48f5-b110-af6c41cbd05f","system_id":"levelo_inurba_marseille","lat":43.299724,"lon":5.384848,"is_reserved":false,"is_disabled":false,"rental_uris":{"android":"levelo://app?vid=5bfac602-caaf-48f5-b110-af6c41cbd05f","ios":"levelo://app?vid=5bfac602-caaf-48f5-b110-af6c41cbd05f"},"vehicle_type_id":"4","last_reported":1724508483,"current_range_meters":25600,"station_id":"ce4bgj92rcd13ifvqbd0","pricing_plan_id":"cebpf4jnsgd1na2vs0mg"},{"bike_id":"67f1d87e-e768-49fa-b302-664b4cc40f1a","system_id":"levelo_inurba_marseille","lat":43.29684,"lon":5.38129,"is_reserved":false,"is_disabled":false,"rental_uris":{"android":"levelo://app?vid=67f1d87e-e768-49fa-b302-664b4cc40f1a","ios":"levelo://app?vid=67f1d87e-e768-49fa-b302-664b4cc40f1a"},"vehicle_type_id":"4","last_reported":1724508483,"current_range_meters":18800,"station_id":"","pricing_plan_id":"cebpf4jnsgd1na2vs0mg"},{"bike_id":"0ab23b32-06e6-4372-9f9f-76dbaa57f7cd","system_id":"levelo_inurba_marseille","lat":43.296,"lon":5.38102,"is_reserved":false,"is_disabled":false,"rental_uris":{"android":"levelo://app?vid=0ab23b32-06e6-4372-9f9f-76dbaa57f7cd","ios":"levelo://app?vid=0ab23b32-06e6-4372-9f9f-76dbaa57f7cd"},"vehicle_type_id":"4","last_reported":1724508483,"current_range_meters":27600,"station_id":"ce4bgl12rcd13ifvqbo0","pricing_plan_id":"cebpf4jnsgd1na2vs0mg"},{"bike_id":"6f2cf350-49d8-434d-ab9f-9613d0e03afd","system_id":"levelo_inurba_marseille","lat":43.29602,"lon":5.381084,"is_reserved":false,"is_disabled":false,"rental_uris":{"android":"levelo://app?vid=6f2cf350-49d8-434d-ab9f-9613d0e03afd","ios":"levelo://app?vid=6f2cf350-49d8-434d-ab9f-9613d0e03afd"},"vehicle_type_id":"4","last_reported":1724508483,"current_range_meters":15600,"station_id":"ce4bgl12rcd13ifvqbo0","pricing_plan_id":"cebpf4jnsgd1na2vs0mg"},{"bike_id":"6708fe80-cb83-433d-89e8-6dbe92a6ce02","system_id":"levelo_inurba_marseille","lat":43.292749,"lon":5.368402,"is_reserved":false,"is_disabled":false,"rental_uris":{"android":"levelo://app?vid=6708fe80-cb83-433d-89e8-6dbe92a6ce02","ios":"levelo://app?vid=6708fe80-cb83-433d-89e8-6dbe92a6ce02"},"vehicle_type_id":"4","last_reported":1724508483,"current_range_meters":22400,"station_id":"ce4bhbp2rcd13ifvqesg","pricing_plan_id":"cebpf4jnsgd1na2vs0mg"},{"bike_id":"3f9c10f8-6993-4435-bc10-1c52b9209982","system_id":"levelo_inurba_marseille","lat":43.292749,"lon":5.368402,"is_reserved":false,"is_disabled":false,"rental_uris":{"android":"levelo://app?vid=3f9c10f8-6993-4435-bc10-1c52b9209982","ios":"levelo://app?vid=3f9c10f8-6993-4435-bc10-1c52b9209982"},"vehicle_type_id":"4","last_reported":1724508483,"current_range_meters":20000,"station_id":"ce4bhbp2rcd13ifvqesg","pricing_plan_id":"cebpf4jnsgd1na2vs0mg"},{"bike_id":"3d2a8011-d021-4859-a5fc-a618e237946d","system_id":"levelo_inurba_marseille","lat":43.292749,"lon":5.368402,"is_reserved":false,"is_disabled":false,"rental_uris":{"android":"levelo://app?vid=3d2a8011-d021-4859-a5fc-a618e237946d","ios":"levelo://app?vid=3d2a8011-d021-4859-a5fc-a618e237946d"},"vehicle_type_id":"4","last_reported":1724508483,"current_range_meters":24800,"station_id":"ce4bhbp2rcd13ifvqesg","pricing_plan_id":"cebpf4jnsgd1na2vs0mg"},{"bike_id":"b008aa4a-93d7-45e1-bc91-061a4cdbe7c6","system_id":"levelo_inurba_marseille","lat":43.292749,"lon":5.368402,"is_reserved":false,"is_disabled":false,"rental_uris":{"android":"levelo://app?vid=b008aa4a-93d7-45e1-bc91-061a4cdbe7c6","ios":"levelo://app?vid=b008aa4a-93d7-45e1-bc91-061a4cdbe7c6"},"vehicle_type_id":"4","last_reported":1724508483,"current_range_meters":22000,"station_id":"ce4bhbp2rcd13ifvqesg","pricing_plan_id":"cebpf4jnsgd1na2vs0mg"},{"bike_id":"7c4e9d89-72b3-4816-b231-df977728299d","system_id":"levelo_inurba_marseille","lat":43.293009,"lon":5.374584,"is_reserved":false,"is_disabled":false,"rental_uris":{"android":"levelo://app?vid=7c4e9d89-72b3-4816-b231-df977728299d","ios":"levelo://app?vid=7c4e9d89-72b3-4816-b231-df977728299d"},"vehicle_type_id":"4","last_reported":1724508483,"current_range_meters":1200,"station_id":"ce4bgi12rcd13ifvqb70","pricing_plan_id":"cebpf4jnsgd1na2vs0mg"},{"bike_id":"afe86537-6ec2-489f-9a06-f19f85918398","system_id":"levelo_inurba_marseille","lat":43.298764,"lon":5.388973,"is_reserved":false,"is_disabled":false,"rental_uris":{"android":"levelo://app?vid=afe86537-6ec2-489f-9a06-f19f85918398","ios":"levelo://app?vid=afe86537-6ec2-489f-9a06-f19f85918398"},"vehicle_type_id":"4","last_reported":1724508483,"current_range_meters":4800,"station_id":"ce4bh392rcd13ifvqdl0","pricing_plan_id":"cebpf4jnsgd1na2vs0mg"},{"bike_id":"45365d07-ff14-4ea4-bff6-4ff9a1ad4931","system_id":"levelo_inurba_marseille","lat":43.305994,"lon":5.393687,"is_reserved":false,"is_disabled":false,"rental_uris":{"android":"levelo://app?vid=45365d07-ff14-4ea4-bff6-4ff9a1ad4931","ios":"levelo://app?vid=45365d07-ff14-4ea4-bff6-4ff9a1ad4931"},"vehicle_type_id":"4","last_reported":1724508483,"current_range_meters":28000,"station_id":"ce4bh0p2rcd13ifvqd80","pricing_plan_id":"cebpf4jnsgd1na2vs0mg"},{"bike_id":"005560f9-7efa-452e-8803-215c978c518c","system_id":"levelo_inurba_marseille","lat":43.303002,"lon":5.392142,"is_reserved":false,"is_disabled":false,"rental_uris":{"android":"levelo://app?vid=005560f9-7efa-452e-8803-215c978c518c","ios":"levelo://app?vid=005560f9-7efa-452e-8803-215c978c518c"},"vehicle_type_id":"4","last_reported":1724508483,"current_range_meters":25600,"station_id":"ce4bgkh2rcd13ifvqbk0","pricing_plan_id":"cebpf4jnsgd1na2vs0mg"},{"bike_id":"78a8c6f8-08b3-4db1-9e1d-5c5938c7a74b","system_id":"levelo_inurba_marseille","lat":43.2936,"lon":5.37835,"is_reserved":false,"is_disabled":false,"rental_uris":{"android":"levelo://app?vid=78a8c6f8-08b3-4db1-9e1d-5c5938c7a74b","ios":"levelo://app?vid=78a8c6f8-08b3-4db1-9e1d-5c5938c7a74b"},"vehicle_type_id":"4","last_reported":1724508483,"current_range_meters":31200,"station_id":"ce4bgjh2rcd13ifvqbf0","pricing_plan_id":"cebpf4jnsgd1na2vs0mg"},{"bike_id":"ffbf0005-10b7-4793-9d4d-c78d39c41ca7","system_id":"levelo_inurba_marseille","lat":43.29374,"lon":5.37849,"is_reserved":false,"is_disabled":false,"rental_uris":{"android":"levelo://app?vid=ffbf0005-10b7-4793-9d4d-c78d39c41ca7","ios":"levelo://app?vid=ffbf0005-10b7-4793-9d4d-c78d39c41ca7"},"vehicle_type_id":"4","last_reported":1724508483,"current_range_meters":0,"station_id":"ce4bgjh2rcd13ifvqbf0","pricing_plan_id":"cebpf4jnsgd1na2vs0mg"},{"bike_id":"494af154-e7f9-455d-8899-4d35f1840e20","system_id":"levelo_inurba_marseille","lat":43.29227,"lon":5.36068,"is_reserved":false,"is_disabled":false,"rental_uris":{"android":"levelo://app?vid=494af154-e7f9-455d-8899-4d35f1840e20","ios":"levelo://app?vid=494af154-e7f9-455d-8899-4d35f1840e20"},"vehicle_type_id":"4","last_reported":1724508483,"current_range_meters":0,"station_id":"ce4bhbh2rcd13ifvqeqg","pricing_plan_id":"cebpf4jnsgd1na2vs0mg"},{"bike_id":"c0241513-231a-4897-9092-bd8796774506","system_id":"levelo_inurba_marseille","lat":43.299724,"lon":5.371829,"is_reserved":false,"is_disabled":false,"rental_uris":{"android":"levelo://app?vid=c0241513-231a-4897-9092-bd8796774506","ios":"levelo://app?vid=c0241513-231a-4897-9092-bd8796774506"},"vehicle_type_id":"4","last_reported":1724508483,"current_range_meters":28800,"station_id":"ce4bgr92rcd13ifvqc7g","pricing_plan_id":"cebpf4jnsgd1na2vs0mg"},{"bike_id":"083cb438-efeb-42c6-8524-94a479662877","system_id":"levelo_inurba_marseille","lat":43.292311,"lon":5.360731,"is_reserved":false,"is_disabled":false,"rental_uris":{"android":"levelo://app?vid=083cb438-efeb-42c6-8524-94a479662877","ios":"levelo://app?vid=083cb438-efeb-42c6-8524-94a479662877"},"vehicle_type_id":"4","last_reported":1724508483,"current_range_meters":14400,"station_id":"ce4bhbh2rcd13ifvqeqg","pricing_plan_id":"cebpf4jnsgd1na2vs0mg"},{"bike_id":"e9919a79-8041-4346-9b42-59dc322dd97f","system_id":"levelo_inurba_marseille","lat":43.292311,"lon":5.360731,"is_reserved":false,"is_disabled":false,"rental_uris":{"android":"levelo://app?vid=e9919a79-8041-4346-9b42-59dc322dd97f","ios":"levelo://app?vid=e9919a79-8041-4346-9b42-59dc322dd97f"},"vehicle_type_id":"4","last_reported":1724508483,"current_range_meters":22000,"station_id":"ce4bhbh2rcd13ifvqeqg","pricing_plan_id":"cebpf4jnsgd1na2vs0mg"},{"bike_id":"b20c7712-b1b8-4f3b-bd9b-c568718eb72e","system_id":"levelo_inurba_marseille","lat":43.292311,"lon":5.360731,"is_reserved":false,"is_disabled":false,"rental_uris":{"android":"levelo://app?vid=b20c7712-b1b8-4f3b-bd9b-c568718eb72e","ios":"levelo://app?vid=b20c7712-b1b8-4f3b-bd9b-c568718eb72e"},"vehicle_type_id":"4","last_reported":1724508483,"current_range_meters":28000,"station_id":"ce4bhbh2rcd13ifvqeqg","pricing_plan_id":"cebpf4jnsgd1na2vs0mg"},{"bike_id":"ce49daa7-87e4-4749-85e7-6dab91519271","system_id":"levelo_inurba_marseille","lat":43.292311,"lon":5.360731,"is_reserved":false,"is_disabled":false,"rental_uris":{"android":"levelo://app?vid=ce49daa7-87e4-4749-85e7-6dab91519271","ios":"levelo://app?vid=ce49daa7-87e4-4749-85e7-6dab91519271"},"vehicle_type_id":"4","last_reported":1724508483,"current_range_meters":26400,"station_id":"ce4bhbh2rcd13ifvqeqg","pricing_plan_id":"cebpf4jnsgd1na2vs0mg"},{"bike_id":"af673354-d24d-4782-a0d0-72c8e831fc4b","system_id":"levelo_inurba_marseille","lat":43.29873,"lon":5.3891,"is_reserved":false,"is_disabled":false,"rental_uris":{"android":"levelo://app?vid=af673354-d24d-4782-a0d0-72c8e831fc4b","ios":"levelo://app?vid=af673354-d24d-4782-a0d0-72c8e831fc4b"},"vehicle_type_id":"4","last_reported":1724508483,"current_range_meters":26800,"station_id":"","pricing_plan_id":"cebpf4jnsgd1na2vs0mg"},{"bike_id":"2a30813b-008a-4e4f-9549-d0254834a1e4","system_id":"levelo_inurba_marseille","lat":43.309047,"lon":5.396551,"is_reserved":false,"is_disabled":false,"rental_uris":{"android":"levelo://app?vid=2a30813b-008a-4e4f-9549-d0254834a1e4","ios":"levelo://app?vid=2a30813b-008a-4e4f-9549-d0254834a1e4"},"vehicle_type_id":"4","last_reported":1724508483,"current_range_meters":25600,"station_id":"ce4bh012rcd13ifvqcv0","pricing_plan_id":"cebpf4jnsgd1na2vs0mg"},{"bike_id":"b93e0aef-e9e1-4589-b2f7-9dcd3be30723","system_id":"levelo_inurba_marseille","lat":43.309038,"lon":5.396546,"is_reserved":false,"is_disabled":false,"rental_uris":{"android":"levelo://app?vid=b93e0aef-e9e1-4589-b2f7-9dcd3be30723","ios":"levelo://app?vid=b93e0aef-e9e1-4589-b2f7-9dcd3be30723"},"vehicle_type_id":"4","last_reported":1724508483,"current_range_meters":20800,"station_id":"ce4bh012rcd13ifvqcv0","pricing_plan_id":"cebpf4jnsgd1na2vs0mg"},{"bike_id":"0e5bb946-68b6-4c07-a5c7-a6ffecd03652","system_id":"levelo_inurba_marseille","lat":43.309038,"lon":5.396546,"is_reserved":false,"is_disabled":false,"rental_uris":{"android":"levelo://app?vid=0e5bb946-68b6-4c07-a5c7-a6ffecd03652","ios":"levelo://app?vid=0e5bb946-68b6-4c07-a5c7-a6ffecd03652"},"vehicle_type_id":"4","last_reported":1724508483,"current_range_meters":28400,"station_id":"ce4bh012rcd13ifvqcv0","pricing_plan_id":"cebpf4jnsgd1na2vs0mg"},{"bike_id":"a42419c7-0eab-4982-9db5-dad54b18f1ff","system_id":"levelo_inurba_marseille","lat":43.309047,"lon":5.396551,"is_reserved":false,"is_disabled":false,"rental_uris":{"android":"levelo://app?vid=a42419c7-0eab-4982-9db5-dad54b18f1ff","ios":"levelo://app?vid=a42419c7-0eab-4982-9db5-dad54b18f1ff"},"vehicle_type_id":"4","last_reported":1724508483,"current_range_meters":19600,"station_id":"ce4bh012rcd13ifvqcv0","pricing_plan_id":"cebpf4jnsgd1na2vs0mg"},{"bike_id":"9da51222-6087-4dd8-ac07-b8d798b1d5d0","system_id":"levelo_inurba_marseille","lat":43.292005,"lon":5.357875,"is_reserved":false,"is_disabled":false,"rental_uris":{"android":"levelo://app?vid=9da51222-6087-4dd8-ac07-b8d798b1d5d0","ios":"levelo://app?vid=9da51222-6087-4dd8-ac07-b8d798b1d5d0"},"vehicle_type_id":"4","last_reported":1724508483,"current_range_meters":14800,"station_id":"ce4bhb12rcd13ifvqel0","pricing_plan_id":"cebpf4jnsgd1na2vs0mg"},{"bike_id":"be0412d6-0088-4310-8fd5-9146c6b8305d","system_id":"levelo_inurba_marseille","lat":43.292005,"lon":5.357875,"is_reserved":false,"is_disabled":false,"rental_uris":{"android":"levelo://app?vid=be0412d6-0088-4310-8fd5-9146c6b8305d","ios":"levelo://app?vid=be0412d6-0088-4310-8fd5-9146c6b8305d"},"vehicle_type_id":"4","last_reported":1724508483,"current_range_meters":24800,"station_id":"ce4bhb12rcd13ifvqel0","pricing_plan_id":"cebpf4jnsgd1na2vs0mg"},{"bike_id":"cf878aae-c6aa-4cba-84c9-ada151474a0b","system_id":"levelo_inurba_marseille","lat":43.309038,"lon":5.396546,"is_reserved":false,"is_disabled":false,"rental_uris":{"android":"levelo://app?vid=cf878aae-c6aa-4cba-84c9-ada151474a0b","ios":"levelo://app?vid=cf878aae-c6aa-4cba-84c9-ada151474a0b"},"vehicle_type_id":"4","last_reported":1724508483,"current_range_meters":20800,"station_id":"ce4bh012rcd13ifvqcv0","pricing_plan_id":"cebpf4jnsgd1na2vs0mg"},{"bike_id":"ff262e28-f510-4d21-8a37-4e8767e4b3f6","system_id":"levelo_inurba_marseille","lat":43.309047,"lon":5.396551,"is_reserved":false,"is_disabled":false,"rental_uris":{"android":"levelo://app?vid=ff262e28-f510-4d21-8a37-4e8767e4b3f6","ios":"levelo://app?vid=ff262e28-f510-4d21-8a37-4e8767e4b3f6"},"vehicle_type_id":"4","last_reported":1724508483,"current_range_meters":0,"station_id":"ce4bh012rcd13ifvqcv0","pricing_plan_id":"cebpf4jnsgd1na2vs0mg"},{"bike_id":"d8f444f9-7876-4de2-89df-d5a3dd8f32ad","system_id":"levelo_inurba_marseille","lat":43.29192,"lon":5.35798,"is_reserved":false,"is_disabled":false,"rental_uris":{"android":"levelo://app?vid=d8f444f9-7876-4de2-89df-d5a3dd8f32ad","ios":"levelo://app?vid=d8f444f9-7876-4de2-89df-d5a3dd8f32ad"},"vehicle_type_id":"4","last_reported":1724508483,"current_range_meters":31200,"station_id":"ce4bhb12rcd13ifvqel0","pricing_plan_id":"cebpf4jnsgd1na2vs0mg"},{"bike_id":"dd07ae05-db38-467a-a791-3e865cb18262","system_id":"levelo_inurba_marseille","lat":43.313291,"lon":5.396838,"is_reserved":false,"is_disabled":false,"rental_uris":{"android":"levelo://app?vid=dd07ae05-db38-467a-a791-3e865cb18262","ios":"levelo://app?vid=dd07ae05-db38-467a-a791-3e865cb18262"},"vehicle_type_id":"4","last_reported":1724508483,"current_range_meters":9200,"station_id":"ce4bgvp2rcd13ifvqcu0","pricing_plan_id":"cebpf4jnsgd1na2vs0mg"},{"bike_id":"d34572d4-522c-4558-9c57-aa689a7693a3","system_id":"levelo_inurba_marseille","lat":43.292005,"lon":5.357875,"is_reserved":false,"is_disabled":false,"rental_uris":{"android":"levelo://app?vid=d34572d4-522c-4558-9c57-aa689a7693a3","ios":"levelo://app?vid=d34572d4-522c-4558-9c57-aa689a7693a3"},"vehicle_type_id":"4","last_reported":1724508483,"current_range_meters":400,"station_id":"ce4bhb12rcd13ifvqel0","pricing_plan_id":"cebpf4jnsgd1na2vs0mg"},{"bike_id":"417cb68d-d926-4985-a5d9-b12b41315923","system_id":"levelo_inurba_marseille","lat":43.309038,"lon":5.396546,"is_reserved":false,"is_disabled":false,"rental_uris":{"android":"levelo://app?vid=417cb68d-d926-4985-a5d9-b12b41315923","ios":"levelo://app?vid=417cb68d-d926-4985-a5d9-b12b41315923"},"vehicle_type_id":"4","last_reported":1724508483,"current_range_meters":30000,"station_id":"ce4bh012rcd13ifvqcv0","pricing_plan_id":"cebpf4jnsgd1na2vs0mg"},{"bike_id":"52fee803-692d-4234-a3cc-9dec9f963d64","system_id":"levelo_inurba_marseille","lat":43.309047,"lon":5.396551,"is_reserved":false,"is_disabled":false,"rental_uris":{"android":"levelo://app?vid=52fee803-692d-4234-a3cc-9dec9f963d64","ios":"levelo://app?vid=52fee803-692d-4234-a3cc-9dec9f963d64"},"vehicle_type_id":"4","last_reported":1724508483,"current_range_meters":28400,"station_id":"ce4bh012rcd13ifvqcv0","pricing_plan_id":"cebpf4jnsgd1na2vs0mg"},{"bike_id":"fdd878f5-7f0e-4231-891f-d171109daf6e","system_id":"levelo_inurba_marseille","lat":43.313291,"lon":5.396838,"is_reserved":false,"is_disabled":false,"rental_uris":{"android":"levelo://app?vid=fdd878f5-7f0e-4231-891f-d171109daf6e","ios":"levelo://app?vid=fdd878f5-7f0e-4231-891f-d171109daf6e"},"vehicle_type_id":"4","last_reported":1724508483,"current_range_meters":24400,"station_id":"ce4bgvp2rcd13ifvqcu0","pricing_plan_id":"cebpf4jnsgd1na2vs0mg"},{"bike_id":"788321bb-faa5-4eee-9884-1a5f4340d11d","system_id":"levelo_inurba_marseille","lat":43.292005,"lon":5.357875,"is_reserved":false,"is_disabled":false,"rental_uris":{"android":"levelo://app?vid=788321bb-faa5-4eee-9884-1a5f4340d11d","ios":"levelo://app?vid=788321bb-faa5-4eee-9884-1a5f4340d11d"},"vehicle_type_id":"4","last_reported":1724508483,"current_range_meters":6800,"station_id":"ce4bhb12rcd13ifvqel0","pricing_plan_id":"cebpf4jnsgd1na2vs0mg"},{"bike_id":"099e0bf7-6ff2-4ce8-923f-e8f753b7aa58","system_id":"levelo_inurba_marseille","lat":43.292005,"lon":5.357875,"is_reserved":false,"is_disabled":false,"rental_uris":{"android":"levelo://app?vid=099e0bf7-6ff2-4ce8-923f-e8f753b7aa58","ios":"levelo://app?vid=099e0bf7-6ff2-4ce8-923f-e8f753b7aa58"},"vehicle_type_id":"4","last_reported":1724508483,"current_range_meters":23600,"station_id":"ce4bhb12rcd13ifvqel0","pricing_plan_id":"cebpf4jnsgd1na2vs0mg"},{"bike_id":"dc1980a2-c395-49eb-ba24-1777aa08e63d","system_id":"levelo_inurba_marseille","lat":43.313291,"lon":5.396838,"is_reserved":false,"is_disabled":false,"rental_uris":{"android":"levelo://app?vid=dc1980a2-c395-49eb-ba24-1777aa08e63d","ios":"levelo://app?vid=dc1980a2-c395-49eb-ba24-1777aa08e63d"},"vehicle_type_id":"4","last_reported":1724508483,"current_range_meters":30400,"station_id":"ce4bgvp2rcd13ifvqcu0","pricing_plan_id":"cebpf4jnsgd1na2vs0mg"},{"bike_id":"09da9263-8cfe-4dc1-ba92-63577ea40bc5","system_id":"levelo_inurba_marseille","lat":43.309047,"lon":5.396551,"is_reserved":false,"is_disabled":false,"rental_uris":{"android":"levelo://app?vid=09da9263-8cfe-4dc1-ba92-63577ea40bc5","ios":"levelo://app?vid=09da9263-8cfe-4dc1-ba92-63577ea40bc5"},"vehicle_type_id":"4","last_reported":1724508483,"current_range_meters":17200,"station_id":"ce4bh012rcd13ifvqcv0","pricing_plan_id":"cebpf4jnsgd1na2vs0mg"},{"bike_id":"a0fb7e4f-ef52-43b5-af2b-7ba314cefcc7","system_id":"levelo_inurba_marseille","lat":43.313291,"lon":5.396838,"is_reserved":false,"is_disabled":false,"rental_uris":{"android":"levelo://app?vid=a0fb7e4f-ef52-43b5-af2b-7ba314cefcc7","ios":"levelo://app?vid=a0fb7e4f-ef52-43b5-af2b-7ba314cefcc7"},"vehicle_type_id":"4","last_reported":1724508483,"current_range_meters":10400,"station_id":"ce4bgvp2rcd13ifvqcu0","pricing_plan_id":"cebpf4jnsgd1na2vs0mg"},{"bike_id":"aa1a102c-4171-4c31-9c63-db1d79a61dde","system_id":"levelo_inurba_marseille","lat":43.291829,"lon":5.357931,"is_reserved":false,"is_disabled":false,"rental_uris":{"android":"levelo://app?vid=aa1a102c-4171-4c31-9c63-db1d79a61dde","ios":"levelo://app?vid=aa1a102c-4171-4c31-9c63-db1d79a61dde"},"vehicle_type_id":"4","last_reported":1724508483,"current_range_meters":30800,"station_id":"ce4bhb12rcd13ifvqel0","pricing_plan_id":"cebpf4jnsgd1na2vs0mg"},{"bike_id":"726d5533-8d82-4047-b34d-d78d6a9e0dff","system_id":"levelo_inurba_marseille","lat":43.310804,"lon":5.38359,"is_reserved":false,"is_disabled":false,"rental_uris":{"android":"levelo://app?vid=726d5533-8d82-4047-b34d-d78d6a9e0dff","ios":"levelo://app?vid=726d5533-8d82-4047-b34d-d78d6a9e0dff"},"vehicle_type_id":"4","last_reported":1724508483,"current_range_meters":13200,"station_id":"ce4bgv92rcd13ifvqcr0","pricing_plan_id":"cebpf4jnsgd1na2vs0mg"},{"bike_id":"7aff7dd8-5ee8-494b-99bc-28ec53018d59","system_id":"levelo_inurba_marseille","lat":43.29273,"lon":5.37961,"is_reserved":false,"is_disabled":false,"rental_uris":{"android":"levelo://app?vid=7aff7dd8-5ee8-494b-99bc-28ec53018d59","ios":"levelo://app?vid=7aff7dd8-5ee8-494b-99bc-28ec53018d59"},"vehicle_type_id":"4","last_reported":1724508483,"current_range_meters":800,"station_id":"","pricing_plan_id":"cebpf4jnsgd1na2vs0mg"},{"bike_id":"77ba4754-8d9f-4d00-8501-ffeb97fdebd8","system_id":"levelo_inurba_marseille","lat":43.290779,"lon":5.371482,"is_reserved":false,"is_disabled":false,"rental_uris":{"android":"levelo://app?vid=77ba4754-8d9f-4d00-8501-ffeb97fdebd8","ios":"levelo://app?vid=77ba4754-8d9f-4d00-8501-ffeb97fdebd8"},"vehicle_type_id":"4","last_reported":1724508483,"current_range_meters":0,"station_id":"ce4bh5p2rcd13ifvqe4g","pricing_plan_id":"cebpf4jnsgd1na2vs0mg"},{"bike_id":"56450ee8-3f8b-4a6c-940b-e5c2d3fbec61","system_id":"levelo_inurba_marseille","lat":43.290103,"lon":5.356114,"is_reserved":false,"is_disabled":false,"rental_uris":{"android":"levelo://app?vid=56450ee8-3f8b-4a6c-940b-e5c2d3fbec61","ios":"levelo://app?vid=56450ee8-3f8b-4a6c-940b-e5c2d3fbec61"},"vehicle_type_id":"4","last_reported":1724508483,"current_range_meters":31200,"station_id":"ce4bhb92rcd13ifvqen0","pricing_plan_id":"cebpf4jnsgd1na2vs0mg"},{"bike_id":"0251c342-d95a-49cd-900e-e5671a65315e","system_id":"levelo_inurba_marseille","lat":43.31128,"lon":5.39813,"is_reserved":false,"is_disabled":false,"rental_uris":{"android":"levelo://app?vid=0251c342-d95a-49cd-900e-e5671a65315e","ios":"levelo://app?vid=0251c342-d95a-49cd-900e-e5671a65315e"},"vehicle_type_id":"4","last_reported":1724508483,"current_range_meters":18000,"station_id":"","pricing_plan_id":"cebpf4jnsgd1na2vs0mg"},{"bike_id":"4c7dd2bc-d81b-4d6d-83b0-459a1e62536b","system_id":"levelo_inurba_marseille","lat":43.302008,"lon":5.394694,"is_reserved":false,"is_disabled":false,"rental_uris":{"android":"levelo://app?vid=4c7dd2bc-d81b-4d6d-83b0-459a1e62536b","ios":"levelo://app?vid=4c7dd2bc-d81b-4d6d-83b0-459a1e62536b"},"vehicle_type_id":"4","last_reported":1724508483,"current_range_meters":19200,"station_id":"ce4bh0p2rcd13ifvqd70","pricing_plan_id":"cebpf4jnsgd1na2vs0mg"},{"bike_id":"2a6d441c-89ea-4200-9455-1a5467884fbc","system_id":"levelo_inurba_marseille","lat":43.290631,"lon":5.359244,"is_reserved":false,"is_disabled":false,"rental_uris":{"android":"levelo://app?vid=2a6d441c-89ea-4200-9455-1a5467884fbc","ios":"levelo://app?vid=2a6d441c-89ea-4200-9455-1a5467884fbc"},"vehicle_type_id":"4","last_reported":1724508483,"current_range_meters":18000,"station_id":"ce4bha92rcd13ifvqeg0","pricing_plan_id":"cebpf4jnsgd1na2vs0mg"},{"bike_id":"7c56328e-b437-4779-bdf8-82317e12b050","system_id":"levelo_inurba_marseille","lat":43.2905,"lon":5.35916,"is_reserved":false,"is_disabled":false,"rental_uris":{"android":"levelo://app?vid=7c56328e-b437-4779-bdf8-82317e12b050","ios":"levelo://app?vid=7c56328e-b437-4779-bdf8-82317e12b050"},"vehicle_type_id":"4","last_reported":1724508483,"current_range_meters":21600,"station_id":"ce4bha92rcd13ifvqeg0","pricing_plan_id":"cebpf4jnsgd1na2vs0mg"},{"bike_id":"eb2a0d64-ff34-47b5-acbf-8f74ee1f10b0","system_id":"levelo_inurba_marseille","lat":43.290624,"lon":5.359245,"is_reserved":false,"is_disabled":false,"rental_uris":{"android":"levelo://app?vid=eb2a0d64-ff34-47b5-acbf-8f74ee1f10b0","ios":"levelo://app?vid=eb2a0d64-ff34-47b5-acbf-8f74ee1f10b0"},"vehicle_type_id":"4","last_reported":1724508483,"current_range_meters":16400,"station_id":"ce4bha92rcd13ifvqeg0","pricing_plan_id":"cebpf4jnsgd1na2vs0mg"},{"bike_id":"f5a8d40a-10bf-4a51-8c6b-f110d471305f","system_id":"levelo_inurba_marseille","lat":43.290624,"lon":5.359245,"is_reserved":false,"is_disabled":false,"rental_uris":{"android":"levelo://app?vid=f5a8d40a-10bf-4a51-8c6b-f110d471305f","ios":"levelo://app?vid=f5a8d40a-10bf-4a51-8c6b-f110d471305f"},"vehicle_type_id":"4","last_reported":1724508483,"current_range_meters":17200,"station_id":"ce4bha92rcd13ifvqeg0","pricing_plan_id":"cebpf4jnsgd1na2vs0mg"},{"bike_id":"fac262e1-08db-4592-be9b-9d04be61cf39","system_id":"levelo_inurba_marseille","lat":43.290631,"lon":5.359244,"is_reserved":false,"is_disabled":false,"rental_uris":{"android":"levelo://app?vid=fac262e1-08db-4592-be9b-9d04be61cf39","ios":"levelo://app?vid=fac262e1-08db-4592-be9b-9d04be61cf39"},"vehicle_type_id":"4","last_reported":1724508483,"current_range_meters":16400,"station_id":"ce4bha92rcd13ifvqeg0","pricing_plan_id":"cebpf4jnsgd1na2vs0mg"},{"bike_id":"9d6f69fd-2de7-4e81-8ee2-2910922392f8","system_id":"levelo_inurba_marseille","lat":43.290624,"lon":5.359245,"is_reserved":false,"is_disabled":false,"rental_uris":{"android":"levelo://app?vid=9d6f69fd-2de7-4e81-8ee2-2910922392f8","ios":"levelo://app?vid=9d6f69fd-2de7-4e81-8ee2-2910922392f8"},"vehicle_type_id":"4","last_reported":1724508483,"current_range_meters":4400,"station_id":"ce4bha92rcd13ifvqeg0","pricing_plan_id":"cebpf4jnsgd1na2vs0mg"},{"bike_id":"85f609ef-bd31-48ab-9ca8-a29ddeacf876","system_id":"levelo_inurba_marseille","lat":43.290631,"lon":5.359244,"is_reserved":false,"is_disabled":false,"rental_uris":{"android":"levelo://app?vid=85f609ef-bd31-48ab-9ca8-a29ddeacf876","ios":"levelo://app?vid=85f609ef-bd31-48ab-9ca8-a29ddeacf876"},"vehicle_type_id":"4","last_reported":1724508483,"current_range_meters":31600,"station_id":"ce4bha92rcd13ifvqeg0","pricing_plan_id":"cebpf4jnsgd1na2vs0mg"},{"bike_id":"896e001e-778b-4f43-ab53-1e04a0058e79","system_id":"levelo_inurba_marseille","lat":43.290631,"lon":5.359244,"is_reserved":false,"is_disabled":false,"rental_uris":{"android":"levelo://app?vid=896e001e-778b-4f43-ab53-1e04a0058e79","ios":"levelo://app?vid=896e001e-778b-4f43-ab53-1e04a0058e79"},"vehicle_type_id":"4","last_reported":1724508483,"current_range_meters":5600,"station_id":"ce4bha92rcd13ifvqeg0","pricing_plan_id":"cebpf4jnsgd1na2vs0mg"},{"bike_id":"7f33b765-5a6d-42f9-8576-38ad4691c70a","system_id":"levelo_inurba_marseille","lat":43.290631,"lon":5.359244,"is_reserved":false,"is_disabled":false,"rental_uris":{"android":"levelo://app?vid=7f33b765-5a6d-42f9-8576-38ad4691c70a","ios":"levelo://app?vid=7f33b765-5a6d-42f9-8576-38ad4691c70a"},"vehicle_type_id":"4","last_reported":1724508483,"current_range_meters":22000,"station_id":"ce4bha92rcd13ifvqeg0","pricing_plan_id":"cebpf4jnsgd1na2vs0mg"},{"bike_id":"c7f56be3-4e7a-40eb-a333-eb4040416ce2","system_id":"levelo_inurba_marseille","lat":43.290624,"lon":5.359245,"is_reserved":false,"is_disabled":false,"rental_uris":{"android":"levelo://app?vid=c7f56be3-4e7a-40eb-a333-eb4040416ce2","ios":"levelo://app?vid=c7f56be3-4e7a-40eb-a333-eb4040416ce2"},"vehicle_type_id":"4","last_reported":1724508483,"current_range_meters":31600,"station_id":"ce4bha92rcd13ifvqeg0","pricing_plan_id":"cebpf4jnsgd1na2vs0mg"},{"bike_id":"ed76bcd0-9e9d-4c9d-b91a-a58d0f968f54","system_id":"levelo_inurba_marseille","lat":43.290631,"lon":5.359244,"is_reserved":false,"is_disabled":false,"rental_uris":{"android":"levelo://app?vid=ed76bcd0-9e9d-4c9d-b91a-a58d0f968f54","ios":"levelo://app?vid=ed76bcd0-9e9d-4c9d-b91a-a58d0f968f54"},"vehicle_type_id":"4","last_reported":1724508483,"current_range_meters":10000,"station_id":"ce4bha92rcd13ifvqeg0","pricing_plan_id":"cebpf4jnsgd1na2vs0mg"},{"bike_id":"15020413-83ad-43c4-99e1-7da7b4a5883a","system_id":"levelo_inurba_marseille","lat":43.290327,"lon":5.375711,"is_reserved":false,"is_disabled":false,"rental_uris":{"android":"levelo://app?vid=15020413-83ad-43c4-99e1-7da7b4a5883a","ios":"levelo://app?vid=15020413-83ad-43c4-99e1-7da7b4a5883a"},"vehicle_type_id":"4","last_reported":1724508483,"current_range_meters":4800,"station_id":"ce4bh692rcd13ifvqe90","pricing_plan_id":"cebpf4jnsgd1na2vs0mg"},{"bike_id":"e8b9bf15-139b-4b8c-a703-855dc943d0e6","system_id":"levelo_inurba_marseille","lat":43.290319,"lon":5.375732,"is_reserved":false,"is_disabled":false,"rental_uris":{"android":"levelo://app?vid=e8b9bf15-139b-4b8c-a703-855dc943d0e6","ios":"levelo://app?vid=e8b9bf15-139b-4b8c-a703-855dc943d0e6"},"vehicle_type_id":"4","last_reported":1724508483,"current_range_meters":25600,"station_id":"ce4bh692rcd13ifvqe90","pricing_plan_id":"cebpf4jnsgd1na2vs0mg"},{"bike_id":"e87299bc-946c-401d-853a-a09e17997dbb","system_id":"levelo_inurba_marseille","lat":43.290319,"lon":5.375732,"is_reserved":false,"is_disabled":false,"rental_uris":{"android":"levelo://app?vid=e87299bc-946c-401d-853a-a09e17997dbb","ios":"levelo://app?vid=e87299bc-946c-401d-853a-a09e17997dbb"},"vehicle_type_id":"4","last_reported":1724508483,"current_range_meters":14400,"station_id":"ce4bh692rcd13ifvqe90","pricing_plan_id":"cebpf4jnsgd1na2vs0mg"},{"bike_id":"aaafa1ad-f108-4068-b327-6a61e7fd522b","system_id":"levelo_inurba_marseille","lat":43.289184,"lon":5.366408,"is_reserved":false,"is_disabled":false,"rental_uris":{"android":"levelo://app?vid=aaafa1ad-f108-4068-b327-6a61e7fd522b","ios":"levelo://app?vid=aaafa1ad-f108-4068-b327-6a61e7fd522b"},"vehicle_type_id":"4","last_reported":1724508483,"current_range_meters":24800,"station_id":"ce4bhap2rcd13ifvqek0","pricing_plan_id":"cebpf4jnsgd1na2vs0mg"},{"bike_id":"240b6b0d-7ac0-49ab-aa62-b0f72cb45d9e","system_id":"levelo_inurba_marseille","lat":43.290327,"lon":5.375711,"is_reserved":false,"is_disabled":false,"rental_uris":{"android":"levelo://app?vid=240b6b0d-7ac0-49ab-aa62-b0f72cb45d9e","ios":"levelo://app?vid=240b6b0d-7ac0-49ab-aa62-b0f72cb45d9e"},"vehicle_type_id":"4","last_reported":1724508483,"current_range_meters":28400,"station_id":"ce4bh692rcd13ifvqe90","pricing_plan_id":"cebpf4jnsgd1na2vs0mg"},{"bike_id":"e39ea872-e6bd-4e98-ba7b-0d9b95388ac9","system_id":"levelo_inurba_marseille","lat":43.289184,"lon":5.366408,"is_reserved":false,"is_disabled":false,"rental_uris":{"android":"levelo://app?vid=e39ea872-e6bd-4e98-ba7b-0d9b95388ac9","ios":"levelo://app?vid=e39ea872-e6bd-4e98-ba7b-0d9b95388ac9"},"vehicle_type_id":"4","last_reported":1724508483,"current_range_meters":27600,"station_id":"ce4bhap2rcd13ifvqek0","pricing_plan_id":"cebpf4jnsgd1na2vs0mg"},{"bike_id":"1212bfe2-a7ee-4926-938f-76d847183330","system_id":"levelo_inurba_marseille","lat":43.289184,"lon":5.366408,"is_reserved":false,"is_disabled":false,"rental_uris":{"android":"levelo://app?vid=1212bfe2-a7ee-4926-938f-76d847183330","ios":"levelo://app?vid=1212bfe2-a7ee-4926-938f-76d847183330"},"vehicle_type_id":"4","last_reported":1724508483,"current_range_meters":9200,"station_id":"ce4bhap2rcd13ifvqek0","pricing_plan_id":"cebpf4jnsgd1na2vs0mg"},{"bike_id":"e10b5ed1-8661-48ac-8acf-1b76e088a59f","system_id":"levelo_inurba_marseille","lat":43.28932,"lon":5.36629,"is_reserved":false,"is_disabled":false,"rental_uris":{"android":"levelo://app?vid=e10b5ed1-8661-48ac-8acf-1b76e088a59f","ios":"levelo://app?vid=e10b5ed1-8661-48ac-8acf-1b76e088a59f"},"vehicle_type_id":"4","last_reported":1724508483,"current_range_meters":17200,"station_id":"ce4bhap2rcd13ifvqek0","pricing_plan_id":"cebpf4jnsgd1na2vs0mg"},{"bike_id":"ed5aadfd-632e-4cda-991c-e0c9b5d90a15","system_id":"levelo_inurba_marseille","lat":43.28928,"lon":5.36626,"is_reserved":false,"is_disabled":false,"rental_uris":{"android":"levelo://app?vid=ed5aadfd-632e-4cda-991c-e0c9b5d90a15","ios":"levelo://app?vid=ed5aadfd-632e-4cda-991c-e0c9b5d90a15"},"vehicle_type_id":"4","last_reported":1724508483,"current_range_meters":14000,"station_id":"ce4bhap2rcd13ifvqek0","pricing_plan_id":"cebpf4jnsgd1na2vs0mg"},{"bike_id":"5ebfc640-cfcd-413c-9cd5-258359ac4386","system_id":"levelo_inurba_marseille","lat":43.289468,"lon":5.363719,"is_reserved":false,"is_disabled":false,"rental_uris":{"android":"levelo://app?vid=5ebfc640-cfcd-413c-9cd5-258359ac4386","ios":"levelo://app?vid=5ebfc640-cfcd-413c-9cd5-258359ac4386"},"vehicle_type_id":"4","last_reported":1724508483,"current_range_meters":29600,"station_id":"ce4bhc92rcd13ifvqetg","pricing_plan_id":"cebpf4jnsgd1na2vs0mg"},{"bike_id":"7b9d5c59-f2b5-4c79-83c0-bbcba41ac0b8","system_id":"levelo_inurba_marseille","lat":43.289468,"lon":5.363719,"is_reserved":false,"is_disabled":false,"rental_uris":{"android":"levelo://app?vid=7b9d5c59-f2b5-4c79-83c0-bbcba41ac0b8","ios":"levelo://app?vid=7b9d5c59-f2b5-4c79-83c0-bbcba41ac0b8"},"vehicle_type_id":"4","last_reported":1724508483,"current_range_meters":28000,"station_id":"ce4bhc92rcd13ifvqetg","pricing_plan_id":"cebpf4jnsgd1na2vs0mg"},{"bike_id":"2900d60e-cf8e-4e37-990b-b817b673c2ae","system_id":"levelo_inurba_marseille","lat":43.29275,"lon":5.38438,"is_reserved":false,"is_disabled":false,"rental_uris":{"android":"levelo://app?vid=2900d60e-cf8e-4e37-990b-b817b673c2ae","ios":"levelo://app?vid=2900d60e-cf8e-4e37-990b-b817b673c2ae"},"vehicle_type_id":"4","last_reported":1724508483,"current_range_meters":0,"station_id":"ce4bh692rcd13ifvqea0","pricing_plan_id":"cebpf4jnsgd1na2vs0mg"},{"bike_id":"59e5ead0-2754-4142-9720-fac4fb3f9662","system_id":"levelo_inurba_marseille","lat":43.29263,"lon":5.38444,"is_reserved":false,"is_disabled":false,"rental_uris":{"android":"levelo://app?vid=59e5ead0-2754-4142-9720-fac4fb3f9662","ios":"levelo://app?vid=59e5ead0-2754-4142-9720-fac4fb3f9662"},"vehicle_type_id":"4","last_reported":1724508483,"current_range_meters":0,"station_id":"ce4bh692rcd13ifvqea0","pricing_plan_id":"cebpf4jnsgd1na2vs0mg"},{"bike_id":"cc08704a-71b3-4573-b60f-f91ee043f367","system_id":"levelo_inurba_marseille","lat":43.29259,"lon":5.38449,"is_reserved":false,"is_disabled":false,"rental_uris":{"android":"levelo://app?vid=cc08704a-71b3-4573-b60f-f91ee043f367","ios":"levelo://app?vid=cc08704a-71b3-4573-b60f-f91ee043f367"},"vehicle_type_id":"4","last_reported":1724508483,"current_range_meters":0,"station_id":"ce4bh692rcd13ifvqea0","pricing_plan_id":"cebpf4jnsgd1na2vs0mg"},{"bike_id":"a4038395-9988-4584-bcb5-f12550d3eed8","system_id":"levelo_inurba_marseille","lat":43.290145,"lon":5.356214,"is_reserved":false,"is_disabled":false,"rental_uris":{"android":"levelo://app?vid=a4038395-9988-4584-bcb5-f12550d3eed8","ios":"levelo://app?vid=a4038395-9988-4584-bcb5-f12550d3eed8"},"vehicle_type_id":"4","last_reported":1724508483,"current_range_meters":30000,"station_id":"ce4bhb92rcd13ifvqen0","pricing_plan_id":"cebpf4jnsgd1na2vs0mg"},{"bike_id":"ff4ba330-35fd-4ee1-8eaf-8549bdb2425a","system_id":"levelo_inurba_marseille","lat":43.2901,"lon":5.35613,"is_reserved":false,"is_disabled":false,"rental_uris":{"android":"levelo://app?vid=ff4ba330-35fd-4ee1-8eaf-8549bdb2425a","ios":"levelo://app?vid=ff4ba330-35fd-4ee1-8eaf-8549bdb2425a"},"vehicle_type_id":"4","last_reported":1724508483,"current_range_meters":12000,"station_id":"ce4bhb92rcd13ifvqen0","pricing_plan_id":"cebpf4jnsgd1na2vs0mg"},{"bike_id":"e0238df3-3c11-41b3-8cb9-4eaacb2611aa","system_id":"levelo_inurba_marseille","lat":43.29009,"lon":5.35614,"is_reserved":false,"is_disabled":false,"rental_uris":{"android":"levelo://app?vid=e0238df3-3c11-41b3-8cb9-4eaacb2611aa","ios":"levelo://app?vid=e0238df3-3c11-41b3-8cb9-4eaacb2611aa"},"vehicle_type_id":"4","last_reported":1724508483,"current_range_meters":27600,"station_id":"ce4bhb92rcd13ifvqen0","pricing_plan_id":"cebpf4jnsgd1na2vs0mg"},{"bike_id":"7b1747b1-de2a-4d89-8acd-73bbff26997b","system_id":"levelo_inurba_marseille","lat":43.29008,"lon":5.35617,"is_reserved":false,"is_disabled":false,"rental_uris":{"android":"levelo://app?vid=7b1747b1-de2a-4d89-8acd-73bbff26997b","ios":"levelo://app?vid=7b1747b1-de2a-4d89-8acd-73bbff26997b"},"vehicle_type_id":"4","last_reported":1724508483,"current_range_meters":6400,"station_id":"ce4bhb92rcd13ifvqen0","pricing_plan_id":"cebpf4jnsgd1na2vs0mg"},{"bike_id":"ac9889ef-8619-4459-8d99-0855d71262a4","system_id":"levelo_inurba_marseille","lat":43.290103,"lon":5.356114,"is_reserved":false,"is_disabled":false,"rental_uris":{"android":"levelo://app?vid=ac9889ef-8619-4459-8d99-0855d71262a4","ios":"levelo://app?vid=ac9889ef-8619-4459-8d99-0855d71262a4"},"vehicle_type_id":"4","last_reported":1724508483,"current_range_meters":31200,"station_id":"ce4bhb92rcd13ifvqen0","pricing_plan_id":"cebpf4jnsgd1na2vs0mg"},{"bike_id":"6aa4e4ee-2072-4c39-8618-63a9c600680e","system_id":"levelo_inurba_marseille","lat":43.29006,"lon":5.3562,"is_reserved":false,"is_disabled":false,"rental_uris":{"android":"levelo://app?vid=6aa4e4ee-2072-4c39-8618-63a9c600680e","ios":"levelo://app?vid=6aa4e4ee-2072-4c39-8618-63a9c600680e"},"vehicle_type_id":"4","last_reported":1724508483,"current_range_meters":22000,"station_id":"ce4bhb92rcd13ifvqen0","pricing_plan_id":"cebpf4jnsgd1na2vs0mg"},{"bike_id":"051a37fc-9b4b-4381-a97f-e01f00254dbd","system_id":"levelo_inurba_marseille","lat":43.290103,"lon":5.356114,"is_reserved":false,"is_disabled":false,"rental_uris":{"android":"levelo://app?vid=051a37fc-9b4b-4381-a97f-e01f00254dbd","ios":"levelo://app?vid=051a37fc-9b4b-4381-a97f-e01f00254dbd"},"vehicle_type_id":"4","last_reported":1724508483,"current_range_meters":21200,"station_id":"ce4bhb92rcd13ifvqen0","pricing_plan_id":"cebpf4jnsgd1na2vs0mg"},{"bike_id":"5af74b7d-b582-4e44-a82e-cf38b25ba5c1","system_id":"levelo_inurba_marseille","lat":43.290104,"lon":5.356111,"is_reserved":false,"is_disabled":false,"rental_uris":{"android":"levelo://app?vid=5af74b7d-b582-4e44-a82e-cf38b25ba5c1","ios":"levelo://app?vid=5af74b7d-b582-4e44-a82e-cf38b25ba5c1"},"vehicle_type_id":"4","last_reported":1724508483,"current_range_meters":3600,"station_id":"ce4bhb92rcd13ifvqen0","pricing_plan_id":"cebpf4jnsgd1na2vs0mg"},{"bike_id":"9a1adb1a-567b-4979-8605-4930f4aff5e9","system_id":"levelo_inurba_marseille","lat":43.290103,"lon":5.356114,"is_reserved":false,"is_disabled":false,"rental_uris":{"android":"levelo://app?vid=9a1adb1a-567b-4979-8605-4930f4aff5e9","ios":"levelo://app?vid=9a1adb1a-567b-4979-8605-4930f4aff5e9"},"vehicle_type_id":"4","last_reported":1724508483,"current_range_meters":21600,"station_id":"ce4bhb92rcd13ifvqen0","pricing_plan_id":"cebpf4jnsgd1na2vs0mg"},{"bike_id":"ba26b18e-b995-43dc-b8c5-7e977b625f83","system_id":"levelo_inurba_marseille","lat":43.290104,"lon":5.356111,"is_reserved":false,"is_disabled":false,"rental_uris":{"android":"levelo://app?vid=ba26b18e-b995-43dc-b8c5-7e977b625f83","ios":"levelo://app?vid=ba26b18e-b995-43dc-b8c5-7e977b625f83"},"vehicle_type_id":"4","last_reported":1724508483,"current_range_meters":26000,"station_id":"ce4bhb92rcd13ifvqen0","pricing_plan_id":"cebpf4jnsgd1na2vs0mg"},{"bike_id":"94c8019c-2f1d-4912-9de7-a84bd8c87712","system_id":"levelo_inurba_marseille","lat":43.29007,"lon":5.35607,"is_reserved":false,"is_disabled":false,"rental_uris":{"android":"levelo://app?vid=94c8019c-2f1d-4912-9de7-a84bd8c87712","ios":"levelo://app?vid=94c8019c-2f1d-4912-9de7-a84bd8c87712"},"vehicle_type_id":"4","last_reported":1724508483,"current_range_meters":30000,"station_id":"ce4bhb92rcd13ifvqen0","pricing_plan_id":"cebpf4jnsgd1na2vs0mg"},{"bike_id":"69139f94-6767-43f1-80ad-2af3efc5fb46","system_id":"levelo_inurba_marseille","lat":43.290103,"lon":5.356114,"is_reserved":false,"is_disabled":false,"rental_uris":{"android":"levelo://app?vid=69139f94-6767-43f1-80ad-2af3efc5fb46","ios":"levelo://app?vid=69139f94-6767-43f1-80ad-2af3efc5fb46"},"vehicle_type_id":"4","last_reported":1724508483,"current_range_meters":13200,"station_id":"ce4bhb92rcd13ifvqen0","pricing_plan_id":"cebpf4jnsgd1na2vs0mg"},{"bike_id":"b71fbc15-e59e-43e0-ae68-3b0dc39e2963","system_id":"levelo_inurba_marseille","lat":43.290103,"lon":5.356114,"is_reserved":false,"is_disabled":false,"rental_uris":{"android":"levelo://app?vid=b71fbc15-e59e-43e0-ae68-3b0dc39e2963","ios":"levelo://app?vid=b71fbc15-e59e-43e0-ae68-3b0dc39e2963"},"vehicle_type_id":"4","last_reported":1724508483,"current_range_meters":19600,"station_id":"ce4bhb92rcd13ifvqen0","pricing_plan_id":"cebpf4jnsgd1na2vs0mg"},{"bike_id":"d0fef30c-abfd-48a1-85b4-f890c316347a","system_id":"levelo_inurba_marseille","lat":43.290037,"lon":5.356143,"is_reserved":false,"is_disabled":false,"rental_uris":{"android":"levelo://app?vid=d0fef30c-abfd-48a1-85b4-f890c316347a","ios":"levelo://app?vid=d0fef30c-abfd-48a1-85b4-f890c316347a"},"vehicle_type_id":"4","last_reported":1724508483,"current_range_meters":4800,"station_id":"","pricing_plan_id":"cebpf4jnsgd1na2vs0mg"},{"bike_id":"1afb18f6-9f93-4d6b-8c27-dc7619009728","system_id":"levelo_inurba_marseille","lat":43.290103,"lon":5.356114,"is_reserved":false,"is_disabled":false,"rental_uris":{"android":"levelo://app?vid=1afb18f6-9f93-4d6b-8c27-dc7619009728","ios":"levelo://app?vid=1afb18f6-9f93-4d6b-8c27-dc7619009728"},"vehicle_type_id":"4","last_reported":1724508483,"current_range_meters":400,"station_id":"ce4bhb92rcd13ifvqen0","pricing_plan_id":"cebpf4jnsgd1na2vs0mg"},{"bike_id":"fd300c24-f09c-480f-a987-c2a6c0957e8b","system_id":"levelo_inurba_marseille","lat":43.290103,"lon":5.356114,"is_reserved":false,"is_disabled":false,"rental_uris":{"android":"levelo://app?vid=fd300c24-f09c-480f-a987-c2a6c0957e8b","ios":"levelo://app?vid=fd300c24-f09c-480f-a987-c2a6c0957e8b"},"vehicle_type_id":"4","last_reported":1724508483,"current_range_meters":5600,"station_id":"ce4bhb92rcd13ifvqen0","pricing_plan_id":"cebpf4jnsgd1na2vs0mg"},{"bike_id":"ac4c503e-e215-4284-86da-8b6afa18db8b","system_id":"levelo_inurba_marseille","lat":43.290104,"lon":5.356111,"is_reserved":false,"is_disabled":false,"rental_uris":{"android":"levelo://app?vid=ac4c503e-e215-4284-86da-8b6afa18db8b","ios":"levelo://app?vid=ac4c503e-e215-4284-86da-8b6afa18db8b"},"vehicle_type_id":"4","last_reported":1724508483,"current_range_meters":12000,"station_id":"ce4bhb92rcd13ifvqen0","pricing_plan_id":"cebpf4jnsgd1na2vs0mg"},{"bike_id":"bc4d16b4-1b27-4c15-bcab-b109185fd97d","system_id":"levelo_inurba_marseille","lat":43.29004,"lon":5.35611,"is_reserved":false,"is_disabled":false,"rental_uris":{"android":"levelo://app?vid=bc4d16b4-1b27-4c15-bcab-b109185fd97d","ios":"levelo://app?vid=bc4d16b4-1b27-4c15-bcab-b109185fd97d"},"vehicle_type_id":"4","last_reported":1724508483,"current_range_meters":31200,"station_id":"ce4bhb92rcd13ifvqen0","pricing_plan_id":"cebpf4jnsgd1na2vs0mg"},{"bike_id":"32a74b38-db9f-4edb-97ab-3988529facd0","system_id":"levelo_inurba_marseille","lat":43.290104,"lon":5.356111,"is_reserved":false,"is_disabled":false,"rental_uris":{"android":"levelo://app?vid=32a74b38-db9f-4edb-97ab-3988529facd0","ios":"levelo://app?vid=32a74b38-db9f-4edb-97ab-3988529facd0"},"vehicle_type_id":"4","last_reported":1724508483,"current_range_meters":30400,"station_id":"ce4bhb92rcd13ifvqen0","pricing_plan_id":"cebpf4jnsgd1na2vs0mg"},{"bike_id":"200f38cc-a4c1-405e-9d1d-acecd5787074","system_id":"levelo_inurba_marseille","lat":43.290104,"lon":5.356111,"is_reserved":false,"is_disabled":false,"rental_uris":{"android":"levelo://app?vid=200f38cc-a4c1-405e-9d1d-acecd5787074","ios":"levelo://app?vid=200f38cc-a4c1-405e-9d1d-acecd5787074"},"vehicle_type_id":"4","last_reported":1724508483,"current_range_meters":28800,"station_id":"ce4bhb92rcd13ifvqen0","pricing_plan_id":"cebpf4jnsgd1na2vs0mg"},{"bike_id":"671d2e62-e4e1-4977-83f7-be4db03ed8a9","system_id":"levelo_inurba_marseille","lat":43.290995,"lon":5.381361,"is_reserved":false,"is_disabled":false,"rental_uris":{"android":"levelo://app?vid=671d2e62-e4e1-4977-83f7-be4db03ed8a9","ios":"levelo://app?vid=671d2e62-e4e1-4977-83f7-be4db03ed8a9"},"vehicle_type_id":"4","last_reported":1724508483,"current_range_meters":22800,"station_id":"ce4bh512rcd13ifvqe2g","pricing_plan_id":"cebpf4jnsgd1na2vs0mg"},{"bike_id":"1cb966a0-df61-45c9-8352-7bb284ad3791","system_id":"levelo_inurba_marseille","lat":43.289741,"lon":5.378306,"is_reserved":false,"is_disabled":false,"rental_uris":{"android":"levelo://app?vid=1cb966a0-df61-45c9-8352-7bb284ad3791","ios":"levelo://app?vid=1cb966a0-df61-45c9-8352-7bb284ad3791"},"vehicle_type_id":"4","last_reported":1724508483,"current_range_meters":6800,"station_id":"ce4bh9p2rcd13ifvqed0","pricing_plan_id":"cebpf4jnsgd1na2vs0mg"},{"bike_id":"620d48af-9639-4f76-8571-fe67b15011dd","system_id":"levelo_inurba_marseille","lat":43.295169,"lon":5.390426,"is_reserved":false,"is_disabled":false,"rental_uris":{"android":"levelo://app?vid=620d48af-9639-4f76-8571-fe67b15011dd","ios":"levelo://app?vid=620d48af-9639-4f76-8571-fe67b15011dd"},"vehicle_type_id":"4","last_reported":1724508483,"current_range_meters":4400,"station_id":"ce4bh3p2rcd13ifvqdp0","pricing_plan_id":"cebpf4jnsgd1na2vs0mg"},{"bike_id":"8e612a64-927c-4009-9ac2-b7118cded380","system_id":"levelo_inurba_marseille","lat":43.289741,"lon":5.378306,"is_reserved":false,"is_disabled":false,"rental_uris":{"android":"levelo://app?vid=8e612a64-927c-4009-9ac2-b7118cded380","ios":"levelo://app?vid=8e612a64-927c-4009-9ac2-b7118cded380"},"vehicle_type_id":"4","last_reported":1724508483,"current_range_meters":17600,"station_id":"ce4bh9p2rcd13ifvqed0","pricing_plan_id":"cebpf4jnsgd1na2vs0mg"},{"bike_id":"eca13767-4807-4db5-b44e-d898ef546b1a","system_id":"levelo_inurba_marseille","lat":43.28972,"lon":5.37837,"is_reserved":false,"is_disabled":false,"rental_uris":{"android":"levelo://app?vid=eca13767-4807-4db5-b44e-d898ef546b1a","ios":"levelo://app?vid=eca13767-4807-4db5-b44e-d898ef546b1a"},"vehicle_type_id":"4","last_reported":1724508483,"current_range_meters":0,"station_id":"ce4bh9p2rcd13ifvqed0","pricing_plan_id":"cebpf4jnsgd1na2vs0mg"},{"bike_id":"cc42981b-8850-4d8a-8ed9-59a47c77f84c","system_id":"levelo_inurba_marseille","lat":43.2901,"lon":5.381269,"is_reserved":false,"is_disabled":false,"rental_uris":{"android":"levelo://app?vid=cc42981b-8850-4d8a-8ed9-59a47c77f84c","ios":"levelo://app?vid=cc42981b-8850-4d8a-8ed9-59a47c77f84c"},"vehicle_type_id":"4","last_reported":1724508483,"current_range_meters":9200,"station_id":"ce4bh4p2rcd13ifvqe1g","pricing_plan_id":"cebpf4jnsgd1na2vs0mg"},{"bike_id":"55ed5772-b501-4925-a349-b15bc9daec81","system_id":"levelo_inurba_marseille","lat":43.28856,"lon":5.358371,"is_reserved":false,"is_disabled":false,"rental_uris":{"android":"levelo://app?vid=55ed5772-b501-4925-a349-b15bc9daec81","ios":"levelo://app?vid=55ed5772-b501-4925-a349-b15bc9daec81"},"vehicle_type_id":"4","last_reported":1724508483,"current_range_meters":6400,"station_id":"ce4bhb12rcd13ifvqem0","pricing_plan_id":"cebpf4jnsgd1na2vs0mg"},{"bike_id":"8733fdda-100a-4558-ad11-8411b453fb6d","system_id":"levelo_inurba_marseille","lat":43.28856,"lon":5.358371,"is_reserved":false,"is_disabled":false,"rental_uris":{"android":"levelo://app?vid=8733fdda-100a-4558-ad11-8411b453fb6d","ios":"levelo://app?vid=8733fdda-100a-4558-ad11-8411b453fb6d"},"vehicle_type_id":"4","last_reported":1724508483,"current_range_meters":0,"station_id":"ce4bhb12rcd13ifvqem0","pricing_plan_id":"cebpf4jnsgd1na2vs0mg"},{"bike_id":"861b46ec-7cab-4dbb-8765-8b0d133f505e","system_id":"levelo_inurba_marseille","lat":43.28856,"lon":5.358371,"is_reserved":false,"is_disabled":false,"rental_uris":{"android":"levelo://app?vid=861b46ec-7cab-4dbb-8765-8b0d133f505e","ios":"levelo://app?vid=861b46ec-7cab-4dbb-8765-8b0d133f505e"},"vehicle_type_id":"4","last_reported":1724508483,"current_range_meters":24000,"station_id":"ce4bhb12rcd13ifvqem0","pricing_plan_id":"cebpf4jnsgd1na2vs0mg"},{"bike_id":"7de307cf-a195-4ae5-8acf-c0203469878d","system_id":"levelo_inurba_marseille","lat":43.28846,"lon":5.35837,"is_reserved":false,"is_disabled":false,"rental_uris":{"android":"levelo://app?vid=7de307cf-a195-4ae5-8acf-c0203469878d","ios":"levelo://app?vid=7de307cf-a195-4ae5-8acf-c0203469878d"},"vehicle_type_id":"4","last_reported":1724508483,"current_range_meters":0,"station_id":"ce4bhb12rcd13ifvqem0","pricing_plan_id":"cebpf4jnsgd1na2vs0mg"},{"bike_id":"c594b3e3-1ba6-43b9-a1c1-be8533666e55","system_id":"levelo_inurba_marseille","lat":43.33743,"lon":5.37441,"is_reserved":false,"is_disabled":false,"rental_uris":{"android":"levelo://app?vid=c594b3e3-1ba6-43b9-a1c1-be8533666e55","ios":"levelo://app?vid=c594b3e3-1ba6-43b9-a1c1-be8533666e55"},"vehicle_type_id":"4","last_reported":1724508483,"current_range_meters":27200,"station_id":"","pricing_plan_id":"cebpf4jnsgd1na2vs0mg"},{"bike_id":"f761bdbb-2023-4943-be92-974f1cbfa5d1","system_id":"levelo_inurba_marseille","lat":43.312609,"lon":5.401662,"is_reserved":false,"is_disabled":false,"rental_uris":{"android":"levelo://app?vid=f761bdbb-2023-4943-be92-974f1cbfa5d1","ios":"levelo://app?vid=f761bdbb-2023-4943-be92-974f1cbfa5d1"},"vehicle_type_id":"4","last_reported":1724508483,"current_range_meters":20000,"station_id":"ce4bh092rcd13ifvqd30","pricing_plan_id":"cebpf4jnsgd1na2vs0mg"},{"bike_id":"e9bc3bd9-23a7-4403-93ac-2013bfcc340c","system_id":"levelo_inurba_marseille","lat":43.309371,"lon":5.401449,"is_reserved":false,"is_disabled":false,"rental_uris":{"android":"levelo://app?vid=e9bc3bd9-23a7-4403-93ac-2013bfcc340c","ios":"levelo://app?vid=e9bc3bd9-23a7-4403-93ac-2013bfcc340c"},