{"last_updated":1744801715,"ttl":60,"version":"2.2","data":{"bikes":[{"bike_id":"f345674e-2c17-40df-b3d0-4a7ff3b39954","system_id":"levelo_inurba_marseille","lat":43.29576,"lon":5.37519,"is_reserved":false,"is_disabled":false,"rental_uris":{"android":"levelo://app?vid=f345674e-2c17-40df-b3d0-4a7ff3b39954","ios":"levelo://app?vid=f345674e-2c17-40df-b3d0-4a7ff3b39954"},"vehicle_type_id":"4","last_reported":1744801715,"current_range_meters":2800,"station_id":"ce4bgh92rcd13ifvqb50","pricing_plan_id":"cebpf4jnsgd1na2vs0mg"},{"bike_id":"88dc6a23-9b04-48b0-bf85-c177443d0763","system_id":"levelo_inurba_marseille","lat":43.33611,"lon":5.40992,"is_reserved":false,"is_disabled":false,"rental_uris":{"android":"levelo://app?vid=88dc6a23-9b04-48b0-bf85-c177443d0763","ios":"levelo://app?vid=88dc6a23-9b04-48b0-bf85-c177443d0763"},"vehicle_type_id":"4","last_reported":1744801715,"current_range_meters":2800,"station_id":"ce4bhqh2rcd13ifvqhmg","pricing_plan_id":"cebpf4jnsgd1na2vs0mg"},{"bike_id":"18732393-3419-419f-948d-5449399ba16a","system_id":"levelo_inurba_marseille","lat":43.30944,"lon":5.39043,"is_reserved":false,"is_disabled":true,"rental_uris":{"android":"levelo://app?vid=18732393-3419-419f-948d-5449399ba16a","ios":"levelo://app?vid=18732393-3419-419f-948d-5449399ba16a"},"vehicle_type_id":"4","last_reported":1744801715,"current_range_meters":3200,"station_id":"ce4bgup2rcd13ifvqco0","pricing_plan_id":"cebpf4jnsgd1na2vs0mg"},{"bike_id":"588b9a5f-c1b4-42aa-a0d7-9dc4096af0cd","system_id":"levelo_inurba_marseille","lat":43.31691,"lon":5.40476,"is_reserved":false,"is_disabled":false,"rental_uris":{"android":"levelo://app?vid=588b9a5f-c1b4-42aa-a0d7-9dc4096af0cd","ios":"levelo://app?vid=588b9a5f-c1b4-42aa-a0d7-9dc4096af0cd"},"vehicle_type_id":"4","last_reported":1744801715,"current_range_meters":3600,"station_id":"ce4bh012rcd13ifvqd00","pricing_plan_id":"cebpf4jnsgd1na2vs0mg"},{"bike_id":"236b2ee9-ea05-49c2-b3bc-ebdc28cc0f35","system_id":"levelo_inurba_marseille","lat":43.216528,"lon":5.345913,"is_reserved":false,"is_disabled":false,"rental_uris":{"android":"levelo://app?vid=236b2ee9-ea05-49c2-b3bc-ebdc28cc0f35","ios":"levelo://app?vid=236b2ee9-ea05-49c2-b3bc-ebdc28cc0f35"},"vehicle_type_id":"4","last_reported":1744801715,"current_range_meters":4000,"station_id":"st_cvj6r9ubvosntc0bgbag","pricing_plan_id":"cebpf4jnsgd1na2vs0mg"},{"bike_id":"207b15a7-69f1-4c4a-a29d-f91df1564475","system_id":"levelo_inurba_marseille","lat":43.24077,"lon":5.377458,"is_reserved":false,"is_disabled":false,"rental_uris":{"android":"levelo://app?vid=207b15a7-69f1-4c4a-a29d-f91df1564475","ios":"levelo://app?vid=207b15a7-69f1-4c4a-a29d-f91df1564475"},"vehicle_type_id":"4","last_reported":1744801715,"current_range_meters":5600,"station_id":"ce4bhnp2rcd13ifvqgvg","pricing_plan_id":"cebpf4jnsgd1na2vs0mg"},{"bike_id":"97ffd3d2-9dcd-4f53-b270-a404bedbb8c8","system_id":"levelo_inurba_marseille","lat":43.30292,"lon":5.37727,"is_reserved":false,"is_disabled":false,"rental_uris":{"android":"levelo://app?vid=97ffd3d2-9dcd-4f53-b270-a404bedbb8c8","ios":"levelo://app?vid=97ffd3d2-9dcd-4f53-b270-a404bedbb8c8"},"vehicle_type_id":"4","last_reported":1744801715,"current_range_meters":5600,"station_id":"ce4bguh2rcd13ifvqcj0","pricing_plan_id":"cebpf4jnsgd1na2vs0mg"},{"bike_id":"469935b7-5333-472e-9a31-1bdc279d369f","system_id":"levelo_inurba_marseille","lat":43.24175,"lon":5.39714,"is_reserved":false,"is_disabled":false,"rental_uris":{"android":"levelo://app?vid=469935b7-5333-472e-9a31-1bdc279d369f","ios":"levelo://app?vid=469935b7-5333-472e-9a31-1bdc279d369f"},"vehicle_type_id":"4","last_reported":1744801715,"current_range_meters":6000,"station_id":"ce4bhn12rcd13ifvqgpg","pricing_plan_id":"cebpf4jnsgd1na2vs0mg"},{"bike_id":"4d5c9219-dab2-4a84-8f6e-9bff1ce514f0","system_id":"levelo_inurba_marseille","lat":43.278347,"lon":5.392095,"is_reserved":false,"is_disabled":false,"rental_uris":{"android":"levelo://app?vid=4d5c9219-dab2-4a84-8f6e-9bff1ce514f0","ios":"levelo://app?vid=4d5c9219-dab2-4a84-8f6e-9bff1ce514f0"},"vehicle_type_id":"4","last_reported":1744801715,"current_range_meters":6000,"station_id":"ce4bhjp2rcd13ifvqga0","pricing_plan_id":"cebpf4jnsgd1na2vs0mg"},{"bike_id":"c273cedc-5337-4dec-91b4-1636fd7d09ad","system_id":"levelo_inurba_marseille","lat":43.31455,"lon":5.37594,"is_reserved":false,"is_disabled":false,"rental_uris":{"android":"levelo://app?vid=c273cedc-5337-4dec-91b4-1636fd7d09ad","ios":"levelo://app?vid=c273cedc-5337-4dec-91b4-1636fd7d09ad"},"vehicle_type_id":"4","last_reported":1744801715,"current_range_meters":6400,"station_id":"","pricing_plan_id":"cebpf4jnsgd1na2vs0mg"},{"bike_id":"f443cfdb-db2e-4f4b-a88d-615075e28818","system_id":"levelo_inurba_marseille","lat":43.30563,"lon":5.3654,"is_reserved":false,"is_disabled":false,"rental_uris":{"android":"levelo://app?vid=f443cfdb-db2e-4f4b-a88d-615075e28818","ios":"levelo://app?vid=f443cfdb-db2e-4f4b-a88d-615075e28818"},"vehicle_type_id":"4","last_reported":1744801715,"current_range_meters":6800,"station_id":"ce4bgs12rcd13ifvqcag","pricing_plan_id":"cebpf4jnsgd1na2vs0mg"},{"bike_id":"9c3662b9-b1d8-4bda-a012-c962b9dea8f2","system_id":"levelo_inurba_marseille","lat":43.29265,"lon":5.36846,"is_reserved":false,"is_disabled":false,"rental_uris":{"android":"levelo://app?vid=9c3662b9-b1d8-4bda-a012-c962b9dea8f2","ios":"levelo://app?vid=9c3662b9-b1d8-4bda-a012-c962b9dea8f2"},"vehicle_type_id":"4","last_reported":1744801715,"current_range_meters":6800,"station_id":"ce4bhbp2rcd13ifvqesg","pricing_plan_id":"cebpf4jnsgd1na2vs0mg"},{"bike_id":"e928d811-c26e-4316-86ec-1eab997472d4","system_id":"levelo_inurba_marseille","lat":43.248028,"lon":5.374558,"is_reserved":false,"is_disabled":false,"rental_uris":{"android":"levelo://app?vid=e928d811-c26e-4316-86ec-1eab997472d4","ios":"levelo://app?vid=e928d811-c26e-4316-86ec-1eab997472d4"},"vehicle_type_id":"4","last_reported":1744801715,"current_range_meters":6800,"station_id":"ce4bhgh2rcd13ifvqfb0","pricing_plan_id":"cebpf4jnsgd1na2vs0mg"},{"bike_id":"27a55245-8dd2-4f1a-af63-95a9d7b71690","system_id":"levelo_inurba_marseille","lat":43.31066,"lon":5.37853,"is_reserved":false,"is_disabled":false,"rental_uris":{"android":"levelo://app?vid=27a55245-8dd2-4f1a-af63-95a9d7b71690","ios":"levelo://app?vid=27a55245-8dd2-4f1a-af63-95a9d7b71690"},"vehicle_type_id":"4","last_reported":1744801715,"current_range_meters":6800,"station_id":"","pricing_plan_id":"cebpf4jnsgd1na2vs0mg"},{"bike_id":"21cd02ab-4067-4846-ab73-4d3901a12a2c","system_id":"levelo_inurba_marseille","lat":43.27942,"lon":5.4104,"is_reserved":false,"is_disabled":false,"rental_uris":{"android":"levelo://app?vid=21cd02ab-4067-4846-ab73-4d3901a12a2c","ios":"levelo://app?vid=21cd02ab-4067-4846-ab73-4d3901a12a2c"},"vehicle_type_id":"4","last_reported":1744801715,"current_range_meters":7200,"station_id":"ce4bhnp2rcd13ifvqh0g","pricing_plan_id":"cebpf4jnsgd1na2vs0mg"},{"bike_id":"a0636e31-c89e-4ae1-aea4-880988d0da0e","system_id":"levelo_inurba_marseille","lat":43.29561,"lon":5.42268,"is_reserved":false,"is_disabled":false,"rental_uris":{"android":"levelo://app?vid=a0636e31-c89e-4ae1-aea4-880988d0da0e","ios":"levelo://app?vid=a0636e31-c89e-4ae1-aea4-880988d0da0e"},"vehicle_type_id":"4","last_reported":1744801715,"current_range_meters":7200,"station_id":"ce4bhph2rcd13ifvqhdg","pricing_plan_id":"cebpf4jnsgd1na2vs0mg"},{"bike_id":"b7ab99ba-94bb-4274-aca7-e6131d0e5ab1","system_id":"levelo_inurba_marseille","lat":43.24173,"lon":5.364,"is_reserved":false,"is_disabled":false,"rental_uris":{"android":"levelo://app?vid=b7ab99ba-94bb-4274-aca7-e6131d0e5ab1","ios":"levelo://app?vid=b7ab99ba-94bb-4274-aca7-e6131d0e5ab1"},"vehicle_type_id":"4","last_reported":1744801715,"current_range_meters":8000,"station_id":"cpo36qri1sfpv3e86is0","pricing_plan_id":"cebpf4jnsgd1na2vs0mg"},{"bike_id":"25e230f4-e34c-445f-87cd-877f61101b31","system_id":"levelo_inurba_marseille","lat":43.312342,"lon":5.36859,"is_reserved":false,"is_disabled":false,"rental_uris":{"android":"levelo://app?vid=25e230f4-e34c-445f-87cd-877f61101b31","ios":"levelo://app?vid=25e230f4-e34c-445f-87cd-877f61101b31"},"vehicle_type_id":"4","last_reported":1744801715,"current_range_meters":8000,"station_id":"ce4bgl92rcd13ifvqbq0","pricing_plan_id":"cebpf4jnsgd1na2vs0mg"},{"bike_id":"2f6df327-2b9e-4e96-91cc-f38c6cef3b8b","system_id":"levelo_inurba_marseille","lat":43.241805,"lon":5.397185,"is_reserved":false,"is_disabled":false,"rental_uris":{"android":"levelo://app?vid=2f6df327-2b9e-4e96-91cc-f38c6cef3b8b","ios":"levelo://app?vid=2f6df327-2b9e-4e96-91cc-f38c6cef3b8b"},"vehicle_type_id":"4","last_reported":1744801715,"current_range_meters":8400,"station_id":"ce4bhn12rcd13ifvqgpg","pricing_plan_id":"cebpf4jnsgd1na2vs0mg"},{"bike_id":"cfe682df-d0ce-4143-9cdc-c9c6578e1b0d","system_id":"levelo_inurba_marseille","lat":43.30252,"lon":5.40081,"is_reserved":false,"is_disabled":true,"rental_uris":{"android":"levelo://app?vid=cfe682df-d0ce-4143-9cdc-c9c6578e1b0d","ios":"levelo://app?vid=cfe682df-d0ce-4143-9cdc-c9c6578e1b0d"},"vehicle_type_id":"4","last_reported":1744801715,"current_range_meters":8800,"station_id":"ce4bgvh2rcd13ifvqcs0","pricing_plan_id":"cebpf4jnsgd1na2vs0mg"},{"bike_id":"376f754b-7bba-4962-babe-b49b1468281c","system_id":"levelo_inurba_marseille","lat":43.30934,"lon":5.40122,"is_reserved":false,"is_disabled":true,"rental_uris":{"android":"levelo://app?vid=376f754b-7bba-4962-babe-b49b1468281c","ios":"levelo://app?vid=376f754b-7bba-4962-babe-b49b1468281c"},"vehicle_type_id":"4","last_reported":1744801715,"current_range_meters":8800,"station_id":"ce4bgvp2rcd13ifvqct0","pricing_plan_id":"cebpf4jnsgd1na2vs0mg"},{"bike_id":"68bb5c2f-fd19-492d-b0bb-5841e6724b4a","system_id":"levelo_inurba_marseille","lat":43.22932,"lon":5.35392,"is_reserved":false,"is_disabled":false,"rental_uris":{"android":"levelo://app?vid=68bb5c2f-fd19-492d-b0bb-5841e6724b4a","ios":"levelo://app?vid=68bb5c2f-fd19-492d-b0bb-5841e6724b4a"},"vehicle_type_id":"4","last_reported":1744801715,"current_range_meters":9200,"station_id":"cpo3532slgdg3j2ikp40","pricing_plan_id":"cebpf4jnsgd1na2vs0mg"},{"bike_id":"2797dcdb-c4e1-48b2-82d6-5677d371fa39","system_id":"levelo_inurba_marseille","lat":43.241664,"lon":5.364032,"is_reserved":false,"is_disabled":false,"rental_uris":{"android":"levelo://app?vid=2797dcdb-c4e1-48b2-82d6-5677d371fa39","ios":"levelo://app?vid=2797dcdb-c4e1-48b2-82d6-5677d371fa39"},"vehicle_type_id":"4","last_reported":1744801715,"current_range_meters":9200,"station_id":"cpo36qri1sfpv3e86is0","pricing_plan_id":"cebpf4jnsgd1na2vs0mg"},{"bike_id":"943d835e-e441-49d4-b7f7-4724ffc66162","system_id":"levelo_inurba_marseille","lat":43.25001,"lon":5.38923,"is_reserved":false,"is_disabled":false,"rental_uris":{"android":"levelo://app?vid=943d835e-e441-49d4-b7f7-4724ffc66162","ios":"levelo://app?vid=943d835e-e441-49d4-b7f7-4724ffc66162"},"vehicle_type_id":"4","last_reported":1744801715,"current_range_meters":9200,"station_id":"ce4bhgp2rcd13ifvqfd0","pricing_plan_id":"cebpf4jnsgd1na2vs0mg"},{"bike_id":"dd8f0ff9-117f-4fd9-bc7c-ef5d85c7f322","system_id":"levelo_inurba_marseille","lat":43.31999,"lon":5.38156,"is_reserved":false,"is_disabled":false,"rental_uris":{"android":"levelo://app?vid=dd8f0ff9-117f-4fd9-bc7c-ef5d85c7f322","ios":"levelo://app?vid=dd8f0ff9-117f-4fd9-bc7c-ef5d85c7f322"},"vehicle_type_id":"4","last_reported":1744801715,"current_range_meters":9200,"station_id":"ce4bhr12rcd13ifvqhpg","pricing_plan_id":"cebpf4jnsgd1na2vs0mg"},{"bike_id":"49090c8d-87b7-4bdd-a1fb-e7e88eb28eb2","system_id":"levelo_inurba_marseille","lat":43.30905,"lon":5.36845,"is_reserved":false,"is_disabled":false,"rental_uris":{"android":"levelo://app?vid=49090c8d-87b7-4bdd-a1fb-e7e88eb28eb2","ios":"levelo://app?vid=49090c8d-87b7-4bdd-a1fb-e7e88eb28eb2"},"vehicle_type_id":"4","last_reported":1744801715,"current_range_meters":9600,"station_id":"ce4bgn92rcd13ifvqbvg","pricing_plan_id":"cebpf4jnsgd1na2vs0mg"},{"bike_id":"03c8cee0-a6a5-48f4-b783-f14451736b24","system_id":"levelo_inurba_marseille","lat":43.27203,"lon":5.41015,"is_reserved":false,"is_disabled":false,"rental_uris":{"android":"levelo://app?vid=03c8cee0-a6a5-48f4-b783-f14451736b24","ios":"levelo://app?vid=03c8cee0-a6a5-48f4-b783-f14451736b24"},"vehicle_type_id":"4","last_reported":1744801715,"current_range_meters":9600,"station_id":"ce4bhl12rcd13ifvqgf0","pricing_plan_id":"cebpf4jnsgd1na2vs0mg"},{"bike_id":"ea5f28cd-dc08-45b1-8e57-cd0204f69037","system_id":"levelo_inurba_marseille","lat":43.23149,"lon":5.43719,"is_reserved":false,"is_disabled":false,"rental_uris":{"android":"levelo://app?vid=ea5f28cd-dc08-45b1-8e57-cd0204f69037","ios":"levelo://app?vid=ea5f28cd-dc08-45b1-8e57-cd0204f69037"},"vehicle_type_id":"4","last_reported":1744801715,"current_range_meters":9600,"station_id":"ce4bhmp2rcd13ifvqgog","pricing_plan_id":"cebpf4jnsgd1na2vs0mg"},{"bike_id":"34aa0234-6997-4714-b7da-2eb42113aa01","system_id":"levelo_inurba_marseille","lat":43.29882,"lon":5.39738,"is_reserved":false,"is_disabled":false,"rental_uris":{"android":"levelo://app?vid=34aa0234-6997-4714-b7da-2eb42113aa01","ios":"levelo://app?vid=34aa0234-6997-4714-b7da-2eb42113aa01"},"vehicle_type_id":"4","last_reported":1744801715,"current_range_meters":10000,"station_id":"ce4bh0h2rcd13ifvqd50","pricing_plan_id":"cebpf4jnsgd1na2vs0mg"},{"bike_id":"45c6b552-68fd-454d-84d3-cf79221aaee4","system_id":"levelo_inurba_marseille","lat":43.29867,"lon":5.40828,"is_reserved":false,"is_disabled":false,"rental_uris":{"android":"levelo://app?vid=45c6b552-68fd-454d-84d3-cf79221aaee4","ios":"levelo://app?vid=45c6b552-68fd-454d-84d3-cf79221aaee4"},"vehicle_type_id":"4","last_reported":1744801715,"current_range_meters":10000,"station_id":"","pricing_plan_id":"cebpf4jnsgd1na2vs0mg"},{"bike_id":"f3389a1b-2719-4af7-8855-0abf17cd038d","system_id":"levelo_inurba_marseille","lat":43.23151,"lon":5.43721,"is_reserved":false,"is_disabled":false,"rental_uris":{"android":"levelo://app?vid=f3389a1b-2719-4af7-8855-0abf17cd038d","ios":"levelo://app?vid=f3389a1b-2719-4af7-8855-0abf17cd038d"},"vehicle_type_id":"4","last_reported":1744801715,"current_range_meters":10000,"station_id":"ce4bhmp2rcd13ifvqgog","pricing_plan_id":"cebpf4jnsgd1na2vs0mg"},{"bike_id":"1c0c17d4-38c5-4a1c-8a19-a752fa5d90ed","system_id":"levelo_inurba_marseille","lat":43.23188,"lon":5.3997,"is_reserved":false,"is_disabled":false,"rental_uris":{"android":"levelo://app?vid=1c0c17d4-38c5-4a1c-8a19-a752fa5d90ed","ios":"levelo://app?vid=1c0c17d4-38c5-4a1c-8a19-a752fa5d90ed"},"vehicle_type_id":"4","last_reported":1744801715,"current_range_meters":10000,"station_id":"ce4bhn12rcd13ifvqgqg","pricing_plan_id":"cebpf4jnsgd1na2vs0mg"},{"bike_id":"a9f09ba6-ce54-4ff0-8558-0fef3bc03489","system_id":"levelo_inurba_marseille","lat":43.29785,"lon":5.38097,"is_reserved":false,"is_disabled":false,"rental_uris":{"android":"levelo://app?vid=a9f09ba6-ce54-4ff0-8558-0fef3bc03489","ios":"levelo://app?vid=a9f09ba6-ce54-4ff0-8558-0fef3bc03489"},"vehicle_type_id":"4","last_reported":1744801715,"current_range_meters":10000,"station_id":"ce4bgip2rcd13ifvqbb0","pricing_plan_id":"cebpf4jnsgd1na2vs0mg"},{"bike_id":"7eacb872-0584-4b06-8fad-feb612d3799a","system_id":"levelo_inurba_marseille","lat":43.29683,"lon":5.38159,"is_reserved":false,"is_disabled":false,"rental_uris":{"android":"levelo://app?vid=7eacb872-0584-4b06-8fad-feb612d3799a","ios":"levelo://app?vid=7eacb872-0584-4b06-8fad-feb612d3799a"},"vehicle_type_id":"4","last_reported":1744801715,"current_range_meters":10800,"station_id":"","pricing_plan_id":"cebpf4jnsgd1na2vs0mg"},{"bike_id":"99fe2376-b759-4455-bca2-2621e3a5750a","system_id":"levelo_inurba_marseille","lat":43.274296,"lon":5.394244,"is_reserved":false,"is_disabled":false,"rental_uris":{"android":"levelo://app?vid=99fe2376-b759-4455-bca2-2621e3a5750a","ios":"levelo://app?vid=99fe2376-b759-4455-bca2-2621e3a5750a"},"vehicle_type_id":"4","last_reported":1744801715,"current_range_meters":10800,"station_id":"ce4bhdp2rcd13ifvqf20","pricing_plan_id":"cebpf4jnsgd1na2vs0mg"},{"bike_id":"6439de58-b81d-4106-aed1-ff3a15b1da52","system_id":"levelo_inurba_marseille","lat":43.29372,"lon":5.37854,"is_reserved":false,"is_disabled":false,"rental_uris":{"android":"levelo://app?vid=6439de58-b81d-4106-aed1-ff3a15b1da52","ios":"levelo://app?vid=6439de58-b81d-4106-aed1-ff3a15b1da52"},"vehicle_type_id":"4","last_reported":1744801715,"current_range_meters":10800,"station_id":"ce4bgjh2rcd13ifvqbf0","pricing_plan_id":"cebpf4jnsgd1na2vs0mg"},{"bike_id":"ee465a00-80df-4308-a2c3-b5ea33f92667","system_id":"levelo_inurba_marseille","lat":43.32117,"lon":5.36787,"is_reserved":false,"is_disabled":false,"rental_uris":{"android":"levelo://app?vid=ee465a00-80df-4308-a2c3-b5ea33f92667","ios":"levelo://app?vid=ee465a00-80df-4308-a2c3-b5ea33f92667"},"vehicle_type_id":"4","last_reported":1744801715,"current_range_meters":11200,"station_id":"ce4bhrh2rcd13ifvqhug","pricing_plan_id":"cebpf4jnsgd1na2vs0mg"},{"bike_id":"eeec4aa3-87e9-4496-be2e-938ceb91cf85","system_id":"levelo_inurba_marseille","lat":43.29314,"lon":5.37226,"is_reserved":false,"is_disabled":true,"rental_uris":{"android":"levelo://app?vid=eeec4aa3-87e9-4496-be2e-938ceb91cf85","ios":"levelo://app?vid=eeec4aa3-87e9-4496-be2e-938ceb91cf85"},"vehicle_type_id":"4","last_reported":1744801715,"current_range_meters":11600,"station_id":"ce4bgh92rcd13ifvqb40","pricing_plan_id":"cebpf4jnsgd1na2vs0mg"},{"bike_id":"dd763502-d980-4f8d-86a8-6f5f08a22a56","system_id":"levelo_inurba_marseille","lat":43.28476,"lon":5.38404,"is_reserved":false,"is_disabled":false,"rental_uris":{"android":"levelo://app?vid=dd763502-d980-4f8d-86a8-6f5f08a22a56","ios":"levelo://app?vid=dd763502-d980-4f8d-86a8-6f5f08a22a56"},"vehicle_type_id":"4","last_reported":1744801715,"current_range_meters":11600,"station_id":"ce4bh512rcd13ifvqe3g","pricing_plan_id":"cebpf4jnsgd1na2vs0mg"},{"bike_id":"ce9e182c-d411-40ef-b59c-843364d7acbf","system_id":"levelo_inurba_marseille","lat":43.29797,"lon":5.38084,"is_reserved":false,"is_disabled":false,"rental_uris":{"android":"levelo://app?vid=ce9e182c-d411-40ef-b59c-843364d7acbf","ios":"levelo://app?vid=ce9e182c-d411-40ef-b59c-843364d7acbf"},"vehicle_type_id":"4","last_reported":1744801715,"current_range_meters":11600,"station_id":"ce4bgip2rcd13ifvqbb0","pricing_plan_id":"cebpf4jnsgd1na2vs0mg"},{"bike_id":"561936ef-54e4-4d15-b2a7-dfd018b9e12e","system_id":"levelo_inurba_marseille","lat":43.29817,"lon":5.40259,"is_reserved":false,"is_disabled":false,"rental_uris":{"android":"levelo://app?vid=561936ef-54e4-4d15-b2a7-dfd018b9e12e","ios":"levelo://app?vid=561936ef-54e4-4d15-b2a7-dfd018b9e12e"},"vehicle_type_id":"4","last_reported":1744801715,"current_range_meters":12000,"station_id":"","pricing_plan_id":"cebpf4jnsgd1na2vs0mg"},{"bike_id":"6676d03d-80da-445b-b2a1-fbbfb8d61b7e","system_id":"levelo_inurba_marseille","lat":43.29799,"lon":5.39341,"is_reserved":false,"is_disabled":false,"rental_uris":{"android":"levelo://app?vid=6676d03d-80da-445b-b2a1-fbbfb8d61b7e","ios":"levelo://app?vid=6676d03d-80da-445b-b2a1-fbbfb8d61b7e"},"vehicle_type_id":"4","last_reported":1744801715,"current_range_meters":12000,"station_id":"chh1huq6cuj3fo74tm60","pricing_plan_id":"cebpf4jnsgd1na2vs0mg"},{"bike_id":"e8412f40-a8dc-44ee-bbc2-e01b1cf2ab9a","system_id":"levelo_inurba_marseille","lat":43.27849,"lon":5.39205,"is_reserved":false,"is_disabled":false,"rental_uris":{"android":"levelo://app?vid=e8412f40-a8dc-44ee-bbc2-e01b1cf2ab9a","ios":"levelo://app?vid=e8412f40-a8dc-44ee-bbc2-e01b1cf2ab9a"},"vehicle_type_id":"4","last_reported":1744801715,"current_range_meters":12400,"station_id":"ce4bhjp2rcd13ifvqga0","pricing_plan_id":"cebpf4jnsgd1na2vs0mg"},{"bike_id":"4220a71d-b00b-46df-8353-e10f2175efff","system_id":"levelo_inurba_marseille","lat":43.32358,"lon":5.36766,"is_reserved":false,"is_disabled":false,"rental_uris":{"android":"levelo://app?vid=4220a71d-b00b-46df-8353-e10f2175efff","ios":"levelo://app?vid=4220a71d-b00b-46df-8353-e10f2175efff"},"vehicle_type_id":"4","last_reported":1744801715,"current_range_meters":12400,"station_id":"ce4bhsh2rcd13ifvqi2g","pricing_plan_id":"cebpf4jnsgd1na2vs0mg"},{"bike_id":"f66e9184-6144-4d05-86a5-08e1062e8ef8","system_id":"levelo_inurba_marseille","lat":43.25925,"lon":5.4091,"is_reserved":false,"is_disabled":false,"rental_uris":{"android":"levelo://app?vid=f66e9184-6144-4d05-86a5-08e1062e8ef8","ios":"levelo://app?vid=f66e9184-6144-4d05-86a5-08e1062e8ef8"},"vehicle_type_id":"4","last_reported":1744801715,"current_range_meters":12400,"station_id":"ce4bhm92rcd13ifvqglg","pricing_plan_id":"cebpf4jnsgd1na2vs0mg"},{"bike_id":"ce86423c-7fda-4347-b51e-6014b639a5a1","system_id":"levelo_inurba_marseille","lat":43.31064,"lon":5.383413,"is_reserved":false,"is_disabled":false,"rental_uris":{"android":"levelo://app?vid=ce86423c-7fda-4347-b51e-6014b639a5a1","ios":"levelo://app?vid=ce86423c-7fda-4347-b51e-6014b639a5a1"},"vehicle_type_id":"4","last_reported":1744801715,"current_range_meters":12400,"station_id":"ce4bgv92rcd13ifvqcr0","pricing_plan_id":"cebpf4jnsgd1na2vs0mg"},{"bike_id":"2dccadaa-8201-4b5d-9572-f19c1cc2e6dc","system_id":"levelo_inurba_marseille","lat":43.309247,"lon":5.401477,"is_reserved":false,"is_disabled":false,"rental_uris":{"android":"levelo://app?vid=2dccadaa-8201-4b5d-9572-f19c1cc2e6dc","ios":"levelo://app?vid=2dccadaa-8201-4b5d-9572-f19c1cc2e6dc"},"vehicle_type_id":"4","last_reported":1744801715,"current_range_meters":12400,"station_id":"ce4bgvp2rcd13ifvqct0","pricing_plan_id":"cebpf4jnsgd1na2vs0mg"},{"bike_id":"43d7b100-8f7f-456d-8d92-a421f1c0ffcc","system_id":"levelo_inurba_marseille","lat":43.2721,"lon":5.39178,"is_reserved":false,"is_disabled":false,"rental_uris":{"android":"levelo://app?vid=43d7b100-8f7f-456d-8d92-a421f1c0ffcc","ios":"levelo://app?vid=43d7b100-8f7f-456d-8d92-a421f1c0ffcc"},"vehicle_type_id":"4","last_reported":1744801715,"current_range_meters":12800,"station_id":"ce4bhhp2rcd13ifvqfm0","pricing_plan_id":"cebpf4jnsgd1na2vs0mg"},{"bike_id":"be69b866-825b-4ec7-b59b-21708b2b55c2","system_id":"levelo_inurba_marseille","lat":43.301,"lon":5.39109,"is_reserved":false,"is_disabled":false,"rental_uris":{"android":"levelo://app?vid=be69b866-825b-4ec7-b59b-21708b2b55c2","ios":"levelo://app?vid=be69b866-825b-4ec7-b59b-21708b2b55c2"},"vehicle_type_id":"4","last_reported":1744801715,"current_range_meters":12800,"station_id":"ce4bh192rcd13ifvqdb0","pricing_plan_id":"cebpf4jnsgd1na2vs0mg"},{"bike_id":"08665e19-be9b-4b06-a7d4-30f714f1faad","system_id":"levelo_inurba_marseille","lat":43.25752,"lon":5.41095,"is_reserved":false,"is_disabled":false,"rental_uris":{"android":"levelo://app?vid=08665e19-be9b-4b06-a7d4-30f714f1faad","ios":"levelo://app?vid=08665e19-be9b-4b06-a7d4-30f714f1faad"},"vehicle_type_id":"4","last_reported":1744801715,"current_range_meters":12800,"station_id":"ce4bhkp2rcd13ifvqgd0","pricing_plan_id":"cebpf4jnsgd1na2vs0mg"},{"bike_id":"5bd2378a-0ba2-4601-8114-ff49dc777988","system_id":"levelo_inurba_marseille","lat":43.30908,"lon":5.36839,"is_reserved":false,"is_disabled":false,"rental_uris":{"android":"levelo://app?vid=5bd2378a-0ba2-4601-8114-ff49dc777988","ios":"levelo://app?vid=5bd2378a-0ba2-4601-8114-ff49dc777988"},"vehicle_type_id":"4","last_reported":1744801715,"current_range_meters":13600,"station_id":"ce4bgn92rcd13ifvqbvg","pricing_plan_id":"cebpf4jnsgd1na2vs0mg"},{"bike_id":"9ff5a7ef-d1e0-4ae6-9224-c69447f908f9","system_id":"levelo_inurba_marseille","lat":43.29863,"lon":5.36262,"is_reserved":false,"is_disabled":false,"rental_uris":{"android":"levelo://app?vid=9ff5a7ef-d1e0-4ae6-9224-c69447f908f9","ios":"levelo://app?vid=9ff5a7ef-d1e0-4ae6-9224-c69447f908f9"},"vehicle_type_id":"4","last_reported":1744801715,"current_range_meters":13600,"station_id":"ce4bgpp2rcd13ifvqc3g","pricing_plan_id":"cebpf4jnsgd1na2vs0mg"},{"bike_id":"f1d1d668-e9a3-40c6-8b34-e48aa0afdf58","system_id":"levelo_inurba_marseille","lat":43.30152,"lon":5.38082,"is_reserved":false,"is_disabled":false,"rental_uris":{"android":"levelo://app?vid=f1d1d668-e9a3-40c6-8b34-e48aa0afdf58","ios":"levelo://app?vid=f1d1d668-e9a3-40c6-8b34-e48aa0afdf58"},"vehicle_type_id":"4","last_reported":1744801715,"current_range_meters":14000,"station_id":"ce4bgjp2rcd13ifvqbh0","pricing_plan_id":"cebpf4jnsgd1na2vs0mg"},{"bike_id":"0aa4addf-1d86-4554-870f-089734e7c610","system_id":"levelo_inurba_marseille","lat":43.29304,"lon":5.37446,"is_reserved":false,"is_disabled":false,"rental_uris":{"android":"levelo://app?vid=0aa4addf-1d86-4554-870f-089734e7c610","ios":"levelo://app?vid=0aa4addf-1d86-4554-870f-089734e7c610"},"vehicle_type_id":"4","last_reported":1744801715,"current_range_meters":14000,"station_id":"ce4bgi12rcd13ifvqb70","pricing_plan_id":"cebpf4jnsgd1na2vs0mg"},{"bike_id":"43b14ed2-aebe-4ab3-b543-9cbb36a3d628","system_id":"levelo_inurba_marseille","lat":43.29853,"lon":5.3626,"is_reserved":false,"is_disabled":false,"rental_uris":{"android":"levelo://app?vid=43b14ed2-aebe-4ab3-b543-9cbb36a3d628","ios":"levelo://app?vid=43b14ed2-aebe-4ab3-b543-9cbb36a3d628"},"vehicle_type_id":"4","last_reported":1744801715,"current_range_meters":14000,"station_id":"ce4bgpp2rcd13ifvqc3g","pricing_plan_id":"cebpf4jnsgd1na2vs0mg"},{"bike_id":"834ec9e1-9d50-4bee-85ae-d1db335c55e5","system_id":"levelo_inurba_marseille","lat":43.31799,"lon":5.36785,"is_reserved":false,"is_disabled":false,"rental_uris":{"android":"levelo://app?vid=834ec9e1-9d50-4bee-85ae-d1db335c55e5","ios":"levelo://app?vid=834ec9e1-9d50-4bee-85ae-d1db335c55e5"},"vehicle_type_id":"4","last_reported":1744801715,"current_range_meters":14000,"station_id":"","pricing_plan_id":"cebpf4jnsgd1na2vs0mg"},{"bike_id":"3a179018-dfdf-470e-89e4-9c2255037a21","system_id":"levelo_inurba_marseille","lat":43.31992,"lon":5.3815,"is_reserved":false,"is_disabled":false,"rental_uris":{"android":"levelo://app?vid=3a179018-dfdf-470e-89e4-9c2255037a21","ios":"levelo://app?vid=3a179018-dfdf-470e-89e4-9c2255037a21"},"vehicle_type_id":"4","last_reported":1744801715,"current_range_meters":14000,"station_id":"ce4bhr12rcd13ifvqhpg","pricing_plan_id":"cebpf4jnsgd1na2vs0mg"},{"bike_id":"99ea03ef-8848-4ac4-81b7-f27bc6c57ec5","system_id":"levelo_inurba_marseille","lat":43.29548,"lon":5.42272,"is_reserved":false,"is_disabled":false,"rental_uris":{"android":"levelo://app?vid=99ea03ef-8848-4ac4-81b7-f27bc6c57ec5","ios":"levelo://app?vid=99ea03ef-8848-4ac4-81b7-f27bc6c57ec5"},"vehicle_type_id":"4","last_reported":1744801715,"current_range_meters":14400,"station_id":"ce4bhph2rcd13ifvqhdg","pricing_plan_id":"cebpf4jnsgd1na2vs0mg"},{"bike_id":"ba1b3b72-258d-4b1a-b353-1d2637c9c3a3","system_id":"levelo_inurba_marseille","lat":43.28474,"lon":5.38459,"is_reserved":false,"is_disabled":false,"rental_uris":{"android":"levelo://app?vid=ba1b3b72-258d-4b1a-b353-1d2637c9c3a3","ios":"levelo://app?vid=ba1b3b72-258d-4b1a-b353-1d2637c9c3a3"},"vehicle_type_id":"4","last_reported":1744801715,"current_range_meters":14400,"station_id":"ce4bh512rcd13ifvqe3g","pricing_plan_id":"cebpf4jnsgd1na2vs0mg"},{"bike_id":"90aab251-1ff9-4010-ba90-86de6b1ffc35","system_id":"levelo_inurba_marseille","lat":43.23152,"lon":5.43727,"is_reserved":false,"is_disabled":false,"rental_uris":{"android":"levelo://app?vid=90aab251-1ff9-4010-ba90-86de6b1ffc35","ios":"levelo://app?vid=90aab251-1ff9-4010-ba90-86de6b1ffc35"},"vehicle_type_id":"4","last_reported":1744801715,"current_range_meters":14800,"station_id":"ce4bhmp2rcd13ifvqgog","pricing_plan_id":"cebpf4jnsgd1na2vs0mg"},{"bike_id":"dda27a58-e2ca-4fce-a851-41cf6185682c","system_id":"levelo_inurba_marseille","lat":43.30278,"lon":5.37701,"is_reserved":false,"is_disabled":false,"rental_uris":{"android":"levelo://app?vid=dda27a58-e2ca-4fce-a851-41cf6185682c","ios":"levelo://app?vid=dda27a58-e2ca-4fce-a851-41cf6185682c"},"vehicle_type_id":"4","last_reported":1744801715,"current_range_meters":15200,"station_id":"ce4bguh2rcd13ifvqcj0","pricing_plan_id":"cebpf4jnsgd1na2vs0mg"},{"bike_id":"a9ea4779-4141-461d-a6fe-61155d453c17","system_id":"levelo_inurba_marseille","lat":43.30198,"lon":5.36639,"is_reserved":false,"is_disabled":false,"rental_uris":{"android":"levelo://app?vid=a9ea4779-4141-461d-a6fe-61155d453c17","ios":"levelo://app?vid=a9ea4779-4141-461d-a6fe-61155d453c17"},"vehicle_type_id":"4","last_reported":1744801715,"current_range_meters":15200,"station_id":"ce4bgrh2rcd13ifvqc8g","pricing_plan_id":"cebpf4jnsgd1na2vs0mg"},{"bike_id":"4328369a-71e3-42f0-af9b-b3d103933d00","system_id":"levelo_inurba_marseille","lat":43.33602,"lon":5.41049,"is_reserved":false,"is_disabled":false,"rental_uris":{"android":"levelo://app?vid=4328369a-71e3-42f0-af9b-b3d103933d00","ios":"levelo://app?vid=4328369a-71e3-42f0-af9b-b3d103933d00"},"vehicle_type_id":"4","last_reported":1744801715,"current_range_meters":15200,"station_id":"ce4bhqh2rcd13ifvqhmg","pricing_plan_id":"cebpf4jnsgd1na2vs0mg"},{"bike_id":"b0833750-6838-4304-9826-5e0318d3160b","system_id":"levelo_inurba_marseille","lat":43.2987,"lon":5.39741,"is_reserved":false,"is_disabled":false,"rental_uris":{"android":"levelo://app?vid=b0833750-6838-4304-9826-5e0318d3160b","ios":"levelo://app?vid=b0833750-6838-4304-9826-5e0318d3160b"},"vehicle_type_id":"4","last_reported":1744801715,"current_range_meters":15200,"station_id":"ce4bh0h2rcd13ifvqd50","pricing_plan_id":"cebpf4jnsgd1na2vs0mg"},{"bike_id":"9ff429a7-3a1f-4595-bdcc-9aa94a0fdf59","system_id":"levelo_inurba_marseille","lat":43.31079,"lon":5.38362,"is_reserved":false,"is_disabled":false,"rental_uris":{"android":"levelo://app?vid=9ff429a7-3a1f-4595-bdcc-9aa94a0fdf59","ios":"levelo://app?vid=9ff429a7-3a1f-4595-bdcc-9aa94a0fdf59"},"vehicle_type_id":"4","last_reported":1744801715,"current_range_meters":15200,"station_id":"ce4bgv92rcd13ifvqcr0","pricing_plan_id":"cebpf4jnsgd1na2vs0mg"},{"bike_id":"a800a6b9-a5a3-4580-b2b6-52b7ebea728f","system_id":"levelo_inurba_marseille","lat":43.30433,"lon":5.389,"is_reserved":false,"is_disabled":false,"rental_uris":{"android":"levelo://app?vid=a800a6b9-a5a3-4580-b2b6-52b7ebea728f","ios":"levelo://app?vid=a800a6b9-a5a3-4580-b2b6-52b7ebea728f"},"vehicle_type_id":"4","last_reported":1744801715,"current_range_meters":15200,"station_id":"ce4bgk12rcd13ifvqbi0","pricing_plan_id":"cebpf4jnsgd1na2vs0mg"},{"bike_id":"6bf5a380-400e-4cd6-bc1e-356afac9ee45","system_id":"levelo_inurba_marseille","lat":43.24175,"lon":5.36373,"is_reserved":false,"is_disabled":false,"rental_uris":{"android":"levelo://app?vid=6bf5a380-400e-4cd6-bc1e-356afac9ee45","ios":"levelo://app?vid=6bf5a380-400e-4cd6-bc1e-356afac9ee45"},"vehicle_type_id":"4","last_reported":1744801715,"current_range_meters":16000,"station_id":"cpo36qri1sfpv3e86is0","pricing_plan_id":"cebpf4jnsgd1na2vs0mg"},{"bike_id":"6c103f9f-c959-46ad-a2e8-e44f9660c68e","system_id":"levelo_inurba_marseille","lat":43.212051,"lon":5.350747,"is_reserved":false,"is_disabled":false,"rental_uris":{"android":"levelo://app?vid=6c103f9f-c959-46ad-a2e8-e44f9660c68e","ios":"levelo://app?vid=6c103f9f-c959-46ad-a2e8-e44f9660c68e"},"vehicle_type_id":"4","last_reported":1744801715,"current_range_meters":16000,"station_id":"st_cvj6sg6p6f1abm77japg","pricing_plan_id":"cebpf4jnsgd1na2vs0mg"},{"bike_id":"e671135f-6e8d-4f7d-b793-34acac25fdfc","system_id":"levelo_inurba_marseille","lat":43.32366,"lon":5.36768,"is_reserved":false,"is_disabled":false,"rental_uris":{"android":"levelo://app?vid=e671135f-6e8d-4f7d-b793-34acac25fdfc","ios":"levelo://app?vid=e671135f-6e8d-4f7d-b793-34acac25fdfc"},"vehicle_type_id":"4","last_reported":1744801715,"current_range_meters":16000,"station_id":"ce4bhsh2rcd13ifvqi2g","pricing_plan_id":"cebpf4jnsgd1na2vs0mg"},{"bike_id":"a6d451ba-0fef-4616-9459-0a9167b4802c","system_id":"levelo_inurba_marseille","lat":43.29392,"lon":5.37866,"is_reserved":false,"is_disabled":false,"rental_uris":{"android":"levelo://app?vid=a6d451ba-0fef-4616-9459-0a9167b4802c","ios":"levelo://app?vid=a6d451ba-0fef-4616-9459-0a9167b4802c"},"vehicle_type_id":"4","last_reported":1744801715,"current_range_meters":16000,"station_id":"ce4bgjh2rcd13ifvqbf0","pricing_plan_id":"cebpf4jnsgd1na2vs0mg"},{"bike_id":"2be2e8c5-ff49-4a5a-963a-4bbeabb11512","system_id":"levelo_inurba_marseille","lat":43.30739,"lon":5.4245,"is_reserved":false,"is_disabled":false,"rental_uris":{"android":"levelo://app?vid=2be2e8c5-ff49-4a5a-963a-4bbeabb11512","ios":"levelo://app?vid=2be2e8c5-ff49-4a5a-963a-4bbeabb11512"},"vehicle_type_id":"4","last_reported":1744801715,"current_range_meters":16000,"station_id":"st_cvj6ca6bvosntc0bfgr0","pricing_plan_id":"cebpf4jnsgd1na2vs0mg"},{"bike_id":"dbf4c253-115b-4d60-8ce6-347759549849","system_id":"levelo_inurba_marseille","lat":43.29255,"lon":5.38446,"is_reserved":false,"is_disabled":false,"rental_uris":{"android":"levelo://app?vid=dbf4c253-115b-4d60-8ce6-347759549849","ios":"levelo://app?vid=dbf4c253-115b-4d60-8ce6-347759549849"},"vehicle_type_id":"4","last_reported":1744801715,"current_range_meters":16000,"station_id":"ce4bh692rcd13ifvqea0","pricing_plan_id":"cebpf4jnsgd1na2vs0mg"},{"bike_id":"f8205049-59cf-4c67-95d9-2ae60dd41d42","system_id":"levelo_inurba_marseille","lat":43.26054,"lon":5.39397,"is_reserved":false,"is_disabled":false,"rental_uris":{"android":"levelo://app?vid=f8205049-59cf-4c67-95d9-2ae60dd41d42","ios":"levelo://app?vid=f8205049-59cf-4c67-95d9-2ae60dd41d42"},"vehicle_type_id":"4","last_reported":1744801715,"current_range_meters":16400,"station_id":"ce4bhh92rcd13ifvqfj0","pricing_plan_id":"cebpf4jnsgd1na2vs0mg"},{"bike_id":"c1404c22-3a48-4367-bbbd-d0bf216e29bc","system_id":"levelo_inurba_marseille","lat":43.3095,"lon":5.39046,"is_reserved":false,"is_disabled":false,"rental_uris":{"android":"levelo://app?vid=c1404c22-3a48-4367-bbbd-d0bf216e29bc","ios":"levelo://app?vid=c1404c22-3a48-4367-bbbd-d0bf216e29bc"},"vehicle_type_id":"4","last_reported":1744801715,"current_range_meters":16400,"station_id":"ce4bgup2rcd13ifvqco0","pricing_plan_id":"cebpf4jnsgd1na2vs0mg"},{"bike_id":"ab7ce281-c4b8-4c22-bd41-e1fa7c1685f9","system_id":"levelo_inurba_marseille","lat":43.29479,"lon":5.37381,"is_reserved":false,"is_disabled":false,"rental_uris":{"android":"levelo://app?vid=ab7ce281-c4b8-4c22-bd41-e1fa7c1685f9","ios":"levelo://app?vid=ab7ce281-c4b8-4c22-bd41-e1fa7c1685f9"},"vehicle_type_id":"4","last_reported":1744801715,"current_range_meters":16400,"station_id":"","pricing_plan_id":"cebpf4jnsgd1na2vs0mg"},{"bike_id":"6140cd63-a641-4418-b6d9-37a644aaded1","system_id":"levelo_inurba_marseille","lat":43.30553,"lon":5.36521,"is_reserved":false,"is_disabled":false,"rental_uris":{"android":"levelo://app?vid=6140cd63-a641-4418-b6d9-37a644aaded1","ios":"levelo://app?vid=6140cd63-a641-4418-b6d9-37a644aaded1"},"vehicle_type_id":"4","last_reported":1744801715,"current_range_meters":16400,"station_id":"ce4bgs12rcd13ifvqcag","pricing_plan_id":"cebpf4jnsgd1na2vs0mg"},{"bike_id":"04dd35fd-4a6f-4fea-ab32-8cddea7cdd0c","system_id":"levelo_inurba_marseille","lat":43.29262,"lon":5.38445,"is_reserved":false,"is_disabled":false,"rental_uris":{"android":"levelo://app?vid=04dd35fd-4a6f-4fea-ab32-8cddea7cdd0c","ios":"levelo://app?vid=04dd35fd-4a6f-4fea-ab32-8cddea7cdd0c"},"vehicle_type_id":"4","last_reported":1744801715,"current_range_meters":16400,"station_id":"ce4bh692rcd13ifvqea0","pricing_plan_id":"cebpf4jnsgd1na2vs0mg"},{"bike_id":"10a05b79-c3d5-4be7-a18b-8140be240501","system_id":"levelo_inurba_marseille","lat":43.29617,"lon":5.37952,"is_reserved":false,"is_disabled":false,"rental_uris":{"android":"levelo://app?vid=10a05b79-c3d5-4be7-a18b-8140be240501","ios":"levelo://app?vid=10a05b79-c3d5-4be7-a18b-8140be240501"},"vehicle_type_id":"4","last_reported":1744801715,"current_range_meters":16800,"station_id":"","pricing_plan_id":"cebpf4jnsgd1na2vs0mg"},{"bike_id":"2984cec8-23de-4a73-97a3-c0829eb8b5c7","system_id":"levelo_inurba_marseille","lat":43.27918,"lon":5.3958,"is_reserved":false,"is_disabled":false,"rental_uris":{"android":"levelo://app?vid=2984cec8-23de-4a73-97a3-c0829eb8b5c7","ios":"levelo://app?vid=2984cec8-23de-4a73-97a3-c0829eb8b5c7"},"vehicle_type_id":"4","last_reported":1744801715,"current_range_meters":16800,"station_id":"ce4bhf92rcd13ifvqf40","pricing_plan_id":"cebpf4jnsgd1na2vs0mg"},{"bike_id":"da2251a7-2b2b-4dd1-8be8-8f047831f0e4","system_id":"levelo_inurba_marseille","lat":43.30294,"lon":5.39198,"is_reserved":false,"is_disabled":true,"rental_uris":{"android":"levelo://app?vid=da2251a7-2b2b-4dd1-8be8-8f047831f0e4","ios":"levelo://app?vid=da2251a7-2b2b-4dd1-8be8-8f047831f0e4"},"vehicle_type_id":"4","last_reported":1744801715,"current_range_meters":16800,"station_id":"ce4bgkh2rcd13ifvqbk0","pricing_plan_id":"cebpf4jnsgd1na2vs0mg"},{"bike_id":"6c753cfd-e2a2-46b2-a74f-cf2c42d3ccc5","system_id":"levelo_inurba_marseille","lat":43.3048,"lon":5.3791,"is_reserved":false,"is_disabled":false,"rental_uris":{"android":"levelo://app?vid=6c753cfd-e2a2-46b2-a74f-cf2c42d3ccc5","ios":"levelo://app?vid=6c753cfd-e2a2-46b2-a74f-cf2c42d3ccc5"},"vehicle_type_id":"4","last_reported":1744801715,"current_range_meters":16800,"station_id":"ce4bgup2rcd13ifvqcn0","pricing_plan_id":"cebpf4jnsgd1na2vs0mg"},{"bike_id":"8b5f6de4-e202-4aa4-b826-afbc8a994f6f","system_id":"levelo_inurba_marseille","lat":43.3021,"lon":5.39502,"is_reserved":false,"is_disabled":false,"rental_uris":{"android":"levelo://app?vid=8b5f6de4-e202-4aa4-b826-afbc8a994f6f","ios":"levelo://app?vid=8b5f6de4-e202-4aa4-b826-afbc8a994f6f"},"vehicle_type_id":"4","last_reported":1744801715,"current_range_meters":16800,"station_id":"ce4bh0p2rcd13ifvqd70","pricing_plan_id":"cebpf4jnsgd1na2vs0mg"},{"bike_id":"60ed6980-2c34-4754-ad59-4c9dd6d7cc20","system_id":"levelo_inurba_marseille","lat":43.30163,"lon":5.3808,"is_reserved":false,"is_disabled":false,"rental_uris":{"android":"levelo://app?vid=60ed6980-2c34-4754-ad59-4c9dd6d7cc20","ios":"levelo://app?vid=60ed6980-2c34-4754-ad59-4c9dd6d7cc20"},"vehicle_type_id":"4","last_reported":1744801715,"current_range_meters":16800,"station_id":"ce4bgjp2rcd13ifvqbh0","pricing_plan_id":"cebpf4jnsgd1na2vs0mg"},{"bike_id":"25396407-809c-477a-bfb3-ed2780bafebb","system_id":"levelo_inurba_marseille","lat":43.28941,"lon":5.38317,"is_reserved":false,"is_disabled":false,"rental_uris":{"android":"levelo://app?vid=25396407-809c-477a-bfb3-ed2780bafebb","ios":"levelo://app?vid=25396407-809c-477a-bfb3-ed2780bafebb"},"vehicle_type_id":"4","last_reported":1744801715,"current_range_meters":17200,"station_id":"","pricing_plan_id":"cebpf4jnsgd1na2vs0mg"},{"bike_id":"b6b4fba7-65bd-4354-9ef8-9be346fbbc8a","system_id":"levelo_inurba_marseille","lat":43.3028,"lon":5.37709,"is_reserved":false,"is_disabled":false,"rental_uris":{"android":"levelo://app?vid=b6b4fba7-65bd-4354-9ef8-9be346fbbc8a","ios":"levelo://app?vid=b6b4fba7-65bd-4354-9ef8-9be346fbbc8a"},"vehicle_type_id":"4","last_reported":1744801715,"current_range_meters":17200,"station_id":"ce4bguh2rcd13ifvqcj0","pricing_plan_id":"cebpf4jnsgd1na2vs0mg"},{"bike_id":"c31c0ecc-e896-4522-8f59-f94ab8194ac3","system_id":"levelo_inurba_marseille","lat":43.31688,"lon":5.40474,"is_reserved":false,"is_disabled":false,"rental_uris":{"android":"levelo://app?vid=c31c0ecc-e896-4522-8f59-f94ab8194ac3","ios":"levelo://app?vid=c31c0ecc-e896-4522-8f59-f94ab8194ac3"},"vehicle_type_id":"4","last_reported":1744801715,"current_range_meters":17200,"station_id":"ce4bh012rcd13ifvqd00","pricing_plan_id":"cebpf4jnsgd1na2vs0mg"},{"bike_id":"6d808110-2d8c-4565-a3c5-2c4f66ab2217","system_id":"levelo_inurba_marseille","lat":43.29718,"lon":5.37701,"is_reserved":false,"is_disabled":false,"rental_uris":{"android":"levelo://app?vid=6d808110-2d8c-4565-a3c5-2c4f66ab2217","ios":"levelo://app?vid=6d808110-2d8c-4565-a3c5-2c4f66ab2217"},"vehicle_type_id":"4","last_reported":1744801715,"current_range_meters":17200,"station_id":"ce4bgkh2rcd13ifvqbl0","pricing_plan_id":"cebpf4jnsgd1na2vs0mg"},{"bike_id":"33c49ce4-4511-40dc-97c7-faab16b44ba4","system_id":"levelo_inurba_marseille","lat":43.29537,"lon":5.39047,"is_reserved":false,"is_disabled":false,"rental_uris":{"android":"levelo://app?vid=33c49ce4-4511-40dc-97c7-faab16b44ba4","ios":"levelo://app?vid=33c49ce4-4511-40dc-97c7-faab16b44ba4"},"vehicle_type_id":"4","last_reported":1744801715,"current_range_meters":17200,"station_id":"ce4bh3p2rcd13ifvqdp0","pricing_plan_id":"cebpf4jnsgd1na2vs0mg"},{"bike_id":"57406be6-c0b4-4691-8abf-3f6842e4ec81","system_id":"levelo_inurba_marseille","lat":43.2846,"lon":5.39199,"is_reserved":false,"is_disabled":true,"rental_uris":{"android":"levelo://app?vid=57406be6-c0b4-4691-8abf-3f6842e4ec81","ios":"levelo://app?vid=57406be6-c0b4-4691-8abf-3f6842e4ec81"},"vehicle_type_id":"4","last_reported":1744801715,"current_range_meters":17200,"station_id":"ce4bhoh2rcd13ifvqh5g","pricing_plan_id":"cebpf4jnsgd1na2vs0mg"},{"bike_id":"b79dd13e-a287-4471-80e3-8bbebc4f7b05","system_id":"levelo_inurba_marseille","lat":43.27317,"lon":5.39059,"is_reserved":false,"is_disabled":false,"rental_uris":{"android":"levelo://app?vid=b79dd13e-a287-4471-80e3-8bbebc4f7b05","ios":"levelo://app?vid=b79dd13e-a287-4471-80e3-8bbebc4f7b05"},"vehicle_type_id":"4","last_reported":1744801715,"current_range_meters":17600,"station_id":"ce4bhgp2rcd13ifvqfe0","pricing_plan_id":"cebpf4jnsgd1na2vs0mg"},{"bike_id":"d99e15ca-2215-4c4d-b0ca-41fe329d397c","system_id":"levelo_inurba_marseille","lat":43.3123,"lon":5.36861,"is_reserved":false,"is_disabled":false,"rental_uris":{"android":"levelo://app?vid=d99e15ca-2215-4c4d-b0ca-41fe329d397c","ios":"levelo://app?vid=d99e15ca-2215-4c4d-b0ca-41fe329d397c"},"vehicle_type_id":"4","last_reported":1744801715,"current_range_meters":17600,"station_id":"ce4bgl92rcd13ifvqbq0","pricing_plan_id":"cebpf4jnsgd1na2vs0mg"},{"bike_id":"2ff0f2a4-5cdc-4fd4-8400-83c9fe1c01b7","system_id":"levelo_inurba_marseille","lat":43.290131,"lon":5.378031,"is_reserved":false,"is_disabled":false,"rental_uris":{"android":"levelo://app?vid=2ff0f2a4-5cdc-4fd4-8400-83c9fe1c01b7","ios":"levelo://app?vid=2ff0f2a4-5cdc-4fd4-8400-83c9fe1c01b7"},"vehicle_type_id":"4","last_reported":1744801715,"current_range_meters":17600,"station_id":"ce4bh9p2rcd13ifvqed0","pricing_plan_id":"cebpf4jnsgd1na2vs0mg"},{"bike_id":"b453c917-0db1-40bd-ad8a-e14424b609f7","system_id":"levelo_inurba_marseille","lat":43.27058,"lon":5.40258,"is_reserved":false,"is_disabled":false,"rental_uris":{"android":"levelo://app?vid=b453c917-0db1-40bd-ad8a-e14424b609f7","ios":"levelo://app?vid=b453c917-0db1-40bd-ad8a-e14424b609f7"},"vehicle_type_id":"4","last_reported":1744801715,"current_range_meters":18000,"station_id":"ce4bhk92rcd13ifvqgc0","pricing_plan_id":"cebpf4jnsgd1na2vs0mg"},{"bike_id":"1ab740fa-b8a6-413c-a4b8-53689888f184","system_id":"levelo_inurba_marseille","lat":43.284,"lon":5.37522,"is_reserved":false,"is_disabled":false,"rental_uris":{"android":"levelo://app?vid=1ab740fa-b8a6-413c-a4b8-53689888f184","ios":"levelo://app?vid=1ab740fa-b8a6-413c-a4b8-53689888f184"},"vehicle_type_id":"4","last_reported":1744801715,"current_range_meters":18000,"station_id":"ce4bh412rcd13ifvqds0","pricing_plan_id":"cebpf4jnsgd1na2vs0mg"},{"bike_id":"9f3a5dd8-a360-4b18-82ad-d26b0a34023d","system_id":"levelo_inurba_marseille","lat":43.30534,"lon":5.36536,"is_reserved":false,"is_disabled":false,"rental_uris":{"android":"levelo://app?vid=9f3a5dd8-a360-4b18-82ad-d26b0a34023d","ios":"levelo://app?vid=9f3a5dd8-a360-4b18-82ad-d26b0a34023d"},"vehicle_type_id":"4","last_reported":1744801715,"current_range_meters":18000,"station_id":"ce4bgs12rcd13ifvqcag","pricing_plan_id":"cebpf4jnsgd1na2vs0mg"},{"bike_id":"52488a8c-ee52-45f2-aa5c-963de923bf31","system_id":"levelo_inurba_marseille","lat":43.26019,"lon":5.4174,"is_reserved":false,"is_disabled":false,"rental_uris":{"android":"levelo://app?vid=52488a8c-ee52-45f2-aa5c-963de923bf31","ios":"levelo://app?vid=52488a8c-ee52-45f2-aa5c-963de923bf31"},"vehicle_type_id":"4","last_reported":1744801715,"current_range_meters":18000,"station_id":"","pricing_plan_id":"cebpf4jnsgd1na2vs0mg"},{"bike_id":"55ad988e-462d-4f85-8e4f-a9aaf5e402e7","system_id":"levelo_inurba_marseille","lat":43.25939,"lon":5.40904,"is_reserved":false,"is_disabled":false,"rental_uris":{"android":"levelo://app?vid=55ad988e-462d-4f85-8e4f-a9aaf5e402e7","ios":"levelo://app?vid=55ad988e-462d-4f85-8e4f-a9aaf5e402e7"},"vehicle_type_id":"4","last_reported":1744801715,"current_range_meters":18000,"station_id":"ce4bhm92rcd13ifvqglg","pricing_plan_id":"cebpf4jnsgd1na2vs0mg"},{"bike_id":"f054fa40-83b2-4433-8d16-1d8b41a7d7b2","system_id":"levelo_inurba_marseille","lat":43.25078,"lon":5.39512,"is_reserved":false,"is_disabled":false,"rental_uris":{"android":"levelo://app?vid=f054fa40-83b2-4433-8d16-1d8b41a7d7b2","ios":"levelo://app?vid=f054fa40-83b2-4433-8d16-1d8b41a7d7b2"},"vehicle_type_id":"4","last_reported":1744801715,"current_range_meters":18000,"station_id":"ce4bhm12rcd13ifvqgkg","pricing_plan_id":"cebpf4jnsgd1na2vs0mg"},{"bike_id":"4cb67eec-0e45-47a9-9453-fa307935ee48","system_id":"levelo_inurba_marseille","lat":43.28157,"lon":5.42633,"is_reserved":false,"is_disabled":false,"rental_uris":{"android":"levelo://app?vid=4cb67eec-0e45-47a9-9453-fa307935ee48","ios":"levelo://app?vid=4cb67eec-0e45-47a9-9453-fa307935ee48"},"vehicle_type_id":"4","last_reported":1744801715,"current_range_meters":18000,"station_id":"ce4bhnh2rcd13ifvqgug","pricing_plan_id":"cebpf4jnsgd1na2vs0mg"},{"bike_id":"253cb408-1292-4456-8381-70bdc9615886","system_id":"levelo_inurba_marseille","lat":43.24997,"lon":5.38911,"is_reserved":false,"is_disabled":false,"rental_uris":{"android":"levelo://app?vid=253cb408-1292-4456-8381-70bdc9615886","ios":"levelo://app?vid=253cb408-1292-4456-8381-70bdc9615886"},"vehicle_type_id":"4","last_reported":1744801715,"current_range_meters":18000,"station_id":"ce4bhgp2rcd13ifvqfd0","pricing_plan_id":"cebpf4jnsgd1na2vs0mg"},{"bike_id":"d0aa9168-26d5-408e-8e5e-66ff4c81a67d","system_id":"levelo_inurba_marseille","lat":43.31075,"lon":5.38361,"is_reserved":false,"is_disabled":false,"rental_uris":{"android":"levelo://app?vid=d0aa9168-26d5-408e-8e5e-66ff4c81a67d","ios":"levelo://app?vid=d0aa9168-26d5-408e-8e5e-66ff4c81a67d"},"vehicle_type_id":"4","last_reported":1744801715,"current_range_meters":18000,"station_id":"ce4bgv92rcd13ifvqcr0","pricing_plan_id":"cebpf4jnsgd1na2vs0mg"},{"bike_id":"f32b7cda-5375-41fb-a60a-3eff37876edc","system_id":"levelo_inurba_marseille","lat":43.29201,"lon":5.35813,"is_reserved":false,"is_disabled":false,"rental_uris":{"android":"levelo://app?vid=f32b7cda-5375-41fb-a60a-3eff37876edc","ios":"levelo://app?vid=f32b7cda-5375-41fb-a60a-3eff37876edc"},"vehicle_type_id":"4","last_reported":1744801715,"current_range_meters":19600,"station_id":"","pricing_plan_id":"cebpf4jnsgd1na2vs0mg"},{"bike_id":"182b0849-c1c2-4e02-a196-85df37bf5057","system_id":"levelo_inurba_marseille","lat":43.25579,"lon":5.38227,"is_reserved":false,"is_disabled":false,"rental_uris":{"android":"levelo://app?vid=182b0849-c1c2-4e02-a196-85df37bf5057","ios":"levelo://app?vid=182b0849-c1c2-4e02-a196-85df37bf5057"},"vehicle_type_id":"4","last_reported":1744801715,"current_range_meters":18800,"station_id":"ce4bhih2rcd13ifvqfs0","pricing_plan_id":"cebpf4jnsgd1na2vs0mg"},{"bike_id":"a48200e6-981c-4d33-bbb5-8915bbcf22e3","system_id":"levelo_inurba_marseille","lat":43.25569,"lon":5.38247,"is_reserved":false,"is_disabled":false,"rental_uris":{"android":"levelo://app?vid=a48200e6-981c-4d33-bbb5-8915bbcf22e3","ios":"levelo://app?vid=a48200e6-981c-4d33-bbb5-8915bbcf22e3"},"vehicle_type_id":"4","last_reported":1744801715,"current_range_meters":18800,"station_id":"ce4bhih2rcd13ifvqfs0","pricing_plan_id":"cebpf4jnsgd1na2vs0mg"},{"bike_id":"315ed96d-e208-4e1c-abb5-5fdce13094c7","system_id":"levelo_inurba_marseille","lat":43.29304,"lon":5.37455,"is_reserved":false,"is_disabled":false,"rental_uris":{"android":"levelo://app?vid=315ed96d-e208-4e1c-abb5-5fdce13094c7","ios":"levelo://app?vid=315ed96d-e208-4e1c-abb5-5fdce13094c7"},"vehicle_type_id":"4","last_reported":1744801715,"current_range_meters":18800,"station_id":"ce4bgi12rcd13ifvqb70","pricing_plan_id":"cebpf4jnsgd1na2vs0mg"},{"bike_id":"67bec80b-3af2-4acd-9daa-4500c6ed3654","system_id":"levelo_inurba_marseille","lat":43.24154,"lon":5.3642,"is_reserved":false,"is_disabled":false,"rental_uris":{"android":"levelo://app?vid=67bec80b-3af2-4acd-9daa-4500c6ed3654","ios":"levelo://app?vid=67bec80b-3af2-4acd-9daa-4500c6ed3654"},"vehicle_type_id":"4","last_reported":1744801715,"current_range_meters":18800,"station_id":"cpo36qri1sfpv3e86is0","pricing_plan_id":"cebpf4jnsgd1na2vs0mg"},{"bike_id":"6c2e057f-300a-4310-9267-b9a9efc65c56","system_id":"levelo_inurba_marseille","lat":43.30128,"lon":5.39869,"is_reserved":false,"is_disabled":false,"rental_uris":{"android":"levelo://app?vid=6c2e057f-300a-4310-9267-b9a9efc65c56","ios":"levelo://app?vid=6c2e057f-300a-4310-9267-b9a9efc65c56"},"vehicle_type_id":"4","last_reported":1744801715,"current_range_meters":18800,"station_id":"ce4bh0h2rcd13ifvqd40","pricing_plan_id":"cebpf4jnsgd1na2vs0mg"},{"bike_id":"479d5a5f-271f-4ac2-a568-4c71926ce846","system_id":"levelo_inurba_marseille","lat":43.26207,"lon":5.37448,"is_reserved":false,"is_disabled":false,"rental_uris":{"android":"levelo://app?vid=479d5a5f-271f-4ac2-a568-4c71926ce846","ios":"levelo://app?vid=479d5a5f-271f-4ac2-a568-4c71926ce846"},"vehicle_type_id":"4","last_reported":1744801715,"current_range_meters":18800,"station_id":"ce4bhgp2rcd13ifvqfc0","pricing_plan_id":"cebpf4jnsgd1na2vs0mg"},{"bike_id":"12fd2ec0-f86c-48d5-9e28-482c6c94a929","system_id":"levelo_inurba_marseille","lat":43.29642,"lon":5.37128,"is_reserved":false,"is_disabled":false,"rental_uris":{"android":"levelo://app?vid=12fd2ec0-f86c-48d5-9e28-482c6c94a929","ios":"levelo://app?vid=12fd2ec0-f86c-48d5-9e28-482c6c94a929"},"vehicle_type_id":"4","last_reported":1744801715,"current_range_meters":18000,"station_id":"ce4bgnh2rcd13ifvqc0g","pricing_plan_id":"cebpf4jnsgd1na2vs0mg"},{"bike_id":"da0699e6-fffb-42fd-bda2-fa249cfedfd8","system_id":"levelo_inurba_marseille","lat":43.314806,"lon":5.373017,"is_reserved":false,"is_disabled":false,"rental_uris":{"android":"levelo://app?vid=da0699e6-fffb-42fd-bda2-fa249cfedfd8","ios":"levelo://app?vid=da0699e6-fffb-42fd-bda2-fa249cfedfd8"},"vehicle_type_id":"4","last_reported":1744801715,"current_range_meters":19200,"station_id":"ce4bgt12rcd13ifvqcd0","pricing_plan_id":"cebpf4jnsgd1na2vs0mg"},{"bike_id":"c4d9e3c2-ff2a-4a7f-887b-d458d2d4857a","system_id":"levelo_inurba_marseille","lat":43.29099,"lon":5.38135,"is_reserved":false,"is_disabled":false,"rental_uris":{"android":"levelo://app?vid=c4d9e3c2-ff2a-4a7f-887b-d458d2d4857a","ios":"levelo://app?vid=c4d9e3c2-ff2a-4a7f-887b-d458d2d4857a"},"vehicle_type_id":"4","last_reported":1744801715,"current_range_meters":19200,"station_id":"ce4bh512rcd13ifvqe2g","pricing_plan_id":"cebpf4jnsgd1na2vs0mg"},{"bike_id":"2d03e3c2-09e4-4978-8dbc-31228f7e9fd5","system_id":"levelo_inurba_marseille","lat":43.25577,"lon":5.38233,"is_reserved":false,"is_disabled":false,"rental_uris":{"android":"levelo://app?vid=2d03e3c2-09e4-4978-8dbc-31228f7e9fd5","ios":"levelo://app?vid=2d03e3c2-09e4-4978-8dbc-31228f7e9fd5"},"vehicle_type_id":"4","last_reported":1744801715,"current_range_meters":19200,"station_id":"ce4bhih2rcd13ifvqfs0","pricing_plan_id":"cebpf4jnsgd1na2vs0mg"},{"bike_id":"8c95c56e-fd38-4747-b8d7-85ddf29bba6c","system_id":"levelo_inurba_marseille","lat":43.29809,"lon":5.38114,"is_reserved":false,"is_disabled":false,"rental_uris":{"android":"levelo://app?vid=8c95c56e-fd38-4747-b8d7-85ddf29bba6c","ios":"levelo://app?vid=8c95c56e-fd38-4747-b8d7-85ddf29bba6c"},"vehicle_type_id":"4","last_reported":1744801715,"current_range_meters":19200,"station_id":"ce4bgip2rcd13ifvqbb0","pricing_plan_id":"cebpf4jnsgd1na2vs0mg"},{"bike_id":"bf4659ae-1e1e-46e0-aae0-87527cd1ccd6","system_id":"levelo_inurba_marseille","lat":43.28148,"lon":5.42662,"is_reserved":false,"is_disabled":false,"rental_uris":{"android":"levelo://app?vid=bf4659ae-1e1e-46e0-aae0-87527cd1ccd6","ios":"levelo://app?vid=bf4659ae-1e1e-46e0-aae0-87527cd1ccd6"},"vehicle_type_id":"4","last_reported":1744801715,"current_range_meters":19200,"station_id":"ce4bhnh2rcd13ifvqgug","pricing_plan_id":"cebpf4jnsgd1na2vs0mg"},{"bike_id":"e3bbf163-eadf-423b-85c5-996bf8a4e270","system_id":"levelo_inurba_marseille","lat":43.24157,"lon":5.37686,"is_reserved":false,"is_disabled":false,"rental_uris":{"android":"levelo://app?vid=e3bbf163-eadf-423b-85c5-996bf8a4e270","ios":"levelo://app?vid=e3bbf163-eadf-423b-85c5-996bf8a4e270"},"vehicle_type_id":"4","last_reported":1744801715,"current_range_meters":19200,"station_id":"","pricing_plan_id":"cebpf4jnsgd1na2vs0mg"},{"bike_id":"649e44eb-2a88-412e-9725-faa6238bc83e","system_id":"levelo_inurba_marseille","lat":43.31231,"lon":5.368636,"is_reserved":false,"is_disabled":false,"rental_uris":{"android":"levelo://app?vid=649e44eb-2a88-412e-9725-faa6238bc83e","ios":"levelo://app?vid=649e44eb-2a88-412e-9725-faa6238bc83e"},"vehicle_type_id":"4","last_reported":1744801715,"current_range_meters":19200,"station_id":"ce4bgl92rcd13ifvqbq0","pricing_plan_id":"cebpf4jnsgd1na2vs0mg"},{"bike_id":"b0c96df8-9224-46b2-99bd-1d24cf4fda98","system_id":"levelo_inurba_marseille","lat":43.306346,"lon":5.365556,"is_reserved":false,"is_disabled":false,"rental_uris":{"android":"levelo://app?vid=b0c96df8-9224-46b2-99bd-1d24cf4fda98","ios":"levelo://app?vid=b0c96df8-9224-46b2-99bd-1d24cf4fda98"},"vehicle_type_id":"4","last_reported":1744801715,"current_range_meters":19200,"station_id":"ce4bhh12rcd13ifvqfg0","pricing_plan_id":"cebpf4jnsgd1na2vs0mg"},{"bike_id":"21df255b-e272-42f9-b082-b78ffbcd30ac","system_id":"levelo_inurba_marseille","lat":43.27826,"lon":5.40708,"is_reserved":false,"is_disabled":false,"rental_uris":{"android":"levelo://app?vid=21df255b-e272-42f9-b082-b78ffbcd30ac","ios":"levelo://app?vid=21df255b-e272-42f9-b082-b78ffbcd30ac"},"vehicle_type_id":"4","last_reported":1744801715,"current_range_meters":19200,"station_id":"ce4bhnh2rcd13ifvqgtg","pricing_plan_id":"cebpf4jnsgd1na2vs0mg"},{"bike_id":"a0ddb0a5-f7f0-4281-aa27-9e82747cc573","system_id":"levelo_inurba_marseille","lat":43.33751,"lon":5.37483,"is_reserved":false,"is_disabled":false,"rental_uris":{"android":"levelo://app?vid=a0ddb0a5-f7f0-4281-aa27-9e82747cc573","ios":"levelo://app?vid=a0ddb0a5-f7f0-4281-aa27-9e82747cc573"},"vehicle_type_id":"4","last_reported":1744801715,"current_range_meters":19200,"station_id":"","pricing_plan_id":"cebpf4jnsgd1na2vs0mg"},{"bike_id":"eb2c19a1-62aa-4899-868a-04e9d024bfdd","system_id":"levelo_inurba_marseille","lat":43.27997,"lon":5.41635,"is_reserved":false,"is_disabled":false,"rental_uris":{"android":"levelo://app?vid=eb2c19a1-62aa-4899-868a-04e9d024bfdd","ios":"levelo://app?vid=eb2c19a1-62aa-4899-868a-04e9d024bfdd"},"vehicle_type_id":"4","last_reported":1744801715,"current_range_meters":19600,"station_id":"ce4bho12rcd13ifvqh1g","pricing_plan_id":"cebpf4jnsgd1na2vs0mg"},{"bike_id":"88f3759b-2c1f-4762-b11a-067d1d7bb035","system_id":"levelo_inurba_marseille","lat":43.241787,"lon":5.397359,"is_reserved":false,"is_disabled":false,"rental_uris":{"android":"levelo://app?vid=88f3759b-2c1f-4762-b11a-067d1d7bb035","ios":"levelo://app?vid=88f3759b-2c1f-4762-b11a-067d1d7bb035"},"vehicle_type_id":"4","last_reported":1744801715,"current_range_meters":19600,"station_id":"ce4bhn12rcd13ifvqgpg","pricing_plan_id":"cebpf4jnsgd1na2vs0mg"},{"bike_id":"39d1d8c9-79ba-448e-8a9b-6a9ebbd9369e","system_id":"levelo_inurba_marseille","lat":43.29539,"lon":5.3854,"is_reserved":false,"is_disabled":false,"rental_uris":{"android":"levelo://app?vid=39d1d8c9-79ba-448e-8a9b-6a9ebbd9369e","ios":"levelo://app?vid=39d1d8c9-79ba-448e-8a9b-6a9ebbd9369e"},"vehicle_type_id":"4","last_reported":1744801715,"current_range_meters":19600,"station_id":"ce4bgih2rcd13ifvqba0","pricing_plan_id":"cebpf4jnsgd1na2vs0mg"},{"bike_id":"ceb52a59-0806-44d8-9596-f48eeae7037e","system_id":"levelo_inurba_marseille","lat":43.23157,"lon":5.43718,"is_reserved":false,"is_disabled":false,"rental_uris":{"android":"levelo://app?vid=ceb52a59-0806-44d8-9596-f48eeae7037e","ios":"levelo://app?vid=ceb52a59-0806-44d8-9596-f48eeae7037e"},"vehicle_type_id":"4","last_reported":1744801715,"current_range_meters":19600,"station_id":"ce4bhmp2rcd13ifvqgog","pricing_plan_id":"cebpf4jnsgd1na2vs0mg"},{"bike_id":"439c6cb6-7b03-4e89-b858-34cc7d6863ae","system_id":"levelo_inurba_marseille","lat":43.31222,"lon":5.36837,"is_reserved":false,"is_disabled":false,"rental_uris":{"android":"levelo://app?vid=439c6cb6-7b03-4e89-b858-34cc7d6863ae","ios":"levelo://app?vid=439c6cb6-7b03-4e89-b858-34cc7d6863ae"},"vehicle_type_id":"4","last_reported":1744801715,"current_range_meters":19600,"station_id":"ce4bgl92rcd13ifvqbq0","pricing_plan_id":"cebpf4jnsgd1na2vs0mg"},{"bike_id":"fab5cd6a-61b6-4d16-aad7-01dc9fa23b11","system_id":"levelo_inurba_marseille","lat":43.305401,"lon":5.365525,"is_reserved":false,"is_disabled":false,"rental_uris":{"android":"levelo://app?vid=fab5cd6a-61b6-4d16-aad7-01dc9fa23b11","ios":"levelo://app?vid=fab5cd6a-61b6-4d16-aad7-01dc9fa23b11"},"vehicle_type_id":"4","last_reported":1744801715,"current_range_meters":20000,"station_id":"ce4bgs12rcd13ifvqcag","pricing_plan_id":"cebpf4jnsgd1na2vs0mg"},{"bike_id":"8bc01458-e04d-4e1e-9f4f-473a9ad28594","system_id":"levelo_inurba_marseille","lat":43.27916,"lon":5.39578,"is_reserved":false,"is_disabled":false,"rental_uris":{"android":"levelo://app?vid=8bc01458-e04d-4e1e-9f4f-473a9ad28594","ios":"levelo://app?vid=8bc01458-e04d-4e1e-9f4f-473a9ad28594"},"vehicle_type_id":"4","last_reported":1744801715,"current_range_meters":20000,"station_id":"ce4bhf92rcd13ifvqf40","pricing_plan_id":"cebpf4jnsgd1na2vs0mg"},{"bike_id":"cb2339f4-0371-4078-a89b-835123189f9a","system_id":"levelo_inurba_marseille","lat":43.25723,"lon":5.41103,"is_reserved":false,"is_disabled":false,"rental_uris":{"android":"levelo://app?vid=cb2339f4-0371-4078-a89b-835123189f9a","ios":"levelo://app?vid=cb2339f4-0371-4078-a89b-835123189f9a"},"vehicle_type_id":"4","last_reported":1744801715,"current_range_meters":20000,"station_id":"ce4bhkp2rcd13ifvqgd0","pricing_plan_id":"cebpf4jnsgd1na2vs0mg"},{"bike_id":"8c9666db-7374-4052-9a04-1660bae1b693","system_id":"levelo_inurba_marseille","lat":43.31228,"lon":5.3687,"is_reserved":false,"is_disabled":false,"rental_uris":{"android":"levelo://app?vid=8c9666db-7374-4052-9a04-1660bae1b693","ios":"levelo://app?vid=8c9666db-7374-4052-9a04-1660bae1b693"},"vehicle_type_id":"4","last_reported":1744801715,"current_range_meters":20000,"station_id":"ce4bgl92rcd13ifvqbq0","pricing_plan_id":"cebpf4jnsgd1na2vs0mg"},{"bike_id":"f9294aff-5b6f-4d62-9db7-b7bdca4ffaf5","system_id":"levelo_inurba_marseille","lat":43.32493,"lon":5.41435,"is_reserved":false,"is_disabled":false,"rental_uris":{"android":"levelo://app?vid=f9294aff-5b6f-4d62-9db7-b7bdca4ffaf5","ios":"levelo://app?vid=f9294aff-5b6f-4d62-9db7-b7bdca4ffaf5"},"vehicle_type_id":"4","last_reported":1744801715,"current_range_meters":20000,"station_id":"ce4bhq12rcd13ifvqhhg","pricing_plan_id":"cebpf4jnsgd1na2vs0mg"},{"bike_id":"1661d55c-63b4-4478-8fb6-67acf830e03a","system_id":"levelo_inurba_marseille","lat":43.284619,"lon":5.358892,"is_reserved":false,"is_disabled":false,"rental_uris":{"android":"levelo://app?vid=1661d55c-63b4-4478-8fb6-67acf830e03a","ios":"levelo://app?vid=1661d55c-63b4-4478-8fb6-67acf830e03a"},"vehicle_type_id":"4","last_reported":1744801715,"current_range_meters":20000,"station_id":"ce4bh4p2rcd13ifvqe1g","pricing_plan_id":"cebpf4jnsgd1na2vs0mg"},{"bike_id":"c075e5f9-7973-48ad-adba-ff01af506039","system_id":"levelo_inurba_marseille","lat":43.30541,"lon":5.36527,"is_reserved":false,"is_disabled":false,"rental_uris":{"android":"levelo://app?vid=c075e5f9-7973-48ad-adba-ff01af506039","ios":"levelo://app?vid=c075e5f9-7973-48ad-adba-ff01af506039"},"vehicle_type_id":"4","last_reported":1744801715,"current_range_meters":20400,"station_id":"ce4bgs12rcd13ifvqcag","pricing_plan_id":"cebpf4jnsgd1na2vs0mg"},{"bike_id":"6b25c985-766f-4506-85f5-cbe4c5c089d4","system_id":"levelo_inurba_marseille","lat":43.29567,"lon":5.37526,"is_reserved":false,"is_disabled":false,"rental_uris":{"android":"levelo://app?vid=6b25c985-766f-4506-85f5-cbe4c5c089d4","ios":"levelo://app?vid=6b25c985-766f-4506-85f5-cbe4c5c089d4"},"vehicle_type_id":"4","last_reported":1744801715,"current_range_meters":20400,"station_id":"ce4bgh92rcd13ifvqb50","pricing_plan_id":"cebpf4jnsgd1na2vs0mg"},{"bike_id":"60d0714a-3481-4c64-af3e-796bab009e39","system_id":"levelo_inurba_marseille","lat":43.2317,"lon":5.43703,"is_reserved":false,"is_disabled":false,"rental_uris":{"android":"levelo://app?vid=60d0714a-3481-4c64-af3e-796bab009e39","ios":"levelo://app?vid=60d0714a-3481-4c64-af3e-796bab009e39"},"vehicle_type_id":"4","last_reported":1744801715,"current_range_meters":20400,"station_id":"ce4bhmp2rcd13ifvqgog","pricing_plan_id":"cebpf4jnsgd1na2vs0mg"},{"bike_id":"13911b68-5e79-46ab-9774-dfbd29db4c23","system_id":"levelo_inurba_marseille","lat":43.29797,"lon":5.38096,"is_reserved":false,"is_disabled":false,"rental_uris":{"android":"levelo://app?vid=13911b68-5e79-46ab-9774-dfbd29db4c23","ios":"levelo://app?vid=13911b68-5e79-46ab-9774-dfbd29db4c23"},"vehicle_type_id":"4","last_reported":1744801715,"current_range_meters":20400,"station_id":"ce4bgip2rcd13ifvqbb0","pricing_plan_id":"cebpf4jnsgd1na2vs0mg"},{"bike_id":"d55c55b0-51de-4280-a623-5ebf8562de0a","system_id":"levelo_inurba_marseille","lat":43.25005,"lon":5.38938,"is_reserved":false,"is_disabled":false,"rental_uris":{"android":"levelo://app?vid=d55c55b0-51de-4280-a623-5ebf8562de0a","ios":"levelo://app?vid=d55c55b0-51de-4280-a623-5ebf8562de0a"},"vehicle_type_id":"4","last_reported":1744801715,"current_range_meters":20400,"station_id":"ce4bhgp2rcd13ifvqfd0","pricing_plan_id":"cebpf4jnsgd1na2vs0mg"},{"bike_id":"bc0837a1-279f-4396-af1b-42270f8cd9b7","system_id":"levelo_inurba_marseille","lat":43.262245,"lon":5.404514,"is_reserved":false,"is_disabled":false,"rental_uris":{"android":"levelo://app?vid=bc0837a1-279f-4396-af1b-42270f8cd9b7","ios":"levelo://app?vid=bc0837a1-279f-4396-af1b-42270f8cd9b7"},"vehicle_type_id":"4","last_reported":1744801715,"current_range_meters":20400,"station_id":"ce4bhmh2rcd13ifvqgmg","pricing_plan_id":"cebpf4jnsgd1na2vs0mg"},{"bike_id":"7a646f77-c728-420f-bf42-9a37eccc4037","system_id":"levelo_inurba_marseille","lat":43.2175,"lon":5.34615,"is_reserved":false,"is_disabled":false,"rental_uris":{"android":"levelo://app?vid=7a646f77-c728-420f-bf42-9a37eccc4037","ios":"levelo://app?vid=7a646f77-c728-420f-bf42-9a37eccc4037"},"vehicle_type_id":"4","last_reported":1744801715,"current_range_meters":20800,"station_id":"st_cvj6r9ubvosntc0bgbag","pricing_plan_id":"cebpf4jnsgd1na2vs0mg"},{"bike_id":"ec87bc6e-53e6-45bb-ba1d-ea048b383125","system_id":"levelo_inurba_marseille","lat":43.24804,"lon":5.37441,"is_reserved":false,"is_disabled":false,"rental_uris":{"android":"levelo://app?vid=ec87bc6e-53e6-45bb-ba1d-ea048b383125","ios":"levelo://app?vid=ec87bc6e-53e6-45bb-ba1d-ea048b383125"},"vehicle_type_id":"4","last_reported":1744801715,"current_range_meters":20800,"station_id":"ce4bhgh2rcd13ifvqfb0","pricing_plan_id":"cebpf4jnsgd1na2vs0mg"},{"bike_id":"e4ea0566-f8f4-4f57-b888-47b4a7b43398","system_id":"levelo_inurba_marseille","lat":43.29364,"lon":5.37844,"is_reserved":false,"is_disabled":false,"rental_uris":{"android":"levelo://app?vid=e4ea0566-f8f4-4f57-b888-47b4a7b43398","ios":"levelo://app?vid=e4ea0566-f8f4-4f57-b888-47b4a7b43398"},"vehicle_type_id":"4","last_reported":1744801715,"current_range_meters":20800,"station_id":"ce4bgjh2rcd13ifvqbf0","pricing_plan_id":"cebpf4jnsgd1na2vs0mg"},{"bike_id":"ae620417-1d56-4aa4-a87d-d2e79406df7e","system_id":"levelo_inurba_marseille","lat":43.273451,"lon":5.42343,"is_reserved":false,"is_disabled":false,"rental_uris":{"android":"levelo://app?vid=ae620417-1d56-4aa4-a87d-d2e79406df7e","ios":"levelo://app?vid=ae620417-1d56-4aa4-a87d-d2e79406df7e"},"vehicle_type_id":"4","last_reported":1744801715,"current_range_meters":20800,"station_id":"ce4bhlh2rcd13ifvqgig","pricing_plan_id":"cebpf4jnsgd1na2vs0mg"},{"bike_id":"d750596a-6ac6-4755-84cc-45acd4464f3d","system_id":"levelo_inurba_marseille","lat":43.24405,"lon":5.37069,"is_reserved":false,"is_disabled":false,"rental_uris":{"android":"levelo://app?vid=d750596a-6ac6-4755-84cc-45acd4464f3d","ios":"levelo://app?vid=d750596a-6ac6-4755-84cc-45acd4464f3d"},"vehicle_type_id":"4","last_reported":1744801715,"current_range_meters":21600,"station_id":"ce4bhhh2rcd13ifvqfk0","pricing_plan_id":"cebpf4jnsgd1na2vs0mg"},{"bike_id":"08f4dcee-7656-4957-9022-f13783bb2667","system_id":"levelo_inurba_marseille","lat":43.29686,"lon":5.37223,"is_reserved":false,"is_disabled":false,"rental_uris":{"android":"levelo://app?vid=08f4dcee-7656-4957-9022-f13783bb2667","ios":"levelo://app?vid=08f4dcee-7656-4957-9022-f13783bb2667"},"vehicle_type_id":"4","last_reported":1744801715,"current_range_meters":21600,"station_id":"","pricing_plan_id":"cebpf4jnsgd1na2vs0mg"},{"bike_id":"d39e5537-c00a-4bf8-9f22-53966b448679","system_id":"levelo_inurba_marseille","lat":43.29592,"lon":5.42198,"is_reserved":false,"is_disabled":false,"rental_uris":{"android":"levelo://app?vid=d39e5537-c00a-4bf8-9f22-53966b448679","ios":"levelo://app?vid=d39e5537-c00a-4bf8-9f22-53966b448679"},"vehicle_type_id":"4","last_reported":1744801715,"current_range_meters":21600,"station_id":"","pricing_plan_id":"cebpf4jnsgd1na2vs0mg"},{"bike_id":"d97d893d-9ce5-45d0-bd25-67fd493972fe","system_id":"levelo_inurba_marseille","lat":43.30153,"lon":5.38085,"is_reserved":false,"is_disabled":false,"rental_uris":{"android":"levelo://app?vid=d97d893d-9ce5-45d0-bd25-67fd493972fe","ios":"levelo://app?vid=d97d893d-9ce5-45d0-bd25-67fd493972fe"},"vehicle_type_id":"4","last_reported":1744801715,"current_range_meters":20800,"station_id":"ce4bgjp2rcd13ifvqbh0","pricing_plan_id":"cebpf4jnsgd1na2vs0mg"},{"bike_id":"29b3894f-7310-4796-b4c5-381160f77949","system_id":"levelo_inurba_marseille","lat":43.27896,"lon":5.38008,"is_reserved":false,"is_disabled":false,"rental_uris":{"android":"levelo://app?vid=29b3894f-7310-4796-b4c5-381160f77949","ios":"levelo://app?vid=29b3894f-7310-4796-b4c5-381160f77949"},"vehicle_type_id":"4","last_reported":1744801715,"current_range_meters":21600,"station_id":"ce4bhf92rcd13ifvqf50","pricing_plan_id":"cebpf4jnsgd1na2vs0mg"},{"bike_id":"06732ba5-23af-43c0-b770-38671bc27e54","system_id":"levelo_inurba_marseille","lat":43.30184,"lon":5.36617,"is_reserved":false,"is_disabled":false,"rental_uris":{"android":"levelo://app?vid=06732ba5-23af-43c0-b770-38671bc27e54","ios":"levelo://app?vid=06732ba5-23af-43c0-b770-38671bc27e54"},"vehicle_type_id":"4","last_reported":1744801715,"current_range_meters":21600,"station_id":"ce4bgrh2rcd13ifvqc8g","pricing_plan_id":"cebpf4jnsgd1na2vs0mg"},{"bike_id":"4ab43c8f-2442-44d2-844d-0e2cb5bfba0c","system_id":"levelo_inurba_marseille","lat":43.30562,"lon":5.365,"is_reserved":false,"is_disabled":false,"rental_uris":{"android":"levelo://app?vid=4ab43c8f-2442-44d2-844d-0e2cb5bfba0c","ios":"levelo://app?vid=4ab43c8f-2442-44d2-844d-0e2cb5bfba0c"},"vehicle_type_id":"4","last_reported":1744801715,"current_range_meters":21600,"station_id":"ce4bgs12rcd13ifvqcag","pricing_plan_id":"cebpf4jnsgd1na2vs0mg"},{"bike_id":"6f2360da-5688-4f6a-8ebd-9e32ee7c678f","system_id":"levelo_inurba_marseille","lat":43.317013,"lon":5.404592,"is_reserved":false,"is_disabled":false,"rental_uris":{"android":"levelo://app?vid=6f2360da-5688-4f6a-8ebd-9e32ee7c678f","ios":"levelo://app?vid=6f2360da-5688-4f6a-8ebd-9e32ee7c678f"},"vehicle_type_id":"4","last_reported":1744801715,"current_range_meters":21600,"station_id":"ce4bh012rcd13ifvqd00","pricing_plan_id":"cebpf4jnsgd1na2vs0mg"},{"bike_id":"3a3d9e89-1668-45d4-b150-a1af726b19ce","system_id":"levelo_inurba_marseille","lat":43.29267,"lon":5.37636,"is_reserved":false,"is_disabled":false,"rental_uris":{"android":"levelo://app?vid=3a3d9e89-1668-45d4-b150-a1af726b19ce","ios":"levelo://app?vid=3a3d9e89-1668-45d4-b150-a1af726b19ce"},"vehicle_type_id":"4","last_reported":1744801715,"current_range_meters":21600,"station_id":"ce4bgi12rcd13ifvqb80","pricing_plan_id":"cebpf4jnsgd1na2vs0mg"},{"bike_id":"6bf6871e-2941-427a-b652-aef272651f3f","system_id":"levelo_inurba_marseille","lat":43.24166,"lon":5.39719,"is_reserved":false,"is_disabled":false,"rental_uris":{"android":"levelo://app?vid=6bf6871e-2941-427a-b652-aef272651f3f","ios":"levelo://app?vid=6bf6871e-2941-427a-b652-aef272651f3f"},"vehicle_type_id":"4","last_reported":1744801715,"current_range_meters":21600,"station_id":"ce4bhn12rcd13ifvqgpg","pricing_plan_id":"cebpf4jnsgd1na2vs0mg"},{"bike_id":"221415bd-9c9e-49b9-9d9d-685af1ddf6c5","system_id":"levelo_inurba_marseille","lat":43.30522,"lon":5.36524,"is_reserved":false,"is_disabled":false,"rental_uris":{"android":"levelo://app?vid=221415bd-9c9e-49b9-9d9d-685af1ddf6c5","ios":"levelo://app?vid=221415bd-9c9e-49b9-9d9d-685af1ddf6c5"},"vehicle_type_id":"4","last_reported":1744801715,"current_range_meters":22000,"station_id":"ce4bgs12rcd13ifvqcag","pricing_plan_id":"cebpf4jnsgd1na2vs0mg"},{"bike_id":"a0ac391b-6381-4e59-96c4-c961b8dffa4f","system_id":"levelo_inurba_marseille","lat":43.27447,"lon":5.39426,"is_reserved":false,"is_disabled":false,"rental_uris":{"android":"levelo://app?vid=a0ac391b-6381-4e59-96c4-c961b8dffa4f","ios":"levelo://app?vid=a0ac391b-6381-4e59-96c4-c961b8dffa4f"},"vehicle_type_id":"4","last_reported":1744801715,"current_range_meters":22000,"station_id":"ce4bhdp2rcd13ifvqf20","pricing_plan_id":"cebpf4jnsgd1na2vs0mg"},{"bike_id":"5dcdba20-c421-403e-9fc9-2e0f516a830a","system_id":"levelo_inurba_marseille","lat":43.30302,"lon":5.37705,"is_reserved":false,"is_disabled":false,"rental_uris":{"android":"levelo://app?vid=5dcdba20-c421-403e-9fc9-2e0f516a830a","ios":"levelo://app?vid=5dcdba20-c421-403e-9fc9-2e0f516a830a"},"vehicle_type_id":"4","last_reported":1744801715,"current_range_meters":22000,"station_id":"ce4bguh2rcd13ifvqcj0","pricing_plan_id":"cebpf4jnsgd1na2vs0mg"},{"bike_id":"9a390687-4176-4616-9d3e-38fe413732aa","system_id":"levelo_inurba_marseille","lat":43.28446,"lon":5.37532,"is_reserved":false,"is_disabled":false,"rental_uris":{"android":"levelo://app?vid=9a390687-4176-4616-9d3e-38fe413732aa","ios":"levelo://app?vid=9a390687-4176-4616-9d3e-38fe413732aa"},"vehicle_type_id":"4","last_reported":1744801715,"current_range_meters":22000,"station_id":"","pricing_plan_id":"cebpf4jnsgd1na2vs0mg"},{"bike_id":"ae5433ba-42ca-4b31-bb65-b1cb5613431f","system_id":"levelo_inurba_marseille","lat":43.30599,"lon":5.3645,"is_reserved":false,"is_disabled":false,"rental_uris":{"android":"levelo://app?vid=ae5433ba-42ca-4b31-bb65-b1cb5613431f","ios":"levelo://app?vid=ae5433ba-42ca-4b31-bb65-b1cb5613431f"},"vehicle_type_id":"4","last_reported":1744801715,"current_range_meters":22000,"station_id":"","pricing_plan_id":"cebpf4jnsgd1na2vs0mg"},{"bike_id":"ccb7a8e4-757c-4e6f-90e3-f97fac7da5b7","system_id":"levelo_inurba_marseille","lat":43.29268,"lon":5.38446,"is_reserved":false,"is_disabled":false,"rental_uris":{"android":"levelo://app?vid=ccb7a8e4-757c-4e6f-90e3-f97fac7da5b7","ios":"levelo://app?vid=ccb7a8e4-757c-4e6f-90e3-f97fac7da5b7"},"vehicle_type_id":"4","last_reported":1744801715,"current_range_meters":22000,"station_id":"ce4bh692rcd13ifvqea0","pricing_plan_id":"cebpf4jnsgd1na2vs0mg"},{"bike_id":"3f761246-0d21-4df1-9aa1-2fe452c29abd","system_id":"levelo_inurba_marseille","lat":43.21749,"lon":5.34605,"is_reserved":false,"is_disabled":false,"rental_uris":{"android":"levelo://app?vid=3f761246-0d21-4df1-9aa1-2fe452c29abd","ios":"levelo://app?vid=3f761246-0d21-4df1-9aa1-2fe452c29abd"},"vehicle_type_id":"4","last_reported":1744801715,"current_range_meters":22000,"station_id":"st_cvj6r9ubvosntc0bgbag","pricing_plan_id":"cebpf4jnsgd1na2vs0mg"},{"bike_id":"e09b4c34-6357-43c3-84ad-0a95a8ec10e5","system_id":"levelo_inurba_marseille","lat":43.22497,"lon":5.34777,"is_reserved":false,"is_disabled":false,"rental_uris":{"android":"levelo://app?vid=e09b4c34-6357-43c3-84ad-0a95a8ec10e5","ios":"levelo://app?vid=e09b4c34-6357-43c3-84ad-0a95a8ec10e5"},"vehicle_type_id":"4","last_reported":1744801715,"current_range_meters":22400,"station_id":"","pricing_plan_id":"cebpf4jnsgd1na2vs0mg"},{"bike_id":"0bf390d3-4bdb-4303-803f-909d4f2f95e6","system_id":"levelo_inurba_marseille","lat":43.30532,"lon":5.36716,"is_reserved":false,"is_disabled":false,"rental_uris":{"android":"levelo://app?vid=0bf390d3-4bdb-4303-803f-909d4f2f95e6","ios":"levelo://app?vid=0bf390d3-4bdb-4303-803f-909d4f2f95e6"},"vehicle_type_id":"4","last_reported":1744801715,"current_range_meters":22400,"station_id":"ce4bgrp2rcd13ifvqc9g","pricing_plan_id":"cebpf4jnsgd1na2vs0mg"},{"bike_id":"817d021a-9792-48de-b045-e8fd6fb9b469","system_id":"levelo_inurba_marseille","lat":43.28461,"lon":5.35893,"is_reserved":false,"is_disabled":false,"rental_uris":{"android":"levelo://app?vid=817d021a-9792-48de-b045-e8fd6fb9b469","ios":"levelo://app?vid=817d021a-9792-48de-b045-e8fd6fb9b469"},"vehicle_type_id":"4","last_reported":1744801715,"current_range_meters":22400,"station_id":"ce4bhah2rcd13ifvqei0","pricing_plan_id":"cebpf4jnsgd1na2vs0mg"},{"bike_id":"77df2a07-4a90-4542-8399-3e9e364fbac8","system_id":"levelo_inurba_marseille","lat":43.26949,"lon":5.38918,"is_reserved":false,"is_disabled":false,"rental_uris":{"android":"levelo://app?vid=77df2a07-4a90-4542-8399-3e9e364fbac8","ios":"levelo://app?vid=77df2a07-4a90-4542-8399-3e9e364fbac8"},"vehicle_type_id":"4","last_reported":1744801715,"current_range_meters":22000,"station_id":"ce4bhhh2rcd13ifvqfl0","pricing_plan_id":"cebpf4jnsgd1na2vs0mg"},{"bike_id":"f49c4e21-3368-4dd3-b8d1-f136aaf28dbc","system_id":"levelo_inurba_marseille","lat":43.31292,"lon":5.36852,"is_reserved":false,"is_disabled":false,"rental_uris":{"android":"levelo://app?vid=f49c4e21-3368-4dd3-b8d1-f136aaf28dbc","ios":"levelo://app?vid=f49c4e21-3368-4dd3-b8d1-f136aaf28dbc"},"vehicle_type_id":"4","last_reported":1744801715,"current_range_meters":22400,"station_id":"ce4bgl92rcd13ifvqbq0","pricing_plan_id":"cebpf4jnsgd1na2vs0mg"},{"bike_id":"94c8b160-29dd-45c4-9d5f-86d40f79a61c","system_id":"levelo_inurba_marseille","lat":43.26216,"lon":5.40465,"is_reserved":false,"is_disabled":false,"rental_uris":{"android":"levelo://app?vid=94c8b160-29dd-45c4-9d5f-86d40f79a61c","ios":"levelo://app?vid=94c8b160-29dd-45c4-9d5f-86d40f79a61c"},"vehicle_type_id":"4","last_reported":1744801715,"current_range_meters":22400,"station_id":"ce4bhmh2rcd13ifvqgmg","pricing_plan_id":"cebpf4jnsgd1na2vs0mg"},{"bike_id":"a40d3529-0419-4c62-97c7-11411e8a6974","system_id":"levelo_inurba_marseille","lat":43.292601,"lon":5.408949,"is_reserved":false,"is_disabled":false,"rental_uris":{"android":"levelo://app?vid=a40d3529-0419-4c62-97c7-11411e8a6974","ios":"levelo://app?vid=a40d3529-0419-4c62-97c7-11411e8a6974"},"vehicle_type_id":"4","last_reported":1744801715,"current_range_meters":22400,"station_id":"ce4bh192rcd13ifvqdc0","pricing_plan_id":"cebpf4jnsgd1na2vs0mg"},{"bike_id":"7101d9e6-58b7-403e-af0c-8e020c3fac52","system_id":"levelo_inurba_marseille","lat":43.301025,"lon":5.391139,"is_reserved":false,"is_disabled":false,"rental_uris":{"android":"levelo://app?vid=7101d9e6-58b7-403e-af0c-8e020c3fac52","ios":"levelo://app?vid=7101d9e6-58b7-403e-af0c-8e020c3fac52"},"vehicle_type_id":"4","last_reported":1744801715,"current_range_meters":22400,"station_id":"ce4bh192rcd13ifvqdb0","pricing_plan_id":"cebpf4jnsgd1na2vs0mg"},{"bike_id":"95cb4257-47a7-43ca-9e16-7d5e93c960cc","system_id":"levelo_inurba_marseille","lat":43.31184,"lon":5.36802,"is_reserved":false,"is_disabled":false,"rental_uris":{"android":"levelo://app?vid=95cb4257-47a7-43ca-9e16-7d5e93c960cc","ios":"levelo://app?vid=95cb4257-47a7-43ca-9e16-7d5e93c960cc"},"vehicle_type_id":"4","last_reported":1744801715,"current_range_meters":22400,"station_id":"ce4bgl92rcd13ifvqbq0","pricing_plan_id":"cebpf4jnsgd1na2vs0mg"},{"bike_id":"a5eaeb00-5938-44db-98e3-84b523ae7381","system_id":"levelo_inurba_marseille","lat":43.24175,"lon":5.39734,"is_reserved":false,"is_disabled":false,"rental_uris":{"android":"levelo://app?vid=a5eaeb00-5938-44db-98e3-84b523ae7381","ios":"levelo://app?vid=a5eaeb00-5938-44db-98e3-84b523ae7381"},"vehicle_type_id":"4","last_reported":1744801715,"current_range_meters":22400,"station_id":"ce4bhn12rcd13ifvqgpg","pricing_plan_id":"cebpf4jnsgd1na2vs0mg"},{"bike_id":"714b5d52-0c40-45e3-8e81-9ebd8c1251e6","system_id":"levelo_inurba_marseille","lat":43.26566,"lon":5.37284,"is_reserved":false,"is_disabled":false,"rental_uris":{"android":"levelo://app?vid=714b5d52-0c40-45e3-8e81-9ebd8c1251e6","ios":"levelo://app?vid=714b5d52-0c40-45e3-8e81-9ebd8c1251e6"},"vehicle_type_id":"4","last_reported":1744801715,"current_range_meters":22800,"station_id":"ce4bhg12rcd13ifvqf70","pricing_plan_id":"cebpf4jnsgd1na2vs0mg"},{"bike_id":"5626c75a-e879-4a61-9cac-b2b7d62ab04c","system_id":"levelo_inurba_marseille","lat":43.286863,"lon":5.351788,"is_reserved":false,"is_disabled":false,"rental_uris":{"android":"levelo://app?vid=5626c75a-e879-4a61-9cac-b2b7d62ab04c","ios":"levelo://app?vid=5626c75a-e879-4a61-9cac-b2b7d62ab04c"},"vehicle_type_id":"4","last_reported":1744801715,"current_range_meters":22800,"station_id":"ce4bhch2rcd13ifvqeug","pricing_plan_id":"cebpf4jnsgd1na2vs0mg"},{"bike_id":"27671fde-d25b-46a4-9662-61d14f2de2be","system_id":"levelo_inurba_marseille","lat":43.28979,"lon":5.37836,"is_reserved":false,"is_disabled":false,"rental_uris":{"android":"levelo://app?vid=27671fde-d25b-46a4-9662-61d14f2de2be","ios":"levelo://app?vid=27671fde-d25b-46a4-9662-61d14f2de2be"},"vehicle_type_id":"4","last_reported":1744801715,"current_range_meters":22400,"station_id":"ce4bh9p2rcd13ifvqed0","pricing_plan_id":"cebpf4jnsgd1na2vs0mg"},{"bike_id":"d173482c-33fe-4e3f-b3dc-50194ba6dd74","system_id":"levelo_inurba_marseille","lat":43.24199,"lon":5.39734,"is_reserved":false,"is_disabled":false,"rental_uris":{"android":"levelo://app?vid=d173482c-33fe-4e3f-b3dc-50194ba6dd74","ios":"levelo://app?vid=d173482c-33fe-4e3f-b3dc-50194ba6dd74"},"vehicle_type_id":"4","last_reported":1744801715,"current_range_meters":22800,"station_id":"ce4bhn12rcd13ifvqgpg","pricing_plan_id":"cebpf4jnsgd1na2vs0mg"},{"bike_id":"272ea20a-4c31-4d01-a01c-10f418156f2e","system_id":"levelo_inurba_marseille","lat":43.23155,"lon":5.43711,"is_reserved":false,"is_disabled":false,"rental_uris":{"android":"levelo://app?vid=272ea20a-4c31-4d01-a01c-10f418156f2e","ios":"levelo://app?vid=272ea20a-4c31-4d01-a01c-10f418156f2e"},"vehicle_type_id":"4","last_reported":1744801715,"current_range_meters":22800,"station_id":"ce4bhmp2rcd13ifvqgog","pricing_plan_id":"cebpf4jnsgd1na2vs0mg"},{"bike_id":"0244f95d-4d20-4ee4-bbf6-0ce58978bba7","system_id":"levelo_inurba_marseille","lat":43.296192,"lon":5.37728,"is_reserved":false,"is_disabled":false,"rental_uris":{"android":"levelo://app?vid=0244f95d-4d20-4ee4-bbf6-0ce58978bba7","ios":"levelo://app?vid=0244f95d-4d20-4ee4-bbf6-0ce58978bba7"},"vehicle_type_id":"4","last_reported":1744801715,"current_range_meters":23200,"station_id":"ce4bgi92rcd13ifvqb90","pricing_plan_id":"cebpf4jnsgd1na2vs0mg"},{"bike_id":"484b2079-805c-4c9c-99f0-9100cf129d32","system_id":"levelo_inurba_marseille","lat":43.29003,"lon":5.38643,"is_reserved":false,"is_disabled":false,"rental_uris":{"android":"levelo://app?vid=484b2079-805c-4c9c-99f0-9100cf129d32","ios":"levelo://app?vid=484b2079-805c-4c9c-99f0-9100cf129d32"},"vehicle_type_id":"4","last_reported":1744801715,"current_range_meters":23200,"station_id":"ce4bh4p2rcd13ifvqe0g","pricing_plan_id":"cebpf4jnsgd1na2vs0mg"},{"bike_id":"8d631704-7df1-4c86-bc42-234be877196a","system_id":"levelo_inurba_marseille","lat":43.30539,"lon":5.36537,"is_reserved":false,"is_disabled":false,"rental_uris":{"android":"levelo://app?vid=8d631704-7df1-4c86-bc42-234be877196a","ios":"levelo://app?vid=8d631704-7df1-4c86-bc42-234be877196a"},"vehicle_type_id":"4","last_reported":1744801715,"current_range_meters":23200,"station_id":"ce4bgs12rcd13ifvqcag","pricing_plan_id":"cebpf4jnsgd1na2vs0mg"},{"bike_id":"41fb0398-f2fe-4abb-ae37-a38f47615ea9","system_id":"levelo_inurba_marseille","lat":43.323543,"lon":5.367677,"is_reserved":false,"is_disabled":false,"rental_uris":{"android":"levelo://app?vid=41fb0398-f2fe-4abb-ae37-a38f47615ea9","ios":"levelo://app?vid=41fb0398-f2fe-4abb-ae37-a38f47615ea9"},"vehicle_type_id":"4","last_reported":1744801715,"current_range_meters":23200,"station_id":"ce4bhsh2rcd13ifvqi2g","pricing_plan_id":"cebpf4jnsgd1na2vs0mg"},{"bike_id":"197a4b78-d392-4daa-b6d5-65c28f22b7aa","system_id":"levelo_inurba_marseille","lat":43.29898,"lon":5.39741,"is_reserved":false,"is_disabled":false,"rental_uris":{"android":"levelo://app?vid=197a4b78-d392-4daa-b6d5-65c28f22b7aa","ios":"levelo://app?vid=197a4b78-d392-4daa-b6d5-65c28f22b7aa"},"vehicle_type_id":"4","last_reported":1744801715,"current_range_meters":23200,"station_id":"ce4bh0h2rcd13ifvqd50","pricing_plan_id":"cebpf4jnsgd1na2vs0mg"},{"bike_id":"8934c9ff-b955-4903-b5d2-c595dc711b7c","system_id":"levelo_inurba_marseille","lat":43.29569,"lon":5.39961,"is_reserved":false,"is_disabled":true,"rental_uris":{"android":"levelo://app?vid=8934c9ff-b955-4903-b5d2-c595dc711b7c","ios":"levelo://app?vid=8934c9ff-b955-4903-b5d2-c595dc711b7c"},"vehicle_type_id":"4","last_reported":1744801715,"current_range_meters":23200,"station_id":"ce4bh312rcd13ifvqdj0","pricing_plan_id":"cebpf4jnsgd1na2vs0mg"},{"bike_id":"07cec333-1877-4189-88c5-8b433a1fa130","system_id":"levelo_inurba_marseille","lat":43.28408,"lon":5.37505,"is_reserved":false,"is_disabled":false,"rental_uris":{"android":"levelo://app?vid=07cec333-1877-4189-88c5-8b433a1fa130","ios":"levelo://app?vid=07cec333-1877-4189-88c5-8b433a1fa130"},"vehicle_type_id":"4","last_reported":1744801715,"current_range_meters":23200,"station_id":"ce4bh412rcd13ifvqds0","pricing_plan_id":"cebpf4jnsgd1na2vs0mg"},{"bike_id":"c73ab921-dd9a-4810-95bf-f34353c47ee8","system_id":"levelo_inurba_marseille","lat":43.30272,"lon":5.37686,"is_reserved":false,"is_disabled":false,"rental_uris":{"android":"levelo://app?vid=c73ab921-dd9a-4810-95bf-f34353c47ee8","ios":"levelo://app?vid=c73ab921-dd9a-4810-95bf-f34353c47ee8"},"vehicle_type_id":"4","last_reported":1744801715,"current_range_meters":23200,"station_id":"ce4bguh2rcd13ifvqcj0","pricing_plan_id":"cebpf4jnsgd1na2vs0mg"},{"bike_id":"243a776c-ce76-43c4-bd7a-bcab360c9801","system_id":"levelo_inurba_marseille","lat":43.29595,"lon":5.37711,"is_reserved":false,"is_disabled":false,"rental_uris":{"android":"levelo://app?vid=243a776c-ce76-43c4-bd7a-bcab360c9801","ios":"levelo://app?vid=243a776c-ce76-43c4-bd7a-bcab360c9801"},"vehicle_type_id":"4","last_reported":1744801715,"current_range_meters":24000,"station_id":"ce4bgi92rcd13ifvqb90","pricing_plan_id":"cebpf4jnsgd1na2vs0mg"},{"bike_id":"7c7fb11f-ef96-49e3-863c-ce283e7f4076","system_id":"levelo_inurba_marseille","lat":43.29276,"lon":5.38447,"is_reserved":false,"is_disabled":false,"rental_uris":{"android":"levelo://app?vid=7c7fb11f-ef96-49e3-863c-ce283e7f4076","ios":"levelo://app?vid=7c7fb11f-ef96-49e3-863c-ce283e7f4076"},"vehicle_type_id":"4","last_reported":1744801715,"current_range_meters":24000,"station_id":"ce4bh692rcd13ifvqea0","pricing_plan_id":"cebpf4jnsgd1na2vs0mg"},{"bike_id":"9b32d9b0-b425-4d34-812f-0c610ee31565","system_id":"levelo_inurba_marseille","lat":43.30189,"lon":5.39468,"is_reserved":false,"is_disabled":true,"rental_uris":{"android":"levelo://app?vid=9b32d9b0-b425-4d34-812f-0c610ee31565","ios":"levelo://app?vid=9b32d9b0-b425-4d34-812f-0c610ee31565"},"vehicle_type_id":"4","last_reported":1744801715,"current_range_meters":24000,"station_id":"ce4bh0p2rcd13ifvqd70","pricing_plan_id":"cebpf4jnsgd1na2vs0mg"},{"bike_id":"f4c69777-4974-401f-817d-b79514aea718","system_id":"levelo_inurba_marseille","lat":43.26214,"lon":5.37428,"is_reserved":false,"is_disabled":false,"rental_uris":{"android":"levelo://app?vid=f4c69777-4974-401f-817d-b79514aea718","ios":"levelo://app?vid=f4c69777-4974-401f-817d-b79514aea718"},"vehicle_type_id":"4","last_reported":1744801715,"current_range_meters":24000,"station_id":"ce4bhgp2rcd13ifvqfc0","pricing_plan_id":"cebpf4jnsgd1na2vs0mg"},{"bike_id":"0f1f7a77-09e0-4e89-93d1-8f66b799b48e","system_id":"levelo_inurba_marseille","lat":43.29291,"lon":5.36838,"is_reserved":false,"is_disabled":false,"rental_uris":{"android":"levelo://app?vid=0f1f7a77-09e0-4e89-93d1-8f66b799b48e","ios":"levelo://app?vid=0f1f7a77-09e0-4e89-93d1-8f66b799b48e"},"vehicle_type_id":"4","last_reported":1744801715,"current_range_meters":24000,"station_id":"ce4bhbp2rcd13ifvqesg","pricing_plan_id":"cebpf4jnsgd1na2vs0mg"},{"bike_id":"789c3822-56ca-4769-bcd4-8845bdea2fda","system_id":"levelo_inurba_marseille","lat":43.24161,"lon":5.36417,"is_reserved":false,"is_disabled":false,"rental_uris":{"android":"levelo://app?vid=789c3822-56ca-4769-bcd4-8845bdea2fda","ios":"levelo://app?vid=789c3822-56ca-4769-bcd4-8845bdea2fda"},"vehicle_type_id":"4","last_reported":1744801715,"current_range_meters":24000,"station_id":"cpo36qri1sfpv3e86is0","pricing_plan_id":"cebpf4jnsgd1na2vs0mg"},{"bike_id":"f4e1803b-2805-40e2-a732-214778287d88","system_id":"levelo_inurba_marseille","lat":43.29856,"lon":5.36253,"is_reserved":false,"is_disabled":false,"rental_uris":{"android":"levelo://app?vid=f4e1803b-2805-40e2-a732-214778287d88","ios":"levelo://app?vid=f4e1803b-2805-40e2-a732-214778287d88"},"vehicle_type_id":"4","last_reported":1744801715,"current_range_meters":24000,"station_id":"ce4bgpp2rcd13ifvqc3g","pricing_plan_id":"cebpf4jnsgd1na2vs0mg"},{"bike_id":"756d0749-aeb0-4052-bcd4-fdd84eebbda1","system_id":"levelo_inurba_marseille","lat":43.30552,"lon":5.3656,"is_reserved":false,"is_disabled":false,"rental_uris":{"android":"levelo://app?vid=756d0749-aeb0-4052-bcd4-fdd84eebbda1","ios":"levelo://app?vid=756d0749-aeb0-4052-bcd4-fdd84eebbda1"},"vehicle_type_id":"4","last_reported":1744801715,"current_range_meters":24000,"station_id":"ce4bgs12rcd13ifvqcag","pricing_plan_id":"cebpf4jnsgd1na2vs0mg"},{"bike_id":"7eb8853e-3665-40f5-8308-1299f0674652","system_id":"levelo_inurba_marseille","lat":43.30395,"lon":5.42452,"is_reserved":false,"is_disabled":false,"rental_uris":{"android":"levelo://app?vid=7eb8853e-3665-40f5-8308-1299f0674652","ios":"levelo://app?vid=7eb8853e-3665-40f5-8308-1299f0674652"},"vehicle_type_id":"4","last_reported":1744801715,"current_range_meters":24000,"station_id":"ce4bghh2rcd13ifvqb60","pricing_plan_id":"cebpf4jnsgd1na2vs0mg"},{"bike_id":"899e9414-22a4-4862-8198-e77108bcd259","system_id":"levelo_inurba_marseille","lat":43.248086,"lon":5.374513,"is_reserved":false,"is_disabled":false,"rental_uris":{"android":"levelo://app?vid=899e9414-22a4-4862-8198-e77108bcd259","ios":"levelo://app?vid=899e9414-22a4-4862-8198-e77108bcd259"},"vehicle_type_id":"4","last_reported":1744801715,"current_range_meters":24000,"station_id":"ce4bhgh2rcd13ifvqfb0","pricing_plan_id":"cebpf4jnsgd1na2vs0mg"},{"bike_id":"1292eade-51b2-4ca9-aab0-24bc821e8601","system_id":"levelo_inurba_marseille","lat":43.25496,"lon":5.37671,"is_reserved":false,"is_disabled":false,"rental_uris":{"android":"levelo://app?vid=1292eade-51b2-4ca9-aab0-24bc821e8601","ios":"levelo://app?vid=1292eade-51b2-4ca9-aab0-24bc821e8601"},"vehicle_type_id":"4","last_reported":1744801715,"current_range_meters":24000,"station_id":"ce4bhh12rcd13ifvqff0","pricing_plan_id":"cebpf4jnsgd1na2vs0mg"},{"bike_id":"d240c5c7-d336-49ca-a35b-6edc4c737b17","system_id":"levelo_inurba_marseille","lat":43.28615,"lon":5.35103,"is_reserved":false,"is_disabled":false,"rental_uris":{"android":"levelo://app?vid=d240c5c7-d336-49ca-a35b-6edc4c737b17","ios":"levelo://app?vid=d240c5c7-d336-49ca-a35b-6edc4c737b17"},"vehicle_type_id":"4","last_reported":1744801715,"current_range_meters":24000,"station_id":"ce4bhch2rcd13ifvqeug","pricing_plan_id":"cebpf4jnsgd1na2vs0mg"},{"bike_id":"69c4b081-5dfd-43dc-b379-4639328545a7","system_id":"levelo_inurba_marseille","lat":43.25502,"lon":5.37658,"is_reserved":false,"is_disabled":false,"rental_uris":{"android":"levelo://app?vid=69c4b081-5dfd-43dc-b379-4639328545a7","ios":"levelo://app?vid=69c4b081-5dfd-43dc-b379-4639328545a7"},"vehicle_type_id":"4","last_reported":1744801715,"current_range_meters":24000,"station_id":"ce4bhh12rcd13ifvqff0","pricing_plan_id":"cebpf4jnsgd1na2vs0mg"},{"bike_id":"91f1e95a-1730-46c2-bce4-16ae011cfb61","system_id":"levelo_inurba_marseille","lat":43.30939,"lon":5.4015,"is_reserved":false,"is_disabled":false,"rental_uris":{"android":"levelo://app?vid=91f1e95a-1730-46c2-bce4-16ae011cfb61","ios":"levelo://app?vid=91f1e95a-1730-46c2-bce4-16ae011cfb61"},"vehicle_type_id":"4","last_reported":1744801715,"current_range_meters":24000,"station_id":"ce4bgvp2rcd13ifvqct0","pricing_plan_id":"cebpf4jnsgd1na2vs0mg"},{"bike_id":"2d6a260a-2e0e-407b-8340-f6d512991a05","system_id":"levelo_inurba_marseille","lat":43.27944,"lon":5.41054,"is_reserved":false,"is_disabled":false,"rental_uris":{"android":"levelo://app?vid=2d6a260a-2e0e-407b-8340-f6d512991a05","ios":"levelo://app?vid=2d6a260a-2e0e-407b-8340-f6d512991a05"},"vehicle_type_id":"4","last_reported":1744801715,"current_range_meters":24400,"station_id":"ce4bhnp2rcd13ifvqh0g","pricing_plan_id":"cebpf4jnsgd1na2vs0mg"},{"bike_id":"aa654895-2454-4a9f-b64f-adbe0b79daa3","system_id":"levelo_inurba_marseille","lat":43.31279,"lon":5.36836,"is_reserved":false,"is_disabled":false,"rental_uris":{"android":"levelo://app?vid=aa654895-2454-4a9f-b64f-adbe0b79daa3","ios":"levelo://app?vid=aa654895-2454-4a9f-b64f-adbe0b79daa3"},"vehicle_type_id":"4","last_reported":1744801715,"current_range_meters":24400,"station_id":"ce4bgl92rcd13ifvqbq0","pricing_plan_id":"cebpf4jnsgd1na2vs0mg"},{"bike_id":"2d94ed43-5644-4e24-a254-01c8094a35f0","system_id":"levelo_inurba_marseille","lat":43.27062,"lon":5.40265,"is_reserved":false,"is_disabled":false,"rental_uris":{"android":"levelo://app?vid=2d94ed43-5644-4e24-a254-01c8094a35f0","ios":"levelo://app?vid=2d94ed43-5644-4e24-a254-01c8094a35f0"},"vehicle_type_id":"4","last_reported":1744801715,"current_range_meters":24400,"station_id":"ce4bhk92rcd13ifvqgc0","pricing_plan_id":"cebpf4jnsgd1na2vs0mg"},{"bike_id":"16060b9a-c898-42ee-8a6d-8898f963fe14","system_id":"levelo_inurba_marseille","lat":43.3361,"lon":5.41025,"is_reserved":false,"is_disabled":false,"rental_uris":{"android":"levelo://app?vid=16060b9a-c898-42ee-8a6d-8898f963fe14","ios":"levelo://app?vid=16060b9a-c898-42ee-8a6d-8898f963fe14"},"vehicle_type_id":"4","last_reported":1744801715,"current_range_meters":24400,"station_id":"ce4bhqh2rcd13ifvqhmg","pricing_plan_id":"cebpf4jnsgd1na2vs0mg"},{"bike_id":"bc140d56-5426-4329-8de2-925ded4c3ae5","system_id":"levelo_inurba_marseille","lat":43.30543,"lon":5.36685,"is_reserved":false,"is_disabled":false,"rental_uris":{"android":"levelo://app?vid=bc140d56-5426-4329-8de2-925ded4c3ae5","ios":"levelo://app?vid=bc140d56-5426-4329-8de2-925ded4c3ae5"},"vehicle_type_id":"4","last_reported":1744801715,"current_range_meters":24400,"station_id":"ce4bgrp2rcd13ifvqc9g","pricing_plan_id":"cebpf4jnsgd1na2vs0mg"},{"bike_id":"68342d9f-f0b6-47e7-b690-b27078e67a77","system_id":"levelo_inurba_marseille","lat":43.24157,"lon":5.36403,"is_reserved":false,"is_disabled":false,"rental_uris":{"android":"levelo://app?vid=68342d9f-f0b6-47e7-b690-b27078e67a77","ios":"levelo://app?vid=68342d9f-f0b6-47e7-b690-b27078e67a77"},"vehicle_type_id":"4","last_reported":1744801715,"current_range_meters":24800,"station_id":"cpo36qri1sfpv3e86is0","pricing_plan_id":"cebpf4jnsgd1na2vs0mg"},{"bike_id":"2a3df68e-728a-4b9c-bbc2-4259a4448e26","system_id":"levelo_inurba_marseille","lat":43.27997,"lon":5.4001,"is_reserved":false,"is_disabled":false,"rental_uris":{"android":"levelo://app?vid=2a3df68e-728a-4b9c-bbc2-4259a4448e26","ios":"levelo://app?vid=2a3df68e-728a-4b9c-bbc2-4259a4448e26"},"vehicle_type_id":"4","last_reported":1744801715,"current_range_meters":24800,"station_id":"ce4bho92rcd13ifvqh4g","pricing_plan_id":"cebpf4jnsgd1na2vs0mg"},{"bike_id":"7ed91d22-3d5b-4254-83bf-64eb2a7d5481","system_id":"levelo_inurba_marseille","lat":43.22501,"lon":5.34777,"is_reserved":false,"is_disabled":false,"rental_uris":{"android":"levelo://app?vid=7ed91d22-3d5b-4254-83bf-64eb2a7d5481","ios":"levelo://app?vid=7ed91d22-3d5b-4254-83bf-64eb2a7d5481"},"vehicle_type_id":"4","last_reported":1744801715,"current_range_meters":24800,"station_id":"","pricing_plan_id":"cebpf4jnsgd1na2vs0mg"},{"bike_id":"57fe5364-417b-4e91-ad46-f3b13c97e14f","system_id":"levelo_inurba_marseille","lat":43.32991,"lon":5.43843,"is_reserved":false,"is_disabled":false,"rental_uris":{"android":"levelo://app?vid=57fe5364-417b-4e91-ad46-f3b13c97e14f","ios":"levelo://app?vid=57fe5364-417b-4e91-ad46-f3b13c97e14f"},"vehicle_type_id":"4","last_reported":1744801715,"current_range_meters":24800,"station_id":"","pricing_plan_id":"cebpf4jnsgd1na2vs0mg"},{"bike_id":"1f5e0b15-82b3-4144-a848-2394badae6ed","system_id":"levelo_inurba_marseille","lat":43.24156,"lon":5.39707,"is_reserved":false,"is_disabled":false,"rental_uris":{"android":"levelo://app?vid=1f5e0b15-82b3-4144-a848-2394badae6ed","ios":"levelo://app?vid=1f5e0b15-82b3-4144-a848-2394badae6ed"},"vehicle_type_id":"4","last_reported":1744801715,"current_range_meters":24800,"station_id":"ce4bhn12rcd13ifvqgpg","pricing_plan_id":"cebpf4jnsgd1na2vs0mg"},{"bike_id":"6fd16c1d-68a4-4b51-8579-6a0d593dff16","system_id":"levelo_inurba_marseille","lat":43.33614,"lon":5.41037,"is_reserved":false,"is_disabled":false,"rental_uris":{"android":"levelo://app?vid=6fd16c1d-68a4-4b51-8579-6a0d593dff16","ios":"levelo://app?vid=6fd16c1d-68a4-4b51-8579-6a0d593dff16"},"vehicle_type_id":"4","last_reported":1744801715,"current_range_meters":24800,"station_id":"ce4bhqh2rcd13ifvqhmg","pricing_plan_id":"cebpf4jnsgd1na2vs0mg"},{"bike_id":"33efbe4e-e642-4271-be29-4926b421ca5b","system_id":"levelo_inurba_marseille","lat":43.24165,"lon":5.36388,"is_reserved":false,"is_disabled":false,"rental_uris":{"android":"levelo://app?vid=33efbe4e-e642-4271-be29-4926b421ca5b","ios":"levelo://app?vid=33efbe4e-e642-4271-be29-4926b421ca5b"},"vehicle_type_id":"4","last_reported":1744801715,"current_range_meters":24800,"station_id":"cpo36qri1sfpv3e86is0","pricing_plan_id":"cebpf4jnsgd1na2vs0mg"},{"bike_id":"db3f61c8-5340-4682-8118-fc423fbe004d","system_id":"levelo_inurba_marseille","lat":43.28996,"lon":5.35616,"is_reserved":false,"is_disabled":false,"rental_uris":{"android":"levelo://app?vid=db3f61c8-5340-4682-8118-fc423fbe004d","ios":"levelo://app?vid=db3f61c8-5340-4682-8118-fc423fbe004d"},"vehicle_type_id":"4","last_reported":1744801715,"current_range_meters":24800,"station_id":"ce4bhb92rcd13ifvqen0","pricing_plan_id":"cebpf4jnsgd1na2vs0mg"},{"bike_id":"5c68f683-a1df-4e30-85dd-faff4c929eb3","system_id":"levelo_inurba_marseille","lat":43.28856,"lon":5.39323,"is_reserved":false,"is_disabled":false,"rental_uris":{"android":"levelo://app?vid=5c68f683-a1df-4e30-85dd-faff4c929eb3","ios":"levelo://app?vid=5c68f683-a1df-4e30-85dd-faff4c929eb3"},"vehicle_type_id":"4","last_reported":1744801715,"current_range_meters":27200,"station_id":"ce4bh2p2rcd13ifvqdi0","pricing_plan_id":"cebpf4jnsgd1na2vs0mg"},{"bike_id":"164e968e-a170-4ac2-9964-de4325164194","system_id":"levelo_inurba_marseille","lat":43.29615,"lon":5.37728,"is_reserved":false,"is_disabled":false,"rental_uris":{"android":"levelo://app?vid=164e968e-a170-4ac2-9964-de4325164194","ios":"levelo://app?vid=164e968e-a170-4ac2-9964-de4325164194"},"vehicle_type_id":"4","last_reported":1744801715,"current_range_meters":24800,"station_id":"ce4bgi92rcd13ifvqb90","pricing_plan_id":"cebpf4jnsgd1na2vs0mg"},{"bike_id":"6f20baf5-6551-4351-94f3-4ff069b3971f","system_id":"levelo_inurba_marseille","lat":43.311584,"lon":5.392511,"is_reserved":false,"is_disabled":false,"rental_uris":{"android":"levelo://app?vid=6f20baf5-6551-4351-94f3-4ff069b3971f","ios":"levelo://app?vid=6f20baf5-6551-4351-94f3-4ff069b3971f"},"vehicle_type_id":"4","last_reported":1744801715,"current_range_meters":24800,"station_id":"ce4bh192rcd13ifvqdb0","pricing_plan_id":"cebpf4jnsgd1na2vs0mg"},{"bike_id":"60e764d4-59d8-471c-b600-31e7390667ed","system_id":"levelo_inurba_marseille","lat":43.273254,"lon":5.399552,"is_reserved":false,"is_disabled":false,"rental_uris":{"android":"levelo://app?vid=60e764d4-59d8-471c-b600-31e7390667ed","ios":"levelo://app?vid=60e764d4-59d8-471c-b600-31e7390667ed"},"vehicle_type_id":"4","last_reported":1744801715,"current_range_meters":24800,"station_id":"","pricing_plan_id":"cebpf4jnsgd1na2vs0mg"},{"bike_id":"2dabbd57-f88a-4218-ab55-30409800394a","system_id":"levelo_inurba_marseille","lat":43.29253,"lon":5.38441,"is_reserved":false,"is_disabled":false,"rental_uris":{"android":"levelo://app?vid=2dabbd57-f88a-4218-ab55-30409800394a","ios":"levelo://app?vid=2dabbd57-f88a-4218-ab55-30409800394a"},"vehicle_type_id":"4","last_reported":1744801715,"current_range_meters":25200,"station_id":"ce4bh692rcd13ifvqea0","pricing_plan_id":"cebpf4jnsgd1na2vs0mg"},{"bike_id":"3d03a228-5dff-430f-942d-e5ceaa114072","system_id":"levelo_inurba_marseille","lat":43.29257,"lon":5.37622,"is_reserved":false,"is_disabled":false,"rental_uris":{"android":"levelo://app?vid=3d03a228-5dff-430f-942d-e5ceaa114072","ios":"levelo://app?vid=3d03a228-5dff-430f-942d-e5ceaa114072"},"vehicle_type_id":"4","last_reported":1744801715,"current_range_meters":25200,"station_id":"ce4bgi12rcd13ifvqb80","pricing_plan_id":"cebpf4jnsgd1na2vs0mg"},{"bike_id":"e7b00273-8f18-41d7-a2b0-41a9e2c601ed","system_id":"levelo_inurba_marseille","lat":43.29537,"lon":5.38538,"is_reserved":false,"is_disabled":false,"rental_uris":{"android":"levelo://app?vid=e7b00273-8f18-41d7-a2b0-41a9e2c601ed","ios":"levelo://app?vid=e7b00273-8f18-41d7-a2b0-41a9e2c601ed"},"vehicle_type_id":"4","last_reported":1744801715,"current_range_meters":25200,"station_id":"ce4bgih2rcd13ifvqba0","pricing_plan_id":"cebpf4jnsgd1na2vs0mg"},{"bike_id":"2c0a8c7c-5fe0-4015-baa1-f9eb6ba65d8b","system_id":"levelo_inurba_marseille","lat":43.2844,"lon":5.39188,"is_reserved":false,"is_disabled":false,"rental_uris":{"android":"levelo://app?vid=2c0a8c7c-5fe0-4015-baa1-f9eb6ba65d8b","ios":"levelo://app?vid=2c0a8c7c-5fe0-4015-baa1-f9eb6ba65d8b"},"vehicle_type_id":"4","last_reported":1744801715,"current_range_meters":25200,"station_id":"ce4bhoh2rcd13ifvqh5g","pricing_plan_id":"cebpf4jnsgd1na2vs0mg"},{"bike_id":"22f4b54a-f4e8-49a5-a882-50828fccc459","system_id":"levelo_inurba_marseille","lat":43.29273,"lon":5.38451,"is_reserved":false,"is_disabled":false,"rental_uris":{"android":"levelo://app?vid=22f4b54a-f4e8-49a5-a882-50828fccc459","ios":"levelo://app?vid=22f4b54a-f4e8-49a5-a882-50828fccc459"},"vehicle_type_id":"4","last_reported":1744801715,"current_range_meters":25200,"station_id":"ce4bh692rcd13ifvqea0","pricing_plan_id":"cebpf4jnsgd1na2vs0mg"},{"bike_id":"50942032-0a92-46b4-af35-4f352cc42e7a","system_id":"levelo_inurba_marseille","lat":43.3093,"lon":5.36838,"is_reserved":false,"is_disabled":false,"rental_uris":{"android":"levelo://app?vid=50942032-0a92-46b4-af35-4f352cc42e7a","ios":"levelo://app?vid=50942032-0a92-46b4-af35-4f352cc42e7a"},"vehicle_type_id":"4","last_reported":1744801715,"current_range_meters":25200,"station_id":"ce4bgn92rcd13ifvqbvg","pricing_plan_id":"cebpf4jnsgd1na2vs0mg"},{"bike_id":"eaa05fe4-d9ce-4fdc-a304-160879789f9a","system_id":"levelo_inurba_marseille","lat":43.28845,"lon":5.39308,"is_reserved":false,"is_disabled":false,"rental_uris":{"android":"levelo://app?vid=eaa05fe4-d9ce-4fdc-a304-160879789f9a","ios":"levelo://app?vid=eaa05fe4-d9ce-4fdc-a304-160879789f9a"},"vehicle_type_id":"4","last_reported":1744801715,"current_range_meters":25200,"station_id":"ce4bh2p2rcd13ifvqdi0","pricing_plan_id":"cebpf4jnsgd1na2vs0mg"},{"bike_id":"8c0be09f-1a08-4f03-adf3-9ab53d05b7e1","system_id":"levelo_inurba_marseille","lat":43.30411,"lon":5.41281,"is_reserved":false,"is_disabled":true,"rental_uris":{"android":"levelo://app?vid=8c0be09f-1a08-4f03-adf3-9ab53d05b7e1","ios":"levelo://app?vid=8c0be09f-1a08-4f03-adf3-9ab53d05b7e1"},"vehicle_type_id":"4","last_reported":1744801715,"current_range_meters":25200,"station_id":"ce4bhop2rcd13ifvqh8g","pricing_plan_id":"cebpf4jnsgd1na2vs0mg"},