{"last_updated":1751566513,"ttl":60,"version":"2.2","data":{"bikes":[{"bike_id":"3da29fb8-fc97-44c6-b9ac-31dd456b2fd4","system_id":"levelo_inurba_marseille","lat":43.33771,"lon":5.37424,"is_reserved":false,"is_disabled":true,"rental_uris":{"android":"levelo://app?vid=3da29fb8-fc97-44c6-b9ac-31dd456b2fd4","ios":"levelo://app?vid=3da29fb8-fc97-44c6-b9ac-31dd456b2fd4"},"vehicle_type_id":"4","last_reported":1751566513,"current_range_meters":0,"station_id":"","pricing_plan_id":"cebpf4jnsgd1na2vs0mg"},{"bike_id":"01861ad8-a8d7-4be6-816e-651927c87584","system_id":"levelo_inurba_marseille","lat":43.33751,"lon":5.37456,"is_reserved":false,"is_disabled":true,"rental_uris":{"android":"levelo://app?vid=01861ad8-a8d7-4be6-816e-651927c87584","ios":"levelo://app?vid=01861ad8-a8d7-4be6-816e-651927c87584"},"vehicle_type_id":"4","last_reported":1751566513,"current_range_meters":0,"station_id":"","pricing_plan_id":"cebpf4jnsgd1na2vs0mg"},{"bike_id":"7ae4d849-85c4-4ff3-b935-2c74b0710bad","system_id":"levelo_inurba_marseille","lat":43.283464,"lon":5.350229,"is_reserved":false,"is_disabled":true,"rental_uris":{"android":"levelo://app?vid=7ae4d849-85c4-4ff3-b935-2c74b0710bad","ios":"levelo://app?vid=7ae4d849-85c4-4ff3-b935-2c74b0710bad"},"vehicle_type_id":"4","last_reported":1751566513,"current_range_meters":0,"station_id":"","pricing_plan_id":"cebpf4jnsgd1na2vs0mg"},{"bike_id":"45a36d42-3f75-4451-929c-2980bab85fb7","system_id":"levelo_inurba_marseille","lat":43.23283,"lon":5.43653,"is_reserved":false,"is_disabled":true,"rental_uris":{"android":"levelo://app?vid=45a36d42-3f75-4451-929c-2980bab85fb7","ios":"levelo://app?vid=45a36d42-3f75-4451-929c-2980bab85fb7"},"vehicle_type_id":"4","last_reported":1751566513,"current_range_meters":0,"station_id":"","pricing_plan_id":"cebpf4jnsgd1na2vs0mg"},{"bike_id":"da921d92-526f-401b-95dc-b12109d1091d","system_id":"levelo_inurba_marseille","lat":43.36197,"lon":5.34932,"is_reserved":false,"is_disabled":true,"rental_uris":{"android":"levelo://app?vid=da921d92-526f-401b-95dc-b12109d1091d","ios":"levelo://app?vid=da921d92-526f-401b-95dc-b12109d1091d"},"vehicle_type_id":"4","last_reported":1751566513,"current_range_meters":0,"station_id":"","pricing_plan_id":"cebpf4jnsgd1na2vs0mg"},{"bike_id":"6e5b5a4d-1ee5-4068-9613-fb44ab4d8a9a","system_id":"levelo_inurba_marseille","lat":43.34877,"lon":5.34602,"is_reserved":false,"is_disabled":true,"rental_uris":{"android":"levelo://app?vid=6e5b5a4d-1ee5-4068-9613-fb44ab4d8a9a","ios":"levelo://app?vid=6e5b5a4d-1ee5-4068-9613-fb44ab4d8a9a"},"vehicle_type_id":"4","last_reported":1751566513,"current_range_meters":0,"station_id":"","pricing_plan_id":"cebpf4jnsgd1na2vs0mg"},{"bike_id":"031ffef9-24ba-4401-b1e2-e2fe37de45da","system_id":"levelo_inurba_marseille","lat":43.27761,"lon":5.38865,"is_reserved":false,"is_disabled":true,"rental_uris":{"android":"levelo://app?vid=031ffef9-24ba-4401-b1e2-e2fe37de45da","ios":"levelo://app?vid=031ffef9-24ba-4401-b1e2-e2fe37de45da"},"vehicle_type_id":"4","last_reported":1751566513,"current_range_meters":0,"station_id":"","pricing_plan_id":"cebpf4jnsgd1na2vs0mg"},{"bike_id":"8e365e3c-559a-4ba6-a6c5-4c159e2434fc","system_id":"levelo_inurba_marseille","lat":43.21749,"lon":5.34602,"is_reserved":false,"is_disabled":true,"rental_uris":{"android":"levelo://app?vid=8e365e3c-559a-4ba6-a6c5-4c159e2434fc","ios":"levelo://app?vid=8e365e3c-559a-4ba6-a6c5-4c159e2434fc"},"vehicle_type_id":"4","last_reported":1751566513,"current_range_meters":0,"station_id":"","pricing_plan_id":"cebpf4jnsgd1na2vs0mg"},{"bike_id":"b87537a5-0ef7-4a87-9959-cd0a9fa65894","system_id":"levelo_inurba_marseille","lat":43.29355,"lon":5.37141,"is_reserved":false,"is_disabled":true,"rental_uris":{"android":"levelo://app?vid=b87537a5-0ef7-4a87-9959-cd0a9fa65894","ios":"levelo://app?vid=b87537a5-0ef7-4a87-9959-cd0a9fa65894"},"vehicle_type_id":"4","last_reported":1751566513,"current_range_meters":0,"station_id":"","pricing_plan_id":"cebpf4jnsgd1na2vs0mg"},{"bike_id":"5fe1f33a-ebc4-4182-b521-7ef3eadc1773","system_id":"levelo_inurba_marseille","lat":43.26931,"lon":5.36851,"is_reserved":false,"is_disabled":true,"rental_uris":{"android":"levelo://app?vid=5fe1f33a-ebc4-4182-b521-7ef3eadc1773","ios":"levelo://app?vid=5fe1f33a-ebc4-4182-b521-7ef3eadc1773"},"vehicle_type_id":"4","last_reported":1751566513,"current_range_meters":0,"station_id":"","pricing_plan_id":"cebpf4jnsgd1na2vs0mg"},{"bike_id":"a672f10c-0df9-4c4b-9a3f-7cad65e2be31","system_id":"levelo_inurba_marseille","lat":43.29188,"lon":5.35802,"is_reserved":false,"is_disabled":true,"rental_uris":{"android":"levelo://app?vid=a672f10c-0df9-4c4b-9a3f-7cad65e2be31","ios":"levelo://app?vid=a672f10c-0df9-4c4b-9a3f-7cad65e2be31"},"vehicle_type_id":"4","last_reported":1751566513,"current_range_meters":0,"station_id":"ce4bhb12rcd13ifvqel0","pricing_plan_id":"cebpf4jnsgd1na2vs0mg"},{"bike_id":"b31bd792-3a00-4cd4-9c92-39add3757452","system_id":"levelo_inurba_marseille","lat":43.28425,"lon":5.3501,"is_reserved":false,"is_disabled":true,"rental_uris":{"android":"levelo://app?vid=b31bd792-3a00-4cd4-9c92-39add3757452","ios":"levelo://app?vid=b31bd792-3a00-4cd4-9c92-39add3757452"},"vehicle_type_id":"4","last_reported":1751566513,"current_range_meters":0,"station_id":"ce4bhbh2rcd13ifvqepg","pricing_plan_id":"cebpf4jnsgd1na2vs0mg"},{"bike_id":"843b80df-ca35-4fb4-b95f-00ad0703e9a5","system_id":"levelo_inurba_marseille","lat":43.28268,"lon":5.35071,"is_reserved":false,"is_disabled":true,"rental_uris":{"android":"levelo://app?vid=843b80df-ca35-4fb4-b95f-00ad0703e9a5","ios":"levelo://app?vid=843b80df-ca35-4fb4-b95f-00ad0703e9a5"},"vehicle_type_id":"4","last_reported":1751566513,"current_range_meters":0,"station_id":"ce4bhbp2rcd13ifvqerg","pricing_plan_id":"cebpf4jnsgd1na2vs0mg"},{"bike_id":"2ab3bf01-fa82-4635-984e-02b3f72c3426","system_id":"levelo_inurba_marseille","lat":43.2551,"lon":5.3766,"is_reserved":false,"is_disabled":true,"rental_uris":{"android":"levelo://app?vid=2ab3bf01-fa82-4635-984e-02b3f72c3426","ios":"levelo://app?vid=2ab3bf01-fa82-4635-984e-02b3f72c3426"},"vehicle_type_id":"4","last_reported":1751566513,"current_range_meters":0,"station_id":"ce4bhh12rcd13ifvqff0","pricing_plan_id":"cebpf4jnsgd1na2vs0mg"},{"bike_id":"8688f3e3-978b-44f4-8c99-be921e0b5bdf","system_id":"levelo_inurba_marseille","lat":43.27945,"lon":5.41038,"is_reserved":false,"is_disabled":true,"rental_uris":{"android":"levelo://app?vid=8688f3e3-978b-44f4-8c99-be921e0b5bdf","ios":"levelo://app?vid=8688f3e3-978b-44f4-8c99-be921e0b5bdf"},"vehicle_type_id":"4","last_reported":1751566513,"current_range_meters":0,"station_id":"ce4bhnp2rcd13ifvqh0g","pricing_plan_id":"cebpf4jnsgd1na2vs0mg"},{"bike_id":"74048b68-e069-4d0c-8b6b-30443c3a8faa","system_id":"levelo_inurba_marseille","lat":43.32082,"lon":5.41572,"is_reserved":false,"is_disabled":true,"rental_uris":{"android":"levelo://app?vid=74048b68-e069-4d0c-8b6b-30443c3a8faa","ios":"levelo://app?vid=74048b68-e069-4d0c-8b6b-30443c3a8faa"},"vehicle_type_id":"4","last_reported":1751566513,"current_range_meters":0,"station_id":"ce4bhq92rcd13ifvqhkg","pricing_plan_id":"cebpf4jnsgd1na2vs0mg"},{"bike_id":"4cbb709f-957a-4ce9-9ee6-6cbe76aeadf9","system_id":"levelo_inurba_marseille","lat":43.33612,"lon":5.41029,"is_reserved":false,"is_disabled":false,"rental_uris":{"android":"levelo://app?vid=4cbb709f-957a-4ce9-9ee6-6cbe76aeadf9","ios":"levelo://app?vid=4cbb709f-957a-4ce9-9ee6-6cbe76aeadf9"},"vehicle_type_id":"4","last_reported":1751566513,"current_range_meters":0,"station_id":"ce4bhqh2rcd13ifvqhmg","pricing_plan_id":"cebpf4jnsgd1na2vs0mg"},{"bike_id":"247764c6-60cd-4ac9-9634-1d9a9565be01","system_id":"levelo_inurba_marseille","lat":43.23194,"lon":5.35544,"is_reserved":false,"is_disabled":true,"rental_uris":{"android":"levelo://app?vid=247764c6-60cd-4ac9-9634-1d9a9565be01","ios":"levelo://app?vid=247764c6-60cd-4ac9-9634-1d9a9565be01"},"vehicle_type_id":"4","last_reported":1751566513,"current_range_meters":0,"station_id":"ce4bhu92rcd13ifvqi70","pricing_plan_id":"cebpf4jnsgd1na2vs0mg"},{"bike_id":"e1d1f11b-4ee1-414f-b3e6-0d53e6e841c3","system_id":"levelo_inurba_marseille","lat":43.24165,"lon":5.3639,"is_reserved":false,"is_disabled":true,"rental_uris":{"android":"levelo://app?vid=e1d1f11b-4ee1-414f-b3e6-0d53e6e841c3","ios":"levelo://app?vid=e1d1f11b-4ee1-414f-b3e6-0d53e6e841c3"},"vehicle_type_id":"4","last_reported":1751566513,"current_range_meters":0,"station_id":"cpo36qri1sfpv3e86is0","pricing_plan_id":"cebpf4jnsgd1na2vs0mg"},{"bike_id":"34525e0e-88eb-4fe8-be83-e19f0f1185d3","system_id":"levelo_inurba_marseille","lat":43.22507,"lon":5.3477,"is_reserved":false,"is_disabled":true,"rental_uris":{"android":"levelo://app?vid=34525e0e-88eb-4fe8-be83-e19f0f1185d3","ios":"levelo://app?vid=34525e0e-88eb-4fe8-be83-e19f0f1185d3"},"vehicle_type_id":"4","last_reported":1751566513,"current_range_meters":0,"station_id":"st_cvj5dfep6f1abm77gieg","pricing_plan_id":"cebpf4jnsgd1na2vs0mg"},{"bike_id":"9795e511-4f68-494d-9846-41f87f5dd923","system_id":"levelo_inurba_marseille","lat":43.22516,"lon":5.34787,"is_reserved":false,"is_disabled":true,"rental_uris":{"android":"levelo://app?vid=9795e511-4f68-494d-9846-41f87f5dd923","ios":"levelo://app?vid=9795e511-4f68-494d-9846-41f87f5dd923"},"vehicle_type_id":"4","last_reported":1751566513,"current_range_meters":0,"station_id":"st_cvj5dfep6f1abm77gieg","pricing_plan_id":"cebpf4jnsgd1na2vs0mg"},{"bike_id":"711daaef-62a7-4507-b46e-24f8c3ebc905","system_id":"levelo_inurba_marseille","lat":43.21765,"lon":5.3458,"is_reserved":false,"is_disabled":true,"rental_uris":{"android":"levelo://app?vid=711daaef-62a7-4507-b46e-24f8c3ebc905","ios":"levelo://app?vid=711daaef-62a7-4507-b46e-24f8c3ebc905"},"vehicle_type_id":"4","last_reported":1751566513,"current_range_meters":0,"station_id":"st_cvj6r9ubvosntc0bgbag","pricing_plan_id":"cebpf4jnsgd1na2vs0mg"},{"bike_id":"7750661e-3127-4501-aa76-1d7cb6be5070","system_id":"levelo_inurba_marseille","lat":43.21764,"lon":5.34598,"is_reserved":false,"is_disabled":true,"rental_uris":{"android":"levelo://app?vid=7750661e-3127-4501-aa76-1d7cb6be5070","ios":"levelo://app?vid=7750661e-3127-4501-aa76-1d7cb6be5070"},"vehicle_type_id":"4","last_reported":1751566513,"current_range_meters":0,"station_id":"st_cvj6r9ubvosntc0bgbag","pricing_plan_id":"cebpf4jnsgd1na2vs0mg"},{"bike_id":"c8bdee6f-2ae9-4b92-95e3-02278f2d6814","system_id":"levelo_inurba_marseille","lat":43.26566,"lon":5.40314,"is_reserved":false,"is_disabled":true,"rental_uris":{"android":"levelo://app?vid=c8bdee6f-2ae9-4b92-95e3-02278f2d6814","ios":"levelo://app?vid=c8bdee6f-2ae9-4b92-95e3-02278f2d6814"},"vehicle_type_id":"4","last_reported":1751566513,"current_range_meters":400,"station_id":"","pricing_plan_id":"cebpf4jnsgd1na2vs0mg"},{"bike_id":"c692b4ca-997a-4d66-bd3d-d19c58a77cc2","system_id":"levelo_inurba_marseille","lat":43.2888,"lon":5.35834,"is_reserved":false,"is_disabled":true,"rental_uris":{"android":"levelo://app?vid=c692b4ca-997a-4d66-bd3d-d19c58a77cc2","ios":"levelo://app?vid=c692b4ca-997a-4d66-bd3d-d19c58a77cc2"},"vehicle_type_id":"4","last_reported":1751566513,"current_range_meters":400,"station_id":"ce4bhb12rcd13ifvqem0","pricing_plan_id":"cebpf4jnsgd1na2vs0mg"},{"bike_id":"07da46ec-9dff-4e07-9501-770fdc49ee0d","system_id":"levelo_inurba_marseille","lat":43.27813,"lon":5.40711,"is_reserved":false,"is_disabled":true,"rental_uris":{"android":"levelo://app?vid=07da46ec-9dff-4e07-9501-770fdc49ee0d","ios":"levelo://app?vid=07da46ec-9dff-4e07-9501-770fdc49ee0d"},"vehicle_type_id":"4","last_reported":1751566513,"current_range_meters":400,"station_id":"ce4bhnh2rcd13ifvqgtg","pricing_plan_id":"cebpf4jnsgd1na2vs0mg"},{"bike_id":"bc5dd2b3-3385-463b-a084-678650a16b75","system_id":"levelo_inurba_marseille","lat":43.268446,"lon":5.370804,"is_reserved":false,"is_disabled":true,"rental_uris":{"android":"levelo://app?vid=bc5dd2b3-3385-463b-a084-678650a16b75","ios":"levelo://app?vid=bc5dd2b3-3385-463b-a084-678650a16b75"},"vehicle_type_id":"4","last_reported":1751566513,"current_range_meters":800,"station_id":"","pricing_plan_id":"cebpf4jnsgd1na2vs0mg"},{"bike_id":"2e29aba2-0e21-45f1-a23e-aa6ef6b865d1","system_id":"levelo_inurba_marseille","lat":43.30606,"lon":5.39358,"is_reserved":false,"is_disabled":true,"rental_uris":{"android":"levelo://app?vid=2e29aba2-0e21-45f1-a23e-aa6ef6b865d1","ios":"levelo://app?vid=2e29aba2-0e21-45f1-a23e-aa6ef6b865d1"},"vehicle_type_id":"4","last_reported":1751566513,"current_range_meters":800,"station_id":"ce4bh0p2rcd13ifvqd80","pricing_plan_id":"cebpf4jnsgd1na2vs0mg"},{"bike_id":"c064f9fa-0d3b-484c-8657-0daf644a6177","system_id":"levelo_inurba_marseille","lat":43.26185,"lon":5.37508,"is_reserved":false,"is_disabled":true,"rental_uris":{"android":"levelo://app?vid=c064f9fa-0d3b-484c-8657-0daf644a6177","ios":"levelo://app?vid=c064f9fa-0d3b-484c-8657-0daf644a6177"},"vehicle_type_id":"4","last_reported":1751566513,"current_range_meters":800,"station_id":"ce4bhgp2rcd13ifvqfc0","pricing_plan_id":"cebpf4jnsgd1na2vs0mg"},{"bike_id":"a63ec5f6-91cf-42df-a1d5-ae7001a1ab59","system_id":"levelo_inurba_marseille","lat":43.28727,"lon":5.36083,"is_reserved":false,"is_disabled":true,"rental_uris":{"android":"levelo://app?vid=a63ec5f6-91cf-42df-a1d5-ae7001a1ab59","ios":"levelo://app?vid=a63ec5f6-91cf-42df-a1d5-ae7001a1ab59"},"vehicle_type_id":"4","last_reported":1751566513,"current_range_meters":800,"station_id":"cki0cbj6b192h4jlfktg","pricing_plan_id":"cebpf4jnsgd1na2vs0mg"},{"bike_id":"4fd21bf2-bbd5-4ebb-ad0a-8367582d6c30","system_id":"levelo_inurba_marseille","lat":43.28739,"lon":5.35192,"is_reserved":false,"is_disabled":true,"rental_uris":{"android":"levelo://app?vid=4fd21bf2-bbd5-4ebb-ad0a-8367582d6c30","ios":"levelo://app?vid=4fd21bf2-bbd5-4ebb-ad0a-8367582d6c30"},"vehicle_type_id":"4","last_reported":1751566513,"current_range_meters":1200,"station_id":"","pricing_plan_id":"cebpf4jnsgd1na2vs0mg"},{"bike_id":"0a185492-26a8-4775-85c2-10610805774a","system_id":"levelo_inurba_marseille","lat":43.2771,"lon":5.4306,"is_reserved":false,"is_disabled":true,"rental_uris":{"android":"levelo://app?vid=0a185492-26a8-4775-85c2-10610805774a","ios":"levelo://app?vid=0a185492-26a8-4775-85c2-10610805774a"},"vehicle_type_id":"4","last_reported":1751566513,"current_range_meters":1200,"station_id":"","pricing_plan_id":"cebpf4jnsgd1na2vs0mg"},{"bike_id":"4bcf47aa-3629-44e9-a532-07ef3a37ed31","system_id":"levelo_inurba_marseille","lat":43.30145,"lon":5.38081,"is_reserved":false,"is_disabled":true,"rental_uris":{"android":"levelo://app?vid=4bcf47aa-3629-44e9-a532-07ef3a37ed31","ios":"levelo://app?vid=4bcf47aa-3629-44e9-a532-07ef3a37ed31"},"vehicle_type_id":"4","last_reported":1751566513,"current_range_meters":1200,"station_id":"ce4bgjp2rcd13ifvqbh0","pricing_plan_id":"cebpf4jnsgd1na2vs0mg"},{"bike_id":"316132d0-b07a-4de6-a469-9c9e37fd907c","system_id":"levelo_inurba_marseille","lat":43.29045,"lon":5.3997,"is_reserved":false,"is_disabled":true,"rental_uris":{"android":"levelo://app?vid=316132d0-b07a-4de6-a469-9c9e37fd907c","ios":"levelo://app?vid=316132d0-b07a-4de6-a469-9c9e37fd907c"},"vehicle_type_id":"4","last_reported":1751566513,"current_range_meters":1200,"station_id":"ce4bh392rcd13ifvqdm0","pricing_plan_id":"cebpf4jnsgd1na2vs0mg"},{"bike_id":"1cdde949-b529-4c3f-8990-24586ad13f33","system_id":"levelo_inurba_marseille","lat":43.29226,"lon":5.36063,"is_reserved":false,"is_disabled":true,"rental_uris":{"android":"levelo://app?vid=1cdde949-b529-4c3f-8990-24586ad13f33","ios":"levelo://app?vid=1cdde949-b529-4c3f-8990-24586ad13f33"},"vehicle_type_id":"4","last_reported":1751566513,"current_range_meters":1200,"station_id":"ce4bhbh2rcd13ifvqeqg","pricing_plan_id":"cebpf4jnsgd1na2vs0mg"},{"bike_id":"7d0f5aa9-ff3f-4c90-9ed8-e1cb519221d3","system_id":"levelo_inurba_marseille","lat":43.2707,"lon":5.42279,"is_reserved":false,"is_disabled":true,"rental_uris":{"android":"levelo://app?vid=7d0f5aa9-ff3f-4c90-9ed8-e1cb519221d3","ios":"levelo://app?vid=7d0f5aa9-ff3f-4c90-9ed8-e1cb519221d3"},"vehicle_type_id":"4","last_reported":1751566513,"current_range_meters":1200,"station_id":"ce4bhk92rcd13ifvqgb0","pricing_plan_id":"cebpf4jnsgd1na2vs0mg"},{"bike_id":"9c59ad22-56e7-45f8-8c04-75506188d61a","system_id":"levelo_inurba_marseille","lat":43.269437,"lon":5.402536,"is_reserved":false,"is_disabled":true,"rental_uris":{"android":"levelo://app?vid=9c59ad22-56e7-45f8-8c04-75506188d61a","ios":"levelo://app?vid=9c59ad22-56e7-45f8-8c04-75506188d61a"},"vehicle_type_id":"4","last_reported":1751566513,"current_range_meters":1200,"station_id":"cjm6bp8fraef2m0cb0m0","pricing_plan_id":"cebpf4jnsgd1na2vs0mg"},{"bike_id":"a6d7a0d5-d9ae-4fc1-b44b-2efbae6ccc62","system_id":"levelo_inurba_marseille","lat":43.21766,"lon":5.34583,"is_reserved":false,"is_disabled":true,"rental_uris":{"android":"levelo://app?vid=a6d7a0d5-d9ae-4fc1-b44b-2efbae6ccc62","ios":"levelo://app?vid=a6d7a0d5-d9ae-4fc1-b44b-2efbae6ccc62"},"vehicle_type_id":"4","last_reported":1751566513,"current_range_meters":1200,"station_id":"st_cvj6r9ubvosntc0bgbag","pricing_plan_id":"cebpf4jnsgd1na2vs0mg"},{"bike_id":"82fe187f-756c-4548-a7c4-3fc3ac31b7d2","system_id":"levelo_inurba_marseille","lat":43.21749,"lon":5.34583,"is_reserved":false,"is_disabled":true,"rental_uris":{"android":"levelo://app?vid=82fe187f-756c-4548-a7c4-3fc3ac31b7d2","ios":"levelo://app?vid=82fe187f-756c-4548-a7c4-3fc3ac31b7d2"},"vehicle_type_id":"4","last_reported":1751566513,"current_range_meters":1600,"station_id":"st_cvj6r9ubvosntc0bgbag","pricing_plan_id":"cebpf4jnsgd1na2vs0mg"},{"bike_id":"73007943-cb46-4dd3-bd69-d117a2bb387e","system_id":"levelo_inurba_marseille","lat":43.290141,"lon":5.35623,"is_reserved":false,"is_disabled":true,"rental_uris":{"android":"levelo://app?vid=73007943-cb46-4dd3-bd69-d117a2bb387e","ios":"levelo://app?vid=73007943-cb46-4dd3-bd69-d117a2bb387e"},"vehicle_type_id":"4","last_reported":1751566513,"current_range_meters":2000,"station_id":"ce4bhb92rcd13ifvqen0","pricing_plan_id":"cebpf4jnsgd1na2vs0mg"},{"bike_id":"b36109ea-30ee-4d83-8e26-db0411374d89","system_id":"levelo_inurba_marseille","lat":43.27833,"lon":5.39203,"is_reserved":false,"is_disabled":true,"rental_uris":{"android":"levelo://app?vid=b36109ea-30ee-4d83-8e26-db0411374d89","ios":"levelo://app?vid=b36109ea-30ee-4d83-8e26-db0411374d89"},"vehicle_type_id":"4","last_reported":1751566513,"current_range_meters":2000,"station_id":"ce4bhjp2rcd13ifvqga0","pricing_plan_id":"cebpf4jnsgd1na2vs0mg"},{"bike_id":"abc57f24-2de1-42c4-82f5-220acc12891e","system_id":"levelo_inurba_marseille","lat":43.28694,"lon":5.39984,"is_reserved":false,"is_disabled":true,"rental_uris":{"android":"levelo://app?vid=abc57f24-2de1-42c4-82f5-220acc12891e","ios":"levelo://app?vid=abc57f24-2de1-42c4-82f5-220acc12891e"},"vehicle_type_id":"4","last_reported":1751566513,"current_range_meters":2000,"station_id":"ce4bho92rcd13ifvqh3g","pricing_plan_id":"cebpf4jnsgd1na2vs0mg"},{"bike_id":"bf1d8300-e3da-4c93-8145-192573c57a3d","system_id":"levelo_inurba_marseille","lat":43.32056,"lon":5.41539,"is_reserved":false,"is_disabled":true,"rental_uris":{"android":"levelo://app?vid=bf1d8300-e3da-4c93-8145-192573c57a3d","ios":"levelo://app?vid=bf1d8300-e3da-4c93-8145-192573c57a3d"},"vehicle_type_id":"4","last_reported":1751566513,"current_range_meters":2000,"station_id":"ce4bhq92rcd13ifvqhkg","pricing_plan_id":"cebpf4jnsgd1na2vs0mg"},{"bike_id":"e5ec39a1-9ef1-4acd-acf8-0b00add1c732","system_id":"levelo_inurba_marseille","lat":43.28153,"lon":5.42642,"is_reserved":false,"is_disabled":false,"rental_uris":{"android":"levelo://app?vid=e5ec39a1-9ef1-4acd-acf8-0b00add1c732","ios":"levelo://app?vid=e5ec39a1-9ef1-4acd-acf8-0b00add1c732"},"vehicle_type_id":"4","last_reported":1751566513,"current_range_meters":3200,"station_id":"ce4bhnh2rcd13ifvqgug","pricing_plan_id":"cebpf4jnsgd1na2vs0mg"},{"bike_id":"8becf1b9-b72c-4763-a062-bbd587ae45bf","system_id":"levelo_inurba_marseille","lat":43.32595,"lon":5.42555,"is_reserved":false,"is_disabled":false,"rental_uris":{"android":"levelo://app?vid=8becf1b9-b72c-4763-a062-bbd587ae45bf","ios":"levelo://app?vid=8becf1b9-b72c-4763-a062-bbd587ae45bf"},"vehicle_type_id":"4","last_reported":1751566513,"current_range_meters":3600,"station_id":"","pricing_plan_id":"cebpf4jnsgd1na2vs0mg"},{"bike_id":"6cd5557c-fc73-487a-a170-f12c0424fbf7","system_id":"levelo_inurba_marseille","lat":43.2927,"lon":5.38438,"is_reserved":false,"is_disabled":false,"rental_uris":{"android":"levelo://app?vid=6cd5557c-fc73-487a-a170-f12c0424fbf7","ios":"levelo://app?vid=6cd5557c-fc73-487a-a170-f12c0424fbf7"},"vehicle_type_id":"4","last_reported":1751566513,"current_range_meters":3600,"station_id":"ce4bh692rcd13ifvqea0","pricing_plan_id":"cebpf4jnsgd1na2vs0mg"},{"bike_id":"7bea2075-be34-4810-9d7b-2ba06ba56994","system_id":"levelo_inurba_marseille","lat":43.2904,"lon":5.35916,"is_reserved":false,"is_disabled":false,"rental_uris":{"android":"levelo://app?vid=7bea2075-be34-4810-9d7b-2ba06ba56994","ios":"levelo://app?vid=7bea2075-be34-4810-9d7b-2ba06ba56994"},"vehicle_type_id":"4","last_reported":1751566513,"current_range_meters":3600,"station_id":"ce4bha92rcd13ifvqeg0","pricing_plan_id":"cebpf4jnsgd1na2vs0mg"},{"bike_id":"076447d8-baa1-4d84-830d-66b72d4695cf","system_id":"levelo_inurba_marseille","lat":43.25006,"lon":5.38934,"is_reserved":false,"is_disabled":false,"rental_uris":{"android":"levelo://app?vid=076447d8-baa1-4d84-830d-66b72d4695cf","ios":"levelo://app?vid=076447d8-baa1-4d84-830d-66b72d4695cf"},"vehicle_type_id":"4","last_reported":1751566513,"current_range_meters":3600,"station_id":"ce4bhgp2rcd13ifvqfd0","pricing_plan_id":"cebpf4jnsgd1na2vs0mg"},{"bike_id":"460ab666-da20-4d67-b5d1-78db3a4360c6","system_id":"levelo_inurba_marseille","lat":43.23195,"lon":5.35554,"is_reserved":false,"is_disabled":false,"rental_uris":{"android":"levelo://app?vid=460ab666-da20-4d67-b5d1-78db3a4360c6","ios":"levelo://app?vid=460ab666-da20-4d67-b5d1-78db3a4360c6"},"vehicle_type_id":"4","last_reported":1751566513,"current_range_meters":3600,"station_id":"ce4bhu92rcd13ifvqi70","pricing_plan_id":"cebpf4jnsgd1na2vs0mg"},{"bike_id":"1c494b60-aa41-4af9-83fd-d2ccd388ce43","system_id":"levelo_inurba_marseille","lat":43.25721,"lon":5.4111,"is_reserved":false,"is_disabled":false,"rental_uris":{"android":"levelo://app?vid=1c494b60-aa41-4af9-83fd-d2ccd388ce43","ios":"levelo://app?vid=1c494b60-aa41-4af9-83fd-d2ccd388ce43"},"vehicle_type_id":"4","last_reported":1751566513,"current_range_meters":4000,"station_id":"ce4bhkp2rcd13ifvqgd0","pricing_plan_id":"cebpf4jnsgd1na2vs0mg"},{"bike_id":"b5f9c177-e511-4a26-9abb-a8c98a9e71b2","system_id":"levelo_inurba_marseille","lat":43.21191,"lon":5.35071,"is_reserved":false,"is_disabled":false,"rental_uris":{"android":"levelo://app?vid=b5f9c177-e511-4a26-9abb-a8c98a9e71b2","ios":"levelo://app?vid=b5f9c177-e511-4a26-9abb-a8c98a9e71b2"},"vehicle_type_id":"4","last_reported":1751566513,"current_range_meters":4000,"station_id":"st_cvj6sg6p6f1abm77japg","pricing_plan_id":"cebpf4jnsgd1na2vs0mg"},{"bike_id":"c355807d-17ef-4436-b11f-8269a58353c6","system_id":"levelo_inurba_marseille","lat":43.28438,"lon":5.34988,"is_reserved":false,"is_disabled":false,"rental_uris":{"android":"levelo://app?vid=c355807d-17ef-4436-b11f-8269a58353c6","ios":"levelo://app?vid=c355807d-17ef-4436-b11f-8269a58353c6"},"vehicle_type_id":"4","last_reported":1751566513,"current_range_meters":4800,"station_id":"ce4bhbh2rcd13ifvqepg","pricing_plan_id":"cebpf4jnsgd1na2vs0mg"},{"bike_id":"7483f367-8be4-48e8-ae1c-92287c905400","system_id":"levelo_inurba_marseille","lat":43.27077,"lon":5.42287,"is_reserved":false,"is_disabled":false,"rental_uris":{"android":"levelo://app?vid=7483f367-8be4-48e8-ae1c-92287c905400","ios":"levelo://app?vid=7483f367-8be4-48e8-ae1c-92287c905400"},"vehicle_type_id":"4","last_reported":1751566513,"current_range_meters":4800,"station_id":"ce4bhk92rcd13ifvqgb0","pricing_plan_id":"cebpf4jnsgd1na2vs0mg"},{"bike_id":"8e03c147-36e7-48f5-b51f-43ef421679b5","system_id":"levelo_inurba_marseille","lat":43.27812,"lon":5.40709,"is_reserved":false,"is_disabled":false,"rental_uris":{"android":"levelo://app?vid=8e03c147-36e7-48f5-b51f-43ef421679b5","ios":"levelo://app?vid=8e03c147-36e7-48f5-b51f-43ef421679b5"},"vehicle_type_id":"4","last_reported":1751566513,"current_range_meters":4800,"station_id":"ce4bhnh2rcd13ifvqgtg","pricing_plan_id":"cebpf4jnsgd1na2vs0mg"},{"bike_id":"db1fce1d-f917-44d2-b5d7-7b74d6c802b7","system_id":"levelo_inurba_marseille","lat":43.24081,"lon":5.37752,"is_reserved":false,"is_disabled":false,"rental_uris":{"android":"levelo://app?vid=db1fce1d-f917-44d2-b5d7-7b74d6c802b7","ios":"levelo://app?vid=db1fce1d-f917-44d2-b5d7-7b74d6c802b7"},"vehicle_type_id":"4","last_reported":1751566513,"current_range_meters":4800,"station_id":"ce4bhnp2rcd13ifvqgvg","pricing_plan_id":"cebpf4jnsgd1na2vs0mg"},{"bike_id":"f2d1945a-625c-433b-8fdd-844f4394e949","system_id":"levelo_inurba_marseille","lat":43.31712,"lon":5.43707,"is_reserved":false,"is_disabled":false,"rental_uris":{"android":"levelo://app?vid=f2d1945a-625c-433b-8fdd-844f4394e949","ios":"levelo://app?vid=f2d1945a-625c-433b-8fdd-844f4394e949"},"vehicle_type_id":"4","last_reported":1751566513,"current_range_meters":4800,"station_id":"ce4bhp92rcd13ifvqhcg","pricing_plan_id":"cebpf4jnsgd1na2vs0mg"},{"bike_id":"aa188302-d432-48b0-ad3a-5a676c4249e4","system_id":"levelo_inurba_marseille","lat":43.32003,"lon":5.38164,"is_reserved":false,"is_disabled":false,"rental_uris":{"android":"levelo://app?vid=aa188302-d432-48b0-ad3a-5a676c4249e4","ios":"levelo://app?vid=aa188302-d432-48b0-ad3a-5a676c4249e4"},"vehicle_type_id":"4","last_reported":1751566513,"current_range_meters":4800,"station_id":"ce4bhr12rcd13ifvqhpg","pricing_plan_id":"cebpf4jnsgd1na2vs0mg"},{"bike_id":"3eb503fb-b5a7-4277-b571-14a1482b1bac","system_id":"levelo_inurba_marseille","lat":43.30293,"lon":5.37704,"is_reserved":false,"is_disabled":false,"rental_uris":{"android":"levelo://app?vid=3eb503fb-b5a7-4277-b571-14a1482b1bac","ios":"levelo://app?vid=3eb503fb-b5a7-4277-b571-14a1482b1bac"},"vehicle_type_id":"4","last_reported":1751566513,"current_range_meters":6000,"station_id":"ce4bguh2rcd13ifvqcj0","pricing_plan_id":"cebpf4jnsgd1na2vs0mg"},{"bike_id":"efa10b3e-94dc-4356-b75b-50c503a31ad0","system_id":"levelo_inurba_marseille","lat":43.289222,"lon":5.383879,"is_reserved":false,"is_disabled":false,"rental_uris":{"android":"levelo://app?vid=efa10b3e-94dc-4356-b75b-50c503a31ad0","ios":"levelo://app?vid=efa10b3e-94dc-4356-b75b-50c503a31ad0"},"vehicle_type_id":"4","last_reported":1751566513,"current_range_meters":6000,"station_id":"ce4bhb92rcd13ifvqen0","pricing_plan_id":"cebpf4jnsgd1na2vs0mg"},{"bike_id":"8a66890a-a59b-4bef-8e35-490c4eae833b","system_id":"levelo_inurba_marseille","lat":43.225064,"lon":5.347859,"is_reserved":false,"is_disabled":false,"rental_uris":{"android":"levelo://app?vid=8a66890a-a59b-4bef-8e35-490c4eae833b","ios":"levelo://app?vid=8a66890a-a59b-4bef-8e35-490c4eae833b"},"vehicle_type_id":"4","last_reported":1751566513,"current_range_meters":6400,"station_id":"","pricing_plan_id":"cebpf4jnsgd1na2vs0mg"},{"bike_id":"1c4bc858-33f6-484d-8e7c-bfabb6484d1f","system_id":"levelo_inurba_marseille","lat":43.2885,"lon":5.3933,"is_reserved":false,"is_disabled":false,"rental_uris":{"android":"levelo://app?vid=1c4bc858-33f6-484d-8e7c-bfabb6484d1f","ios":"levelo://app?vid=1c4bc858-33f6-484d-8e7c-bfabb6484d1f"},"vehicle_type_id":"4","last_reported":1751566513,"current_range_meters":6400,"station_id":"ce4bh2p2rcd13ifvqdi0","pricing_plan_id":"cebpf4jnsgd1na2vs0mg"},{"bike_id":"a338f12c-600f-4597-b78a-96cc13e07464","system_id":"levelo_inurba_marseille","lat":43.28426,"lon":5.34981,"is_reserved":false,"is_disabled":false,"rental_uris":{"android":"levelo://app?vid=a338f12c-600f-4597-b78a-96cc13e07464","ios":"levelo://app?vid=a338f12c-600f-4597-b78a-96cc13e07464"},"vehicle_type_id":"4","last_reported":1751566513,"current_range_meters":6400,"station_id":"ce4bhbh2rcd13ifvqepg","pricing_plan_id":"cebpf4jnsgd1na2vs0mg"},{"bike_id":"5f31c9e9-4a8d-4510-85ba-e02b60772ac4","system_id":"levelo_inurba_marseille","lat":43.26206,"lon":5.37443,"is_reserved":false,"is_disabled":false,"rental_uris":{"android":"levelo://app?vid=5f31c9e9-4a8d-4510-85ba-e02b60772ac4","ios":"levelo://app?vid=5f31c9e9-4a8d-4510-85ba-e02b60772ac4"},"vehicle_type_id":"4","last_reported":1751566513,"current_range_meters":6400,"station_id":"ce4bhgp2rcd13ifvqfc0","pricing_plan_id":"cebpf4jnsgd1na2vs0mg"},{"bike_id":"542947f5-7dad-4611-bf1f-2603d88f5c63","system_id":"levelo_inurba_marseille","lat":43.29787,"lon":5.39344,"is_reserved":false,"is_disabled":false,"rental_uris":{"android":"levelo://app?vid=542947f5-7dad-4611-bf1f-2603d88f5c63","ios":"levelo://app?vid=542947f5-7dad-4611-bf1f-2603d88f5c63"},"vehicle_type_id":"4","last_reported":1751566513,"current_range_meters":6400,"station_id":"chh1huq6cuj3fo74tm60","pricing_plan_id":"cebpf4jnsgd1na2vs0mg"},{"bike_id":"de3d3d25-7354-49cb-8fa4-5acf1471cb8d","system_id":"levelo_inurba_marseille","lat":43.211909,"lon":5.350734,"is_reserved":false,"is_disabled":false,"rental_uris":{"android":"levelo://app?vid=de3d3d25-7354-49cb-8fa4-5acf1471cb8d","ios":"levelo://app?vid=de3d3d25-7354-49cb-8fa4-5acf1471cb8d"},"vehicle_type_id":"4","last_reported":1751566513,"current_range_meters":6400,"station_id":"st_cvj6sg6p6f1abm77japg","pricing_plan_id":"cebpf4jnsgd1na2vs0mg"},{"bike_id":"05c7b799-9781-4950-8cd4-d185fec2ae95","system_id":"levelo_inurba_marseille","lat":43.21212,"lon":5.35053,"is_reserved":false,"is_disabled":false,"rental_uris":{"android":"levelo://app?vid=05c7b799-9781-4950-8cd4-d185fec2ae95","ios":"levelo://app?vid=05c7b799-9781-4950-8cd4-d185fec2ae95"},"vehicle_type_id":"4","last_reported":1751566513,"current_range_meters":6400,"station_id":"st_cvj6sg6p6f1abm77japg","pricing_plan_id":"cebpf4jnsgd1na2vs0mg"},{"bike_id":"5a747189-6b4b-47ad-bde3-65a20fcfdbde","system_id":"levelo_inurba_marseille","lat":43.29528,"lon":5.39394,"is_reserved":false,"is_disabled":false,"rental_uris":{"android":"levelo://app?vid=5a747189-6b4b-47ad-bde3-65a20fcfdbde","ios":"levelo://app?vid=5a747189-6b4b-47ad-bde3-65a20fcfdbde"},"vehicle_type_id":"4","last_reported":1751566513,"current_range_meters":6800,"station_id":"ce4bh292rcd13ifvqdf0","pricing_plan_id":"cebpf4jnsgd1na2vs0mg"},{"bike_id":"52fca1e6-8ced-447a-8458-b55088d707ce","system_id":"levelo_inurba_marseille","lat":43.28427,"lon":5.34975,"is_reserved":false,"is_disabled":false,"rental_uris":{"android":"levelo://app?vid=52fca1e6-8ced-447a-8458-b55088d707ce","ios":"levelo://app?vid=52fca1e6-8ced-447a-8458-b55088d707ce"},"vehicle_type_id":"4","last_reported":1751566513,"current_range_meters":6800,"station_id":"ce4bhbh2rcd13ifvqepg","pricing_plan_id":"cebpf4jnsgd1na2vs0mg"},{"bike_id":"bd9d4041-1e62-4ae2-b6df-6063a66429e5","system_id":"levelo_inurba_marseille","lat":43.33562,"lon":5.41007,"is_reserved":false,"is_disabled":false,"rental_uris":{"android":"levelo://app?vid=bd9d4041-1e62-4ae2-b6df-6063a66429e5","ios":"levelo://app?vid=bd9d4041-1e62-4ae2-b6df-6063a66429e5"},"vehicle_type_id":"4","last_reported":1751566513,"current_range_meters":6800,"station_id":"ce4bhqh2rcd13ifvqhmg","pricing_plan_id":"cebpf4jnsgd1na2vs0mg"},{"bike_id":"661603ff-dbfe-4867-ad18-6bf78192c759","system_id":"levelo_inurba_marseille","lat":43.30807,"lon":5.38143,"is_reserved":false,"is_disabled":false,"rental_uris":{"android":"levelo://app?vid=661603ff-dbfe-4867-ad18-6bf78192c759","ios":"levelo://app?vid=661603ff-dbfe-4867-ad18-6bf78192c759"},"vehicle_type_id":"4","last_reported":1751566513,"current_range_meters":7200,"station_id":"ce4bgt12rcd13ifvqce0","pricing_plan_id":"cebpf4jnsgd1na2vs0mg"},{"bike_id":"6d7b6f5f-01ec-49f6-b583-4413508da650","system_id":"levelo_inurba_marseille","lat":43.31126,"lon":5.37763,"is_reserved":false,"is_disabled":false,"rental_uris":{"android":"levelo://app?vid=6d7b6f5f-01ec-49f6-b583-4413508da650","ios":"levelo://app?vid=6d7b6f5f-01ec-49f6-b583-4413508da650"},"vehicle_type_id":"4","last_reported":1751566513,"current_range_meters":7200,"station_id":"ce4bgt92rcd13ifvqcg0","pricing_plan_id":"cebpf4jnsgd1na2vs0mg"},{"bike_id":"504b8232-6924-4359-b01d-f16ad6f851cf","system_id":"levelo_inurba_marseille","lat":43.28432,"lon":5.39176,"is_reserved":false,"is_disabled":false,"rental_uris":{"android":"levelo://app?vid=504b8232-6924-4359-b01d-f16ad6f851cf","ios":"levelo://app?vid=504b8232-6924-4359-b01d-f16ad6f851cf"},"vehicle_type_id":"4","last_reported":1751566513,"current_range_meters":7200,"station_id":"ce4bhoh2rcd13ifvqh5g","pricing_plan_id":"cebpf4jnsgd1na2vs0mg"},{"bike_id":"ac31760f-bc8c-4829-ae59-52e027e035db","system_id":"levelo_inurba_marseille","lat":43.28608,"lon":5.37064,"is_reserved":false,"is_disabled":false,"rental_uris":{"android":"levelo://app?vid=ac31760f-bc8c-4829-ae59-52e027e035db","ios":"levelo://app?vid=ac31760f-bc8c-4829-ae59-52e027e035db"},"vehicle_type_id":"4","last_reported":1751566513,"current_range_meters":7200,"station_id":"ce4bht12rcd13ifvqi60","pricing_plan_id":"cebpf4jnsgd1na2vs0mg"},{"bike_id":"8071b2d9-9aeb-40d6-9f97-5bb5dcff5051","system_id":"levelo_inurba_marseille","lat":43.25195,"lon":5.40474,"is_reserved":false,"is_disabled":false,"rental_uris":{"android":"levelo://app?vid=8071b2d9-9aeb-40d6-9f97-5bb5dcff5051","ios":"levelo://app?vid=8071b2d9-9aeb-40d6-9f97-5bb5dcff5051"},"vehicle_type_id":"4","last_reported":1751566513,"current_range_meters":8000,"station_id":"","pricing_plan_id":"cebpf4jnsgd1na2vs0mg"},{"bike_id":"79f6a7f1-c035-47cd-a39d-e92acec8a228","system_id":"levelo_inurba_marseille","lat":43.3053,"lon":5.36548,"is_reserved":false,"is_disabled":false,"rental_uris":{"android":"levelo://app?vid=79f6a7f1-c035-47cd-a39d-e92acec8a228","ios":"levelo://app?vid=79f6a7f1-c035-47cd-a39d-e92acec8a228"},"vehicle_type_id":"4","last_reported":1751566513,"current_range_meters":8000,"station_id":"ce4bgs12rcd13ifvqcag","pricing_plan_id":"cebpf4jnsgd1na2vs0mg"},{"bike_id":"3ed8d584-38c1-4b84-8ae0-e4958c070e23","system_id":"levelo_inurba_marseille","lat":43.26025,"lon":5.37549,"is_reserved":false,"is_disabled":false,"rental_uris":{"android":"levelo://app?vid=3ed8d584-38c1-4b84-8ae0-e4958c070e23","ios":"levelo://app?vid=3ed8d584-38c1-4b84-8ae0-e4958c070e23"},"vehicle_type_id":"4","last_reported":1751566513,"current_range_meters":8000,"station_id":"ce4bhgh2rcd13ifvqfa0","pricing_plan_id":"cebpf4jnsgd1na2vs0mg"},{"bike_id":"05912f9a-4777-4f65-957b-8aa297e9bee1","system_id":"levelo_inurba_marseille","lat":43.27943,"lon":5.41031,"is_reserved":false,"is_disabled":false,"rental_uris":{"android":"levelo://app?vid=05912f9a-4777-4f65-957b-8aa297e9bee1","ios":"levelo://app?vid=05912f9a-4777-4f65-957b-8aa297e9bee1"},"vehicle_type_id":"4","last_reported":1751566513,"current_range_meters":8000,"station_id":"ce4bhnp2rcd13ifvqh0g","pricing_plan_id":"cebpf4jnsgd1na2vs0mg"},{"bike_id":"d8dbb86b-e243-4357-b7ba-c1754159fa62","system_id":"levelo_inurba_marseille","lat":43.307981,"lon":5.381501,"is_reserved":false,"is_disabled":false,"rental_uris":{"android":"levelo://app?vid=d8dbb86b-e243-4357-b7ba-c1754159fa62","ios":"levelo://app?vid=d8dbb86b-e243-4357-b7ba-c1754159fa62"},"vehicle_type_id":"4","last_reported":1751566513,"current_range_meters":8400,"station_id":"ce4bgt12rcd13ifvqce0","pricing_plan_id":"cebpf4jnsgd1na2vs0mg"},{"bike_id":"dd9d8f9a-d491-4694-a132-8021627e9aaf","system_id":"levelo_inurba_marseille","lat":43.2804,"lon":5.36949,"is_reserved":false,"is_disabled":false,"rental_uris":{"android":"levelo://app?vid=dd9d8f9a-d491-4694-a132-8021627e9aaf","ios":"levelo://app?vid=dd9d8f9a-d491-4694-a132-8021627e9aaf"},"vehicle_type_id":"4","last_reported":1751566513,"current_range_meters":8400,"station_id":"ce4bha12rcd13ifvqef0","pricing_plan_id":"cebpf4jnsgd1na2vs0mg"},{"bike_id":"4d6283e4-163e-48ab-a8d5-e24d23935f29","system_id":"levelo_inurba_marseille","lat":43.27948,"lon":5.41039,"is_reserved":false,"is_disabled":false,"rental_uris":{"android":"levelo://app?vid=4d6283e4-163e-48ab-a8d5-e24d23935f29","ios":"levelo://app?vid=4d6283e4-163e-48ab-a8d5-e24d23935f29"},"vehicle_type_id":"4","last_reported":1751566513,"current_range_meters":8400,"station_id":"ce4bhnp2rcd13ifvqh0g","pricing_plan_id":"cebpf4jnsgd1na2vs0mg"},{"bike_id":"fea44969-53c7-4ef0-9214-42399010592c","system_id":"levelo_inurba_marseille","lat":43.23198,"lon":5.35556,"is_reserved":false,"is_disabled":false,"rental_uris":{"android":"levelo://app?vid=fea44969-53c7-4ef0-9214-42399010592c","ios":"levelo://app?vid=fea44969-53c7-4ef0-9214-42399010592c"},"vehicle_type_id":"4","last_reported":1751566513,"current_range_meters":8400,"station_id":"ce4bhu92rcd13ifvqi70","pricing_plan_id":"cebpf4jnsgd1na2vs0mg"},{"bike_id":"ee52bb69-c8b2-41be-a2e5-3247fedc1a39","system_id":"levelo_inurba_marseille","lat":43.24081,"lon":5.3719,"is_reserved":false,"is_disabled":false,"rental_uris":{"android":"levelo://app?vid=ee52bb69-c8b2-41be-a2e5-3247fedc1a39","ios":"levelo://app?vid=ee52bb69-c8b2-41be-a2e5-3247fedc1a39"},"vehicle_type_id":"4","last_reported":1751566513,"current_range_meters":8800,"station_id":"","pricing_plan_id":"cebpf4jnsgd1na2vs0mg"},{"bike_id":"9a7d342a-ff8e-46c4-af1e-6e0519bd67dc","system_id":"levelo_inurba_marseille","lat":43.291433,"lon":5.355899,"is_reserved":false,"is_disabled":false,"rental_uris":{"android":"levelo://app?vid=9a7d342a-ff8e-46c4-af1e-6e0519bd67dc","ios":"levelo://app?vid=9a7d342a-ff8e-46c4-af1e-6e0519bd67dc"},"vehicle_type_id":"4","last_reported":1751566513,"current_range_meters":8800,"station_id":"","pricing_plan_id":"cebpf4jnsgd1na2vs0mg"},{"bike_id":"3cc6114a-cec5-49ca-a6ca-96f8022cfaff","system_id":"levelo_inurba_marseille","lat":43.29224,"lon":5.35773,"is_reserved":false,"is_disabled":false,"rental_uris":{"android":"levelo://app?vid=3cc6114a-cec5-49ca-a6ca-96f8022cfaff","ios":"levelo://app?vid=3cc6114a-cec5-49ca-a6ca-96f8022cfaff"},"vehicle_type_id":"4","last_reported":1751566513,"current_range_meters":8800,"station_id":"ce4bhb12rcd13ifvqel0","pricing_plan_id":"cebpf4jnsgd1na2vs0mg"},{"bike_id":"1a43afe0-8a19-4189-a294-1ea434f9e02d","system_id":"levelo_inurba_marseille","lat":43.28433,"lon":5.34964,"is_reserved":false,"is_disabled":false,"rental_uris":{"android":"levelo://app?vid=1a43afe0-8a19-4189-a294-1ea434f9e02d","ios":"levelo://app?vid=1a43afe0-8a19-4189-a294-1ea434f9e02d"},"vehicle_type_id":"4","last_reported":1751566513,"current_range_meters":8800,"station_id":"ce4bhbh2rcd13ifvqepg","pricing_plan_id":"cebpf4jnsgd1na2vs0mg"},{"bike_id":"bf00a211-3496-4df0-8e4e-99767047ca09","system_id":"levelo_inurba_marseille","lat":43.29966,"lon":5.37594,"is_reserved":false,"is_disabled":false,"rental_uris":{"android":"levelo://app?vid=bf00a211-3496-4df0-8e4e-99767047ca09","ios":"levelo://app?vid=bf00a211-3496-4df0-8e4e-99767047ca09"},"vehicle_type_id":"4","last_reported":1751566513,"current_range_meters":9200,"station_id":"","pricing_plan_id":"cebpf4jnsgd1na2vs0mg"},{"bike_id":"e26ba497-efc7-4420-b8c5-9fa5e27f2ce4","system_id":"levelo_inurba_marseille","lat":43.31424,"lon":5.37066,"is_reserved":false,"is_disabled":false,"rental_uris":{"android":"levelo://app?vid=e26ba497-efc7-4420-b8c5-9fa5e27f2ce4","ios":"levelo://app?vid=e26ba497-efc7-4420-b8c5-9fa5e27f2ce4"},"vehicle_type_id":"4","last_reported":1751566513,"current_range_meters":9200,"station_id":"","pricing_plan_id":"cebpf4jnsgd1na2vs0mg"},{"bike_id":"565cebf3-dd2b-41b5-832f-200644fe7e84","system_id":"levelo_inurba_marseille","lat":43.29256,"lon":5.40889,"is_reserved":false,"is_disabled":false,"rental_uris":{"android":"levelo://app?vid=565cebf3-dd2b-41b5-832f-200644fe7e84","ios":"levelo://app?vid=565cebf3-dd2b-41b5-832f-200644fe7e84"},"vehicle_type_id":"4","last_reported":1751566513,"current_range_meters":9200,"station_id":"ce4bh192rcd13ifvqdc0","pricing_plan_id":"cebpf4jnsgd1na2vs0mg"},{"bike_id":"c5e689ef-7853-4bce-98a4-08cb7d5f042a","system_id":"levelo_inurba_marseille","lat":43.28614,"lon":5.3511,"is_reserved":false,"is_disabled":false,"rental_uris":{"android":"levelo://app?vid=c5e689ef-7853-4bce-98a4-08cb7d5f042a","ios":"levelo://app?vid=c5e689ef-7853-4bce-98a4-08cb7d5f042a"},"vehicle_type_id":"4","last_reported":1751566513,"current_range_meters":9200,"station_id":"ce4bhch2rcd13ifvqeug","pricing_plan_id":"cebpf4jnsgd1na2vs0mg"},{"bike_id":"772d4110-8af4-4d4a-bc40-d2829eef26f8","system_id":"levelo_inurba_marseille","lat":43.28619,"lon":5.35099,"is_reserved":false,"is_disabled":false,"rental_uris":{"android":"levelo://app?vid=772d4110-8af4-4d4a-bc40-d2829eef26f8","ios":"levelo://app?vid=772d4110-8af4-4d4a-bc40-d2829eef26f8"},"vehicle_type_id":"4","last_reported":1751566513,"current_range_meters":9200,"station_id":"ce4bhch2rcd13ifvqeug","pricing_plan_id":"cebpf4jnsgd1na2vs0mg"},{"bike_id":"4d0c13d6-be6f-4fa1-8774-4290b6c775b1","system_id":"levelo_inurba_marseille","lat":43.24178,"lon":5.39732,"is_reserved":false,"is_disabled":false,"rental_uris":{"android":"levelo://app?vid=4d0c13d6-be6f-4fa1-8774-4290b6c775b1","ios":"levelo://app?vid=4d0c13d6-be6f-4fa1-8774-4290b6c775b1"},"vehicle_type_id":"4","last_reported":1751566513,"current_range_meters":9200,"station_id":"ce4bhn12rcd13ifvqgpg","pricing_plan_id":"cebpf4jnsgd1na2vs0mg"},{"bike_id":"42f47eb5-b28c-43c9-bc75-06e7d2a04b7d","system_id":"levelo_inurba_marseille","lat":43.24072,"lon":5.37763,"is_reserved":false,"is_disabled":false,"rental_uris":{"android":"levelo://app?vid=42f47eb5-b28c-43c9-bc75-06e7d2a04b7d","ios":"levelo://app?vid=42f47eb5-b28c-43c9-bc75-06e7d2a04b7d"},"vehicle_type_id":"4","last_reported":1751566513,"current_range_meters":9200,"station_id":"ce4bhnp2rcd13ifvqgvg","pricing_plan_id":"cebpf4jnsgd1na2vs0mg"},{"bike_id":"b44c5f08-ff86-44db-a0f4-3b801f7529e3","system_id":"levelo_inurba_marseille","lat":43.32067,"lon":5.41527,"is_reserved":false,"is_disabled":false,"rental_uris":{"android":"levelo://app?vid=b44c5f08-ff86-44db-a0f4-3b801f7529e3","ios":"levelo://app?vid=b44c5f08-ff86-44db-a0f4-3b801f7529e3"},"vehicle_type_id":"4","last_reported":1751566513,"current_range_meters":9200,"station_id":"ce4bhq92rcd13ifvqhkg","pricing_plan_id":"cebpf4jnsgd1na2vs0mg"},{"bike_id":"22c65f34-5b9a-4ce8-b3b0-5a1a52b259a2","system_id":"levelo_inurba_marseille","lat":43.297082,"lon":5.40192,"is_reserved":false,"is_disabled":false,"rental_uris":{"android":"levelo://app?vid=22c65f34-5b9a-4ce8-b3b0-5a1a52b259a2","ios":"levelo://app?vid=22c65f34-5b9a-4ce8-b3b0-5a1a52b259a2"},"vehicle_type_id":"4","last_reported":1751566513,"current_range_meters":9600,"station_id":"","pricing_plan_id":"cebpf4jnsgd1na2vs0mg"},{"bike_id":"ae2f2be3-d7db-48d5-a107-996ba2c36c5a","system_id":"levelo_inurba_marseille","lat":43.29843,"lon":5.36264,"is_reserved":false,"is_disabled":false,"rental_uris":{"android":"levelo://app?vid=ae2f2be3-d7db-48d5-a107-996ba2c36c5a","ios":"levelo://app?vid=ae2f2be3-d7db-48d5-a107-996ba2c36c5a"},"vehicle_type_id":"4","last_reported":1751566513,"current_range_meters":9600,"station_id":"ce4bgpp2rcd13ifvqc3g","pricing_plan_id":"cebpf4jnsgd1na2vs0mg"},{"bike_id":"97772c60-611d-4aff-a906-7a8f8ae8af38","system_id":"levelo_inurba_marseille","lat":43.23196,"lon":5.35537,"is_reserved":false,"is_disabled":false,"rental_uris":{"android":"levelo://app?vid=97772c60-611d-4aff-a906-7a8f8ae8af38","ios":"levelo://app?vid=97772c60-611d-4aff-a906-7a8f8ae8af38"},"vehicle_type_id":"4","last_reported":1751566513,"current_range_meters":9600,"station_id":"ce4bhu92rcd13ifvqi70","pricing_plan_id":"cebpf4jnsgd1na2vs0mg"},{"bike_id":"ef50a132-c502-4afc-a8c2-7de6a0df1152","system_id":"levelo_inurba_marseille","lat":43.225081,"lon":5.34786,"is_reserved":false,"is_disabled":false,"rental_uris":{"android":"levelo://app?vid=ef50a132-c502-4afc-a8c2-7de6a0df1152","ios":"levelo://app?vid=ef50a132-c502-4afc-a8c2-7de6a0df1152"},"vehicle_type_id":"4","last_reported":1751566513,"current_range_meters":9600,"station_id":"st_cvj5dfep6f1abm77gieg","pricing_plan_id":"cebpf4jnsgd1na2vs0mg"},{"bike_id":"bcfd0eda-b9ab-4bec-9ca3-3f2b86617415","system_id":"levelo_inurba_marseille","lat":43.21197,"lon":5.35071,"is_reserved":false,"is_disabled":false,"rental_uris":{"android":"levelo://app?vid=bcfd0eda-b9ab-4bec-9ca3-3f2b86617415","ios":"levelo://app?vid=bcfd0eda-b9ab-4bec-9ca3-3f2b86617415"},"vehicle_type_id":"4","last_reported":1751566513,"current_range_meters":9600,"station_id":"st_cvj6sg6p6f1abm77japg","pricing_plan_id":"cebpf4jnsgd1na2vs0mg"},{"bike_id":"cd05be22-76ef-423b-b8ff-cb4b5a3863bc","system_id":"levelo_inurba_marseille","lat":43.29005,"lon":5.35611,"is_reserved":false,"is_disabled":false,"rental_uris":{"android":"levelo://app?vid=cd05be22-76ef-423b-b8ff-cb4b5a3863bc","ios":"levelo://app?vid=cd05be22-76ef-423b-b8ff-cb4b5a3863bc"},"vehicle_type_id":"4","last_reported":1751566513,"current_range_meters":10000,"station_id":"ce4bhb92rcd13ifvqen0","pricing_plan_id":"cebpf4jnsgd1na2vs0mg"},{"bike_id":"afd5e3c7-20eb-4f8a-b725-267ec2d5b4a9","system_id":"levelo_inurba_marseille","lat":43.26025,"lon":5.37546,"is_reserved":false,"is_disabled":false,"rental_uris":{"android":"levelo://app?vid=afd5e3c7-20eb-4f8a-b725-267ec2d5b4a9","ios":"levelo://app?vid=afd5e3c7-20eb-4f8a-b725-267ec2d5b4a9"},"vehicle_type_id":"4","last_reported":1751566513,"current_range_meters":10000,"station_id":"ce4bhgh2rcd13ifvqfa0","pricing_plan_id":"cebpf4jnsgd1na2vs0mg"},{"bike_id":"e36eeb04-35cc-4a52-97d7-6ba58bfe555b","system_id":"levelo_inurba_marseille","lat":43.29558,"lon":5.42273,"is_reserved":false,"is_disabled":false,"rental_uris":{"android":"levelo://app?vid=e36eeb04-35cc-4a52-97d7-6ba58bfe555b","ios":"levelo://app?vid=e36eeb04-35cc-4a52-97d7-6ba58bfe555b"},"vehicle_type_id":"4","last_reported":1751566513,"current_range_meters":10000,"station_id":"ce4bhph2rcd13ifvqhdg","pricing_plan_id":"cebpf4jnsgd1na2vs0mg"},{"bike_id":"16a8afe6-e43e-4d1b-a7bd-ed83d113735a","system_id":"levelo_inurba_marseille","lat":43.32436,"lon":5.41185,"is_reserved":false,"is_disabled":false,"rental_uris":{"android":"levelo://app?vid=16a8afe6-e43e-4d1b-a7bd-ed83d113735a","ios":"levelo://app?vid=16a8afe6-e43e-4d1b-a7bd-ed83d113735a"},"vehicle_type_id":"4","last_reported":1751566513,"current_range_meters":10800,"station_id":"","pricing_plan_id":"cebpf4jnsgd1na2vs0mg"},{"bike_id":"04e6999f-1d5b-4e51-a0b3-c0f643e5737d","system_id":"levelo_inurba_marseille","lat":43.29372,"lon":5.37876,"is_reserved":false,"is_disabled":false,"rental_uris":{"android":"levelo://app?vid=04e6999f-1d5b-4e51-a0b3-c0f643e5737d","ios":"levelo://app?vid=04e6999f-1d5b-4e51-a0b3-c0f643e5737d"},"vehicle_type_id":"4","last_reported":1751566513,"current_range_meters":10800,"station_id":"ce4bgjh2rcd13ifvqbf0","pricing_plan_id":"cebpf4jnsgd1na2vs0mg"},{"bike_id":"a9a8654e-6f50-4d7d-851f-4fe5b9efadf4","system_id":"levelo_inurba_marseille","lat":43.27378,"lon":5.36253,"is_reserved":false,"is_disabled":false,"rental_uris":{"android":"levelo://app?vid=a9a8654e-6f50-4d7d-851f-4fe5b9efadf4","ios":"levelo://app?vid=a9a8654e-6f50-4d7d-851f-4fe5b9efadf4"},"vehicle_type_id":"4","last_reported":1751566513,"current_range_meters":10800,"station_id":"ce4bhbh2rcd13ifvqeo0","pricing_plan_id":"cebpf4jnsgd1na2vs0mg"},{"bike_id":"c1658b09-1d46-4641-9341-bdc36682757d","system_id":"levelo_inurba_marseille","lat":43.2842,"lon":5.34986,"is_reserved":false,"is_disabled":false,"rental_uris":{"android":"levelo://app?vid=c1658b09-1d46-4641-9341-bdc36682757d","ios":"levelo://app?vid=c1658b09-1d46-4641-9341-bdc36682757d"},"vehicle_type_id":"4","last_reported":1751566513,"current_range_meters":10800,"station_id":"ce4bhbh2rcd13ifvqepg","pricing_plan_id":"cebpf4jnsgd1na2vs0mg"},{"bike_id":"65a09e99-6f5f-46e0-b8f3-c288eb195e49","system_id":"levelo_inurba_marseille","lat":43.2842,"lon":5.34978,"is_reserved":false,"is_disabled":false,"rental_uris":{"android":"levelo://app?vid=65a09e99-6f5f-46e0-b8f3-c288eb195e49","ios":"levelo://app?vid=65a09e99-6f5f-46e0-b8f3-c288eb195e49"},"vehicle_type_id":"4","last_reported":1751566513,"current_range_meters":10800,"station_id":"ce4bhbh2rcd13ifvqepg","pricing_plan_id":"cebpf4jnsgd1na2vs0mg"},{"bike_id":"d46c6061-6e37-4eb5-aa4f-a65f6839f2c8","system_id":"levelo_inurba_marseille","lat":43.28273,"lon":5.35057,"is_reserved":false,"is_disabled":false,"rental_uris":{"android":"levelo://app?vid=d46c6061-6e37-4eb5-aa4f-a65f6839f2c8","ios":"levelo://app?vid=d46c6061-6e37-4eb5-aa4f-a65f6839f2c8"},"vehicle_type_id":"4","last_reported":1751566513,"current_range_meters":10800,"station_id":"ce4bhbp2rcd13ifvqerg","pricing_plan_id":"cebpf4jnsgd1na2vs0mg"},{"bike_id":"341d2b3e-066e-4f2e-add4-eb9910cbfc09","system_id":"levelo_inurba_marseille","lat":43.25868,"lon":5.39896,"is_reserved":false,"is_disabled":false,"rental_uris":{"android":"levelo://app?vid=341d2b3e-066e-4f2e-add4-eb9910cbfc09","ios":"levelo://app?vid=341d2b3e-066e-4f2e-add4-eb9910cbfc09"},"vehicle_type_id":"4","last_reported":1751566513,"current_range_meters":10800,"station_id":"ce4bhl92rcd13ifvqghg","pricing_plan_id":"cebpf4jnsgd1na2vs0mg"},{"bike_id":"7f31cae1-9e47-40be-af25-cafa3596a3cd","system_id":"levelo_inurba_marseille","lat":43.25935,"lon":5.40883,"is_reserved":false,"is_disabled":false,"rental_uris":{"android":"levelo://app?vid=7f31cae1-9e47-40be-af25-cafa3596a3cd","ios":"levelo://app?vid=7f31cae1-9e47-40be-af25-cafa3596a3cd"},"vehicle_type_id":"4","last_reported":1751566513,"current_range_meters":10800,"station_id":"ce4bhm92rcd13ifvqglg","pricing_plan_id":"cebpf4jnsgd1na2vs0mg"},{"bike_id":"41fa6f69-a291-462a-ba30-06d386532ee0","system_id":"levelo_inurba_marseille","lat":43.29803,"lon":5.39345,"is_reserved":false,"is_disabled":false,"rental_uris":{"android":"levelo://app?vid=41fa6f69-a291-462a-ba30-06d386532ee0","ios":"levelo://app?vid=41fa6f69-a291-462a-ba30-06d386532ee0"},"vehicle_type_id":"4","last_reported":1751566513,"current_range_meters":10800,"station_id":"chh1huq6cuj3fo74tm60","pricing_plan_id":"cebpf4jnsgd1na2vs0mg"},{"bike_id":"0e030323-4386-4e72-9a0d-0f6a2ff539de","system_id":"levelo_inurba_marseille","lat":43.29612,"lon":5.40531,"is_reserved":false,"is_disabled":false,"rental_uris":{"android":"levelo://app?vid=0e030323-4386-4e72-9a0d-0f6a2ff539de","ios":"levelo://app?vid=0e030323-4386-4e72-9a0d-0f6a2ff539de"},"vehicle_type_id":"4","last_reported":1751566513,"current_range_meters":11600,"station_id":"","pricing_plan_id":"cebpf4jnsgd1na2vs0mg"},{"bike_id":"b7a190bb-0b58-4561-847c-f01ec571983c","system_id":"levelo_inurba_marseille","lat":43.28419,"lon":5.34995,"is_reserved":false,"is_disabled":false,"rental_uris":{"android":"levelo://app?vid=b7a190bb-0b58-4561-847c-f01ec571983c","ios":"levelo://app?vid=b7a190bb-0b58-4561-847c-f01ec571983c"},"vehicle_type_id":"4","last_reported":1751566513,"current_range_meters":11600,"station_id":"ce4bhbh2rcd13ifvqepg","pricing_plan_id":"cebpf4jnsgd1na2vs0mg"},{"bike_id":"56ac50f9-22b4-431c-bb12-ddfd8caea5ea","system_id":"levelo_inurba_marseille","lat":43.26204,"lon":5.37443,"is_reserved":false,"is_disabled":false,"rental_uris":{"android":"levelo://app?vid=56ac50f9-22b4-431c-bb12-ddfd8caea5ea","ios":"levelo://app?vid=56ac50f9-22b4-431c-bb12-ddfd8caea5ea"},"vehicle_type_id":"4","last_reported":1751566513,"current_range_meters":11600,"station_id":"ce4bhgp2rcd13ifvqfc0","pricing_plan_id":"cebpf4jnsgd1na2vs0mg"},{"bike_id":"7ae3c53c-b57b-4a79-ac7f-b6a845570518","system_id":"levelo_inurba_marseille","lat":43.26227,"lon":5.40448,"is_reserved":false,"is_disabled":false,"rental_uris":{"android":"levelo://app?vid=7ae3c53c-b57b-4a79-ac7f-b6a845570518","ios":"levelo://app?vid=7ae3c53c-b57b-4a79-ac7f-b6a845570518"},"vehicle_type_id":"4","last_reported":1751566513,"current_range_meters":12000,"station_id":"ce4bhmh2rcd13ifvqgmg","pricing_plan_id":"cebpf4jnsgd1na2vs0mg"},{"bike_id":"a588469b-12ca-41c6-8c6f-3f3bda5b7f15","system_id":"levelo_inurba_marseille","lat":43.31565,"lon":5.38383,"is_reserved":false,"is_disabled":false,"rental_uris":{"android":"levelo://app?vid=a588469b-12ca-41c6-8c6f-3f3bda5b7f15","ios":"levelo://app?vid=a588469b-12ca-41c6-8c6f-3f3bda5b7f15"},"vehicle_type_id":"4","last_reported":1751566513,"current_range_meters":12400,"station_id":"","pricing_plan_id":"cebpf4jnsgd1na2vs0mg"},{"bike_id":"b81e856b-6a41-42e3-9126-c76245b7d40d","system_id":"levelo_inurba_marseille","lat":43.29059,"lon":5.35891,"is_reserved":false,"is_disabled":false,"rental_uris":{"android":"levelo://app?vid=b81e856b-6a41-42e3-9126-c76245b7d40d","ios":"levelo://app?vid=b81e856b-6a41-42e3-9126-c76245b7d40d"},"vehicle_type_id":"4","last_reported":1751566513,"current_range_meters":12400,"station_id":"ce4bha92rcd13ifvqeg0","pricing_plan_id":"cebpf4jnsgd1na2vs0mg"},{"bike_id":"4399d7c3-f84e-4e37-8732-8ee9261c53e6","system_id":"levelo_inurba_marseille","lat":43.28415,"lon":5.34984,"is_reserved":false,"is_disabled":false,"rental_uris":{"android":"levelo://app?vid=4399d7c3-f84e-4e37-8732-8ee9261c53e6","ios":"levelo://app?vid=4399d7c3-f84e-4e37-8732-8ee9261c53e6"},"vehicle_type_id":"4","last_reported":1751566513,"current_range_meters":12400,"station_id":"ce4bhbh2rcd13ifvqepg","pricing_plan_id":"cebpf4jnsgd1na2vs0mg"},{"bike_id":"912d67f3-78e7-48fd-8929-37f0572cfee4","system_id":"levelo_inurba_marseille","lat":43.26371,"lon":5.37384,"is_reserved":false,"is_disabled":false,"rental_uris":{"android":"levelo://app?vid=912d67f3-78e7-48fd-8929-37f0572cfee4","ios":"levelo://app?vid=912d67f3-78e7-48fd-8929-37f0572cfee4"},"vehicle_type_id":"4","last_reported":1751566513,"current_range_meters":12800,"station_id":"","pricing_plan_id":"cebpf4jnsgd1na2vs0mg"},{"bike_id":"bccb34f9-0872-4b0d-9793-613ffc5c3e0b","system_id":"levelo_inurba_marseille","lat":43.27608,"lon":5.36119,"is_reserved":false,"is_disabled":false,"rental_uris":{"android":"levelo://app?vid=bccb34f9-0872-4b0d-9793-613ffc5c3e0b","ios":"levelo://app?vid=bccb34f9-0872-4b0d-9793-613ffc5c3e0b"},"vehicle_type_id":"4","last_reported":1751566513,"current_range_meters":12800,"station_id":"ce4bgj92rcd13ifvqbe0","pricing_plan_id":"cebpf4jnsgd1na2vs0mg"},{"bike_id":"60ac0866-6cab-4a94-8395-34c49f9e27c1","system_id":"levelo_inurba_marseille","lat":43.27376,"lon":5.36252,"is_reserved":false,"is_disabled":false,"rental_uris":{"android":"levelo://app?vid=60ac0866-6cab-4a94-8395-34c49f9e27c1","ios":"levelo://app?vid=60ac0866-6cab-4a94-8395-34c49f9e27c1"},"vehicle_type_id":"4","last_reported":1751566513,"current_range_meters":12800,"station_id":"ce4bhbh2rcd13ifvqeo0","pricing_plan_id":"cebpf4jnsgd1na2vs0mg"},{"bike_id":"3b753967-68ac-497d-b237-6eeb00254464","system_id":"levelo_inurba_marseille","lat":43.28428,"lon":5.3499,"is_reserved":false,"is_disabled":false,"rental_uris":{"android":"levelo://app?vid=3b753967-68ac-497d-b237-6eeb00254464","ios":"levelo://app?vid=3b753967-68ac-497d-b237-6eeb00254464"},"vehicle_type_id":"4","last_reported":1751566513,"current_range_meters":12800,"station_id":"ce4bhbh2rcd13ifvqepg","pricing_plan_id":"cebpf4jnsgd1na2vs0mg"},{"bike_id":"f95408dd-3b19-4aaa-a932-8d33a195d18c","system_id":"levelo_inurba_marseille","lat":43.26201,"lon":5.37442,"is_reserved":false,"is_disabled":false,"rental_uris":{"android":"levelo://app?vid=f95408dd-3b19-4aaa-a932-8d33a195d18c","ios":"levelo://app?vid=f95408dd-3b19-4aaa-a932-8d33a195d18c"},"vehicle_type_id":"4","last_reported":1751566513,"current_range_meters":12800,"station_id":"ce4bhgp2rcd13ifvqfc0","pricing_plan_id":"cebpf4jnsgd1na2vs0mg"},{"bike_id":"e391fd11-574f-4d19-b3ca-1a8c66b968f9","system_id":"levelo_inurba_marseille","lat":43.23972,"lon":5.36654,"is_reserved":false,"is_disabled":false,"rental_uris":{"android":"levelo://app?vid=e391fd11-574f-4d19-b3ca-1a8c66b968f9","ios":"levelo://app?vid=e391fd11-574f-4d19-b3ca-1a8c66b968f9"},"vehicle_type_id":"4","last_reported":1751566513,"current_range_meters":12800,"station_id":"ce4bhi12rcd13ifvqfp0","pricing_plan_id":"cebpf4jnsgd1na2vs0mg"},{"bike_id":"e5165384-1995-4f9f-a832-726a1a9145c9","system_id":"levelo_inurba_marseille","lat":43.31721,"lon":5.42395,"is_reserved":false,"is_disabled":false,"rental_uris":{"android":"levelo://app?vid=e5165384-1995-4f9f-a832-726a1a9145c9","ios":"levelo://app?vid=e5165384-1995-4f9f-a832-726a1a9145c9"},"vehicle_type_id":"4","last_reported":1751566513,"current_range_meters":12800,"station_id":"ce4bhp92rcd13ifvqhbg","pricing_plan_id":"cebpf4jnsgd1na2vs0mg"},{"bike_id":"a50539c5-97a4-4cff-893b-4b6e1340c9f8","system_id":"levelo_inurba_marseille","lat":43.3372,"lon":5.39188,"is_reserved":false,"is_disabled":false,"rental_uris":{"android":"levelo://app?vid=a50539c5-97a4-4cff-893b-4b6e1340c9f8","ios":"levelo://app?vid=a50539c5-97a4-4cff-893b-4b6e1340c9f8"},"vehicle_type_id":"4","last_reported":1751566513,"current_range_meters":12800,"station_id":"ce4bhr92rcd13ifvqhsg","pricing_plan_id":"cebpf4jnsgd1na2vs0mg"},{"bike_id":"1a75a1ec-a87a-493d-a59d-140f1e240a24","system_id":"levelo_inurba_marseille","lat":43.23195,"lon":5.35556,"is_reserved":false,"is_disabled":false,"rental_uris":{"android":"levelo://app?vid=1a75a1ec-a87a-493d-a59d-140f1e240a24","ios":"levelo://app?vid=1a75a1ec-a87a-493d-a59d-140f1e240a24"},"vehicle_type_id":"4","last_reported":1751566513,"current_range_meters":12800,"station_id":"ce4bhu92rcd13ifvqi70","pricing_plan_id":"cebpf4jnsgd1na2vs0mg"},{"bike_id":"ea371ade-3c7e-4b5c-9c58-752a1177dd7f","system_id":"levelo_inurba_marseille","lat":43.30953,"lon":5.39018,"is_reserved":false,"is_disabled":false,"rental_uris":{"android":"levelo://app?vid=ea371ade-3c7e-4b5c-9c58-752a1177dd7f","ios":"levelo://app?vid=ea371ade-3c7e-4b5c-9c58-752a1177dd7f"},"vehicle_type_id":"4","last_reported":1751566513,"current_range_meters":13600,"station_id":"ce4bgup2rcd13ifvqco0","pricing_plan_id":"cebpf4jnsgd1na2vs0mg"},{"bike_id":"6d4a35b0-c764-4504-8a12-c2eb55e7aaac","system_id":"levelo_inurba_marseille","lat":43.28414,"lon":5.34992,"is_reserved":false,"is_disabled":false,"rental_uris":{"android":"levelo://app?vid=6d4a35b0-c764-4504-8a12-c2eb55e7aaac","ios":"levelo://app?vid=6d4a35b0-c764-4504-8a12-c2eb55e7aaac"},"vehicle_type_id":"4","last_reported":1751566513,"current_range_meters":13600,"station_id":"ce4bhbh2rcd13ifvqepg","pricing_plan_id":"cebpf4jnsgd1na2vs0mg"},{"bike_id":"8b3755fc-2284-401e-bc3a-14d8474e8e49","system_id":"levelo_inurba_marseille","lat":43.28613,"lon":5.35102,"is_reserved":false,"is_disabled":false,"rental_uris":{"android":"levelo://app?vid=8b3755fc-2284-401e-bc3a-14d8474e8e49","ios":"levelo://app?vid=8b3755fc-2284-401e-bc3a-14d8474e8e49"},"vehicle_type_id":"4","last_reported":1751566513,"current_range_meters":13600,"station_id":"ce4bhch2rcd13ifvqeug","pricing_plan_id":"cebpf4jnsgd1na2vs0mg"},{"bike_id":"1e72282f-57fe-4941-8a32-3b216e13345e","system_id":"levelo_inurba_marseille","lat":43.32338,"lon":5.40619,"is_reserved":false,"is_disabled":false,"rental_uris":{"android":"levelo://app?vid=1e72282f-57fe-4941-8a32-3b216e13345e","ios":"levelo://app?vid=1e72282f-57fe-4941-8a32-3b216e13345e"},"vehicle_type_id":"4","last_reported":1751566513,"current_range_meters":13600,"station_id":"ce4bhq92rcd13ifvqhjg","pricing_plan_id":"cebpf4jnsgd1na2vs0mg"},{"bike_id":"8b91b684-1fac-4485-aafb-c24fa319a6b5","system_id":"levelo_inurba_marseille","lat":43.29554,"lon":5.42291,"is_reserved":false,"is_disabled":false,"rental_uris":{"android":"levelo://app?vid=8b91b684-1fac-4485-aafb-c24fa319a6b5","ios":"levelo://app?vid=8b91b684-1fac-4485-aafb-c24fa319a6b5"},"vehicle_type_id":"4","last_reported":1751566513,"current_range_meters":14000,"station_id":"ce4bhph2rcd13ifvqhdg","pricing_plan_id":"cebpf4jnsgd1na2vs0mg"},{"bike_id":"ba154a12-11bd-42a5-958a-5992f5d043d1","system_id":"levelo_inurba_marseille","lat":43.30512,"lon":5.37097,"is_reserved":false,"is_disabled":false,"rental_uris":{"android":"levelo://app?vid=ba154a12-11bd-42a5-958a-5992f5d043d1","ios":"levelo://app?vid=ba154a12-11bd-42a5-958a-5992f5d043d1"},"vehicle_type_id":"4","last_reported":1751566513,"current_range_meters":14400,"station_id":"","pricing_plan_id":"cebpf4jnsgd1na2vs0mg"},{"bike_id":"5552ee02-45bd-4464-b3a7-e22532be63d4","system_id":"levelo_inurba_marseille","lat":43.30277,"lon":5.37691,"is_reserved":false,"is_disabled":false,"rental_uris":{"android":"levelo://app?vid=5552ee02-45bd-4464-b3a7-e22532be63d4","ios":"levelo://app?vid=5552ee02-45bd-4464-b3a7-e22532be63d4"},"vehicle_type_id":"4","last_reported":1751566513,"current_range_meters":14400,"station_id":"ce4bguh2rcd13ifvqcj0","pricing_plan_id":"cebpf4jnsgd1na2vs0mg"},{"bike_id":"88795158-d4e2-4c6d-803c-b4e9d907e861","system_id":"levelo_inurba_marseille","lat":43.28274,"lon":5.350712,"is_reserved":false,"is_disabled":false,"rental_uris":{"android":"levelo://app?vid=88795158-d4e2-4c6d-803c-b4e9d907e861","ios":"levelo://app?vid=88795158-d4e2-4c6d-803c-b4e9d907e861"},"vehicle_type_id":"4","last_reported":1751566513,"current_range_meters":14400,"station_id":"ce4bhbp2rcd13ifvqerg","pricing_plan_id":"cebpf4jnsgd1na2vs0mg"},{"bike_id":"67e370c7-3e0a-4306-80ff-640d5619aac6","system_id":"levelo_inurba_marseille","lat":43.26196,"lon":5.37925,"is_reserved":false,"is_disabled":false,"rental_uris":{"android":"levelo://app?vid=67e370c7-3e0a-4306-80ff-640d5619aac6","ios":"levelo://app?vid=67e370c7-3e0a-4306-80ff-640d5619aac6"},"vehicle_type_id":"4","last_reported":1751566513,"current_range_meters":14400,"station_id":"ce4bhjp2rcd13ifvqg90","pricing_plan_id":"cebpf4jnsgd1na2vs0mg"},{"bike_id":"0f192a53-6a80-441f-9705-3495103aea52","system_id":"levelo_inurba_marseille","lat":43.28614,"lon":5.35108,"is_reserved":false,"is_disabled":false,"rental_uris":{"android":"levelo://app?vid=0f192a53-6a80-441f-9705-3495103aea52","ios":"levelo://app?vid=0f192a53-6a80-441f-9705-3495103aea52"},"vehicle_type_id":"4","last_reported":1751566513,"current_range_meters":14800,"station_id":"ce4bhch2rcd13ifvqeug","pricing_plan_id":"cebpf4jnsgd1na2vs0mg"},{"bike_id":"23f328de-96e5-4708-8842-4569fa0b4fc2","system_id":"levelo_inurba_marseille","lat":43.23967,"lon":5.36627,"is_reserved":false,"is_disabled":false,"rental_uris":{"android":"levelo://app?vid=23f328de-96e5-4708-8842-4569fa0b4fc2","ios":"levelo://app?vid=23f328de-96e5-4708-8842-4569fa0b4fc2"},"vehicle_type_id":"4","last_reported":1751566513,"current_range_meters":14800,"station_id":"ce4bhi12rcd13ifvqfp0","pricing_plan_id":"cebpf4jnsgd1na2vs0mg"},{"bike_id":"37b84a38-055a-4a6e-a56a-8ff3d0c1b2ec","system_id":"levelo_inurba_marseille","lat":43.21192,"lon":5.35067,"is_reserved":false,"is_disabled":false,"rental_uris":{"android":"levelo://app?vid=37b84a38-055a-4a6e-a56a-8ff3d0c1b2ec","ios":"levelo://app?vid=37b84a38-055a-4a6e-a56a-8ff3d0c1b2ec"},"vehicle_type_id":"4","last_reported":1751566513,"current_range_meters":14800,"station_id":"st_cvj6sg6p6f1abm77japg","pricing_plan_id":"cebpf4jnsgd1na2vs0mg"},{"bike_id":"44a9443d-3135-4a25-856d-9bda0e293f4a","system_id":"levelo_inurba_marseille","lat":43.284139,"lon":5.349944,"is_reserved":false,"is_disabled":false,"rental_uris":{"android":"levelo://app?vid=44a9443d-3135-4a25-856d-9bda0e293f4a","ios":"levelo://app?vid=44a9443d-3135-4a25-856d-9bda0e293f4a"},"vehicle_type_id":"4","last_reported":1751566513,"current_range_meters":15200,"station_id":"ce4bhbh2rcd13ifvqepg","pricing_plan_id":"cebpf4jnsgd1na2vs0mg"},{"bike_id":"01d94b29-8073-447a-9db0-e3679d3fa29e","system_id":"levelo_inurba_marseille","lat":43.28271,"lon":5.35053,"is_reserved":false,"is_disabled":false,"rental_uris":{"android":"levelo://app?vid=01d94b29-8073-447a-9db0-e3679d3fa29e","ios":"levelo://app?vid=01d94b29-8073-447a-9db0-e3679d3fa29e"},"vehicle_type_id":"4","last_reported":1751566513,"current_range_meters":15200,"station_id":"ce4bhbp2rcd13ifvqerg","pricing_plan_id":"cebpf4jnsgd1na2vs0mg"},{"bike_id":"fadb4ada-0d4d-4f39-8db8-6e571198b2d2","system_id":"levelo_inurba_marseille","lat":43.28617,"lon":5.35109,"is_reserved":false,"is_disabled":false,"rental_uris":{"android":"levelo://app?vid=fadb4ada-0d4d-4f39-8db8-6e571198b2d2","ios":"levelo://app?vid=fadb4ada-0d4d-4f39-8db8-6e571198b2d2"},"vehicle_type_id":"4","last_reported":1751566513,"current_range_meters":15200,"station_id":"ce4bhch2rcd13ifvqeug","pricing_plan_id":"cebpf4jnsgd1na2vs0mg"},{"bike_id":"e99f07fa-756f-44b5-ba7e-c3bc9046d58c","system_id":"levelo_inurba_marseille","lat":43.28603,"lon":5.35121,"is_reserved":false,"is_disabled":false,"rental_uris":{"android":"levelo://app?vid=e99f07fa-756f-44b5-ba7e-c3bc9046d58c","ios":"levelo://app?vid=e99f07fa-756f-44b5-ba7e-c3bc9046d58c"},"vehicle_type_id":"4","last_reported":1751566513,"current_range_meters":15200,"station_id":"ce4bhch2rcd13ifvqeug","pricing_plan_id":"cebpf4jnsgd1na2vs0mg"},{"bike_id":"d99f733a-c0aa-4e65-9ea7-103a5ca6c76f","system_id":"levelo_inurba_marseille","lat":43.31887,"lon":5.40736,"is_reserved":false,"is_disabled":false,"rental_uris":{"android":"levelo://app?vid=d99f733a-c0aa-4e65-9ea7-103a5ca6c76f","ios":"levelo://app?vid=d99f733a-c0aa-4e65-9ea7-103a5ca6c76f"},"vehicle_type_id":"4","last_reported":1751566513,"current_range_meters":15200,"station_id":"ce4bhq12rcd13ifvqhig","pricing_plan_id":"cebpf4jnsgd1na2vs0mg"},{"bike_id":"4d4995e7-0bba-4ac2-a238-afd84a5e99b5","system_id":"levelo_inurba_marseille","lat":43.304848,"lon":5.398345,"is_reserved":false,"is_disabled":false,"rental_uris":{"android":"levelo://app?vid=4d4995e7-0bba-4ac2-a238-afd84a5e99b5","ios":"levelo://app?vid=4d4995e7-0bba-4ac2-a238-afd84a5e99b5"},"vehicle_type_id":"4","last_reported":1751566513,"current_range_meters":16000,"station_id":"","pricing_plan_id":"cebpf4jnsgd1na2vs0mg"},{"bike_id":"39865cd7-27d9-477e-99c0-f0ff8dfb8629","system_id":"levelo_inurba_marseille","lat":43.21226,"lon":5.3504,"is_reserved":false,"is_disabled":false,"rental_uris":{"android":"levelo://app?vid=39865cd7-27d9-477e-99c0-f0ff8dfb8629","ios":"levelo://app?vid=39865cd7-27d9-477e-99c0-f0ff8dfb8629"},"vehicle_type_id":"4","last_reported":1751566513,"current_range_meters":16000,"station_id":"","pricing_plan_id":"cebpf4jnsgd1na2vs0mg"},{"bike_id":"0c4b7fdb-b39e-49b3-a2b0-ae3d0f43e89d","system_id":"levelo_inurba_marseille","lat":43.32904,"lon":5.40585,"is_reserved":false,"is_disabled":false,"rental_uris":{"android":"levelo://app?vid=0c4b7fdb-b39e-49b3-a2b0-ae3d0f43e89d","ios":"levelo://app?vid=0c4b7fdb-b39e-49b3-a2b0-ae3d0f43e89d"},"vehicle_type_id":"4","last_reported":1751566513,"current_range_meters":16000,"station_id":"","pricing_plan_id":"cebpf4jnsgd1na2vs0mg"},{"bike_id":"175513bb-dce2-48e2-83c8-1e9f1cb23cd0","system_id":"levelo_inurba_marseille","lat":43.286255,"lon":5.412651,"is_reserved":false,"is_disabled":false,"rental_uris":{"android":"levelo://app?vid=175513bb-dce2-48e2-83c8-1e9f1cb23cd0","ios":"levelo://app?vid=175513bb-dce2-48e2-83c8-1e9f1cb23cd0"},"vehicle_type_id":"4","last_reported":1751566513,"current_range_meters":16000,"station_id":"","pricing_plan_id":"cebpf4jnsgd1na2vs0mg"},{"bike_id":"d6a97fc8-7c5d-4b77-9d38-d22003db8fe5","system_id":"levelo_inurba_marseille","lat":43.34721,"lon":5.36602,"is_reserved":false,"is_disabled":false,"rental_uris":{"android":"levelo://app?vid=d6a97fc8-7c5d-4b77-9d38-d22003db8fe5","ios":"levelo://app?vid=d6a97fc8-7c5d-4b77-9d38-d22003db8fe5"},"vehicle_type_id":"4","last_reported":1751566513,"current_range_meters":16000,"station_id":"","pricing_plan_id":"cebpf4jnsgd1na2vs0mg"},{"bike_id":"beeef72b-2a55-470c-aad5-b5f71ce24900","system_id":"levelo_inurba_marseille","lat":43.2737,"lon":5.36257,"is_reserved":false,"is_disabled":false,"rental_uris":{"android":"levelo://app?vid=beeef72b-2a55-470c-aad5-b5f71ce24900","ios":"levelo://app?vid=beeef72b-2a55-470c-aad5-b5f71ce24900"},"vehicle_type_id":"4","last_reported":1751566513,"current_range_meters":16000,"station_id":"ce4bhbh2rcd13ifvqeo0","pricing_plan_id":"cebpf4jnsgd1na2vs0mg"},{"bike_id":"2596bf02-4b4e-4a73-96c0-306657fb5dc9","system_id":"levelo_inurba_marseille","lat":43.26212,"lon":5.37435,"is_reserved":false,"is_disabled":false,"rental_uris":{"android":"levelo://app?vid=2596bf02-4b4e-4a73-96c0-306657fb5dc9","ios":"levelo://app?vid=2596bf02-4b4e-4a73-96c0-306657fb5dc9"},"vehicle_type_id":"4","last_reported":1751566513,"current_range_meters":16000,"station_id":"ce4bhgp2rcd13ifvqfc0","pricing_plan_id":"cebpf4jnsgd1na2vs0mg"},{"bike_id":"429fa18c-0d06-4a5d-a9f7-cd69cbe19891","system_id":"levelo_inurba_marseille","lat":43.25502,"lon":5.37643,"is_reserved":false,"is_disabled":false,"rental_uris":{"android":"levelo://app?vid=429fa18c-0d06-4a5d-a9f7-cd69cbe19891","ios":"levelo://app?vid=429fa18c-0d06-4a5d-a9f7-cd69cbe19891"},"vehicle_type_id":"4","last_reported":1751566513,"current_range_meters":16000,"station_id":"ce4bhh12rcd13ifvqff0","pricing_plan_id":"cebpf4jnsgd1na2vs0mg"},{"bike_id":"7c67e7dd-7a7f-426b-9249-641f91643932","system_id":"levelo_inurba_marseille","lat":43.24188,"lon":5.36378,"is_reserved":false,"is_disabled":false,"rental_uris":{"android":"levelo://app?vid=7c67e7dd-7a7f-426b-9249-641f91643932","ios":"levelo://app?vid=7c67e7dd-7a7f-426b-9249-641f91643932"},"vehicle_type_id":"4","last_reported":1751566513,"current_range_meters":16000,"station_id":"cpo36qri1sfpv3e86is0","pricing_plan_id":"cebpf4jnsgd1na2vs0mg"},{"bike_id":"a6715104-7492-4ec6-a996-23050baf8551","system_id":"levelo_inurba_marseille","lat":43.2253,"lon":5.34775,"is_reserved":false,"is_disabled":false,"rental_uris":{"android":"levelo://app?vid=a6715104-7492-4ec6-a996-23050baf8551","ios":"levelo://app?vid=a6715104-7492-4ec6-a996-23050baf8551"},"vehicle_type_id":"4","last_reported":1751566513,"current_range_meters":16000,"station_id":"st_cvj5dfep6f1abm77gieg","pricing_plan_id":"cebpf4jnsgd1na2vs0mg"},{"bike_id":"0b03e171-2415-4997-a909-94fffa24318c","system_id":"levelo_inurba_marseille","lat":43.32055,"lon":5.40932,"is_reserved":false,"is_disabled":false,"rental_uris":{"android":"levelo://app?vid=0b03e171-2415-4997-a909-94fffa24318c","ios":"levelo://app?vid=0b03e171-2415-4997-a909-94fffa24318c"},"vehicle_type_id":"4","last_reported":1751566513,"current_range_meters":16400,"station_id":"","pricing_plan_id":"cebpf4jnsgd1na2vs0mg"},{"bike_id":"af213e10-6367-4cec-af17-63aa54d97712","system_id":"levelo_inurba_marseille","lat":43.27652,"lon":5.36089,"is_reserved":false,"is_disabled":false,"rental_uris":{"android":"levelo://app?vid=af213e10-6367-4cec-af17-63aa54d97712","ios":"levelo://app?vid=af213e10-6367-4cec-af17-63aa54d97712"},"vehicle_type_id":"4","last_reported":1751566513,"current_range_meters":16400,"station_id":"ce4bgj92rcd13ifvqbe0","pricing_plan_id":"cebpf4jnsgd1na2vs0mg"},{"bike_id":"7ab1a795-ce92-4d6c-a196-1a8646dda6f4","system_id":"levelo_inurba_marseille","lat":43.28428,"lon":5.34978,"is_reserved":false,"is_disabled":false,"rental_uris":{"android":"levelo://app?vid=7ab1a795-ce92-4d6c-a196-1a8646dda6f4","ios":"levelo://app?vid=7ab1a795-ce92-4d6c-a196-1a8646dda6f4"},"vehicle_type_id":"4","last_reported":1751566513,"current_range_meters":16400,"station_id":"ce4bhbh2rcd13ifvqepg","pricing_plan_id":"cebpf4jnsgd1na2vs0mg"},{"bike_id":"603f229c-09b9-4145-9510-d250a8eff49b","system_id":"levelo_inurba_marseille","lat":43.28621,"lon":5.35099,"is_reserved":false,"is_disabled":false,"rental_uris":{"android":"levelo://app?vid=603f229c-09b9-4145-9510-d250a8eff49b","ios":"levelo://app?vid=603f229c-09b9-4145-9510-d250a8eff49b"},"vehicle_type_id":"4","last_reported":1751566513,"current_range_meters":16400,"station_id":"ce4bhch2rcd13ifvqeug","pricing_plan_id":"cebpf4jnsgd1na2vs0mg"},{"bike_id":"daf236bc-d549-4044-81d7-3a2d3c041a44","system_id":"levelo_inurba_marseille","lat":43.26195,"lon":5.37446,"is_reserved":false,"is_disabled":false,"rental_uris":{"android":"levelo://app?vid=daf236bc-d549-4044-81d7-3a2d3c041a44","ios":"levelo://app?vid=daf236bc-d549-4044-81d7-3a2d3c041a44"},"vehicle_type_id":"4","last_reported":1751566513,"current_range_meters":16400,"station_id":"ce4bhgp2rcd13ifvqfc0","pricing_plan_id":"cebpf4jnsgd1na2vs0mg"},{"bike_id":"6ee47da4-9cb7-4584-be45-580a2eecea99","system_id":"levelo_inurba_marseille","lat":43.25536,"lon":5.3765,"is_reserved":false,"is_disabled":false,"rental_uris":{"android":"levelo://app?vid=6ee47da4-9cb7-4584-be45-580a2eecea99","ios":"levelo://app?vid=6ee47da4-9cb7-4584-be45-580a2eecea99"},"vehicle_type_id":"4","last_reported":1751566513,"current_range_meters":16400,"station_id":"ce4bhh12rcd13ifvqff0","pricing_plan_id":"cebpf4jnsgd1na2vs0mg"},{"bike_id":"f11f97b5-0869-4086-b9c0-f1dc87545c82","system_id":"levelo_inurba_marseille","lat":43.23191,"lon":5.35555,"is_reserved":false,"is_disabled":false,"rental_uris":{"android":"levelo://app?vid=f11f97b5-0869-4086-b9c0-f1dc87545c82","ios":"levelo://app?vid=f11f97b5-0869-4086-b9c0-f1dc87545c82"},"vehicle_type_id":"4","last_reported":1751566513,"current_range_meters":16400,"station_id":"ce4bhu92rcd13ifvqi70","pricing_plan_id":"cebpf4jnsgd1na2vs0mg"},{"bike_id":"dfbce5f2-d4be-4fb4-b96e-89f73ba79196","system_id":"levelo_inurba_marseille","lat":43.211916,"lon":5.350703,"is_reserved":false,"is_disabled":false,"rental_uris":{"android":"levelo://app?vid=dfbce5f2-d4be-4fb4-b96e-89f73ba79196","ios":"levelo://app?vid=dfbce5f2-d4be-4fb4-b96e-89f73ba79196"},"vehicle_type_id":"4","last_reported":1751566513,"current_range_meters":16400,"station_id":"st_cvj6sg6p6f1abm77japg","pricing_plan_id":"cebpf4jnsgd1na2vs0mg"},{"bike_id":"0c5e46df-9adb-4aa5-842c-17a1961c0106","system_id":"levelo_inurba_marseille","lat":43.27997,"lon":5.40696,"is_reserved":false,"is_disabled":false,"rental_uris":{"android":"levelo://app?vid=0c5e46df-9adb-4aa5-842c-17a1961c0106","ios":"levelo://app?vid=0c5e46df-9adb-4aa5-842c-17a1961c0106"},"vehicle_type_id":"4","last_reported":1751566513,"current_range_meters":16800,"station_id":"","pricing_plan_id":"cebpf4jnsgd1na2vs0mg"},{"bike_id":"cc04118e-9312-4bf8-9106-d64e829afbaa","system_id":"levelo_inurba_marseille","lat":43.21228,"lon":5.35039,"is_reserved":false,"is_disabled":false,"rental_uris":{"android":"levelo://app?vid=cc04118e-9312-4bf8-9106-d64e829afbaa","ios":"levelo://app?vid=cc04118e-9312-4bf8-9106-d64e829afbaa"},"vehicle_type_id":"4","last_reported":1751566513,"current_range_meters":16800,"station_id":"","pricing_plan_id":"cebpf4jnsgd1na2vs0mg"},{"bike_id":"68529846-28e0-4f2c-bde7-965feeaa513a","system_id":"levelo_inurba_marseille","lat":43.29422,"lon":5.3861,"is_reserved":false,"is_disabled":false,"rental_uris":{"android":"levelo://app?vid=68529846-28e0-4f2c-bde7-965feeaa513a","ios":"levelo://app?vid=68529846-28e0-4f2c-bde7-965feeaa513a"},"vehicle_type_id":"4","last_reported":1751566513,"current_range_meters":16800,"station_id":"ce4bh2h2rcd13ifvqdh0","pricing_plan_id":"cebpf4jnsgd1na2vs0mg"},{"bike_id":"efd39573-3e62-4943-bd41-7a5e046acff7","system_id":"levelo_inurba_marseille","lat":43.27374,"lon":5.36257,"is_reserved":false,"is_disabled":false,"rental_uris":{"android":"levelo://app?vid=efd39573-3e62-4943-bd41-7a5e046acff7","ios":"levelo://app?vid=efd39573-3e62-4943-bd41-7a5e046acff7"},"vehicle_type_id":"4","last_reported":1751566513,"current_range_meters":16800,"station_id":"ce4bhbh2rcd13ifvqeo0","pricing_plan_id":"cebpf4jnsgd1na2vs0mg"},{"bike_id":"8ebe74e9-6cc0-4208-af0e-9e8908d07919","system_id":"levelo_inurba_marseille","lat":43.28428,"lon":5.34969,"is_reserved":false,"is_disabled":false,"rental_uris":{"android":"levelo://app?vid=8ebe74e9-6cc0-4208-af0e-9e8908d07919","ios":"levelo://app?vid=8ebe74e9-6cc0-4208-af0e-9e8908d07919"},"vehicle_type_id":"4","last_reported":1751566513,"current_range_meters":16800,"station_id":"ce4bhbh2rcd13ifvqepg","pricing_plan_id":"cebpf4jnsgd1na2vs0mg"},{"bike_id":"80a421f9-82c6-43e6-aaa0-88dda18c110c","system_id":"levelo_inurba_marseille","lat":43.28431,"lon":5.3499,"is_reserved":false,"is_disabled":false,"rental_uris":{"android":"levelo://app?vid=80a421f9-82c6-43e6-aaa0-88dda18c110c","ios":"levelo://app?vid=80a421f9-82c6-43e6-aaa0-88dda18c110c"},"vehicle_type_id":"4","last_reported":1751566513,"current_range_meters":16800,"station_id":"ce4bhbh2rcd13ifvqepg","pricing_plan_id":"cebpf4jnsgd1na2vs0mg"},{"bike_id":"1b50997f-5212-4491-b395-e4b2f95c4f50","system_id":"levelo_inurba_marseille","lat":43.29213,"lon":5.36056,"is_reserved":false,"is_disabled":false,"rental_uris":{"android":"levelo://app?vid=1b50997f-5212-4491-b395-e4b2f95c4f50","ios":"levelo://app?vid=1b50997f-5212-4491-b395-e4b2f95c4f50"},"vehicle_type_id":"4","last_reported":1751566513,"current_range_meters":16800,"station_id":"ce4bhbh2rcd13ifvqeqg","pricing_plan_id":"cebpf4jnsgd1na2vs0mg"},{"bike_id":"1a0613e6-306a-4701-8b70-08b76177b33c","system_id":"levelo_inurba_marseille","lat":43.28272,"lon":5.35062,"is_reserved":false,"is_disabled":false,"rental_uris":{"android":"levelo://app?vid=1a0613e6-306a-4701-8b70-08b76177b33c","ios":"levelo://app?vid=1a0613e6-306a-4701-8b70-08b76177b33c"},"vehicle_type_id":"4","last_reported":1751566513,"current_range_meters":16800,"station_id":"ce4bhbp2rcd13ifvqerg","pricing_plan_id":"cebpf4jnsgd1na2vs0mg"},{"bike_id":"b3bdafac-5fdd-4245-9328-43b6d54aec01","system_id":"levelo_inurba_marseille","lat":43.32401,"lon":5.38863,"is_reserved":false,"is_disabled":false,"rental_uris":{"android":"levelo://app?vid=b3bdafac-5fdd-4245-9328-43b6d54aec01","ios":"levelo://app?vid=b3bdafac-5fdd-4245-9328-43b6d54aec01"},"vehicle_type_id":"4","last_reported":1751566513,"current_range_meters":16800,"station_id":"ce4bhqp2rcd13ifvqhog","pricing_plan_id":"cebpf4jnsgd1na2vs0mg"},{"bike_id":"5e197122-e8ec-4f01-b370-6bbfc10c6950","system_id":"levelo_inurba_marseille","lat":43.21194,"lon":5.35064,"is_reserved":false,"is_disabled":false,"rental_uris":{"android":"levelo://app?vid=5e197122-e8ec-4f01-b370-6bbfc10c6950","ios":"levelo://app?vid=5e197122-e8ec-4f01-b370-6bbfc10c6950"},"vehicle_type_id":"4","last_reported":1751566513,"current_range_meters":16800,"station_id":"st_cvj6sg6p6f1abm77japg","pricing_plan_id":"cebpf4jnsgd1na2vs0mg"},{"bike_id":"1049a350-73a1-4f06-a61a-85f7853d0848","system_id":"levelo_inurba_marseille","lat":43.25156,"lon":5.4036,"is_reserved":false,"is_disabled":false,"rental_uris":{"android":"levelo://app?vid=1049a350-73a1-4f06-a61a-85f7853d0848","ios":"levelo://app?vid=1049a350-73a1-4f06-a61a-85f7853d0848"},"vehicle_type_id":"4","last_reported":1751566513,"current_range_meters":17200,"station_id":"","pricing_plan_id":"cebpf4jnsgd1na2vs0mg"},{"bike_id":"27b2c459-7e28-4563-b22f-60d0278cb331","system_id":"levelo_inurba_marseille","lat":43.27612,"lon":5.36103,"is_reserved":false,"is_disabled":false,"rental_uris":{"android":"levelo://app?vid=27b2c459-7e28-4563-b22f-60d0278cb331","ios":"levelo://app?vid=27b2c459-7e28-4563-b22f-60d0278cb331"},"vehicle_type_id":"4","last_reported":1751566513,"current_range_meters":17200,"station_id":"ce4bgj92rcd13ifvqbe0","pricing_plan_id":"cebpf4jnsgd1na2vs0mg"},{"bike_id":"1a7b1c56-6f51-41c2-a98d-66a508b1f68c","system_id":"levelo_inurba_marseille","lat":43.29008,"lon":5.35607,"is_reserved":false,"is_disabled":false,"rental_uris":{"android":"levelo://app?vid=1a7b1c56-6f51-41c2-a98d-66a508b1f68c","ios":"levelo://app?vid=1a7b1c56-6f51-41c2-a98d-66a508b1f68c"},"vehicle_type_id":"4","last_reported":1751566513,"current_range_meters":17200,"station_id":"ce4bhb92rcd13ifvqen0","pricing_plan_id":"cebpf4jnsgd1na2vs0mg"},{"bike_id":"5598d938-8bfc-4250-bd61-6a56a6c0876b","system_id":"levelo_inurba_marseille","lat":43.27368,"lon":5.36233,"is_reserved":false,"is_disabled":false,"rental_uris":{"android":"levelo://app?vid=5598d938-8bfc-4250-bd61-6a56a6c0876b","ios":"levelo://app?vid=5598d938-8bfc-4250-bd61-6a56a6c0876b"},"vehicle_type_id":"4","last_reported":1751566513,"current_range_meters":17200,"station_id":"ce4bhbh2rcd13ifvqeo0","pricing_plan_id":"cebpf4jnsgd1na2vs0mg"},{"bike_id":"b35c913a-6b27-4cc6-9ebb-fdd74d5d7c59","system_id":"levelo_inurba_marseille","lat":43.28426,"lon":5.35012,"is_reserved":false,"is_disabled":false,"rental_uris":{"android":"levelo://app?vid=b35c913a-6b27-4cc6-9ebb-fdd74d5d7c59","ios":"levelo://app?vid=b35c913a-6b27-4cc6-9ebb-fdd74d5d7c59"},"vehicle_type_id":"4","last_reported":1751566513,"current_range_meters":17200,"station_id":"ce4bhbh2rcd13ifvqepg","pricing_plan_id":"cebpf4jnsgd1na2vs0mg"},{"bike_id":"ca543977-de6c-4cbd-8ef8-1e3b82debe62","system_id":"levelo_inurba_marseille","lat":43.282593,"lon":5.350568,"is_reserved":false,"is_disabled":false,"rental_uris":{"android":"levelo://app?vid=ca543977-de6c-4cbd-8ef8-1e3b82debe62","ios":"levelo://app?vid=ca543977-de6c-4cbd-8ef8-1e3b82debe62"},"vehicle_type_id":"4","last_reported":1751566513,"current_range_meters":17200,"station_id":"ce4bhbp2rcd13ifvqerg","pricing_plan_id":"cebpf4jnsgd1na2vs0mg"},{"bike_id":"9ca3622c-2e7f-4139-91fc-1d9c56ed4333","system_id":"levelo_inurba_marseille","lat":43.28267,"lon":5.35061,"is_reserved":false,"is_disabled":false,"rental_uris":{"android":"levelo://app?vid=9ca3622c-2e7f-4139-91fc-1d9c56ed4333","ios":"levelo://app?vid=9ca3622c-2e7f-4139-91fc-1d9c56ed4333"},"vehicle_type_id":"4","last_reported":1751566513,"current_range_meters":17200,"station_id":"ce4bhbp2rcd13ifvqerg","pricing_plan_id":"cebpf4jnsgd1na2vs0mg"},{"bike_id":"589d5eda-19de-49b3-b5e8-b78c57a5aee8","system_id":"levelo_inurba_marseille","lat":43.28616,"lon":5.35108,"is_reserved":false,"is_disabled":false,"rental_uris":{"android":"levelo://app?vid=589d5eda-19de-49b3-b5e8-b78c57a5aee8","ios":"levelo://app?vid=589d5eda-19de-49b3-b5e8-b78c57a5aee8"},"vehicle_type_id":"4","last_reported":1751566513,"current_range_meters":17200,"station_id":"ce4bhch2rcd13ifvqeug","pricing_plan_id":"cebpf4jnsgd1na2vs0mg"},{"bike_id":"55aa929b-2db6-4ab6-8121-df233a47781a","system_id":"levelo_inurba_marseille","lat":43.26209,"lon":5.3742,"is_reserved":false,"is_disabled":false,"rental_uris":{"android":"levelo://app?vid=55aa929b-2db6-4ab6-8121-df233a47781a","ios":"levelo://app?vid=55aa929b-2db6-4ab6-8121-df233a47781a"},"vehicle_type_id":"4","last_reported":1751566513,"current_range_meters":17200,"station_id":"ce4bhgp2rcd13ifvqfc0","pricing_plan_id":"cebpf4jnsgd1na2vs0mg"},{"bike_id":"f1b8be6b-5160-46cf-8639-5feed5223608","system_id":"levelo_inurba_marseille","lat":43.26203,"lon":5.37436,"is_reserved":false,"is_disabled":false,"rental_uris":{"android":"levelo://app?vid=f1b8be6b-5160-46cf-8639-5feed5223608","ios":"levelo://app?vid=f1b8be6b-5160-46cf-8639-5feed5223608"},"vehicle_type_id":"4","last_reported":1751566513,"current_range_meters":17200,"station_id":"ce4bhgp2rcd13ifvqfc0","pricing_plan_id":"cebpf4jnsgd1na2vs0mg"},{"bike_id":"1698c836-6036-4087-af38-f7024f2152dc","system_id":"levelo_inurba_marseille","lat":43.26202,"lon":5.37443,"is_reserved":false,"is_disabled":false,"rental_uris":{"android":"levelo://app?vid=1698c836-6036-4087-af38-f7024f2152dc","ios":"levelo://app?vid=1698c836-6036-4087-af38-f7024f2152dc"},"vehicle_type_id":"4","last_reported":1751566513,"current_range_meters":17200,"station_id":"ce4bhgp2rcd13ifvqfc0","pricing_plan_id":"cebpf4jnsgd1na2vs0mg"},{"bike_id":"085a9b83-3f84-40f5-9e64-5af9b3d60f63","system_id":"levelo_inurba_marseille","lat":43.29888,"lon":5.43645,"is_reserved":false,"is_disabled":false,"rental_uris":{"android":"levelo://app?vid=085a9b83-3f84-40f5-9e64-5af9b3d60f63","ios":"levelo://app?vid=085a9b83-3f84-40f5-9e64-5af9b3d60f63"},"vehicle_type_id":"4","last_reported":1751566513,"current_range_meters":17200,"station_id":"ce4bhpp2rcd13ifvqhfg","pricing_plan_id":"cebpf4jnsgd1na2vs0mg"},{"bike_id":"04e6c422-f573-4b46-85ae-d31c2fc5977b","system_id":"levelo_inurba_marseille","lat":43.24191,"lon":5.36374,"is_reserved":false,"is_disabled":false,"rental_uris":{"android":"levelo://app?vid=04e6c422-f573-4b46-85ae-d31c2fc5977b","ios":"levelo://app?vid=04e6c422-f573-4b46-85ae-d31c2fc5977b"},"vehicle_type_id":"4","last_reported":1751566513,"current_range_meters":17200,"station_id":"cpo36qri1sfpv3e86is0","pricing_plan_id":"cebpf4jnsgd1na2vs0mg"},{"bike_id":"1c8ab180-05fd-405f-9922-b2b2c2d5142f","system_id":"levelo_inurba_marseille","lat":43.337885,"lon":5.381329,"is_reserved":false,"is_disabled":false,"rental_uris":{"android":"levelo://app?vid=1c8ab180-05fd-405f-9922-b2b2c2d5142f","ios":"levelo://app?vid=1c8ab180-05fd-405f-9922-b2b2c2d5142f"},"vehicle_type_id":"4","last_reported":1751566513,"current_range_meters":17600,"station_id":"","pricing_plan_id":"cebpf4jnsgd1na2vs0mg"},{"bike_id":"13f2b8e5-02d3-4b0c-a2c2-9fd0735a060a","system_id":"levelo_inurba_marseille","lat":43.29049,"lon":5.35895,"is_reserved":false,"is_disabled":false,"rental_uris":{"android":"levelo://app?vid=13f2b8e5-02d3-4b0c-a2c2-9fd0735a060a","ios":"levelo://app?vid=13f2b8e5-02d3-4b0c-a2c2-9fd0735a060a"},"vehicle_type_id":"4","last_reported":1751566513,"current_range_meters":17600,"station_id":"ce4bha92rcd13ifvqeg0","pricing_plan_id":"cebpf4jnsgd1na2vs0mg"},{"bike_id":"9fd8b3fa-ffcd-4524-8fd8-26e85af37389","system_id":"levelo_inurba_marseille","lat":43.27374,"lon":5.36257,"is_reserved":false,"is_disabled":false,"rental_uris":{"android":"levelo://app?vid=9fd8b3fa-ffcd-4524-8fd8-26e85af37389","ios":"levelo://app?vid=9fd8b3fa-ffcd-4524-8fd8-26e85af37389"},"vehicle_type_id":"4","last_reported":1751566513,"current_range_meters":17600,"station_id":"ce4bhbh2rcd13ifvqeo0","pricing_plan_id":"cebpf4jnsgd1na2vs0mg"},{"bike_id":"0ab2ed72-a25d-4fba-b61c-14c949a29bc4","system_id":"levelo_inurba_marseille","lat":43.28616,"lon":5.3511,"is_reserved":false,"is_disabled":false,"rental_uris":{"android":"levelo://app?vid=0ab2ed72-a25d-4fba-b61c-14c949a29bc4","ios":"levelo://app?vid=0ab2ed72-a25d-4fba-b61c-14c949a29bc4"},"vehicle_type_id":"4","last_reported":1751566513,"current_range_meters":17600,"station_id":"ce4bhch2rcd13ifvqeug","pricing_plan_id":"cebpf4jnsgd1na2vs0mg"},{"bike_id":"7a0bf08f-cf06-41ff-8c60-4062a4af9732","system_id":"levelo_inurba_marseille","lat":43.28617,"lon":5.35105,"is_reserved":false,"is_disabled":false,"rental_uris":{"android":"levelo://app?vid=7a0bf08f-cf06-41ff-8c60-4062a4af9732","ios":"levelo://app?vid=7a0bf08f-cf06-41ff-8c60-4062a4af9732"},"vehicle_type_id":"4","last_reported":1751566513,"current_range_meters":17600,"station_id":"ce4bhch2rcd13ifvqeug","pricing_plan_id":"cebpf4jnsgd1na2vs0mg"},{"bike_id":"5ecbe7d9-b835-47e3-87d6-0fd67017673c","system_id":"levelo_inurba_marseille","lat":43.32111,"lon":5.36767,"is_reserved":false,"is_disabled":false,"rental_uris":{"android":"levelo://app?vid=5ecbe7d9-b835-47e3-87d6-0fd67017673c","ios":"levelo://app?vid=5ecbe7d9-b835-47e3-87d6-0fd67017673c"},"vehicle_type_id":"4","last_reported":1751566513,"current_range_meters":17600,"station_id":"ce4bhrh2rcd13ifvqhug","pricing_plan_id":"cebpf4jnsgd1na2vs0mg"},{"bike_id":"37cb6ec9-0a4a-4b65-8c68-e3ea2f284a65","system_id":"levelo_inurba_marseille","lat":43.23192,"lon":5.35548,"is_reserved":false,"is_disabled":false,"rental_uris":{"android":"levelo://app?vid=37cb6ec9-0a4a-4b65-8c68-e3ea2f284a65","ios":"levelo://app?vid=37cb6ec9-0a4a-4b65-8c68-e3ea2f284a65"},"vehicle_type_id":"4","last_reported":1751566513,"current_range_meters":17600,"station_id":"ce4bhu92rcd13ifvqi70","pricing_plan_id":"cebpf4jnsgd1na2vs0mg"},{"bike_id":"d7d5b776-bcc7-423d-8a89-6abd09a6c07c","system_id":"levelo_inurba_marseille","lat":43.24165,"lon":5.36393,"is_reserved":false,"is_disabled":false,"rental_uris":{"android":"levelo://app?vid=d7d5b776-bcc7-423d-8a89-6abd09a6c07c","ios":"levelo://app?vid=d7d5b776-bcc7-423d-8a89-6abd09a6c07c"},"vehicle_type_id":"4","last_reported":1751566513,"current_range_meters":17600,"station_id":"cpo36qri1sfpv3e86is0","pricing_plan_id":"cebpf4jnsgd1na2vs0mg"},{"bike_id":"5f1e5526-9ff8-4075-8194-48a897f058b4","system_id":"levelo_inurba_marseille","lat":43.21209,"lon":5.35056,"is_reserved":false,"is_disabled":false,"rental_uris":{"android":"levelo://app?vid=5f1e5526-9ff8-4075-8194-48a897f058b4","ios":"levelo://app?vid=5f1e5526-9ff8-4075-8194-48a897f058b4"},"vehicle_type_id":"4","last_reported":1751566513,"current_range_meters":17600,"station_id":"st_cvj6sg6p6f1abm77japg","pricing_plan_id":"cebpf4jnsgd1na2vs0mg"},{"bike_id":"fb6a2e6f-d47d-4ae2-be42-b6de89826118","system_id":"levelo_inurba_marseille","lat":43.29192,"lon":5.35796,"is_reserved":false,"is_disabled":false,"rental_uris":{"android":"levelo://app?vid=fb6a2e6f-d47d-4ae2-be42-b6de89826118","ios":"levelo://app?vid=fb6a2e6f-d47d-4ae2-be42-b6de89826118"},"vehicle_type_id":"4","last_reported":1751566513,"current_range_meters":18000,"station_id":"ce4bhb12rcd13ifvqel0","pricing_plan_id":"cebpf4jnsgd1na2vs0mg"},{"bike_id":"b21ecda5-58c4-41a6-9a57-ac0033e134b7","system_id":"levelo_inurba_marseille","lat":43.27365,"lon":5.36234,"is_reserved":false,"is_disabled":false,"rental_uris":{"android":"levelo://app?vid=b21ecda5-58c4-41a6-9a57-ac0033e134b7","ios":"levelo://app?vid=b21ecda5-58c4-41a6-9a57-ac0033e134b7"},"vehicle_type_id":"4","last_reported":1751566513,"current_range_meters":18000,"station_id":"ce4bhbh2rcd13ifvqeo0","pricing_plan_id":"cebpf4jnsgd1na2vs0mg"},{"bike_id":"a0962a9b-5031-4998-ac45-a7fe8b578c72","system_id":"levelo_inurba_marseille","lat":43.28419,"lon":5.34999,"is_reserved":false,"is_disabled":false,"rental_uris":{"android":"levelo://app?vid=a0962a9b-5031-4998-ac45-a7fe8b578c72","ios":"levelo://app?vid=a0962a9b-5031-4998-ac45-a7fe8b578c72"},"vehicle_type_id":"4","last_reported":1751566513,"current_range_meters":18000,"station_id":"ce4bhbh2rcd13ifvqepg","pricing_plan_id":"cebpf4jnsgd1na2vs0mg"},{"bike_id":"14ecf157-0e2a-4d14-860f-77ba787d04dc","system_id":"levelo_inurba_marseille","lat":43.28618,"lon":5.35093,"is_reserved":false,"is_disabled":false,"rental_uris":{"android":"levelo://app?vid=14ecf157-0e2a-4d14-860f-77ba787d04dc","ios":"levelo://app?vid=14ecf157-0e2a-4d14-860f-77ba787d04dc"},"vehicle_type_id":"4","last_reported":1751566513,"current_range_meters":18000,"station_id":"ce4bhch2rcd13ifvqeug","pricing_plan_id":"cebpf4jnsgd1na2vs0mg"},{"bike_id":"32c0fc37-6823-41d0-9497-8d1eea24742c","system_id":"levelo_inurba_marseille","lat":43.241701,"lon":5.364011,"is_reserved":false,"is_disabled":false,"rental_uris":{"android":"levelo://app?vid=32c0fc37-6823-41d0-9497-8d1eea24742c","ios":"levelo://app?vid=32c0fc37-6823-41d0-9497-8d1eea24742c"},"vehicle_type_id":"4","last_reported":1751566513,"current_range_meters":18000,"station_id":"cpo36qri1sfpv3e86is0","pricing_plan_id":"cebpf4jnsgd1na2vs0mg"},{"bike_id":"d3bdb41c-8b0a-446d-98af-e6de2988fc13","system_id":"levelo_inurba_marseille","lat":43.22493,"lon":5.3484,"is_reserved":false,"is_disabled":false,"rental_uris":{"android":"levelo://app?vid=d3bdb41c-8b0a-446d-98af-e6de2988fc13","ios":"levelo://app?vid=d3bdb41c-8b0a-446d-98af-e6de2988fc13"},"vehicle_type_id":"4","last_reported":1751566513,"current_range_meters":18000,"station_id":"st_cvj5dfep6f1abm77gieg","pricing_plan_id":"cebpf4jnsgd1na2vs0mg"},{"bike_id":"ba926bfc-9632-4680-b0ed-32a040d6fb83","system_id":"levelo_inurba_marseille","lat":43.21776,"lon":5.34581,"is_reserved":false,"is_disabled":false,"rental_uris":{"android":"levelo://app?vid=ba926bfc-9632-4680-b0ed-32a040d6fb83","ios":"levelo://app?vid=ba926bfc-9632-4680-b0ed-32a040d6fb83"},"vehicle_type_id":"4","last_reported":1751566513,"current_range_meters":18000,"station_id":"st_cvj6r9ubvosntc0bgbag","pricing_plan_id":"cebpf4jnsgd1na2vs0mg"},{"bike_id":"b13877a6-4825-4d82-b46b-67fa8ad66c5d","system_id":"levelo_inurba_marseille","lat":43.21191,"lon":5.35066,"is_reserved":false,"is_disabled":false,"rental_uris":{"android":"levelo://app?vid=b13877a6-4825-4d82-b46b-67fa8ad66c5d","ios":"levelo://app?vid=b13877a6-4825-4d82-b46b-67fa8ad66c5d"},"vehicle_type_id":"4","last_reported":1751566513,"current_range_meters":18000,"station_id":"st_cvj6sg6p6f1abm77japg","pricing_plan_id":"cebpf4jnsgd1na2vs0mg"},{"bike_id":"7712491c-e18b-4b09-bb79-30880b357c07","system_id":"levelo_inurba_marseille","lat":43.21203,"lon":5.35064,"is_reserved":false,"is_disabled":false,"rental_uris":{"android":"levelo://app?vid=7712491c-e18b-4b09-bb79-30880b357c07","ios":"levelo://app?vid=7712491c-e18b-4b09-bb79-30880b357c07"},"vehicle_type_id":"4","last_reported":1751566513,"current_range_meters":18000,"station_id":"st_cvj6sg6p6f1abm77japg","pricing_plan_id":"cebpf4jnsgd1na2vs0mg"},{"bike_id":"65368a1c-78d8-4502-8660-3a4a115d03e1","system_id":"levelo_inurba_marseille","lat":43.27615,"lon":5.36105,"is_reserved":false,"is_disabled":false,"rental_uris":{"android":"levelo://app?vid=65368a1c-78d8-4502-8660-3a4a115d03e1","ios":"levelo://app?vid=65368a1c-78d8-4502-8660-3a4a115d03e1"},"vehicle_type_id":"4","last_reported":1751566513,"current_range_meters":18800,"station_id":"ce4bgj92rcd13ifvqbe0","pricing_plan_id":"cebpf4jnsgd1na2vs0mg"},{"bike_id":"ec9c33c0-c5f6-44c9-afc3-931a5a60ae8a","system_id":"levelo_inurba_marseille","lat":43.30592,"lon":5.39355,"is_reserved":false,"is_disabled":false,"rental_uris":{"android":"levelo://app?vid=ec9c33c0-c5f6-44c9-afc3-931a5a60ae8a","ios":"levelo://app?vid=ec9c33c0-c5f6-44c9-afc3-931a5a60ae8a"},"vehicle_type_id":"4","last_reported":1751566513,"current_range_meters":18800,"station_id":"ce4bh0p2rcd13ifvqd80","pricing_plan_id":"cebpf4jnsgd1na2vs0mg"},{"bike_id":"3f561c33-0759-495c-b8b6-56f1d37975ff","system_id":"levelo_inurba_marseille","lat":43.29262,"lon":5.40908,"is_reserved":false,"is_disabled":false,"rental_uris":{"android":"levelo://app?vid=3f561c33-0759-495c-b8b6-56f1d37975ff","ios":"levelo://app?vid=3f561c33-0759-495c-b8b6-56f1d37975ff"},"vehicle_type_id":"4","last_reported":1751566513,"current_range_meters":18800,"station_id":"ce4bh192rcd13ifvqdc0","pricing_plan_id":"cebpf4jnsgd1na2vs0mg"},{"bike_id":"d6e4beea-9eae-48fa-a170-61b877438408","system_id":"levelo_inurba_marseille","lat":43.28273,"lon":5.35062,"is_reserved":false,"is_disabled":false,"rental_uris":{"android":"levelo://app?vid=d6e4beea-9eae-48fa-a170-61b877438408","ios":"levelo://app?vid=d6e4beea-9eae-48fa-a170-61b877438408"},"vehicle_type_id":"4","last_reported":1751566513,"current_range_meters":18800,"station_id":"ce4bhbp2rcd13ifvqerg","pricing_plan_id":"cebpf4jnsgd1na2vs0mg"},{"bike_id":"82e8bbb2-dcad-4b63-8caa-3d9b669b8184","system_id":"levelo_inurba_marseille","lat":43.28619,"lon":5.35109,"is_reserved":false,"is_disabled":false,"rental_uris":{"android":"levelo://app?vid=82e8bbb2-dcad-4b63-8caa-3d9b669b8184","ios":"levelo://app?vid=82e8bbb2-dcad-4b63-8caa-3d9b669b8184"},"vehicle_type_id":"4","last_reported":1751566513,"current_range_meters":18800,"station_id":"ce4bhch2rcd13ifvqeug","pricing_plan_id":"cebpf4jnsgd1na2vs0mg"},{"bike_id":"cb5921ed-e840-4a5d-b45e-93ba9f53af2f","system_id":"levelo_inurba_marseille","lat":43.266385,"lon":5.38213,"is_reserved":false,"is_disabled":false,"rental_uris":{"android":"levelo://app?vid=cb5921ed-e840-4a5d-b45e-93ba9f53af2f","ios":"levelo://app?vid=cb5921ed-e840-4a5d-b45e-93ba9f53af2f"},"vehicle_type_id":"4","last_reported":1751566513,"current_range_meters":18800,"station_id":"ce4bhg92rcd13ifvqf90","pricing_plan_id":"cebpf4jnsgd1na2vs0mg"},{"bike_id":"f6e6b100-7c6a-47f9-bbe0-7be961240e5b","system_id":"levelo_inurba_marseille","lat":43.320503,"lon":5.415373,"is_reserved":false,"is_disabled":false,"rental_uris":{"android":"levelo://app?vid=f6e6b100-7c6a-47f9-bbe0-7be961240e5b","ios":"levelo://app?vid=f6e6b100-7c6a-47f9-bbe0-7be961240e5b"},"vehicle_type_id":"4","last_reported":1751566513,"current_range_meters":18800,"station_id":"ce4bhq92rcd13ifvqhkg","pricing_plan_id":"cebpf4jnsgd1na2vs0mg"},{"bike_id":"233b323f-633a-4135-b674-9fdbf331794c","system_id":"levelo_inurba_marseille","lat":43.27371,"lon":5.36261,"is_reserved":false,"is_disabled":false,"rental_uris":{"android":"levelo://app?vid=233b323f-633a-4135-b674-9fdbf331794c","ios":"levelo://app?vid=233b323f-633a-4135-b674-9fdbf331794c"},"vehicle_type_id":"4","last_reported":1751566513,"current_range_meters":19200,"station_id":"ce4bhbh2rcd13ifvqeo0","pricing_plan_id":"cebpf4jnsgd1na2vs0mg"},{"bike_id":"5dc0e370-e5f0-457a-97b1-fa5027dd1f16","system_id":"levelo_inurba_marseille","lat":43.31721,"lon":5.4366,"is_reserved":false,"is_disabled":false,"rental_uris":{"android":"levelo://app?vid=5dc0e370-e5f0-457a-97b1-fa5027dd1f16","ios":"levelo://app?vid=5dc0e370-e5f0-457a-97b1-fa5027dd1f16"},"vehicle_type_id":"4","last_reported":1751566513,"current_range_meters":19200,"station_id":"ce4bhp92rcd13ifvqhcg","pricing_plan_id":"cebpf4jnsgd1na2vs0mg"},{"bike_id":"cee0b5b6-9b90-457a-85f4-540287a23b84","system_id":"levelo_inurba_marseille","lat":43.211914,"lon":5.350688,"is_reserved":false,"is_disabled":false,"rental_uris":{"android":"levelo://app?vid=cee0b5b6-9b90-457a-85f4-540287a23b84","ios":"levelo://app?vid=cee0b5b6-9b90-457a-85f4-540287a23b84"},"vehicle_type_id":"4","last_reported":1751566513,"current_range_meters":19200,"station_id":"st_cvj6sg6p6f1abm77japg","pricing_plan_id":"cebpf4jnsgd1na2vs0mg"},{"bike_id":"4b8da722-ee9e-48a4-a5e5-3a8a10364708","system_id":"levelo_inurba_marseille","lat":43.31232,"lon":5.37809,"is_reserved":false,"is_disabled":false,"rental_uris":{"android":"levelo://app?vid=4b8da722-ee9e-48a4-a5e5-3a8a10364708","ios":"levelo://app?vid=4b8da722-ee9e-48a4-a5e5-3a8a10364708"},"vehicle_type_id":"4","last_reported":1751566513,"current_range_meters":19600,"station_id":"","pricing_plan_id":"cebpf4jnsgd1na2vs0mg"},{"bike_id":"d6b96429-1049-4a0e-89dd-175c24a280d4","system_id":"levelo_inurba_marseille","lat":43.28616,"lon":5.35118,"is_reserved":false,"is_disabled":false,"rental_uris":{"android":"levelo://app?vid=d6b96429-1049-4a0e-89dd-175c24a280d4","ios":"levelo://app?vid=d6b96429-1049-4a0e-89dd-175c24a280d4"},"vehicle_type_id":"4","last_reported":1751566513,"current_range_meters":19600,"station_id":"ce4bhch2rcd13ifvqeug","pricing_plan_id":"cebpf4jnsgd1na2vs0mg"},{"bike_id":"714a9d74-b619-4630-8755-23cfa63ab328","system_id":"levelo_inurba_marseille","lat":43.28618,"lon":5.35101,"is_reserved":false,"is_disabled":false,"rental_uris":{"android":"levelo://app?vid=714a9d74-b619-4630-8755-23cfa63ab328","ios":"levelo://app?vid=714a9d74-b619-4630-8755-23cfa63ab328"},"vehicle_type_id":"4","last_reported":1751566513,"current_range_meters":19600,"station_id":"ce4bhch2rcd13ifvqeug","pricing_plan_id":"cebpf4jnsgd1na2vs0mg"},{"bike_id":"272aa2b9-6677-4df6-bf51-e75541bb9c3f","system_id":"levelo_inurba_marseille","lat":43.27913,"lon":5.39575,"is_reserved":false,"is_disabled":false,"rental_uris":{"android":"levelo://app?vid=272aa2b9-6677-4df6-bf51-e75541bb9c3f","ios":"levelo://app?vid=272aa2b9-6677-4df6-bf51-e75541bb9c3f"},"vehicle_type_id":"4","last_reported":1751566513,"current_range_meters":19600,"station_id":"ce4bhf92rcd13ifvqf40","pricing_plan_id":"cebpf4jnsgd1na2vs0mg"},{"bike_id":"75cfa1b3-d7dd-4c04-b12d-eb8bb97484ad","system_id":"levelo_inurba_marseille","lat":43.26043,"lon":5.37543,"is_reserved":false,"is_disabled":false,"rental_uris":{"android":"levelo://app?vid=75cfa1b3-d7dd-4c04-b12d-eb8bb97484ad","ios":"levelo://app?vid=75cfa1b3-d7dd-4c04-b12d-eb8bb97484ad"},"vehicle_type_id":"4","last_reported":1751566513,"current_range_meters":19600,"station_id":"ce4bhgh2rcd13ifvqfa0","pricing_plan_id":"cebpf4jnsgd1na2vs0mg"},{"bike_id":"06734b8e-94e1-4e2a-8602-4573abb22a51","system_id":"levelo_inurba_marseille","lat":43.26944,"lon":5.38619,"is_reserved":false,"is_disabled":false,"rental_uris":{"android":"levelo://app?vid=06734b8e-94e1-4e2a-8602-4573abb22a51","ios":"levelo://app?vid=06734b8e-94e1-4e2a-8602-4573abb22a51"},"vehicle_type_id":"4","last_reported":1751566513,"current_range_meters":19600,"station_id":"ce4bhh92rcd13ifvqfh0","pricing_plan_id":"cebpf4jnsgd1na2vs0mg"},{"bike_id":"4a0d5f74-6ea9-4d88-9123-3c26ecbb9703","system_id":"levelo_inurba_marseille","lat":43.23193,"lon":5.35545,"is_reserved":false,"is_disabled":false,"rental_uris":{"android":"levelo://app?vid=4a0d5f74-6ea9-4d88-9123-3c26ecbb9703","ios":"levelo://app?vid=4a0d5f74-6ea9-4d88-9123-3c26ecbb9703"},"vehicle_type_id":"4","last_reported":1751566513,"current_range_meters":19600,"station_id":"ce4bhu92rcd13ifvqi70","pricing_plan_id":"cebpf4jnsgd1na2vs0mg"},{"bike_id":"0c1b2354-656a-4cce-9b0c-718f54c152c2","system_id":"levelo_inurba_marseille","lat":43.31497,"lon":5.37309,"is_reserved":false,"is_disabled":false,"rental_uris":{"android":"levelo://app?vid=0c1b2354-656a-4cce-9b0c-718f54c152c2","ios":"levelo://app?vid=0c1b2354-656a-4cce-9b0c-718f54c152c2"},"vehicle_type_id":"4","last_reported":1751566513,"current_range_meters":20000,"station_id":"ce4bgt12rcd13ifvqcd0","pricing_plan_id":"cebpf4jnsgd1na2vs0mg"},