{"last_updated":1742497640,"ttl":60,"version":"2.2","data":{"bikes":[{"bike_id":"b2bfa9bb-895f-46d2-a293-640350a8f771","system_id":"levelo_inurba_marseille","lat":43.29277,"lon":5.36843,"is_reserved":false,"is_disabled":false,"rental_uris":{"android":"levelo://app?vid=b2bfa9bb-895f-46d2-a293-640350a8f771","ios":"levelo://app?vid=b2bfa9bb-895f-46d2-a293-640350a8f771"},"vehicle_type_id":"4","last_reported":1742497640,"current_range_meters":2800,"station_id":"ce4bhbp2rcd13ifvqesg","pricing_plan_id":"cebpf4jnsgd1na2vs0mg"},{"bike_id":"3c3d1ea8-190f-47fd-af57-0a0caa91b034","system_id":"levelo_inurba_marseille","lat":43.29871,"lon":5.38909,"is_reserved":false,"is_disabled":false,"rental_uris":{"android":"levelo://app?vid=3c3d1ea8-190f-47fd-af57-0a0caa91b034","ios":"levelo://app?vid=3c3d1ea8-190f-47fd-af57-0a0caa91b034"},"vehicle_type_id":"4","last_reported":1742497640,"current_range_meters":2800,"station_id":"ce4bh392rcd13ifvqdl0","pricing_plan_id":"cebpf4jnsgd1na2vs0mg"},{"bike_id":"4694a151-c965-46a7-b559-89c7428562d2","system_id":"levelo_inurba_marseille","lat":43.28854,"lon":5.35829,"is_reserved":false,"is_disabled":false,"rental_uris":{"android":"levelo://app?vid=4694a151-c965-46a7-b559-89c7428562d2","ios":"levelo://app?vid=4694a151-c965-46a7-b559-89c7428562d2"},"vehicle_type_id":"4","last_reported":1742497640,"current_range_meters":2800,"station_id":"ce4bhb12rcd13ifvqem0","pricing_plan_id":"cebpf4jnsgd1na2vs0mg"},{"bike_id":"06eb0762-5e0b-44a6-b716-095923252821","system_id":"levelo_inurba_marseille","lat":43.28457,"lon":5.39145,"is_reserved":false,"is_disabled":false,"rental_uris":{"android":"levelo://app?vid=06eb0762-5e0b-44a6-b716-095923252821","ios":"levelo://app?vid=06eb0762-5e0b-44a6-b716-095923252821"},"vehicle_type_id":"4","last_reported":1742497640,"current_range_meters":2800,"station_id":"","pricing_plan_id":"cebpf4jnsgd1na2vs0mg"},{"bike_id":"a3a96823-079e-4b70-86fa-ee189f123cff","system_id":"levelo_inurba_marseille","lat":43.31373,"lon":5.38492,"is_reserved":false,"is_disabled":false,"rental_uris":{"android":"levelo://app?vid=a3a96823-079e-4b70-86fa-ee189f123cff","ios":"levelo://app?vid=a3a96823-079e-4b70-86fa-ee189f123cff"},"vehicle_type_id":"4","last_reported":1742497640,"current_range_meters":2800,"station_id":"ce4bgt92rcd13ifvqcf0","pricing_plan_id":"cebpf4jnsgd1na2vs0mg"},{"bike_id":"84c9de83-0597-4998-91fb-d8eb29572e93","system_id":"levelo_inurba_marseille","lat":43.24837,"lon":5.40119,"is_reserved":false,"is_disabled":false,"rental_uris":{"android":"levelo://app?vid=84c9de83-0597-4998-91fb-d8eb29572e93","ios":"levelo://app?vid=84c9de83-0597-4998-91fb-d8eb29572e93"},"vehicle_type_id":"4","last_reported":1742497640,"current_range_meters":2800,"station_id":"ce4bhlh2rcd13ifvqgig","pricing_plan_id":"cebpf4jnsgd1na2vs0mg"},{"bike_id":"27cc27c3-fb1a-4dd1-aa55-9d0072bddda4","system_id":"levelo_inurba_marseille","lat":43.30927,"lon":5.40166,"is_reserved":false,"is_disabled":false,"rental_uris":{"android":"levelo://app?vid=27cc27c3-fb1a-4dd1-aa55-9d0072bddda4","ios":"levelo://app?vid=27cc27c3-fb1a-4dd1-aa55-9d0072bddda4"},"vehicle_type_id":"4","last_reported":1742497640,"current_range_meters":2800,"station_id":"ce4bgvp2rcd13ifvqct0","pricing_plan_id":"cebpf4jnsgd1na2vs0mg"},{"bike_id":"dcb0c6e0-0e97-47cd-acc9-a3fe012b2100","system_id":"levelo_inurba_marseille","lat":43.2903,"lon":5.38646,"is_reserved":false,"is_disabled":false,"rental_uris":{"android":"levelo://app?vid=dcb0c6e0-0e97-47cd-acc9-a3fe012b2100","ios":"levelo://app?vid=dcb0c6e0-0e97-47cd-acc9-a3fe012b2100"},"vehicle_type_id":"4","last_reported":1742497640,"current_range_meters":2800,"station_id":"ce4bh4p2rcd13ifvqe0g","pricing_plan_id":"cebpf4jnsgd1na2vs0mg"},{"bike_id":"c406f2e3-79cb-4793-90e1-5322098553a5","system_id":"levelo_inurba_marseille","lat":43.291951,"lon":5.357983,"is_reserved":false,"is_disabled":false,"rental_uris":{"android":"levelo://app?vid=c406f2e3-79cb-4793-90e1-5322098553a5","ios":"levelo://app?vid=c406f2e3-79cb-4793-90e1-5322098553a5"},"vehicle_type_id":"4","last_reported":1742497640,"current_range_meters":2800,"station_id":"ce4bhb12rcd13ifvqel0","pricing_plan_id":"cebpf4jnsgd1na2vs0mg"},{"bike_id":"173d972b-332f-4dac-ab4b-53849fe1d7dc","system_id":"levelo_inurba_marseille","lat":43.26499,"lon":5.39545,"is_reserved":false,"is_disabled":true,"rental_uris":{"android":"levelo://app?vid=173d972b-332f-4dac-ab4b-53849fe1d7dc","ios":"levelo://app?vid=173d972b-332f-4dac-ab4b-53849fe1d7dc"},"vehicle_type_id":"4","last_reported":1742497640,"current_range_meters":2800,"station_id":"ce4bhi12rcd13ifvqfq0","pricing_plan_id":"cebpf4jnsgd1na2vs0mg"},{"bike_id":"ca24b6c7-2c07-4133-92c6-0981b2b93db5","system_id":"levelo_inurba_marseille","lat":43.23212,"lon":5.35566,"is_reserved":false,"is_disabled":false,"rental_uris":{"android":"levelo://app?vid=ca24b6c7-2c07-4133-92c6-0981b2b93db5","ios":"levelo://app?vid=ca24b6c7-2c07-4133-92c6-0981b2b93db5"},"vehicle_type_id":"4","last_reported":1742497640,"current_range_meters":2800,"station_id":"ce4bhu92rcd13ifvqi70","pricing_plan_id":"cebpf4jnsgd1na2vs0mg"},{"bike_id":"ab119603-6df2-41d3-9ddd-f949d2760144","system_id":"levelo_inurba_marseille","lat":43.29279,"lon":5.36841,"is_reserved":false,"is_disabled":false,"rental_uris":{"android":"levelo://app?vid=ab119603-6df2-41d3-9ddd-f949d2760144","ios":"levelo://app?vid=ab119603-6df2-41d3-9ddd-f949d2760144"},"vehicle_type_id":"4","last_reported":1742497640,"current_range_meters":2800,"station_id":"ce4bhbp2rcd13ifvqesg","pricing_plan_id":"cebpf4jnsgd1na2vs0mg"},{"bike_id":"0da135b9-0019-4685-8b65-b855ec5d3984","system_id":"levelo_inurba_marseille","lat":43.26201,"lon":5.37445,"is_reserved":false,"is_disabled":false,"rental_uris":{"android":"levelo://app?vid=0da135b9-0019-4685-8b65-b855ec5d3984","ios":"levelo://app?vid=0da135b9-0019-4685-8b65-b855ec5d3984"},"vehicle_type_id":"4","last_reported":1742497640,"current_range_meters":2800,"station_id":"ce4bhgp2rcd13ifvqfc0","pricing_plan_id":"cebpf4jnsgd1na2vs0mg"},{"bike_id":"99b4ac42-24c1-40b2-8a4b-df652770093d","system_id":"levelo_inurba_marseille","lat":43.28854,"lon":5.39309,"is_reserved":false,"is_disabled":false,"rental_uris":{"android":"levelo://app?vid=99b4ac42-24c1-40b2-8a4b-df652770093d","ios":"levelo://app?vid=99b4ac42-24c1-40b2-8a4b-df652770093d"},"vehicle_type_id":"4","last_reported":1742497640,"current_range_meters":3200,"station_id":"ce4bh2p2rcd13ifvqdi0","pricing_plan_id":"cebpf4jnsgd1na2vs0mg"},{"bike_id":"90a9493b-8818-4d2d-a054-d148eed3c66d","system_id":"levelo_inurba_marseille","lat":43.2872,"lon":5.36087,"is_reserved":false,"is_disabled":false,"rental_uris":{"android":"levelo://app?vid=90a9493b-8818-4d2d-a054-d148eed3c66d","ios":"levelo://app?vid=90a9493b-8818-4d2d-a054-d148eed3c66d"},"vehicle_type_id":"4","last_reported":1742497640,"current_range_meters":3200,"station_id":"cki0cbj6b192h4jlfktg","pricing_plan_id":"cebpf4jnsgd1na2vs0mg"},{"bike_id":"ef3a343d-e1e4-4eb9-9e35-05228ef626be","system_id":"levelo_inurba_marseille","lat":43.2816,"lon":5.42659,"is_reserved":false,"is_disabled":false,"rental_uris":{"android":"levelo://app?vid=ef3a343d-e1e4-4eb9-9e35-05228ef626be","ios":"levelo://app?vid=ef3a343d-e1e4-4eb9-9e35-05228ef626be"},"vehicle_type_id":"4","last_reported":1742497640,"current_range_meters":3200,"station_id":"ce4bhnh2rcd13ifvqgug","pricing_plan_id":"cebpf4jnsgd1na2vs0mg"},{"bike_id":"32094f0f-8958-4b43-a126-3699142ae4e0","system_id":"levelo_inurba_marseille","lat":43.28685,"lon":5.38665,"is_reserved":false,"is_disabled":false,"rental_uris":{"android":"levelo://app?vid=32094f0f-8958-4b43-a126-3699142ae4e0","ios":"levelo://app?vid=32094f0f-8958-4b43-a126-3699142ae4e0"},"vehicle_type_id":"4","last_reported":1742497640,"current_range_meters":3200,"station_id":"ce4bh492rcd13ifvqdug","pricing_plan_id":"cebpf4jnsgd1na2vs0mg"},{"bike_id":"2dd15f1f-0d78-4c85-9987-159a0e16d520","system_id":"levelo_inurba_marseille","lat":43.31329,"lon":5.39691,"is_reserved":false,"is_disabled":false,"rental_uris":{"android":"levelo://app?vid=2dd15f1f-0d78-4c85-9987-159a0e16d520","ios":"levelo://app?vid=2dd15f1f-0d78-4c85-9987-159a0e16d520"},"vehicle_type_id":"4","last_reported":1742497640,"current_range_meters":3200,"station_id":"ce4bgvp2rcd13ifvqcu0","pricing_plan_id":"cebpf4jnsgd1na2vs0mg"},{"bike_id":"17a813a7-5056-4bdd-9920-b95d925f626d","system_id":"levelo_inurba_marseille","lat":43.293034,"lon":5.399718,"is_reserved":false,"is_disabled":false,"rental_uris":{"android":"levelo://app?vid=17a813a7-5056-4bdd-9920-b95d925f626d","ios":"levelo://app?vid=17a813a7-5056-4bdd-9920-b95d925f626d"},"vehicle_type_id":"4","last_reported":1742497640,"current_range_meters":3200,"station_id":"ce4bh3h2rcd13ifvqdo0","pricing_plan_id":"cebpf4jnsgd1na2vs0mg"},{"bike_id":"014b1ea6-ad24-4ed0-b5e2-649ceda6f58e","system_id":"levelo_inurba_marseille","lat":43.29305,"lon":5.37172,"is_reserved":false,"is_disabled":false,"rental_uris":{"android":"levelo://app?vid=014b1ea6-ad24-4ed0-b5e2-649ceda6f58e","ios":"levelo://app?vid=014b1ea6-ad24-4ed0-b5e2-649ceda6f58e"},"vehicle_type_id":"4","last_reported":1742497640,"current_range_meters":3200,"station_id":"ce4bgh92rcd13ifvqb40","pricing_plan_id":"cebpf4jnsgd1na2vs0mg"},{"bike_id":"9cf5a5cb-65b0-4fa2-ad7c-969fd489975f","system_id":"levelo_inurba_marseille","lat":43.28703,"lon":5.37392,"is_reserved":false,"is_disabled":true,"rental_uris":{"android":"levelo://app?vid=9cf5a5cb-65b0-4fa2-ad7c-969fd489975f","ios":"levelo://app?vid=9cf5a5cb-65b0-4fa2-ad7c-969fd489975f"},"vehicle_type_id":"4","last_reported":1742497640,"current_range_meters":3200,"station_id":"ce4bh3p2rcd13ifvqdq0","pricing_plan_id":"cebpf4jnsgd1na2vs0mg"},{"bike_id":"b1cfa601-5b57-4a04-8c79-cbc90bdc56fc","system_id":"levelo_inurba_marseille","lat":43.28414,"lon":5.37516,"is_reserved":false,"is_disabled":false,"rental_uris":{"android":"levelo://app?vid=b1cfa601-5b57-4a04-8c79-cbc90bdc56fc","ios":"levelo://app?vid=b1cfa601-5b57-4a04-8c79-cbc90bdc56fc"},"vehicle_type_id":"4","last_reported":1742497640,"current_range_meters":3200,"station_id":"ce4bh412rcd13ifvqds0","pricing_plan_id":"cebpf4jnsgd1na2vs0mg"},{"bike_id":"f5fb82dd-c7e9-414d-8b13-9b32aba705dc","system_id":"levelo_inurba_marseille","lat":43.27614,"lon":5.36108,"is_reserved":false,"is_disabled":false,"rental_uris":{"android":"levelo://app?vid=f5fb82dd-c7e9-414d-8b13-9b32aba705dc","ios":"levelo://app?vid=f5fb82dd-c7e9-414d-8b13-9b32aba705dc"},"vehicle_type_id":"4","last_reported":1742497640,"current_range_meters":3200,"station_id":"ce4bgj92rcd13ifvqbe0","pricing_plan_id":"cebpf4jnsgd1na2vs0mg"},{"bike_id":"49374a16-5c53-45b5-84b7-4b5d6f07c6c2","system_id":"levelo_inurba_marseille","lat":43.30207,"lon":5.366,"is_reserved":false,"is_disabled":false,"rental_uris":{"android":"levelo://app?vid=49374a16-5c53-45b5-84b7-4b5d6f07c6c2","ios":"levelo://app?vid=49374a16-5c53-45b5-84b7-4b5d6f07c6c2"},"vehicle_type_id":"4","last_reported":1742497640,"current_range_meters":3600,"station_id":"ce4bgrh2rcd13ifvqc8g","pricing_plan_id":"cebpf4jnsgd1na2vs0mg"},{"bike_id":"efbacec4-d2a2-4658-b963-f539ff7b79ac","system_id":"levelo_inurba_marseille","lat":43.32309,"lon":5.38221,"is_reserved":false,"is_disabled":false,"rental_uris":{"android":"levelo://app?vid=efbacec4-d2a2-4658-b963-f539ff7b79ac","ios":"levelo://app?vid=efbacec4-d2a2-4658-b963-f539ff7b79ac"},"vehicle_type_id":"4","last_reported":1742497640,"current_range_meters":3600,"station_id":"","pricing_plan_id":"cebpf4jnsgd1na2vs0mg"},{"bike_id":"37386457-e11b-4618-b8a5-112d7bd783f2","system_id":"levelo_inurba_marseille","lat":43.300934,"lon":5.390749,"is_reserved":false,"is_disabled":false,"rental_uris":{"android":"levelo://app?vid=37386457-e11b-4618-b8a5-112d7bd783f2","ios":"levelo://app?vid=37386457-e11b-4618-b8a5-112d7bd783f2"},"vehicle_type_id":"4","last_reported":1742497640,"current_range_meters":3600,"station_id":"ce4bh3p2rcd13ifvqdq0","pricing_plan_id":"cebpf4jnsgd1na2vs0mg"},{"bike_id":"49068b70-410f-4779-b53d-b6bcfbcd6066","system_id":"levelo_inurba_marseille","lat":43.29275,"lon":5.36838,"is_reserved":false,"is_disabled":false,"rental_uris":{"android":"levelo://app?vid=49068b70-410f-4779-b53d-b6bcfbcd6066","ios":"levelo://app?vid=49068b70-410f-4779-b53d-b6bcfbcd6066"},"vehicle_type_id":"4","last_reported":1742497640,"current_range_meters":3600,"station_id":"ce4bhbp2rcd13ifvqesg","pricing_plan_id":"cebpf4jnsgd1na2vs0mg"},{"bike_id":"8d28e9ae-6fdb-40eb-b9e1-5facd42fb9fa","system_id":"levelo_inurba_marseille","lat":43.28969,"lon":5.37843,"is_reserved":false,"is_disabled":true,"rental_uris":{"android":"levelo://app?vid=8d28e9ae-6fdb-40eb-b9e1-5facd42fb9fa","ios":"levelo://app?vid=8d28e9ae-6fdb-40eb-b9e1-5facd42fb9fa"},"vehicle_type_id":"4","last_reported":1742497640,"current_range_meters":3600,"station_id":"ce4bh9p2rcd13ifvqed0","pricing_plan_id":"cebpf4jnsgd1na2vs0mg"},{"bike_id":"e10c0d45-e464-450b-a10f-befa85f1304c","system_id":"levelo_inurba_marseille","lat":43.29898,"lon":5.43669,"is_reserved":false,"is_disabled":false,"rental_uris":{"android":"levelo://app?vid=e10c0d45-e464-450b-a10f-befa85f1304c","ios":"levelo://app?vid=e10c0d45-e464-450b-a10f-befa85f1304c"},"vehicle_type_id":"4","last_reported":1742497640,"current_range_meters":3600,"station_id":"ce4bhpp2rcd13ifvqhfg","pricing_plan_id":"cebpf4jnsgd1na2vs0mg"},{"bike_id":"d3d67e47-df72-49b7-816d-ea3c9316dc05","system_id":"levelo_inurba_marseille","lat":43.30925,"lon":5.40163,"is_reserved":false,"is_disabled":false,"rental_uris":{"android":"levelo://app?vid=d3d67e47-df72-49b7-816d-ea3c9316dc05","ios":"levelo://app?vid=d3d67e47-df72-49b7-816d-ea3c9316dc05"},"vehicle_type_id":"4","last_reported":1742497640,"current_range_meters":3600,"station_id":"ce4bgvp2rcd13ifvqct0","pricing_plan_id":"cebpf4jnsgd1na2vs0mg"},{"bike_id":"75fca2c2-72e4-4c07-8de8-e1ef62170fbc","system_id":"levelo_inurba_marseille","lat":43.26714,"lon":5.38244,"is_reserved":false,"is_disabled":true,"rental_uris":{"android":"levelo://app?vid=75fca2c2-72e4-4c07-8de8-e1ef62170fbc","ios":"levelo://app?vid=75fca2c2-72e4-4c07-8de8-e1ef62170fbc"},"vehicle_type_id":"4","last_reported":1742497640,"current_range_meters":4000,"station_id":"ce4bhg92rcd13ifvqf90","pricing_plan_id":"cebpf4jnsgd1na2vs0mg"},{"bike_id":"d8aa13bc-c0de-4b3f-804a-1288a2bac332","system_id":"levelo_inurba_marseille","lat":43.29422,"lon":5.38617,"is_reserved":false,"is_disabled":false,"rental_uris":{"android":"levelo://app?vid=d8aa13bc-c0de-4b3f-804a-1288a2bac332","ios":"levelo://app?vid=d8aa13bc-c0de-4b3f-804a-1288a2bac332"},"vehicle_type_id":"4","last_reported":1742497640,"current_range_meters":4400,"station_id":"ce4bh2h2rcd13ifvqdh0","pricing_plan_id":"cebpf4jnsgd1na2vs0mg"},{"bike_id":"f0304fda-0521-4529-8e4a-bf73339f8aa8","system_id":"levelo_inurba_marseille","lat":43.28158,"lon":5.42633,"is_reserved":false,"is_disabled":false,"rental_uris":{"android":"levelo://app?vid=f0304fda-0521-4529-8e4a-bf73339f8aa8","ios":"levelo://app?vid=f0304fda-0521-4529-8e4a-bf73339f8aa8"},"vehicle_type_id":"4","last_reported":1742497640,"current_range_meters":4000,"station_id":"ce4bhnh2rcd13ifvqgug","pricing_plan_id":"cebpf4jnsgd1na2vs0mg"},{"bike_id":"5bcd510f-a930-44b0-be13-dbdc3223a4e2","system_id":"levelo_inurba_marseille","lat":43.25081,"lon":5.39531,"is_reserved":false,"is_disabled":false,"rental_uris":{"android":"levelo://app?vid=5bcd510f-a930-44b0-be13-dbdc3223a4e2","ios":"levelo://app?vid=5bcd510f-a930-44b0-be13-dbdc3223a4e2"},"vehicle_type_id":"4","last_reported":1742497640,"current_range_meters":4400,"station_id":"ce4bhm12rcd13ifvqgkg","pricing_plan_id":"cebpf4jnsgd1na2vs0mg"},{"bike_id":"8f4aba26-310a-4061-907d-dd7bcaaf0b61","system_id":"levelo_inurba_marseille","lat":43.23197,"lon":5.40016,"is_reserved":false,"is_disabled":false,"rental_uris":{"android":"levelo://app?vid=8f4aba26-310a-4061-907d-dd7bcaaf0b61","ios":"levelo://app?vid=8f4aba26-310a-4061-907d-dd7bcaaf0b61"},"vehicle_type_id":"4","last_reported":1742497640,"current_range_meters":4400,"station_id":"ce4bhn12rcd13ifvqgqg","pricing_plan_id":"cebpf4jnsgd1na2vs0mg"},{"bike_id":"e6c6012c-5a57-4b90-971f-9808c015cff2","system_id":"levelo_inurba_marseille","lat":43.31368,"lon":5.38493,"is_reserved":false,"is_disabled":false,"rental_uris":{"android":"levelo://app?vid=e6c6012c-5a57-4b90-971f-9808c015cff2","ios":"levelo://app?vid=e6c6012c-5a57-4b90-971f-9808c015cff2"},"vehicle_type_id":"4","last_reported":1742497640,"current_range_meters":4400,"station_id":"ce4bgt92rcd13ifvqcf0","pricing_plan_id":"cebpf4jnsgd1na2vs0mg"},{"bike_id":"90ed294f-924d-4f4d-b687-f15c2e696ec8","system_id":"levelo_inurba_marseille","lat":43.28467,"lon":5.35893,"is_reserved":false,"is_disabled":false,"rental_uris":{"android":"levelo://app?vid=90ed294f-924d-4f4d-b687-f15c2e696ec8","ios":"levelo://app?vid=90ed294f-924d-4f4d-b687-f15c2e696ec8"},"vehicle_type_id":"4","last_reported":1742497640,"current_range_meters":4400,"station_id":"ce4bhah2rcd13ifvqei0","pricing_plan_id":"cebpf4jnsgd1na2vs0mg"},{"bike_id":"21c8788d-91e1-46b4-bb05-d23b8ae211dd","system_id":"levelo_inurba_marseille","lat":43.30353,"lon":5.41877,"is_reserved":false,"is_disabled":false,"rental_uris":{"android":"levelo://app?vid=21c8788d-91e1-46b4-bb05-d23b8ae211dd","ios":"levelo://app?vid=21c8788d-91e1-46b4-bb05-d23b8ae211dd"},"vehicle_type_id":"4","last_reported":1742497640,"current_range_meters":4400,"station_id":"ce4bhop2rcd13ifvqh7g","pricing_plan_id":"cebpf4jnsgd1na2vs0mg"},{"bike_id":"7416a75c-fb1b-4571-ad2d-2f6d193cf98b","system_id":"levelo_inurba_marseille","lat":43.29533,"lon":5.38545,"is_reserved":false,"is_disabled":false,"rental_uris":{"android":"levelo://app?vid=7416a75c-fb1b-4571-ad2d-2f6d193cf98b","ios":"levelo://app?vid=7416a75c-fb1b-4571-ad2d-2f6d193cf98b"},"vehicle_type_id":"4","last_reported":1742497640,"current_range_meters":4800,"station_id":"ce4bgih2rcd13ifvqba0","pricing_plan_id":"cebpf4jnsgd1na2vs0mg"},{"bike_id":"af6c0963-0249-4212-bc85-04308e89d83b","system_id":"levelo_inurba_marseille","lat":43.29685,"lon":5.37355,"is_reserved":false,"is_disabled":false,"rental_uris":{"android":"levelo://app?vid=af6c0963-0249-4212-bc85-04308e89d83b","ios":"levelo://app?vid=af6c0963-0249-4212-bc85-04308e89d83b"},"vehicle_type_id":"4","last_reported":1742497640,"current_range_meters":4400,"station_id":"","pricing_plan_id":"cebpf4jnsgd1na2vs0mg"},{"bike_id":"e6b90de3-f8df-47f9-80d8-aafb005fc332","system_id":"levelo_inurba_marseille","lat":43.290364,"lon":5.375865,"is_reserved":false,"is_disabled":false,"rental_uris":{"android":"levelo://app?vid=e6b90de3-f8df-47f9-80d8-aafb005fc332","ios":"levelo://app?vid=e6b90de3-f8df-47f9-80d8-aafb005fc332"},"vehicle_type_id":"4","last_reported":1742497640,"current_range_meters":4400,"station_id":"ce4bh692rcd13ifvqe90","pricing_plan_id":"cebpf4jnsgd1na2vs0mg"},{"bike_id":"240837ef-0fc8-4630-a319-393027fc7a1c","system_id":"levelo_inurba_marseille","lat":43.26558,"lon":5.37296,"is_reserved":false,"is_disabled":false,"rental_uris":{"android":"levelo://app?vid=240837ef-0fc8-4630-a319-393027fc7a1c","ios":"levelo://app?vid=240837ef-0fc8-4630-a319-393027fc7a1c"},"vehicle_type_id":"4","last_reported":1742497640,"current_range_meters":4400,"station_id":"ce4bhg12rcd13ifvqf70","pricing_plan_id":"cebpf4jnsgd1na2vs0mg"},{"bike_id":"012edb93-d589-4745-afdf-a383991e863c","system_id":"levelo_inurba_marseille","lat":43.3014,"lon":5.38065,"is_reserved":false,"is_disabled":false,"rental_uris":{"android":"levelo://app?vid=012edb93-d589-4745-afdf-a383991e863c","ios":"levelo://app?vid=012edb93-d589-4745-afdf-a383991e863c"},"vehicle_type_id":"4","last_reported":1742497640,"current_range_meters":4400,"station_id":"ce4bgjp2rcd13ifvqbh0","pricing_plan_id":"cebpf4jnsgd1na2vs0mg"},{"bike_id":"a0806a74-dcd1-467b-a8b2-ac43d6e35553","system_id":"levelo_inurba_marseille","lat":43.28449,"lon":5.35883,"is_reserved":false,"is_disabled":false,"rental_uris":{"android":"levelo://app?vid=a0806a74-dcd1-467b-a8b2-ac43d6e35553","ios":"levelo://app?vid=a0806a74-dcd1-467b-a8b2-ac43d6e35553"},"vehicle_type_id":"4","last_reported":1742497640,"current_range_meters":4800,"station_id":"ce4bhah2rcd13ifvqei0","pricing_plan_id":"cebpf4jnsgd1na2vs0mg"},{"bike_id":"b6b55721-b180-4355-a096-a2357f93b352","system_id":"levelo_inurba_marseille","lat":43.27987,"lon":5.4004,"is_reserved":false,"is_disabled":false,"rental_uris":{"android":"levelo://app?vid=b6b55721-b180-4355-a096-a2357f93b352","ios":"levelo://app?vid=b6b55721-b180-4355-a096-a2357f93b352"},"vehicle_type_id":"4","last_reported":1742497640,"current_range_meters":4800,"station_id":"ce4bho92rcd13ifvqh4g","pricing_plan_id":"cebpf4jnsgd1na2vs0mg"},{"bike_id":"65dab6dd-639d-481a-8a31-16890cf3469c","system_id":"levelo_inurba_marseille","lat":43.292709,"lon":5.37194,"is_reserved":false,"is_disabled":false,"rental_uris":{"android":"levelo://app?vid=65dab6dd-639d-481a-8a31-16890cf3469c","ios":"levelo://app?vid=65dab6dd-639d-481a-8a31-16890cf3469c"},"vehicle_type_id":"4","last_reported":1742497640,"current_range_meters":4800,"station_id":"ce4bgh92rcd13ifvqb40","pricing_plan_id":"cebpf4jnsgd1na2vs0mg"},{"bike_id":"2605817b-6d9d-44a7-bb7f-db92a902278f","system_id":"levelo_inurba_marseille","lat":43.24075,"lon":5.37761,"is_reserved":false,"is_disabled":false,"rental_uris":{"android":"levelo://app?vid=2605817b-6d9d-44a7-bb7f-db92a902278f","ios":"levelo://app?vid=2605817b-6d9d-44a7-bb7f-db92a902278f"},"vehicle_type_id":"4","last_reported":1742497640,"current_range_meters":4400,"station_id":"ce4bhnp2rcd13ifvqgvg","pricing_plan_id":"cebpf4jnsgd1na2vs0mg"},{"bike_id":"7ced8c22-c9e2-4f70-b173-4daf07876efc","system_id":"levelo_inurba_marseille","lat":43.25722,"lon":5.41116,"is_reserved":false,"is_disabled":false,"rental_uris":{"android":"levelo://app?vid=7ced8c22-c9e2-4f70-b173-4daf07876efc","ios":"levelo://app?vid=7ced8c22-c9e2-4f70-b173-4daf07876efc"},"vehicle_type_id":"4","last_reported":1742497640,"current_range_meters":4800,"station_id":"ce4bhkp2rcd13ifvqgd0","pricing_plan_id":"cebpf4jnsgd1na2vs0mg"},{"bike_id":"acc3d106-0187-4f94-8309-a81ae4586b19","system_id":"levelo_inurba_marseille","lat":43.31352,"lon":5.38498,"is_reserved":false,"is_disabled":false,"rental_uris":{"android":"levelo://app?vid=acc3d106-0187-4f94-8309-a81ae4586b19","ios":"levelo://app?vid=acc3d106-0187-4f94-8309-a81ae4586b19"},"vehicle_type_id":"4","last_reported":1742497640,"current_range_meters":4800,"station_id":"ce4bgt92rcd13ifvqcf0","pricing_plan_id":"cebpf4jnsgd1na2vs0mg"},{"bike_id":"99743687-257a-444c-b1d0-3101ba257cca","system_id":"levelo_inurba_marseille","lat":43.28093,"lon":5.39864,"is_reserved":false,"is_disabled":false,"rental_uris":{"android":"levelo://app?vid=99743687-257a-444c-b1d0-3101ba257cca","ios":"levelo://app?vid=99743687-257a-444c-b1d0-3101ba257cca"},"vehicle_type_id":"4","last_reported":1742497640,"current_range_meters":4800,"station_id":"","pricing_plan_id":"cebpf4jnsgd1na2vs0mg"},{"bike_id":"ef18834d-9847-4f01-92af-3b09513275e8","system_id":"levelo_inurba_marseille","lat":43.3106,"lon":5.3835,"is_reserved":false,"is_disabled":false,"rental_uris":{"android":"levelo://app?vid=ef18834d-9847-4f01-92af-3b09513275e8","ios":"levelo://app?vid=ef18834d-9847-4f01-92af-3b09513275e8"},"vehicle_type_id":"4","last_reported":1742497640,"current_range_meters":4800,"station_id":"ce4bgv92rcd13ifvqcr0","pricing_plan_id":"cebpf4jnsgd1na2vs0mg"},{"bike_id":"349d56d9-7cdd-49fa-95b6-4ca35fd6995e","system_id":"levelo_inurba_marseille","lat":43.267841,"lon":5.394099,"is_reserved":false,"is_disabled":false,"rental_uris":{"android":"levelo://app?vid=349d56d9-7cdd-49fa-95b6-4ca35fd6995e","ios":"levelo://app?vid=349d56d9-7cdd-49fa-95b6-4ca35fd6995e"},"vehicle_type_id":"4","last_reported":1742497640,"current_range_meters":4800,"station_id":"ce4bhl92rcd13ifvqghg","pricing_plan_id":"cebpf4jnsgd1na2vs0mg"},{"bike_id":"c1b2ac8b-aa9a-4eb8-9a76-828f440b36e4","system_id":"levelo_inurba_marseille","lat":43.28096,"lon":5.37855,"is_reserved":false,"is_disabled":false,"rental_uris":{"android":"levelo://app?vid=c1b2ac8b-aa9a-4eb8-9a76-828f440b36e4","ios":"levelo://app?vid=c1b2ac8b-aa9a-4eb8-9a76-828f440b36e4"},"vehicle_type_id":"4","last_reported":1742497640,"current_range_meters":4800,"station_id":"ce4bha12rcd13ifvqee0","pricing_plan_id":"cebpf4jnsgd1na2vs0mg"},{"bike_id":"ee746468-ba81-4891-aca0-f06d91ce4202","system_id":"levelo_inurba_marseille","lat":43.2941,"lon":5.38622,"is_reserved":false,"is_disabled":false,"rental_uris":{"android":"levelo://app?vid=ee746468-ba81-4891-aca0-f06d91ce4202","ios":"levelo://app?vid=ee746468-ba81-4891-aca0-f06d91ce4202"},"vehicle_type_id":"4","last_reported":1742497640,"current_range_meters":5600,"station_id":"ce4bh2h2rcd13ifvqdh0","pricing_plan_id":"cebpf4jnsgd1na2vs0mg"},{"bike_id":"abc16553-8c19-4c2a-8ae6-2755ac13bae6","system_id":"levelo_inurba_marseille","lat":43.30966,"lon":5.39029,"is_reserved":false,"is_disabled":true,"rental_uris":{"android":"levelo://app?vid=abc16553-8c19-4c2a-8ae6-2755ac13bae6","ios":"levelo://app?vid=abc16553-8c19-4c2a-8ae6-2755ac13bae6"},"vehicle_type_id":"4","last_reported":1742497640,"current_range_meters":5600,"station_id":"ce4bgup2rcd13ifvqco0","pricing_plan_id":"cebpf4jnsgd1na2vs0mg"},{"bike_id":"3455258b-4135-46b9-9a26-10bf95160e40","system_id":"levelo_inurba_marseille","lat":43.23188,"lon":5.35562,"is_reserved":false,"is_disabled":false,"rental_uris":{"android":"levelo://app?vid=3455258b-4135-46b9-9a26-10bf95160e40","ios":"levelo://app?vid=3455258b-4135-46b9-9a26-10bf95160e40"},"vehicle_type_id":"4","last_reported":1742497640,"current_range_meters":5600,"station_id":"ce4bhu92rcd13ifvqi70","pricing_plan_id":"cebpf4jnsgd1na2vs0mg"},{"bike_id":"4a343c8d-a91c-4069-9d2e-88a4d811ac35","system_id":"levelo_inurba_marseille","lat":43.27809,"lon":5.40713,"is_reserved":false,"is_disabled":false,"rental_uris":{"android":"levelo://app?vid=4a343c8d-a91c-4069-9d2e-88a4d811ac35","ios":"levelo://app?vid=4a343c8d-a91c-4069-9d2e-88a4d811ac35"},"vehicle_type_id":"4","last_reported":1742497640,"current_range_meters":6000,"station_id":"ce4bhnh2rcd13ifvqgtg","pricing_plan_id":"cebpf4jnsgd1na2vs0mg"},{"bike_id":"458c303a-88d7-415c-9816-b33d6b44fe21","system_id":"levelo_inurba_marseille","lat":43.24077,"lon":5.37759,"is_reserved":false,"is_disabled":false,"rental_uris":{"android":"levelo://app?vid=458c303a-88d7-415c-9816-b33d6b44fe21","ios":"levelo://app?vid=458c303a-88d7-415c-9816-b33d6b44fe21"},"vehicle_type_id":"4","last_reported":1742497640,"current_range_meters":5600,"station_id":"ce4bhnp2rcd13ifvqgvg","pricing_plan_id":"cebpf4jnsgd1na2vs0mg"},{"bike_id":"30448cfc-53ac-4088-86ed-3a624fbeb1f7","system_id":"levelo_inurba_marseille","lat":43.23959,"lon":5.36631,"is_reserved":false,"is_disabled":false,"rental_uris":{"android":"levelo://app?vid=30448cfc-53ac-4088-86ed-3a624fbeb1f7","ios":"levelo://app?vid=30448cfc-53ac-4088-86ed-3a624fbeb1f7"},"vehicle_type_id":"4","last_reported":1742497640,"current_range_meters":5600,"station_id":"ce4bhi12rcd13ifvqfp0","pricing_plan_id":"cebpf4jnsgd1na2vs0mg"},{"bike_id":"21e9785d-34cb-4681-81ac-31e3a2b71570","system_id":"levelo_inurba_marseille","lat":43.27813,"lon":5.40712,"is_reserved":false,"is_disabled":false,"rental_uris":{"android":"levelo://app?vid=21e9785d-34cb-4681-81ac-31e3a2b71570","ios":"levelo://app?vid=21e9785d-34cb-4681-81ac-31e3a2b71570"},"vehicle_type_id":"4","last_reported":1742497640,"current_range_meters":5600,"station_id":"ce4bhnh2rcd13ifvqgtg","pricing_plan_id":"cebpf4jnsgd1na2vs0mg"},{"bike_id":"06d9eced-33ea-4745-97b3-c6ef3a231599","system_id":"levelo_inurba_marseille","lat":43.2926,"lon":5.40895,"is_reserved":false,"is_disabled":false,"rental_uris":{"android":"levelo://app?vid=06d9eced-33ea-4745-97b3-c6ef3a231599","ios":"levelo://app?vid=06d9eced-33ea-4745-97b3-c6ef3a231599"},"vehicle_type_id":"4","last_reported":1742497640,"current_range_meters":5600,"station_id":"ce4bh192rcd13ifvqdc0","pricing_plan_id":"cebpf4jnsgd1na2vs0mg"},{"bike_id":"bed73468-62ed-4fc8-ab4f-8ce154d5bd17","system_id":"levelo_inurba_marseille","lat":43.31122,"lon":5.37758,"is_reserved":false,"is_disabled":false,"rental_uris":{"android":"levelo://app?vid=bed73468-62ed-4fc8-ab4f-8ce154d5bd17","ios":"levelo://app?vid=bed73468-62ed-4fc8-ab4f-8ce154d5bd17"},"vehicle_type_id":"4","last_reported":1742497640,"current_range_meters":5600,"station_id":"ce4bgt92rcd13ifvqcg0","pricing_plan_id":"cebpf4jnsgd1na2vs0mg"},{"bike_id":"eda36a8c-21c7-4143-8514-aa616390206b","system_id":"levelo_inurba_marseille","lat":43.27183,"lon":5.41002,"is_reserved":false,"is_disabled":false,"rental_uris":{"android":"levelo://app?vid=eda36a8c-21c7-4143-8514-aa616390206b","ios":"levelo://app?vid=eda36a8c-21c7-4143-8514-aa616390206b"},"vehicle_type_id":"4","last_reported":1742497640,"current_range_meters":5600,"station_id":"ce4bhl12rcd13ifvqgf0","pricing_plan_id":"cebpf4jnsgd1na2vs0mg"},{"bike_id":"23400e1a-f7e0-46d5-b43e-c583e63af393","system_id":"levelo_inurba_marseille","lat":43.29723,"lon":5.37706,"is_reserved":false,"is_disabled":false,"rental_uris":{"android":"levelo://app?vid=23400e1a-f7e0-46d5-b43e-c583e63af393","ios":"levelo://app?vid=23400e1a-f7e0-46d5-b43e-c583e63af393"},"vehicle_type_id":"4","last_reported":1742497640,"current_range_meters":5600,"station_id":"ce4bgkh2rcd13ifvqbl0","pricing_plan_id":"cebpf4jnsgd1na2vs0mg"},{"bike_id":"100e505b-1b3b-41a4-b9dc-58d4e3b6ed34","system_id":"levelo_inurba_marseille","lat":43.25725,"lon":5.4112,"is_reserved":false,"is_disabled":false,"rental_uris":{"android":"levelo://app?vid=100e505b-1b3b-41a4-b9dc-58d4e3b6ed34","ios":"levelo://app?vid=100e505b-1b3b-41a4-b9dc-58d4e3b6ed34"},"vehicle_type_id":"4","last_reported":1742497640,"current_range_meters":6000,"station_id":"ce4bhkp2rcd13ifvqgd0","pricing_plan_id":"cebpf4jnsgd1na2vs0mg"},{"bike_id":"e25a8163-11bd-4aec-9675-ff5dcf80e076","system_id":"levelo_inurba_marseille","lat":43.30811,"lon":5.38143,"is_reserved":false,"is_disabled":false,"rental_uris":{"android":"levelo://app?vid=e25a8163-11bd-4aec-9675-ff5dcf80e076","ios":"levelo://app?vid=e25a8163-11bd-4aec-9675-ff5dcf80e076"},"vehicle_type_id":"4","last_reported":1742497640,"current_range_meters":6000,"station_id":"ce4bgt12rcd13ifvqce0","pricing_plan_id":"cebpf4jnsgd1na2vs0mg"},{"bike_id":"88511b4e-bf8a-4003-8897-51c2d9777577","system_id":"levelo_inurba_marseille","lat":43.28858,"lon":5.35825,"is_reserved":false,"is_disabled":false,"rental_uris":{"android":"levelo://app?vid=88511b4e-bf8a-4003-8897-51c2d9777577","ios":"levelo://app?vid=88511b4e-bf8a-4003-8897-51c2d9777577"},"vehicle_type_id":"4","last_reported":1742497640,"current_range_meters":6000,"station_id":"ce4bhb12rcd13ifvqem0","pricing_plan_id":"cebpf4jnsgd1na2vs0mg"},{"bike_id":"71545057-6697-48fe-a994-110f3c3074f7","system_id":"levelo_inurba_marseille","lat":43.29044,"lon":5.38651,"is_reserved":false,"is_disabled":false,"rental_uris":{"android":"levelo://app?vid=71545057-6697-48fe-a994-110f3c3074f7","ios":"levelo://app?vid=71545057-6697-48fe-a994-110f3c3074f7"},"vehicle_type_id":"4","last_reported":1742497640,"current_range_meters":6000,"station_id":"ce4bh4p2rcd13ifvqe0g","pricing_plan_id":"cebpf4jnsgd1na2vs0mg"},{"bike_id":"1188011b-7178-4052-b58a-2ec7c3196777","system_id":"levelo_inurba_marseille","lat":43.29614,"lon":5.38103,"is_reserved":false,"is_disabled":false,"rental_uris":{"android":"levelo://app?vid=1188011b-7178-4052-b58a-2ec7c3196777","ios":"levelo://app?vid=1188011b-7178-4052-b58a-2ec7c3196777"},"vehicle_type_id":"4","last_reported":1742497640,"current_range_meters":6000,"station_id":"ce4bgl12rcd13ifvqbo0","pricing_plan_id":"cebpf4jnsgd1na2vs0mg"},{"bike_id":"dd3884dc-0b6b-4a2b-8af5-b0f72ae3a61b","system_id":"levelo_inurba_marseille","lat":43.23217,"lon":5.35543,"is_reserved":false,"is_disabled":false,"rental_uris":{"android":"levelo://app?vid=dd3884dc-0b6b-4a2b-8af5-b0f72ae3a61b","ios":"levelo://app?vid=dd3884dc-0b6b-4a2b-8af5-b0f72ae3a61b"},"vehicle_type_id":"4","last_reported":1742497640,"current_range_meters":6000,"station_id":"ce4bhu92rcd13ifvqi70","pricing_plan_id":"cebpf4jnsgd1na2vs0mg"},{"bike_id":"28a07579-9ac3-4da1-82a2-f9d200b8d575","system_id":"levelo_inurba_marseille","lat":43.24648,"lon":5.38897,"is_reserved":false,"is_disabled":false,"rental_uris":{"android":"levelo://app?vid=28a07579-9ac3-4da1-82a2-f9d200b8d575","ios":"levelo://app?vid=28a07579-9ac3-4da1-82a2-f9d200b8d575"},"vehicle_type_id":"4","last_reported":1742497640,"current_range_meters":6000,"station_id":"ce4bhg12rcd13ifvqf60","pricing_plan_id":"cebpf4jnsgd1na2vs0mg"},{"bike_id":"3b276e99-234c-4646-acfe-1384ad70d051","system_id":"levelo_inurba_marseille","lat":43.25091,"lon":5.39526,"is_reserved":false,"is_disabled":false,"rental_uris":{"android":"levelo://app?vid=3b276e99-234c-4646-acfe-1384ad70d051","ios":"levelo://app?vid=3b276e99-234c-4646-acfe-1384ad70d051"},"vehicle_type_id":"4","last_reported":1742497640,"current_range_meters":6400,"station_id":"ce4bhm12rcd13ifvqgkg","pricing_plan_id":"cebpf4jnsgd1na2vs0mg"},{"bike_id":"4a4f3811-2ad7-4fc4-a059-e5c5f9cfa94d","system_id":"levelo_inurba_marseille","lat":43.25585,"lon":5.38226,"is_reserved":false,"is_disabled":false,"rental_uris":{"android":"levelo://app?vid=4a4f3811-2ad7-4fc4-a059-e5c5f9cfa94d","ios":"levelo://app?vid=4a4f3811-2ad7-4fc4-a059-e5c5f9cfa94d"},"vehicle_type_id":"4","last_reported":1742497640,"current_range_meters":6400,"station_id":"ce4bhih2rcd13ifvqfs0","pricing_plan_id":"cebpf4jnsgd1na2vs0mg"},{"bike_id":"9a6e2ba2-f2b0-463e-aed1-752a3cc20324","system_id":"levelo_inurba_marseille","lat":43.29434,"lon":5.39738,"is_reserved":false,"is_disabled":false,"rental_uris":{"android":"levelo://app?vid=9a6e2ba2-f2b0-463e-aed1-752a3cc20324","ios":"levelo://app?vid=9a6e2ba2-f2b0-463e-aed1-752a3cc20324"},"vehicle_type_id":"4","last_reported":1742497640,"current_range_meters":6400,"station_id":"ce4bh3h2rcd13ifvqdo0","pricing_plan_id":"cebpf4jnsgd1na2vs0mg"},{"bike_id":"c3562de0-8d86-41c8-a4a0-8a1a926e1139","system_id":"levelo_inurba_marseille","lat":43.27948,"lon":5.41059,"is_reserved":false,"is_disabled":false,"rental_uris":{"android":"levelo://app?vid=c3562de0-8d86-41c8-a4a0-8a1a926e1139","ios":"levelo://app?vid=c3562de0-8d86-41c8-a4a0-8a1a926e1139"},"vehicle_type_id":"4","last_reported":1742497640,"current_range_meters":6400,"station_id":"ce4bhnp2rcd13ifvqh0g","pricing_plan_id":"cebpf4jnsgd1na2vs0mg"},{"bike_id":"a27e9e25-06bf-4175-9bd6-9c00c02ad86d","system_id":"levelo_inurba_marseille","lat":43.24409,"lon":5.37018,"is_reserved":false,"is_disabled":false,"rental_uris":{"android":"levelo://app?vid=a27e9e25-06bf-4175-9bd6-9c00c02ad86d","ios":"levelo://app?vid=a27e9e25-06bf-4175-9bd6-9c00c02ad86d"},"vehicle_type_id":"4","last_reported":1742497640,"current_range_meters":6400,"station_id":"ce4bhhh2rcd13ifvqfk0","pricing_plan_id":"cebpf4jnsgd1na2vs0mg"},{"bike_id":"cefa1257-21e1-41a1-a462-9e81b528a4d5","system_id":"levelo_inurba_marseille","lat":43.31997,"lon":5.38169,"is_reserved":false,"is_disabled":false,"rental_uris":{"android":"levelo://app?vid=cefa1257-21e1-41a1-a462-9e81b528a4d5","ios":"levelo://app?vid=cefa1257-21e1-41a1-a462-9e81b528a4d5"},"vehicle_type_id":"4","last_reported":1742497640,"current_range_meters":6400,"station_id":"ce4bhr12rcd13ifvqhpg","pricing_plan_id":"cebpf4jnsgd1na2vs0mg"},{"bike_id":"ca29135d-8a5f-42eb-b779-8effff8058e1","system_id":"levelo_inurba_marseille","lat":43.30093,"lon":5.39083,"is_reserved":false,"is_disabled":false,"rental_uris":{"android":"levelo://app?vid=ca29135d-8a5f-42eb-b779-8effff8058e1","ios":"levelo://app?vid=ca29135d-8a5f-42eb-b779-8effff8058e1"},"vehicle_type_id":"4","last_reported":1742497640,"current_range_meters":6400,"station_id":"ce4bh192rcd13ifvqdb0","pricing_plan_id":"cebpf4jnsgd1na2vs0mg"},{"bike_id":"181a4fde-9b69-4103-90f9-7e9ef00b3a7a","system_id":"levelo_inurba_marseille","lat":43.24804,"lon":5.37455,"is_reserved":false,"is_disabled":false,"rental_uris":{"android":"levelo://app?vid=181a4fde-9b69-4103-90f9-7e9ef00b3a7a","ios":"levelo://app?vid=181a4fde-9b69-4103-90f9-7e9ef00b3a7a"},"vehicle_type_id":"4","last_reported":1742497640,"current_range_meters":6400,"station_id":"ce4bhgh2rcd13ifvqfb0","pricing_plan_id":"cebpf4jnsgd1na2vs0mg"},{"bike_id":"02f43b01-3b74-45fa-a40e-2df823c84cda","system_id":"levelo_inurba_marseille","lat":43.24182,"lon":5.3972,"is_reserved":false,"is_disabled":false,"rental_uris":{"android":"levelo://app?vid=02f43b01-3b74-45fa-a40e-2df823c84cda","ios":"levelo://app?vid=02f43b01-3b74-45fa-a40e-2df823c84cda"},"vehicle_type_id":"4","last_reported":1742497640,"current_range_meters":6400,"station_id":"ce4bhn12rcd13ifvqgpg","pricing_plan_id":"cebpf4jnsgd1na2vs0mg"},{"bike_id":"b92f3d05-9f5c-4305-8d4c-6f2dbeca87c4","system_id":"levelo_inurba_marseille","lat":43.28228,"lon":5.37376,"is_reserved":false,"is_disabled":false,"rental_uris":{"android":"levelo://app?vid=b92f3d05-9f5c-4305-8d4c-6f2dbeca87c4","ios":"levelo://app?vid=b92f3d05-9f5c-4305-8d4c-6f2dbeca87c4"},"vehicle_type_id":"4","last_reported":1742497640,"current_range_meters":6400,"station_id":"","pricing_plan_id":"cebpf4jnsgd1na2vs0mg"},{"bike_id":"6a46018a-1cd5-4068-972b-fc963760c628","system_id":"levelo_inurba_marseille","lat":43.28927,"lon":5.38409,"is_reserved":false,"is_disabled":false,"rental_uris":{"android":"levelo://app?vid=6a46018a-1cd5-4068-972b-fc963760c628","ios":"levelo://app?vid=6a46018a-1cd5-4068-972b-fc963760c628"},"vehicle_type_id":"4","last_reported":1742497640,"current_range_meters":6400,"station_id":"ce4bh612rcd13ifvqe6g","pricing_plan_id":"cebpf4jnsgd1na2vs0mg"},{"bike_id":"b4083a00-9108-45f6-be5c-903392a35f03","system_id":"levelo_inurba_marseille","lat":43.30902,"lon":5.36837,"is_reserved":false,"is_disabled":false,"rental_uris":{"android":"levelo://app?vid=b4083a00-9108-45f6-be5c-903392a35f03","ios":"levelo://app?vid=b4083a00-9108-45f6-be5c-903392a35f03"},"vehicle_type_id":"4","last_reported":1742497640,"current_range_meters":6400,"station_id":"ce4bgn92rcd13ifvqbvg","pricing_plan_id":"cebpf4jnsgd1na2vs0mg"},{"bike_id":"9569c729-fd09-4fe4-8f4b-30c78ae5e84f","system_id":"levelo_inurba_marseille","lat":43.33024,"lon":5.39044,"is_reserved":false,"is_disabled":false,"rental_uris":{"android":"levelo://app?vid=9569c729-fd09-4fe4-8f4b-30c78ae5e84f","ios":"levelo://app?vid=9569c729-fd09-4fe4-8f4b-30c78ae5e84f"},"vehicle_type_id":"4","last_reported":1742497640,"current_range_meters":6400,"station_id":"ce4bhr92rcd13ifvqhrg","pricing_plan_id":"cebpf4jnsgd1na2vs0mg"},{"bike_id":"1fea0b3c-94ab-41af-b18e-d9bbaa7dda49","system_id":"levelo_inurba_marseille","lat":43.3171,"lon":5.43704,"is_reserved":false,"is_disabled":false,"rental_uris":{"android":"levelo://app?vid=1fea0b3c-94ab-41af-b18e-d9bbaa7dda49","ios":"levelo://app?vid=1fea0b3c-94ab-41af-b18e-d9bbaa7dda49"},"vehicle_type_id":"4","last_reported":1742497640,"current_range_meters":6400,"station_id":"ce4bhp92rcd13ifvqhcg","pricing_plan_id":"cebpf4jnsgd1na2vs0mg"},{"bike_id":"caee4412-4e45-4e98-a1db-7160ecb5cb52","system_id":"levelo_inurba_marseille","lat":43.29176,"lon":5.37148,"is_reserved":false,"is_disabled":false,"rental_uris":{"android":"levelo://app?vid=caee4412-4e45-4e98-a1db-7160ecb5cb52","ios":"levelo://app?vid=caee4412-4e45-4e98-a1db-7160ecb5cb52"},"vehicle_type_id":"4","last_reported":1742497640,"current_range_meters":6400,"station_id":"ce4bha92rcd13ifvqeh0","pricing_plan_id":"cebpf4jnsgd1na2vs0mg"},{"bike_id":"d526b6e2-b103-4339-baa5-b85128efba8c","system_id":"levelo_inurba_marseille","lat":43.23066,"lon":5.35499,"is_reserved":false,"is_disabled":false,"rental_uris":{"android":"levelo://app?vid=d526b6e2-b103-4339-baa5-b85128efba8c","ios":"levelo://app?vid=d526b6e2-b103-4339-baa5-b85128efba8c"},"vehicle_type_id":"4","last_reported":1742497640,"current_range_meters":6400,"station_id":"cpo3342slgdg3j2ifvpg","pricing_plan_id":"cebpf4jnsgd1na2vs0mg"},{"bike_id":"9ca04de1-e0f1-4186-9bba-159fbcc2fc30","system_id":"levelo_inurba_marseille","lat":43.26207,"lon":5.3793,"is_reserved":false,"is_disabled":true,"rental_uris":{"android":"levelo://app?vid=9ca04de1-e0f1-4186-9bba-159fbcc2fc30","ios":"levelo://app?vid=9ca04de1-e0f1-4186-9bba-159fbcc2fc30"},"vehicle_type_id":"4","last_reported":1742497640,"current_range_meters":6400,"station_id":"ce4bhjp2rcd13ifvqg90","pricing_plan_id":"cebpf4jnsgd1na2vs0mg"},{"bike_id":"8a059d65-2f20-456a-849e-c3b4c355a6a2","system_id":"levelo_inurba_marseille","lat":43.26571,"lon":5.39035,"is_reserved":false,"is_disabled":false,"rental_uris":{"android":"levelo://app?vid=8a059d65-2f20-456a-849e-c3b4c355a6a2","ios":"levelo://app?vid=8a059d65-2f20-456a-849e-c3b4c355a6a2"},"vehicle_type_id":"4","last_reported":1742497640,"current_range_meters":6800,"station_id":"ce4bhe12rcd13ifvqf30","pricing_plan_id":"cebpf4jnsgd1na2vs0mg"},{"bike_id":"e06f7386-e9b3-433f-80f6-5f351b544911","system_id":"levelo_inurba_marseille","lat":43.28154,"lon":5.42646,"is_reserved":false,"is_disabled":false,"rental_uris":{"android":"levelo://app?vid=e06f7386-e9b3-433f-80f6-5f351b544911","ios":"levelo://app?vid=e06f7386-e9b3-433f-80f6-5f351b544911"},"vehicle_type_id":"4","last_reported":1742497640,"current_range_meters":6800,"station_id":"ce4bhnh2rcd13ifvqgug","pricing_plan_id":"cebpf4jnsgd1na2vs0mg"},{"bike_id":"28f34723-7aef-4dd9-ba81-7d6deba682cf","system_id":"levelo_inurba_marseille","lat":43.28166,"lon":5.42648,"is_reserved":false,"is_disabled":false,"rental_uris":{"android":"levelo://app?vid=28f34723-7aef-4dd9-ba81-7d6deba682cf","ios":"levelo://app?vid=28f34723-7aef-4dd9-ba81-7d6deba682cf"},"vehicle_type_id":"4","last_reported":1742497640,"current_range_meters":6800,"station_id":"ce4bhnh2rcd13ifvqgug","pricing_plan_id":"cebpf4jnsgd1na2vs0mg"},{"bike_id":"6e8ebb0f-fd7b-4db1-8bcf-335431ba3090","system_id":"levelo_inurba_marseille","lat":43.27809,"lon":5.40717,"is_reserved":false,"is_disabled":false,"rental_uris":{"android":"levelo://app?vid=6e8ebb0f-fd7b-4db1-8bcf-335431ba3090","ios":"levelo://app?vid=6e8ebb0f-fd7b-4db1-8bcf-335431ba3090"},"vehicle_type_id":"4","last_reported":1742497640,"current_range_meters":6800,"station_id":"ce4bhnh2rcd13ifvqgtg","pricing_plan_id":"cebpf4jnsgd1na2vs0mg"},{"bike_id":"36f5e0b3-fb09-4335-b1e4-03aac5478eef","system_id":"levelo_inurba_marseille","lat":43.29049,"lon":5.35919,"is_reserved":false,"is_disabled":false,"rental_uris":{"android":"levelo://app?vid=36f5e0b3-fb09-4335-b1e4-03aac5478eef","ios":"levelo://app?vid=36f5e0b3-fb09-4335-b1e4-03aac5478eef"},"vehicle_type_id":"4","last_reported":1742497640,"current_range_meters":6800,"station_id":"ce4bha92rcd13ifvqeg0","pricing_plan_id":"cebpf4jnsgd1na2vs0mg"},{"bike_id":"49924b7e-04a6-47f7-9535-206be66abb4e","system_id":"levelo_inurba_marseille","lat":43.2925,"lon":5.40917,"is_reserved":false,"is_disabled":false,"rental_uris":{"android":"levelo://app?vid=49924b7e-04a6-47f7-9535-206be66abb4e","ios":"levelo://app?vid=49924b7e-04a6-47f7-9535-206be66abb4e"},"vehicle_type_id":"4","last_reported":1742497640,"current_range_meters":6800,"station_id":"ce4bh192rcd13ifvqdc0","pricing_plan_id":"cebpf4jnsgd1na2vs0mg"},{"bike_id":"903f6220-d336-47d5-ac04-7b97af688388","system_id":"levelo_inurba_marseille","lat":43.27813,"lon":5.40709,"is_reserved":false,"is_disabled":false,"rental_uris":{"android":"levelo://app?vid=903f6220-d336-47d5-ac04-7b97af688388","ios":"levelo://app?vid=903f6220-d336-47d5-ac04-7b97af688388"},"vehicle_type_id":"4","last_reported":1742497640,"current_range_meters":6800,"station_id":"ce4bhnh2rcd13ifvqgtg","pricing_plan_id":"cebpf4jnsgd1na2vs0mg"},{"bike_id":"9d26c008-8ec1-4269-9cd2-f45774f03ccb","system_id":"levelo_inurba_marseille","lat":43.27926,"lon":5.37932,"is_reserved":false,"is_disabled":false,"rental_uris":{"android":"levelo://app?vid=9d26c008-8ec1-4269-9cd2-f45774f03ccb","ios":"levelo://app?vid=9d26c008-8ec1-4269-9cd2-f45774f03ccb"},"vehicle_type_id":"4","last_reported":1742497640,"current_range_meters":6800,"station_id":"","pricing_plan_id":"cebpf4jnsgd1na2vs0mg"},{"bike_id":"fc410cdd-c461-4918-8037-02954317cd69","system_id":"levelo_inurba_marseille","lat":43.28176,"lon":5.42654,"is_reserved":false,"is_disabled":false,"rental_uris":{"android":"levelo://app?vid=fc410cdd-c461-4918-8037-02954317cd69","ios":"levelo://app?vid=fc410cdd-c461-4918-8037-02954317cd69"},"vehicle_type_id":"4","last_reported":1742497640,"current_range_meters":6800,"station_id":"ce4bhnh2rcd13ifvqgug","pricing_plan_id":"cebpf4jnsgd1na2vs0mg"},{"bike_id":"bf11d2fe-f55c-4671-b347-4107e536dd5f","system_id":"levelo_inurba_marseille","lat":43.27811,"lon":5.40715,"is_reserved":false,"is_disabled":false,"rental_uris":{"android":"levelo://app?vid=bf11d2fe-f55c-4671-b347-4107e536dd5f","ios":"levelo://app?vid=bf11d2fe-f55c-4671-b347-4107e536dd5f"},"vehicle_type_id":"4","last_reported":1742497640,"current_range_meters":6800,"station_id":"ce4bhnh2rcd13ifvqgtg","pricing_plan_id":"cebpf4jnsgd1na2vs0mg"},{"bike_id":"e10da261-0ec8-4a9d-b1f2-3e3c32563c5b","system_id":"levelo_inurba_marseille","lat":43.24174,"lon":5.39731,"is_reserved":false,"is_disabled":false,"rental_uris":{"android":"levelo://app?vid=e10da261-0ec8-4a9d-b1f2-3e3c32563c5b","ios":"levelo://app?vid=e10da261-0ec8-4a9d-b1f2-3e3c32563c5b"},"vehicle_type_id":"4","last_reported":1742497640,"current_range_meters":6800,"station_id":"ce4bhn12rcd13ifvqgpg","pricing_plan_id":"cebpf4jnsgd1na2vs0mg"},{"bike_id":"3ae4f3bd-c485-4c98-8e8e-3c9bb312423a","system_id":"levelo_inurba_marseille","lat":43.24839,"lon":5.37469,"is_reserved":false,"is_disabled":false,"rental_uris":{"android":"levelo://app?vid=3ae4f3bd-c485-4c98-8e8e-3c9bb312423a","ios":"levelo://app?vid=3ae4f3bd-c485-4c98-8e8e-3c9bb312423a"},"vehicle_type_id":"4","last_reported":1742497640,"current_range_meters":7200,"station_id":"","pricing_plan_id":"cebpf4jnsgd1na2vs0mg"},{"bike_id":"a8b8dae1-87ef-4f8a-a2c8-fe9fd9bf0f77","system_id":"levelo_inurba_marseille","lat":43.23535,"lon":5.37689,"is_reserved":false,"is_disabled":false,"rental_uris":{"android":"levelo://app?vid=a8b8dae1-87ef-4f8a-a2c8-fe9fd9bf0f77","ios":"levelo://app?vid=a8b8dae1-87ef-4f8a-a2c8-fe9fd9bf0f77"},"vehicle_type_id":"4","last_reported":1742497640,"current_range_meters":7200,"station_id":"","pricing_plan_id":"cebpf4jnsgd1na2vs0mg"},{"bike_id":"90e30534-300b-4c7d-a549-211f21035f8c","system_id":"levelo_inurba_marseille","lat":43.32298,"lon":5.38231,"is_reserved":false,"is_disabled":false,"rental_uris":{"android":"levelo://app?vid=90e30534-300b-4c7d-a549-211f21035f8c","ios":"levelo://app?vid=90e30534-300b-4c7d-a549-211f21035f8c"},"vehicle_type_id":"4","last_reported":1742497640,"current_range_meters":7200,"station_id":"ce4bhr12rcd13ifvqhqg","pricing_plan_id":"cebpf4jnsgd1na2vs0mg"},{"bike_id":"fc222273-d050-4743-b8b5-353fd8ca2aff","system_id":"levelo_inurba_marseille","lat":43.3112,"lon":5.37768,"is_reserved":false,"is_disabled":false,"rental_uris":{"android":"levelo://app?vid=fc222273-d050-4743-b8b5-353fd8ca2aff","ios":"levelo://app?vid=fc222273-d050-4743-b8b5-353fd8ca2aff"},"vehicle_type_id":"4","last_reported":1742497640,"current_range_meters":7200,"station_id":"ce4bgt92rcd13ifvqcg0","pricing_plan_id":"cebpf4jnsgd1na2vs0mg"},{"bike_id":"ed5cea79-0bea-4c86-8c80-f8de23687c7f","system_id":"levelo_inurba_marseille","lat":43.27479,"lon":5.43998,"is_reserved":false,"is_disabled":false,"rental_uris":{"android":"levelo://app?vid=ed5cea79-0bea-4c86-8c80-f8de23687c7f","ios":"levelo://app?vid=ed5cea79-0bea-4c86-8c80-f8de23687c7f"},"vehicle_type_id":"4","last_reported":1742497640,"current_range_meters":7200,"station_id":"","pricing_plan_id":"cebpf4jnsgd1na2vs0mg"},{"bike_id":"eb5ab9b5-6aca-4902-acee-96969a500566","system_id":"levelo_inurba_marseille","lat":43.29092,"lon":5.38137,"is_reserved":false,"is_disabled":false,"rental_uris":{"android":"levelo://app?vid=eb5ab9b5-6aca-4902-acee-96969a500566","ios":"levelo://app?vid=eb5ab9b5-6aca-4902-acee-96969a500566"},"vehicle_type_id":"4","last_reported":1742497640,"current_range_meters":7200,"station_id":"ce4bh512rcd13ifvqe2g","pricing_plan_id":"cebpf4jnsgd1na2vs0mg"},{"bike_id":"aac792de-e7ad-412b-ab70-917392025714","system_id":"levelo_inurba_marseille","lat":43.265625,"lon":5.390078,"is_reserved":false,"is_disabled":false,"rental_uris":{"android":"levelo://app?vid=aac792de-e7ad-412b-ab70-917392025714","ios":"levelo://app?vid=aac792de-e7ad-412b-ab70-917392025714"},"vehicle_type_id":"4","last_reported":1742497640,"current_range_meters":7200,"station_id":"ce4bh612rcd13ifvqe6g","pricing_plan_id":"cebpf4jnsgd1na2vs0mg"},{"bike_id":"bb55ab9d-3223-4c62-9ba4-1c929d3f7ca3","system_id":"levelo_inurba_marseille","lat":43.29903,"lon":5.43658,"is_reserved":false,"is_disabled":false,"rental_uris":{"android":"levelo://app?vid=bb55ab9d-3223-4c62-9ba4-1c929d3f7ca3","ios":"levelo://app?vid=bb55ab9d-3223-4c62-9ba4-1c929d3f7ca3"},"vehicle_type_id":"4","last_reported":1742497640,"current_range_meters":7200,"station_id":"ce4bhpp2rcd13ifvqhfg","pricing_plan_id":"cebpf4jnsgd1na2vs0mg"},{"bike_id":"05f5704d-b721-4228-869b-cb96f3680706","system_id":"levelo_inurba_marseille","lat":43.27814,"lon":5.40705,"is_reserved":false,"is_disabled":false,"rental_uris":{"android":"levelo://app?vid=05f5704d-b721-4228-869b-cb96f3680706","ios":"levelo://app?vid=05f5704d-b721-4228-869b-cb96f3680706"},"vehicle_type_id":"4","last_reported":1742497640,"current_range_meters":7200,"station_id":"ce4bhnh2rcd13ifvqgtg","pricing_plan_id":"cebpf4jnsgd1na2vs0mg"},{"bike_id":"b591aef1-724a-4134-87b0-a708fce80ff2","system_id":"levelo_inurba_marseille","lat":43.28725,"lon":5.36099,"is_reserved":false,"is_disabled":false,"rental_uris":{"android":"levelo://app?vid=b591aef1-724a-4134-87b0-a708fce80ff2","ios":"levelo://app?vid=b591aef1-724a-4134-87b0-a708fce80ff2"},"vehicle_type_id":"4","last_reported":1742497640,"current_range_meters":7200,"station_id":"cki0cbj6b192h4jlfktg","pricing_plan_id":"cebpf4jnsgd1na2vs0mg"},{"bike_id":"176d2e0b-da43-4b98-b92e-b45d4ab12b2f","system_id":"levelo_inurba_marseille","lat":43.30207,"lon":5.38453,"is_reserved":false,"is_disabled":false,"rental_uris":{"android":"levelo://app?vid=176d2e0b-da43-4b98-b92e-b45d4ab12b2f","ios":"levelo://app?vid=176d2e0b-da43-4b98-b92e-b45d4ab12b2f"},"vehicle_type_id":"4","last_reported":1742497640,"current_range_meters":7200,"station_id":"","pricing_plan_id":"cebpf4jnsgd1na2vs0mg"},{"bike_id":"34f62ef8-0841-43ad-ae47-94f77f1fd13a","system_id":"levelo_inurba_marseille","lat":43.29245,"lon":5.40913,"is_reserved":false,"is_disabled":false,"rental_uris":{"android":"levelo://app?vid=34f62ef8-0841-43ad-ae47-94f77f1fd13a","ios":"levelo://app?vid=34f62ef8-0841-43ad-ae47-94f77f1fd13a"},"vehicle_type_id":"4","last_reported":1742497640,"current_range_meters":8000,"station_id":"ce4bh192rcd13ifvqdc0","pricing_plan_id":"cebpf4jnsgd1na2vs0mg"},{"bike_id":"6eb98e18-92f8-411c-92c0-82d5569fb85c","system_id":"levelo_inurba_marseille","lat":43.32363,"lon":5.36776,"is_reserved":false,"is_disabled":false,"rental_uris":{"android":"levelo://app?vid=6eb98e18-92f8-411c-92c0-82d5569fb85c","ios":"levelo://app?vid=6eb98e18-92f8-411c-92c0-82d5569fb85c"},"vehicle_type_id":"4","last_reported":1742497640,"current_range_meters":8000,"station_id":"ce4bhsh2rcd13ifvqi2g","pricing_plan_id":"cebpf4jnsgd1na2vs0mg"},{"bike_id":"83387607-fe85-4102-866a-32a1f10a3875","system_id":"levelo_inurba_marseille","lat":43.29252,"lon":5.40899,"is_reserved":false,"is_disabled":false,"rental_uris":{"android":"levelo://app?vid=83387607-fe85-4102-866a-32a1f10a3875","ios":"levelo://app?vid=83387607-fe85-4102-866a-32a1f10a3875"},"vehicle_type_id":"4","last_reported":1742497640,"current_range_meters":8000,"station_id":"ce4bh192rcd13ifvqdc0","pricing_plan_id":"cebpf4jnsgd1na2vs0mg"},{"bike_id":"5a6a26d9-9948-42b8-a5b3-4d12b7b6bb56","system_id":"levelo_inurba_marseille","lat":43.27816,"lon":5.40722,"is_reserved":false,"is_disabled":false,"rental_uris":{"android":"levelo://app?vid=5a6a26d9-9948-42b8-a5b3-4d12b7b6bb56","ios":"levelo://app?vid=5a6a26d9-9948-42b8-a5b3-4d12b7b6bb56"},"vehicle_type_id":"4","last_reported":1742497640,"current_range_meters":8000,"station_id":"ce4bhnh2rcd13ifvqgtg","pricing_plan_id":"cebpf4jnsgd1na2vs0mg"},{"bike_id":"8de0b1e7-66cd-4e53-8039-0afe6f52aa14","system_id":"levelo_inurba_marseille","lat":43.27958,"lon":5.41103,"is_reserved":false,"is_disabled":false,"rental_uris":{"android":"levelo://app?vid=8de0b1e7-66cd-4e53-8039-0afe6f52aa14","ios":"levelo://app?vid=8de0b1e7-66cd-4e53-8039-0afe6f52aa14"},"vehicle_type_id":"4","last_reported":1742497640,"current_range_meters":8000,"station_id":"ce4bhnp2rcd13ifvqh0g","pricing_plan_id":"cebpf4jnsgd1na2vs0mg"},{"bike_id":"471b8c1a-1a85-4080-b533-fb41f3dbfd81","system_id":"levelo_inurba_marseille","lat":43.23206,"lon":5.35587,"is_reserved":false,"is_disabled":false,"rental_uris":{"android":"levelo://app?vid=471b8c1a-1a85-4080-b533-fb41f3dbfd81","ios":"levelo://app?vid=471b8c1a-1a85-4080-b533-fb41f3dbfd81"},"vehicle_type_id":"4","last_reported":1742497640,"current_range_meters":8000,"station_id":"ce4bhu92rcd13ifvqi70","pricing_plan_id":"cebpf4jnsgd1na2vs0mg"},{"bike_id":"2b532a39-8d3e-4537-bd45-13d47f29e8d5","system_id":"levelo_inurba_marseille","lat":43.29278,"lon":5.40134,"is_reserved":false,"is_disabled":false,"rental_uris":{"android":"levelo://app?vid=2b532a39-8d3e-4537-bd45-13d47f29e8d5","ios":"levelo://app?vid=2b532a39-8d3e-4537-bd45-13d47f29e8d5"},"vehicle_type_id":"4","last_reported":1742497640,"current_range_meters":8000,"station_id":"ce4bh312rcd13ifvqdk0","pricing_plan_id":"cebpf4jnsgd1na2vs0mg"},{"bike_id":"a8a71b20-316f-4e7d-9032-61eaf25792b4","system_id":"levelo_inurba_marseille","lat":43.30546,"lon":5.36564,"is_reserved":false,"is_disabled":false,"rental_uris":{"android":"levelo://app?vid=a8a71b20-316f-4e7d-9032-61eaf25792b4","ios":"levelo://app?vid=a8a71b20-316f-4e7d-9032-61eaf25792b4"},"vehicle_type_id":"4","last_reported":1742497640,"current_range_meters":8000,"station_id":"ce4bgs12rcd13ifvqcag","pricing_plan_id":"cebpf4jnsgd1na2vs0mg"},{"bike_id":"dd5644c3-a42b-4aac-af60-75f3f29573ec","system_id":"levelo_inurba_marseille","lat":43.23234,"lon":5.40021,"is_reserved":false,"is_disabled":false,"rental_uris":{"android":"levelo://app?vid=dd5644c3-a42b-4aac-af60-75f3f29573ec","ios":"levelo://app?vid=dd5644c3-a42b-4aac-af60-75f3f29573ec"},"vehicle_type_id":"4","last_reported":1742497640,"current_range_meters":8000,"station_id":"ce4bhn12rcd13ifvqgqg","pricing_plan_id":"cebpf4jnsgd1na2vs0mg"},{"bike_id":"0de773f6-90bb-4966-9e55-1628b3d7ea12","system_id":"levelo_inurba_marseille","lat":43.24648,"lon":5.38896,"is_reserved":false,"is_disabled":false,"rental_uris":{"android":"levelo://app?vid=0de773f6-90bb-4966-9e55-1628b3d7ea12","ios":"levelo://app?vid=0de773f6-90bb-4966-9e55-1628b3d7ea12"},"vehicle_type_id":"4","last_reported":1742497640,"current_range_meters":8000,"station_id":"ce4bhg12rcd13ifvqf60","pricing_plan_id":"cebpf4jnsgd1na2vs0mg"},{"bike_id":"4826469d-76b6-4ba1-a044-2a68f554a734","system_id":"levelo_inurba_marseille","lat":43.262107,"lon":5.374419,"is_reserved":false,"is_disabled":false,"rental_uris":{"android":"levelo://app?vid=4826469d-76b6-4ba1-a044-2a68f554a734","ios":"levelo://app?vid=4826469d-76b6-4ba1-a044-2a68f554a734"},"vehicle_type_id":"4","last_reported":1742497640,"current_range_meters":8000,"station_id":"ce4bh512rcd13ifvqe3g","pricing_plan_id":"cebpf4jnsgd1na2vs0mg"},{"bike_id":"50d907c9-f8ac-4881-a574-2b101ec4a49e","system_id":"levelo_inurba_marseille","lat":43.29519,"lon":5.3905,"is_reserved":false,"is_disabled":false,"rental_uris":{"android":"levelo://app?vid=50d907c9-f8ac-4881-a574-2b101ec4a49e","ios":"levelo://app?vid=50d907c9-f8ac-4881-a574-2b101ec4a49e"},"vehicle_type_id":"4","last_reported":1742497640,"current_range_meters":8400,"station_id":"ce4bh3p2rcd13ifvqdp0","pricing_plan_id":"cebpf4jnsgd1na2vs0mg"},{"bike_id":"aa0c7091-1f8d-4294-97bb-df9bff05a5bb","system_id":"levelo_inurba_marseille","lat":43.2955,"lon":5.42286,"is_reserved":false,"is_disabled":false,"rental_uris":{"android":"levelo://app?vid=aa0c7091-1f8d-4294-97bb-df9bff05a5bb","ios":"levelo://app?vid=aa0c7091-1f8d-4294-97bb-df9bff05a5bb"},"vehicle_type_id":"4","last_reported":1742497640,"current_range_meters":8400,"station_id":"ce4bhph2rcd13ifvqhdg","pricing_plan_id":"cebpf4jnsgd1na2vs0mg"},{"bike_id":"9b2a4ae1-45d2-42a7-b1d8-970226b193d0","system_id":"levelo_inurba_marseille","lat":43.24193,"lon":5.39744,"is_reserved":false,"is_disabled":false,"rental_uris":{"android":"levelo://app?vid=9b2a4ae1-45d2-42a7-b1d8-970226b193d0","ios":"levelo://app?vid=9b2a4ae1-45d2-42a7-b1d8-970226b193d0"},"vehicle_type_id":"4","last_reported":1742497640,"current_range_meters":8400,"station_id":"ce4bhn12rcd13ifvqgpg","pricing_plan_id":"cebpf4jnsgd1na2vs0mg"},{"bike_id":"504ee4bc-f94f-46d1-b4aa-bb159ff861b7","system_id":"levelo_inurba_marseille","lat":43.27156,"lon":5.41027,"is_reserved":false,"is_disabled":false,"rental_uris":{"android":"levelo://app?vid=504ee4bc-f94f-46d1-b4aa-bb159ff861b7","ios":"levelo://app?vid=504ee4bc-f94f-46d1-b4aa-bb159ff861b7"},"vehicle_type_id":"4","last_reported":1742497640,"current_range_meters":8400,"station_id":"ce4bhl12rcd13ifvqgf0","pricing_plan_id":"cebpf4jnsgd1na2vs0mg"},{"bike_id":"29d68e1c-ecd8-49ec-976d-be102323c997","system_id":"levelo_inurba_marseille","lat":43.29869,"lon":5.39735,"is_reserved":false,"is_disabled":false,"rental_uris":{"android":"levelo://app?vid=29d68e1c-ecd8-49ec-976d-be102323c997","ios":"levelo://app?vid=29d68e1c-ecd8-49ec-976d-be102323c997"},"vehicle_type_id":"4","last_reported":1742497640,"current_range_meters":8400,"station_id":"ce4bh0h2rcd13ifvqd50","pricing_plan_id":"cebpf4jnsgd1na2vs0mg"},{"bike_id":"671210b1-9e8f-4893-953f-985ab8b97e34","system_id":"levelo_inurba_marseille","lat":43.32051,"lon":5.36857,"is_reserved":false,"is_disabled":false,"rental_uris":{"android":"levelo://app?vid=671210b1-9e8f-4893-953f-985ab8b97e34","ios":"levelo://app?vid=671210b1-9e8f-4893-953f-985ab8b97e34"},"vehicle_type_id":"4","last_reported":1742497640,"current_range_meters":8400,"station_id":"ce4bhrh2rcd13ifvqhug","pricing_plan_id":"cebpf4jnsgd1na2vs0mg"},{"bike_id":"88235f40-31c6-4a2f-8946-34e3a8b8f4b1","system_id":"levelo_inurba_marseille","lat":43.29915,"lon":5.39745,"is_reserved":false,"is_disabled":false,"rental_uris":{"android":"levelo://app?vid=88235f40-31c6-4a2f-8946-34e3a8b8f4b1","ios":"levelo://app?vid=88235f40-31c6-4a2f-8946-34e3a8b8f4b1"},"vehicle_type_id":"4","last_reported":1742497640,"current_range_meters":8400,"station_id":"","pricing_plan_id":"cebpf4jnsgd1na2vs0mg"},{"bike_id":"233e9b51-2339-485c-a7ae-5d1b35f10963","system_id":"levelo_inurba_marseille","lat":43.31708,"lon":5.37782,"is_reserved":false,"is_disabled":false,"rental_uris":{"android":"levelo://app?vid=233e9b51-2339-485c-a7ae-5d1b35f10963","ios":"levelo://app?vid=233e9b51-2339-485c-a7ae-5d1b35f10963"},"vehicle_type_id":"4","last_reported":1742497640,"current_range_meters":8400,"station_id":"ce4bgth2rcd13ifvqch0","pricing_plan_id":"cebpf4jnsgd1na2vs0mg"},{"bike_id":"f8e69801-e786-4f8e-84e0-e330fc8defd7","system_id":"levelo_inurba_marseille","lat":43.32752,"lon":5.38341,"is_reserved":false,"is_disabled":false,"rental_uris":{"android":"levelo://app?vid=f8e69801-e786-4f8e-84e0-e330fc8defd7","ios":"levelo://app?vid=f8e69801-e786-4f8e-84e0-e330fc8defd7"},"vehicle_type_id":"4","last_reported":1742497640,"current_range_meters":8400,"station_id":"","pricing_plan_id":"cebpf4jnsgd1na2vs0mg"},{"bike_id":"f9ce18f8-017a-4892-9602-341b88a494fb","system_id":"levelo_inurba_marseille","lat":43.29264,"lon":5.38438,"is_reserved":false,"is_disabled":false,"rental_uris":{"android":"levelo://app?vid=f9ce18f8-017a-4892-9602-341b88a494fb","ios":"levelo://app?vid=f9ce18f8-017a-4892-9602-341b88a494fb"},"vehicle_type_id":"4","last_reported":1742497640,"current_range_meters":8400,"station_id":"ce4bh692rcd13ifvqea0","pricing_plan_id":"cebpf4jnsgd1na2vs0mg"},{"bike_id":"ea8117b5-be8a-4eb4-b34f-ca48496db485","system_id":"levelo_inurba_marseille","lat":43.29043,"lon":5.37167,"is_reserved":false,"is_disabled":false,"rental_uris":{"android":"levelo://app?vid=ea8117b5-be8a-4eb4-b34f-ca48496db485","ios":"levelo://app?vid=ea8117b5-be8a-4eb4-b34f-ca48496db485"},"vehicle_type_id":"4","last_reported":1742497640,"current_range_meters":8400,"station_id":"ce4bh5p2rcd13ifvqe4g","pricing_plan_id":"cebpf4jnsgd1na2vs0mg"},{"bike_id":"b2b37dff-7acd-4472-990c-189cd04091d5","system_id":"levelo_inurba_marseille","lat":43.27812,"lon":5.40717,"is_reserved":false,"is_disabled":false,"rental_uris":{"android":"levelo://app?vid=b2b37dff-7acd-4472-990c-189cd04091d5","ios":"levelo://app?vid=b2b37dff-7acd-4472-990c-189cd04091d5"},"vehicle_type_id":"4","last_reported":1742497640,"current_range_meters":8400,"station_id":"ce4bhnh2rcd13ifvqgtg","pricing_plan_id":"cebpf4jnsgd1na2vs0mg"},{"bike_id":"1983241e-dcf4-412a-b965-b9e661a9d6d5","system_id":"levelo_inurba_marseille","lat":43.29846,"lon":5.40173,"is_reserved":false,"is_disabled":false,"rental_uris":{"android":"levelo://app?vid=1983241e-dcf4-412a-b965-b9e661a9d6d5","ios":"levelo://app?vid=1983241e-dcf4-412a-b965-b9e661a9d6d5"},"vehicle_type_id":"4","last_reported":1742497640,"current_range_meters":8400,"station_id":"","pricing_plan_id":"cebpf4jnsgd1na2vs0mg"},{"bike_id":"22353507-3498-4416-9da7-b13024a73525","system_id":"levelo_inurba_marseille","lat":43.31122,"lon":5.37767,"is_reserved":false,"is_disabled":false,"rental_uris":{"android":"levelo://app?vid=22353507-3498-4416-9da7-b13024a73525","ios":"levelo://app?vid=22353507-3498-4416-9da7-b13024a73525"},"vehicle_type_id":"4","last_reported":1742497640,"current_range_meters":8800,"station_id":"ce4bgt92rcd13ifvqcg0","pricing_plan_id":"cebpf4jnsgd1na2vs0mg"},{"bike_id":"cb6062cd-3cfa-4917-b79b-5707b99e3c03","system_id":"levelo_inurba_marseille","lat":43.321185,"lon":5.367534,"is_reserved":false,"is_disabled":false,"rental_uris":{"android":"levelo://app?vid=cb6062cd-3cfa-4917-b79b-5707b99e3c03","ios":"levelo://app?vid=cb6062cd-3cfa-4917-b79b-5707b99e3c03"},"vehicle_type_id":"4","last_reported":1742497640,"current_range_meters":8800,"station_id":"ce4bho92rcd13ifvqh3g","pricing_plan_id":"cebpf4jnsgd1na2vs0mg"},{"bike_id":"81e098f9-b250-4363-a90e-6f9ddf03c3ca","system_id":"levelo_inurba_marseille","lat":43.28936,"lon":5.36642,"is_reserved":false,"is_disabled":false,"rental_uris":{"android":"levelo://app?vid=81e098f9-b250-4363-a90e-6f9ddf03c3ca","ios":"levelo://app?vid=81e098f9-b250-4363-a90e-6f9ddf03c3ca"},"vehicle_type_id":"4","last_reported":1742497640,"current_range_meters":8800,"station_id":"ce4bhap2rcd13ifvqek0","pricing_plan_id":"cebpf4jnsgd1na2vs0mg"},{"bike_id":"b8f633d7-3da3-4e25-a757-e56731aaf835","system_id":"levelo_inurba_marseille","lat":43.27974,"lon":5.41055,"is_reserved":false,"is_disabled":false,"rental_uris":{"android":"levelo://app?vid=b8f633d7-3da3-4e25-a757-e56731aaf835","ios":"levelo://app?vid=b8f633d7-3da3-4e25-a757-e56731aaf835"},"vehicle_type_id":"4","last_reported":1742497640,"current_range_meters":8800,"station_id":"ce4bhnp2rcd13ifvqh0g","pricing_plan_id":"cebpf4jnsgd1na2vs0mg"},{"bike_id":"6508bc0e-80b7-479b-bc21-152cc8ea8635","system_id":"levelo_inurba_marseille","lat":43.30517,"lon":5.3671,"is_reserved":false,"is_disabled":false,"rental_uris":{"android":"levelo://app?vid=6508bc0e-80b7-479b-bc21-152cc8ea8635","ios":"levelo://app?vid=6508bc0e-80b7-479b-bc21-152cc8ea8635"},"vehicle_type_id":"4","last_reported":1742497640,"current_range_meters":8400,"station_id":"ce4bgrp2rcd13ifvqc9g","pricing_plan_id":"cebpf4jnsgd1na2vs0mg"},{"bike_id":"5a0461c7-dfa8-47dc-96ec-63050e713f87","system_id":"levelo_inurba_marseille","lat":43.2928,"lon":5.38456,"is_reserved":false,"is_disabled":false,"rental_uris":{"android":"levelo://app?vid=5a0461c7-dfa8-47dc-96ec-63050e713f87","ios":"levelo://app?vid=5a0461c7-dfa8-47dc-96ec-63050e713f87"},"vehicle_type_id":"4","last_reported":1742497640,"current_range_meters":8800,"station_id":"ce4bh692rcd13ifvqea0","pricing_plan_id":"cebpf4jnsgd1na2vs0mg"},{"bike_id":"d87f6186-552a-468b-b159-f38669a7221c","system_id":"levelo_inurba_marseille","lat":43.30145,"lon":5.38072,"is_reserved":false,"is_disabled":false,"rental_uris":{"android":"levelo://app?vid=d87f6186-552a-468b-b159-f38669a7221c","ios":"levelo://app?vid=d87f6186-552a-468b-b159-f38669a7221c"},"vehicle_type_id":"4","last_reported":1742497640,"current_range_meters":8400,"station_id":"ce4bgjp2rcd13ifvqbh0","pricing_plan_id":"cebpf4jnsgd1na2vs0mg"},{"bike_id":"545665fd-faca-4b26-80dc-95fa5ae8dcd9","system_id":"levelo_inurba_marseille","lat":43.28157,"lon":5.42646,"is_reserved":false,"is_disabled":false,"rental_uris":{"android":"levelo://app?vid=545665fd-faca-4b26-80dc-95fa5ae8dcd9","ios":"levelo://app?vid=545665fd-faca-4b26-80dc-95fa5ae8dcd9"},"vehicle_type_id":"4","last_reported":1742497640,"current_range_meters":8800,"station_id":"ce4bhnh2rcd13ifvqgug","pricing_plan_id":"cebpf4jnsgd1na2vs0mg"},{"bike_id":"2452f5e4-27fb-4f0b-8a70-6c1babe015e6","system_id":"levelo_inurba_marseille","lat":43.29262,"lon":5.40904,"is_reserved":false,"is_disabled":false,"rental_uris":{"android":"levelo://app?vid=2452f5e4-27fb-4f0b-8a70-6c1babe015e6","ios":"levelo://app?vid=2452f5e4-27fb-4f0b-8a70-6c1babe015e6"},"vehicle_type_id":"4","last_reported":1742497640,"current_range_meters":8800,"station_id":"ce4bh192rcd13ifvqdc0","pricing_plan_id":"cebpf4jnsgd1na2vs0mg"},{"bike_id":"36b2ee71-3c66-4ae8-ba26-61c624b7fc11","system_id":"levelo_inurba_marseille","lat":43.30695,"lon":5.40475,"is_reserved":false,"is_disabled":false,"rental_uris":{"android":"levelo://app?vid=36b2ee71-3c66-4ae8-ba26-61c624b7fc11","ios":"levelo://app?vid=36b2ee71-3c66-4ae8-ba26-61c624b7fc11"},"vehicle_type_id":"4","last_reported":1742497640,"current_range_meters":8800,"station_id":"","pricing_plan_id":"cebpf4jnsgd1na2vs0mg"},{"bike_id":"d7645557-54c5-44ed-8c44-41e433a350da","system_id":"levelo_inurba_marseille","lat":43.29487,"lon":5.35591,"is_reserved":false,"is_disabled":false,"rental_uris":{"android":"levelo://app?vid=d7645557-54c5-44ed-8c44-41e433a350da","ios":"levelo://app?vid=d7645557-54c5-44ed-8c44-41e433a350da"},"vehicle_type_id":"4","last_reported":1742497640,"current_range_meters":8800,"station_id":"","pricing_plan_id":"cebpf4jnsgd1na2vs0mg"},{"bike_id":"2bc38bd4-3c54-4eb3-91eb-eb5e51ea70a0","system_id":"levelo_inurba_marseille","lat":43.30139,"lon":5.39882,"is_reserved":false,"is_disabled":false,"rental_uris":{"android":"levelo://app?vid=2bc38bd4-3c54-4eb3-91eb-eb5e51ea70a0","ios":"levelo://app?vid=2bc38bd4-3c54-4eb3-91eb-eb5e51ea70a0"},"vehicle_type_id":"4","last_reported":1742497640,"current_range_meters":9200,"station_id":"ce4bh0h2rcd13ifvqd40","pricing_plan_id":"cebpf4jnsgd1na2vs0mg"},{"bike_id":"df446069-6124-47b5-871e-1e0922d42d2c","system_id":"levelo_inurba_marseille","lat":43.24182,"lon":5.39729,"is_reserved":false,"is_disabled":false,"rental_uris":{"android":"levelo://app?vid=df446069-6124-47b5-871e-1e0922d42d2c","ios":"levelo://app?vid=df446069-6124-47b5-871e-1e0922d42d2c"},"vehicle_type_id":"4","last_reported":1742497640,"current_range_meters":9200,"station_id":"ce4bhn12rcd13ifvqgpg","pricing_plan_id":"cebpf4jnsgd1na2vs0mg"},{"bike_id":"1a4a4ca9-681d-4e15-b95a-52c9e00aa205","system_id":"levelo_inurba_marseille","lat":43.304319,"lon":5.388913,"is_reserved":false,"is_disabled":false,"rental_uris":{"android":"levelo://app?vid=1a4a4ca9-681d-4e15-b95a-52c9e00aa205","ios":"levelo://app?vid=1a4a4ca9-681d-4e15-b95a-52c9e00aa205"},"vehicle_type_id":"4","last_reported":1742497640,"current_range_meters":9600,"station_id":"ce4bh012rcd13ifvqcv0","pricing_plan_id":"cebpf4jnsgd1na2vs0mg"},{"bike_id":"926190fe-301b-4780-88bb-8dde259765c8","system_id":"levelo_inurba_marseille","lat":43.27881,"lon":5.37992,"is_reserved":false,"is_disabled":false,"rental_uris":{"android":"levelo://app?vid=926190fe-301b-4780-88bb-8dde259765c8","ios":"levelo://app?vid=926190fe-301b-4780-88bb-8dde259765c8"},"vehicle_type_id":"4","last_reported":1742497640,"current_range_meters":8800,"station_id":"ce4bhf92rcd13ifvqf50","pricing_plan_id":"cebpf4jnsgd1na2vs0mg"},{"bike_id":"bd2e72e2-6ae3-41f8-84dc-79cbf208609c","system_id":"levelo_inurba_marseille","lat":43.27818,"lon":5.40674,"is_reserved":false,"is_disabled":false,"rental_uris":{"android":"levelo://app?vid=bd2e72e2-6ae3-41f8-84dc-79cbf208609c","ios":"levelo://app?vid=bd2e72e2-6ae3-41f8-84dc-79cbf208609c"},"vehicle_type_id":"4","last_reported":1742497640,"current_range_meters":9200,"station_id":"ce4bhnh2rcd13ifvqgtg","pricing_plan_id":"cebpf4jnsgd1na2vs0mg"},{"bike_id":"a0deeb6c-62a7-4efb-834c-1bec837aaba6","system_id":"levelo_inurba_marseille","lat":43.33699,"lon":5.37797,"is_reserved":false,"is_disabled":false,"rental_uris":{"android":"levelo://app?vid=a0deeb6c-62a7-4efb-834c-1bec837aaba6","ios":"levelo://app?vid=a0deeb6c-62a7-4efb-834c-1bec837aaba6"},"vehicle_type_id":"4","last_reported":1742497640,"current_range_meters":9200,"station_id":"","pricing_plan_id":"cebpf4jnsgd1na2vs0mg"},{"bike_id":"61689940-f918-42af-8267-8f1aea329a0d","system_id":"levelo_inurba_marseille","lat":43.28931,"lon":5.38403,"is_reserved":false,"is_disabled":false,"rental_uris":{"android":"levelo://app?vid=61689940-f918-42af-8267-8f1aea329a0d","ios":"levelo://app?vid=61689940-f918-42af-8267-8f1aea329a0d"},"vehicle_type_id":"4","last_reported":1742497640,"current_range_meters":9200,"station_id":"ce4bh612rcd13ifvqe6g","pricing_plan_id":"cebpf4jnsgd1na2vs0mg"},{"bike_id":"2e22bf4c-f760-4df0-bed3-5d9839ab750f","system_id":"levelo_inurba_marseille","lat":43.2801,"lon":5.40036,"is_reserved":false,"is_disabled":false,"rental_uris":{"android":"levelo://app?vid=2e22bf4c-f760-4df0-bed3-5d9839ab750f","ios":"levelo://app?vid=2e22bf4c-f760-4df0-bed3-5d9839ab750f"},"vehicle_type_id":"4","last_reported":1742497640,"current_range_meters":9200,"station_id":"ce4bho92rcd13ifvqh4g","pricing_plan_id":"cebpf4jnsgd1na2vs0mg"},{"bike_id":"a115a50a-6b07-4e25-ae5a-9408c0c21195","system_id":"levelo_inurba_marseille","lat":43.29303,"lon":5.37181,"is_reserved":false,"is_disabled":false,"rental_uris":{"android":"levelo://app?vid=a115a50a-6b07-4e25-ae5a-9408c0c21195","ios":"levelo://app?vid=a115a50a-6b07-4e25-ae5a-9408c0c21195"},"vehicle_type_id":"4","last_reported":1742497640,"current_range_meters":9200,"station_id":"ce4bgh92rcd13ifvqb40","pricing_plan_id":"cebpf4jnsgd1na2vs0mg"},{"bike_id":"bfb8aceb-271f-407e-8f66-f0880d7ac280","system_id":"levelo_inurba_marseille","lat":43.31363,"lon":5.39735,"is_reserved":false,"is_disabled":false,"rental_uris":{"android":"levelo://app?vid=bfb8aceb-271f-407e-8f66-f0880d7ac280","ios":"levelo://app?vid=bfb8aceb-271f-407e-8f66-f0880d7ac280"},"vehicle_type_id":"4","last_reported":1742497640,"current_range_meters":9200,"station_id":"","pricing_plan_id":"cebpf4jnsgd1na2vs0mg"},{"bike_id":"3d388250-0689-4095-9f95-693a495b1cfd","system_id":"levelo_inurba_marseille","lat":43.23188,"lon":5.39984,"is_reserved":false,"is_disabled":false,"rental_uris":{"android":"levelo://app?vid=3d388250-0689-4095-9f95-693a495b1cfd","ios":"levelo://app?vid=3d388250-0689-4095-9f95-693a495b1cfd"},"vehicle_type_id":"4","last_reported":1742497640,"current_range_meters":9200,"station_id":"ce4bhn12rcd13ifvqgqg","pricing_plan_id":"cebpf4jnsgd1na2vs0mg"},{"bike_id":"0070803a-fad1-475b-8adb-8c1b0cfcdb02","system_id":"levelo_inurba_marseille","lat":43.300323,"lon":5.386339,"is_reserved":false,"is_disabled":false,"rental_uris":{"android":"levelo://app?vid=0070803a-fad1-475b-8adb-8c1b0cfcdb02","ios":"levelo://app?vid=0070803a-fad1-475b-8adb-8c1b0cfcdb02"},"vehicle_type_id":"4","last_reported":1742497640,"current_range_meters":8800,"station_id":"ce4bgt12rcd13ifvqce0","pricing_plan_id":"cebpf4jnsgd1na2vs0mg"},{"bike_id":"181b1742-09ee-46ab-8712-67d8396af664","system_id":"levelo_inurba_marseille","lat":43.24216,"lon":5.39785,"is_reserved":false,"is_disabled":false,"rental_uris":{"android":"levelo://app?vid=181b1742-09ee-46ab-8712-67d8396af664","ios":"levelo://app?vid=181b1742-09ee-46ab-8712-67d8396af664"},"vehicle_type_id":"4","last_reported":1742497640,"current_range_meters":9200,"station_id":"","pricing_plan_id":"cebpf4jnsgd1na2vs0mg"},{"bike_id":"48259707-c320-4a7f-9855-1f73c6128fa6","system_id":"levelo_inurba_marseille","lat":43.26564,"lon":5.39042,"is_reserved":false,"is_disabled":false,"rental_uris":{"android":"levelo://app?vid=48259707-c320-4a7f-9855-1f73c6128fa6","ios":"levelo://app?vid=48259707-c320-4a7f-9855-1f73c6128fa6"},"vehicle_type_id":"4","last_reported":1742497640,"current_range_meters":9600,"station_id":"ce4bhe12rcd13ifvqf30","pricing_plan_id":"cebpf4jnsgd1na2vs0mg"},{"bike_id":"4fdfb7d6-8ab3-43f7-8bc5-8c9a50e46a96","system_id":"levelo_inurba_marseille","lat":43.2656,"lon":5.37283,"is_reserved":false,"is_disabled":false,"rental_uris":{"android":"levelo://app?vid=4fdfb7d6-8ab3-43f7-8bc5-8c9a50e46a96","ios":"levelo://app?vid=4fdfb7d6-8ab3-43f7-8bc5-8c9a50e46a96"},"vehicle_type_id":"4","last_reported":1742497640,"current_range_meters":9600,"station_id":"ce4bhg12rcd13ifvqf70","pricing_plan_id":"cebpf4jnsgd1na2vs0mg"},{"bike_id":"9c05c5d3-0ee9-4547-8763-8e23a01712c9","system_id":"levelo_inurba_marseille","lat":43.30881,"lon":5.3966,"is_reserved":false,"is_disabled":false,"rental_uris":{"android":"levelo://app?vid=9c05c5d3-0ee9-4547-8763-8e23a01712c9","ios":"levelo://app?vid=9c05c5d3-0ee9-4547-8763-8e23a01712c9"},"vehicle_type_id":"4","last_reported":1742497640,"current_range_meters":9600,"station_id":"ce4bh012rcd13ifvqcv0","pricing_plan_id":"cebpf4jnsgd1na2vs0mg"},{"bike_id":"ffbee1c9-ab8d-45ee-b606-c546ab78c5f2","system_id":"levelo_inurba_marseille","lat":43.29737,"lon":5.37789,"is_reserved":false,"is_disabled":false,"rental_uris":{"android":"levelo://app?vid=ffbee1c9-ab8d-45ee-b606-c546ab78c5f2","ios":"levelo://app?vid=ffbee1c9-ab8d-45ee-b606-c546ab78c5f2"},"vehicle_type_id":"4","last_reported":1742497640,"current_range_meters":9600,"station_id":"","pricing_plan_id":"cebpf4jnsgd1na2vs0mg"},{"bike_id":"d2ebb19a-78d7-49a0-9dfb-05690804dad0","system_id":"levelo_inurba_marseille","lat":43.25728,"lon":5.41108,"is_reserved":false,"is_disabled":false,"rental_uris":{"android":"levelo://app?vid=d2ebb19a-78d7-49a0-9dfb-05690804dad0","ios":"levelo://app?vid=d2ebb19a-78d7-49a0-9dfb-05690804dad0"},"vehicle_type_id":"4","last_reported":1742497640,"current_range_meters":9600,"station_id":"ce4bhkp2rcd13ifvqgd0","pricing_plan_id":"cebpf4jnsgd1na2vs0mg"},{"bike_id":"7ab40b8d-fa18-4b14-83b5-9c3e7b9f2127","system_id":"levelo_inurba_marseille","lat":43.27178,"lon":5.40988,"is_reserved":false,"is_disabled":false,"rental_uris":{"android":"levelo://app?vid=7ab40b8d-fa18-4b14-83b5-9c3e7b9f2127","ios":"levelo://app?vid=7ab40b8d-fa18-4b14-83b5-9c3e7b9f2127"},"vehicle_type_id":"4","last_reported":1742497640,"current_range_meters":9600,"station_id":"ce4bhl12rcd13ifvqgf0","pricing_plan_id":"cebpf4jnsgd1na2vs0mg"},{"bike_id":"d80d9367-b4c7-4495-9d42-12d632cf5a06","system_id":"levelo_inurba_marseille","lat":43.28408,"lon":5.37518,"is_reserved":false,"is_disabled":false,"rental_uris":{"android":"levelo://app?vid=d80d9367-b4c7-4495-9d42-12d632cf5a06","ios":"levelo://app?vid=d80d9367-b4c7-4495-9d42-12d632cf5a06"},"vehicle_type_id":"4","last_reported":1742497640,"current_range_meters":9600,"station_id":"ce4bh412rcd13ifvqds0","pricing_plan_id":"cebpf4jnsgd1na2vs0mg"},{"bike_id":"13b40ed5-bac7-4994-8482-fe1837487301","system_id":"levelo_inurba_marseille","lat":43.2942,"lon":5.38627,"is_reserved":false,"is_disabled":false,"rental_uris":{"android":"levelo://app?vid=13b40ed5-bac7-4994-8482-fe1837487301","ios":"levelo://app?vid=13b40ed5-bac7-4994-8482-fe1837487301"},"vehicle_type_id":"4","last_reported":1742497640,"current_range_meters":9600,"station_id":"ce4bh2h2rcd13ifvqdh0","pricing_plan_id":"cebpf4jnsgd1na2vs0mg"},{"bike_id":"6f410ca0-187f-4db6-8573-7f0ce11fd1ee","system_id":"levelo_inurba_marseille","lat":43.28869,"lon":5.35847,"is_reserved":false,"is_disabled":false,"rental_uris":{"android":"levelo://app?vid=6f410ca0-187f-4db6-8573-7f0ce11fd1ee","ios":"levelo://app?vid=6f410ca0-187f-4db6-8573-7f0ce11fd1ee"},"vehicle_type_id":"4","last_reported":1742497640,"current_range_meters":9600,"station_id":"ce4bhb12rcd13ifvqem0","pricing_plan_id":"cebpf4jnsgd1na2vs0mg"},{"bike_id":"c5bb5dca-1dc9-450e-9a3d-9fa737cf345d","system_id":"levelo_inurba_marseille","lat":43.24662,"lon":5.38896,"is_reserved":false,"is_disabled":false,"rental_uris":{"android":"levelo://app?vid=c5bb5dca-1dc9-450e-9a3d-9fa737cf345d","ios":"levelo://app?vid=c5bb5dca-1dc9-450e-9a3d-9fa737cf345d"},"vehicle_type_id":"4","last_reported":1742497640,"current_range_meters":9600,"station_id":"ce4bhg12rcd13ifvqf60","pricing_plan_id":"cebpf4jnsgd1na2vs0mg"},{"bike_id":"3eb41946-66f4-4ab3-949b-ff4ae3c1ba2e","system_id":"levelo_inurba_marseille","lat":43.30196,"lon":5.36618,"is_reserved":false,"is_disabled":false,"rental_uris":{"android":"levelo://app?vid=3eb41946-66f4-4ab3-949b-ff4ae3c1ba2e","ios":"levelo://app?vid=3eb41946-66f4-4ab3-949b-ff4ae3c1ba2e"},"vehicle_type_id":"4","last_reported":1742497640,"current_range_meters":10000,"station_id":"ce4bgrh2rcd13ifvqc8g","pricing_plan_id":"cebpf4jnsgd1na2vs0mg"},{"bike_id":"045c5d94-012b-464e-a2ce-8826ae1124b4","system_id":"levelo_inurba_marseille","lat":43.28937,"lon":5.36645,"is_reserved":false,"is_disabled":false,"rental_uris":{"android":"levelo://app?vid=045c5d94-012b-464e-a2ce-8826ae1124b4","ios":"levelo://app?vid=045c5d94-012b-464e-a2ce-8826ae1124b4"},"vehicle_type_id":"4","last_reported":1742497640,"current_range_meters":10000,"station_id":"ce4bhap2rcd13ifvqek0","pricing_plan_id":"cebpf4jnsgd1na2vs0mg"},{"bike_id":"298094ff-1b8f-403e-b315-5326030acb86","system_id":"levelo_inurba_marseille","lat":43.28179,"lon":5.42653,"is_reserved":false,"is_disabled":false,"rental_uris":{"android":"levelo://app?vid=298094ff-1b8f-403e-b315-5326030acb86","ios":"levelo://app?vid=298094ff-1b8f-403e-b315-5326030acb86"},"vehicle_type_id":"4","last_reported":1742497640,"current_range_meters":10000,"station_id":"ce4bhnh2rcd13ifvqgug","pricing_plan_id":"cebpf4jnsgd1na2vs0mg"},{"bike_id":"2b124485-3f63-417d-9cde-2aed42bc55d1","system_id":"levelo_inurba_marseille","lat":43.28101,"lon":5.37861,"is_reserved":false,"is_disabled":false,"rental_uris":{"android":"levelo://app?vid=2b124485-3f63-417d-9cde-2aed42bc55d1","ios":"levelo://app?vid=2b124485-3f63-417d-9cde-2aed42bc55d1"},"vehicle_type_id":"4","last_reported":1742497640,"current_range_meters":10000,"station_id":"ce4bha12rcd13ifvqee0","pricing_plan_id":"cebpf4jnsgd1na2vs0mg"},{"bike_id":"d33ebc01-4bb7-4759-b3f0-c2402a693d75","system_id":"levelo_inurba_marseille","lat":43.29789,"lon":5.39358,"is_reserved":false,"is_disabled":false,"rental_uris":{"android":"levelo://app?vid=d33ebc01-4bb7-4759-b3f0-c2402a693d75","ios":"levelo://app?vid=d33ebc01-4bb7-4759-b3f0-c2402a693d75"},"vehicle_type_id":"4","last_reported":1742497640,"current_range_meters":10000,"station_id":"chh1huq6cuj3fo74tm60","pricing_plan_id":"cebpf4jnsgd1na2vs0mg"},{"bike_id":"e32966df-7f6a-4dc5-bedd-3ae28f972c06","system_id":"levelo_inurba_marseille","lat":43.27813,"lon":5.4071,"is_reserved":false,"is_disabled":false,"rental_uris":{"android":"levelo://app?vid=e32966df-7f6a-4dc5-bedd-3ae28f972c06","ios":"levelo://app?vid=e32966df-7f6a-4dc5-bedd-3ae28f972c06"},"vehicle_type_id":"4","last_reported":1742497640,"current_range_meters":10000,"station_id":"ce4bhnh2rcd13ifvqgtg","pricing_plan_id":"cebpf4jnsgd1na2vs0mg"},{"bike_id":"b9e4bdd0-024c-4547-9a94-39d0c7923642","system_id":"levelo_inurba_marseille","lat":43.24169,"lon":5.36418,"is_reserved":false,"is_disabled":false,"rental_uris":{"android":"levelo://app?vid=b9e4bdd0-024c-4547-9a94-39d0c7923642","ios":"levelo://app?vid=b9e4bdd0-024c-4547-9a94-39d0c7923642"},"vehicle_type_id":"4","last_reported":1742497640,"current_range_meters":10000,"station_id":"cpo36qri1sfpv3e86is0","pricing_plan_id":"cebpf4jnsgd1na2vs0mg"},{"bike_id":"65cea170-db0f-468b-aceb-0b8f74a7c276","system_id":"levelo_inurba_marseille","lat":43.31366,"lon":5.38496,"is_reserved":false,"is_disabled":false,"rental_uris":{"android":"levelo://app?vid=65cea170-db0f-468b-aceb-0b8f74a7c276","ios":"levelo://app?vid=65cea170-db0f-468b-aceb-0b8f74a7c276"},"vehicle_type_id":"4","last_reported":1742497640,"current_range_meters":10000,"station_id":"ce4bgt92rcd13ifvqcf0","pricing_plan_id":"cebpf4jnsgd1na2vs0mg"},{"bike_id":"a1d4474e-dc54-4e96-8359-81b099ba1a93","system_id":"levelo_inurba_marseille","lat":43.23206,"lon":5.39966,"is_reserved":false,"is_disabled":false,"rental_uris":{"android":"levelo://app?vid=a1d4474e-dc54-4e96-8359-81b099ba1a93","ios":"levelo://app?vid=a1d4474e-dc54-4e96-8359-81b099ba1a93"},"vehicle_type_id":"4","last_reported":1742497640,"current_range_meters":10800,"station_id":"ce4bhn12rcd13ifvqgqg","pricing_plan_id":"cebpf4jnsgd1na2vs0mg"},{"bike_id":"69a1267d-4f9b-471a-98e9-7d2631052ef0","system_id":"levelo_inurba_marseille","lat":43.27998,"lon":5.40042,"is_reserved":false,"is_disabled":false,"rental_uris":{"android":"levelo://app?vid=69a1267d-4f9b-471a-98e9-7d2631052ef0","ios":"levelo://app?vid=69a1267d-4f9b-471a-98e9-7d2631052ef0"},"vehicle_type_id":"4","last_reported":1742497640,"current_range_meters":10800,"station_id":"ce4bho92rcd13ifvqh4g","pricing_plan_id":"cebpf4jnsgd1na2vs0mg"},{"bike_id":"d0ea0d6c-fbcd-4ed9-8b8f-81a1d700d8a7","system_id":"levelo_inurba_marseille","lat":43.28357,"lon":5.38109,"is_reserved":false,"is_disabled":false,"rental_uris":{"android":"levelo://app?vid=d0ea0d6c-fbcd-4ed9-8b8f-81a1d700d8a7","ios":"levelo://app?vid=d0ea0d6c-fbcd-4ed9-8b8f-81a1d700d8a7"},"vehicle_type_id":"4","last_reported":1742497640,"current_range_meters":10800,"station_id":"ce4bh412rcd13ifvqdr0","pricing_plan_id":"cebpf4jnsgd1na2vs0mg"},{"bike_id":"10040ff5-09c7-4549-9697-fbeae20cf216","system_id":"levelo_inurba_marseille","lat":43.24657,"lon":5.38911,"is_reserved":false,"is_disabled":false,"rental_uris":{"android":"levelo://app?vid=10040ff5-09c7-4549-9697-fbeae20cf216","ios":"levelo://app?vid=10040ff5-09c7-4549-9697-fbeae20cf216"},"vehicle_type_id":"4","last_reported":1742497640,"current_range_meters":10800,"station_id":"ce4bhg12rcd13ifvqf60","pricing_plan_id":"cebpf4jnsgd1na2vs0mg"},{"bike_id":"fa771ba6-e191-4a57-a649-417a6a9302f2","system_id":"levelo_inurba_marseille","lat":43.29042,"lon":5.39957,"is_reserved":false,"is_disabled":false,"rental_uris":{"android":"levelo://app?vid=fa771ba6-e191-4a57-a649-417a6a9302f2","ios":"levelo://app?vid=fa771ba6-e191-4a57-a649-417a6a9302f2"},"vehicle_type_id":"4","last_reported":1742497640,"current_range_meters":11200,"station_id":"ce4bh392rcd13ifvqdm0","pricing_plan_id":"cebpf4jnsgd1na2vs0mg"},{"bike_id":"67de6f5c-f528-4e86-a08d-fc11348bb267","system_id":"levelo_inurba_marseille","lat":43.23184,"lon":5.39997,"is_reserved":false,"is_disabled":false,"rental_uris":{"android":"levelo://app?vid=67de6f5c-f528-4e86-a08d-fc11348bb267","ios":"levelo://app?vid=67de6f5c-f528-4e86-a08d-fc11348bb267"},"vehicle_type_id":"4","last_reported":1742497640,"current_range_meters":10800,"station_id":"ce4bhn12rcd13ifvqgqg","pricing_plan_id":"cebpf4jnsgd1na2vs0mg"},{"bike_id":"d4b8f3ac-69da-4a13-8307-f3070663ea65","system_id":"levelo_inurba_marseille","lat":43.28468,"lon":5.35888,"is_reserved":false,"is_disabled":false,"rental_uris":{"android":"levelo://app?vid=d4b8f3ac-69da-4a13-8307-f3070663ea65","ios":"levelo://app?vid=d4b8f3ac-69da-4a13-8307-f3070663ea65"},"vehicle_type_id":"4","last_reported":1742497640,"current_range_meters":10800,"station_id":"ce4bhah2rcd13ifvqei0","pricing_plan_id":"cebpf4jnsgd1na2vs0mg"},{"bike_id":"dcc18eac-d2e5-4e6e-91aa-19e270f58587","system_id":"levelo_inurba_marseille","lat":43.31331,"lon":5.39705,"is_reserved":false,"is_disabled":false,"rental_uris":{"android":"levelo://app?vid=dcc18eac-d2e5-4e6e-91aa-19e270f58587","ios":"levelo://app?vid=dcc18eac-d2e5-4e6e-91aa-19e270f58587"},"vehicle_type_id":"4","last_reported":1742497640,"current_range_meters":10800,"station_id":"ce4bgvp2rcd13ifvqcu0","pricing_plan_id":"cebpf4jnsgd1na2vs0mg"},{"bike_id":"5a744e10-af42-4895-8ea6-4be2388dba33","system_id":"levelo_inurba_marseille","lat":43.28453,"lon":5.39181,"is_reserved":false,"is_disabled":false,"rental_uris":{"android":"levelo://app?vid=5a744e10-af42-4895-8ea6-4be2388dba33","ios":"levelo://app?vid=5a744e10-af42-4895-8ea6-4be2388dba33"},"vehicle_type_id":"4","last_reported":1742497640,"current_range_meters":10800,"station_id":"ce4bhoh2rcd13ifvqh5g","pricing_plan_id":"cebpf4jnsgd1na2vs0mg"},{"bike_id":"ae68fc26-6407-42d2-b293-7d009418156f","system_id":"levelo_inurba_marseille","lat":43.28454,"lon":5.35891,"is_reserved":false,"is_disabled":false,"rental_uris":{"android":"levelo://app?vid=ae68fc26-6407-42d2-b293-7d009418156f","ios":"levelo://app?vid=ae68fc26-6407-42d2-b293-7d009418156f"},"vehicle_type_id":"4","last_reported":1742497640,"current_range_meters":10800,"station_id":"ce4bhah2rcd13ifvqei0","pricing_plan_id":"cebpf4jnsgd1na2vs0mg"},{"bike_id":"896716aa-bf90-49f0-a333-cfea3c78dcd9","system_id":"levelo_inurba_marseille","lat":43.29195,"lon":5.35809,"is_reserved":false,"is_disabled":false,"rental_uris":{"android":"levelo://app?vid=896716aa-bf90-49f0-a333-cfea3c78dcd9","ios":"levelo://app?vid=896716aa-bf90-49f0-a333-cfea3c78dcd9"},"vehicle_type_id":"4","last_reported":1742497640,"current_range_meters":10800,"station_id":"ce4bhb12rcd13ifvqel0","pricing_plan_id":"cebpf4jnsgd1na2vs0mg"},{"bike_id":"f75d32cd-32c5-4f70-9df2-f2320d24a18d","system_id":"levelo_inurba_marseille","lat":43.31991,"lon":5.38171,"is_reserved":false,"is_disabled":false,"rental_uris":{"android":"levelo://app?vid=f75d32cd-32c5-4f70-9df2-f2320d24a18d","ios":"levelo://app?vid=f75d32cd-32c5-4f70-9df2-f2320d24a18d"},"vehicle_type_id":"4","last_reported":1742497640,"current_range_meters":10800,"station_id":"ce4bhr12rcd13ifvqhpg","pricing_plan_id":"cebpf4jnsgd1na2vs0mg"},{"bike_id":"82ebedbb-ce2e-43e2-9f6a-790708582ba9","system_id":"levelo_inurba_marseille","lat":43.31276,"lon":5.40181,"is_reserved":false,"is_disabled":false,"rental_uris":{"android":"levelo://app?vid=82ebedbb-ce2e-43e2-9f6a-790708582ba9","ios":"levelo://app?vid=82ebedbb-ce2e-43e2-9f6a-790708582ba9"},"vehicle_type_id":"4","last_reported":1742497640,"current_range_meters":11200,"station_id":"ce4bh092rcd13ifvqd30","pricing_plan_id":"cebpf4jnsgd1na2vs0mg"},{"bike_id":"bb532565-2202-409c-9683-9edd37326f1b","system_id":"levelo_inurba_marseille","lat":43.28705,"lon":5.37406,"is_reserved":false,"is_disabled":false,"rental_uris":{"android":"levelo://app?vid=bb532565-2202-409c-9683-9edd37326f1b","ios":"levelo://app?vid=bb532565-2202-409c-9683-9edd37326f1b"},"vehicle_type_id":"4","last_reported":1742497640,"current_range_meters":11200,"station_id":"ce4bh3p2rcd13ifvqdq0","pricing_plan_id":"cebpf4jnsgd1na2vs0mg"},{"bike_id":"8406e6c4-37a3-4d00-b8cd-8faffb48c912","system_id":"levelo_inurba_marseille","lat":43.29285,"lon":5.36843,"is_reserved":false,"is_disabled":false,"rental_uris":{"android":"levelo://app?vid=8406e6c4-37a3-4d00-b8cd-8faffb48c912","ios":"levelo://app?vid=8406e6c4-37a3-4d00-b8cd-8faffb48c912"},"vehicle_type_id":"4","last_reported":1742497640,"current_range_meters":11200,"station_id":"ce4bhbp2rcd13ifvqesg","pricing_plan_id":"cebpf4jnsgd1na2vs0mg"},{"bike_id":"64eb4326-a936-4815-87ad-b69bb6fce8ba","system_id":"levelo_inurba_marseille","lat":43.29276,"lon":5.36831,"is_reserved":false,"is_disabled":false,"rental_uris":{"android":"levelo://app?vid=64eb4326-a936-4815-87ad-b69bb6fce8ba","ios":"levelo://app?vid=64eb4326-a936-4815-87ad-b69bb6fce8ba"},"vehicle_type_id":"4","last_reported":1742497640,"current_range_meters":11600,"station_id":"ce4bhbp2rcd13ifvqesg","pricing_plan_id":"cebpf4jnsgd1na2vs0mg"},{"bike_id":"1c3b5361-695c-4ccc-94f9-aca7f37b6d45","system_id":"levelo_inurba_marseille","lat":43.2319,"lon":5.35557,"is_reserved":false,"is_disabled":false,"rental_uris":{"android":"levelo://app?vid=1c3b5361-695c-4ccc-94f9-aca7f37b6d45","ios":"levelo://app?vid=1c3b5361-695c-4ccc-94f9-aca7f37b6d45"},"vehicle_type_id":"4","last_reported":1742497640,"current_range_meters":11600,"station_id":"ce4bhu92rcd13ifvqi70","pricing_plan_id":"cebpf4jnsgd1na2vs0mg"},{"bike_id":"1295e912-beee-47fe-a5c8-2ae149d6d129","system_id":"levelo_inurba_marseille","lat":43.316333,"lon":5.379618,"is_reserved":false,"is_disabled":false,"rental_uris":{"android":"levelo://app?vid=1295e912-beee-47fe-a5c8-2ae149d6d129","ios":"levelo://app?vid=1295e912-beee-47fe-a5c8-2ae149d6d129"},"vehicle_type_id":"4","last_reported":1742497640,"current_range_meters":11600,"station_id":"","pricing_plan_id":"cebpf4jnsgd1na2vs0mg"},{"bike_id":"8ac4a016-64dd-4aa7-b186-1c7ad144a626","system_id":"levelo_inurba_marseille","lat":43.29253,"lon":5.38441,"is_reserved":false,"is_disabled":false,"rental_uris":{"android":"levelo://app?vid=8ac4a016-64dd-4aa7-b186-1c7ad144a626","ios":"levelo://app?vid=8ac4a016-64dd-4aa7-b186-1c7ad144a626"},"vehicle_type_id":"4","last_reported":1742497640,"current_range_meters":11600,"station_id":"ce4bh692rcd13ifvqea0","pricing_plan_id":"cebpf4jnsgd1na2vs0mg"},{"bike_id":"9f5b80fc-8e66-46f1-bdb8-51b3dd89e118","system_id":"levelo_inurba_marseille","lat":43.31078,"lon":5.38356,"is_reserved":false,"is_disabled":false,"rental_uris":{"android":"levelo://app?vid=9f5b80fc-8e66-46f1-bdb8-51b3dd89e118","ios":"levelo://app?vid=9f5b80fc-8e66-46f1-bdb8-51b3dd89e118"},"vehicle_type_id":"4","last_reported":1742497640,"current_range_meters":11600,"station_id":"ce4bgv92rcd13ifvqcr0","pricing_plan_id":"cebpf4jnsgd1na2vs0mg"},{"bike_id":"a83d89b4-34dc-4f00-ab7a-a53ca0d404af","system_id":"levelo_inurba_marseille","lat":43.284638,"lon":5.358872,"is_reserved":false,"is_disabled":false,"rental_uris":{"android":"levelo://app?vid=a83d89b4-34dc-4f00-ab7a-a53ca0d404af","ios":"levelo://app?vid=a83d89b4-34dc-4f00-ab7a-a53ca0d404af"},"vehicle_type_id":"4","last_reported":1742497640,"current_range_meters":11600,"station_id":"ce4bhah2rcd13ifvqei0","pricing_plan_id":"cebpf4jnsgd1na2vs0mg"},{"bike_id":"9d72b590-376e-48de-9f71-fb9c3868a5c2","system_id":"levelo_inurba_marseille","lat":43.28418,"lon":5.37509,"is_reserved":false,"is_disabled":false,"rental_uris":{"android":"levelo://app?vid=9d72b590-376e-48de-9f71-fb9c3868a5c2","ios":"levelo://app?vid=9d72b590-376e-48de-9f71-fb9c3868a5c2"},"vehicle_type_id":"4","last_reported":1742497640,"current_range_meters":11600,"station_id":"ce4bh412rcd13ifvqds0","pricing_plan_id":"cebpf4jnsgd1na2vs0mg"},{"bike_id":"6ed06fb7-1c9e-488c-8415-707af3241875","system_id":"levelo_inurba_marseille","lat":43.31118,"lon":5.37784,"is_reserved":false,"is_disabled":false,"rental_uris":{"android":"levelo://app?vid=6ed06fb7-1c9e-488c-8415-707af3241875","ios":"levelo://app?vid=6ed06fb7-1c9e-488c-8415-707af3241875"},"vehicle_type_id":"4","last_reported":1742497640,"current_range_meters":11600,"station_id":"ce4bgt92rcd13ifvqcg0","pricing_plan_id":"cebpf4jnsgd1na2vs0mg"},{"bike_id":"dd55a980-0e99-48e8-9e4a-ef2f02d5aac0","system_id":"levelo_inurba_marseille","lat":43.31553,"lon":5.38034,"is_reserved":false,"is_disabled":false,"rental_uris":{"android":"levelo://app?vid=dd55a980-0e99-48e8-9e4a-ef2f02d5aac0","ios":"levelo://app?vid=dd55a980-0e99-48e8-9e4a-ef2f02d5aac0"},"vehicle_type_id":"4","last_reported":1742497640,"current_range_meters":12000,"station_id":"ce4bhsp2rcd13ifvqi50","pricing_plan_id":"cebpf4jnsgd1na2vs0mg"},{"bike_id":"39036aae-8f0c-4ed2-8157-a35d0a4f55ee","system_id":"levelo_inurba_marseille","lat":43.23957,"lon":5.36642,"is_reserved":false,"is_disabled":false,"rental_uris":{"android":"levelo://app?vid=39036aae-8f0c-4ed2-8157-a35d0a4f55ee","ios":"levelo://app?vid=39036aae-8f0c-4ed2-8157-a35d0a4f55ee"},"vehicle_type_id":"4","last_reported":1742497640,"current_range_meters":12000,"station_id":"ce4bhi12rcd13ifvqfp0","pricing_plan_id":"cebpf4jnsgd1na2vs0mg"},{"bike_id":"2678929a-312d-4089-b116-1e816de7db90","system_id":"levelo_inurba_marseille","lat":43.32145,"lon":5.36797,"is_reserved":false,"is_disabled":false,"rental_uris":{"android":"levelo://app?vid=2678929a-312d-4089-b116-1e816de7db90","ios":"levelo://app?vid=2678929a-312d-4089-b116-1e816de7db90"},"vehicle_type_id":"4","last_reported":1742497640,"current_range_meters":12000,"station_id":"","pricing_plan_id":"cebpf4jnsgd1na2vs0mg"},{"bike_id":"a8e54271-f43e-4238-be61-5a0d0f7d1259","system_id":"levelo_inurba_marseille","lat":43.24675,"lon":5.38173,"is_reserved":false,"is_disabled":false,"rental_uris":{"android":"levelo://app?vid=a8e54271-f43e-4238-be61-5a0d0f7d1259","ios":"levelo://app?vid=a8e54271-f43e-4238-be61-5a0d0f7d1259"},"vehicle_type_id":"4","last_reported":1742497640,"current_range_meters":12000,"station_id":"ce4bhih2rcd13ifvqfr0","pricing_plan_id":"cebpf4jnsgd1na2vs0mg"},{"bike_id":"24016567-79c9-417a-ad0a-921105cb0978","system_id":"levelo_inurba_marseille","lat":43.32351,"lon":5.38913,"is_reserved":false,"is_disabled":false,"rental_uris":{"android":"levelo://app?vid=24016567-79c9-417a-ad0a-921105cb0978","ios":"levelo://app?vid=24016567-79c9-417a-ad0a-921105cb0978"},"vehicle_type_id":"4","last_reported":1742497640,"current_range_meters":12000,"station_id":"ce4bhqp2rcd13ifvqhog","pricing_plan_id":"cebpf4jnsgd1na2vs0mg"},{"bike_id":"00680b70-50da-4667-89e8-2322036bb32d","system_id":"levelo_inurba_marseille","lat":43.27998,"lon":5.40019,"is_reserved":false,"is_disabled":false,"rental_uris":{"android":"levelo://app?vid=00680b70-50da-4667-89e8-2322036bb32d","ios":"levelo://app?vid=00680b70-50da-4667-89e8-2322036bb32d"},"vehicle_type_id":"4","last_reported":1742497640,"current_range_meters":12000,"station_id":"ce4bho92rcd13ifvqh4g","pricing_plan_id":"cebpf4jnsgd1na2vs0mg"},{"bike_id":"cd6d272d-7f4c-4a49-87e6-6c3630524a40","system_id":"levelo_inurba_marseille","lat":43.25579,"lon":5.38256,"is_reserved":false,"is_disabled":false,"rental_uris":{"android":"levelo://app?vid=cd6d272d-7f4c-4a49-87e6-6c3630524a40","ios":"levelo://app?vid=cd6d272d-7f4c-4a49-87e6-6c3630524a40"},"vehicle_type_id":"4","last_reported":1742497640,"current_range_meters":10800,"station_id":"ce4bhih2rcd13ifvqfs0","pricing_plan_id":"cebpf4jnsgd1na2vs0mg"},{"bike_id":"64f3f160-3d41-4047-a7c4-5d9924ce80c7","system_id":"levelo_inurba_marseille","lat":43.25816,"lon":5.39504,"is_reserved":false,"is_disabled":false,"rental_uris":{"android":"levelo://app?vid=64f3f160-3d41-4047-a7c4-5d9924ce80c7","ios":"levelo://app?vid=64f3f160-3d41-4047-a7c4-5d9924ce80c7"},"vehicle_type_id":"4","last_reported":1742497640,"current_range_meters":12000,"station_id":"","pricing_plan_id":"cebpf4jnsgd1na2vs0mg"},{"bike_id":"7f67c53c-33fa-4743-a5a2-a9c67dfa287e","system_id":"levelo_inurba_marseille","lat":43.29896,"lon":5.43662,"is_reserved":false,"is_disabled":false,"rental_uris":{"android":"levelo://app?vid=7f67c53c-33fa-4743-a5a2-a9c67dfa287e","ios":"levelo://app?vid=7f67c53c-33fa-4743-a5a2-a9c67dfa287e"},"vehicle_type_id":"4","last_reported":1742497640,"current_range_meters":12400,"station_id":"ce4bhpp2rcd13ifvqhfg","pricing_plan_id":"cebpf4jnsgd1na2vs0mg"},{"bike_id":"b0b4388f-26f8-42e5-a691-d41eae4cc0e2","system_id":"levelo_inurba_marseille","lat":43.29004,"lon":5.35613,"is_reserved":false,"is_disabled":false,"rental_uris":{"android":"levelo://app?vid=b0b4388f-26f8-42e5-a691-d41eae4cc0e2","ios":"levelo://app?vid=b0b4388f-26f8-42e5-a691-d41eae4cc0e2"},"vehicle_type_id":"4","last_reported":1742497640,"current_range_meters":12400,"station_id":"ce4bhb92rcd13ifvqen0","pricing_plan_id":"cebpf4jnsgd1na2vs0mg"},{"bike_id":"6c5a6228-38cc-495f-984c-f37f5c186f8f","system_id":"levelo_inurba_marseille","lat":43.24067,"lon":5.37742,"is_reserved":false,"is_disabled":false,"rental_uris":{"android":"levelo://app?vid=6c5a6228-38cc-495f-984c-f37f5c186f8f","ios":"levelo://app?vid=6c5a6228-38cc-495f-984c-f37f5c186f8f"},"vehicle_type_id":"4","last_reported":1742497640,"current_range_meters":12000,"station_id":"ce4bhnp2rcd13ifvqgvg","pricing_plan_id":"cebpf4jnsgd1na2vs0mg"},{"bike_id":"bffc3d7a-02da-4029-825e-edcc17a0323b","system_id":"levelo_inurba_marseille","lat":43.23151,"lon":5.43724,"is_reserved":false,"is_disabled":false,"rental_uris":{"android":"levelo://app?vid=bffc3d7a-02da-4029-825e-edcc17a0323b","ios":"levelo://app?vid=bffc3d7a-02da-4029-825e-edcc17a0323b"},"vehicle_type_id":"4","last_reported":1742497640,"current_range_meters":12000,"station_id":"ce4bhmp2rcd13ifvqgog","pricing_plan_id":"cebpf4jnsgd1na2vs0mg"},{"bike_id":"295451a4-a71a-48b3-9f2c-dfa8b727f166","system_id":"levelo_inurba_marseille","lat":43.28401,"lon":5.3752,"is_reserved":false,"is_disabled":false,"rental_uris":{"android":"levelo://app?vid=295451a4-a71a-48b3-9f2c-dfa8b727f166","ios":"levelo://app?vid=295451a4-a71a-48b3-9f2c-dfa8b727f166"},"vehicle_type_id":"4","last_reported":1742497640,"current_range_meters":12400,"station_id":"ce4bh412rcd13ifvqds0","pricing_plan_id":"cebpf4jnsgd1na2vs0mg"},{"bike_id":"fb3b7291-3c04-447e-ad34-807e47169d30","system_id":"levelo_inurba_marseille","lat":43.33287,"lon":5.39586,"is_reserved":false,"is_disabled":false,"rental_uris":{"android":"levelo://app?vid=fb3b7291-3c04-447e-ad34-807e47169d30","ios":"levelo://app?vid=fb3b7291-3c04-447e-ad34-807e47169d30"},"vehicle_type_id":"4","last_reported":1742497640,"current_range_meters":12400,"station_id":"","pricing_plan_id":"cebpf4jnsgd1na2vs0mg"},{"bike_id":"a49d4b52-647e-45c3-a9ed-a8594489b811","system_id":"levelo_inurba_marseille","lat":43.23966,"lon":5.36635,"is_reserved":false,"is_disabled":false,"rental_uris":{"android":"levelo://app?vid=a49d4b52-647e-45c3-a9ed-a8594489b811","ios":"levelo://app?vid=a49d4b52-647e-45c3-a9ed-a8594489b811"},"vehicle_type_id":"4","last_reported":1742497640,"current_range_meters":12000,"station_id":"ce4bhi12rcd13ifvqfp0","pricing_plan_id":"cebpf4jnsgd1na2vs0mg"},{"bike_id":"a67c54b6-5ce9-4632-8070-5ca7d5b7fc9e","system_id":"levelo_inurba_marseille","lat":43.23066,"lon":5.35494,"is_reserved":false,"is_disabled":false,"rental_uris":{"android":"levelo://app?vid=a67c54b6-5ce9-4632-8070-5ca7d5b7fc9e","ios":"levelo://app?vid=a67c54b6-5ce9-4632-8070-5ca7d5b7fc9e"},"vehicle_type_id":"4","last_reported":1742497640,"current_range_meters":12800,"station_id":"cpo3342slgdg3j2ifvpg","pricing_plan_id":"cebpf4jnsgd1na2vs0mg"},{"bike_id":"060da1cb-8e35-461d-8672-ef73d3353409","system_id":"levelo_inurba_marseille","lat":43.28041,"lon":5.36953,"is_reserved":false,"is_disabled":false,"rental_uris":{"android":"levelo://app?vid=060da1cb-8e35-461d-8672-ef73d3353409","ios":"levelo://app?vid=060da1cb-8e35-461d-8672-ef73d3353409"},"vehicle_type_id":"4","last_reported":1742497640,"current_range_meters":12400,"station_id":"ce4bha12rcd13ifvqef0","pricing_plan_id":"cebpf4jnsgd1na2vs0mg"},{"bike_id":"57229c01-1a2c-4fda-a93a-53ec0bbf2ec9","system_id":"levelo_inurba_marseille","lat":43.2836,"lon":5.3861,"is_reserved":false,"is_disabled":false,"rental_uris":{"android":"levelo://app?vid=57229c01-1a2c-4fda-a93a-53ec0bbf2ec9","ios":"levelo://app?vid=57229c01-1a2c-4fda-a93a-53ec0bbf2ec9"},"vehicle_type_id":"4","last_reported":1742497640,"current_range_meters":12800,"station_id":"ce4bh492rcd13ifvqdvg","pricing_plan_id":"cebpf4jnsgd1na2vs0mg"},{"bike_id":"53c5623d-273f-4f47-b264-a64d42ca6e47","system_id":"levelo_inurba_marseille","lat":43.31387,"lon":5.37426,"is_reserved":false,"is_disabled":false,"rental_uris":{"android":"levelo://app?vid=53c5623d-273f-4f47-b264-a64d42ca6e47","ios":"levelo://app?vid=53c5623d-273f-4f47-b264-a64d42ca6e47"},"vehicle_type_id":"4","last_reported":1742497640,"current_range_meters":12800,"station_id":"","pricing_plan_id":"cebpf4jnsgd1na2vs0mg"},{"bike_id":"9b3e79c5-63c6-4abf-8e8b-b35a8f81302a","system_id":"levelo_inurba_marseille","lat":43.30349,"lon":5.41874,"is_reserved":false,"is_disabled":false,"rental_uris":{"android":"levelo://app?vid=9b3e79c5-63c6-4abf-8e8b-b35a8f81302a","ios":"levelo://app?vid=9b3e79c5-63c6-4abf-8e8b-b35a8f81302a"},"vehicle_type_id":"4","last_reported":1742497640,"current_range_meters":12400,"station_id":"ce4bhop2rcd13ifvqh7g","pricing_plan_id":"cebpf4jnsgd1na2vs0mg"},{"bike_id":"7cd5f43b-ed50-48f7-972c-31361cbb79d7","system_id":"levelo_inurba_marseille","lat":43.30604,"lon":5.37231,"is_reserved":false,"is_disabled":false,"rental_uris":{"android":"levelo://app?vid=7cd5f43b-ed50-48f7-972c-31361cbb79d7","ios":"levelo://app?vid=7cd5f43b-ed50-48f7-972c-31361cbb79d7"},"vehicle_type_id":"4","last_reported":1742497640,"current_range_meters":12800,"station_id":"ce4bgqh2rcd13ifvqc4g","pricing_plan_id":"cebpf4jnsgd1na2vs0mg"},