{"last_updated":1778617418,"ttl":60,"version":"2.2","data":{"bikes":[{"bike_id":"36a8230c-721c-4328-a9b6-c5c9ffd75279","system_id":"levelo_inurba_marseille","lat":43.331598,"lon":5.376798,"is_reserved":false,"is_disabled":true,"rental_uris":{"android":"levelo://app?vid=36a8230c-721c-4328-a9b6-c5c9ffd75279","ios":"levelo://app?vid=36a8230c-721c-4328-a9b6-c5c9ffd75279"},"vehicle_type_id":"4","last_reported":1778617418,"current_range_meters":2800,"station_id":"st_d46cu089ee8s73dldbu0","pricing_plan_id":"cebpf4jnsgd1na2vs0mg"},{"bike_id":"7a860a37-0444-4f52-86e1-0566de1aafd2","system_id":"levelo_inurba_marseille","lat":43.250831,"lon":5.395339,"is_reserved":false,"is_disabled":false,"rental_uris":{"android":"levelo://app?vid=7a860a37-0444-4f52-86e1-0566de1aafd2","ios":"levelo://app?vid=7a860a37-0444-4f52-86e1-0566de1aafd2"},"vehicle_type_id":"4","last_reported":1778617418,"current_range_meters":2800,"station_id":"ce4bhm12rcd13ifvqgkg","pricing_plan_id":"cebpf4jnsgd1na2vs0mg"},{"bike_id":"de28e75f-1016-4fe6-b26a-14891e35fbe3","system_id":"levelo_inurba_marseille","lat":43.28409,"lon":5.37521,"is_reserved":false,"is_disabled":false,"rental_uris":{"android":"levelo://app?vid=de28e75f-1016-4fe6-b26a-14891e35fbe3","ios":"levelo://app?vid=de28e75f-1016-4fe6-b26a-14891e35fbe3"},"vehicle_type_id":"4","last_reported":1778617418,"current_range_meters":2800,"station_id":"ce4bh412rcd13ifvqds0","pricing_plan_id":"cebpf4jnsgd1na2vs0mg"},{"bike_id":"542d4ca1-8783-4a08-bcce-db14e13ffd29","system_id":"levelo_inurba_marseille","lat":43.294373,"lon":5.397595,"is_reserved":false,"is_disabled":false,"rental_uris":{"android":"levelo://app?vid=542d4ca1-8783-4a08-bcce-db14e13ffd29","ios":"levelo://app?vid=542d4ca1-8783-4a08-bcce-db14e13ffd29"},"vehicle_type_id":"4","last_reported":1778617418,"current_range_meters":2800,"station_id":"ce4bh3h2rcd13ifvqdo0","pricing_plan_id":"cebpf4jnsgd1na2vs0mg"},{"bike_id":"e850159b-6cbb-4758-8cbc-9f1541ab1635","system_id":"levelo_inurba_marseille","lat":43.28701,"lon":5.37385,"is_reserved":false,"is_disabled":false,"rental_uris":{"android":"levelo://app?vid=e850159b-6cbb-4758-8cbc-9f1541ab1635","ios":"levelo://app?vid=e850159b-6cbb-4758-8cbc-9f1541ab1635"},"vehicle_type_id":"4","last_reported":1778617418,"current_range_meters":2800,"station_id":"ce4bh3p2rcd13ifvqdq0","pricing_plan_id":"cebpf4jnsgd1na2vs0mg"},{"bike_id":"1ba2cbcf-a1d9-4952-832b-d37d99ae03fc","system_id":"levelo_inurba_marseille","lat":43.24413,"lon":5.37851,"is_reserved":false,"is_disabled":false,"rental_uris":{"android":"levelo://app?vid=1ba2cbcf-a1d9-4952-832b-d37d99ae03fc","ios":"levelo://app?vid=1ba2cbcf-a1d9-4952-832b-d37d99ae03fc"},"vehicle_type_id":"4","last_reported":1778617418,"current_range_meters":3200,"station_id":"","pricing_plan_id":"cebpf4jnsgd1na2vs0mg"},{"bike_id":"e0ebf5ac-9ebd-4307-bdee-4435f274c270","system_id":"levelo_inurba_marseille","lat":43.31119,"lon":5.37768,"is_reserved":false,"is_disabled":true,"rental_uris":{"android":"levelo://app?vid=e0ebf5ac-9ebd-4307-bdee-4435f274c270","ios":"levelo://app?vid=e0ebf5ac-9ebd-4307-bdee-4435f274c270"},"vehicle_type_id":"4","last_reported":1778617418,"current_range_meters":3200,"station_id":"ce4bgt92rcd13ifvqcg0","pricing_plan_id":"cebpf4jnsgd1na2vs0mg"},{"bike_id":"a6073d1e-2a9d-46ee-9d4d-fa8ecd0193c4","system_id":"levelo_inurba_marseille","lat":43.30938,"lon":5.4014,"is_reserved":false,"is_disabled":false,"rental_uris":{"android":"levelo://app?vid=a6073d1e-2a9d-46ee-9d4d-fa8ecd0193c4","ios":"levelo://app?vid=a6073d1e-2a9d-46ee-9d4d-fa8ecd0193c4"},"vehicle_type_id":"4","last_reported":1778617418,"current_range_meters":3200,"station_id":"ce4bgvp2rcd13ifvqct0","pricing_plan_id":"cebpf4jnsgd1na2vs0mg"},{"bike_id":"8c2b9c16-e2b0-41c2-b97c-3a0125aa3fbc","system_id":"levelo_inurba_marseille","lat":43.29433,"lon":5.3976,"is_reserved":false,"is_disabled":false,"rental_uris":{"android":"levelo://app?vid=8c2b9c16-e2b0-41c2-b97c-3a0125aa3fbc","ios":"levelo://app?vid=8c2b9c16-e2b0-41c2-b97c-3a0125aa3fbc"},"vehicle_type_id":"4","last_reported":1778617418,"current_range_meters":3200,"station_id":"ce4bh3h2rcd13ifvqdo0","pricing_plan_id":"cebpf4jnsgd1na2vs0mg"},{"bike_id":"acce5035-3230-448b-9940-952c36c5ee8e","system_id":"levelo_inurba_marseille","lat":43.32498,"lon":5.38294,"is_reserved":false,"is_disabled":false,"rental_uris":{"android":"levelo://app?vid=acce5035-3230-448b-9940-952c36c5ee8e","ios":"levelo://app?vid=acce5035-3230-448b-9940-952c36c5ee8e"},"vehicle_type_id":"4","last_reported":1778617418,"current_range_meters":3200,"station_id":"st_d4asgbiv49dc73anf9m0","pricing_plan_id":"cebpf4jnsgd1na2vs0mg"},{"bike_id":"0f19004c-8f50-46f9-a9d9-6bfd8920cac5","system_id":"levelo_inurba_marseille","lat":43.30142,"lon":5.38089,"is_reserved":false,"is_disabled":true,"rental_uris":{"android":"levelo://app?vid=0f19004c-8f50-46f9-a9d9-6bfd8920cac5","ios":"levelo://app?vid=0f19004c-8f50-46f9-a9d9-6bfd8920cac5"},"vehicle_type_id":"4","last_reported":1778617418,"current_range_meters":3200,"station_id":"ce4bgjp2rcd13ifvqbh0","pricing_plan_id":"cebpf4jnsgd1na2vs0mg"},{"bike_id":"54d91a13-5899-47f6-bec9-71223c378664","system_id":"levelo_inurba_marseille","lat":43.28486,"lon":5.48383,"is_reserved":false,"is_disabled":false,"rental_uris":{"android":"levelo://app?vid=54d91a13-5899-47f6-bec9-71223c378664","ios":"levelo://app?vid=54d91a13-5899-47f6-bec9-71223c378664"},"vehicle_type_id":"4","last_reported":1778617418,"current_range_meters":3200,"station_id":"","pricing_plan_id":"cebpf4jnsgd1na2vs0mg"},{"bike_id":"4ea86345-c2c7-4de1-b852-c58b530c2c24","system_id":"levelo_inurba_marseille","lat":43.25112,"lon":5.40317,"is_reserved":false,"is_disabled":false,"rental_uris":{"android":"levelo://app?vid=4ea86345-c2c7-4de1-b852-c58b530c2c24","ios":"levelo://app?vid=4ea86345-c2c7-4de1-b852-c58b530c2c24"},"vehicle_type_id":"4","last_reported":1778617418,"current_range_meters":3200,"station_id":"ce4bhlh2rcd13ifvqgig","pricing_plan_id":"cebpf4jnsgd1na2vs0mg"},{"bike_id":"e6a821d1-b3f6-4c48-bda9-8881c167d4e9","system_id":"levelo_inurba_marseille","lat":43.30921,"lon":5.40144,"is_reserved":false,"is_disabled":false,"rental_uris":{"android":"levelo://app?vid=e6a821d1-b3f6-4c48-bda9-8881c167d4e9","ios":"levelo://app?vid=e6a821d1-b3f6-4c48-bda9-8881c167d4e9"},"vehicle_type_id":"4","last_reported":1778617418,"current_range_meters":3600,"station_id":"ce4bgvp2rcd13ifvqct0","pricing_plan_id":"cebpf4jnsgd1na2vs0mg"},{"bike_id":"daa7168a-7e89-4c13-9120-19d3be838e10","system_id":"levelo_inurba_marseille","lat":43.28685,"lon":5.46674,"is_reserved":false,"is_disabled":false,"rental_uris":{"android":"levelo://app?vid=daa7168a-7e89-4c13-9120-19d3be838e10","ios":"levelo://app?vid=daa7168a-7e89-4c13-9120-19d3be838e10"},"vehicle_type_id":"4","last_reported":1778617418,"current_range_meters":3600,"station_id":"st_d6tc3vkotcvc738tfjhg","pricing_plan_id":"cebpf4jnsgd1na2vs0mg"},{"bike_id":"ace5f4d9-0e5e-4930-8fac-4a59d54dd29a","system_id":"levelo_inurba_marseille","lat":43.28837,"lon":5.35847,"is_reserved":false,"is_disabled":false,"rental_uris":{"android":"levelo://app?vid=ace5f4d9-0e5e-4930-8fac-4a59d54dd29a","ios":"levelo://app?vid=ace5f4d9-0e5e-4930-8fac-4a59d54dd29a"},"vehicle_type_id":"4","last_reported":1778617418,"current_range_meters":3600,"station_id":"ce4bhb12rcd13ifvqem0","pricing_plan_id":"cebpf4jnsgd1na2vs0mg"},{"bike_id":"62c56e7d-9a1f-4eaa-ba6e-06eb5b3ac23a","system_id":"levelo_inurba_marseille","lat":43.31216,"lon":5.38709,"is_reserved":false,"is_disabled":false,"rental_uris":{"android":"levelo://app?vid=62c56e7d-9a1f-4eaa-ba6e-06eb5b3ac23a","ios":"levelo://app?vid=62c56e7d-9a1f-4eaa-ba6e-06eb5b3ac23a"},"vehicle_type_id":"4","last_reported":1778617418,"current_range_meters":3600,"station_id":"","pricing_plan_id":"cebpf4jnsgd1na2vs0mg"},{"bike_id":"0f2594ed-646c-4e9e-91bf-1d08f20bb504","system_id":"levelo_inurba_marseille","lat":43.31181,"lon":5.38708,"is_reserved":false,"is_disabled":false,"rental_uris":{"android":"levelo://app?vid=0f2594ed-646c-4e9e-91bf-1d08f20bb504","ios":"levelo://app?vid=0f2594ed-646c-4e9e-91bf-1d08f20bb504"},"vehicle_type_id":"4","last_reported":1778617418,"current_range_meters":3600,"station_id":"ce4bgv12rcd13ifvqcp0","pricing_plan_id":"cebpf4jnsgd1na2vs0mg"},{"bike_id":"e5cf0687-9271-4fc3-be3a-41de931fe1cb","system_id":"levelo_inurba_marseille","lat":43.30551,"lon":5.36587,"is_reserved":false,"is_disabled":false,"rental_uris":{"android":"levelo://app?vid=e5cf0687-9271-4fc3-be3a-41de931fe1cb","ios":"levelo://app?vid=e5cf0687-9271-4fc3-be3a-41de931fe1cb"},"vehicle_type_id":"4","last_reported":1778617418,"current_range_meters":3600,"station_id":"ce4bgs12rcd13ifvqcag","pricing_plan_id":"cebpf4jnsgd1na2vs0mg"},{"bike_id":"2e6f21cd-6a38-43fc-a2dc-2b4ab603cccd","system_id":"levelo_inurba_marseille","lat":43.30618,"lon":5.3723,"is_reserved":false,"is_disabled":false,"rental_uris":{"android":"levelo://app?vid=2e6f21cd-6a38-43fc-a2dc-2b4ab603cccd","ios":"levelo://app?vid=2e6f21cd-6a38-43fc-a2dc-2b4ab603cccd"},"vehicle_type_id":"4","last_reported":1778617418,"current_range_meters":3600,"station_id":"ce4bgqh2rcd13ifvqc4g","pricing_plan_id":"cebpf4jnsgd1na2vs0mg"},{"bike_id":"c86bf7d9-bb52-4428-92d4-6f1bbf9ab470","system_id":"levelo_inurba_marseille","lat":43.231804,"lon":5.399759,"is_reserved":false,"is_disabled":false,"rental_uris":{"android":"levelo://app?vid=c86bf7d9-bb52-4428-92d4-6f1bbf9ab470","ios":"levelo://app?vid=c86bf7d9-bb52-4428-92d4-6f1bbf9ab470"},"vehicle_type_id":"4","last_reported":1778617418,"current_range_meters":3600,"station_id":"ce4bhn12rcd13ifvqgqg","pricing_plan_id":"cebpf4jnsgd1na2vs0mg"},{"bike_id":"218d13da-7671-4767-92e4-04d15fc69aaa","system_id":"levelo_inurba_marseille","lat":43.29834,"lon":5.40545,"is_reserved":false,"is_disabled":false,"rental_uris":{"android":"levelo://app?vid=218d13da-7671-4767-92e4-04d15fc69aaa","ios":"levelo://app?vid=218d13da-7671-4767-92e4-04d15fc69aaa"},"vehicle_type_id":"4","last_reported":1778617418,"current_range_meters":3600,"station_id":"","pricing_plan_id":"cebpf4jnsgd1na2vs0mg"},{"bike_id":"06ac39d4-2bb2-4e2e-8edb-ba4d1f24ca3b","system_id":"levelo_inurba_marseille","lat":43.25032,"lon":5.37615,"is_reserved":false,"is_disabled":false,"rental_uris":{"android":"levelo://app?vid=06ac39d4-2bb2-4e2e-8edb-ba4d1f24ca3b","ios":"levelo://app?vid=06ac39d4-2bb2-4e2e-8edb-ba4d1f24ca3b"},"vehicle_type_id":"4","last_reported":1778617418,"current_range_meters":3600,"station_id":"","pricing_plan_id":"cebpf4jnsgd1na2vs0mg"},{"bike_id":"8d497b3f-8488-45f0-8970-0e45bd388b12","system_id":"levelo_inurba_marseille","lat":43.29307,"lon":5.37461,"is_reserved":false,"is_disabled":false,"rental_uris":{"android":"levelo://app?vid=8d497b3f-8488-45f0-8970-0e45bd388b12","ios":"levelo://app?vid=8d497b3f-8488-45f0-8970-0e45bd388b12"},"vehicle_type_id":"4","last_reported":1778617418,"current_range_meters":3600,"station_id":"ce4bgi12rcd13ifvqb70","pricing_plan_id":"cebpf4jnsgd1na2vs0mg"},{"bike_id":"a113d2c8-bccc-4c84-8ecf-15272956626c","system_id":"levelo_inurba_marseille","lat":43.30427,"lon":5.39752,"is_reserved":false,"is_disabled":false,"rental_uris":{"android":"levelo://app?vid=a113d2c8-bccc-4c84-8ecf-15272956626c","ios":"levelo://app?vid=a113d2c8-bccc-4c84-8ecf-15272956626c"},"vehicle_type_id":"4","last_reported":1778617418,"current_range_meters":4000,"station_id":"ce4bh092rcd13ifvqd20","pricing_plan_id":"cebpf4jnsgd1na2vs0mg"},{"bike_id":"dc0a6e21-47dd-44a5-9f73-3b0019341943","system_id":"levelo_inurba_marseille","lat":43.30498,"lon":5.45989,"is_reserved":false,"is_disabled":false,"rental_uris":{"android":"levelo://app?vid=dc0a6e21-47dd-44a5-9f73-3b0019341943","ios":"levelo://app?vid=dc0a6e21-47dd-44a5-9f73-3b0019341943"},"vehicle_type_id":"4","last_reported":1778617418,"current_range_meters":4000,"station_id":"","pricing_plan_id":"cebpf4jnsgd1na2vs0mg"},{"bike_id":"e29bab83-08a2-4a91-9da6-9b4710314e4c","system_id":"levelo_inurba_marseille","lat":43.31332,"lon":5.39693,"is_reserved":false,"is_disabled":false,"rental_uris":{"android":"levelo://app?vid=e29bab83-08a2-4a91-9da6-9b4710314e4c","ios":"levelo://app?vid=e29bab83-08a2-4a91-9da6-9b4710314e4c"},"vehicle_type_id":"4","last_reported":1778617418,"current_range_meters":4000,"station_id":"ce4bgvp2rcd13ifvqcu0","pricing_plan_id":"cebpf4jnsgd1na2vs0mg"},{"bike_id":"819a3868-e86b-4761-85f7-cd647e1f51b3","system_id":"levelo_inurba_marseille","lat":43.21185,"lon":5.35077,"is_reserved":false,"is_disabled":false,"rental_uris":{"android":"levelo://app?vid=819a3868-e86b-4761-85f7-cd647e1f51b3","ios":"levelo://app?vid=819a3868-e86b-4761-85f7-cd647e1f51b3"},"vehicle_type_id":"4","last_reported":1778617418,"current_range_meters":4000,"station_id":"st_cvj6sg6p6f1abm77japg","pricing_plan_id":"cebpf4jnsgd1na2vs0mg"},{"bike_id":"0f749ae9-2e7d-44c0-911f-7e5d37b59ba6","system_id":"levelo_inurba_marseille","lat":43.27822,"lon":5.3921,"is_reserved":false,"is_disabled":false,"rental_uris":{"android":"levelo://app?vid=0f749ae9-2e7d-44c0-911f-7e5d37b59ba6","ios":"levelo://app?vid=0f749ae9-2e7d-44c0-911f-7e5d37b59ba6"},"vehicle_type_id":"4","last_reported":1778617418,"current_range_meters":4000,"station_id":"ce4bhjp2rcd13ifvqga0","pricing_plan_id":"cebpf4jnsgd1na2vs0mg"},{"bike_id":"158d26f2-052a-4635-81fe-50bd7a19af99","system_id":"levelo_inurba_marseille","lat":43.30412,"lon":5.3973,"is_reserved":false,"is_disabled":false,"rental_uris":{"android":"levelo://app?vid=158d26f2-052a-4635-81fe-50bd7a19af99","ios":"levelo://app?vid=158d26f2-052a-4635-81fe-50bd7a19af99"},"vehicle_type_id":"4","last_reported":1778617418,"current_range_meters":4400,"station_id":"ce4bh092rcd13ifvqd20","pricing_plan_id":"cebpf4jnsgd1na2vs0mg"},{"bike_id":"23b6dc26-1392-4fa8-9cc5-0f40ceb1f1c5","system_id":"levelo_inurba_marseille","lat":43.28708,"lon":5.46689,"is_reserved":false,"is_disabled":false,"rental_uris":{"android":"levelo://app?vid=23b6dc26-1392-4fa8-9cc5-0f40ceb1f1c5","ios":"levelo://app?vid=23b6dc26-1392-4fa8-9cc5-0f40ceb1f1c5"},"vehicle_type_id":"4","last_reported":1778617418,"current_range_meters":4400,"station_id":"st_d6tc3vkotcvc738tfjhg","pricing_plan_id":"cebpf4jnsgd1na2vs0mg"},{"bike_id":"c4da21d5-2d93-4c0e-bd4e-5d9718689dd2","system_id":"levelo_inurba_marseille","lat":43.29539,"lon":5.39385,"is_reserved":false,"is_disabled":false,"rental_uris":{"android":"levelo://app?vid=c4da21d5-2d93-4c0e-bd4e-5d9718689dd2","ios":"levelo://app?vid=c4da21d5-2d93-4c0e-bd4e-5d9718689dd2"},"vehicle_type_id":"4","last_reported":1778617418,"current_range_meters":4400,"station_id":"ce4bh292rcd13ifvqdf0","pricing_plan_id":"cebpf4jnsgd1na2vs0mg"},{"bike_id":"a309724a-584e-48ab-bfea-99e1efd0c4b3","system_id":"levelo_inurba_marseille","lat":43.32,"lon":5.38156,"is_reserved":false,"is_disabled":false,"rental_uris":{"android":"levelo://app?vid=a309724a-584e-48ab-bfea-99e1efd0c4b3","ios":"levelo://app?vid=a309724a-584e-48ab-bfea-99e1efd0c4b3"},"vehicle_type_id":"4","last_reported":1778617418,"current_range_meters":4400,"station_id":"ce4bhr12rcd13ifvqhpg","pricing_plan_id":"cebpf4jnsgd1na2vs0mg"},{"bike_id":"46672c75-8380-4d67-8e7d-e6b7b40ef82c","system_id":"levelo_inurba_marseille","lat":43.30786,"lon":5.37652,"is_reserved":false,"is_disabled":false,"rental_uris":{"android":"levelo://app?vid=46672c75-8380-4d67-8e7d-e6b7b40ef82c","ios":"levelo://app?vid=46672c75-8380-4d67-8e7d-e6b7b40ef82c"},"vehicle_type_id":"4","last_reported":1778617418,"current_range_meters":4400,"station_id":"ce4bgv92rcd13ifvqcq0","pricing_plan_id":"cebpf4jnsgd1na2vs0mg"},{"bike_id":"b7fc8ecf-87e8-4c97-b4b9-e54da8de0970","system_id":"levelo_inurba_marseille","lat":43.2979,"lon":5.3935,"is_reserved":false,"is_disabled":false,"rental_uris":{"android":"levelo://app?vid=b7fc8ecf-87e8-4c97-b4b9-e54da8de0970","ios":"levelo://app?vid=b7fc8ecf-87e8-4c97-b4b9-e54da8de0970"},"vehicle_type_id":"4","last_reported":1778617418,"current_range_meters":4400,"station_id":"chh1huq6cuj3fo74tm60","pricing_plan_id":"cebpf4jnsgd1na2vs0mg"},{"bike_id":"ed0249b4-fe2f-48d7-8a4d-14b41929414f","system_id":"levelo_inurba_marseille","lat":43.28354,"lon":5.38101,"is_reserved":false,"is_disabled":false,"rental_uris":{"android":"levelo://app?vid=ed0249b4-fe2f-48d7-8a4d-14b41929414f","ios":"levelo://app?vid=ed0249b4-fe2f-48d7-8a4d-14b41929414f"},"vehicle_type_id":"4","last_reported":1778617418,"current_range_meters":4400,"station_id":"ce4bh412rcd13ifvqdr0","pricing_plan_id":"cebpf4jnsgd1na2vs0mg"},{"bike_id":"06a2a234-ac4c-45dc-a50b-fd1d28b21159","system_id":"levelo_inurba_marseille","lat":43.28441,"lon":5.39188,"is_reserved":false,"is_disabled":false,"rental_uris":{"android":"levelo://app?vid=06a2a234-ac4c-45dc-a50b-fd1d28b21159","ios":"levelo://app?vid=06a2a234-ac4c-45dc-a50b-fd1d28b21159"},"vehicle_type_id":"4","last_reported":1778617418,"current_range_meters":4400,"station_id":"ce4bhoh2rcd13ifvqh5g","pricing_plan_id":"cebpf4jnsgd1na2vs0mg"},{"bike_id":"531f9e1f-3372-484b-8294-8f723fc9bc74","system_id":"levelo_inurba_marseille","lat":43.30313,"lon":5.39224,"is_reserved":false,"is_disabled":false,"rental_uris":{"android":"levelo://app?vid=531f9e1f-3372-484b-8294-8f723fc9bc74","ios":"levelo://app?vid=531f9e1f-3372-484b-8294-8f723fc9bc74"},"vehicle_type_id":"4","last_reported":1778617418,"current_range_meters":4400,"station_id":"ce4bgkh2rcd13ifvqbk0","pricing_plan_id":"cebpf4jnsgd1na2vs0mg"},{"bike_id":"bd506247-2f6a-40a7-8d36-48669b7e64ee","system_id":"levelo_inurba_marseille","lat":43.29955,"lon":5.3715,"is_reserved":false,"is_disabled":false,"rental_uris":{"android":"levelo://app?vid=bd506247-2f6a-40a7-8d36-48669b7e64ee","ios":"levelo://app?vid=bd506247-2f6a-40a7-8d36-48669b7e64ee"},"vehicle_type_id":"4","last_reported":1778617418,"current_range_meters":4800,"station_id":"ce4bgr92rcd13ifvqc7g","pricing_plan_id":"cebpf4jnsgd1na2vs0mg"},{"bike_id":"dba3a41e-5817-4dab-887a-39cfc182c3e4","system_id":"levelo_inurba_marseille","lat":43.23787,"lon":5.36647,"is_reserved":false,"is_disabled":true,"rental_uris":{"android":"levelo://app?vid=dba3a41e-5817-4dab-887a-39cfc182c3e4","ios":"levelo://app?vid=dba3a41e-5817-4dab-887a-39cfc182c3e4"},"vehicle_type_id":"4","last_reported":1778617418,"current_range_meters":4800,"station_id":"st_d3nk18o9ro0c73en2l3g","pricing_plan_id":"cebpf4jnsgd1na2vs0mg"},{"bike_id":"37675d96-e2ec-44ec-8ab3-485f0bd8765e","system_id":"levelo_inurba_marseille","lat":43.27944,"lon":5.38702,"is_reserved":false,"is_disabled":false,"rental_uris":{"android":"levelo://app?vid=37675d96-e2ec-44ec-8ab3-485f0bd8765e","ios":"levelo://app?vid=37675d96-e2ec-44ec-8ab3-485f0bd8765e"},"vehicle_type_id":"4","last_reported":1778617418,"current_range_meters":4800,"station_id":"ce4bhg12rcd13ifvqf80","pricing_plan_id":"cebpf4jnsgd1na2vs0mg"},{"bike_id":"5a6fc470-c3a1-494d-bcb6-47940d8bab2e","system_id":"levelo_inurba_marseille","lat":43.28414,"lon":5.34979,"is_reserved":false,"is_disabled":false,"rental_uris":{"android":"levelo://app?vid=5a6fc470-c3a1-494d-bcb6-47940d8bab2e","ios":"levelo://app?vid=5a6fc470-c3a1-494d-bcb6-47940d8bab2e"},"vehicle_type_id":"4","last_reported":1778617418,"current_range_meters":4800,"station_id":"ce4bhbh2rcd13ifvqepg","pricing_plan_id":"cebpf4jnsgd1na2vs0mg"},{"bike_id":"1224442a-12ab-4d10-abcf-bae65d6752c5","system_id":"levelo_inurba_marseille","lat":43.2954,"lon":5.38551,"is_reserved":false,"is_disabled":false,"rental_uris":{"android":"levelo://app?vid=1224442a-12ab-4d10-abcf-bae65d6752c5","ios":"levelo://app?vid=1224442a-12ab-4d10-abcf-bae65d6752c5"},"vehicle_type_id":"4","last_reported":1778617418,"current_range_meters":4800,"station_id":"ce4bgih2rcd13ifvqba0","pricing_plan_id":"cebpf4jnsgd1na2vs0mg"},{"bike_id":"9b348362-3113-4cdb-9853-386198141aa4","system_id":"levelo_inurba_marseille","lat":43.29034,"lon":5.3861,"is_reserved":false,"is_disabled":false,"rental_uris":{"android":"levelo://app?vid=9b348362-3113-4cdb-9853-386198141aa4","ios":"levelo://app?vid=9b348362-3113-4cdb-9853-386198141aa4"},"vehicle_type_id":"4","last_reported":1778617418,"current_range_meters":4800,"station_id":"ce4bh4p2rcd13ifvqe0g","pricing_plan_id":"cebpf4jnsgd1na2vs0mg"},{"bike_id":"c3db6a42-030a-430c-9ef0-a0289a066323","system_id":"levelo_inurba_marseille","lat":43.27621,"lon":5.36106,"is_reserved":false,"is_disabled":false,"rental_uris":{"android":"levelo://app?vid=c3db6a42-030a-430c-9ef0-a0289a066323","ios":"levelo://app?vid=c3db6a42-030a-430c-9ef0-a0289a066323"},"vehicle_type_id":"4","last_reported":1778617418,"current_range_meters":4800,"station_id":"ce4bgj92rcd13ifvqbe0","pricing_plan_id":"cebpf4jnsgd1na2vs0mg"},{"bike_id":"f1e90ee9-49c4-47d6-874e-d6a6d79df45c","system_id":"levelo_inurba_marseille","lat":43.29016,"lon":5.38655,"is_reserved":false,"is_disabled":false,"rental_uris":{"android":"levelo://app?vid=f1e90ee9-49c4-47d6-874e-d6a6d79df45c","ios":"levelo://app?vid=f1e90ee9-49c4-47d6-874e-d6a6d79df45c"},"vehicle_type_id":"4","last_reported":1778617418,"current_range_meters":4800,"station_id":"ce4bh4p2rcd13ifvqe0g","pricing_plan_id":"cebpf4jnsgd1na2vs0mg"},{"bike_id":"fac8e4cd-b914-4c40-9f5f-c4dd48633ed5","system_id":"levelo_inurba_marseille","lat":43.2795,"lon":5.41039,"is_reserved":false,"is_disabled":false,"rental_uris":{"android":"levelo://app?vid=fac8e4cd-b914-4c40-9f5f-c4dd48633ed5","ios":"levelo://app?vid=fac8e4cd-b914-4c40-9f5f-c4dd48633ed5"},"vehicle_type_id":"4","last_reported":1778617418,"current_range_meters":4800,"station_id":"ce4bhnp2rcd13ifvqh0g","pricing_plan_id":"cebpf4jnsgd1na2vs0mg"},{"bike_id":"e6838ae8-7115-4aed-b331-3b663ddf858f","system_id":"levelo_inurba_marseille","lat":43.31174,"lon":5.3872,"is_reserved":false,"is_disabled":false,"rental_uris":{"android":"levelo://app?vid=e6838ae8-7115-4aed-b331-3b663ddf858f","ios":"levelo://app?vid=e6838ae8-7115-4aed-b331-3b663ddf858f"},"vehicle_type_id":"4","last_reported":1778617418,"current_range_meters":4800,"station_id":"ce4bgv12rcd13ifvqcp0","pricing_plan_id":"cebpf4jnsgd1na2vs0mg"},{"bike_id":"4e9e9f19-6747-44e6-895b-68838dd6a1c5","system_id":"levelo_inurba_marseille","lat":43.32353,"lon":5.36728,"is_reserved":false,"is_disabled":false,"rental_uris":{"android":"levelo://app?vid=4e9e9f19-6747-44e6-895b-68838dd6a1c5","ios":"levelo://app?vid=4e9e9f19-6747-44e6-895b-68838dd6a1c5"},"vehicle_type_id":"4","last_reported":1778617418,"current_range_meters":4800,"station_id":"ce4bhsh2rcd13ifvqi2g","pricing_plan_id":"cebpf4jnsgd1na2vs0mg"},{"bike_id":"02dbe155-fe1d-45fc-8d04-a1932cb82069","system_id":"levelo_inurba_marseille","lat":43.31318,"lon":5.3969,"is_reserved":false,"is_disabled":false,"rental_uris":{"android":"levelo://app?vid=02dbe155-fe1d-45fc-8d04-a1932cb82069","ios":"levelo://app?vid=02dbe155-fe1d-45fc-8d04-a1932cb82069"},"vehicle_type_id":"4","last_reported":1778617418,"current_range_meters":4800,"station_id":"ce4bgvp2rcd13ifvqcu0","pricing_plan_id":"cebpf4jnsgd1na2vs0mg"},{"bike_id":"06ace5d7-3d4b-48bb-9ba8-5a2e1fabdaaf","system_id":"levelo_inurba_marseille","lat":43.337518,"lon":5.374433,"is_reserved":false,"is_disabled":false,"rental_uris":{"android":"levelo://app?vid=06ace5d7-3d4b-48bb-9ba8-5a2e1fabdaaf","ios":"levelo://app?vid=06ace5d7-3d4b-48bb-9ba8-5a2e1fabdaaf"},"vehicle_type_id":"4","last_reported":1778617418,"current_range_meters":4800,"station_id":"","pricing_plan_id":"cebpf4jnsgd1na2vs0mg"},{"bike_id":"c8170262-37ee-4eb8-ac78-47fc8ef1e494","system_id":"levelo_inurba_marseille","lat":43.29296,"lon":5.37468,"is_reserved":false,"is_disabled":false,"rental_uris":{"android":"levelo://app?vid=c8170262-37ee-4eb8-ac78-47fc8ef1e494","ios":"levelo://app?vid=c8170262-37ee-4eb8-ac78-47fc8ef1e494"},"vehicle_type_id":"4","last_reported":1778617418,"current_range_meters":4800,"station_id":"","pricing_plan_id":"cebpf4jnsgd1na2vs0mg"},{"bike_id":"8e43356a-6894-4729-8a36-e254d80b24c0","system_id":"levelo_inurba_marseille","lat":43.29134,"lon":5.43262,"is_reserved":false,"is_disabled":false,"rental_uris":{"android":"levelo://app?vid=8e43356a-6894-4729-8a36-e254d80b24c0","ios":"levelo://app?vid=8e43356a-6894-4729-8a36-e254d80b24c0"},"vehicle_type_id":"4","last_reported":1778617418,"current_range_meters":4800,"station_id":"","pricing_plan_id":"cebpf4jnsgd1na2vs0mg"},{"bike_id":"08b0c056-213f-48c2-9d6d-2ae4cf315af9","system_id":"levelo_inurba_marseille","lat":43.25338,"lon":5.42173,"is_reserved":false,"is_disabled":false,"rental_uris":{"android":"levelo://app?vid=08b0c056-213f-48c2-9d6d-2ae4cf315af9","ios":"levelo://app?vid=08b0c056-213f-48c2-9d6d-2ae4cf315af9"},"vehicle_type_id":"4","last_reported":1778617418,"current_range_meters":4800,"station_id":"st_d2m65c5bi1j21697t3ng","pricing_plan_id":"cebpf4jnsgd1na2vs0mg"},{"bike_id":"c4a39941-4b69-4697-a3ce-af3df8a6d218","system_id":"levelo_inurba_marseille","lat":43.27654,"lon":5.36321,"is_reserved":false,"is_disabled":false,"rental_uris":{"android":"levelo://app?vid=c4a39941-4b69-4697-a3ce-af3df8a6d218","ios":"levelo://app?vid=c4a39941-4b69-4697-a3ce-af3df8a6d218"},"vehicle_type_id":"4","last_reported":1778617418,"current_range_meters":4800,"station_id":"","pricing_plan_id":"cebpf4jnsgd1na2vs0mg"},{"bike_id":"8822872b-a491-4b2c-9590-dd31d95df0ea","system_id":"levelo_inurba_marseille","lat":43.28158,"lon":5.42646,"is_reserved":false,"is_disabled":false,"rental_uris":{"android":"levelo://app?vid=8822872b-a491-4b2c-9590-dd31d95df0ea","ios":"levelo://app?vid=8822872b-a491-4b2c-9590-dd31d95df0ea"},"vehicle_type_id":"4","last_reported":1778617418,"current_range_meters":4800,"station_id":"ce4bhnh2rcd13ifvqgug","pricing_plan_id":"cebpf4jnsgd1na2vs0mg"},{"bike_id":"f25fce79-e3b2-4e11-91a3-02dd0d76d1af","system_id":"levelo_inurba_marseille","lat":43.29512,"lon":5.39405,"is_reserved":false,"is_disabled":false,"rental_uris":{"android":"levelo://app?vid=f25fce79-e3b2-4e11-91a3-02dd0d76d1af","ios":"levelo://app?vid=f25fce79-e3b2-4e11-91a3-02dd0d76d1af"},"vehicle_type_id":"4","last_reported":1778617418,"current_range_meters":4800,"station_id":"ce4bh292rcd13ifvqdf0","pricing_plan_id":"cebpf4jnsgd1na2vs0mg"},{"bike_id":"d5567eef-68c5-4ee5-895a-b2f3b2a5fbe3","system_id":"levelo_inurba_marseille","lat":43.31277,"lon":5.40165,"is_reserved":false,"is_disabled":false,"rental_uris":{"android":"levelo://app?vid=d5567eef-68c5-4ee5-895a-b2f3b2a5fbe3","ios":"levelo://app?vid=d5567eef-68c5-4ee5-895a-b2f3b2a5fbe3"},"vehicle_type_id":"4","last_reported":1778617418,"current_range_meters":5600,"station_id":"ce4bh092rcd13ifvqd30","pricing_plan_id":"cebpf4jnsgd1na2vs0mg"},{"bike_id":"bb883d36-d526-4613-874f-fbf82a7a374b","system_id":"levelo_inurba_marseille","lat":43.29673,"lon":5.3701,"is_reserved":false,"is_disabled":false,"rental_uris":{"android":"levelo://app?vid=bb883d36-d526-4613-874f-fbf82a7a374b","ios":"levelo://app?vid=bb883d36-d526-4613-874f-fbf82a7a374b"},"vehicle_type_id":"4","last_reported":1778617418,"current_range_meters":5600,"station_id":"","pricing_plan_id":"cebpf4jnsgd1na2vs0mg"},{"bike_id":"d903db2b-3c4f-4ebd-adb5-e9d51955ecf8","system_id":"levelo_inurba_marseille","lat":43.27552,"lon":5.35895,"is_reserved":false,"is_disabled":false,"rental_uris":{"android":"levelo://app?vid=d903db2b-3c4f-4ebd-adb5-e9d51955ecf8","ios":"levelo://app?vid=d903db2b-3c4f-4ebd-adb5-e9d51955ecf8"},"vehicle_type_id":"4","last_reported":1778617418,"current_range_meters":5600,"station_id":"","pricing_plan_id":"cebpf4jnsgd1na2vs0mg"},{"bike_id":"e35a84d1-5122-49ae-b9d0-c7781f945bca","system_id":"levelo_inurba_marseille","lat":43.29613,"lon":5.38093,"is_reserved":false,"is_disabled":false,"rental_uris":{"android":"levelo://app?vid=e35a84d1-5122-49ae-b9d0-c7781f945bca","ios":"levelo://app?vid=e35a84d1-5122-49ae-b9d0-c7781f945bca"},"vehicle_type_id":"4","last_reported":1778617418,"current_range_meters":5600,"station_id":"ce4bgl12rcd13ifvqbo0","pricing_plan_id":"cebpf4jnsgd1na2vs0mg"},{"bike_id":"5b2b3f46-5aac-4a36-9f68-4263262ea6fb","system_id":"levelo_inurba_marseille","lat":43.27912,"lon":5.39586,"is_reserved":false,"is_disabled":false,"rental_uris":{"android":"levelo://app?vid=5b2b3f46-5aac-4a36-9f68-4263262ea6fb","ios":"levelo://app?vid=5b2b3f46-5aac-4a36-9f68-4263262ea6fb"},"vehicle_type_id":"4","last_reported":1778617418,"current_range_meters":5600,"station_id":"ce4bhf92rcd13ifvqf40","pricing_plan_id":"cebpf4jnsgd1na2vs0mg"},{"bike_id":"14059eb2-1b3f-4461-b0ee-158772daa7a1","system_id":"levelo_inurba_marseille","lat":43.31304,"lon":5.40152,"is_reserved":false,"is_disabled":true,"rental_uris":{"android":"levelo://app?vid=14059eb2-1b3f-4461-b0ee-158772daa7a1","ios":"levelo://app?vid=14059eb2-1b3f-4461-b0ee-158772daa7a1"},"vehicle_type_id":"4","last_reported":1778617418,"current_range_meters":5600,"station_id":"ce4bh092rcd13ifvqd30","pricing_plan_id":"cebpf4jnsgd1na2vs0mg"},{"bike_id":"f75200eb-c556-489f-9d74-42038266db2e","system_id":"levelo_inurba_marseille","lat":43.29219,"lon":5.39962,"is_reserved":false,"is_disabled":false,"rental_uris":{"android":"levelo://app?vid=f75200eb-c556-489f-9d74-42038266db2e","ios":"levelo://app?vid=f75200eb-c556-489f-9d74-42038266db2e"},"vehicle_type_id":"4","last_reported":1778617418,"current_range_meters":5600,"station_id":"ce4bh312rcd13ifvqdk0","pricing_plan_id":"cebpf4jnsgd1na2vs0mg"},{"bike_id":"946d3395-a1fc-4c85-99ee-e555a66a34c8","system_id":"levelo_inurba_marseille","lat":43.28486,"lon":5.35895,"is_reserved":false,"is_disabled":false,"rental_uris":{"android":"levelo://app?vid=946d3395-a1fc-4c85-99ee-e555a66a34c8","ios":"levelo://app?vid=946d3395-a1fc-4c85-99ee-e555a66a34c8"},"vehicle_type_id":"4","last_reported":1778617418,"current_range_meters":5600,"station_id":"ce4bhah2rcd13ifvqei0","pricing_plan_id":"cebpf4jnsgd1na2vs0mg"},{"bike_id":"142040d0-bd50-47c9-8373-797fe8a05f18","system_id":"levelo_inurba_marseille","lat":43.32694,"lon":5.4097,"is_reserved":false,"is_disabled":false,"rental_uris":{"android":"levelo://app?vid=142040d0-bd50-47c9-8373-797fe8a05f18","ios":"levelo://app?vid=142040d0-bd50-47c9-8373-797fe8a05f18"},"vehicle_type_id":"4","last_reported":1778617418,"current_range_meters":5600,"station_id":"ce4bhpp2rcd13ifvqhgg","pricing_plan_id":"cebpf4jnsgd1na2vs0mg"},{"bike_id":"1a6de06b-97b1-4e71-ba31-fea230fdd543","system_id":"levelo_inurba_marseille","lat":43.25589,"lon":5.38225,"is_reserved":false,"is_disabled":false,"rental_uris":{"android":"levelo://app?vid=1a6de06b-97b1-4e71-ba31-fea230fdd543","ios":"levelo://app?vid=1a6de06b-97b1-4e71-ba31-fea230fdd543"},"vehicle_type_id":"4","last_reported":1778617418,"current_range_meters":5600,"station_id":"ce4bhih2rcd13ifvqfs0","pricing_plan_id":"cebpf4jnsgd1na2vs0mg"},{"bike_id":"33720f0d-a93b-418c-81d0-8e352b6f65c5","system_id":"levelo_inurba_marseille","lat":43.30146,"lon":5.38079,"is_reserved":false,"is_disabled":false,"rental_uris":{"android":"levelo://app?vid=33720f0d-a93b-418c-81d0-8e352b6f65c5","ios":"levelo://app?vid=33720f0d-a93b-418c-81d0-8e352b6f65c5"},"vehicle_type_id":"4","last_reported":1778617418,"current_range_meters":5600,"station_id":"ce4bgjp2rcd13ifvqbh0","pricing_plan_id":"cebpf4jnsgd1na2vs0mg"},{"bike_id":"1c7b7a1b-c799-4a97-8bee-2ed5075a7078","system_id":"levelo_inurba_marseille","lat":43.231506,"lon":5.437246,"is_reserved":false,"is_disabled":false,"rental_uris":{"android":"levelo://app?vid=1c7b7a1b-c799-4a97-8bee-2ed5075a7078","ios":"levelo://app?vid=1c7b7a1b-c799-4a97-8bee-2ed5075a7078"},"vehicle_type_id":"4","last_reported":1778617418,"current_range_meters":5600,"station_id":"ce4bhmp2rcd13ifvqgog","pricing_plan_id":"cebpf4jnsgd1na2vs0mg"},{"bike_id":"06b5fca3-4cf9-4835-90ab-e243212c9681","system_id":"levelo_inurba_marseille","lat":43.29029,"lon":5.39983,"is_reserved":false,"is_disabled":false,"rental_uris":{"android":"levelo://app?vid=06b5fca3-4cf9-4835-90ab-e243212c9681","ios":"levelo://app?vid=06b5fca3-4cf9-4835-90ab-e243212c9681"},"vehicle_type_id":"4","last_reported":1778617418,"current_range_meters":5600,"station_id":"ce4bh392rcd13ifvqdm0","pricing_plan_id":"cebpf4jnsgd1na2vs0mg"},{"bike_id":"40118873-8835-4ceb-bd64-fd7d091307f9","system_id":"levelo_inurba_marseille","lat":43.31175,"lon":5.38707,"is_reserved":false,"is_disabled":false,"rental_uris":{"android":"levelo://app?vid=40118873-8835-4ceb-bd64-fd7d091307f9","ios":"levelo://app?vid=40118873-8835-4ceb-bd64-fd7d091307f9"},"vehicle_type_id":"4","last_reported":1778617418,"current_range_meters":5600,"station_id":"ce4bgv12rcd13ifvqcp0","pricing_plan_id":"cebpf4jnsgd1na2vs0mg"},{"bike_id":"6a4664ea-f95e-4fdd-b495-4cbe73d56cd0","system_id":"levelo_inurba_marseille","lat":43.30259,"lon":5.40089,"is_reserved":false,"is_disabled":false,"rental_uris":{"android":"levelo://app?vid=6a4664ea-f95e-4fdd-b495-4cbe73d56cd0","ios":"levelo://app?vid=6a4664ea-f95e-4fdd-b495-4cbe73d56cd0"},"vehicle_type_id":"4","last_reported":1778617418,"current_range_meters":5600,"station_id":"ce4bgvh2rcd13ifvqcs0","pricing_plan_id":"cebpf4jnsgd1na2vs0mg"},{"bike_id":"f562c08b-b6fa-4ee2-ba84-726cecb9321d","system_id":"levelo_inurba_marseille","lat":43.29524,"lon":5.39397,"is_reserved":false,"is_disabled":false,"rental_uris":{"android":"levelo://app?vid=f562c08b-b6fa-4ee2-ba84-726cecb9321d","ios":"levelo://app?vid=f562c08b-b6fa-4ee2-ba84-726cecb9321d"},"vehicle_type_id":"4","last_reported":1778617418,"current_range_meters":5600,"station_id":"ce4bh292rcd13ifvqdf0","pricing_plan_id":"cebpf4jnsgd1na2vs0mg"},{"bike_id":"07a9b671-4f11-4201-95b6-67d884bae6f1","system_id":"levelo_inurba_marseille","lat":43.25017,"lon":5.40376,"is_reserved":false,"is_disabled":false,"rental_uris":{"android":"levelo://app?vid=07a9b671-4f11-4201-95b6-67d884bae6f1","ios":"levelo://app?vid=07a9b671-4f11-4201-95b6-67d884bae6f1"},"vehicle_type_id":"4","last_reported":1778617418,"current_range_meters":5600,"station_id":"","pricing_plan_id":"cebpf4jnsgd1na2vs0mg"},{"bike_id":"22eeee5a-41db-400c-9bdd-eed0ffb962e0","system_id":"levelo_inurba_marseille","lat":43.24094,"lon":5.37739,"is_reserved":false,"is_disabled":false,"rental_uris":{"android":"levelo://app?vid=22eeee5a-41db-400c-9bdd-eed0ffb962e0","ios":"levelo://app?vid=22eeee5a-41db-400c-9bdd-eed0ffb962e0"},"vehicle_type_id":"4","last_reported":1778617418,"current_range_meters":5600,"station_id":"ce4bhnp2rcd13ifvqgvg","pricing_plan_id":"cebpf4jnsgd1na2vs0mg"},{"bike_id":"1373437b-06f5-49a1-ae22-3a5fcb53cb84","system_id":"levelo_inurba_marseille","lat":43.25083,"lon":5.39522,"is_reserved":false,"is_disabled":false,"rental_uris":{"android":"levelo://app?vid=1373437b-06f5-49a1-ae22-3a5fcb53cb84","ios":"levelo://app?vid=1373437b-06f5-49a1-ae22-3a5fcb53cb84"},"vehicle_type_id":"4","last_reported":1778617418,"current_range_meters":5600,"station_id":"ce4bhm12rcd13ifvqgkg","pricing_plan_id":"cebpf4jnsgd1na2vs0mg"},{"bike_id":"a6054e79-ee85-4c67-91a3-eed2f1917771","system_id":"levelo_inurba_marseille","lat":43.2867,"lon":5.36336,"is_reserved":false,"is_disabled":false,"rental_uris":{"android":"levelo://app?vid=a6054e79-ee85-4c67-91a3-eed2f1917771","ios":"levelo://app?vid=a6054e79-ee85-4c67-91a3-eed2f1917771"},"vehicle_type_id":"4","last_reported":1778617418,"current_range_meters":6000,"station_id":"ce4bhah2rcd13ifvqej0","pricing_plan_id":"cebpf4jnsgd1na2vs0mg"},{"bike_id":"d1e625f4-f7a3-447e-9d9b-d52dfc59b3ee","system_id":"levelo_inurba_marseille","lat":43.29029,"lon":5.39985,"is_reserved":false,"is_disabled":false,"rental_uris":{"android":"levelo://app?vid=d1e625f4-f7a3-447e-9d9b-d52dfc59b3ee","ios":"levelo://app?vid=d1e625f4-f7a3-447e-9d9b-d52dfc59b3ee"},"vehicle_type_id":"4","last_reported":1778617418,"current_range_meters":6000,"station_id":"ce4bh392rcd13ifvqdm0","pricing_plan_id":"cebpf4jnsgd1na2vs0mg"},{"bike_id":"6d5f8744-6541-4212-875c-5e80863545f1","system_id":"levelo_inurba_marseille","lat":43.28705,"lon":5.37928,"is_reserved":false,"is_disabled":false,"rental_uris":{"android":"levelo://app?vid=6d5f8744-6541-4212-875c-5e80863545f1","ios":"levelo://app?vid=6d5f8744-6541-4212-875c-5e80863545f1"},"vehicle_type_id":"4","last_reported":1778617418,"current_range_meters":6000,"station_id":"ce4bh9p2rcd13ifvqec0","pricing_plan_id":"cebpf4jnsgd1na2vs0mg"},{"bike_id":"9f9cc4d4-6448-4fe0-9bba-35816aedf1fe","system_id":"levelo_inurba_marseille","lat":43.24546,"lon":5.39517,"is_reserved":false,"is_disabled":false,"rental_uris":{"android":"levelo://app?vid=9f9cc4d4-6448-4fe0-9bba-35816aedf1fe","ios":"levelo://app?vid=9f9cc4d4-6448-4fe0-9bba-35816aedf1fe"},"vehicle_type_id":"4","last_reported":1778617418,"current_range_meters":6000,"station_id":"ce4bhlp2rcd13ifvqgjg","pricing_plan_id":"cebpf4jnsgd1na2vs0mg"},{"bike_id":"0e6d4b56-486f-4728-b003-09b611c4e69e","system_id":"levelo_inurba_marseille","lat":43.28834,"lon":5.35846,"is_reserved":false,"is_disabled":false,"rental_uris":{"android":"levelo://app?vid=0e6d4b56-486f-4728-b003-09b611c4e69e","ios":"levelo://app?vid=0e6d4b56-486f-4728-b003-09b611c4e69e"},"vehicle_type_id":"4","last_reported":1778617418,"current_range_meters":6000,"station_id":"ce4bhb12rcd13ifvqem0","pricing_plan_id":"cebpf4jnsgd1na2vs0mg"},{"bike_id":"c2e976b4-7573-4ea6-97e0-eb4dbbe39a6b","system_id":"levelo_inurba_marseille","lat":43.27591,"lon":5.39657,"is_reserved":false,"is_disabled":false,"rental_uris":{"android":"levelo://app?vid=c2e976b4-7573-4ea6-97e0-eb4dbbe39a6b","ios":"levelo://app?vid=c2e976b4-7573-4ea6-97e0-eb4dbbe39a6b"},"vehicle_type_id":"4","last_reported":1778617418,"current_range_meters":6000,"station_id":"","pricing_plan_id":"cebpf4jnsgd1na2vs0mg"},{"bike_id":"5364d659-2bce-4dc8-b02e-ea69db54c28a","system_id":"levelo_inurba_marseille","lat":43.29828,"lon":5.37829,"is_reserved":false,"is_disabled":false,"rental_uris":{"android":"levelo://app?vid=5364d659-2bce-4dc8-b02e-ea69db54c28a","ios":"levelo://app?vid=5364d659-2bce-4dc8-b02e-ea69db54c28a"},"vehicle_type_id":"4","last_reported":1778617418,"current_range_meters":6000,"station_id":"","pricing_plan_id":"cebpf4jnsgd1na2vs0mg"},{"bike_id":"4605674f-d546-408e-ab3f-200e540a9491","system_id":"levelo_inurba_marseille","lat":43.2846,"lon":5.38411,"is_reserved":false,"is_disabled":false,"rental_uris":{"android":"levelo://app?vid=4605674f-d546-408e-ab3f-200e540a9491","ios":"levelo://app?vid=4605674f-d546-408e-ab3f-200e540a9491"},"vehicle_type_id":"4","last_reported":1778617418,"current_range_meters":6000,"station_id":"ce4bh512rcd13ifvqe3g","pricing_plan_id":"cebpf4jnsgd1na2vs0mg"},{"bike_id":"e04ab780-4b81-4dfe-8702-69cd383d493e","system_id":"levelo_inurba_marseille","lat":43.24502,"lon":5.42135,"is_reserved":false,"is_disabled":false,"rental_uris":{"android":"levelo://app?vid=e04ab780-4b81-4dfe-8702-69cd383d493e","ios":"levelo://app?vid=e04ab780-4b81-4dfe-8702-69cd383d493e"},"vehicle_type_id":"4","last_reported":1778617418,"current_range_meters":6000,"station_id":"","pricing_plan_id":"cebpf4jnsgd1na2vs0mg"},{"bike_id":"995a2d1d-9360-4eea-964f-729947ed4581","system_id":"levelo_inurba_marseille","lat":43.29799,"lon":5.39695,"is_reserved":false,"is_disabled":false,"rental_uris":{"android":"levelo://app?vid=995a2d1d-9360-4eea-964f-729947ed4581","ios":"levelo://app?vid=995a2d1d-9360-4eea-964f-729947ed4581"},"vehicle_type_id":"4","last_reported":1778617418,"current_range_meters":6000,"station_id":"","pricing_plan_id":"cebpf4jnsgd1na2vs0mg"},{"bike_id":"0fab4d49-cc3a-4570-95eb-7323b86e54da","system_id":"levelo_inurba_marseille","lat":43.29628,"lon":5.37172,"is_reserved":false,"is_disabled":false,"rental_uris":{"android":"levelo://app?vid=0fab4d49-cc3a-4570-95eb-7323b86e54da","ios":"levelo://app?vid=0fab4d49-cc3a-4570-95eb-7323b86e54da"},"vehicle_type_id":"4","last_reported":1778617418,"current_range_meters":6000,"station_id":"ce4bgnh2rcd13ifvqc0g","pricing_plan_id":"cebpf4jnsgd1na2vs0mg"},{"bike_id":"cc08138b-40fc-4068-b5f2-bde9c76a7e40","system_id":"levelo_inurba_marseille","lat":43.34137,"lon":5.40913,"is_reserved":false,"is_disabled":true,"rental_uris":{"android":"levelo://app?vid=cc08138b-40fc-4068-b5f2-bde9c76a7e40","ios":"levelo://app?vid=cc08138b-40fc-4068-b5f2-bde9c76a7e40"},"vehicle_type_id":"4","last_reported":1778617418,"current_range_meters":6000,"station_id":"ce4bhqh2rcd13ifvqhlg","pricing_plan_id":"cebpf4jnsgd1na2vs0mg"},{"bike_id":"62557ba2-fd37-41d9-b8ba-d0969ce56cc9","system_id":"levelo_inurba_marseille","lat":43.22569,"lon":5.41635,"is_reserved":false,"is_disabled":false,"rental_uris":{"android":"levelo://app?vid=62557ba2-fd37-41d9-b8ba-d0969ce56cc9","ios":"levelo://app?vid=62557ba2-fd37-41d9-b8ba-d0969ce56cc9"},"vehicle_type_id":"4","last_reported":1778617418,"current_range_meters":6000,"station_id":"st_d2o4gvlbi1j2169b742g","pricing_plan_id":"cebpf4jnsgd1na2vs0mg"},{"bike_id":"043c41b6-b0d6-4773-b46c-7219e1bac307","system_id":"levelo_inurba_marseille","lat":43.28709,"lon":5.37937,"is_reserved":false,"is_disabled":false,"rental_uris":{"android":"levelo://app?vid=043c41b6-b0d6-4773-b46c-7219e1bac307","ios":"levelo://app?vid=043c41b6-b0d6-4773-b46c-7219e1bac307"},"vehicle_type_id":"4","last_reported":1778617418,"current_range_meters":6000,"station_id":"ce4bh9p2rcd13ifvqec0","pricing_plan_id":"cebpf4jnsgd1na2vs0mg"},{"bike_id":"6bf8e413-e0e6-4b25-b525-a592fcaee470","system_id":"levelo_inurba_marseille","lat":43.30154,"lon":5.38121,"is_reserved":false,"is_disabled":true,"rental_uris":{"android":"levelo://app?vid=6bf8e413-e0e6-4b25-b525-a592fcaee470","ios":"levelo://app?vid=6bf8e413-e0e6-4b25-b525-a592fcaee470"},"vehicle_type_id":"4","last_reported":1778617418,"current_range_meters":6000,"station_id":"ce4bgjp2rcd13ifvqbh0","pricing_plan_id":"cebpf4jnsgd1na2vs0mg"},{"bike_id":"a3fbf33a-7241-4241-a46b-50c43cc333cb","system_id":"levelo_inurba_marseille","lat":43.279081,"lon":5.380167,"is_reserved":false,"is_disabled":false,"rental_uris":{"android":"levelo://app?vid=a3fbf33a-7241-4241-a46b-50c43cc333cb","ios":"levelo://app?vid=a3fbf33a-7241-4241-a46b-50c43cc333cb"},"vehicle_type_id":"4","last_reported":1778617418,"current_range_meters":6000,"station_id":"ce4bhf92rcd13ifvqf50","pricing_plan_id":"cebpf4jnsgd1na2vs0mg"},{"bike_id":"e6db684c-41c8-41d3-8748-cdf012b08e85","system_id":"levelo_inurba_marseille","lat":43.28735,"lon":5.37952,"is_reserved":false,"is_disabled":false,"rental_uris":{"android":"levelo://app?vid=e6db684c-41c8-41d3-8748-cdf012b08e85","ios":"levelo://app?vid=e6db684c-41c8-41d3-8748-cdf012b08e85"},"vehicle_type_id":"4","last_reported":1778617418,"current_range_meters":6000,"station_id":"ce4bh9p2rcd13ifvqec0","pricing_plan_id":"cebpf4jnsgd1na2vs0mg"},{"bike_id":"e4d1d3ae-d2ef-44bd-abeb-266368a40bd9","system_id":"levelo_inurba_marseille","lat":43.30323,"lon":5.4044,"is_reserved":false,"is_disabled":false,"rental_uris":{"android":"levelo://app?vid=e4d1d3ae-d2ef-44bd-abeb-266368a40bd9","ios":"levelo://app?vid=e4d1d3ae-d2ef-44bd-abeb-266368a40bd9"},"vehicle_type_id":"4","last_reported":1778617418,"current_range_meters":6000,"station_id":"ce4bh012rcd13ifvqd10","pricing_plan_id":"cebpf4jnsgd1na2vs0mg"},{"bike_id":"56aa3777-5c73-49cb-b27f-d7e4ca259c3e","system_id":"levelo_inurba_marseille","lat":43.25096,"lon":5.39513,"is_reserved":false,"is_disabled":false,"rental_uris":{"android":"levelo://app?vid=56aa3777-5c73-49cb-b27f-d7e4ca259c3e","ios":"levelo://app?vid=56aa3777-5c73-49cb-b27f-d7e4ca259c3e"},"vehicle_type_id":"4","last_reported":1778617418,"current_range_meters":6000,"station_id":"ce4bhm12rcd13ifvqgkg","pricing_plan_id":"cebpf4jnsgd1na2vs0mg"},{"bike_id":"89ba3e6a-2631-497f-8d75-3508f5d4fd19","system_id":"levelo_inurba_marseille","lat":43.24681,"lon":5.38232,"is_reserved":false,"is_disabled":false,"rental_uris":{"android":"levelo://app?vid=89ba3e6a-2631-497f-8d75-3508f5d4fd19","ios":"levelo://app?vid=89ba3e6a-2631-497f-8d75-3508f5d4fd19"},"vehicle_type_id":"4","last_reported":1778617418,"current_range_meters":6000,"station_id":"","pricing_plan_id":"cebpf4jnsgd1na2vs0mg"},{"bike_id":"e47e753a-058b-444f-94c7-09def8951ab4","system_id":"levelo_inurba_marseille","lat":43.29184,"lon":5.39318,"is_reserved":false,"is_disabled":false,"rental_uris":{"android":"levelo://app?vid=e47e753a-058b-444f-94c7-09def8951ab4","ios":"levelo://app?vid=e47e753a-058b-444f-94c7-09def8951ab4"},"vehicle_type_id":"4","last_reported":1778617418,"current_range_meters":6000,"station_id":"ce4bh192rcd13ifvqdd0","pricing_plan_id":"cebpf4jnsgd1na2vs0mg"},{"bike_id":"93a22529-c67b-4c75-b2d8-922da7651d60","system_id":"levelo_inurba_marseille","lat":43.29781,"lon":5.381,"is_reserved":false,"is_disabled":true,"rental_uris":{"android":"levelo://app?vid=93a22529-c67b-4c75-b2d8-922da7651d60","ios":"levelo://app?vid=93a22529-c67b-4c75-b2d8-922da7651d60"},"vehicle_type_id":"4","last_reported":1778617418,"current_range_meters":6000,"station_id":"ce4bgip2rcd13ifvqbb0","pricing_plan_id":"cebpf4jnsgd1na2vs0mg"},{"bike_id":"f9b67939-8171-44dc-8ed9-d082587fc1d4","system_id":"levelo_inurba_marseille","lat":43.27926,"lon":5.39578,"is_reserved":false,"is_disabled":false,"rental_uris":{"android":"levelo://app?vid=f9b67939-8171-44dc-8ed9-d082587fc1d4","ios":"levelo://app?vid=f9b67939-8171-44dc-8ed9-d082587fc1d4"},"vehicle_type_id":"4","last_reported":1778617418,"current_range_meters":6000,"station_id":"ce4bhf92rcd13ifvqf40","pricing_plan_id":"cebpf4jnsgd1na2vs0mg"},{"bike_id":"01dba8d3-9412-4711-92e4-559ed8b03946","system_id":"levelo_inurba_marseille","lat":43.28568,"lon":5.39528,"is_reserved":false,"is_disabled":false,"rental_uris":{"android":"levelo://app?vid=01dba8d3-9412-4711-92e4-559ed8b03946","ios":"levelo://app?vid=01dba8d3-9412-4711-92e4-559ed8b03946"},"vehicle_type_id":"4","last_reported":1778617418,"current_range_meters":6000,"station_id":"ce4bh292rcd13ifvqdg0","pricing_plan_id":"cebpf4jnsgd1na2vs0mg"},{"bike_id":"5ea1ef2b-16a4-4527-858f-4888a03591ab","system_id":"levelo_inurba_marseille","lat":43.289362,"lon":5.396303,"is_reserved":false,"is_disabled":false,"rental_uris":{"android":"levelo://app?vid=5ea1ef2b-16a4-4527-858f-4888a03591ab","ios":"levelo://app?vid=5ea1ef2b-16a4-4527-858f-4888a03591ab"},"vehicle_type_id":"4","last_reported":1778617418,"current_range_meters":6000,"station_id":"ce4bh3h2rcd13ifvqdn0","pricing_plan_id":"cebpf4jnsgd1na2vs0mg"},{"bike_id":"d9666609-26f4-4f22-93cd-248424a7a105","system_id":"levelo_inurba_marseille","lat":43.30365,"lon":5.398,"is_reserved":false,"is_disabled":false,"rental_uris":{"android":"levelo://app?vid=d9666609-26f4-4f22-93cd-248424a7a105","ios":"levelo://app?vid=d9666609-26f4-4f22-93cd-248424a7a105"},"vehicle_type_id":"4","last_reported":1778617418,"current_range_meters":6400,"station_id":"","pricing_plan_id":"cebpf4jnsgd1na2vs0mg"},{"bike_id":"7eeaae49-e5ae-480b-aac7-0267ac4b47fd","system_id":"levelo_inurba_marseille","lat":43.25577,"lon":5.38237,"is_reserved":false,"is_disabled":false,"rental_uris":{"android":"levelo://app?vid=7eeaae49-e5ae-480b-aac7-0267ac4b47fd","ios":"levelo://app?vid=7eeaae49-e5ae-480b-aac7-0267ac4b47fd"},"vehicle_type_id":"4","last_reported":1778617418,"current_range_meters":6400,"station_id":"ce4bhih2rcd13ifvqfs0","pricing_plan_id":"cebpf4jnsgd1na2vs0mg"},{"bike_id":"61195f8c-df5f-4867-8563-8cdbcf8d80ea","system_id":"levelo_inurba_marseille","lat":43.25869,"lon":5.39929,"is_reserved":false,"is_disabled":true,"rental_uris":{"android":"levelo://app?vid=61195f8c-df5f-4867-8563-8cdbcf8d80ea","ios":"levelo://app?vid=61195f8c-df5f-4867-8563-8cdbcf8d80ea"},"vehicle_type_id":"4","last_reported":1778617418,"current_range_meters":6400,"station_id":"ce4bhl92rcd13ifvqghg","pricing_plan_id":"cebpf4jnsgd1na2vs0mg"},{"bike_id":"0f1807cc-9d93-4021-8b9a-9457f4117b8b","system_id":"levelo_inurba_marseille","lat":43.32115,"lon":5.36766,"is_reserved":false,"is_disabled":false,"rental_uris":{"android":"levelo://app?vid=0f1807cc-9d93-4021-8b9a-9457f4117b8b","ios":"levelo://app?vid=0f1807cc-9d93-4021-8b9a-9457f4117b8b"},"vehicle_type_id":"4","last_reported":1778617418,"current_range_meters":6400,"station_id":"ce4bhrh2rcd13ifvqhug","pricing_plan_id":"cebpf4jnsgd1na2vs0mg"},{"bike_id":"61042484-dcc3-4e21-b302-39f97578454f","system_id":"levelo_inurba_marseille","lat":43.31235,"lon":5.38068,"is_reserved":false,"is_disabled":true,"rental_uris":{"android":"levelo://app?vid=61042484-dcc3-4e21-b302-39f97578454f","ios":"levelo://app?vid=61042484-dcc3-4e21-b302-39f97578454f"},"vehicle_type_id":"4","last_reported":1778617418,"current_range_meters":6400,"station_id":"","pricing_plan_id":"cebpf4jnsgd1na2vs0mg"},{"bike_id":"a3931dae-05f0-4e1d-8b68-01fdd7d05951","system_id":"levelo_inurba_marseille","lat":43.27504,"lon":5.41609,"is_reserved":false,"is_disabled":true,"rental_uris":{"android":"levelo://app?vid=a3931dae-05f0-4e1d-8b68-01fdd7d05951","ios":"levelo://app?vid=a3931dae-05f0-4e1d-8b68-01fdd7d05951"},"vehicle_type_id":"4","last_reported":1778617418,"current_range_meters":6400,"station_id":"st_d6im8g6chgec73a5pndg","pricing_plan_id":"cebpf4jnsgd1na2vs0mg"},{"bike_id":"ca5c9570-08b2-4e4e-af06-312978a3e9af","system_id":"levelo_inurba_marseille","lat":43.3136,"lon":5.38492,"is_reserved":false,"is_disabled":false,"rental_uris":{"android":"levelo://app?vid=ca5c9570-08b2-4e4e-af06-312978a3e9af","ios":"levelo://app?vid=ca5c9570-08b2-4e4e-af06-312978a3e9af"},"vehicle_type_id":"4","last_reported":1778617418,"current_range_meters":6400,"station_id":"ce4bgt92rcd13ifvqcf0","pricing_plan_id":"cebpf4jnsgd1na2vs0mg"},{"bike_id":"f4a9f1cb-0b8b-40b5-9761-bed01b208aa9","system_id":"levelo_inurba_marseille","lat":43.27558,"lon":5.38437,"is_reserved":false,"is_disabled":true,"rental_uris":{"android":"levelo://app?vid=f4a9f1cb-0b8b-40b5-9761-bed01b208aa9","ios":"levelo://app?vid=f4a9f1cb-0b8b-40b5-9761-bed01b208aa9"},"vehicle_type_id":"4","last_reported":1778617418,"current_range_meters":6400,"station_id":"ce4bhh92rcd13ifvqfi0","pricing_plan_id":"cebpf4jnsgd1na2vs0mg"},{"bike_id":"1b2c8958-e91f-45f0-b73e-ce7ed72a04f7","system_id":"levelo_inurba_marseille","lat":43.295743,"lon":5.397636,"is_reserved":false,"is_disabled":true,"rental_uris":{"android":"levelo://app?vid=1b2c8958-e91f-45f0-b73e-ce7ed72a04f7","ios":"levelo://app?vid=1b2c8958-e91f-45f0-b73e-ce7ed72a04f7"},"vehicle_type_id":"4","last_reported":1778617418,"current_range_meters":6400,"station_id":"","pricing_plan_id":"cebpf4jnsgd1na2vs0mg"},{"bike_id":"6e6118e0-d7b8-42ba-a2c6-79786f3c704d","system_id":"levelo_inurba_marseille","lat":43.25112,"lon":5.40316,"is_reserved":false,"is_disabled":true,"rental_uris":{"android":"levelo://app?vid=6e6118e0-d7b8-42ba-a2c6-79786f3c704d","ios":"levelo://app?vid=6e6118e0-d7b8-42ba-a2c6-79786f3c704d"},"vehicle_type_id":"4","last_reported":1778617418,"current_range_meters":6400,"station_id":"ce4bhlh2rcd13ifvqgig","pricing_plan_id":"cebpf4jnsgd1na2vs0mg"},{"bike_id":"0bf8433d-ac4a-47a3-ba4e-0d9dedd0a53a","system_id":"levelo_inurba_marseille","lat":43.28103,"lon":5.37835,"is_reserved":false,"is_disabled":false,"rental_uris":{"android":"levelo://app?vid=0bf8433d-ac4a-47a3-ba4e-0d9dedd0a53a","ios":"levelo://app?vid=0bf8433d-ac4a-47a3-ba4e-0d9dedd0a53a"},"vehicle_type_id":"4","last_reported":1778617418,"current_range_meters":6400,"station_id":"ce4bha12rcd13ifvqee0","pricing_plan_id":"cebpf4jnsgd1na2vs0mg"},{"bike_id":"1f1d2a2b-6d8e-48f0-bfdf-6b627da06c58","system_id":"levelo_inurba_marseille","lat":43.29919,"lon":5.37493,"is_reserved":false,"is_disabled":false,"rental_uris":{"android":"levelo://app?vid=1f1d2a2b-6d8e-48f0-bfdf-6b627da06c58","ios":"levelo://app?vid=1f1d2a2b-6d8e-48f0-bfdf-6b627da06c58"},"vehicle_type_id":"4","last_reported":1778617418,"current_range_meters":6400,"station_id":"ce4bgjh2rcd13ifvqbg0","pricing_plan_id":"cebpf4jnsgd1na2vs0mg"},{"bike_id":"8f556e0e-50e3-415d-bc0b-bd20df8dcc3e","system_id":"levelo_inurba_marseille","lat":43.22576,"lon":5.41632,"is_reserved":false,"is_disabled":false,"rental_uris":{"android":"levelo://app?vid=8f556e0e-50e3-415d-bc0b-bd20df8dcc3e","ios":"levelo://app?vid=8f556e0e-50e3-415d-bc0b-bd20df8dcc3e"},"vehicle_type_id":"4","last_reported":1778617418,"current_range_meters":6400,"station_id":"st_d2o4gvlbi1j2169b742g","pricing_plan_id":"cebpf4jnsgd1na2vs0mg"},{"bike_id":"fff9d2d5-d852-4d03-b60c-555f33c9d02d","system_id":"levelo_inurba_marseille","lat":43.289388,"lon":5.366372,"is_reserved":false,"is_disabled":false,"rental_uris":{"android":"levelo://app?vid=fff9d2d5-d852-4d03-b60c-555f33c9d02d","ios":"levelo://app?vid=fff9d2d5-d852-4d03-b60c-555f33c9d02d"},"vehicle_type_id":"4","last_reported":1778617418,"current_range_meters":6400,"station_id":"ce4bhap2rcd13ifvqek0","pricing_plan_id":"cebpf4jnsgd1na2vs0mg"},{"bike_id":"11b850f2-7654-4be6-b2a3-6d51d61419d9","system_id":"levelo_inurba_marseille","lat":43.28853,"lon":5.39324,"is_reserved":false,"is_disabled":false,"rental_uris":{"android":"levelo://app?vid=11b850f2-7654-4be6-b2a3-6d51d61419d9","ios":"levelo://app?vid=11b850f2-7654-4be6-b2a3-6d51d61419d9"},"vehicle_type_id":"4","last_reported":1778617418,"current_range_meters":6400,"station_id":"ce4bh2p2rcd13ifvqdi0","pricing_plan_id":"cebpf4jnsgd1na2vs0mg"},{"bike_id":"e3e6a269-338b-482e-8c7f-7dca167d167b","system_id":"levelo_inurba_marseille","lat":43.27495,"lon":5.41569,"is_reserved":false,"is_disabled":true,"rental_uris":{"android":"levelo://app?vid=e3e6a269-338b-482e-8c7f-7dca167d167b","ios":"levelo://app?vid=e3e6a269-338b-482e-8c7f-7dca167d167b"},"vehicle_type_id":"4","last_reported":1778617418,"current_range_meters":6400,"station_id":"st_d6im8g6chgec73a5pndg","pricing_plan_id":"cebpf4jnsgd1na2vs0mg"},{"bike_id":"46010e51-ffcf-494e-8734-a0917c32a663","system_id":"levelo_inurba_marseille","lat":43.23193,"lon":5.35548,"is_reserved":false,"is_disabled":false,"rental_uris":{"android":"levelo://app?vid=46010e51-ffcf-494e-8734-a0917c32a663","ios":"levelo://app?vid=46010e51-ffcf-494e-8734-a0917c32a663"},"vehicle_type_id":"4","last_reported":1778617418,"current_range_meters":6400,"station_id":"ce4bhu92rcd13ifvqi70","pricing_plan_id":"cebpf4jnsgd1na2vs0mg"},{"bike_id":"86660d9c-47a1-454c-bf17-c1141faf0fe4","system_id":"levelo_inurba_marseille","lat":43.24835,"lon":5.3743,"is_reserved":false,"is_disabled":false,"rental_uris":{"android":"levelo://app?vid=86660d9c-47a1-454c-bf17-c1141faf0fe4","ios":"levelo://app?vid=86660d9c-47a1-454c-bf17-c1141faf0fe4"},"vehicle_type_id":"4","last_reported":1778617418,"current_range_meters":6800,"station_id":"","pricing_plan_id":"cebpf4jnsgd1na2vs0mg"},{"bike_id":"8041a9e7-7ab4-4d1b-ace9-fc5ba24c4b93","system_id":"levelo_inurba_marseille","lat":43.22562,"lon":5.41622,"is_reserved":false,"is_disabled":false,"rental_uris":{"android":"levelo://app?vid=8041a9e7-7ab4-4d1b-ace9-fc5ba24c4b93","ios":"levelo://app?vid=8041a9e7-7ab4-4d1b-ace9-fc5ba24c4b93"},"vehicle_type_id":"4","last_reported":1778617418,"current_range_meters":6800,"station_id":"st_d2o4gvlbi1j2169b742g","pricing_plan_id":"cebpf4jnsgd1na2vs0mg"},{"bike_id":"076b8b25-32f2-44ed-9aec-b4a4ccc49598","system_id":"levelo_inurba_marseille","lat":43.2981,"lon":5.38159,"is_reserved":false,"is_disabled":true,"rental_uris":{"android":"levelo://app?vid=076b8b25-32f2-44ed-9aec-b4a4ccc49598","ios":"levelo://app?vid=076b8b25-32f2-44ed-9aec-b4a4ccc49598"},"vehicle_type_id":"4","last_reported":1778617418,"current_range_meters":6800,"station_id":"ce4bgip2rcd13ifvqbb0","pricing_plan_id":"cebpf4jnsgd1na2vs0mg"},{"bike_id":"4fefd8fd-6e75-4c2d-a861-dc765deec46e","system_id":"levelo_inurba_marseille","lat":43.28495,"lon":5.38426,"is_reserved":false,"is_disabled":false,"rental_uris":{"android":"levelo://app?vid=4fefd8fd-6e75-4c2d-a861-dc765deec46e","ios":"levelo://app?vid=4fefd8fd-6e75-4c2d-a861-dc765deec46e"},"vehicle_type_id":"4","last_reported":1778617418,"current_range_meters":6800,"station_id":"ce4bh512rcd13ifvqe3g","pricing_plan_id":"cebpf4jnsgd1na2vs0mg"},{"bike_id":"1fb136bb-3cc6-48f7-af4f-974b5baf2852","system_id":"levelo_inurba_marseille","lat":43.23973,"lon":5.36643,"is_reserved":false,"is_disabled":true,"rental_uris":{"android":"levelo://app?vid=1fb136bb-3cc6-48f7-af4f-974b5baf2852","ios":"levelo://app?vid=1fb136bb-3cc6-48f7-af4f-974b5baf2852"},"vehicle_type_id":"4","last_reported":1778617418,"current_range_meters":6800,"station_id":"ce4bhi12rcd13ifvqfp0","pricing_plan_id":"cebpf4jnsgd1na2vs0mg"},{"bike_id":"38ae2b0f-3623-4776-8f73-02a2bd5cb856","system_id":"levelo_inurba_marseille","lat":43.31168,"lon":5.38716,"is_reserved":false,"is_disabled":false,"rental_uris":{"android":"levelo://app?vid=38ae2b0f-3623-4776-8f73-02a2bd5cb856","ios":"levelo://app?vid=38ae2b0f-3623-4776-8f73-02a2bd5cb856"},"vehicle_type_id":"4","last_reported":1778617418,"current_range_meters":6800,"station_id":"ce4bgv12rcd13ifvqcp0","pricing_plan_id":"cebpf4jnsgd1na2vs0mg"},{"bike_id":"0d5a6d54-dad4-453d-9b1a-d94782ee22c6","system_id":"levelo_inurba_marseille","lat":43.32345,"lon":5.36544,"is_reserved":false,"is_disabled":false,"rental_uris":{"android":"levelo://app?vid=0d5a6d54-dad4-453d-9b1a-d94782ee22c6","ios":"levelo://app?vid=0d5a6d54-dad4-453d-9b1a-d94782ee22c6"},"vehicle_type_id":"4","last_reported":1778617418,"current_range_meters":6800,"station_id":"","pricing_plan_id":"cebpf4jnsgd1na2vs0mg"},{"bike_id":"4c733966-71e1-46b9-81e1-8d24e59b65ce","system_id":"levelo_inurba_marseille","lat":43.225297,"lon":5.34839,"is_reserved":false,"is_disabled":true,"rental_uris":{"android":"levelo://app?vid=4c733966-71e1-46b9-81e1-8d24e59b65ce","ios":"levelo://app?vid=4c733966-71e1-46b9-81e1-8d24e59b65ce"},"vehicle_type_id":"4","last_reported":1778617418,"current_range_meters":6800,"station_id":"st_cvj5dfep6f1abm77gieg","pricing_plan_id":"cebpf4jnsgd1na2vs0mg"},{"bike_id":"b0351153-fdea-4d61-9458-346bc5cdc270","system_id":"levelo_inurba_marseille","lat":43.24805,"lon":5.37452,"is_reserved":false,"is_disabled":false,"rental_uris":{"android":"levelo://app?vid=b0351153-fdea-4d61-9458-346bc5cdc270","ios":"levelo://app?vid=b0351153-fdea-4d61-9458-346bc5cdc270"},"vehicle_type_id":"4","last_reported":1778617418,"current_range_meters":6800,"station_id":"ce4bhgh2rcd13ifvqfb0","pricing_plan_id":"cebpf4jnsgd1na2vs0mg"},{"bike_id":"5d077908-64a6-4d44-b5d0-cd220e8f9362","system_id":"levelo_inurba_marseille","lat":43.29279,"lon":5.36839,"is_reserved":false,"is_disabled":false,"rental_uris":{"android":"levelo://app?vid=5d077908-64a6-4d44-b5d0-cd220e8f9362","ios":"levelo://app?vid=5d077908-64a6-4d44-b5d0-cd220e8f9362"},"vehicle_type_id":"4","last_reported":1778617418,"current_range_meters":6800,"station_id":"ce4bhbp2rcd13ifvqesg","pricing_plan_id":"cebpf4jnsgd1na2vs0mg"},{"bike_id":"09dc32f4-d4e2-44ba-8f87-ce802780e60b","system_id":"levelo_inurba_marseille","lat":43.29169,"lon":5.37153,"is_reserved":false,"is_disabled":false,"rental_uris":{"android":"levelo://app?vid=09dc32f4-d4e2-44ba-8f87-ce802780e60b","ios":"levelo://app?vid=09dc32f4-d4e2-44ba-8f87-ce802780e60b"},"vehicle_type_id":"4","last_reported":1778617418,"current_range_meters":6800,"station_id":"ce4bha92rcd13ifvqeh0","pricing_plan_id":"cebpf4jnsgd1na2vs0mg"},{"bike_id":"59c6f2ac-0ef9-4ebe-a048-771f7d0e19f6","system_id":"levelo_inurba_marseille","lat":43.3045,"lon":5.3896,"is_reserved":false,"is_disabled":false,"rental_uris":{"android":"levelo://app?vid=59c6f2ac-0ef9-4ebe-a048-771f7d0e19f6","ios":"levelo://app?vid=59c6f2ac-0ef9-4ebe-a048-771f7d0e19f6"},"vehicle_type_id":"4","last_reported":1778617418,"current_range_meters":6800,"station_id":"","pricing_plan_id":"cebpf4jnsgd1na2vs0mg"},{"bike_id":"3f21728e-0d53-4371-a29a-4262000a59fa","system_id":"levelo_inurba_marseille","lat":43.30188,"lon":5.36604,"is_reserved":false,"is_disabled":false,"rental_uris":{"android":"levelo://app?vid=3f21728e-0d53-4371-a29a-4262000a59fa","ios":"levelo://app?vid=3f21728e-0d53-4371-a29a-4262000a59fa"},"vehicle_type_id":"4","last_reported":1778617418,"current_range_meters":6800,"station_id":"ce4bgrh2rcd13ifvqc8g","pricing_plan_id":"cebpf4jnsgd1na2vs0mg"},{"bike_id":"95552473-a32b-49e5-a6c9-92815a2ac96e","system_id":"levelo_inurba_marseille","lat":43.32821,"lon":5.42623,"is_reserved":false,"is_disabled":false,"rental_uris":{"android":"levelo://app?vid=95552473-a32b-49e5-a6c9-92815a2ac96e","ios":"levelo://app?vid=95552473-a32b-49e5-a6c9-92815a2ac96e"},"vehicle_type_id":"4","last_reported":1778617418,"current_range_meters":6800,"station_id":"","pricing_plan_id":"cebpf4jnsgd1na2vs0mg"},{"bike_id":"6bf5a739-c134-4744-be04-d26bd6e563cd","system_id":"levelo_inurba_marseille","lat":43.28425,"lon":5.34996,"is_reserved":false,"is_disabled":false,"rental_uris":{"android":"levelo://app?vid=6bf5a739-c134-4744-be04-d26bd6e563cd","ios":"levelo://app?vid=6bf5a739-c134-4744-be04-d26bd6e563cd"},"vehicle_type_id":"4","last_reported":1778617418,"current_range_meters":6800,"station_id":"ce4bhbh2rcd13ifvqepg","pricing_plan_id":"cebpf4jnsgd1na2vs0mg"},{"bike_id":"5459cdf2-2fdb-410b-aecc-d987bfe642b5","system_id":"levelo_inurba_marseille","lat":43.29258,"lon":5.38445,"is_reserved":false,"is_disabled":false,"rental_uris":{"android":"levelo://app?vid=5459cdf2-2fdb-410b-aecc-d987bfe642b5","ios":"levelo://app?vid=5459cdf2-2fdb-410b-aecc-d987bfe642b5"},"vehicle_type_id":"4","last_reported":1778617418,"current_range_meters":6800,"station_id":"ce4bh692rcd13ifvqea0","pricing_plan_id":"cebpf4jnsgd1na2vs0mg"},{"bike_id":"ad5fe9a9-3e5d-40a1-a099-138356b75beb","system_id":"levelo_inurba_marseille","lat":43.28955,"lon":5.36398,"is_reserved":false,"is_disabled":false,"rental_uris":{"android":"levelo://app?vid=ad5fe9a9-3e5d-40a1-a099-138356b75beb","ios":"levelo://app?vid=ad5fe9a9-3e5d-40a1-a099-138356b75beb"},"vehicle_type_id":"4","last_reported":1778617418,"current_range_meters":6800,"station_id":"ce4bhc92rcd13ifvqetg","pricing_plan_id":"cebpf4jnsgd1na2vs0mg"},{"bike_id":"f12a4992-c642-46fe-9aa1-0b0e54c6c8cd","system_id":"levelo_inurba_marseille","lat":43.28704,"lon":5.37933,"is_reserved":false,"is_disabled":false,"rental_uris":{"android":"levelo://app?vid=f12a4992-c642-46fe-9aa1-0b0e54c6c8cd","ios":"levelo://app?vid=f12a4992-c642-46fe-9aa1-0b0e54c6c8cd"},"vehicle_type_id":"4","last_reported":1778617418,"current_range_meters":6800,"station_id":"ce4bh9p2rcd13ifvqec0","pricing_plan_id":"cebpf4jnsgd1na2vs0mg"},{"bike_id":"6049f75f-f08d-4c4c-8e6c-aa999316afb6","system_id":"levelo_inurba_marseille","lat":43.28435,"lon":5.34976,"is_reserved":false,"is_disabled":false,"rental_uris":{"android":"levelo://app?vid=6049f75f-f08d-4c4c-8e6c-aa999316afb6","ios":"levelo://app?vid=6049f75f-f08d-4c4c-8e6c-aa999316afb6"},"vehicle_type_id":"4","last_reported":1778617418,"current_range_meters":6800,"station_id":"ce4bhbh2rcd13ifvqepg","pricing_plan_id":"cebpf4jnsgd1na2vs0mg"},{"bike_id":"4886c252-2728-4a7b-8055-7bc754291d67","system_id":"levelo_inurba_marseille","lat":43.26183,"lon":5.40395,"is_reserved":false,"is_disabled":false,"rental_uris":{"android":"levelo://app?vid=4886c252-2728-4a7b-8055-7bc754291d67","ios":"levelo://app?vid=4886c252-2728-4a7b-8055-7bc754291d67"},"vehicle_type_id":"4","last_reported":1778617418,"current_range_meters":7200,"station_id":"","pricing_plan_id":"cebpf4jnsgd1na2vs0mg"},{"bike_id":"4be255e9-cd6d-4c75-affc-d9ecab43a512","system_id":"levelo_inurba_marseille","lat":43.28418,"lon":5.34991,"is_reserved":false,"is_disabled":false,"rental_uris":{"android":"levelo://app?vid=4be255e9-cd6d-4c75-affc-d9ecab43a512","ios":"levelo://app?vid=4be255e9-cd6d-4c75-affc-d9ecab43a512"},"vehicle_type_id":"4","last_reported":1778617418,"current_range_meters":7200,"station_id":"ce4bhbh2rcd13ifvqepg","pricing_plan_id":"cebpf4jnsgd1na2vs0mg"},{"bike_id":"f89dc7a0-fe47-41cb-ba00-70c80de88b25","system_id":"levelo_inurba_marseille","lat":43.24678,"lon":5.38157,"is_reserved":false,"is_disabled":false,"rental_uris":{"android":"levelo://app?vid=f89dc7a0-fe47-41cb-ba00-70c80de88b25","ios":"levelo://app?vid=f89dc7a0-fe47-41cb-ba00-70c80de88b25"},"vehicle_type_id":"4","last_reported":1778617418,"current_range_meters":7200,"station_id":"ce4bhih2rcd13ifvqfr0","pricing_plan_id":"cebpf4jnsgd1na2vs0mg"},{"bike_id":"b0e95f01-637c-48ac-b86a-470d9ecdac30","system_id":"levelo_inurba_marseille","lat":43.31175,"lon":5.38726,"is_reserved":false,"is_disabled":false,"rental_uris":{"android":"levelo://app?vid=b0e95f01-637c-48ac-b86a-470d9ecdac30","ios":"levelo://app?vid=b0e95f01-637c-48ac-b86a-470d9ecdac30"},"vehicle_type_id":"4","last_reported":1778617418,"current_range_meters":7200,"station_id":"ce4bgv12rcd13ifvqcp0","pricing_plan_id":"cebpf4jnsgd1na2vs0mg"},{"bike_id":"fe30cbda-3e7e-475e-839d-d1c59635201b","system_id":"levelo_inurba_marseille","lat":43.29255,"lon":5.3844,"is_reserved":false,"is_disabled":false,"rental_uris":{"android":"levelo://app?vid=fe30cbda-3e7e-475e-839d-d1c59635201b","ios":"levelo://app?vid=fe30cbda-3e7e-475e-839d-d1c59635201b"},"vehicle_type_id":"4","last_reported":1778617418,"current_range_meters":7200,"station_id":"ce4bh692rcd13ifvqea0","pricing_plan_id":"cebpf4jnsgd1na2vs0mg"},{"bike_id":"e7bb6174-1c63-4020-97ae-24a8ce13faa4","system_id":"levelo_inurba_marseille","lat":43.28664,"lon":5.36358,"is_reserved":false,"is_disabled":false,"rental_uris":{"android":"levelo://app?vid=e7bb6174-1c63-4020-97ae-24a8ce13faa4","ios":"levelo://app?vid=e7bb6174-1c63-4020-97ae-24a8ce13faa4"},"vehicle_type_id":"4","last_reported":1778617418,"current_range_meters":7200,"station_id":"ce4bhah2rcd13ifvqej0","pricing_plan_id":"cebpf4jnsgd1na2vs0mg"},{"bike_id":"59337c87-5023-4e82-8e30-94c7126e0bd7","system_id":"levelo_inurba_marseille","lat":43.2657,"lon":5.37284,"is_reserved":false,"is_disabled":false,"rental_uris":{"android":"levelo://app?vid=59337c87-5023-4e82-8e30-94c7126e0bd7","ios":"levelo://app?vid=59337c87-5023-4e82-8e30-94c7126e0bd7"},"vehicle_type_id":"4","last_reported":1778617418,"current_range_meters":7200,"station_id":"ce4bhg12rcd13ifvqf70","pricing_plan_id":"cebpf4jnsgd1na2vs0mg"},{"bike_id":"28b56359-407e-4fcf-acbd-463d51f163a6","system_id":"levelo_inurba_marseille","lat":43.25109,"lon":5.40323,"is_reserved":false,"is_disabled":false,"rental_uris":{"android":"levelo://app?vid=28b56359-407e-4fcf-acbd-463d51f163a6","ios":"levelo://app?vid=28b56359-407e-4fcf-acbd-463d51f163a6"},"vehicle_type_id":"4","last_reported":1778617418,"current_range_meters":7200,"station_id":"ce4bhlh2rcd13ifvqgig","pricing_plan_id":"cebpf4jnsgd1na2vs0mg"},{"bike_id":"211cea86-71fd-43ef-9b6e-844e35d10a69","system_id":"levelo_inurba_marseille","lat":43.26183,"lon":5.37454,"is_reserved":false,"is_disabled":true,"rental_uris":{"android":"levelo://app?vid=211cea86-71fd-43ef-9b6e-844e35d10a69","ios":"levelo://app?vid=211cea86-71fd-43ef-9b6e-844e35d10a69"},"vehicle_type_id":"4","last_reported":1778617418,"current_range_meters":7200,"station_id":"ce4bhgp2rcd13ifvqfc0","pricing_plan_id":"cebpf4jnsgd1na2vs0mg"},{"bike_id":"bac17055-acdf-47ed-bc6e-1879fd64a6b2","system_id":"levelo_inurba_marseille","lat":43.28846,"lon":5.35856,"is_reserved":false,"is_disabled":false,"rental_uris":{"android":"levelo://app?vid=bac17055-acdf-47ed-bc6e-1879fd64a6b2","ios":"levelo://app?vid=bac17055-acdf-47ed-bc6e-1879fd64a6b2"},"vehicle_type_id":"4","last_reported":1778617418,"current_range_meters":7200,"station_id":"ce4bhb12rcd13ifvqem0","pricing_plan_id":"cebpf4jnsgd1na2vs0mg"},{"bike_id":"ab5c661d-c28c-488b-be15-a455466677ca","system_id":"levelo_inurba_marseille","lat":43.26815,"lon":5.40273,"is_reserved":false,"is_disabled":false,"rental_uris":{"android":"levelo://app?vid=ab5c661d-c28c-488b-be15-a455466677ca","ios":"levelo://app?vid=ab5c661d-c28c-488b-be15-a455466677ca"},"vehicle_type_id":"4","last_reported":1778617418,"current_range_meters":7200,"station_id":"ce501612rcd8frsf0b60","pricing_plan_id":"cebpf4jnsgd1na2vs0mg"},{"bike_id":"7d495a91-4757-4bd7-b72f-ad237a9371f1","system_id":"levelo_inurba_marseille","lat":43.21204,"lon":5.35059,"is_reserved":false,"is_disabled":false,"rental_uris":{"android":"levelo://app?vid=7d495a91-4757-4bd7-b72f-ad237a9371f1","ios":"levelo://app?vid=7d495a91-4757-4bd7-b72f-ad237a9371f1"},"vehicle_type_id":"4","last_reported":1778617418,"current_range_meters":7200,"station_id":"st_cvj6sg6p6f1abm77japg","pricing_plan_id":"cebpf4jnsgd1na2vs0mg"},{"bike_id":"95aeb85c-cda5-4c76-841d-5978f9d16c4b","system_id":"levelo_inurba_marseille","lat":43.25578,"lon":5.38223,"is_reserved":false,"is_disabled":false,"rental_uris":{"android":"levelo://app?vid=95aeb85c-cda5-4c76-841d-5978f9d16c4b","ios":"levelo://app?vid=95aeb85c-cda5-4c76-841d-5978f9d16c4b"},"vehicle_type_id":"4","last_reported":1778617418,"current_range_meters":7200,"station_id":"ce4bhih2rcd13ifvqfs0","pricing_plan_id":"cebpf4jnsgd1na2vs0mg"},{"bike_id":"e807073f-5b22-404b-bfa7-b2c01e81fb88","system_id":"levelo_inurba_marseille","lat":43.32341,"lon":5.38232,"is_reserved":false,"is_disabled":false,"rental_uris":{"android":"levelo://app?vid=e807073f-5b22-404b-bfa7-b2c01e81fb88","ios":"levelo://app?vid=e807073f-5b22-404b-bfa7-b2c01e81fb88"},"vehicle_type_id":"4","last_reported":1778617418,"current_range_meters":7200,"station_id":"","pricing_plan_id":"cebpf4jnsgd1na2vs0mg"},{"bike_id":"e1ac7173-4006-4271-b12d-a8fc8dc1c17c","system_id":"levelo_inurba_marseille","lat":43.25585,"lon":5.38247,"is_reserved":false,"is_disabled":false,"rental_uris":{"android":"levelo://app?vid=e1ac7173-4006-4271-b12d-a8fc8dc1c17c","ios":"levelo://app?vid=e1ac7173-4006-4271-b12d-a8fc8dc1c17c"},"vehicle_type_id":"4","last_reported":1778617418,"current_range_meters":7200,"station_id":"ce4bhih2rcd13ifvqfs0","pricing_plan_id":"cebpf4jnsgd1na2vs0mg"},{"bike_id":"d81f348a-5a0d-4a29-b6c6-358f9d732682","system_id":"levelo_inurba_marseille","lat":43.26023,"lon":5.37558,"is_reserved":false,"is_disabled":false,"rental_uris":{"android":"levelo://app?vid=d81f348a-5a0d-4a29-b6c6-358f9d732682","ios":"levelo://app?vid=d81f348a-5a0d-4a29-b6c6-358f9d732682"},"vehicle_type_id":"4","last_reported":1778617418,"current_range_meters":8000,"station_id":"ce4bhgh2rcd13ifvqfa0","pricing_plan_id":"cebpf4jnsgd1na2vs0mg"},{"bike_id":"cfed0df2-be15-4135-9661-5cac57a11ae3","system_id":"levelo_inurba_marseille","lat":43.26929,"lon":5.40314,"is_reserved":false,"is_disabled":false,"rental_uris":{"android":"levelo://app?vid=cfed0df2-be15-4135-9661-5cac57a11ae3","ios":"levelo://app?vid=cfed0df2-be15-4135-9661-5cac57a11ae3"},"vehicle_type_id":"4","last_reported":1778617418,"current_range_meters":8000,"station_id":"cjm6bp8fraef2m0cb0m0","pricing_plan_id":"cebpf4jnsgd1na2vs0mg"},{"bike_id":"cfebf7fa-d41f-4eba-afaa-9495539b1106","system_id":"levelo_inurba_marseille","lat":43.29164,"lon":5.37165,"is_reserved":false,"is_disabled":false,"rental_uris":{"android":"levelo://app?vid=cfebf7fa-d41f-4eba-afaa-9495539b1106","ios":"levelo://app?vid=cfebf7fa-d41f-4eba-afaa-9495539b1106"},"vehicle_type_id":"4","last_reported":1778617418,"current_range_meters":8000,"station_id":"ce4bha92rcd13ifvqeh0","pricing_plan_id":"cebpf4jnsgd1na2vs0mg"},{"bike_id":"0d69b80b-8be1-4d79-bca2-3142c8d39ac2","system_id":"levelo_inurba_marseille","lat":43.29044,"lon":5.38649,"is_reserved":false,"is_disabled":false,"rental_uris":{"android":"levelo://app?vid=0d69b80b-8be1-4d79-bca2-3142c8d39ac2","ios":"levelo://app?vid=0d69b80b-8be1-4d79-bca2-3142c8d39ac2"},"vehicle_type_id":"4","last_reported":1778617418,"current_range_meters":8000,"station_id":"ce4bh4p2rcd13ifvqe0g","pricing_plan_id":"cebpf4jnsgd1na2vs0mg"},{"bike_id":"0604642d-3d93-4beb-97af-7868c570874c","system_id":"levelo_inurba_marseille","lat":43.31713,"lon":5.43708,"is_reserved":false,"is_disabled":false,"rental_uris":{"android":"levelo://app?vid=0604642d-3d93-4beb-97af-7868c570874c","ios":"levelo://app?vid=0604642d-3d93-4beb-97af-7868c570874c"},"vehicle_type_id":"4","last_reported":1778617418,"current_range_meters":8000,"station_id":"ce4bhp92rcd13ifvqhcg","pricing_plan_id":"cebpf4jnsgd1na2vs0mg"},{"bike_id":"2282ecfd-c628-45ec-8328-685141867870","system_id":"levelo_inurba_marseille","lat":43.28941,"lon":5.36658,"is_reserved":false,"is_disabled":false,"rental_uris":{"android":"levelo://app?vid=2282ecfd-c628-45ec-8328-685141867870","ios":"levelo://app?vid=2282ecfd-c628-45ec-8328-685141867870"},"vehicle_type_id":"4","last_reported":1778617418,"current_range_meters":8000,"station_id":"ce4bhap2rcd13ifvqek0","pricing_plan_id":"cebpf4jnsgd1na2vs0mg"},{"bike_id":"d72f59f8-bece-4a94-8b5a-f69d89368aa1","system_id":"levelo_inurba_marseille","lat":43.28851,"lon":5.39305,"is_reserved":false,"is_disabled":false,"rental_uris":{"android":"levelo://app?vid=d72f59f8-bece-4a94-8b5a-f69d89368aa1","ios":"levelo://app?vid=d72f59f8-bece-4a94-8b5a-f69d89368aa1"},"vehicle_type_id":"4","last_reported":1778617418,"current_range_meters":8000,"station_id":"ce4bh2p2rcd13ifvqdi0","pricing_plan_id":"cebpf4jnsgd1na2vs0mg"},{"bike_id":"d257960a-edb4-4348-90b0-b5fd8baf1634","system_id":"levelo_inurba_marseille","lat":43.3169,"lon":5.37789,"is_reserved":false,"is_disabled":true,"rental_uris":{"android":"levelo://app?vid=d257960a-edb4-4348-90b0-b5fd8baf1634","ios":"levelo://app?vid=d257960a-edb4-4348-90b0-b5fd8baf1634"},"vehicle_type_id":"4","last_reported":1778617418,"current_range_meters":8000,"station_id":"ce4bgth2rcd13ifvqch0","pricing_plan_id":"cebpf4jnsgd1na2vs0mg"},{"bike_id":"8a4eed55-84ca-477e-a65b-59da911fdc8a","system_id":"levelo_inurba_marseille","lat":43.29809,"lon":5.38105,"is_reserved":false,"is_disabled":false,"rental_uris":{"android":"levelo://app?vid=8a4eed55-84ca-477e-a65b-59da911fdc8a","ios":"levelo://app?vid=8a4eed55-84ca-477e-a65b-59da911fdc8a"},"vehicle_type_id":"4","last_reported":1778617418,"current_range_meters":8000,"station_id":"ce4bgip2rcd13ifvqbb0","pricing_plan_id":"cebpf4jnsgd1na2vs0mg"},{"bike_id":"c57b9d8b-726c-424e-a5d4-cee105e1ed0e","system_id":"levelo_inurba_marseille","lat":43.26204,"lon":5.37934,"is_reserved":false,"is_disabled":false,"rental_uris":{"android":"levelo://app?vid=c57b9d8b-726c-424e-a5d4-cee105e1ed0e","ios":"levelo://app?vid=c57b9d8b-726c-424e-a5d4-cee105e1ed0e"},"vehicle_type_id":"4","last_reported":1778617418,"current_range_meters":8000,"station_id":"ce4bhjp2rcd13ifvqg90","pricing_plan_id":"cebpf4jnsgd1na2vs0mg"},{"bike_id":"9adf12da-a066-47bc-88ed-df17ebb4f248","system_id":"levelo_inurba_marseille","lat":43.28485,"lon":5.38404,"is_reserved":false,"is_disabled":false,"rental_uris":{"android":"levelo://app?vid=9adf12da-a066-47bc-88ed-df17ebb4f248","ios":"levelo://app?vid=9adf12da-a066-47bc-88ed-df17ebb4f248"},"vehicle_type_id":"4","last_reported":1778617418,"current_range_meters":8000,"station_id":"ce4bh512rcd13ifvqe3g","pricing_plan_id":"cebpf4jnsgd1na2vs0mg"},{"bike_id":"968bd718-2cba-4aae-9173-051f86abc5ac","system_id":"levelo_inurba_marseille","lat":43.29532,"lon":5.38555,"is_reserved":false,"is_disabled":false,"rental_uris":{"android":"levelo://app?vid=968bd718-2cba-4aae-9173-051f86abc5ac","ios":"levelo://app?vid=968bd718-2cba-4aae-9173-051f86abc5ac"},"vehicle_type_id":"4","last_reported":1778617418,"current_range_meters":8000,"station_id":"ce4bgih2rcd13ifvqba0","pricing_plan_id":"cebpf4jnsgd1na2vs0mg"},{"bike_id":"7caea0c4-2cb3-48ba-86e6-3ad00e81c143","system_id":"levelo_inurba_marseille","lat":43.30773,"lon":5.37658,"is_reserved":false,"is_disabled":false,"rental_uris":{"android":"levelo://app?vid=7caea0c4-2cb3-48ba-86e6-3ad00e81c143","ios":"levelo://app?vid=7caea0c4-2cb3-48ba-86e6-3ad00e81c143"},"vehicle_type_id":"4","last_reported":1778617418,"current_range_meters":8000,"station_id":"ce4bgv92rcd13ifvqcq0","pricing_plan_id":"cebpf4jnsgd1na2vs0mg"},{"bike_id":"d952fd8b-baff-4f6c-acb1-7f060f63cdca","system_id":"levelo_inurba_marseille","lat":43.29793,"lon":5.39351,"is_reserved":false,"is_disabled":false,"rental_uris":{"android":"levelo://app?vid=d952fd8b-baff-4f6c-acb1-7f060f63cdca","ios":"levelo://app?vid=d952fd8b-baff-4f6c-acb1-7f060f63cdca"},"vehicle_type_id":"4","last_reported":1778617418,"current_range_meters":8400,"station_id":"chh1huq6cuj3fo74tm60","pricing_plan_id":"cebpf4jnsgd1na2vs0mg"},{"bike_id":"4036d707-70c6-46e1-bb49-c96a8dbbe889","system_id":"levelo_inurba_marseille","lat":43.24183,"lon":5.39725,"is_reserved":false,"is_disabled":false,"rental_uris":{"android":"levelo://app?vid=4036d707-70c6-46e1-bb49-c96a8dbbe889","ios":"levelo://app?vid=4036d707-70c6-46e1-bb49-c96a8dbbe889"},"vehicle_type_id":"4","last_reported":1778617418,"current_range_meters":8400,"station_id":"ce4bhn12rcd13ifvqgpg","pricing_plan_id":"cebpf4jnsgd1na2vs0mg"},{"bike_id":"59a6e24a-9db4-402e-8b5e-049f3595c118","system_id":"levelo_inurba_marseille","lat":43.295674,"lon":5.39968,"is_reserved":false,"is_disabled":true,"rental_uris":{"android":"levelo://app?vid=59a6e24a-9db4-402e-8b5e-049f3595c118","ios":"levelo://app?vid=59a6e24a-9db4-402e-8b5e-049f3595c118"},"vehicle_type_id":"4","last_reported":1778617418,"current_range_meters":8400,"station_id":"ce4bh312rcd13ifvqdj0","pricing_plan_id":"cebpf4jnsgd1na2vs0mg"},{"bike_id":"1dec4592-f318-4ccc-9124-479c7e8f7178","system_id":"levelo_inurba_marseille","lat":43.29221,"lon":5.3839,"is_reserved":false,"is_disabled":false,"rental_uris":{"android":"levelo://app?vid=1dec4592-f318-4ccc-9124-479c7e8f7178","ios":"levelo://app?vid=1dec4592-f318-4ccc-9124-479c7e8f7178"},"vehicle_type_id":"4","last_reported":1778617418,"current_range_meters":8400,"station_id":"","pricing_plan_id":"cebpf4jnsgd1na2vs0mg"},{"bike_id":"b477be1e-64c7-4e90-bc42-6fe97cda14a2","system_id":"levelo_inurba_marseille","lat":43.29823,"lon":5.42113,"is_reserved":false,"is_disabled":false,"rental_uris":{"android":"levelo://app?vid=b477be1e-64c7-4e90-bc42-6fe97cda14a2","ios":"levelo://app?vid=b477be1e-64c7-4e90-bc42-6fe97cda14a2"},"vehicle_type_id":"4","last_reported":1778617418,"current_range_meters":8400,"station_id":"","pricing_plan_id":"cebpf4jnsgd1na2vs0mg"},{"bike_id":"f6e1eccc-832b-4583-b447-5af9758a652c","system_id":"levelo_inurba_marseille","lat":43.29902,"lon":5.38561,"is_reserved":false,"is_disabled":false,"rental_uris":{"android":"levelo://app?vid=f6e1eccc-832b-4583-b447-5af9758a652c","ios":"levelo://app?vid=f6e1eccc-832b-4583-b447-5af9758a652c"},"vehicle_type_id":"4","last_reported":1778617418,"current_range_meters":8400,"station_id":"","pricing_plan_id":"cebpf4jnsgd1na2vs0mg"},{"bike_id":"12831884-053b-433a-b0e0-7a11953437fd","system_id":"levelo_inurba_marseille","lat":43.28426,"lon":5.34987,"is_reserved":false,"is_disabled":false,"rental_uris":{"android":"levelo://app?vid=12831884-053b-433a-b0e0-7a11953437fd","ios":"levelo://app?vid=12831884-053b-433a-b0e0-7a11953437fd"},"vehicle_type_id":"4","last_reported":1778617418,"current_range_meters":8400,"station_id":"ce4bhbh2rcd13ifvqepg","pricing_plan_id":"cebpf4jnsgd1na2vs0mg"},{"bike_id":"1602c824-ae5a-4f68-ae9a-a09d00daa24b","system_id":"levelo_inurba_marseille","lat":43.2255,"lon":5.34869,"is_reserved":false,"is_disabled":true,"rental_uris":{"android":"levelo://app?vid=1602c824-ae5a-4f68-ae9a-a09d00daa24b","ios":"levelo://app?vid=1602c824-ae5a-4f68-ae9a-a09d00daa24b"},"vehicle_type_id":"4","last_reported":1778617418,"current_range_meters":8400,"station_id":"st_cvj5dfep6f1abm77gieg","pricing_plan_id":"cebpf4jnsgd1na2vs0mg"},{"bike_id":"4196c41d-8bac-4f59-809d-20c5bacf0921","system_id":"levelo_inurba_marseille","lat":43.28702,"lon":5.46686,"is_reserved":false,"is_disabled":false,"rental_uris":{"android":"levelo://app?vid=4196c41d-8bac-4f59-809d-20c5bacf0921","ios":"levelo://app?vid=4196c41d-8bac-4f59-809d-20c5bacf0921"},"vehicle_type_id":"4","last_reported":1778617418,"current_range_meters":8400,"station_id":"st_d6tc3vkotcvc738tfjhg","pricing_plan_id":"cebpf4jnsgd1na2vs0mg"},{"bike_id":"4aad697a-91b2-4fed-aee3-9939aca7631b","system_id":"levelo_inurba_marseille","lat":43.3134,"lon":5.37918,"is_reserved":false,"is_disabled":false,"rental_uris":{"android":"levelo://app?vid=4aad697a-91b2-4fed-aee3-9939aca7631b","ios":"levelo://app?vid=4aad697a-91b2-4fed-aee3-9939aca7631b"},"vehicle_type_id":"4","last_reported":1778617418,"current_range_meters":8400,"station_id":"","pricing_plan_id":"cebpf4jnsgd1na2vs0mg"},{"bike_id":"c1d49c29-49d3-4a74-b0da-b3838a03c9af","system_id":"levelo_inurba_marseille","lat":43.26703,"lon":5.38266,"is_reserved":false,"is_disabled":false,"rental_uris":{"android":"levelo://app?vid=c1d49c29-49d3-4a74-b0da-b3838a03c9af","ios":"levelo://app?vid=c1d49c29-49d3-4a74-b0da-b3838a03c9af"},"vehicle_type_id":"4","last_reported":1778617418,"current_range_meters":8400,"station_id":"ce4bhg92rcd13ifvqf90","pricing_plan_id":"cebpf4jnsgd1na2vs0mg"},{"bike_id":"2a6fe7fe-2451-4ede-8fc6-0da3ab1a70a9","system_id":"levelo_inurba_marseille","lat":43.231967,"lon":5.3555,"is_reserved":false,"is_disabled":false,"rental_uris":{"android":"levelo://app?vid=2a6fe7fe-2451-4ede-8fc6-0da3ab1a70a9","ios":"levelo://app?vid=2a6fe7fe-2451-4ede-8fc6-0da3ab1a70a9"},"vehicle_type_id":"4","last_reported":1778617418,"current_range_meters":8400,"station_id":"ce4bhu92rcd13ifvqi70","pricing_plan_id":"cebpf4jnsgd1na2vs0mg"},{"bike_id":"908cf990-7a0d-42fa-9fba-f0da4ae84b10","system_id":"levelo_inurba_marseille","lat":43.26564,"lon":5.4033,"is_reserved":false,"is_disabled":false,"rental_uris":{"android":"levelo://app?vid=908cf990-7a0d-42fa-9fba-f0da4ae84b10","ios":"levelo://app?vid=908cf990-7a0d-42fa-9fba-f0da4ae84b10"},"vehicle_type_id":"4","last_reported":1778617418,"current_range_meters":8400,"station_id":"ce4bhmp2rcd13ifvqgng","pricing_plan_id":"cebpf4jnsgd1na2vs0mg"},{"bike_id":"53c3731c-6f39-49cc-9bdc-d53bb71201eb","system_id":"levelo_inurba_marseille","lat":43.30652,"lon":5.40101,"is_reserved":false,"is_disabled":false,"rental_uris":{"android":"levelo://app?vid=53c3731c-6f39-49cc-9bdc-d53bb71201eb","ios":"levelo://app?vid=53c3731c-6f39-49cc-9bdc-d53bb71201eb"},"vehicle_type_id":"4","last_reported":1778617418,"current_range_meters":8400,"station_id":"ce4bh112rcd13ifvqda0","pricing_plan_id":"cebpf4jnsgd1na2vs0mg"},{"bike_id":"d452a45b-c546-45f8-a895-f70b84e29bf8","system_id":"levelo_inurba_marseille","lat":43.29054,"lon":5.38644,"is_reserved":false,"is_disabled":false,"rental_uris":{"android":"levelo://app?vid=d452a45b-c546-45f8-a895-f70b84e29bf8","ios":"levelo://app?vid=d452a45b-c546-45f8-a895-f70b84e29bf8"},"vehicle_type_id":"4","last_reported":1778617418,"current_range_meters":8400,"station_id":"ce4bh4p2rcd13ifvqe0g","pricing_plan_id":"cebpf4jnsgd1na2vs0mg"},{"bike_id":"31747b77-362c-454f-b967-04fec5720f77","system_id":"levelo_inurba_marseille","lat":43.25083,"lon":5.39541,"is_reserved":false,"is_disabled":false,"rental_uris":{"android":"levelo://app?vid=31747b77-362c-454f-b967-04fec5720f77","ios":"levelo://app?vid=31747b77-362c-454f-b967-04fec5720f77"},"vehicle_type_id":"4","last_reported":1778617418,"current_range_meters":8400,"station_id":"ce4bhm12rcd13ifvqgkg","pricing_plan_id":"cebpf4jnsgd1na2vs0mg"},{"bike_id":"2e172c73-8fd7-4fc9-a807-804ce0f5a8bb","system_id":"levelo_inurba_marseille","lat":43.31381,"lon":5.38495,"is_reserved":false,"is_disabled":false,"rental_uris":{"android":"levelo://app?vid=2e172c73-8fd7-4fc9-a807-804ce0f5a8bb","ios":"levelo://app?vid=2e172c73-8fd7-4fc9-a807-804ce0f5a8bb"},"vehicle_type_id":"4","last_reported":1778617418,"current_range_meters":8400,"station_id":"ce4bgt92rcd13ifvqcf0","pricing_plan_id":"cebpf4jnsgd1na2vs0mg"},{"bike_id":"00f9e8e9-a796-4063-972a-6a13a52bcfd2","system_id":"levelo_inurba_marseille","lat":43.28661,"lon":5.36257,"is_reserved":false,"is_disabled":false,"rental_uris":{"android":"levelo://app?vid=00f9e8e9-a796-4063-972a-6a13a52bcfd2","ios":"levelo://app?vid=00f9e8e9-a796-4063-972a-6a13a52bcfd2"},"vehicle_type_id":"4","last_reported":1778617418,"current_range_meters":8400,"station_id":"","pricing_plan_id":"cebpf4jnsgd1na2vs0mg"},{"bike_id":"58b31096-105b-4969-a5a5-b7913aca4e42","system_id":"levelo_inurba_marseille","lat":43.28359,"lon":5.38611,"is_reserved":false,"is_disabled":false,"rental_uris":{"android":"levelo://app?vid=58b31096-105b-4969-a5a5-b7913aca4e42","ios":"levelo://app?vid=58b31096-105b-4969-a5a5-b7913aca4e42"},"vehicle_type_id":"4","last_reported":1778617418,"current_range_meters":8400,"station_id":"ce4bh492rcd13ifvqdvg","pricing_plan_id":"cebpf4jnsgd1na2vs0mg"},{"bike_id":"33a0b4db-be07-458c-91c4-afc65fea5c6e","system_id":"levelo_inurba_marseille","lat":43.2509,"lon":5.37615,"is_reserved":false,"is_disabled":false,"rental_uris":{"android":"levelo://app?vid=33a0b4db-be07-458c-91c4-afc65fea5c6e","ios":"levelo://app?vid=33a0b4db-be07-458c-91c4-afc65fea5c6e"},"vehicle_type_id":"4","last_reported":1778617418,"current_range_meters":8400,"station_id":"","pricing_plan_id":"cebpf4jnsgd1na2vs0mg"},{"bike_id":"1da6257b-f1af-4a48-8996-6c5a6ab19545","system_id":"levelo_inurba_marseille","lat":43.24681,"lon":5.38154,"is_reserved":false,"is_disabled":false,"rental_uris":{"android":"levelo://app?vid=1da6257b-f1af-4a48-8996-6c5a6ab19545","ios":"levelo://app?vid=1da6257b-f1af-4a48-8996-6c5a6ab19545"},"vehicle_type_id":"4","last_reported":1778617418,"current_range_meters":8400,"station_id":"ce4bhih2rcd13ifvqfr0","pricing_plan_id":"cebpf4jnsgd1na2vs0mg"},{"bike_id":"fe05840d-fbf6-4459-a552-860cb30bbc2e","system_id":"levelo_inurba_marseille","lat":43.2845,"lon":5.35891,"is_reserved":false,"is_disabled":false,"rental_uris":{"android":"levelo://app?vid=fe05840d-fbf6-4459-a552-860cb30bbc2e","ios":"levelo://app?vid=fe05840d-fbf6-4459-a552-860cb30bbc2e"},"vehicle_type_id":"4","last_reported":1778617418,"current_range_meters":8400,"station_id":"ce4bhah2rcd13ifvqei0","pricing_plan_id":"cebpf4jnsgd1na2vs0mg"},{"bike_id":"73f702fb-dd5a-471c-90cc-142501c193f7","system_id":"levelo_inurba_marseille","lat":43.2875,"lon":5.46594,"is_reserved":false,"is_disabled":false,"rental_uris":{"android":"levelo://app?vid=73f702fb-dd5a-471c-90cc-142501c193f7","ios":"levelo://app?vid=73f702fb-dd5a-471c-90cc-142501c193f7"},"vehicle_type_id":"4","last_reported":1778617418,"current_range_meters":8400,"station_id":"","pricing_plan_id":"cebpf4jnsgd1na2vs0mg"},{"bike_id":"b6da4a61-eef8-4590-a30c-5d4218354e88","system_id":"levelo_inurba_marseille","lat":43.28213,"lon":5.35406,"is_reserved":false,"is_disabled":false,"rental_uris":{"android":"levelo://app?vid=b6da4a61-eef8-4590-a30c-5d4218354e88","ios":"levelo://app?vid=b6da4a61-eef8-4590-a30c-5d4218354e88"},"vehicle_type_id":"4","last_reported":1778617418,"current_range_meters":8400,"station_id":"","pricing_plan_id":"cebpf4jnsgd1na2vs0mg"},{"bike_id":"acdc7f9f-c208-4d71-8aab-07abf62efdc3","system_id":"levelo_inurba_marseille","lat":43.33761,"lon":5.37453,"is_reserved":false,"is_disabled":false,"rental_uris":{"android":"levelo://app?vid=acdc7f9f-c208-4d71-8aab-07abf62efdc3","ios":"levelo://app?vid=acdc7f9f-c208-4d71-8aab-07abf62efdc3"},"vehicle_type_id":"4","last_reported":1778617418,"current_range_meters":8800,"station_id":"","pricing_plan_id":"cebpf4jnsgd1na2vs0mg"},{"bike_id":"19e877fd-e015-4a86-8008-1a0d333eea65","system_id":"levelo_inurba_marseille","lat":43.3355,"lon":5.37476,"is_reserved":false,"is_disabled":false,"rental_uris":{"android":"levelo://app?vid=19e877fd-e015-4a86-8008-1a0d333eea65","ios":"levelo://app?vid=19e877fd-e015-4a86-8008-1a0d333eea65"},"vehicle_type_id":"4","last_reported":1778617418,"current_range_meters":8800,"station_id":"st_d46tts09ee8s73dlu43g","pricing_plan_id":"cebpf4jnsgd1na2vs0mg"},{"bike_id":"be516926-fe12-4374-9b96-0a5d95fc4532","system_id":"levelo_inurba_marseille","lat":43.225323,"lon":5.348352,"is_reserved":false,"is_disabled":false,"rental_uris":{"android":"levelo://app?vid=be516926-fe12-4374-9b96-0a5d95fc4532","ios":"levelo://app?vid=be516926-fe12-4374-9b96-0a5d95fc4532"},"vehicle_type_id":"4","last_reported":1778617418,"current_range_meters":8800,"station_id":"st_cvj5dfep6f1abm77gieg","pricing_plan_id":"cebpf4jnsgd1na2vs0mg"},{"bike_id":"f2a38a5b-b7fa-4592-b5b3-6940a16ec4ef","system_id":"levelo_inurba_marseille","lat":43.28431,"lon":5.34988,"is_reserved":false,"is_disabled":false,"rental_uris":{"android":"levelo://app?vid=f2a38a5b-b7fa-4592-b5b3-6940a16ec4ef","ios":"levelo://app?vid=f2a38a5b-b7fa-4592-b5b3-6940a16ec4ef"},"vehicle_type_id":"4","last_reported":1778617418,"current_range_meters":8800,"station_id":"ce4bhbh2rcd13ifvqepg","pricing_plan_id":"cebpf4jnsgd1na2vs0mg"},{"bike_id":"8c3176fb-911f-46c7-9bb6-9f2fd9293ea6","system_id":"levelo_inurba_marseille","lat":43.2533,"lon":5.42144,"is_reserved":false,"is_disabled":false,"rental_uris":{"android":"levelo://app?vid=8c3176fb-911f-46c7-9bb6-9f2fd9293ea6","ios":"levelo://app?vid=8c3176fb-911f-46c7-9bb6-9f2fd9293ea6"},"vehicle_type_id":"4","last_reported":1778617418,"current_range_meters":8800,"station_id":"st_d2m65c5bi1j21697t3ng","pricing_plan_id":"cebpf4jnsgd1na2vs0mg"},{"bike_id":"2aaf8d3d-dddc-4659-85e7-34b3b97fa5bc","system_id":"levelo_inurba_marseille","lat":43.21206,"lon":5.35064,"is_reserved":false,"is_disabled":false,"rental_uris":{"android":"levelo://app?vid=2aaf8d3d-dddc-4659-85e7-34b3b97fa5bc","ios":"levelo://app?vid=2aaf8d3d-dddc-4659-85e7-34b3b97fa5bc"},"vehicle_type_id":"4","last_reported":1778617418,"current_range_meters":8800,"station_id":"st_cvj6sg6p6f1abm77japg","pricing_plan_id":"cebpf4jnsgd1na2vs0mg"},{"bike_id":"f915b850-cfc7-49b5-8ad0-d9207a829577","system_id":"levelo_inurba_marseille","lat":43.28665,"lon":5.36359,"is_reserved":false,"is_disabled":false,"rental_uris":{"android":"levelo://app?vid=f915b850-cfc7-49b5-8ad0-d9207a829577","ios":"levelo://app?vid=f915b850-cfc7-49b5-8ad0-d9207a829577"},"vehicle_type_id":"4","last_reported":1778617418,"current_range_meters":8800,"station_id":"ce4bhah2rcd13ifvqej0","pricing_plan_id":"cebpf4jnsgd1na2vs0mg"},{"bike_id":"da15c766-ddfd-4ac0-82c0-548c799dd1e8","system_id":"levelo_inurba_marseille","lat":43.31464,"lon":5.37385,"is_reserved":false,"is_disabled":false,"rental_uris":{"android":"levelo://app?vid=da15c766-ddfd-4ac0-82c0-548c799dd1e8","ios":"levelo://app?vid=da15c766-ddfd-4ac0-82c0-548c799dd1e8"},"vehicle_type_id":"4","last_reported":1778617418,"current_range_meters":8800,"station_id":"","pricing_plan_id":"cebpf4jnsgd1na2vs0mg"},{"bike_id":"8124d941-3105-4cbf-a823-508970bbb225","system_id":"levelo_inurba_marseille","lat":43.28452,"lon":5.3589,"is_reserved":false,"is_disabled":false,"rental_uris":{"android":"levelo://app?vid=8124d941-3105-4cbf-a823-508970bbb225","ios":"levelo://app?vid=8124d941-3105-4cbf-a823-508970bbb225"},"vehicle_type_id":"4","last_reported":1778617418,"current_range_meters":8800,"station_id":"ce4bhah2rcd13ifvqei0","pricing_plan_id":"cebpf4jnsgd1na2vs0mg"},{"bike_id":"f96c72da-1adc-427e-a4c0-30afefc40d90","system_id":"levelo_inurba_marseille","lat":43.28524,"lon":5.44088,"is_reserved":false,"is_disabled":true,"rental_uris":{"android":"levelo://app?vid=f96c72da-1adc-427e-a4c0-30afefc40d90","ios":"levelo://app?vid=f96c72da-1adc-427e-a4c0-30afefc40d90"},"vehicle_type_id":"4","last_reported":1778617418,"current_range_meters":8800,"station_id":"st_d3j3df2ikq2c7380ej80","pricing_plan_id":"cebpf4jnsgd1na2vs0mg"},{"bike_id":"08017ca0-3408-4597-8d3b-864276b9200d","system_id":"levelo_inurba_marseille","lat":43.2923,"lon":5.36063,"is_reserved":false,"is_disabled":false,"rental_uris":{"android":"levelo://app?vid=08017ca0-3408-4597-8d3b-864276b9200d","ios":"levelo://app?vid=08017ca0-3408-4597-8d3b-864276b9200d"},"vehicle_type_id":"4","last_reported":1778617418,"current_range_meters":8800,"station_id":"ce4bhbh2rcd13ifvqeqg","pricing_plan_id":"cebpf4jnsgd1na2vs0mg"},{"bike_id":"3fd47180-2cb2-4558-99f2-cf2753ea82b4","system_id":"levelo_inurba_marseille","lat":43.29523,"lon":5.39041,"is_reserved":false,"is_disabled":true,"rental_uris":{"android":"levelo://app?vid=3fd47180-2cb2-4558-99f2-cf2753ea82b4","ios":"levelo://app?vid=3fd47180-2cb2-4558-99f2-cf2753ea82b4"},"vehicle_type_id":"4","last_reported":1778617418,"current_range_meters":8800,"station_id":"ce4bh3p2rcd13ifvqdp0","pricing_plan_id":"cebpf4jnsgd1na2vs0mg"},{"bike_id":"0ad9f56c-0cb1-4ddd-bfff-c7b211f4a077","system_id":"levelo_inurba_marseille","lat":43.23459,"lon":5.37227,"is_reserved":false,"is_disabled":false,"rental_uris":{"android":"levelo://app?vid=0ad9f56c-0cb1-4ddd-bfff-c7b211f4a077","ios":"levelo://app?vid=0ad9f56c-0cb1-4ddd-bfff-c7b211f4a077"},"vehicle_type_id":"4","last_reported":1778617418,"current_range_meters":8800,"station_id":"","pricing_plan_id":"cebpf4jnsgd1na2vs0mg"},{"bike_id":"efeea6a8-c63a-497b-9db6-26cc3d527f94","system_id":"levelo_inurba_marseille","lat":43.2928,"lon":5.37444,"is_reserved":false,"is_disabled":false,"rental_uris":{"android":"levelo://app?vid=efeea6a8-c63a-497b-9db6-26cc3d527f94","ios":"levelo://app?vid=efeea6a8-c63a-497b-9db6-26cc3d527f94"},"vehicle_type_id":"4","last_reported":1778617418,"current_range_meters":8800,"station_id":"ce4bgi12rcd13ifvqb70","pricing_plan_id":"cebpf4jnsgd1na2vs0mg"},{"bike_id":"b8ea0eb0-1d26-433d-980a-c0b52756d2dc","system_id":"levelo_inurba_marseille","lat":43.30544,"lon":5.38434,"is_reserved":false,"is_disabled":false,"rental_uris":{"android":"levelo://app?vid=b8ea0eb0-1d26-433d-980a-c0b52756d2dc","ios":"levelo://app?vid=b8ea0eb0-1d26-433d-980a-c0b52756d2dc"},"vehicle_type_id":"4","last_reported":1778617418,"current_range_meters":8800,"station_id":"ce4bgg92rcd13ifvqb30","pricing_plan_id":"cebpf4jnsgd1na2vs0mg"},{"bike_id":"23abbca9-6718-45d2-a248-98600555cceb","system_id":"levelo_inurba_marseille","lat":43.28682,"lon":5.38674,"is_reserved":false,"is_disabled":false,"rental_uris":{"android":"levelo://app?vid=23abbca9-6718-45d2-a248-98600555cceb","ios":"levelo://app?vid=23abbca9-6718-45d2-a248-98600555cceb"},"vehicle_type_id":"4","last_reported":1778617418,"current_range_meters":8800,"station_id":"ce4bh492rcd13ifvqdug","pricing_plan_id":"cebpf4jnsgd1na2vs0mg"},{"bike_id":"6f8b0d63-4a27-4c64-8991-130a8e2c7266","system_id":"levelo_inurba_marseille","lat":43.33163,"lon":5.37687,"is_reserved":false,"is_disabled":false,"rental_uris":{"android":"levelo://app?vid=6f8b0d63-4a27-4c64-8991-130a8e2c7266","ios":"levelo://app?vid=6f8b0d63-4a27-4c64-8991-130a8e2c7266"},"vehicle_type_id":"4","last_reported":1778617418,"current_range_meters":8800,"station_id":"st_d46cu089ee8s73dldbu0","pricing_plan_id":"cebpf4jnsgd1na2vs0mg"},{"bike_id":"5f2948ba-686e-403a-a354-af3a4fbdf39a","system_id":"levelo_inurba_marseille","lat":43.29538,"lon":5.38541,"is_reserved":false,"is_disabled":true,"rental_uris":{"android":"levelo://app?vid=5f2948ba-686e-403a-a354-af3a4fbdf39a","ios":"levelo://app?vid=5f2948ba-686e-403a-a354-af3a4fbdf39a"},"vehicle_type_id":"4","last_reported":1778617418,"current_range_meters":8800,"station_id":"ce4bgih2rcd13ifvqba0","pricing_plan_id":"cebpf4jnsgd1na2vs0mg"},{"bike_id":"e267adc5-5f11-46b6-a0f3-78f119b246da","system_id":"levelo_inurba_marseille","lat":43.232,"lon":5.3998,"is_reserved":false,"is_disabled":false,"rental_uris":{"android":"levelo://app?vid=e267adc5-5f11-46b6-a0f3-78f119b246da","ios":"levelo://app?vid=e267adc5-5f11-46b6-a0f3-78f119b246da"},"vehicle_type_id":"4","last_reported":1778617418,"current_range_meters":8800,"station_id":"ce4bhn12rcd13ifvqgqg","pricing_plan_id":"cebpf4jnsgd1na2vs0mg"},{"bike_id":"16c13e1f-3085-42a4-8cc9-e3893bafa42a","system_id":"levelo_inurba_marseille","lat":43.30796,"lon":5.3816,"is_reserved":false,"is_disabled":false,"rental_uris":{"android":"levelo://app?vid=16c13e1f-3085-42a4-8cc9-e3893bafa42a","ios":"levelo://app?vid=16c13e1f-3085-42a4-8cc9-e3893bafa42a"},"vehicle_type_id":"4","last_reported":1778617418,"current_range_meters":9200,"station_id":"ce4bgt12rcd13ifvqce0","pricing_plan_id":"cebpf4jnsgd1na2vs0mg"},{"bike_id":"3e31714a-c8a2-4aab-9798-b2a4bd0e5358","system_id":"levelo_inurba_marseille","lat":43.31169,"lon":5.3873,"is_reserved":false,"is_disabled":false,"rental_uris":{"android":"levelo://app?vid=3e31714a-c8a2-4aab-9798-b2a4bd0e5358","ios":"levelo://app?vid=3e31714a-c8a2-4aab-9798-b2a4bd0e5358"},"vehicle_type_id":"4","last_reported":1778617418,"current_range_meters":9200,"station_id":"ce4bgv12rcd13ifvqcp0","pricing_plan_id":"cebpf4jnsgd1na2vs0mg"},{"bike_id":"9b99215c-c222-4e4c-809c-fc012e76423b","system_id":"levelo_inurba_marseille","lat":43.30448,"lon":5.38893,"is_reserved":false,"is_disabled":false,"rental_uris":{"android":"levelo://app?vid=9b99215c-c222-4e4c-809c-fc012e76423b","ios":"levelo://app?vid=9b99215c-c222-4e4c-809c-fc012e76423b"},"vehicle_type_id":"4","last_reported":1778617418,"current_range_meters":9200,"station_id":"ce4bgk12rcd13ifvqbi0","pricing_plan_id":"cebpf4jnsgd1na2vs0mg"},{"bike_id":"c71e059e-2c2a-4884-bb62-cfa9f38e88c7","system_id":"levelo_inurba_marseille","lat":43.25582,"lon":5.38242,"is_reserved":false,"is_disabled":false,"rental_uris":{"android":"levelo://app?vid=c71e059e-2c2a-4884-bb62-cfa9f38e88c7","ios":"levelo://app?vid=c71e059e-2c2a-4884-bb62-cfa9f38e88c7"},"vehicle_type_id":"4","last_reported":1778617418,"current_range_meters":9200,"station_id":"ce4bhih2rcd13ifvqfs0","pricing_plan_id":"cebpf4jnsgd1na2vs0mg"},{"bike_id":"f2cb0a19-1030-4a33-8e5a-97914f8f04d7","system_id":"levelo_inurba_marseille","lat":43.30095,"lon":5.39063,"is_reserved":false,"is_disabled":false,"rental_uris":{"android":"levelo://app?vid=f2cb0a19-1030-4a33-8e5a-97914f8f04d7","ios":"levelo://app?vid=f2cb0a19-1030-4a33-8e5a-97914f8f04d7"},"vehicle_type_id":"4","last_reported":1778617418,"current_range_meters":9200,"station_id":"ce4bh192rcd13ifvqdb0","pricing_plan_id":"cebpf4jnsgd1na2vs0mg"},{"bike_id":"cc35d2bb-6d25-489d-94f5-d5160311de4c","system_id":"levelo_inurba_marseille","lat":43.288594,"lon":5.425146,"is_reserved":false,"is_disabled":true,"rental_uris":{"android":"levelo://app?vid=cc35d2bb-6d25-489d-94f5-d5160311de4c","ios":"levelo://app?vid=cc35d2bb-6d25-489d-94f5-d5160311de4c"},"vehicle_type_id":"4","last_reported":1778617418,"current_range_meters":9200,"station_id":"","pricing_plan_id":"cebpf4jnsgd1na2vs0mg"},{"bike_id":"b0fa62c4-8e6e-443d-b874-58065c9ec11d","system_id":"levelo_inurba_marseille","lat":43.29281,"lon":5.3684,"is_reserved":false,"is_disabled":true,"rental_uris":{"android":"levelo://app?vid=b0fa62c4-8e6e-443d-b874-58065c9ec11d","ios":"levelo://app?vid=b0fa62c4-8e6e-443d-b874-58065c9ec11d"},"vehicle_type_id":"4","last_reported":1778617418,"current_range_meters":9200,"station_id":"ce4bhbp2rcd13ifvqesg","pricing_plan_id":"cebpf4jnsgd1na2vs0mg"},{"bike_id":"a9602b8f-2229-41ab-a27d-639beba9bad1","system_id":"levelo_inurba_marseille","lat":43.29437,"lon":5.39752,"is_reserved":false,"is_disabled":false,"rental_uris":{"android":"levelo://app?vid=a9602b8f-2229-41ab-a27d-639beba9bad1","ios":"levelo://app?vid=a9602b8f-2229-41ab-a27d-639beba9bad1"},"vehicle_type_id":"4","last_reported":1778617418,"current_range_meters":9200,"station_id":"ce4bh3h2rcd13ifvqdo0","pricing_plan_id":"cebpf4jnsgd1na2vs0mg"},{"bike_id":"9abf0e07-6af0-4096-9767-49724c8658ba","system_id":"levelo_inurba_marseille","lat":43.30633,"lon":5.40078,"is_reserved":false,"is_disabled":false,"rental_uris":{"android":"levelo://app?vid=9abf0e07-6af0-4096-9767-49724c8658ba","ios":"levelo://app?vid=9abf0e07-6af0-4096-9767-49724c8658ba"},"vehicle_type_id":"4","last_reported":1778617418,"current_range_meters":9200,"station_id":"ce4bh112rcd13ifvqda0","pricing_plan_id":"cebpf4jnsgd1na2vs0mg"},{"bike_id":"638f0fd9-8092-4d8b-9b9b-e7a2a736b653","system_id":"levelo_inurba_marseille","lat":43.27501,"lon":5.41587,"is_reserved":false,"is_disabled":true,"rental_uris":{"android":"levelo://app?vid=638f0fd9-8092-4d8b-9b9b-e7a2a736b653","ios":"levelo://app?vid=638f0fd9-8092-4d8b-9b9b-e7a2a736b653"},"vehicle_type_id":"4","last_reported":1778617418,"current_range_meters":9200,"station_id":"st_d6im8g6chgec73a5pndg","pricing_plan_id":"cebpf4jnsgd1na2vs0mg"},{"bike_id":"e88d9a25-4ee5-42e2-a26d-28923c003d21","system_id":"levelo_inurba_marseille","lat":43.30932,"lon":5.40132,"is_reserved":false,"is_disabled":false,"rental_uris":{"android":"levelo://app?vid=e88d9a25-4ee5-42e2-a26d-28923c003d21","ios":"levelo://app?vid=e88d9a25-4ee5-42e2-a26d-28923c003d21"},"vehicle_type_id":"4","last_reported":1778617418,"current_range_meters":9200,"station_id":"ce4bgvp2rcd13ifvqct0","pricing_plan_id":"cebpf4jnsgd1na2vs0mg"},{"bike_id":"d58bef21-a4b3-4591-9f54-513bd590d665","system_id":"levelo_inurba_marseille","lat":43.31489,"lon":5.37269,"is_reserved":false,"is_disabled":false,"rental_uris":{"android":"levelo://app?vid=d58bef21-a4b3-4591-9f54-513bd590d665","ios":"levelo://app?vid=d58bef21-a4b3-4591-9f54-513bd590d665"},"vehicle_type_id":"4","last_reported":1778617418,"current_range_meters":9200,"station_id":"ce4bgt12rcd13ifvqcd0","pricing_plan_id":"cebpf4jnsgd1na2vs0mg"},{"bike_id":"cd3bf1fa-127b-48f3-b4b1-cec37ebb83c9","system_id":"levelo_inurba_marseille","lat":43.23808,"lon":5.36615,"is_reserved":false,"is_disabled":false,"rental_uris":{"android":"levelo://app?vid=cd3bf1fa-127b-48f3-b4b1-cec37ebb83c9","ios":"levelo://app?vid=cd3bf1fa-127b-48f3-b4b1-cec37ebb83c9"},