{"last_updated":1758877859,"ttl":60,"version":"2.2","data":{"bikes":[{"bike_id":"7ed33cf5-c025-4fca-b62d-66fe538c64b8","system_id":"levelo_inurba_marseille","lat":43.31211,"lon":5.36886,"is_reserved":false,"is_disabled":false,"rental_uris":{"android":"levelo://app?vid=7ed33cf5-c025-4fca-b62d-66fe538c64b8","ios":"levelo://app?vid=7ed33cf5-c025-4fca-b62d-66fe538c64b8"},"vehicle_type_id":"4","last_reported":1758877859,"current_range_meters":2800,"station_id":"ce4bgl92rcd13ifvqbq0","pricing_plan_id":"cebpf4jnsgd1na2vs0mg"},{"bike_id":"56d2b6ab-6f90-4d07-a6d0-06d931a08a48","system_id":"levelo_inurba_marseille","lat":43.25487,"lon":5.37655,"is_reserved":false,"is_disabled":true,"rental_uris":{"android":"levelo://app?vid=56d2b6ab-6f90-4d07-a6d0-06d931a08a48","ios":"levelo://app?vid=56d2b6ab-6f90-4d07-a6d0-06d931a08a48"},"vehicle_type_id":"4","last_reported":1758877859,"current_range_meters":2800,"station_id":"ce4bhh12rcd13ifvqff0","pricing_plan_id":"cebpf4jnsgd1na2vs0mg"},{"bike_id":"4e737411-53ce-4bdf-9802-c3bc30d9bc94","system_id":"levelo_inurba_marseille","lat":43.2955,"lon":5.40648,"is_reserved":false,"is_disabled":false,"rental_uris":{"android":"levelo://app?vid=4e737411-53ce-4bdf-9802-c3bc30d9bc94","ios":"levelo://app?vid=4e737411-53ce-4bdf-9802-c3bc30d9bc94"},"vehicle_type_id":"4","last_reported":1758877859,"current_range_meters":3200,"station_id":"","pricing_plan_id":"cebpf4jnsgd1na2vs0mg"},{"bike_id":"9c4a7bdb-c552-4dfd-8efb-40b9e0b0b147","system_id":"levelo_inurba_marseille","lat":43.30902,"lon":5.36694,"is_reserved":false,"is_disabled":false,"rental_uris":{"android":"levelo://app?vid=9c4a7bdb-c552-4dfd-8efb-40b9e0b0b147","ios":"levelo://app?vid=9c4a7bdb-c552-4dfd-8efb-40b9e0b0b147"},"vehicle_type_id":"4","last_reported":1758877859,"current_range_meters":3200,"station_id":"","pricing_plan_id":"cebpf4jnsgd1na2vs0mg"},{"bike_id":"37712dd4-35fa-45b4-a0ed-b5ac477bc03c","system_id":"levelo_inurba_marseille","lat":43.31341,"lon":5.38493,"is_reserved":false,"is_disabled":false,"rental_uris":{"android":"levelo://app?vid=37712dd4-35fa-45b4-a0ed-b5ac477bc03c","ios":"levelo://app?vid=37712dd4-35fa-45b4-a0ed-b5ac477bc03c"},"vehicle_type_id":"4","last_reported":1758877859,"current_range_meters":3200,"station_id":"ce4bgt92rcd13ifvqcf0","pricing_plan_id":"cebpf4jnsgd1na2vs0mg"},{"bike_id":"136a707a-b224-4c44-8119-f846f7b7d0a7","system_id":"levelo_inurba_marseille","lat":43.29516,"lon":5.37375,"is_reserved":false,"is_disabled":false,"rental_uris":{"android":"levelo://app?vid=136a707a-b224-4c44-8119-f846f7b7d0a7","ios":"levelo://app?vid=136a707a-b224-4c44-8119-f846f7b7d0a7"},"vehicle_type_id":"4","last_reported":1758877859,"current_range_meters":3600,"station_id":"","pricing_plan_id":"cebpf4jnsgd1na2vs0mg"},{"bike_id":"1ac680ec-2697-4199-bbea-78eaf1ea8517","system_id":"levelo_inurba_marseille","lat":43.231741,"lon":5.437522,"is_reserved":false,"is_disabled":false,"rental_uris":{"android":"levelo://app?vid=1ac680ec-2697-4199-bbea-78eaf1ea8517","ios":"levelo://app?vid=1ac680ec-2697-4199-bbea-78eaf1ea8517"},"vehicle_type_id":"4","last_reported":1758877859,"current_range_meters":3600,"station_id":"ce4bhmp2rcd13ifvqgog","pricing_plan_id":"cebpf4jnsgd1na2vs0mg"},{"bike_id":"1c35bf83-ebdb-4c44-ba8d-eb30d817a599","system_id":"levelo_inurba_marseille","lat":43.304192,"lon":5.397395,"is_reserved":false,"is_disabled":true,"rental_uris":{"android":"levelo://app?vid=1c35bf83-ebdb-4c44-ba8d-eb30d817a599","ios":"levelo://app?vid=1c35bf83-ebdb-4c44-ba8d-eb30d817a599"},"vehicle_type_id":"4","last_reported":1758877859,"current_range_meters":3600,"station_id":"ce4bh012rcd13ifvqcv0","pricing_plan_id":"cebpf4jnsgd1na2vs0mg"},{"bike_id":"58bcb43d-c000-4e3e-b004-30450f57645b","system_id":"levelo_inurba_marseille","lat":43.29527,"lon":5.37448,"is_reserved":false,"is_disabled":true,"rental_uris":{"android":"levelo://app?vid=58bcb43d-c000-4e3e-b004-30450f57645b","ios":"levelo://app?vid=58bcb43d-c000-4e3e-b004-30450f57645b"},"vehicle_type_id":"4","last_reported":1758877859,"current_range_meters":4000,"station_id":"","pricing_plan_id":"cebpf4jnsgd1na2vs0mg"},{"bike_id":"12e1485f-a9c8-4411-b5e4-34bfaf6030a4","system_id":"levelo_inurba_marseille","lat":43.29194,"lon":5.39321,"is_reserved":false,"is_disabled":false,"rental_uris":{"android":"levelo://app?vid=12e1485f-a9c8-4411-b5e4-34bfaf6030a4","ios":"levelo://app?vid=12e1485f-a9c8-4411-b5e4-34bfaf6030a4"},"vehicle_type_id":"4","last_reported":1758877859,"current_range_meters":4400,"station_id":"ce4bh192rcd13ifvqdd0","pricing_plan_id":"cebpf4jnsgd1na2vs0mg"},{"bike_id":"d1bf5877-7433-4026-a1ea-b36c24e54045","system_id":"levelo_inurba_marseille","lat":43.21207,"lon":5.35074,"is_reserved":false,"is_disabled":false,"rental_uris":{"android":"levelo://app?vid=d1bf5877-7433-4026-a1ea-b36c24e54045","ios":"levelo://app?vid=d1bf5877-7433-4026-a1ea-b36c24e54045"},"vehicle_type_id":"4","last_reported":1758877859,"current_range_meters":4400,"station_id":"","pricing_plan_id":"cebpf4jnsgd1na2vs0mg"},{"bike_id":"3e65f100-a497-4bb5-9e57-24fd2c3556dd","system_id":"levelo_inurba_marseille","lat":43.23148,"lon":5.43701,"is_reserved":false,"is_disabled":false,"rental_uris":{"android":"levelo://app?vid=3e65f100-a497-4bb5-9e57-24fd2c3556dd","ios":"levelo://app?vid=3e65f100-a497-4bb5-9e57-24fd2c3556dd"},"vehicle_type_id":"4","last_reported":1758877859,"current_range_meters":4400,"station_id":"ce4bhmp2rcd13ifvqgog","pricing_plan_id":"cebpf4jnsgd1na2vs0mg"},{"bike_id":"18cee62d-67f1-4c8f-80d7-9aca23bf64d2","system_id":"levelo_inurba_marseille","lat":43.23152,"lon":5.43713,"is_reserved":false,"is_disabled":false,"rental_uris":{"android":"levelo://app?vid=18cee62d-67f1-4c8f-80d7-9aca23bf64d2","ios":"levelo://app?vid=18cee62d-67f1-4c8f-80d7-9aca23bf64d2"},"vehicle_type_id":"4","last_reported":1758877859,"current_range_meters":4400,"station_id":"ce4bhmp2rcd13ifvqgog","pricing_plan_id":"cebpf4jnsgd1na2vs0mg"},{"bike_id":"438ead59-de14-4fa0-a61d-03a70a4122ae","system_id":"levelo_inurba_marseille","lat":43.97269,"lon":4.89111,"is_reserved":false,"is_disabled":true,"rental_uris":{"android":"levelo://app?vid=438ead59-de14-4fa0-a61d-03a70a4122ae","ios":"levelo://app?vid=438ead59-de14-4fa0-a61d-03a70a4122ae"},"vehicle_type_id":"4","last_reported":1758877859,"current_range_meters":4400,"station_id":"","pricing_plan_id":"cebpf4jnsgd1na2vs0mg"},{"bike_id":"e1b38a33-1bf8-47ec-9317-703f304aecb2","system_id":"levelo_inurba_marseille","lat":43.23149,"lon":5.43708,"is_reserved":false,"is_disabled":false,"rental_uris":{"android":"levelo://app?vid=e1b38a33-1bf8-47ec-9317-703f304aecb2","ios":"levelo://app?vid=e1b38a33-1bf8-47ec-9317-703f304aecb2"},"vehicle_type_id":"4","last_reported":1758877859,"current_range_meters":4800,"station_id":"ce4bhmp2rcd13ifvqgog","pricing_plan_id":"cebpf4jnsgd1na2vs0mg"},{"bike_id":"7a87e217-ba46-4cf7-8cef-287b72d71aae","system_id":"levelo_inurba_marseille","lat":43.24076,"lon":5.37766,"is_reserved":false,"is_disabled":false,"rental_uris":{"android":"levelo://app?vid=7a87e217-ba46-4cf7-8cef-287b72d71aae","ios":"levelo://app?vid=7a87e217-ba46-4cf7-8cef-287b72d71aae"},"vehicle_type_id":"4","last_reported":1758877859,"current_range_meters":4800,"station_id":"ce4bhnp2rcd13ifvqgvg","pricing_plan_id":"cebpf4jnsgd1na2vs0mg"},{"bike_id":"6cd537e0-dbfc-4f59-b3b3-22491905826b","system_id":"levelo_inurba_marseille","lat":43.24649,"lon":5.388903,"is_reserved":false,"is_disabled":false,"rental_uris":{"android":"levelo://app?vid=6cd537e0-dbfc-4f59-b3b3-22491905826b","ios":"levelo://app?vid=6cd537e0-dbfc-4f59-b3b3-22491905826b"},"vehicle_type_id":"4","last_reported":1758877859,"current_range_meters":5600,"station_id":"ce4bhg12rcd13ifvqf60","pricing_plan_id":"cebpf4jnsgd1na2vs0mg"},{"bike_id":"5587fb2b-b66f-4536-a438-e6bc2fc46ec0","system_id":"levelo_inurba_marseille","lat":43.325435,"lon":5.414303,"is_reserved":false,"is_disabled":false,"rental_uris":{"android":"levelo://app?vid=5587fb2b-b66f-4536-a438-e6bc2fc46ec0","ios":"levelo://app?vid=5587fb2b-b66f-4536-a438-e6bc2fc46ec0"},"vehicle_type_id":"4","last_reported":1758877859,"current_range_meters":6000,"station_id":"ce4bhq12rcd13ifvqhhg","pricing_plan_id":"cebpf4jnsgd1na2vs0mg"},{"bike_id":"e4b8924a-76a6-4e1c-96de-2a1f501cdeec","system_id":"levelo_inurba_marseille","lat":43.2593,"lon":5.40903,"is_reserved":false,"is_disabled":false,"rental_uris":{"android":"levelo://app?vid=e4b8924a-76a6-4e1c-96de-2a1f501cdeec","ios":"levelo://app?vid=e4b8924a-76a6-4e1c-96de-2a1f501cdeec"},"vehicle_type_id":"4","last_reported":1758877859,"current_range_meters":6000,"station_id":"ce4bhm92rcd13ifvqglg","pricing_plan_id":"cebpf4jnsgd1na2vs0mg"},{"bike_id":"933cc938-5ed2-4891-8083-5abecfb2466f","system_id":"levelo_inurba_marseille","lat":43.33595,"lon":5.41033,"is_reserved":false,"is_disabled":false,"rental_uris":{"android":"levelo://app?vid=933cc938-5ed2-4891-8083-5abecfb2466f","ios":"levelo://app?vid=933cc938-5ed2-4891-8083-5abecfb2466f"},"vehicle_type_id":"4","last_reported":1758877859,"current_range_meters":6000,"station_id":"ce4bhqh2rcd13ifvqhmg","pricing_plan_id":"cebpf4jnsgd1na2vs0mg"},{"bike_id":"d30e861e-4058-469b-a3d8-ba491f250550","system_id":"levelo_inurba_marseille","lat":43.3106,"lon":5.38375,"is_reserved":false,"is_disabled":true,"rental_uris":{"android":"levelo://app?vid=d30e861e-4058-469b-a3d8-ba491f250550","ios":"levelo://app?vid=d30e861e-4058-469b-a3d8-ba491f250550"},"vehicle_type_id":"4","last_reported":1758877859,"current_range_meters":6000,"station_id":"ce4bgv92rcd13ifvqcr0","pricing_plan_id":"cebpf4jnsgd1na2vs0mg"},{"bike_id":"444d1847-7b9d-4028-ba66-3a2d914590f0","system_id":"levelo_inurba_marseille","lat":43.30552,"lon":5.36564,"is_reserved":false,"is_disabled":false,"rental_uris":{"android":"levelo://app?vid=444d1847-7b9d-4028-ba66-3a2d914590f0","ios":"levelo://app?vid=444d1847-7b9d-4028-ba66-3a2d914590f0"},"vehicle_type_id":"4","last_reported":1758877859,"current_range_meters":6400,"station_id":"ce4bgs12rcd13ifvqcag","pricing_plan_id":"cebpf4jnsgd1na2vs0mg"},{"bike_id":"3bd489e5-2659-4c74-b36b-70a17cc86db1","system_id":"levelo_inurba_marseille","lat":43.23375,"lon":5.35991,"is_reserved":false,"is_disabled":false,"rental_uris":{"android":"levelo://app?vid=3bd489e5-2659-4c74-b36b-70a17cc86db1","ios":"levelo://app?vid=3bd489e5-2659-4c74-b36b-70a17cc86db1"},"vehicle_type_id":"4","last_reported":1758877859,"current_range_meters":6400,"station_id":"","pricing_plan_id":"cebpf4jnsgd1na2vs0mg"},{"bike_id":"0c81b40b-1c40-4984-9001-de11236803c2","system_id":"levelo_inurba_marseille","lat":43.337444,"lon":5.374475,"is_reserved":false,"is_disabled":false,"rental_uris":{"android":"levelo://app?vid=0c81b40b-1c40-4984-9001-de11236803c2","ios":"levelo://app?vid=0c81b40b-1c40-4984-9001-de11236803c2"},"vehicle_type_id":"4","last_reported":1758877859,"current_range_meters":6400,"station_id":"","pricing_plan_id":"cebpf4jnsgd1na2vs0mg"},{"bike_id":"3a83ddcd-ce03-4ed4-a7fa-b273c2464f02","system_id":"levelo_inurba_marseille","lat":43.27945,"lon":5.36349,"is_reserved":false,"is_disabled":false,"rental_uris":{"android":"levelo://app?vid=3a83ddcd-ce03-4ed4-a7fa-b273c2464f02","ios":"levelo://app?vid=3a83ddcd-ce03-4ed4-a7fa-b273c2464f02"},"vehicle_type_id":"4","last_reported":1758877859,"current_range_meters":6400,"station_id":"","pricing_plan_id":"cebpf4jnsgd1na2vs0mg"},{"bike_id":"77cdeb12-e0c8-4317-a92b-fa457aab7346","system_id":"levelo_inurba_marseille","lat":43.33615,"lon":5.410328,"is_reserved":false,"is_disabled":false,"rental_uris":{"android":"levelo://app?vid=77cdeb12-e0c8-4317-a92b-fa457aab7346","ios":"levelo://app?vid=77cdeb12-e0c8-4317-a92b-fa457aab7346"},"vehicle_type_id":"4","last_reported":1758877859,"current_range_meters":6400,"station_id":"ce4bhqh2rcd13ifvqhmg","pricing_plan_id":"cebpf4jnsgd1na2vs0mg"},{"bike_id":"767ae8eb-099e-465a-82fd-591cb6a9f3ad","system_id":"levelo_inurba_marseille","lat":43.30533,"lon":5.36699,"is_reserved":false,"is_disabled":false,"rental_uris":{"android":"levelo://app?vid=767ae8eb-099e-465a-82fd-591cb6a9f3ad","ios":"levelo://app?vid=767ae8eb-099e-465a-82fd-591cb6a9f3ad"},"vehicle_type_id":"4","last_reported":1758877859,"current_range_meters":6800,"station_id":"ce4bgrp2rcd13ifvqc9g","pricing_plan_id":"cebpf4jnsgd1na2vs0mg"},{"bike_id":"cfa462e1-a746-48ae-b405-0b9474d89333","system_id":"levelo_inurba_marseille","lat":43.28989,"lon":5.36387,"is_reserved":false,"is_disabled":false,"rental_uris":{"android":"levelo://app?vid=cfa462e1-a746-48ae-b405-0b9474d89333","ios":"levelo://app?vid=cfa462e1-a746-48ae-b405-0b9474d89333"},"vehicle_type_id":"4","last_reported":1758877859,"current_range_meters":6800,"station_id":"ce4bhc92rcd13ifvqetg","pricing_plan_id":"cebpf4jnsgd1na2vs0mg"},{"bike_id":"96a8e76d-cbdd-40b9-8dd4-6becfce4480b","system_id":"levelo_inurba_marseille","lat":43.31079,"lon":5.42427,"is_reserved":false,"is_disabled":false,"rental_uris":{"android":"levelo://app?vid=96a8e76d-cbdd-40b9-8dd4-6becfce4480b","ios":"levelo://app?vid=96a8e76d-cbdd-40b9-8dd4-6becfce4480b"},"vehicle_type_id":"4","last_reported":1758877859,"current_range_meters":6800,"station_id":"ce4bhp92rcd13ifvqhag","pricing_plan_id":"cebpf4jnsgd1na2vs0mg"},{"bike_id":"6d64825d-1a65-4844-8584-89db40da4ba9","system_id":"levelo_inurba_marseille","lat":43.25583,"lon":5.38234,"is_reserved":false,"is_disabled":false,"rental_uris":{"android":"levelo://app?vid=6d64825d-1a65-4844-8584-89db40da4ba9","ios":"levelo://app?vid=6d64825d-1a65-4844-8584-89db40da4ba9"},"vehicle_type_id":"4","last_reported":1758877859,"current_range_meters":6800,"station_id":"ce4bhih2rcd13ifvqfs0","pricing_plan_id":"cebpf4jnsgd1na2vs0mg"},{"bike_id":"afb5f42c-bc92-4753-b8b5-463a6aed8244","system_id":"levelo_inurba_marseille","lat":43.3374,"lon":5.37469,"is_reserved":false,"is_disabled":false,"rental_uris":{"android":"levelo://app?vid=afb5f42c-bc92-4753-b8b5-463a6aed8244","ios":"levelo://app?vid=afb5f42c-bc92-4753-b8b5-463a6aed8244"},"vehicle_type_id":"4","last_reported":1758877859,"current_range_meters":6800,"station_id":"","pricing_plan_id":"cebpf4jnsgd1na2vs0mg"},{"bike_id":"170d25a3-3f37-45de-95ef-88e6e1e28de3","system_id":"levelo_inurba_marseille","lat":43.31249,"lon":5.36898,"is_reserved":false,"is_disabled":false,"rental_uris":{"android":"levelo://app?vid=170d25a3-3f37-45de-95ef-88e6e1e28de3","ios":"levelo://app?vid=170d25a3-3f37-45de-95ef-88e6e1e28de3"},"vehicle_type_id":"4","last_reported":1758877859,"current_range_meters":7200,"station_id":"ce4bgl92rcd13ifvqbq0","pricing_plan_id":"cebpf4jnsgd1na2vs0mg"},{"bike_id":"a2bd1b51-e7d2-463b-a0e8-1a5b14252419","system_id":"levelo_inurba_marseille","lat":43.31187,"lon":5.38692,"is_reserved":false,"is_disabled":false,"rental_uris":{"android":"levelo://app?vid=a2bd1b51-e7d2-463b-a0e8-1a5b14252419","ios":"levelo://app?vid=a2bd1b51-e7d2-463b-a0e8-1a5b14252419"},"vehicle_type_id":"4","last_reported":1758877859,"current_range_meters":2800,"station_id":"ce4bgv12rcd13ifvqcp0","pricing_plan_id":"cebpf4jnsgd1na2vs0mg"},{"bike_id":"2ed61ca6-5274-4c19-9577-ca5c68d2d188","system_id":"levelo_inurba_marseille","lat":43.31334,"lon":5.396948,"is_reserved":false,"is_disabled":false,"rental_uris":{"android":"levelo://app?vid=2ed61ca6-5274-4c19-9577-ca5c68d2d188","ios":"levelo://app?vid=2ed61ca6-5274-4c19-9577-ca5c68d2d188"},"vehicle_type_id":"4","last_reported":1758877859,"current_range_meters":6800,"station_id":"ce4bgvp2rcd13ifvqcu0","pricing_plan_id":"cebpf4jnsgd1na2vs0mg"},{"bike_id":"31a84b97-8557-4b46-98b5-877e3f549e7a","system_id":"levelo_inurba_marseille","lat":43.27209,"lon":5.39176,"is_reserved":false,"is_disabled":false,"rental_uris":{"android":"levelo://app?vid=31a84b97-8557-4b46-98b5-877e3f549e7a","ios":"levelo://app?vid=31a84b97-8557-4b46-98b5-877e3f549e7a"},"vehicle_type_id":"4","last_reported":1758877859,"current_range_meters":7200,"station_id":"ce4bhhp2rcd13ifvqfm0","pricing_plan_id":"cebpf4jnsgd1na2vs0mg"},{"bike_id":"4035ffcf-62d8-4fb0-89da-8d7b6b41ef29","system_id":"levelo_inurba_marseille","lat":43.2944,"lon":5.39764,"is_reserved":false,"is_disabled":true,"rental_uris":{"android":"levelo://app?vid=4035ffcf-62d8-4fb0-89da-8d7b6b41ef29","ios":"levelo://app?vid=4035ffcf-62d8-4fb0-89da-8d7b6b41ef29"},"vehicle_type_id":"4","last_reported":1758877859,"current_range_meters":7200,"station_id":"ce4bh3h2rcd13ifvqdo0","pricing_plan_id":"cebpf4jnsgd1na2vs0mg"},{"bike_id":"2bc5f492-97f3-466c-83a6-4f618570b63e","system_id":"levelo_inurba_marseille","lat":43.23148,"lon":5.43716,"is_reserved":false,"is_disabled":false,"rental_uris":{"android":"levelo://app?vid=2bc5f492-97f3-466c-83a6-4f618570b63e","ios":"levelo://app?vid=2bc5f492-97f3-466c-83a6-4f618570b63e"},"vehicle_type_id":"4","last_reported":1758877859,"current_range_meters":7200,"station_id":"ce4bhmp2rcd13ifvqgog","pricing_plan_id":"cebpf4jnsgd1na2vs0mg"},{"bike_id":"90d99430-1f67-4496-8378-1f4aaf189a8c","system_id":"levelo_inurba_marseille","lat":43.33616,"lon":5.41016,"is_reserved":false,"is_disabled":false,"rental_uris":{"android":"levelo://app?vid=90d99430-1f67-4496-8378-1f4aaf189a8c","ios":"levelo://app?vid=90d99430-1f67-4496-8378-1f4aaf189a8c"},"vehicle_type_id":"4","last_reported":1758877859,"current_range_meters":8000,"station_id":"ce4bhqh2rcd13ifvqhmg","pricing_plan_id":"cebpf4jnsgd1na2vs0mg"},{"bike_id":"cf9b5710-d632-4c78-ad46-7a0deb8dea8a","system_id":"levelo_inurba_marseille","lat":43.30516,"lon":5.3846,"is_reserved":false,"is_disabled":false,"rental_uris":{"android":"levelo://app?vid=cf9b5710-d632-4c78-ad46-7a0deb8dea8a","ios":"levelo://app?vid=cf9b5710-d632-4c78-ad46-7a0deb8dea8a"},"vehicle_type_id":"4","last_reported":1758877859,"current_range_meters":8000,"station_id":"ce4bgg92rcd13ifvqb30","pricing_plan_id":"cebpf4jnsgd1na2vs0mg"},{"bike_id":"379911e0-a8b9-4b05-96ac-c75be54d3c45","system_id":"levelo_inurba_marseille","lat":43.28861,"lon":5.42512,"is_reserved":false,"is_disabled":false,"rental_uris":{"android":"levelo://app?vid=379911e0-a8b9-4b05-96ac-c75be54d3c45","ios":"levelo://app?vid=379911e0-a8b9-4b05-96ac-c75be54d3c45"},"vehicle_type_id":"4","last_reported":1758877859,"current_range_meters":8000,"station_id":"st_d3b462108ojc7389ooeg","pricing_plan_id":"cebpf4jnsgd1na2vs0mg"},{"bike_id":"0c48a053-2d95-4d6e-b18c-4dadbbac77ea","system_id":"levelo_inurba_marseille","lat":43.29528,"lon":5.39023,"is_reserved":false,"is_disabled":false,"rental_uris":{"android":"levelo://app?vid=0c48a053-2d95-4d6e-b18c-4dadbbac77ea","ios":"levelo://app?vid=0c48a053-2d95-4d6e-b18c-4dadbbac77ea"},"vehicle_type_id":"4","last_reported":1758877859,"current_range_meters":7200,"station_id":"ce4bh3p2rcd13ifvqdp0","pricing_plan_id":"cebpf4jnsgd1na2vs0mg"},{"bike_id":"8ee8eb39-e26d-464d-8cb4-74cb82a10d2a","system_id":"levelo_inurba_marseille","lat":43.30414,"lon":5.41282,"is_reserved":false,"is_disabled":false,"rental_uris":{"android":"levelo://app?vid=8ee8eb39-e26d-464d-8cb4-74cb82a10d2a","ios":"levelo://app?vid=8ee8eb39-e26d-464d-8cb4-74cb82a10d2a"},"vehicle_type_id":"4","last_reported":1758877859,"current_range_meters":8000,"station_id":"ce4bhop2rcd13ifvqh8g","pricing_plan_id":"cebpf4jnsgd1na2vs0mg"},{"bike_id":"8eae954c-dab6-4303-94f5-569e1c483f62","system_id":"levelo_inurba_marseille","lat":43.294516,"lon":5.407532,"is_reserved":false,"is_disabled":false,"rental_uris":{"android":"levelo://app?vid=8eae954c-dab6-4303-94f5-569e1c483f62","ios":"levelo://app?vid=8eae954c-dab6-4303-94f5-569e1c483f62"},"vehicle_type_id":"4","last_reported":1758877859,"current_range_meters":8400,"station_id":"","pricing_plan_id":"cebpf4jnsgd1na2vs0mg"},{"bike_id":"88d4f928-adea-4cc4-a244-e47fba7e11e6","system_id":"levelo_inurba_marseille","lat":43.23145,"lon":5.43711,"is_reserved":false,"is_disabled":false,"rental_uris":{"android":"levelo://app?vid=88d4f928-adea-4cc4-a244-e47fba7e11e6","ios":"levelo://app?vid=88d4f928-adea-4cc4-a244-e47fba7e11e6"},"vehicle_type_id":"4","last_reported":1758877859,"current_range_meters":8400,"station_id":"ce4bhmp2rcd13ifvqgog","pricing_plan_id":"cebpf4jnsgd1na2vs0mg"},{"bike_id":"4d2d0854-51fe-4f41-9053-73f1a5ff8f5a","system_id":"levelo_inurba_marseille","lat":43.27947,"lon":5.410495,"is_reserved":false,"is_disabled":false,"rental_uris":{"android":"levelo://app?vid=4d2d0854-51fe-4f41-9053-73f1a5ff8f5a","ios":"levelo://app?vid=4d2d0854-51fe-4f41-9053-73f1a5ff8f5a"},"vehicle_type_id":"4","last_reported":1758877859,"current_range_meters":8400,"station_id":"ce4bhnp2rcd13ifvqh0g","pricing_plan_id":"cebpf4jnsgd1na2vs0mg"},{"bike_id":"6984f8df-c2d2-4728-853a-4b546b4f0713","system_id":"levelo_inurba_marseille","lat":43.2481,"lon":5.3746,"is_reserved":false,"is_disabled":true,"rental_uris":{"android":"levelo://app?vid=6984f8df-c2d2-4728-853a-4b546b4f0713","ios":"levelo://app?vid=6984f8df-c2d2-4728-853a-4b546b4f0713"},"vehicle_type_id":"4","last_reported":1758877859,"current_range_meters":8400,"station_id":"ce4bhgh2rcd13ifvqfb0","pricing_plan_id":"cebpf4jnsgd1na2vs0mg"},{"bike_id":"234f9897-ca2f-4a17-807c-faef05729c1e","system_id":"levelo_inurba_marseille","lat":43.30539,"lon":5.36694,"is_reserved":false,"is_disabled":false,"rental_uris":{"android":"levelo://app?vid=234f9897-ca2f-4a17-807c-faef05729c1e","ios":"levelo://app?vid=234f9897-ca2f-4a17-807c-faef05729c1e"},"vehicle_type_id":"4","last_reported":1758877859,"current_range_meters":8400,"station_id":"ce4bgrp2rcd13ifvqc9g","pricing_plan_id":"cebpf4jnsgd1na2vs0mg"},{"bike_id":"003515e8-8117-44bb-979d-5f47e8d50fda","system_id":"levelo_inurba_marseille","lat":43.30646,"lon":5.37606,"is_reserved":false,"is_disabled":false,"rental_uris":{"android":"levelo://app?vid=003515e8-8117-44bb-979d-5f47e8d50fda","ios":"levelo://app?vid=003515e8-8117-44bb-979d-5f47e8d50fda"},"vehicle_type_id":"4","last_reported":1758877859,"current_range_meters":8800,"station_id":"","pricing_plan_id":"cebpf4jnsgd1na2vs0mg"},{"bike_id":"bdec3261-de13-477f-818b-7af8ae1d1f6a","system_id":"levelo_inurba_marseille","lat":43.23977,"lon":5.3767,"is_reserved":false,"is_disabled":false,"rental_uris":{"android":"levelo://app?vid=bdec3261-de13-477f-818b-7af8ae1d1f6a","ios":"levelo://app?vid=bdec3261-de13-477f-818b-7af8ae1d1f6a"},"vehicle_type_id":"4","last_reported":1758877859,"current_range_meters":8800,"station_id":"","pricing_plan_id":"cebpf4jnsgd1na2vs0mg"},{"bike_id":"3ef1e7f0-3811-4df1-b2a9-e8042fe56002","system_id":"levelo_inurba_marseille","lat":43.29008,"lon":5.35614,"is_reserved":false,"is_disabled":false,"rental_uris":{"android":"levelo://app?vid=3ef1e7f0-3811-4df1-b2a9-e8042fe56002","ios":"levelo://app?vid=3ef1e7f0-3811-4df1-b2a9-e8042fe56002"},"vehicle_type_id":"4","last_reported":1758877859,"current_range_meters":8800,"station_id":"ce4bhb92rcd13ifvqen0","pricing_plan_id":"cebpf4jnsgd1na2vs0mg"},{"bike_id":"fda6ca30-d5ed-47f8-a83b-07eb6445b793","system_id":"levelo_inurba_marseille","lat":43.29864,"lon":5.39731,"is_reserved":false,"is_disabled":false,"rental_uris":{"android":"levelo://app?vid=fda6ca30-d5ed-47f8-a83b-07eb6445b793","ios":"levelo://app?vid=fda6ca30-d5ed-47f8-a83b-07eb6445b793"},"vehicle_type_id":"4","last_reported":1758877859,"current_range_meters":8800,"station_id":"ce4bh0h2rcd13ifvqd50","pricing_plan_id":"cebpf4jnsgd1na2vs0mg"},{"bike_id":"212de2eb-8bbc-413c-b204-9fe1facd76e8","system_id":"levelo_inurba_marseille","lat":43.31298,"lon":5.37812,"is_reserved":false,"is_disabled":false,"rental_uris":{"android":"levelo://app?vid=212de2eb-8bbc-413c-b204-9fe1facd76e8","ios":"levelo://app?vid=212de2eb-8bbc-413c-b204-9fe1facd76e8"},"vehicle_type_id":"4","last_reported":1758877859,"current_range_meters":8800,"station_id":"","pricing_plan_id":"cebpf4jnsgd1na2vs0mg"},{"bike_id":"e40313c1-a43a-4b42-8078-07eefd15daf4","system_id":"levelo_inurba_marseille","lat":43.26051,"lon":5.39394,"is_reserved":false,"is_disabled":false,"rental_uris":{"android":"levelo://app?vid=e40313c1-a43a-4b42-8078-07eefd15daf4","ios":"levelo://app?vid=e40313c1-a43a-4b42-8078-07eefd15daf4"},"vehicle_type_id":"4","last_reported":1758877859,"current_range_meters":8400,"station_id":"ce4bhh92rcd13ifvqfj0","pricing_plan_id":"cebpf4jnsgd1na2vs0mg"},{"bike_id":"df95a0ed-d950-453f-a0b9-93136dc87fa2","system_id":"levelo_inurba_marseille","lat":43.3359,"lon":5.41025,"is_reserved":false,"is_disabled":false,"rental_uris":{"android":"levelo://app?vid=df95a0ed-d950-453f-a0b9-93136dc87fa2","ios":"levelo://app?vid=df95a0ed-d950-453f-a0b9-93136dc87fa2"},"vehicle_type_id":"4","last_reported":1758877859,"current_range_meters":9200,"station_id":"ce4bhqh2rcd13ifvqhmg","pricing_plan_id":"cebpf4jnsgd1na2vs0mg"},{"bike_id":"48cfa5e0-d4fe-46dc-9056-cb144be641cf","system_id":"levelo_inurba_marseille","lat":43.23171,"lon":5.40005,"is_reserved":false,"is_disabled":false,"rental_uris":{"android":"levelo://app?vid=48cfa5e0-d4fe-46dc-9056-cb144be641cf","ios":"levelo://app?vid=48cfa5e0-d4fe-46dc-9056-cb144be641cf"},"vehicle_type_id":"4","last_reported":1758877859,"current_range_meters":9200,"station_id":"ce4bhn12rcd13ifvqgqg","pricing_plan_id":"cebpf4jnsgd1na2vs0mg"},{"bike_id":"d7f9e1df-8b0f-4a8d-ad58-d349030d8c25","system_id":"levelo_inurba_marseille","lat":43.29615,"lon":5.37809,"is_reserved":false,"is_disabled":false,"rental_uris":{"android":"levelo://app?vid=d7f9e1df-8b0f-4a8d-ad58-d349030d8c25","ios":"levelo://app?vid=d7f9e1df-8b0f-4a8d-ad58-d349030d8c25"},"vehicle_type_id":"4","last_reported":1758877859,"current_range_meters":9200,"station_id":"","pricing_plan_id":"cebpf4jnsgd1na2vs0mg"},{"bike_id":"68141cbc-6b9c-49f4-b058-f4fb9b8677d3","system_id":"levelo_inurba_marseille","lat":43.23169,"lon":5.40011,"is_reserved":false,"is_disabled":false,"rental_uris":{"android":"levelo://app?vid=68141cbc-6b9c-49f4-b058-f4fb9b8677d3","ios":"levelo://app?vid=68141cbc-6b9c-49f4-b058-f4fb9b8677d3"},"vehicle_type_id":"4","last_reported":1758877859,"current_range_meters":9200,"station_id":"ce4bhn12rcd13ifvqgqg","pricing_plan_id":"cebpf4jnsgd1na2vs0mg"},{"bike_id":"97551f08-4a6b-4bab-ab2a-5a93d9e0b032","system_id":"levelo_inurba_marseille","lat":43.27373,"lon":5.36247,"is_reserved":false,"is_disabled":false,"rental_uris":{"android":"levelo://app?vid=97551f08-4a6b-4bab-ab2a-5a93d9e0b032","ios":"levelo://app?vid=97551f08-4a6b-4bab-ab2a-5a93d9e0b032"},"vehicle_type_id":"4","last_reported":1758877859,"current_range_meters":9200,"station_id":"ce4bhbh2rcd13ifvqeo0","pricing_plan_id":"cebpf4jnsgd1na2vs0mg"},{"bike_id":"f897d300-643c-4c7a-951b-f56d70ef23ca","system_id":"levelo_inurba_marseille","lat":43.30345,"lon":5.39046,"is_reserved":false,"is_disabled":false,"rental_uris":{"android":"levelo://app?vid=f897d300-643c-4c7a-951b-f56d70ef23ca","ios":"levelo://app?vid=f897d300-643c-4c7a-951b-f56d70ef23ca"},"vehicle_type_id":"4","last_reported":1758877859,"current_range_meters":9600,"station_id":"","pricing_plan_id":"cebpf4jnsgd1na2vs0mg"},{"bike_id":"749b3536-1740-4e87-bb6d-1b42bf79f06b","system_id":"levelo_inurba_marseille","lat":43.28345,"lon":5.38109,"is_reserved":false,"is_disabled":false,"rental_uris":{"android":"levelo://app?vid=749b3536-1740-4e87-bb6d-1b42bf79f06b","ios":"levelo://app?vid=749b3536-1740-4e87-bb6d-1b42bf79f06b"},"vehicle_type_id":"4","last_reported":1758877859,"current_range_meters":9200,"station_id":"","pricing_plan_id":"cebpf4jnsgd1na2vs0mg"},{"bike_id":"23b85acc-76d8-416f-a0b8-d6f379e94a00","system_id":"levelo_inurba_marseille","lat":43.29775,"lon":5.39337,"is_reserved":false,"is_disabled":false,"rental_uris":{"android":"levelo://app?vid=23b85acc-76d8-416f-a0b8-d6f379e94a00","ios":"levelo://app?vid=23b85acc-76d8-416f-a0b8-d6f379e94a00"},"vehicle_type_id":"4","last_reported":1758877859,"current_range_meters":9600,"station_id":"chh1huq6cuj3fo74tm60","pricing_plan_id":"cebpf4jnsgd1na2vs0mg"},{"bike_id":"1b95970f-42c4-4ab0-acc7-2baa194657cf","system_id":"levelo_inurba_marseille","lat":43.33596,"lon":5.40996,"is_reserved":false,"is_disabled":false,"rental_uris":{"android":"levelo://app?vid=1b95970f-42c4-4ab0-acc7-2baa194657cf","ios":"levelo://app?vid=1b95970f-42c4-4ab0-acc7-2baa194657cf"},"vehicle_type_id":"4","last_reported":1758877859,"current_range_meters":10000,"station_id":"ce4bhqh2rcd13ifvqhmg","pricing_plan_id":"cebpf4jnsgd1na2vs0mg"},{"bike_id":"019d6aa5-035d-42fc-9bdb-939e26fd267a","system_id":"levelo_inurba_marseille","lat":43.31365,"lon":5.36695,"is_reserved":false,"is_disabled":false,"rental_uris":{"android":"levelo://app?vid=019d6aa5-035d-42fc-9bdb-939e26fd267a","ios":"levelo://app?vid=019d6aa5-035d-42fc-9bdb-939e26fd267a"},"vehicle_type_id":"4","last_reported":1758877859,"current_range_meters":10000,"station_id":"ce4bgr92rcd13ifvqc6g","pricing_plan_id":"cebpf4jnsgd1na2vs0mg"},{"bike_id":"8d731f86-93c0-4090-9c56-28fae2a352c6","system_id":"levelo_inurba_marseille","lat":43.25868,"lon":5.39894,"is_reserved":false,"is_disabled":false,"rental_uris":{"android":"levelo://app?vid=8d731f86-93c0-4090-9c56-28fae2a352c6","ios":"levelo://app?vid=8d731f86-93c0-4090-9c56-28fae2a352c6"},"vehicle_type_id":"4","last_reported":1758877859,"current_range_meters":10000,"station_id":"ce4bhl92rcd13ifvqghg","pricing_plan_id":"cebpf4jnsgd1na2vs0mg"},{"bike_id":"e5303607-da03-4ac7-b81e-b332ede84cf7","system_id":"levelo_inurba_marseille","lat":43.31297,"lon":5.3782,"is_reserved":false,"is_disabled":false,"rental_uris":{"android":"levelo://app?vid=e5303607-da03-4ac7-b81e-b332ede84cf7","ios":"levelo://app?vid=e5303607-da03-4ac7-b81e-b332ede84cf7"},"vehicle_type_id":"4","last_reported":1758877859,"current_range_meters":10000,"station_id":"","pricing_plan_id":"cebpf4jnsgd1na2vs0mg"},{"bike_id":"0d54f249-b891-4504-a5ff-687b2a4870e6","system_id":"levelo_inurba_marseille","lat":43.28614,"lon":5.35099,"is_reserved":false,"is_disabled":false,"rental_uris":{"android":"levelo://app?vid=0d54f249-b891-4504-a5ff-687b2a4870e6","ios":"levelo://app?vid=0d54f249-b891-4504-a5ff-687b2a4870e6"},"vehicle_type_id":"4","last_reported":1758877859,"current_range_meters":10800,"station_id":"ce4bhch2rcd13ifvqeug","pricing_plan_id":"cebpf4jnsgd1na2vs0mg"},{"bike_id":"f5a888db-229a-4246-81ee-0ff2a1bcfdfa","system_id":"levelo_inurba_marseille","lat":43.22922,"lon":5.35399,"is_reserved":false,"is_disabled":false,"rental_uris":{"android":"levelo://app?vid=f5a888db-229a-4246-81ee-0ff2a1bcfdfa","ios":"levelo://app?vid=f5a888db-229a-4246-81ee-0ff2a1bcfdfa"},"vehicle_type_id":"4","last_reported":1758877859,"current_range_meters":10800,"station_id":"cpo3532slgdg3j2ikp40","pricing_plan_id":"cebpf4jnsgd1na2vs0mg"},{"bike_id":"ca20220f-ec3e-4117-91c8-0f661817af64","system_id":"levelo_inurba_marseille","lat":43.26544,"lon":5.40344,"is_reserved":false,"is_disabled":false,"rental_uris":{"android":"levelo://app?vid=ca20220f-ec3e-4117-91c8-0f661817af64","ios":"levelo://app?vid=ca20220f-ec3e-4117-91c8-0f661817af64"},"vehicle_type_id":"4","last_reported":1758877859,"current_range_meters":10800,"station_id":"ce4bhmp2rcd13ifvqgng","pricing_plan_id":"cebpf4jnsgd1na2vs0mg"},{"bike_id":"8d51b84c-d719-41b2-89ba-046ee5bef40c","system_id":"levelo_inurba_marseille","lat":43.30427,"lon":5.39326,"is_reserved":false,"is_disabled":false,"rental_uris":{"android":"levelo://app?vid=8d51b84c-d719-41b2-89ba-046ee5bef40c","ios":"levelo://app?vid=8d51b84c-d719-41b2-89ba-046ee5bef40c"},"vehicle_type_id":"4","last_reported":1758877859,"current_range_meters":11200,"station_id":"","pricing_plan_id":"cebpf4jnsgd1na2vs0mg"},{"bike_id":"c7f6a08b-c655-4213-b2ba-7d02e7f382fe","system_id":"levelo_inurba_marseille","lat":43.27988,"lon":5.39483,"is_reserved":false,"is_disabled":false,"rental_uris":{"android":"levelo://app?vid=c7f6a08b-c655-4213-b2ba-7d02e7f382fe","ios":"levelo://app?vid=c7f6a08b-c655-4213-b2ba-7d02e7f382fe"},"vehicle_type_id":"4","last_reported":1758877859,"current_range_meters":11200,"station_id":"","pricing_plan_id":"cebpf4jnsgd1na2vs0mg"},{"bike_id":"97a5ee76-2e0a-479d-a727-d5a9ad8fecb2","system_id":"levelo_inurba_marseille","lat":43.22921,"lon":5.3536,"is_reserved":false,"is_disabled":false,"rental_uris":{"android":"levelo://app?vid=97a5ee76-2e0a-479d-a727-d5a9ad8fecb2","ios":"levelo://app?vid=97a5ee76-2e0a-479d-a727-d5a9ad8fecb2"},"vehicle_type_id":"4","last_reported":1758877859,"current_range_meters":11600,"station_id":"cpo3532slgdg3j2ikp40","pricing_plan_id":"cebpf4jnsgd1na2vs0mg"},{"bike_id":"0a7dee83-f3d6-49dd-9849-b85dcb39280d","system_id":"levelo_inurba_marseille","lat":43.3014,"lon":5.38078,"is_reserved":false,"is_disabled":true,"rental_uris":{"android":"levelo://app?vid=0a7dee83-f3d6-49dd-9849-b85dcb39280d","ios":"levelo://app?vid=0a7dee83-f3d6-49dd-9849-b85dcb39280d"},"vehicle_type_id":"4","last_reported":1758877859,"current_range_meters":11600,"station_id":"ce4bgjp2rcd13ifvqbh0","pricing_plan_id":"cebpf4jnsgd1na2vs0mg"},{"bike_id":"064cfafc-654c-47b9-87bf-4d744f3f4bdf","system_id":"levelo_inurba_marseille","lat":43.30598,"lon":5.37225,"is_reserved":false,"is_disabled":false,"rental_uris":{"android":"levelo://app?vid=064cfafc-654c-47b9-87bf-4d744f3f4bdf","ios":"levelo://app?vid=064cfafc-654c-47b9-87bf-4d744f3f4bdf"},"vehicle_type_id":"4","last_reported":1758877859,"current_range_meters":11600,"station_id":"ce4bgqh2rcd13ifvqc4g","pricing_plan_id":"cebpf4jnsgd1na2vs0mg"},{"bike_id":"53030e64-f921-444d-bd54-865a8a994a1f","system_id":"levelo_inurba_marseille","lat":43.33587,"lon":5.41022,"is_reserved":false,"is_disabled":false,"rental_uris":{"android":"levelo://app?vid=53030e64-f921-444d-bd54-865a8a994a1f","ios":"levelo://app?vid=53030e64-f921-444d-bd54-865a8a994a1f"},"vehicle_type_id":"4","last_reported":1758877859,"current_range_meters":11600,"station_id":"ce4bhqh2rcd13ifvqhmg","pricing_plan_id":"cebpf4jnsgd1na2vs0mg"},{"bike_id":"e893a398-9288-4d24-929b-60915004f8e7","system_id":"levelo_inurba_marseille","lat":43.29872,"lon":5.39722,"is_reserved":false,"is_disabled":false,"rental_uris":{"android":"levelo://app?vid=e893a398-9288-4d24-929b-60915004f8e7","ios":"levelo://app?vid=e893a398-9288-4d24-929b-60915004f8e7"},"vehicle_type_id":"4","last_reported":1758877859,"current_range_meters":11200,"station_id":"ce4bh0h2rcd13ifvqd50","pricing_plan_id":"cebpf4jnsgd1na2vs0mg"},{"bike_id":"041cd397-24ab-4e04-af23-07b961e161f4","system_id":"levelo_inurba_marseille","lat":43.337444,"lon":5.374475,"is_reserved":false,"is_disabled":false,"rental_uris":{"android":"levelo://app?vid=041cd397-24ab-4e04-af23-07b961e161f4","ios":"levelo://app?vid=041cd397-24ab-4e04-af23-07b961e161f4"},"vehicle_type_id":"4","last_reported":1758877859,"current_range_meters":11600,"station_id":"","pricing_plan_id":"cebpf4jnsgd1na2vs0mg"},{"bike_id":"fbaaa217-fda6-49d4-90bf-53e7de0139a1","system_id":"levelo_inurba_marseille","lat":43.306363,"lon":5.400987,"is_reserved":false,"is_disabled":false,"rental_uris":{"android":"levelo://app?vid=fbaaa217-fda6-49d4-90bf-53e7de0139a1","ios":"levelo://app?vid=fbaaa217-fda6-49d4-90bf-53e7de0139a1"},"vehicle_type_id":"4","last_reported":1758877859,"current_range_meters":11600,"station_id":"ce4bh112rcd13ifvqda0","pricing_plan_id":"cebpf4jnsgd1na2vs0mg"},{"bike_id":"c8e305c3-bcb8-4ab8-a46d-ed4617ce9b16","system_id":"levelo_inurba_marseille","lat":43.31704,"lon":5.37786,"is_reserved":false,"is_disabled":false,"rental_uris":{"android":"levelo://app?vid=c8e305c3-bcb8-4ab8-a46d-ed4617ce9b16","ios":"levelo://app?vid=c8e305c3-bcb8-4ab8-a46d-ed4617ce9b16"},"vehicle_type_id":"4","last_reported":1758877859,"current_range_meters":12000,"station_id":"ce4bgth2rcd13ifvqch0","pricing_plan_id":"cebpf4jnsgd1na2vs0mg"},{"bike_id":"99aec3fd-38e8-433a-8b41-16e4e4589de6","system_id":"levelo_inurba_marseille","lat":43.337444,"lon":5.374475,"is_reserved":false,"is_disabled":false,"rental_uris":{"android":"levelo://app?vid=99aec3fd-38e8-433a-8b41-16e4e4589de6","ios":"levelo://app?vid=99aec3fd-38e8-433a-8b41-16e4e4589de6"},"vehicle_type_id":"4","last_reported":1758877859,"current_range_meters":12000,"station_id":"ce4bhih2rcd13ifvqfs0","pricing_plan_id":"cebpf4jnsgd1na2vs0mg"},{"bike_id":"e26173ee-3fef-4c94-9553-9df8fbf2467b","system_id":"levelo_inurba_marseille","lat":43.25503,"lon":5.37641,"is_reserved":false,"is_disabled":false,"rental_uris":{"android":"levelo://app?vid=e26173ee-3fef-4c94-9553-9df8fbf2467b","ios":"levelo://app?vid=e26173ee-3fef-4c94-9553-9df8fbf2467b"},"vehicle_type_id":"4","last_reported":1758877859,"current_range_meters":12000,"station_id":"ce4bhh12rcd13ifvqff0","pricing_plan_id":"cebpf4jnsgd1na2vs0mg"},{"bike_id":"d8ba8ee6-367f-42a1-8c68-e1d4e0be4dd9","system_id":"levelo_inurba_marseille","lat":43.30537,"lon":5.36543,"is_reserved":false,"is_disabled":false,"rental_uris":{"android":"levelo://app?vid=d8ba8ee6-367f-42a1-8c68-e1d4e0be4dd9","ios":"levelo://app?vid=d8ba8ee6-367f-42a1-8c68-e1d4e0be4dd9"},"vehicle_type_id":"4","last_reported":1758877859,"current_range_meters":12000,"station_id":"ce4bgs12rcd13ifvqcag","pricing_plan_id":"cebpf4jnsgd1na2vs0mg"},{"bike_id":"39e6b2d7-e7bc-4366-8a01-87bc46855564","system_id":"levelo_inurba_marseille","lat":43.32144,"lon":5.36806,"is_reserved":false,"is_disabled":false,"rental_uris":{"android":"levelo://app?vid=39e6b2d7-e7bc-4366-8a01-87bc46855564","ios":"levelo://app?vid=39e6b2d7-e7bc-4366-8a01-87bc46855564"},"vehicle_type_id":"4","last_reported":1758877859,"current_range_meters":12000,"station_id":"","pricing_plan_id":"cebpf4jnsgd1na2vs0mg"},{"bike_id":"f3c5f598-e12d-4211-b749-11b51d760ccb","system_id":"levelo_inurba_marseille","lat":43.30147,"lon":5.38084,"is_reserved":false,"is_disabled":false,"rental_uris":{"android":"levelo://app?vid=f3c5f598-e12d-4211-b749-11b51d760ccb","ios":"levelo://app?vid=f3c5f598-e12d-4211-b749-11b51d760ccb"},"vehicle_type_id":"4","last_reported":1758877859,"current_range_meters":12400,"station_id":"ce4bgjp2rcd13ifvqbh0","pricing_plan_id":"cebpf4jnsgd1na2vs0mg"},{"bike_id":"eac4c2bd-99ab-4907-bfeb-c05b4b6396ae","system_id":"levelo_inurba_marseille","lat":43.30763,"lon":5.42446,"is_reserved":false,"is_disabled":false,"rental_uris":{"android":"levelo://app?vid=eac4c2bd-99ab-4907-bfeb-c05b4b6396ae","ios":"levelo://app?vid=eac4c2bd-99ab-4907-bfeb-c05b4b6396ae"},"vehicle_type_id":"4","last_reported":1758877859,"current_range_meters":12400,"station_id":"ce4bhp92rcd13ifvqhag","pricing_plan_id":"cebpf4jnsgd1na2vs0mg"},{"bike_id":"b0934032-3d3c-44e1-985e-e72b8cee3491","system_id":"levelo_inurba_marseille","lat":43.24619,"lon":5.43138,"is_reserved":false,"is_disabled":false,"rental_uris":{"android":"levelo://app?vid=b0934032-3d3c-44e1-985e-e72b8cee3491","ios":"levelo://app?vid=b0934032-3d3c-44e1-985e-e72b8cee3491"},"vehicle_type_id":"4","last_reported":1758877859,"current_range_meters":12400,"station_id":"st_d2m6c4gdas8pm72e190g","pricing_plan_id":"cebpf4jnsgd1na2vs0mg"},{"bike_id":"e3c0a4eb-6f1c-4fb8-a42e-cd36b7a00c1c","system_id":"levelo_inurba_marseille","lat":43.2721,"lon":5.39181,"is_reserved":false,"is_disabled":false,"rental_uris":{"android":"levelo://app?vid=e3c0a4eb-6f1c-4fb8-a42e-cd36b7a00c1c","ios":"levelo://app?vid=e3c0a4eb-6f1c-4fb8-a42e-cd36b7a00c1c"},"vehicle_type_id":"4","last_reported":1758877859,"current_range_meters":12400,"station_id":"ce4bhhp2rcd13ifvqfm0","pricing_plan_id":"cebpf4jnsgd1na2vs0mg"},{"bike_id":"0ef81889-2d7f-4e70-b480-0b08f55cbfba","system_id":"levelo_inurba_marseille","lat":43.30827,"lon":5.3686,"is_reserved":false,"is_disabled":false,"rental_uris":{"android":"levelo://app?vid=0ef81889-2d7f-4e70-b480-0b08f55cbfba","ios":"levelo://app?vid=0ef81889-2d7f-4e70-b480-0b08f55cbfba"},"vehicle_type_id":"4","last_reported":1758877859,"current_range_meters":12400,"station_id":"","pricing_plan_id":"cebpf4jnsgd1na2vs0mg"},{"bike_id":"358b5bd0-bd1a-4b9c-b0d1-08dbb5ab85b3","system_id":"levelo_inurba_marseille","lat":43.27031,"lon":5.40289,"is_reserved":false,"is_disabled":false,"rental_uris":{"android":"levelo://app?vid=358b5bd0-bd1a-4b9c-b0d1-08dbb5ab85b3","ios":"levelo://app?vid=358b5bd0-bd1a-4b9c-b0d1-08dbb5ab85b3"},"vehicle_type_id":"4","last_reported":1758877859,"current_range_meters":12800,"station_id":"ce4bhk92rcd13ifvqgc0","pricing_plan_id":"cebpf4jnsgd1na2vs0mg"},{"bike_id":"b01b5bc6-6834-41fb-be97-f5b6fb7e9ec8","system_id":"levelo_inurba_marseille","lat":43.26296,"lon":5.39796,"is_reserved":false,"is_disabled":false,"rental_uris":{"android":"levelo://app?vid=b01b5bc6-6834-41fb-be97-f5b6fb7e9ec8","ios":"levelo://app?vid=b01b5bc6-6834-41fb-be97-f5b6fb7e9ec8"},"vehicle_type_id":"4","last_reported":1758877859,"current_range_meters":12800,"station_id":"","pricing_plan_id":"cebpf4jnsgd1na2vs0mg"},{"bike_id":"63eacffa-316c-48cb-8afd-21bd56b0a35a","system_id":"levelo_inurba_marseille","lat":43.30147,"lon":5.38081,"is_reserved":false,"is_disabled":false,"rental_uris":{"android":"levelo://app?vid=63eacffa-316c-48cb-8afd-21bd56b0a35a","ios":"levelo://app?vid=63eacffa-316c-48cb-8afd-21bd56b0a35a"},"vehicle_type_id":"4","last_reported":1758877859,"current_range_meters":12800,"station_id":"ce4bgjp2rcd13ifvqbh0","pricing_plan_id":"cebpf4jnsgd1na2vs0mg"},{"bike_id":"822799c4-b038-453c-ba8c-512b321c2451","system_id":"levelo_inurba_marseille","lat":43.27665,"lon":5.38885,"is_reserved":false,"is_disabled":false,"rental_uris":{"android":"levelo://app?vid=822799c4-b038-453c-ba8c-512b321c2451","ios":"levelo://app?vid=822799c4-b038-453c-ba8c-512b321c2451"},"vehicle_type_id":"4","last_reported":1758877859,"current_range_meters":12400,"station_id":"ce4bhi12rcd13ifvqfo0","pricing_plan_id":"cebpf4jnsgd1na2vs0mg"},{"bike_id":"a57b3feb-2354-42fe-87fd-e8fcee3a0260","system_id":"levelo_inurba_marseille","lat":43.26953,"lon":5.40241,"is_reserved":false,"is_disabled":false,"rental_uris":{"android":"levelo://app?vid=a57b3feb-2354-42fe-87fd-e8fcee3a0260","ios":"levelo://app?vid=a57b3feb-2354-42fe-87fd-e8fcee3a0260"},"vehicle_type_id":"4","last_reported":1758877859,"current_range_meters":12800,"station_id":"","pricing_plan_id":"cebpf4jnsgd1na2vs0mg"},{"bike_id":"3c25e8ce-2870-4cf9-9c4b-12067a666c0d","system_id":"levelo_inurba_marseille","lat":43.30551,"lon":5.36528,"is_reserved":false,"is_disabled":false,"rental_uris":{"android":"levelo://app?vid=3c25e8ce-2870-4cf9-9c4b-12067a666c0d","ios":"levelo://app?vid=3c25e8ce-2870-4cf9-9c4b-12067a666c0d"},"vehicle_type_id":"4","last_reported":1758877859,"current_range_meters":12800,"station_id":"","pricing_plan_id":"cebpf4jnsgd1na2vs0mg"},{"bike_id":"ee124155-ef0d-4315-80a9-5213c1854ff7","system_id":"levelo_inurba_marseille","lat":43.293745,"lon":5.378576,"is_reserved":false,"is_disabled":false,"rental_uris":{"android":"levelo://app?vid=ee124155-ef0d-4315-80a9-5213c1854ff7","ios":"levelo://app?vid=ee124155-ef0d-4315-80a9-5213c1854ff7"},"vehicle_type_id":"4","last_reported":1758877859,"current_range_meters":13600,"station_id":"ce4bgjh2rcd13ifvqbf0","pricing_plan_id":"cebpf4jnsgd1na2vs0mg"},{"bike_id":"75611fb7-df45-4d9f-9db0-a181136cc424","system_id":"levelo_inurba_marseille","lat":43.21752,"lon":5.34603,"is_reserved":false,"is_disabled":true,"rental_uris":{"android":"levelo://app?vid=75611fb7-df45-4d9f-9db0-a181136cc424","ios":"levelo://app?vid=75611fb7-df45-4d9f-9db0-a181136cc424"},"vehicle_type_id":"4","last_reported":1758877859,"current_range_meters":13600,"station_id":"st_cvj6r9ubvosntc0bgbag","pricing_plan_id":"cebpf4jnsgd1na2vs0mg"},{"bike_id":"631e1cac-3f83-4f8c-8dfa-5a2cd4abd030","system_id":"levelo_inurba_marseille","lat":43.30551,"lon":5.36553,"is_reserved":false,"is_disabled":false,"rental_uris":{"android":"levelo://app?vid=631e1cac-3f83-4f8c-8dfa-5a2cd4abd030","ios":"levelo://app?vid=631e1cac-3f83-4f8c-8dfa-5a2cd4abd030"},"vehicle_type_id":"4","last_reported":1758877859,"current_range_meters":13600,"station_id":"ce4bgs12rcd13ifvqcag","pricing_plan_id":"cebpf4jnsgd1na2vs0mg"},{"bike_id":"b4f47bc1-4d12-4541-a757-a859819c9d1c","system_id":"levelo_inurba_marseille","lat":43.276802,"lon":5.388803,"is_reserved":false,"is_disabled":false,"rental_uris":{"android":"levelo://app?vid=b4f47bc1-4d12-4541-a757-a859819c9d1c","ios":"levelo://app?vid=b4f47bc1-4d12-4541-a757-a859819c9d1c"},"vehicle_type_id":"4","last_reported":1758877859,"current_range_meters":13600,"station_id":"","pricing_plan_id":"cebpf4jnsgd1na2vs0mg"},{"bike_id":"377142cb-267c-494b-99d9-6fe238c4e676","system_id":"levelo_inurba_marseille","lat":43.30975,"lon":5.40795,"is_reserved":false,"is_disabled":false,"rental_uris":{"android":"levelo://app?vid=377142cb-267c-494b-99d9-6fe238c4e676","ios":"levelo://app?vid=377142cb-267c-494b-99d9-6fe238c4e676"},"vehicle_type_id":"4","last_reported":1758877859,"current_range_meters":13600,"station_id":"","pricing_plan_id":"cebpf4jnsgd1na2vs0mg"},{"bike_id":"41cfb404-a246-4ca2-b7a6-1f89b85dc9db","system_id":"levelo_inurba_marseille","lat":43.30177,"lon":5.3739,"is_reserved":false,"is_disabled":false,"rental_uris":{"android":"levelo://app?vid=41cfb404-a246-4ca2-b7a6-1f89b85dc9db","ios":"levelo://app?vid=41cfb404-a246-4ca2-b7a6-1f89b85dc9db"},"vehicle_type_id":"4","last_reported":1758877859,"current_range_meters":13600,"station_id":"ce4bgs92rcd13ifvqcc0","pricing_plan_id":"cebpf4jnsgd1na2vs0mg"},{"bike_id":"bab5c8ab-1744-44be-8b82-d05f0a54ce02","system_id":"levelo_inurba_marseille","lat":43.32368,"lon":5.38887,"is_reserved":false,"is_disabled":false,"rental_uris":{"android":"levelo://app?vid=bab5c8ab-1744-44be-8b82-d05f0a54ce02","ios":"levelo://app?vid=bab5c8ab-1744-44be-8b82-d05f0a54ce02"},"vehicle_type_id":"4","last_reported":1758877859,"current_range_meters":14000,"station_id":"ce4bhqp2rcd13ifvqhog","pricing_plan_id":"cebpf4jnsgd1na2vs0mg"},{"bike_id":"280349c2-7d75-4732-844a-272770d12d07","system_id":"levelo_inurba_marseille","lat":43.2494,"lon":5.40495,"is_reserved":false,"is_disabled":false,"rental_uris":{"android":"levelo://app?vid=280349c2-7d75-4732-844a-272770d12d07","ios":"levelo://app?vid=280349c2-7d75-4732-844a-272770d12d07"},"vehicle_type_id":"4","last_reported":1758877859,"current_range_meters":14000,"station_id":"st_d2ngiaodas8pm72gd1h0","pricing_plan_id":"cebpf4jnsgd1na2vs0mg"},{"bike_id":"8baeac13-7e80-456d-83aa-12e0372d0df5","system_id":"levelo_inurba_marseille","lat":43.32462,"lon":5.3755,"is_reserved":false,"is_disabled":false,"rental_uris":{"android":"levelo://app?vid=8baeac13-7e80-456d-83aa-12e0372d0df5","ios":"levelo://app?vid=8baeac13-7e80-456d-83aa-12e0372d0df5"},"vehicle_type_id":"4","last_reported":1758877859,"current_range_meters":14000,"station_id":"","pricing_plan_id":"cebpf4jnsgd1na2vs0mg"},{"bike_id":"94ba89e8-8d01-444a-8b8e-9312915d619e","system_id":"levelo_inurba_marseille","lat":43.30305,"lon":5.36915,"is_reserved":false,"is_disabled":false,"rental_uris":{"android":"levelo://app?vid=94ba89e8-8d01-444a-8b8e-9312915d619e","ios":"levelo://app?vid=94ba89e8-8d01-444a-8b8e-9312915d619e"},"vehicle_type_id":"4","last_reported":1758877859,"current_range_meters":14400,"station_id":"ce4bgqh2rcd13ifvqc5g","pricing_plan_id":"cebpf4jnsgd1na2vs0mg"},{"bike_id":"df649d25-1f44-4471-8cdd-9566da8ef9b9","system_id":"levelo_inurba_marseille","lat":43.321588,"lon":5.387908,"is_reserved":false,"is_disabled":false,"rental_uris":{"android":"levelo://app?vid=df649d25-1f44-4471-8cdd-9566da8ef9b9","ios":"levelo://app?vid=df649d25-1f44-4471-8cdd-9566da8ef9b9"},"vehicle_type_id":"4","last_reported":1758877859,"current_range_meters":14400,"station_id":"","pricing_plan_id":"cebpf4jnsgd1na2vs0mg"},{"bike_id":"08fe2b08-b3fa-43f8-ae73-04061f76318d","system_id":"levelo_inurba_marseille","lat":43.305552,"lon":5.365395,"is_reserved":false,"is_disabled":false,"rental_uris":{"android":"levelo://app?vid=08fe2b08-b3fa-43f8-ae73-04061f76318d","ios":"levelo://app?vid=08fe2b08-b3fa-43f8-ae73-04061f76318d"},"vehicle_type_id":"4","last_reported":1758877859,"current_range_meters":14400,"station_id":"","pricing_plan_id":"cebpf4jnsgd1na2vs0mg"},{"bike_id":"202aaa43-17e8-4e6a-bcb3-6b375e35854c","system_id":"levelo_inurba_marseille","lat":43.26782,"lon":5.39422,"is_reserved":false,"is_disabled":false,"rental_uris":{"android":"levelo://app?vid=202aaa43-17e8-4e6a-bcb3-6b375e35854c","ios":"levelo://app?vid=202aaa43-17e8-4e6a-bcb3-6b375e35854c"},"vehicle_type_id":"4","last_reported":1758877859,"current_range_meters":14400,"station_id":"ce4bhh12rcd13ifvqfg0","pricing_plan_id":"cebpf4jnsgd1na2vs0mg"},{"bike_id":"1d5d14cf-15e7-4470-bff9-613bb9abe120","system_id":"levelo_inurba_marseille","lat":43.33506,"lon":5.42064,"is_reserved":false,"is_disabled":false,"rental_uris":{"android":"levelo://app?vid=1d5d14cf-15e7-4470-bff9-613bb9abe120","ios":"levelo://app?vid=1d5d14cf-15e7-4470-bff9-613bb9abe120"},"vehicle_type_id":"4","last_reported":1758877859,"current_range_meters":14400,"station_id":"","pricing_plan_id":"cebpf4jnsgd1na2vs0mg"},{"bike_id":"cf7b5031-5654-4bcd-acd7-472ef188dbaf","system_id":"levelo_inurba_marseille","lat":43.23138,"lon":5.43711,"is_reserved":false,"is_disabled":false,"rental_uris":{"android":"levelo://app?vid=cf7b5031-5654-4bcd-acd7-472ef188dbaf","ios":"levelo://app?vid=cf7b5031-5654-4bcd-acd7-472ef188dbaf"},"vehicle_type_id":"4","last_reported":1758877859,"current_range_meters":14000,"station_id":"ce4bhmp2rcd13ifvqgog","pricing_plan_id":"cebpf4jnsgd1na2vs0mg"},{"bike_id":"10b8d871-07e9-4114-9eb9-6bcce40e7beb","system_id":"levelo_inurba_marseille","lat":43.27045,"lon":5.392226,"is_reserved":false,"is_disabled":false,"rental_uris":{"android":"levelo://app?vid=10b8d871-07e9-4114-9eb9-6bcce40e7beb","ios":"levelo://app?vid=10b8d871-07e9-4114-9eb9-6bcce40e7beb"},"vehicle_type_id":"4","last_reported":1758877859,"current_range_meters":14400,"station_id":"ce4bhe12rcd13ifvqf30","pricing_plan_id":"cebpf4jnsgd1na2vs0mg"},{"bike_id":"ba0c4d1a-2b5f-4911-a210-fd283f866645","system_id":"levelo_inurba_marseille","lat":43.2756,"lon":5.38426,"is_reserved":false,"is_disabled":false,"rental_uris":{"android":"levelo://app?vid=ba0c4d1a-2b5f-4911-a210-fd283f866645","ios":"levelo://app?vid=ba0c4d1a-2b5f-4911-a210-fd283f866645"},"vehicle_type_id":"4","last_reported":1758877859,"current_range_meters":14000,"station_id":"ce4bhh92rcd13ifvqfi0","pricing_plan_id":"cebpf4jnsgd1na2vs0mg"},{"bike_id":"5d944089-7d4d-485d-8e5e-fe9c9b3dd7de","system_id":"levelo_inurba_marseille","lat":43.22543,"lon":5.41647,"is_reserved":false,"is_disabled":false,"rental_uris":{"android":"levelo://app?vid=5d944089-7d4d-485d-8e5e-fe9c9b3dd7de","ios":"levelo://app?vid=5d944089-7d4d-485d-8e5e-fe9c9b3dd7de"},"vehicle_type_id":"4","last_reported":1758877859,"current_range_meters":14400,"station_id":"st_d2o4gvlbi1j2169b742g","pricing_plan_id":"cebpf4jnsgd1na2vs0mg"},{"bike_id":"cce64833-654b-4856-8ea7-f8256375b2be","system_id":"levelo_inurba_marseille","lat":43.302584,"lon":5.40076,"is_reserved":false,"is_disabled":false,"rental_uris":{"android":"levelo://app?vid=cce64833-654b-4856-8ea7-f8256375b2be","ios":"levelo://app?vid=cce64833-654b-4856-8ea7-f8256375b2be"},"vehicle_type_id":"4","last_reported":1758877859,"current_range_meters":14800,"station_id":"ce4bgvh2rcd13ifvqcs0","pricing_plan_id":"cebpf4jnsgd1na2vs0mg"},{"bike_id":"f9e21fc1-be7d-42a8-9eff-6458e73f3db9","system_id":"levelo_inurba_marseille","lat":43.3235,"lon":5.36711,"is_reserved":false,"is_disabled":false,"rental_uris":{"android":"levelo://app?vid=f9e21fc1-be7d-42a8-9eff-6458e73f3db9","ios":"levelo://app?vid=f9e21fc1-be7d-42a8-9eff-6458e73f3db9"},"vehicle_type_id":"4","last_reported":1758877859,"current_range_meters":14800,"station_id":"ce4bhsh2rcd13ifvqi2g","pricing_plan_id":"cebpf4jnsgd1na2vs0mg"},{"bike_id":"572b1868-0ac6-46f9-bdde-5f249b8a089d","system_id":"levelo_inurba_marseille","lat":43.29895,"lon":5.37475,"is_reserved":false,"is_disabled":false,"rental_uris":{"android":"levelo://app?vid=572b1868-0ac6-46f9-bdde-5f249b8a089d","ios":"levelo://app?vid=572b1868-0ac6-46f9-bdde-5f249b8a089d"},"vehicle_type_id":"4","last_reported":1758877859,"current_range_meters":14800,"station_id":"ce4bgjh2rcd13ifvqbg0","pricing_plan_id":"cebpf4jnsgd1na2vs0mg"},{"bike_id":"0ab91c66-4446-45e7-a295-03ae6b7a6521","system_id":"levelo_inurba_marseille","lat":43.30956,"lon":5.39057,"is_reserved":false,"is_disabled":false,"rental_uris":{"android":"levelo://app?vid=0ab91c66-4446-45e7-a295-03ae6b7a6521","ios":"levelo://app?vid=0ab91c66-4446-45e7-a295-03ae6b7a6521"},"vehicle_type_id":"4","last_reported":1758877859,"current_range_meters":15200,"station_id":"ce4bgup2rcd13ifvqco0","pricing_plan_id":"cebpf4jnsgd1na2vs0mg"},{"bike_id":"9b37d253-f02b-4d90-8eb8-bb3d15b1603b","system_id":"levelo_inurba_marseille","lat":43.26982,"lon":5.38623,"is_reserved":false,"is_disabled":false,"rental_uris":{"android":"levelo://app?vid=9b37d253-f02b-4d90-8eb8-bb3d15b1603b","ios":"levelo://app?vid=9b37d253-f02b-4d90-8eb8-bb3d15b1603b"},"vehicle_type_id":"4","last_reported":1758877859,"current_range_meters":15200,"station_id":"ce4bhh92rcd13ifvqfh0","pricing_plan_id":"cebpf4jnsgd1na2vs0mg"},{"bike_id":"6ff62d79-81a4-487f-8694-4fb22f54a494","system_id":"levelo_inurba_marseille","lat":43.32526,"lon":5.39128,"is_reserved":false,"is_disabled":false,"rental_uris":{"android":"levelo://app?vid=6ff62d79-81a4-487f-8694-4fb22f54a494","ios":"levelo://app?vid=6ff62d79-81a4-487f-8694-4fb22f54a494"},"vehicle_type_id":"4","last_reported":1758877859,"current_range_meters":15200,"station_id":"","pricing_plan_id":"cebpf4jnsgd1na2vs0mg"},{"bike_id":"467b4306-5fd8-484e-9a4b-cf8eb50151ba","system_id":"levelo_inurba_marseille","lat":43.3231,"lon":5.38283,"is_reserved":false,"is_disabled":false,"rental_uris":{"android":"levelo://app?vid=467b4306-5fd8-484e-9a4b-cf8eb50151ba","ios":"levelo://app?vid=467b4306-5fd8-484e-9a4b-cf8eb50151ba"},"vehicle_type_id":"4","last_reported":1758877859,"current_range_meters":16000,"station_id":"ce4bhr12rcd13ifvqhqg","pricing_plan_id":"cebpf4jnsgd1na2vs0mg"},{"bike_id":"08292ac0-f4a0-4778-9703-5ac015ee1e3a","system_id":"levelo_inurba_marseille","lat":43.246217,"lon":5.431517,"is_reserved":false,"is_disabled":false,"rental_uris":{"android":"levelo://app?vid=08292ac0-f4a0-4778-9703-5ac015ee1e3a","ios":"levelo://app?vid=08292ac0-f4a0-4778-9703-5ac015ee1e3a"},"vehicle_type_id":"4","last_reported":1758877859,"current_range_meters":16000,"station_id":"st_d2m6c4gdas8pm72e190g","pricing_plan_id":"cebpf4jnsgd1na2vs0mg"},{"bike_id":"47b9cece-62de-43f0-80d8-9147224e7ea6","system_id":"levelo_inurba_marseille","lat":43.30154,"lon":5.38105,"is_reserved":false,"is_disabled":false,"rental_uris":{"android":"levelo://app?vid=47b9cece-62de-43f0-80d8-9147224e7ea6","ios":"levelo://app?vid=47b9cece-62de-43f0-80d8-9147224e7ea6"},"vehicle_type_id":"4","last_reported":1758877859,"current_range_meters":16000,"station_id":"ce4bgjp2rcd13ifvqbh0","pricing_plan_id":"cebpf4jnsgd1na2vs0mg"},{"bike_id":"875cf483-9ed0-4550-8fcf-94b1c191fd1a","system_id":"levelo_inurba_marseille","lat":43.29876,"lon":5.38904,"is_reserved":false,"is_disabled":false,"rental_uris":{"android":"levelo://app?vid=875cf483-9ed0-4550-8fcf-94b1c191fd1a","ios":"levelo://app?vid=875cf483-9ed0-4550-8fcf-94b1c191fd1a"},"vehicle_type_id":"4","last_reported":1758877859,"current_range_meters":15200,"station_id":"ce4bh392rcd13ifvqdl0","pricing_plan_id":"cebpf4jnsgd1na2vs0mg"},{"bike_id":"9d95f00f-b6a6-4086-8204-e717c98b9cfc","system_id":"levelo_inurba_marseille","lat":43.24063,"lon":5.3772,"is_reserved":false,"is_disabled":false,"rental_uris":{"android":"levelo://app?vid=9d95f00f-b6a6-4086-8204-e717c98b9cfc","ios":"levelo://app?vid=9d95f00f-b6a6-4086-8204-e717c98b9cfc"},"vehicle_type_id":"4","last_reported":1758877859,"current_range_meters":16000,"station_id":"ce4bhnp2rcd13ifvqgvg","pricing_plan_id":"cebpf4jnsgd1na2vs0mg"},{"bike_id":"9a4f92ed-e086-4038-a651-bbe0613f80bd","system_id":"levelo_inurba_marseille","lat":43.22562,"lon":5.41633,"is_reserved":false,"is_disabled":false,"rental_uris":{"android":"levelo://app?vid=9a4f92ed-e086-4038-a651-bbe0613f80bd","ios":"levelo://app?vid=9a4f92ed-e086-4038-a651-bbe0613f80bd"},"vehicle_type_id":"4","last_reported":1758877859,"current_range_meters":16000,"station_id":"st_d2o4gvlbi1j2169b742g","pricing_plan_id":"cebpf4jnsgd1na2vs0mg"},{"bike_id":"46a648bf-42a5-4fc5-b881-b77e8e43b612","system_id":"levelo_inurba_marseille","lat":43.22921,"lon":5.35381,"is_reserved":false,"is_disabled":false,"rental_uris":{"android":"levelo://app?vid=46a648bf-42a5-4fc5-b881-b77e8e43b612","ios":"levelo://app?vid=46a648bf-42a5-4fc5-b881-b77e8e43b612"},"vehicle_type_id":"4","last_reported":1758877859,"current_range_meters":16000,"station_id":"cpo3532slgdg3j2ikp40","pricing_plan_id":"cebpf4jnsgd1na2vs0mg"},{"bike_id":"0064974e-02bb-40bc-8149-ba249ea4de7d","system_id":"levelo_inurba_marseille","lat":43.30538,"lon":5.36554,"is_reserved":false,"is_disabled":false,"rental_uris":{"android":"levelo://app?vid=0064974e-02bb-40bc-8149-ba249ea4de7d","ios":"levelo://app?vid=0064974e-02bb-40bc-8149-ba249ea4de7d"},"vehicle_type_id":"4","last_reported":1758877859,"current_range_meters":16000,"station_id":"ce4bgs12rcd13ifvqcag","pricing_plan_id":"cebpf4jnsgd1na2vs0mg"},{"bike_id":"b2fc922b-ff47-4f68-9531-9abaa818a9ad","system_id":"levelo_inurba_marseille","lat":43.24942,"lon":5.40486,"is_reserved":false,"is_disabled":false,"rental_uris":{"android":"levelo://app?vid=b2fc922b-ff47-4f68-9531-9abaa818a9ad","ios":"levelo://app?vid=b2fc922b-ff47-4f68-9531-9abaa818a9ad"},"vehicle_type_id":"4","last_reported":1758877859,"current_range_meters":16000,"station_id":"st_d2ngiaodas8pm72gd1h0","pricing_plan_id":"cebpf4jnsgd1na2vs0mg"},{"bike_id":"25d062aa-33f1-4075-b920-d72a8732b71f","system_id":"levelo_inurba_marseille","lat":43.29104,"lon":5.3813,"is_reserved":false,"is_disabled":false,"rental_uris":{"android":"levelo://app?vid=25d062aa-33f1-4075-b920-d72a8732b71f","ios":"levelo://app?vid=25d062aa-33f1-4075-b920-d72a8732b71f"},"vehicle_type_id":"4","last_reported":1758877859,"current_range_meters":16000,"station_id":"ce4bh512rcd13ifvqe2g","pricing_plan_id":"cebpf4jnsgd1na2vs0mg"},{"bike_id":"59cd2745-08b3-48eb-acaf-6a19698cf7d0","system_id":"levelo_inurba_marseille","lat":43.24998,"lon":5.38934,"is_reserved":false,"is_disabled":false,"rental_uris":{"android":"levelo://app?vid=59cd2745-08b3-48eb-acaf-6a19698cf7d0","ios":"levelo://app?vid=59cd2745-08b3-48eb-acaf-6a19698cf7d0"},"vehicle_type_id":"4","last_reported":1758877859,"current_range_meters":16000,"station_id":"ce4bhgp2rcd13ifvqfd0","pricing_plan_id":"cebpf4jnsgd1na2vs0mg"},{"bike_id":"302b1b63-9aba-4bec-b226-c99f0eb92cff","system_id":"levelo_inurba_marseille","lat":43.246641,"lon":5.381664,"is_reserved":false,"is_disabled":false,"rental_uris":{"android":"levelo://app?vid=302b1b63-9aba-4bec-b226-c99f0eb92cff","ios":"levelo://app?vid=302b1b63-9aba-4bec-b226-c99f0eb92cff"},"vehicle_type_id":"4","last_reported":1758877859,"current_range_meters":16400,"station_id":"","pricing_plan_id":"cebpf4jnsgd1na2vs0mg"},{"bike_id":"fd18a301-a9dd-4600-afce-c6b935fa8b40","system_id":"levelo_inurba_marseille","lat":43.2619,"lon":5.37446,"is_reserved":false,"is_disabled":false,"rental_uris":{"android":"levelo://app?vid=fd18a301-a9dd-4600-afce-c6b935fa8b40","ios":"levelo://app?vid=fd18a301-a9dd-4600-afce-c6b935fa8b40"},"vehicle_type_id":"4","last_reported":1758877859,"current_range_meters":16400,"station_id":"ce4bhgp2rcd13ifvqfc0","pricing_plan_id":"cebpf4jnsgd1na2vs0mg"},{"bike_id":"6dac0028-53fe-4753-b1a1-56900bf42087","system_id":"levelo_inurba_marseille","lat":43.30247,"lon":5.4005,"is_reserved":false,"is_disabled":true,"rental_uris":{"android":"levelo://app?vid=6dac0028-53fe-4753-b1a1-56900bf42087","ios":"levelo://app?vid=6dac0028-53fe-4753-b1a1-56900bf42087"},"vehicle_type_id":"4","last_reported":1758877859,"current_range_meters":16400,"station_id":"ce4bgvh2rcd13ifvqcs0","pricing_plan_id":"cebpf4jnsgd1na2vs0mg"},{"bike_id":"85782661-163d-4a8b-b5a4-1f0a766faaa2","system_id":"levelo_inurba_marseille","lat":43.24622,"lon":5.43154,"is_reserved":false,"is_disabled":false,"rental_uris":{"android":"levelo://app?vid=85782661-163d-4a8b-b5a4-1f0a766faaa2","ios":"levelo://app?vid=85782661-163d-4a8b-b5a4-1f0a766faaa2"},"vehicle_type_id":"4","last_reported":1758877859,"current_range_meters":16400,"station_id":"st_d2m6c4gdas8pm72e190g","pricing_plan_id":"cebpf4jnsgd1na2vs0mg"},{"bike_id":"b5b3cf7c-3cd2-468e-81f0-a3cad12404e6","system_id":"levelo_inurba_marseille","lat":43.25938,"lon":5.40903,"is_reserved":false,"is_disabled":false,"rental_uris":{"android":"levelo://app?vid=b5b3cf7c-3cd2-468e-81f0-a3cad12404e6","ios":"levelo://app?vid=b5b3cf7c-3cd2-468e-81f0-a3cad12404e6"},"vehicle_type_id":"4","last_reported":1758877859,"current_range_meters":16400,"station_id":"ce4bhm92rcd13ifvqglg","pricing_plan_id":"cebpf4jnsgd1na2vs0mg"},{"bike_id":"e438f743-9525-44aa-8cda-c8be3486e464","system_id":"levelo_inurba_marseille","lat":43.33603,"lon":5.41019,"is_reserved":false,"is_disabled":false,"rental_uris":{"android":"levelo://app?vid=e438f743-9525-44aa-8cda-c8be3486e464","ios":"levelo://app?vid=e438f743-9525-44aa-8cda-c8be3486e464"},"vehicle_type_id":"4","last_reported":1758877859,"current_range_meters":16400,"station_id":"ce4bhqh2rcd13ifvqhmg","pricing_plan_id":"cebpf4jnsgd1na2vs0mg"},{"bike_id":"d7191b47-34cf-4d97-8f4f-e2bec94abc80","system_id":"levelo_inurba_marseille","lat":43.270608,"lon":5.402542,"is_reserved":false,"is_disabled":false,"rental_uris":{"android":"levelo://app?vid=d7191b47-34cf-4d97-8f4f-e2bec94abc80","ios":"levelo://app?vid=d7191b47-34cf-4d97-8f4f-e2bec94abc80"},"vehicle_type_id":"4","last_reported":1758877859,"current_range_meters":16400,"station_id":"ce4bhk92rcd13ifvqgc0","pricing_plan_id":"cebpf4jnsgd1na2vs0mg"},{"bike_id":"fee74e98-eb52-4f66-a612-109c75f34aa6","system_id":"levelo_inurba_marseille","lat":43.29599,"lon":5.37948,"is_reserved":false,"is_disabled":false,"rental_uris":{"android":"levelo://app?vid=fee74e98-eb52-4f66-a612-109c75f34aa6","ios":"levelo://app?vid=fee74e98-eb52-4f66-a612-109c75f34aa6"},"vehicle_type_id":"4","last_reported":1758877859,"current_range_meters":16400,"station_id":"","pricing_plan_id":"cebpf4jnsgd1na2vs0mg"},{"bike_id":"ffb123f6-49c1-43c2-a6cc-d0daae11a604","system_id":"levelo_inurba_marseille","lat":43.32338,"lon":5.40619,"is_reserved":false,"is_disabled":false,"rental_uris":{"android":"levelo://app?vid=ffb123f6-49c1-43c2-a6cc-d0daae11a604","ios":"levelo://app?vid=ffb123f6-49c1-43c2-a6cc-d0daae11a604"},"vehicle_type_id":"4","last_reported":1758877859,"current_range_meters":16400,"station_id":"ce4bhq92rcd13ifvqhjg","pricing_plan_id":"cebpf4jnsgd1na2vs0mg"},{"bike_id":"6f6f1b6a-2b99-4473-b64d-b3c926ad1fc2","system_id":"levelo_inurba_marseille","lat":43.27911,"lon":5.39583,"is_reserved":false,"is_disabled":false,"rental_uris":{"android":"levelo://app?vid=6f6f1b6a-2b99-4473-b64d-b3c926ad1fc2","ios":"levelo://app?vid=6f6f1b6a-2b99-4473-b64d-b3c926ad1fc2"},"vehicle_type_id":"4","last_reported":1758877859,"current_range_meters":16400,"station_id":"ce4bhf92rcd13ifvqf40","pricing_plan_id":"cebpf4jnsgd1na2vs0mg"},{"bike_id":"2a416e7a-1803-402e-9523-74bfe690bd54","system_id":"levelo_inurba_marseille","lat":43.32365,"lon":5.36767,"is_reserved":false,"is_disabled":false,"rental_uris":{"android":"levelo://app?vid=2a416e7a-1803-402e-9523-74bfe690bd54","ios":"levelo://app?vid=2a416e7a-1803-402e-9523-74bfe690bd54"},"vehicle_type_id":"4","last_reported":1758877859,"current_range_meters":16400,"station_id":"ce4bhsh2rcd13ifvqi2g","pricing_plan_id":"cebpf4jnsgd1na2vs0mg"},{"bike_id":"175ed984-4779-4b98-920a-039ca300eaa4","system_id":"levelo_inurba_marseille","lat":43.27283,"lon":5.40812,"is_reserved":false,"is_disabled":false,"rental_uris":{"android":"levelo://app?vid=175ed984-4779-4b98-920a-039ca300eaa4","ios":"levelo://app?vid=175ed984-4779-4b98-920a-039ca300eaa4"},"vehicle_type_id":"4","last_reported":1758877859,"current_range_meters":16800,"station_id":"","pricing_plan_id":"cebpf4jnsgd1na2vs0mg"},{"bike_id":"43d3e43e-b792-4604-865a-4db1d5f5a46a","system_id":"levelo_inurba_marseille","lat":43.25101,"lon":5.39546,"is_reserved":false,"is_disabled":true,"rental_uris":{"android":"levelo://app?vid=43d3e43e-b792-4604-865a-4db1d5f5a46a","ios":"levelo://app?vid=43d3e43e-b792-4604-865a-4db1d5f5a46a"},"vehicle_type_id":"4","last_reported":1758877859,"current_range_meters":16800,"station_id":"ce4bhm12rcd13ifvqgkg","pricing_plan_id":"cebpf4jnsgd1na2vs0mg"},{"bike_id":"156612e1-3a5f-4ff9-a4a2-0a0bc87406e5","system_id":"levelo_inurba_marseille","lat":43.29964,"lon":5.38497,"is_reserved":false,"is_disabled":false,"rental_uris":{"android":"levelo://app?vid=156612e1-3a5f-4ff9-a4a2-0a0bc87406e5","ios":"levelo://app?vid=156612e1-3a5f-4ff9-a4a2-0a0bc87406e5"},"vehicle_type_id":"4","last_reported":1758877859,"current_range_meters":16800,"station_id":"ce4bgj92rcd13ifvqbd0","pricing_plan_id":"cebpf4jnsgd1na2vs0mg"},{"bike_id":"63d52c35-c9c9-44eb-9780-1b2f9145123b","system_id":"levelo_inurba_marseille","lat":43.29627,"lon":5.377037,"is_reserved":false,"is_disabled":false,"rental_uris":{"android":"levelo://app?vid=63d52c35-c9c9-44eb-9780-1b2f9145123b","ios":"levelo://app?vid=63d52c35-c9c9-44eb-9780-1b2f9145123b"},"vehicle_type_id":"4","last_reported":1758877859,"current_range_meters":16800,"station_id":"","pricing_plan_id":"cebpf4jnsgd1na2vs0mg"},{"bike_id":"fc0cd328-6320-49b4-9fc7-09a1e6c72fe7","system_id":"levelo_inurba_marseille","lat":43.29455,"lon":5.39752,"is_reserved":false,"is_disabled":false,"rental_uris":{"android":"levelo://app?vid=fc0cd328-6320-49b4-9fc7-09a1e6c72fe7","ios":"levelo://app?vid=fc0cd328-6320-49b4-9fc7-09a1e6c72fe7"},"vehicle_type_id":"4","last_reported":1758877859,"current_range_meters":16800,"station_id":"ce4bhhh2rcd13ifvqfl0","pricing_plan_id":"cebpf4jnsgd1na2vs0mg"},{"bike_id":"01bf55f2-4ac6-46f6-8504-3267bf31e1a6","system_id":"levelo_inurba_marseille","lat":43.2973,"lon":5.381787,"is_reserved":false,"is_disabled":false,"rental_uris":{"android":"levelo://app?vid=01bf55f2-4ac6-46f6-8504-3267bf31e1a6","ios":"levelo://app?vid=01bf55f2-4ac6-46f6-8504-3267bf31e1a6"},"vehicle_type_id":"4","last_reported":1758877859,"current_range_meters":16800,"station_id":"","pricing_plan_id":"cebpf4jnsgd1na2vs0mg"},{"bike_id":"c110996d-22e7-4035-9eef-b37954d27511","system_id":"levelo_inurba_marseille","lat":43.23192,"lon":5.35562,"is_reserved":false,"is_disabled":false,"rental_uris":{"android":"levelo://app?vid=c110996d-22e7-4035-9eef-b37954d27511","ios":"levelo://app?vid=c110996d-22e7-4035-9eef-b37954d27511"},"vehicle_type_id":"4","last_reported":1758877859,"current_range_meters":16400,"station_id":"ce4bhu92rcd13ifvqi70","pricing_plan_id":"cebpf4jnsgd1na2vs0mg"},{"bike_id":"50403fee-05b6-4f96-a764-c3716edce5ad","system_id":"levelo_inurba_marseille","lat":43.24076,"lon":5.37777,"is_reserved":false,"is_disabled":false,"rental_uris":{"android":"levelo://app?vid=50403fee-05b6-4f96-a764-c3716edce5ad","ios":"levelo://app?vid=50403fee-05b6-4f96-a764-c3716edce5ad"},"vehicle_type_id":"4","last_reported":1758877859,"current_range_meters":16800,"station_id":"ce4bhnp2rcd13ifvqgvg","pricing_plan_id":"cebpf4jnsgd1na2vs0mg"},{"bike_id":"784b90d5-b197-41a6-9913-ffc8b78f61e0","system_id":"levelo_inurba_marseille","lat":43.21189,"lon":5.35073,"is_reserved":false,"is_disabled":false,"rental_uris":{"android":"levelo://app?vid=784b90d5-b197-41a6-9913-ffc8b78f61e0","ios":"levelo://app?vid=784b90d5-b197-41a6-9913-ffc8b78f61e0"},"vehicle_type_id":"4","last_reported":1758877859,"current_range_meters":16800,"station_id":"","pricing_plan_id":"cebpf4jnsgd1na2vs0mg"},{"bike_id":"d2c76f28-de75-475b-a585-dd5fe8122538","system_id":"levelo_inurba_marseille","lat":43.24071,"lon":5.37759,"is_reserved":false,"is_disabled":false,"rental_uris":{"android":"levelo://app?vid=d2c76f28-de75-475b-a585-dd5fe8122538","ios":"levelo://app?vid=d2c76f28-de75-475b-a585-dd5fe8122538"},"vehicle_type_id":"4","last_reported":1758877859,"current_range_meters":16800,"station_id":"ce4bhnp2rcd13ifvqgvg","pricing_plan_id":"cebpf4jnsgd1na2vs0mg"},{"bike_id":"e307a051-653f-4f89-872d-d68d29289c5c","system_id":"levelo_inurba_marseille","lat":43.28221,"lon":5.3906,"is_reserved":false,"is_disabled":false,"rental_uris":{"android":"levelo://app?vid=e307a051-653f-4f89-872d-d68d29289c5c","ios":"levelo://app?vid=e307a051-653f-4f89-872d-d68d29289c5c"},"vehicle_type_id":"4","last_reported":1758877859,"current_range_meters":16800,"station_id":"ce4bhn92rcd13ifvqgsg","pricing_plan_id":"cebpf4jnsgd1na2vs0mg"},{"bike_id":"e8f1bb4b-6767-4e83-acee-3cdfa763a5ca","system_id":"levelo_inurba_marseille","lat":43.30561,"lon":5.36542,"is_reserved":false,"is_disabled":false,"rental_uris":{"android":"levelo://app?vid=e8f1bb4b-6767-4e83-acee-3cdfa763a5ca","ios":"levelo://app?vid=e8f1bb4b-6767-4e83-acee-3cdfa763a5ca"},"vehicle_type_id":"4","last_reported":1758877859,"current_range_meters":17200,"station_id":"ce4bgs12rcd13ifvqcag","pricing_plan_id":"cebpf4jnsgd1na2vs0mg"},{"bike_id":"c973dbb4-81a7-4731-a850-2666ddbc48bd","system_id":"levelo_inurba_marseille","lat":43.2815,"lon":5.42661,"is_reserved":false,"is_disabled":false,"rental_uris":{"android":"levelo://app?vid=c973dbb4-81a7-4731-a850-2666ddbc48bd","ios":"levelo://app?vid=c973dbb4-81a7-4731-a850-2666ddbc48bd"},"vehicle_type_id":"4","last_reported":1758877859,"current_range_meters":17200,"station_id":"ce4bhnh2rcd13ifvqgug","pricing_plan_id":"cebpf4jnsgd1na2vs0mg"},{"bike_id":"f2ece54b-e985-430c-bea9-812b02eca820","system_id":"levelo_inurba_marseille","lat":43.29031,"lon":5.35906,"is_reserved":false,"is_disabled":false,"rental_uris":{"android":"levelo://app?vid=f2ece54b-e985-430c-bea9-812b02eca820","ios":"levelo://app?vid=f2ece54b-e985-430c-bea9-812b02eca820"},"vehicle_type_id":"4","last_reported":1758877859,"current_range_meters":16800,"station_id":"ce4bha92rcd13ifvqeg0","pricing_plan_id":"cebpf4jnsgd1na2vs0mg"},{"bike_id":"6d074440-28c6-474c-b175-b6c55a9901d2","system_id":"levelo_inurba_marseille","lat":43.25862,"lon":5.39897,"is_reserved":false,"is_disabled":false,"rental_uris":{"android":"levelo://app?vid=6d074440-28c6-474c-b175-b6c55a9901d2","ios":"levelo://app?vid=6d074440-28c6-474c-b175-b6c55a9901d2"},"vehicle_type_id":"4","last_reported":1758877859,"current_range_meters":17200,"station_id":"ce4bhl92rcd13ifvqghg","pricing_plan_id":"cebpf4jnsgd1na2vs0mg"},{"bike_id":"c47381a3-5a4b-4844-b987-0207088305bf","system_id":"levelo_inurba_marseille","lat":43.307822,"lon":5.376494,"is_reserved":false,"is_disabled":false,"rental_uris":{"android":"levelo://app?vid=c47381a3-5a4b-4844-b987-0207088305bf","ios":"levelo://app?vid=c47381a3-5a4b-4844-b987-0207088305bf"},"vehicle_type_id":"4","last_reported":1758877859,"current_range_meters":17200,"station_id":"ce4bgv92rcd13ifvqcq0","pricing_plan_id":"cebpf4jnsgd1na2vs0mg"},{"bike_id":"3a722ba8-3e34-4960-a75b-22d080f8c311","system_id":"levelo_inurba_marseille","lat":43.24087,"lon":5.37756,"is_reserved":false,"is_disabled":false,"rental_uris":{"android":"levelo://app?vid=3a722ba8-3e34-4960-a75b-22d080f8c311","ios":"levelo://app?vid=3a722ba8-3e34-4960-a75b-22d080f8c311"},"vehicle_type_id":"4","last_reported":1758877859,"current_range_meters":17200,"station_id":"ce4bhnp2rcd13ifvqgvg","pricing_plan_id":"cebpf4jnsgd1na2vs0mg"},{"bike_id":"f7d02cdd-1af8-489d-84e6-2169828dbac6","system_id":"levelo_inurba_marseille","lat":43.30521,"lon":5.36697,"is_reserved":false,"is_disabled":false,"rental_uris":{"android":"levelo://app?vid=f7d02cdd-1af8-489d-84e6-2169828dbac6","ios":"levelo://app?vid=f7d02cdd-1af8-489d-84e6-2169828dbac6"},"vehicle_type_id":"4","last_reported":1758877859,"current_range_meters":17200,"station_id":"ce4bgrp2rcd13ifvqc9g","pricing_plan_id":"cebpf4jnsgd1na2vs0mg"},{"bike_id":"66d7338f-5df2-47d3-9ca4-acf9a7aae8f8","system_id":"levelo_inurba_marseille","lat":43.33605,"lon":5.4104,"is_reserved":false,"is_disabled":false,"rental_uris":{"android":"levelo://app?vid=66d7338f-5df2-47d3-9ca4-acf9a7aae8f8","ios":"levelo://app?vid=66d7338f-5df2-47d3-9ca4-acf9a7aae8f8"},"vehicle_type_id":"4","last_reported":1758877859,"current_range_meters":17200,"station_id":"ce4bhqh2rcd13ifvqhmg","pricing_plan_id":"cebpf4jnsgd1na2vs0mg"},{"bike_id":"ecde7416-5159-40e4-a639-87c55fad7fd9","system_id":"levelo_inurba_marseille","lat":43.231443,"lon":5.437127,"is_reserved":false,"is_disabled":false,"rental_uris":{"android":"levelo://app?vid=ecde7416-5159-40e4-a639-87c55fad7fd9","ios":"levelo://app?vid=ecde7416-5159-40e4-a639-87c55fad7fd9"},"vehicle_type_id":"4","last_reported":1758877859,"current_range_meters":17200,"station_id":"ce4bhmp2rcd13ifvqgog","pricing_plan_id":"cebpf4jnsgd1na2vs0mg"},{"bike_id":"695ac183-f275-407f-9172-52657984d0dc","system_id":"levelo_inurba_marseille","lat":43.26685,"lon":5.38272,"is_reserved":false,"is_disabled":true,"rental_uris":{"android":"levelo://app?vid=695ac183-f275-407f-9172-52657984d0dc","ios":"levelo://app?vid=695ac183-f275-407f-9172-52657984d0dc"},"vehicle_type_id":"4","last_reported":1758877859,"current_range_meters":17200,"station_id":"ce4bhg92rcd13ifvqf90","pricing_plan_id":"cebpf4jnsgd1na2vs0mg"},{"bike_id":"889259be-1a40-472d-babf-d9213822d385","system_id":"levelo_inurba_marseille","lat":43.24642,"lon":5.38885,"is_reserved":false,"is_disabled":false,"rental_uris":{"android":"levelo://app?vid=889259be-1a40-472d-babf-d9213822d385","ios":"levelo://app?vid=889259be-1a40-472d-babf-d9213822d385"},"vehicle_type_id":"4","last_reported":1758877859,"current_range_meters":17200,"station_id":"ce4bhg12rcd13ifvqf60","pricing_plan_id":"cebpf4jnsgd1na2vs0mg"},{"bike_id":"a31a71d7-1db7-4c20-b405-51e660cbe5ca","system_id":"levelo_inurba_marseille","lat":43.255829,"lon":5.382292,"is_reserved":false,"is_disabled":false,"rental_uris":{"android":"levelo://app?vid=a31a71d7-1db7-4c20-b405-51e660cbe5ca","ios":"levelo://app?vid=a31a71d7-1db7-4c20-b405-51e660cbe5ca"},"vehicle_type_id":"4","last_reported":1758877859,"current_range_meters":17200,"station_id":"ce4bhih2rcd13ifvqfs0","pricing_plan_id":"cebpf4jnsgd1na2vs0mg"},{"bike_id":"41fbe864-b9c2-4b8a-a22b-e40ee788b52e","system_id":"levelo_inurba_marseille","lat":43.25082,"lon":5.39524,"is_reserved":false,"is_disabled":false,"rental_uris":{"android":"levelo://app?vid=41fbe864-b9c2-4b8a-a22b-e40ee788b52e","ios":"levelo://app?vid=41fbe864-b9c2-4b8a-a22b-e40ee788b52e"},"vehicle_type_id":"4","last_reported":1758877859,"current_range_meters":17200,"station_id":"ce4bhm12rcd13ifvqgkg","pricing_plan_id":"cebpf4jnsgd1na2vs0mg"},{"bike_id":"8cf842e4-76c1-4a82-ad31-66529da65dba","system_id":"levelo_inurba_marseille","lat":43.26686,"lon":5.40225,"is_reserved":false,"is_disabled":false,"rental_uris":{"android":"levelo://app?vid=8cf842e4-76c1-4a82-ad31-66529da65dba","ios":"levelo://app?vid=8cf842e4-76c1-4a82-ad31-66529da65dba"},"vehicle_type_id":"4","last_reported":1758877859,"current_range_meters":17600,"station_id":"","pricing_plan_id":"cebpf4jnsgd1na2vs0mg"},{"bike_id":"ff80ace9-5bb1-4400-92db-811f67417271","system_id":"levelo_inurba_marseille","lat":43.2495,"lon":5.40485,"is_reserved":false,"is_disabled":false,"rental_uris":{"android":"levelo://app?vid=ff80ace9-5bb1-4400-92db-811f67417271","ios":"levelo://app?vid=ff80ace9-5bb1-4400-92db-811f67417271"},"vehicle_type_id":"4","last_reported":1758877859,"current_range_meters":17600,"station_id":"st_d2ngiaodas8pm72gd1h0","pricing_plan_id":"cebpf4jnsgd1na2vs0mg"},{"bike_id":"42f948d3-7023-4c53-aa3f-a682b5a0a210","system_id":"levelo_inurba_marseille","lat":43.299336,"lon":5.36546,"is_reserved":false,"is_disabled":false,"rental_uris":{"android":"levelo://app?vid=42f948d3-7023-4c53-aa3f-a682b5a0a210","ios":"levelo://app?vid=42f948d3-7023-4c53-aa3f-a682b5a0a210"},"vehicle_type_id":"4","last_reported":1758877859,"current_range_meters":17600,"station_id":"ce4bgm92rcd13ifvqbr0","pricing_plan_id":"cebpf4jnsgd1na2vs0mg"},{"bike_id":"7f09bc43-02a6-468a-9182-731c83281b4a","system_id":"levelo_inurba_marseille","lat":43.26328,"lon":5.37553,"is_reserved":false,"is_disabled":false,"rental_uris":{"android":"levelo://app?vid=7f09bc43-02a6-468a-9182-731c83281b4a","ios":"levelo://app?vid=7f09bc43-02a6-468a-9182-731c83281b4a"},"vehicle_type_id":"4","last_reported":1758877859,"current_range_meters":17600,"station_id":"","pricing_plan_id":"cebpf4jnsgd1na2vs0mg"},{"bike_id":"a14a6d56-c7c5-40a1-a945-22deb29543ce","system_id":"levelo_inurba_marseille","lat":43.287048,"lon":5.400059,"is_reserved":false,"is_disabled":true,"rental_uris":{"android":"levelo://app?vid=a14a6d56-c7c5-40a1-a945-22deb29543ce","ios":"levelo://app?vid=a14a6d56-c7c5-40a1-a945-22deb29543ce"},"vehicle_type_id":"4","last_reported":1758877859,"current_range_meters":17600,"station_id":"ce4bho92rcd13ifvqh3g","pricing_plan_id":"cebpf4jnsgd1na2vs0mg"},{"bike_id":"80bdba63-46f3-4274-b0d9-d9711409b6a8","system_id":"levelo_inurba_marseille","lat":43.270752,"lon":5.402497,"is_reserved":false,"is_disabled":false,"rental_uris":{"android":"levelo://app?vid=80bdba63-46f3-4274-b0d9-d9711409b6a8","ios":"levelo://app?vid=80bdba63-46f3-4274-b0d9-d9711409b6a8"},"vehicle_type_id":"4","last_reported":1758877859,"current_range_meters":17600,"station_id":"","pricing_plan_id":"cebpf4jnsgd1na2vs0mg"},{"bike_id":"ee925a9c-c600-454e-8837-0da5956fd25f","system_id":"levelo_inurba_marseille","lat":43.22932,"lon":5.35379,"is_reserved":false,"is_disabled":false,"rental_uris":{"android":"levelo://app?vid=ee925a9c-c600-454e-8837-0da5956fd25f","ios":"levelo://app?vid=ee925a9c-c600-454e-8837-0da5956fd25f"},"vehicle_type_id":"4","last_reported":1758877859,"current_range_meters":17600,"station_id":"cpo3532slgdg3j2ikp40","pricing_plan_id":"cebpf4jnsgd1na2vs0mg"},{"bike_id":"0628c617-190d-4139-9014-517d4892b580","system_id":"levelo_inurba_marseille","lat":43.27494,"lon":5.42451,"is_reserved":false,"is_disabled":false,"rental_uris":{"android":"levelo://app?vid=0628c617-190d-4139-9014-517d4892b580","ios":"levelo://app?vid=0628c617-190d-4139-9014-517d4892b580"},"vehicle_type_id":"4","last_reported":1758877859,"current_range_meters":18000,"station_id":"ce4bhn92rcd13ifvqgrg","pricing_plan_id":"cebpf4jnsgd1na2vs0mg"},{"bike_id":"a5a2625f-b126-4eab-82fe-a90b89fac046","system_id":"levelo_inurba_marseille","lat":43.31356,"lon":5.36702,"is_reserved":false,"is_disabled":false,"rental_uris":{"android":"levelo://app?vid=a5a2625f-b126-4eab-82fe-a90b89fac046","ios":"levelo://app?vid=a5a2625f-b126-4eab-82fe-a90b89fac046"},"vehicle_type_id":"4","last_reported":1758877859,"current_range_meters":18000,"station_id":"ce4bgr92rcd13ifvqc6g","pricing_plan_id":"cebpf4jnsgd1na2vs0mg"},{"bike_id":"934ea1ec-b7f6-49a1-9efa-287317d4eb22","system_id":"levelo_inurba_marseille","lat":43.29048,"lon":5.35914,"is_reserved":false,"is_disabled":false,"rental_uris":{"android":"levelo://app?vid=934ea1ec-b7f6-49a1-9efa-287317d4eb22","ios":"levelo://app?vid=934ea1ec-b7f6-49a1-9efa-287317d4eb22"},"vehicle_type_id":"4","last_reported":1758877859,"current_range_meters":18000,"station_id":"","pricing_plan_id":"cebpf4jnsgd1na2vs0mg"},{"bike_id":"7c79b95f-29ac-42b6-9a98-291d5f57b6e6","system_id":"levelo_inurba_marseille","lat":43.29579,"lon":5.37446,"is_reserved":false,"is_disabled":false,"rental_uris":{"android":"levelo://app?vid=7c79b95f-29ac-42b6-9a98-291d5f57b6e6","ios":"levelo://app?vid=7c79b95f-29ac-42b6-9a98-291d5f57b6e6"},"vehicle_type_id":"4","last_reported":1758877859,"current_range_meters":18000,"station_id":"","pricing_plan_id":"cebpf4jnsgd1na2vs0mg"},{"bike_id":"db50faee-463f-4c65-aa2f-f221a5fab4ee","system_id":"levelo_inurba_marseille","lat":43.31234,"lon":5.36923,"is_reserved":false,"is_disabled":false,"rental_uris":{"android":"levelo://app?vid=db50faee-463f-4c65-aa2f-f221a5fab4ee","ios":"levelo://app?vid=db50faee-463f-4c65-aa2f-f221a5fab4ee"},"vehicle_type_id":"4","last_reported":1758877859,"current_range_meters":18000,"station_id":"","pricing_plan_id":"cebpf4jnsgd1na2vs0mg"},{"bike_id":"63c0879c-e69b-4e84-9806-c068fbaee754","system_id":"levelo_inurba_marseille","lat":43.22948,"lon":5.35367,"is_reserved":false,"is_disabled":false,"rental_uris":{"android":"levelo://app?vid=63c0879c-e69b-4e84-9806-c068fbaee754","ios":"levelo://app?vid=63c0879c-e69b-4e84-9806-c068fbaee754"},"vehicle_type_id":"4","last_reported":1758877859,"current_range_meters":18000,"station_id":"cpo3532slgdg3j2ikp40","pricing_plan_id":"cebpf4jnsgd1na2vs0mg"},{"bike_id":"827c9168-6815-4bae-8aad-d2089a3c583e","system_id":"levelo_inurba_marseille","lat":43.26203,"lon":5.37445,"is_reserved":false,"is_disabled":false,"rental_uris":{"android":"levelo://app?vid=827c9168-6815-4bae-8aad-d2089a3c583e","ios":"levelo://app?vid=827c9168-6815-4bae-8aad-d2089a3c583e"},"vehicle_type_id":"4","last_reported":1758877859,"current_range_meters":18000,"station_id":"ce4bhgp2rcd13ifvqfc0","pricing_plan_id":"cebpf4jnsgd1na2vs0mg"},{"bike_id":"ce867579-d533-4ba8-91c0-aeff2926cf55","system_id":"levelo_inurba_marseille","lat":43.309547,"lon":5.390327,"is_reserved":false,"is_disabled":false,"rental_uris":{"android":"levelo://app?vid=ce867579-d533-4ba8-91c0-aeff2926cf55","ios":"levelo://app?vid=ce867579-d533-4ba8-91c0-aeff2926cf55"},"vehicle_type_id":"4","last_reported":1758877859,"current_range_meters":18000,"station_id":"ce4bgup2rcd13ifvqco0","pricing_plan_id":"cebpf4jnsgd1na2vs0mg"},{"bike_id":"d0ec73e5-3d2c-4537-a514-eb0f6fe495f1","system_id":"levelo_inurba_marseille","lat":43.26211,"lon":5.3744,"is_reserved":false,"is_disabled":false,"rental_uris":{"android":"levelo://app?vid=d0ec73e5-3d2c-4537-a514-eb0f6fe495f1","ios":"levelo://app?vid=d0ec73e5-3d2c-4537-a514-eb0f6fe495f1"},"vehicle_type_id":"4","last_reported":1758877859,"current_range_meters":18800,"station_id":"ce4bhgp2rcd13ifvqfc0","pricing_plan_id":"cebpf4jnsgd1na2vs0mg"},{"bike_id":"71480e3b-e8c0-407b-a70e-14dd67ebf7e2","system_id":"levelo_inurba_marseille","lat":43.24059,"lon":5.3771,"is_reserved":false,"is_disabled":false,"rental_uris":{"android":"levelo://app?vid=71480e3b-e8c0-407b-a70e-14dd67ebf7e2","ios":"levelo://app?vid=71480e3b-e8c0-407b-a70e-14dd67ebf7e2"},"vehicle_type_id":"4","last_reported":1758877859,"current_range_meters":18800,"station_id":"ce4bhnp2rcd13ifvqgvg","pricing_plan_id":"cebpf4jnsgd1na2vs0mg"},{"bike_id":"df68280f-d7c7-4376-8546-4739ded885d7","system_id":"levelo_inurba_marseille","lat":43.298122,"lon":5.381005,"is_reserved":false,"is_disabled":false,"rental_uris":{"android":"levelo://app?vid=df68280f-d7c7-4376-8546-4739ded885d7","ios":"levelo://app?vid=df68280f-d7c7-4376-8546-4739ded885d7"},"vehicle_type_id":"4","last_reported":1758877859,"current_range_meters":18800,"station_id":"ce4bgip2rcd13ifvqbb0","pricing_plan_id":"cebpf4jnsgd1na2vs0mg"},{"bike_id":"4a03a63c-db29-4951-8471-2c3b92e8b764","system_id":"levelo_inurba_marseille","lat":43.29866,"lon":5.39736,"is_reserved":false,"is_disabled":false,"rental_uris":{"android":"levelo://app?vid=4a03a63c-db29-4951-8471-2c3b92e8b764","ios":"levelo://app?vid=4a03a63c-db29-4951-8471-2c3b92e8b764"},"vehicle_type_id":"4","last_reported":1758877859,"current_range_meters":18000,"station_id":"ce4bh0h2rcd13ifvqd50","pricing_plan_id":"cebpf4jnsgd1na2vs0mg"},{"bike_id":"bb81d282-6c0f-4589-a020-4d7a19ec5137","system_id":"levelo_inurba_marseille","lat":43.3117,"lon":5.39362,"is_reserved":false,"is_disabled":false,"rental_uris":{"android":"levelo://app?vid=bb81d282-6c0f-4589-a020-4d7a19ec5137","ios":"levelo://app?vid=bb81d282-6c0f-4589-a020-4d7a19ec5137"},"vehicle_type_id":"4","last_reported":1758877859,"current_range_meters":18800,"station_id":"","pricing_plan_id":"cebpf4jnsgd1na2vs0mg"},{"bike_id":"c175f19b-69dc-4d26-be51-024989094b01","system_id":"levelo_inurba_marseille","lat":43.28971,"lon":5.378428,"is_reserved":false,"is_disabled":false,"rental_uris":{"android":"levelo://app?vid=c175f19b-69dc-4d26-be51-024989094b01","ios":"levelo://app?vid=c175f19b-69dc-4d26-be51-024989094b01"},"vehicle_type_id":"4","last_reported":1758877859,"current_range_meters":18800,"station_id":"ce4bh9p2rcd13ifvqed0","pricing_plan_id":"cebpf4jnsgd1na2vs0mg"},{"bike_id":"03350417-1098-4d6c-b8fe-9e64358744bf","system_id":"levelo_inurba_marseille","lat":43.31034,"lon":5.37589,"is_reserved":false,"is_disabled":false,"rental_uris":{"android":"levelo://app?vid=03350417-1098-4d6c-b8fe-9e64358744bf","ios":"levelo://app?vid=03350417-1098-4d6c-b8fe-9e64358744bf"},"vehicle_type_id":"4","last_reported":1758877859,"current_range_meters":18800,"station_id":"","pricing_plan_id":"cebpf4jnsgd1na2vs0mg"},{"bike_id":"824890dd-73f1-4cb9-a06c-3a2adab3feb8","system_id":"levelo_inurba_marseille","lat":43.2407,"lon":5.37735,"is_reserved":false,"is_disabled":false,"rental_uris":{"android":"levelo://app?vid=824890dd-73f1-4cb9-a06c-3a2adab3feb8","ios":"levelo://app?vid=824890dd-73f1-4cb9-a06c-3a2adab3feb8"},"vehicle_type_id":"4","last_reported":1758877859,"current_range_meters":19200,"station_id":"ce4bhnp2rcd13ifvqgvg","pricing_plan_id":"cebpf4jnsgd1na2vs0mg"},{"bike_id":"0ecbfb2d-5368-407c-921b-68c03ca80d70","system_id":"levelo_inurba_marseille","lat":43.30152,"lon":5.38078,"is_reserved":false,"is_disabled":false,"rental_uris":{"android":"levelo://app?vid=0ecbfb2d-5368-407c-921b-68c03ca80d70","ios":"levelo://app?vid=0ecbfb2d-5368-407c-921b-68c03ca80d70"},"vehicle_type_id":"4","last_reported":1758877859,"current_range_meters":19200,"station_id":"ce4bgjp2rcd13ifvqbh0","pricing_plan_id":"cebpf4jnsgd1na2vs0mg"},{"bike_id":"c3aaf357-dacd-44ee-849c-77627935c404","system_id":"levelo_inurba_marseille","lat":43.31193,"lon":5.36882,"is_reserved":false,"is_disabled":false,"rental_uris":{"android":"levelo://app?vid=c3aaf357-dacd-44ee-849c-77627935c404","ios":"levelo://app?vid=c3aaf357-dacd-44ee-849c-77627935c404"},"vehicle_type_id":"4","last_reported":1758877859,"current_range_meters":19200,"station_id":"ce4bgl92rcd13ifvqbq0","pricing_plan_id":"cebpf4jnsgd1na2vs0mg"},{"bike_id":"6866e71a-5dcd-42be-ac63-bb674d3e10c2","system_id":"levelo_inurba_marseille","lat":43.240715,"lon":5.37755,"is_reserved":false,"is_disabled":false,"rental_uris":{"android":"levelo://app?vid=6866e71a-5dcd-42be-ac63-bb674d3e10c2","ios":"levelo://app?vid=6866e71a-5dcd-42be-ac63-bb674d3e10c2"},"vehicle_type_id":"4","last_reported":1758877859,"current_range_meters":19200,"station_id":"ce4bhnp2rcd13ifvqgvg","pricing_plan_id":"cebpf4jnsgd1na2vs0mg"},{"bike_id":"5bb42022-0e19-48bc-a5b4-218bb1d7482e","system_id":"levelo_inurba_marseille","lat":43.312682,"lon":5.377395,"is_reserved":false,"is_disabled":false,"rental_uris":{"android":"levelo://app?vid=5bb42022-0e19-48bc-a5b4-218bb1d7482e","ios":"levelo://app?vid=5bb42022-0e19-48bc-a5b4-218bb1d7482e"},"vehicle_type_id":"4","last_reported":1758877859,"current_range_meters":19200,"station_id":"","pricing_plan_id":"cebpf4jnsgd1na2vs0mg"},{"bike_id":"6177257a-4599-4c52-bb51-5a261262cd32","system_id":"levelo_inurba_marseille","lat":43.30237,"lon":5.4004,"is_reserved":false,"is_disabled":false,"rental_uris":{"android":"levelo://app?vid=6177257a-4599-4c52-bb51-5a261262cd32","ios":"levelo://app?vid=6177257a-4599-4c52-bb51-5a261262cd32"},"vehicle_type_id":"4","last_reported":1758877859,"current_range_meters":19200,"station_id":"ce4bgvh2rcd13ifvqcs0","pricing_plan_id":"cebpf4jnsgd1na2vs0mg"},{"bike_id":"ff675049-f0f2-4324-858a-e36027835893","system_id":"levelo_inurba_marseille","lat":43.25909,"lon":5.4088,"is_reserved":false,"is_disabled":false,"rental_uris":{"android":"levelo://app?vid=ff675049-f0f2-4324-858a-e36027835893","ios":"levelo://app?vid=ff675049-f0f2-4324-858a-e36027835893"},"vehicle_type_id":"4","last_reported":1758877859,"current_range_meters":19200,"station_id":"ce4bhm92rcd13ifvqglg","pricing_plan_id":"cebpf4jnsgd1na2vs0mg"},{"bike_id":"327c041e-5c9e-4b0d-a97c-a2dbaab036ae","system_id":"levelo_inurba_marseille","lat":43.32813,"lon":5.4113,"is_reserved":false,"is_disabled":false,"rental_uris":{"android":"levelo://app?vid=327c041e-5c9e-4b0d-a97c-a2dbaab036ae","ios":"levelo://app?vid=327c041e-5c9e-4b0d-a97c-a2dbaab036ae"},"vehicle_type_id":"4","last_reported":1758877859,"current_range_meters":19600,"station_id":"","pricing_plan_id":"cebpf4jnsgd1na2vs0mg"},{"bike_id":"8653a9f2-7966-48f0-8d3a-5a27fae5856c","system_id":"levelo_inurba_marseille","lat":43.2406,"lon":5.37744,"is_reserved":false,"is_disabled":false,"rental_uris":{"android":"levelo://app?vid=8653a9f2-7966-48f0-8d3a-5a27fae5856c","ios":"levelo://app?vid=8653a9f2-7966-48f0-8d3a-5a27fae5856c"},"vehicle_type_id":"4","last_reported":1758877859,"current_range_meters":19600,"station_id":"ce4bhnp2rcd13ifvqgvg","pricing_plan_id":"cebpf4jnsgd1na2vs0mg"},{"bike_id":"f1041735-e6a1-4d9e-90ab-a62a06df78ba","system_id":"levelo_inurba_marseille","lat":43.25914,"lon":5.40898,"is_reserved":false,"is_disabled":false,"rental_uris":{"android":"levelo://app?vid=f1041735-e6a1-4d9e-90ab-a62a06df78ba","ios":"levelo://app?vid=f1041735-e6a1-4d9e-90ab-a62a06df78ba"},"vehicle_type_id":"4","last_reported":1758877859,"current_range_meters":19600,"station_id":"ce4bhm92rcd13ifvqglg","pricing_plan_id":"cebpf4jnsgd1na2vs0mg"},{"bike_id":"610e0521-83c2-4561-91c9-cfa88423a420","system_id":"levelo_inurba_marseille","lat":43.32472,"lon":5.36582,"is_reserved":false,"is_disabled":false,"rental_uris":{"android":"levelo://app?vid=610e0521-83c2-4561-91c9-cfa88423a420","ios":"levelo://app?vid=610e0521-83c2-4561-91c9-cfa88423a420"},"vehicle_type_id":"4","last_reported":1758877859,"current_range_meters":19600,"station_id":"ce4bhs12rcd13ifvqhvg","pricing_plan_id":"cebpf4jnsgd1na2vs0mg"},{"bike_id":"01f45480-95a4-4e5b-8360-a4f6ffe40fb0","system_id":"levelo_inurba_marseille","lat":43.29765,"lon":5.37106,"is_reserved":false,"is_disabled":true,"rental_uris":{"android":"levelo://app?vid=01f45480-95a4-4e5b-8360-a4f6ffe40fb0","ios":"levelo://app?vid=01f45480-95a4-4e5b-8360-a4f6ffe40fb0"},"vehicle_type_id":"4","last_reported":1758877859,"current_range_meters":19600,"station_id":"ce4bgop2rcd13ifvqc1g","pricing_plan_id":"cebpf4jnsgd1na2vs0mg"},{"bike_id":"c733f18f-cfc5-4a96-a175-3cd7aacf0bab","system_id":"levelo_inurba_marseille","lat":43.241936,"lon":5.397596,"is_reserved":false,"is_disabled":false,"rental_uris":{"android":"levelo://app?vid=c733f18f-cfc5-4a96-a175-3cd7aacf0bab","ios":"levelo://app?vid=c733f18f-cfc5-4a96-a175-3cd7aacf0bab"},"vehicle_type_id":"4","last_reported":1758877859,"current_range_meters":19200,"station_id":"ce4bhn12rcd13ifvqgpg","pricing_plan_id":"cebpf4jnsgd1na2vs0mg"},{"bike_id":"928e6c7c-9f9e-4eaa-a3df-73123b5c3c31","system_id":"levelo_inurba_marseille","lat":43.29039,"lon":5.40025,"is_reserved":false,"is_disabled":false,"rental_uris":{"android":"levelo://app?vid=928e6c7c-9f9e-4eaa-a3df-73123b5c3c31","ios":"levelo://app?vid=928e6c7c-9f9e-4eaa-a3df-73123b5c3c31"},"vehicle_type_id":"4","last_reported":1758877859,"current_range_meters":19600,"station_id":"ce4bh392rcd13ifvqdm0","pricing_plan_id":"cebpf4jnsgd1na2vs0mg"},{"bike_id":"e7db462d-fd18-4442-8d01-570610e680f5","system_id":"levelo_inurba_marseille","lat":43.306015,"lon":5.372289,"is_reserved":false,"is_disabled":false,"rental_uris":{"android":"levelo://app?vid=e7db462d-fd18-4442-8d01-570610e680f5","ios":"levelo://app?vid=e7db462d-fd18-4442-8d01-570610e680f5"},"vehicle_type_id":"4","last_reported":1758877859,"current_range_meters":19600,"station_id":"ce4bgqh2rcd13ifvqc4g","pricing_plan_id":"cebpf4jnsgd1na2vs0mg"},{"bike_id":"ecdb8b78-2d6b-4160-be66-d0eb70ae5e1d","system_id":"levelo_inurba_marseille","lat":43.27188,"lon":5.40997,"is_reserved":false,"is_disabled":true,"rental_uris":{"android":"levelo://app?vid=ecdb8b78-2d6b-4160-be66-d0eb70ae5e1d","ios":"levelo://app?vid=ecdb8b78-2d6b-4160-be66-d0eb70ae5e1d"},"vehicle_type_id":"4","last_reported":1758877859,"current_range_meters":19600,"station_id":"ce4bhl12rcd13ifvqgf0","pricing_plan_id":"cebpf4jnsgd1na2vs0mg"},{"bike_id":"4c2e4cf0-d0ad-4030-9bc7-9b306c6c15ef","system_id":"levelo_inurba_marseille","lat":43.24069,"lon":5.37745,"is_reserved":false,"is_disabled":false,"rental_uris":{"android":"levelo://app?vid=4c2e4cf0-d0ad-4030-9bc7-9b306c6c15ef","ios":"levelo://app?vid=4c2e4cf0-d0ad-4030-9bc7-9b306c6c15ef"},"vehicle_type_id":"4","last_reported":1758877859,"current_range_meters":19600,"station_id":"ce4bhnp2rcd13ifvqgvg","pricing_plan_id":"cebpf4jnsgd1na2vs0mg"},{"bike_id":"fe8d88d6-81c3-42a8-85bb-3d0aa4841db3","system_id":"levelo_inurba_marseille","lat":43.3,"lon":5.3841,"is_reserved":false,"is_disabled":false,"rental_uris":{"android":"levelo://app?vid=fe8d88d6-81c3-42a8-85bb-3d0aa4841db3","ios":"levelo://app?vid=fe8d88d6-81c3-42a8-85bb-3d0aa4841db3"},"vehicle_type_id":"4","last_reported":1758877859,"current_range_meters":19600,"station_id":"","pricing_plan_id":"cebpf4jnsgd1na2vs0mg"},{"bike_id":"9231105d-4299-45a3-8128-a847bdb68593","system_id":"levelo_inurba_marseille","lat":43.30785,"lon":5.37641,"is_reserved":false,"is_disabled":false,"rental_uris":{"android":"levelo://app?vid=9231105d-4299-45a3-8128-a847bdb68593","ios":"levelo://app?vid=9231105d-4299-45a3-8128-a847bdb68593"},"vehicle_type_id":"4","last_reported":1758877859,"current_range_meters":19600,"station_id":"ce4bgv92rcd13ifvqcq0","pricing_plan_id":"cebpf4jnsgd1na2vs0mg"},{"bike_id":"9feae468-b8bd-422a-8fcb-2d68fc5ee82c","system_id":"levelo_inurba_marseille","lat":43.33392,"lon":5.41952,"is_reserved":false,"is_disabled":false,"rental_uris":{"android":"levelo://app?vid=9feae468-b8bd-422a-8fcb-2d68fc5ee82c","ios":"levelo://app?vid=9feae468-b8bd-422a-8fcb-2d68fc5ee82c"},"vehicle_type_id":"4","last_reported":1758877859,"current_range_meters":20000,"station_id":"","pricing_plan_id":"cebpf4jnsgd1na2vs0mg"},{"bike_id":"0385a851-106a-442d-8e0b-e3341c884902","system_id":"levelo_inurba_marseille","lat":43.23151,"lon":5.43716,"is_reserved":false,"is_disabled":false,"rental_uris":{"android":"levelo://app?vid=0385a851-106a-442d-8e0b-e3341c884902","ios":"levelo://app?vid=0385a851-106a-442d-8e0b-e3341c884902"},"vehicle_type_id":"4","last_reported":1758877859,"current_range_meters":20000,"station_id":"ce4bhmp2rcd13ifvqgog","pricing_plan_id":"cebpf4jnsgd1na2vs0mg"},{"bike_id":"9726f846-45d7-4bf8-ab95-9346dd8f4d4a","system_id":"levelo_inurba_marseille","lat":43.29612,"lon":5.37744,"is_reserved":false,"is_disabled":false,"rental_uris":{"android":"levelo://app?vid=9726f846-45d7-4bf8-ab95-9346dd8f4d4a","ios":"levelo://app?vid=9726f846-45d7-4bf8-ab95-9346dd8f4d4a"},"vehicle_type_id":"4","last_reported":1758877859,"current_range_meters":19600,"station_id":"ce4bgi92rcd13ifvqb90","pricing_plan_id":"cebpf4jnsgd1na2vs0mg"},{"bike_id":"557b735c-6aad-4143-8370-82ff05d19ad9","system_id":"levelo_inurba_marseille","lat":43.30611,"lon":5.37235,"is_reserved":false,"is_disabled":false,"rental_uris":{"android":"levelo://app?vid=557b735c-6aad-4143-8370-82ff05d19ad9","ios":"levelo://app?vid=557b735c-6aad-4143-8370-82ff05d19ad9"},"vehicle_type_id":"4","last_reported":1758877859,"current_range_meters":20000,"station_id":"ce4bgqh2rcd13ifvqc4g","pricing_plan_id":"cebpf4jnsgd1na2vs0mg"},{"bike_id":"495d760f-87e7-4f90-bea7-2da87e449fdd","system_id":"levelo_inurba_marseille","lat":43.26665,"lon":5.38277,"is_reserved":false,"is_disabled":false,"rental_uris":{"android":"levelo://app?vid=495d760f-87e7-4f90-bea7-2da87e449fdd","ios":"levelo://app?vid=495d760f-87e7-4f90-bea7-2da87e449fdd"},"vehicle_type_id":"4","last_reported":1758877859,"current_range_meters":20000,"station_id":"ce4bhg92rcd13ifvqf90","pricing_plan_id":"cebpf4jnsgd1na2vs0mg"},{"bike_id":"df8d18be-f821-4a32-930c-ad0fec49e396","system_id":"levelo_inurba_marseille","lat":43.289669,"lon":5.378414,"is_reserved":false,"is_disabled":false,"rental_uris":{"android":"levelo://app?vid=df8d18be-f821-4a32-930c-ad0fec49e396","ios":"levelo://app?vid=df8d18be-f821-4a32-930c-ad0fec49e396"},"vehicle_type_id":"4","last_reported":1758877859,"current_range_meters":20000,"station_id":"ce4bh9p2rcd13ifvqed0","pricing_plan_id":"cebpf4jnsgd1na2vs0mg"},{"bike_id":"5b3fcc84-81b1-42ca-b973-92022d751210","system_id":"levelo_inurba_marseille","lat":43.31705,"lon":5.37742,"is_reserved":false,"is_disabled":false,"rental_uris":{"android":"levelo://app?vid=5b3fcc84-81b1-42ca-b973-92022d751210","ios":"levelo://app?vid=5b3fcc84-81b1-42ca-b973-92022d751210"},"vehicle_type_id":"4","last_reported":1758877859,"current_range_meters":19600,"station_id":"ce4bgth2rcd13ifvqch0","pricing_plan_id":"cebpf4jnsgd1na2vs0mg"},{"bike_id":"bad39c34-0ed3-46ef-b0e7-0794929cc9a0","system_id":"levelo_inurba_marseille","lat":43.289965,"lon":5.356128,"is_reserved":false,"is_disabled":false,"rental_uris":{"android":"levelo://app?vid=bad39c34-0ed3-46ef-b0e7-0794929cc9a0","ios":"levelo://app?vid=bad39c34-0ed3-46ef-b0e7-0794929cc9a0"},"vehicle_type_id":"4","last_reported":1758877859,"current_range_meters":20000,"station_id":"ce4bhb92rcd13ifvqen0","pricing_plan_id":"cebpf4jnsgd1na2vs0mg"},{"bike_id":"bdc1ba15-ef43-436d-9d96-bb1811d4d5de","system_id":"levelo_inurba_marseille","lat":43.24387,"lon":5.3706,"is_reserved":false,"is_disabled":false,"rental_uris":{"android":"levelo://app?vid=bdc1ba15-ef43-436d-9d96-bb1811d4d5de","ios":"levelo://app?vid=bdc1ba15-ef43-436d-9d96-bb1811d4d5de"},"vehicle_type_id":"4","last_reported":1758877859,"current_range_meters":20400,"station_id":"ce4bhhh2rcd13ifvqfk0","pricing_plan_id":"cebpf4jnsgd1na2vs0mg"},{"bike_id":"ece36685-817e-47c1-b130-8af29913096b","system_id":"levelo_inurba_marseille","lat":43.30076,"lon":5.39773,"is_reserved":false,"is_disabled":false,"rental_uris":{"android":"levelo://app?vid=ece36685-817e-47c1-b130-8af29913096b","ios":"levelo://app?vid=ece36685-817e-47c1-b130-8af29913096b"},"vehicle_type_id":"4","last_reported":1758877859,"current_range_meters":20400,"station_id":"","pricing_plan_id":"cebpf4jnsgd1na2vs0mg"},{"bike_id":"5de5a448-9e06-4293-af32-48e8256dee6d","system_id":"levelo_inurba_marseille","lat":43.33776,"lon":5.37439,"is_reserved":false,"is_disabled":false,"rental_uris":{"android":"levelo://app?vid=5de5a448-9e06-4293-af32-48e8256dee6d","ios":"levelo://app?vid=5de5a448-9e06-4293-af32-48e8256dee6d"},"vehicle_type_id":"4","last_reported":1758877859,"current_range_meters":20400,"station_id":"","pricing_plan_id":"cebpf4jnsgd1na2vs0mg"},{"bike_id":"b0dc0f44-bdc8-4fdd-a26a-9c1856643ed5","system_id":"levelo_inurba_marseille","lat":43.28759,"lon":5.38549,"is_reserved":false,"is_disabled":false,"rental_uris":{"android":"levelo://app?vid=b0dc0f44-bdc8-4fdd-a26a-9c1856643ed5","ios":"levelo://app?vid=b0dc0f44-bdc8-4fdd-a26a-9c1856643ed5"},"vehicle_type_id":"4","last_reported":1758877859,"current_range_meters":20400,"station_id":"","pricing_plan_id":"cebpf4jnsgd1na2vs0mg"},{"bike_id":"15325cda-360a-40d2-a954-ab2eba91647f","system_id":"levelo_inurba_marseille","lat":43.30927,"lon":5.40147,"is_reserved":false,"is_disabled":false,"rental_uris":{"android":"levelo://app?vid=15325cda-360a-40d2-a954-ab2eba91647f","ios":"levelo://app?vid=15325cda-360a-40d2-a954-ab2eba91647f"},"vehicle_type_id":"4","last_reported":1758877859,"current_range_meters":20000,"station_id":"ce4bgvp2rcd13ifvqct0","pricing_plan_id":"cebpf4jnsgd1na2vs0mg"},{"bike_id":"cb75ce89-651f-40a7-8e67-111cba909cb8","system_id":"levelo_inurba_marseille","lat":43.27445,"lon":5.39414,"is_reserved":false,"is_disabled":false,"rental_uris":{"android":"levelo://app?vid=cb75ce89-651f-40a7-8e67-111cba909cb8","ios":"levelo://app?vid=cb75ce89-651f-40a7-8e67-111cba909cb8"},"vehicle_type_id":"4","last_reported":1758877859,"current_range_meters":20400,"station_id":"ce4bhdp2rcd13ifvqf20","pricing_plan_id":"cebpf4jnsgd1na2vs0mg"},{"bike_id":"df2e68d2-9b53-417f-8f52-a8268e881cc9","system_id":"levelo_inurba_marseille","lat":43.26531,"lon":5.37291,"is_reserved":false,"is_disabled":false,"rental_uris":{"android":"levelo://app?vid=df2e68d2-9b53-417f-8f52-a8268e881cc9","ios":"levelo://app?vid=df2e68d2-9b53-417f-8f52-a8268e881cc9"},"vehicle_type_id":"4","last_reported":1758877859,"current_range_meters":20800,"station_id":"ce4bhg12rcd13ifvqf70","pricing_plan_id":"cebpf4jnsgd1na2vs0mg"},{"bike_id":"7bae3060-c47a-4be6-bd00-0a07b5d1af80","system_id":"levelo_inurba_marseille","lat":43.273208,"lon":5.391,"is_reserved":false,"is_disabled":false,"rental_uris":{"android":"levelo://app?vid=7bae3060-c47a-4be6-bd00-0a07b5d1af80","ios":"levelo://app?vid=7bae3060-c47a-4be6-bd00-0a07b5d1af80"},"vehicle_type_id":"4","last_reported":1758877859,"current_range_meters":20800,"station_id":"ce4bhgp2rcd13ifvqfe0","pricing_plan_id":"cebpf4jnsgd1na2vs0mg"},{"bike_id":"3b166bce-ce06-4892-a6d1-01fc7a6ad56a","system_id":"levelo_inurba_marseille","lat":43.24043,"lon":5.37748,"is_reserved":false,"is_disabled":false,"rental_uris":{"android":"levelo://app?vid=3b166bce-ce06-4892-a6d1-01fc7a6ad56a","ios":"levelo://app?vid=3b166bce-ce06-4892-a6d1-01fc7a6ad56a"},"vehicle_type_id":"4","last_reported":1758877859,"current_range_meters":20800,"station_id":"ce4bhnp2rcd13ifvqgvg","pricing_plan_id":"cebpf4jnsgd1na2vs0mg"},