{"last_updated":1748247610,"ttl":60,"version":"2.2","data":{"bikes":[{"bike_id":"43948e8e-fb2f-4861-887a-9f2942244d51","system_id":"levelo_inurba_marseille","lat":43.29372,"lon":5.40255,"is_reserved":false,"is_disabled":false,"rental_uris":{"android":"levelo://app?vid=43948e8e-fb2f-4861-887a-9f2942244d51","ios":"levelo://app?vid=43948e8e-fb2f-4861-887a-9f2942244d51"},"vehicle_type_id":"4","last_reported":1748247610,"current_range_meters":2800,"station_id":"","pricing_plan_id":"cebpf4jnsgd1na2vs0mg"},{"bike_id":"18089c1e-9560-4732-888e-a795882eea5e","system_id":"levelo_inurba_marseille","lat":43.313395,"lon":5.367253,"is_reserved":false,"is_disabled":false,"rental_uris":{"android":"levelo://app?vid=18089c1e-9560-4732-888e-a795882eea5e","ios":"levelo://app?vid=18089c1e-9560-4732-888e-a795882eea5e"},"vehicle_type_id":"4","last_reported":1748247610,"current_range_meters":2800,"station_id":"ce4bgr92rcd13ifvqc6g","pricing_plan_id":"cebpf4jnsgd1na2vs0mg"},{"bike_id":"87dc1d45-464b-416b-81d6-10b093bfc1ae","system_id":"levelo_inurba_marseille","lat":43.270721,"lon":5.422903,"is_reserved":false,"is_disabled":false,"rental_uris":{"android":"levelo://app?vid=87dc1d45-464b-416b-81d6-10b093bfc1ae","ios":"levelo://app?vid=87dc1d45-464b-416b-81d6-10b093bfc1ae"},"vehicle_type_id":"4","last_reported":1748247610,"current_range_meters":2800,"station_id":"ce4bhk92rcd13ifvqgb0","pricing_plan_id":"cebpf4jnsgd1na2vs0mg"},{"bike_id":"2492633e-3c8b-4118-8fac-45c0165355c4","system_id":"levelo_inurba_marseille","lat":43.31364,"lon":5.36709,"is_reserved":false,"is_disabled":false,"rental_uris":{"android":"levelo://app?vid=2492633e-3c8b-4118-8fac-45c0165355c4","ios":"levelo://app?vid=2492633e-3c8b-4118-8fac-45c0165355c4"},"vehicle_type_id":"4","last_reported":1748247610,"current_range_meters":3200,"station_id":"ce4bgr92rcd13ifvqc6g","pricing_plan_id":"cebpf4jnsgd1na2vs0mg"},{"bike_id":"3581c28c-41f2-4cb7-b494-0448776c0438","system_id":"levelo_inurba_marseille","lat":43.296358,"lon":5.360401,"is_reserved":false,"is_disabled":false,"rental_uris":{"android":"levelo://app?vid=3581c28c-41f2-4cb7-b494-0448776c0438","ios":"levelo://app?vid=3581c28c-41f2-4cb7-b494-0448776c0438"},"vehicle_type_id":"4","last_reported":1748247610,"current_range_meters":3600,"station_id":"","pricing_plan_id":"cebpf4jnsgd1na2vs0mg"},{"bike_id":"4d18815d-035b-4827-a51e-58638fcfdfa3","system_id":"levelo_inurba_marseille","lat":43.23191,"lon":5.4,"is_reserved":false,"is_disabled":true,"rental_uris":{"android":"levelo://app?vid=4d18815d-035b-4827-a51e-58638fcfdfa3","ios":"levelo://app?vid=4d18815d-035b-4827-a51e-58638fcfdfa3"},"vehicle_type_id":"4","last_reported":1748247610,"current_range_meters":3600,"station_id":"","pricing_plan_id":"cebpf4jnsgd1na2vs0mg"},{"bike_id":"ac00293c-2c42-4ab5-af4b-780b1e9cdf96","system_id":"levelo_inurba_marseille","lat":43.26147,"lon":5.39738,"is_reserved":false,"is_disabled":false,"rental_uris":{"android":"levelo://app?vid=ac00293c-2c42-4ab5-af4b-780b1e9cdf96","ios":"levelo://app?vid=ac00293c-2c42-4ab5-af4b-780b1e9cdf96"},"vehicle_type_id":"4","last_reported":1748247610,"current_range_meters":3600,"station_id":"ce4bhl92rcd13ifvqghg","pricing_plan_id":"cebpf4jnsgd1na2vs0mg"},{"bike_id":"ec022699-f2fa-487a-b094-571de7fc1dd0","system_id":"levelo_inurba_marseille","lat":43.27968,"lon":5.38745,"is_reserved":false,"is_disabled":false,"rental_uris":{"android":"levelo://app?vid=ec022699-f2fa-487a-b094-571de7fc1dd0","ios":"levelo://app?vid=ec022699-f2fa-487a-b094-571de7fc1dd0"},"vehicle_type_id":"4","last_reported":1748247610,"current_range_meters":3200,"station_id":"ce4bhg12rcd13ifvqf80","pricing_plan_id":"cebpf4jnsgd1na2vs0mg"},{"bike_id":"84b1d1a2-2301-4f7e-8fde-ecd5a1274476","system_id":"levelo_inurba_marseille","lat":43.27079,"lon":5.42273,"is_reserved":false,"is_disabled":false,"rental_uris":{"android":"levelo://app?vid=84b1d1a2-2301-4f7e-8fde-ecd5a1274476","ios":"levelo://app?vid=84b1d1a2-2301-4f7e-8fde-ecd5a1274476"},"vehicle_type_id":"4","last_reported":1748247610,"current_range_meters":3600,"station_id":"ce4bhk92rcd13ifvqgb0","pricing_plan_id":"cebpf4jnsgd1na2vs0mg"},{"bike_id":"915d42bf-a9b3-4602-9eb7-af035a6324b8","system_id":"levelo_inurba_marseille","lat":43.290913,"lon":5.381623,"is_reserved":false,"is_disabled":true,"rental_uris":{"android":"levelo://app?vid=915d42bf-a9b3-4602-9eb7-af035a6324b8","ios":"levelo://app?vid=915d42bf-a9b3-4602-9eb7-af035a6324b8"},"vehicle_type_id":"4","last_reported":1748247610,"current_range_meters":4000,"station_id":"ce4bh512rcd13ifvqe2g","pricing_plan_id":"cebpf4jnsgd1na2vs0mg"},{"bike_id":"bac4d4f2-cbac-4aef-88fb-c759c7b96d6f","system_id":"levelo_inurba_marseille","lat":43.26951,"lon":5.38617,"is_reserved":false,"is_disabled":true,"rental_uris":{"android":"levelo://app?vid=bac4d4f2-cbac-4aef-88fb-c759c7b96d6f","ios":"levelo://app?vid=bac4d4f2-cbac-4aef-88fb-c759c7b96d6f"},"vehicle_type_id":"4","last_reported":1748247610,"current_range_meters":4000,"station_id":"ce4bhh92rcd13ifvqfh0","pricing_plan_id":"cebpf4jnsgd1na2vs0mg"},{"bike_id":"fc8c72ad-ca61-42c6-ae90-f61b57e45328","system_id":"levelo_inurba_marseille","lat":43.27896,"lon":5.4186,"is_reserved":false,"is_disabled":false,"rental_uris":{"android":"levelo://app?vid=fc8c72ad-ca61-42c6-ae90-f61b57e45328","ios":"levelo://app?vid=fc8c72ad-ca61-42c6-ae90-f61b57e45328"},"vehicle_type_id":"4","last_reported":1748247610,"current_range_meters":4400,"station_id":"","pricing_plan_id":"cebpf4jnsgd1na2vs0mg"},{"bike_id":"aeb9ef90-389d-4ef3-899b-0a0feff09a32","system_id":"levelo_inurba_marseille","lat":43.31358,"lon":5.37988,"is_reserved":false,"is_disabled":false,"rental_uris":{"android":"levelo://app?vid=aeb9ef90-389d-4ef3-899b-0a0feff09a32","ios":"levelo://app?vid=aeb9ef90-389d-4ef3-899b-0a0feff09a32"},"vehicle_type_id":"4","last_reported":1748247610,"current_range_meters":4400,"station_id":"","pricing_plan_id":"cebpf4jnsgd1na2vs0mg"},{"bike_id":"7095683f-3da8-4b38-bb14-4c6590f2ed62","system_id":"levelo_inurba_marseille","lat":43.24164,"lon":5.36394,"is_reserved":false,"is_disabled":false,"rental_uris":{"android":"levelo://app?vid=7095683f-3da8-4b38-bb14-4c6590f2ed62","ios":"levelo://app?vid=7095683f-3da8-4b38-bb14-4c6590f2ed62"},"vehicle_type_id":"4","last_reported":1748247610,"current_range_meters":4800,"station_id":"cpo36qri1sfpv3e86is0","pricing_plan_id":"cebpf4jnsgd1na2vs0mg"},{"bike_id":"ee559889-84ef-4b0f-9497-f21a52645d77","system_id":"levelo_inurba_marseille","lat":43.29781,"lon":5.37106,"is_reserved":false,"is_disabled":false,"rental_uris":{"android":"levelo://app?vid=ee559889-84ef-4b0f-9497-f21a52645d77","ios":"levelo://app?vid=ee559889-84ef-4b0f-9497-f21a52645d77"},"vehicle_type_id":"4","last_reported":1748247610,"current_range_meters":4800,"station_id":"ce4bgop2rcd13ifvqc1g","pricing_plan_id":"cebpf4jnsgd1na2vs0mg"},{"bike_id":"9e63335a-2dc0-4a9e-b7c0-1f542d8ece3b","system_id":"levelo_inurba_marseille","lat":43.33184,"lon":5.37896,"is_reserved":false,"is_disabled":true,"rental_uris":{"android":"levelo://app?vid=9e63335a-2dc0-4a9e-b7c0-1f542d8ece3b","ios":"levelo://app?vid=9e63335a-2dc0-4a9e-b7c0-1f542d8ece3b"},"vehicle_type_id":"4","last_reported":1748247610,"current_range_meters":5600,"station_id":"","pricing_plan_id":"cebpf4jnsgd1na2vs0mg"},{"bike_id":"b72ccfd1-35cf-4b02-9c1a-90aef7c74e5f","system_id":"levelo_inurba_marseille","lat":43.2486,"lon":5.44199,"is_reserved":false,"is_disabled":false,"rental_uris":{"android":"levelo://app?vid=b72ccfd1-35cf-4b02-9c1a-90aef7c74e5f","ios":"levelo://app?vid=b72ccfd1-35cf-4b02-9c1a-90aef7c74e5f"},"vehicle_type_id":"4","last_reported":1748247610,"current_range_meters":5600,"station_id":"","pricing_plan_id":"cebpf4jnsgd1na2vs0mg"},{"bike_id":"e8fa7405-1174-4ec6-ac79-104273598283","system_id":"levelo_inurba_marseille","lat":43.30673,"lon":5.40062,"is_reserved":false,"is_disabled":true,"rental_uris":{"android":"levelo://app?vid=e8fa7405-1174-4ec6-ac79-104273598283","ios":"levelo://app?vid=e8fa7405-1174-4ec6-ac79-104273598283"},"vehicle_type_id":"4","last_reported":1748247610,"current_range_meters":6000,"station_id":"ce4bh112rcd13ifvqda0","pricing_plan_id":"cebpf4jnsgd1na2vs0mg"},{"bike_id":"da453a88-f81b-4e0f-9781-5a7f6c1d364c","system_id":"levelo_inurba_marseille","lat":43.337499,"lon":5.374469,"is_reserved":false,"is_disabled":false,"rental_uris":{"android":"levelo://app?vid=da453a88-f81b-4e0f-9781-5a7f6c1d364c","ios":"levelo://app?vid=da453a88-f81b-4e0f-9781-5a7f6c1d364c"},"vehicle_type_id":"4","last_reported":1748247610,"current_range_meters":6000,"station_id":"","pricing_plan_id":"cebpf4jnsgd1na2vs0mg"},{"bike_id":"572ea268-9256-4619-be00-bc85f00bafad","system_id":"levelo_inurba_marseille","lat":43.241652,"lon":5.363912,"is_reserved":false,"is_disabled":false,"rental_uris":{"android":"levelo://app?vid=572ea268-9256-4619-be00-bc85f00bafad","ios":"levelo://app?vid=572ea268-9256-4619-be00-bc85f00bafad"},"vehicle_type_id":"4","last_reported":1748247610,"current_range_meters":6000,"station_id":"cpo36qri1sfpv3e86is0","pricing_plan_id":"cebpf4jnsgd1na2vs0mg"},{"bike_id":"105d56f3-e8cf-41b8-b0d9-5038295cb631","system_id":"levelo_inurba_marseille","lat":43.21203,"lon":5.35064,"is_reserved":false,"is_disabled":false,"rental_uris":{"android":"levelo://app?vid=105d56f3-e8cf-41b8-b0d9-5038295cb631","ios":"levelo://app?vid=105d56f3-e8cf-41b8-b0d9-5038295cb631"},"vehicle_type_id":"4","last_reported":1748247610,"current_range_meters":6000,"station_id":"","pricing_plan_id":"cebpf4jnsgd1na2vs0mg"},{"bike_id":"b3836e6a-b05b-4ba7-ae61-833bde9258fe","system_id":"levelo_inurba_marseille","lat":43.32927,"lon":5.45182,"is_reserved":false,"is_disabled":false,"rental_uris":{"android":"levelo://app?vid=b3836e6a-b05b-4ba7-ae61-833bde9258fe","ios":"levelo://app?vid=b3836e6a-b05b-4ba7-ae61-833bde9258fe"},"vehicle_type_id":"4","last_reported":1748247610,"current_range_meters":6000,"station_id":"","pricing_plan_id":"cebpf4jnsgd1na2vs0mg"},{"bike_id":"009469df-0a5c-4760-a585-e7a8e56aa3f8","system_id":"levelo_inurba_marseille","lat":43.29174,"lon":5.37168,"is_reserved":false,"is_disabled":false,"rental_uris":{"android":"levelo://app?vid=009469df-0a5c-4760-a585-e7a8e56aa3f8","ios":"levelo://app?vid=009469df-0a5c-4760-a585-e7a8e56aa3f8"},"vehicle_type_id":"4","last_reported":1748247610,"current_range_meters":6000,"station_id":"ce4bha92rcd13ifvqeh0","pricing_plan_id":"cebpf4jnsgd1na2vs0mg"},{"bike_id":"0087d3e2-76af-4192-acae-b83fc9d34b4e","system_id":"levelo_inurba_marseille","lat":43.26508,"lon":5.39538,"is_reserved":false,"is_disabled":false,"rental_uris":{"android":"levelo://app?vid=0087d3e2-76af-4192-acae-b83fc9d34b4e","ios":"levelo://app?vid=0087d3e2-76af-4192-acae-b83fc9d34b4e"},"vehicle_type_id":"4","last_reported":1748247610,"current_range_meters":6400,"station_id":"ce4bhi12rcd13ifvqfq0","pricing_plan_id":"cebpf4jnsgd1na2vs0mg"},{"bike_id":"64a5d3aa-73bc-4aa3-8aba-8805df2105bd","system_id":"levelo_inurba_marseille","lat":43.3361,"lon":5.41024,"is_reserved":false,"is_disabled":false,"rental_uris":{"android":"levelo://app?vid=64a5d3aa-73bc-4aa3-8aba-8805df2105bd","ios":"levelo://app?vid=64a5d3aa-73bc-4aa3-8aba-8805df2105bd"},"vehicle_type_id":"4","last_reported":1748247610,"current_range_meters":6400,"station_id":"ce4bhqh2rcd13ifvqhmg","pricing_plan_id":"cebpf4jnsgd1na2vs0mg"},{"bike_id":"4401b001-79d2-41f1-89ad-7e56478f62dc","system_id":"levelo_inurba_marseille","lat":43.25108,"lon":5.4032,"is_reserved":false,"is_disabled":false,"rental_uris":{"android":"levelo://app?vid=4401b001-79d2-41f1-89ad-7e56478f62dc","ios":"levelo://app?vid=4401b001-79d2-41f1-89ad-7e56478f62dc"},"vehicle_type_id":"4","last_reported":1748247610,"current_range_meters":6400,"station_id":"ce4bhlh2rcd13ifvqgig","pricing_plan_id":"cebpf4jnsgd1na2vs0mg"},{"bike_id":"31e84b19-81dc-48c0-8c0b-182607572746","system_id":"levelo_inurba_marseille","lat":43.24802,"lon":5.37455,"is_reserved":false,"is_disabled":false,"rental_uris":{"android":"levelo://app?vid=31e84b19-81dc-48c0-8c0b-182607572746","ios":"levelo://app?vid=31e84b19-81dc-48c0-8c0b-182607572746"},"vehicle_type_id":"4","last_reported":1748247610,"current_range_meters":6400,"station_id":"ce4bhgh2rcd13ifvqfb0","pricing_plan_id":"cebpf4jnsgd1na2vs0mg"},{"bike_id":"985dfe2e-48ab-4438-8b44-7034bccf028e","system_id":"levelo_inurba_marseille","lat":43.26992,"lon":5.39841,"is_reserved":false,"is_disabled":false,"rental_uris":{"android":"levelo://app?vid=985dfe2e-48ab-4438-8b44-7034bccf028e","ios":"levelo://app?vid=985dfe2e-48ab-4438-8b44-7034bccf028e"},"vehicle_type_id":"4","last_reported":1748247610,"current_range_meters":6400,"station_id":"","pricing_plan_id":"cebpf4jnsgd1na2vs0mg"},{"bike_id":"7ea32dbf-53a7-47bc-bbe5-1f436084f821","system_id":"levelo_inurba_marseille","lat":43.32539,"lon":5.41426,"is_reserved":false,"is_disabled":false,"rental_uris":{"android":"levelo://app?vid=7ea32dbf-53a7-47bc-bbe5-1f436084f821","ios":"levelo://app?vid=7ea32dbf-53a7-47bc-bbe5-1f436084f821"},"vehicle_type_id":"4","last_reported":1748247610,"current_range_meters":6400,"station_id":"ce4bhq12rcd13ifvqhhg","pricing_plan_id":"cebpf4jnsgd1na2vs0mg"},{"bike_id":"1da35f9f-f4ec-4f7e-81f7-49dd3c19bd7a","system_id":"levelo_inurba_marseille","lat":43.26482,"lon":5.41848,"is_reserved":false,"is_disabled":false,"rental_uris":{"android":"levelo://app?vid=1da35f9f-f4ec-4f7e-81f7-49dd3c19bd7a","ios":"levelo://app?vid=1da35f9f-f4ec-4f7e-81f7-49dd3c19bd7a"},"vehicle_type_id":"4","last_reported":1748247610,"current_range_meters":6400,"station_id":"","pricing_plan_id":"cebpf4jnsgd1na2vs0mg"},{"bike_id":"d9fa0449-e47c-4bbe-a91c-4939cab5d888","system_id":"levelo_inurba_marseille","lat":43.28542,"lon":5.42601,"is_reserved":false,"is_disabled":false,"rental_uris":{"android":"levelo://app?vid=d9fa0449-e47c-4bbe-a91c-4939cab5d888","ios":"levelo://app?vid=d9fa0449-e47c-4bbe-a91c-4939cab5d888"},"vehicle_type_id":"4","last_reported":1748247610,"current_range_meters":6400,"station_id":"","pricing_plan_id":"cebpf4jnsgd1na2vs0mg"},{"bike_id":"764aa4a5-fdf1-45d2-8d85-f92b7302018b","system_id":"levelo_inurba_marseille","lat":43.32176,"lon":5.44032,"is_reserved":false,"is_disabled":false,"rental_uris":{"android":"levelo://app?vid=764aa4a5-fdf1-45d2-8d85-f92b7302018b","ios":"levelo://app?vid=764aa4a5-fdf1-45d2-8d85-f92b7302018b"},"vehicle_type_id":"4","last_reported":1748247610,"current_range_meters":6400,"station_id":"","pricing_plan_id":"cebpf4jnsgd1na2vs0mg"},{"bike_id":"c3289047-8b25-4e99-8a60-2e24493769f4","system_id":"levelo_inurba_marseille","lat":43.284768,"lon":5.384156,"is_reserved":false,"is_disabled":false,"rental_uris":{"android":"levelo://app?vid=c3289047-8b25-4e99-8a60-2e24493769f4","ios":"levelo://app?vid=c3289047-8b25-4e99-8a60-2e24493769f4"},"vehicle_type_id":"4","last_reported":1748247610,"current_range_meters":6400,"station_id":"ce4bh512rcd13ifvqe3g","pricing_plan_id":"cebpf4jnsgd1na2vs0mg"},{"bike_id":"c1450594-a07e-481e-8ce6-065c5ef09f24","system_id":"levelo_inurba_marseille","lat":43.246691,"lon":5.381721,"is_reserved":false,"is_disabled":false,"rental_uris":{"android":"levelo://app?vid=c1450594-a07e-481e-8ce6-065c5ef09f24","ios":"levelo://app?vid=c1450594-a07e-481e-8ce6-065c5ef09f24"},"vehicle_type_id":"4","last_reported":1748247610,"current_range_meters":6400,"station_id":"ce4bhih2rcd13ifvqfr0","pricing_plan_id":"cebpf4jnsgd1na2vs0mg"},{"bike_id":"dab7ee0d-f820-455c-89c6-13e25f106faf","system_id":"levelo_inurba_marseille","lat":43.32364,"lon":5.42051,"is_reserved":false,"is_disabled":false,"rental_uris":{"android":"levelo://app?vid=dab7ee0d-f820-455c-89c6-13e25f106faf","ios":"levelo://app?vid=dab7ee0d-f820-455c-89c6-13e25f106faf"},"vehicle_type_id":"4","last_reported":1748247610,"current_range_meters":6400,"station_id":"","pricing_plan_id":"cebpf4jnsgd1na2vs0mg"},{"bike_id":"bf312380-a99d-4d31-be71-ded1c0b8d112","system_id":"levelo_inurba_marseille","lat":43.27492,"lon":5.42455,"is_reserved":false,"is_disabled":false,"rental_uris":{"android":"levelo://app?vid=bf312380-a99d-4d31-be71-ded1c0b8d112","ios":"levelo://app?vid=bf312380-a99d-4d31-be71-ded1c0b8d112"},"vehicle_type_id":"4","last_reported":1748247610,"current_range_meters":6800,"station_id":"ce4bhn92rcd13ifvqgrg","pricing_plan_id":"cebpf4jnsgd1na2vs0mg"},{"bike_id":"7a221bb0-523d-4645-a593-f95d4f3934b9","system_id":"levelo_inurba_marseille","lat":43.29916,"lon":5.3748,"is_reserved":false,"is_disabled":false,"rental_uris":{"android":"levelo://app?vid=7a221bb0-523d-4645-a593-f95d4f3934b9","ios":"levelo://app?vid=7a221bb0-523d-4645-a593-f95d4f3934b9"},"vehicle_type_id":"4","last_reported":1748247610,"current_range_meters":7200,"station_id":"ce4bgjh2rcd13ifvqbg0","pricing_plan_id":"cebpf4jnsgd1na2vs0mg"},{"bike_id":"b390f256-5948-4636-85ff-dcf758ae9613","system_id":"levelo_inurba_marseille","lat":43.29618,"lon":5.37714,"is_reserved":false,"is_disabled":false,"rental_uris":{"android":"levelo://app?vid=b390f256-5948-4636-85ff-dcf758ae9613","ios":"levelo://app?vid=b390f256-5948-4636-85ff-dcf758ae9613"},"vehicle_type_id":"4","last_reported":1748247610,"current_range_meters":7200,"station_id":"ce4bgi92rcd13ifvqb90","pricing_plan_id":"cebpf4jnsgd1na2vs0mg"},{"bike_id":"8151f140-4793-4659-94aa-4a4bc4d7aec3","system_id":"levelo_inurba_marseille","lat":43.30143,"lon":5.37413,"is_reserved":false,"is_disabled":false,"rental_uris":{"android":"levelo://app?vid=8151f140-4793-4659-94aa-4a4bc4d7aec3","ios":"levelo://app?vid=8151f140-4793-4659-94aa-4a4bc4d7aec3"},"vehicle_type_id":"4","last_reported":1748247610,"current_range_meters":7200,"station_id":"ce4bgs92rcd13ifvqcc0","pricing_plan_id":"cebpf4jnsgd1na2vs0mg"},{"bike_id":"750f6585-193a-4477-948c-580515d42c9e","system_id":"levelo_inurba_marseille","lat":43.32249,"lon":5.43951,"is_reserved":false,"is_disabled":false,"rental_uris":{"android":"levelo://app?vid=750f6585-193a-4477-948c-580515d42c9e","ios":"levelo://app?vid=750f6585-193a-4477-948c-580515d42c9e"},"vehicle_type_id":"4","last_reported":1748247610,"current_range_meters":8000,"station_id":"","pricing_plan_id":"cebpf4jnsgd1na2vs0mg"},{"bike_id":"6abb9ab4-3976-4e3e-b994-f2f72ee02055","system_id":"levelo_inurba_marseille","lat":43.31713,"lon":5.3635,"is_reserved":false,"is_disabled":false,"rental_uris":{"android":"levelo://app?vid=6abb9ab4-3976-4e3e-b994-f2f72ee02055","ios":"levelo://app?vid=6abb9ab4-3976-4e3e-b994-f2f72ee02055"},"vehicle_type_id":"4","last_reported":1748247610,"current_range_meters":8000,"station_id":"","pricing_plan_id":"cebpf4jnsgd1na2vs0mg"},{"bike_id":"2d2080cd-0b90-4e6b-aa5a-a3e0ebe96c09","system_id":"levelo_inurba_marseille","lat":43.25938,"lon":5.40915,"is_reserved":false,"is_disabled":false,"rental_uris":{"android":"levelo://app?vid=2d2080cd-0b90-4e6b-aa5a-a3e0ebe96c09","ios":"levelo://app?vid=2d2080cd-0b90-4e6b-aa5a-a3e0ebe96c09"},"vehicle_type_id":"4","last_reported":1748247610,"current_range_meters":8000,"station_id":"ce4bhm92rcd13ifvqglg","pricing_plan_id":"cebpf4jnsgd1na2vs0mg"},{"bike_id":"7bfd42a5-f556-4c02-b736-d267632c0db3","system_id":"levelo_inurba_marseille","lat":43.25899,"lon":5.40876,"is_reserved":false,"is_disabled":false,"rental_uris":{"android":"levelo://app?vid=7bfd42a5-f556-4c02-b736-d267632c0db3","ios":"levelo://app?vid=7bfd42a5-f556-4c02-b736-d267632c0db3"},"vehicle_type_id":"4","last_reported":1748247610,"current_range_meters":8000,"station_id":"ce4bhm92rcd13ifvqglg","pricing_plan_id":"cebpf4jnsgd1na2vs0mg"},{"bike_id":"ae6ecf9c-2cac-4147-bfbf-303685550656","system_id":"levelo_inurba_marseille","lat":43.25106,"lon":5.40335,"is_reserved":false,"is_disabled":false,"rental_uris":{"android":"levelo://app?vid=ae6ecf9c-2cac-4147-bfbf-303685550656","ios":"levelo://app?vid=ae6ecf9c-2cac-4147-bfbf-303685550656"},"vehicle_type_id":"4","last_reported":1748247610,"current_range_meters":8000,"station_id":"ce4bhlh2rcd13ifvqgig","pricing_plan_id":"cebpf4jnsgd1na2vs0mg"},{"bike_id":"81bf3ee7-3147-4b9d-bdfd-f28b50fa9fe4","system_id":"levelo_inurba_marseille","lat":43.29573,"lon":5.37508,"is_reserved":false,"is_disabled":false,"rental_uris":{"android":"levelo://app?vid=81bf3ee7-3147-4b9d-bdfd-f28b50fa9fe4","ios":"levelo://app?vid=81bf3ee7-3147-4b9d-bdfd-f28b50fa9fe4"},"vehicle_type_id":"4","last_reported":1748247610,"current_range_meters":8000,"station_id":"ce4bgh92rcd13ifvqb50","pricing_plan_id":"cebpf4jnsgd1na2vs0mg"},{"bike_id":"a356ddf6-9dae-48da-834a-9264eebc534f","system_id":"levelo_inurba_marseille","lat":43.2871,"lon":5.37908,"is_reserved":false,"is_disabled":false,"rental_uris":{"android":"levelo://app?vid=a356ddf6-9dae-48da-834a-9264eebc534f","ios":"levelo://app?vid=a356ddf6-9dae-48da-834a-9264eebc534f"},"vehicle_type_id":"4","last_reported":1748247610,"current_range_meters":8000,"station_id":"ce4bh9p2rcd13ifvqec0","pricing_plan_id":"cebpf4jnsgd1na2vs0mg"},{"bike_id":"54a3bbf5-ebe4-4594-9532-519c0897eb70","system_id":"levelo_inurba_marseille","lat":43.29957,"lon":5.41325,"is_reserved":false,"is_disabled":true,"rental_uris":{"android":"levelo://app?vid=54a3bbf5-ebe4-4594-9532-519c0897eb70","ios":"levelo://app?vid=54a3bbf5-ebe4-4594-9532-519c0897eb70"},"vehicle_type_id":"4","last_reported":1748247610,"current_range_meters":8400,"station_id":"ce4bhp12rcd13ifvqh9g","pricing_plan_id":"cebpf4jnsgd1na2vs0mg"},{"bike_id":"6cfcf75c-780e-40f0-a07f-2f1d74871175","system_id":"levelo_inurba_marseille","lat":43.29794,"lon":5.37089,"is_reserved":false,"is_disabled":false,"rental_uris":{"android":"levelo://app?vid=6cfcf75c-780e-40f0-a07f-2f1d74871175","ios":"levelo://app?vid=6cfcf75c-780e-40f0-a07f-2f1d74871175"},"vehicle_type_id":"4","last_reported":1748247610,"current_range_meters":8400,"station_id":"ce4bgop2rcd13ifvqc1g","pricing_plan_id":"cebpf4jnsgd1na2vs0mg"},{"bike_id":"5abb8a77-fbf0-4d21-805b-29790cff0e49","system_id":"levelo_inurba_marseille","lat":43.31086,"lon":5.42449,"is_reserved":false,"is_disabled":false,"rental_uris":{"android":"levelo://app?vid=5abb8a77-fbf0-4d21-805b-29790cff0e49","ios":"levelo://app?vid=5abb8a77-fbf0-4d21-805b-29790cff0e49"},"vehicle_type_id":"4","last_reported":1748247610,"current_range_meters":8400,"station_id":"ce4bhp92rcd13ifvqhag","pricing_plan_id":"cebpf4jnsgd1na2vs0mg"},{"bike_id":"ab485184-dee6-4278-8ed8-78cb97c31dd5","system_id":"levelo_inurba_marseille","lat":43.2921,"lon":5.35824,"is_reserved":false,"is_disabled":false,"rental_uris":{"android":"levelo://app?vid=ab485184-dee6-4278-8ed8-78cb97c31dd5","ios":"levelo://app?vid=ab485184-dee6-4278-8ed8-78cb97c31dd5"},"vehicle_type_id":"4","last_reported":1748247610,"current_range_meters":8800,"station_id":"","pricing_plan_id":"cebpf4jnsgd1na2vs0mg"},{"bike_id":"6d07a2e5-0060-4e0c-a9c3-a06866ac8415","system_id":"levelo_inurba_marseille","lat":43.27049,"lon":5.40262,"is_reserved":false,"is_disabled":false,"rental_uris":{"android":"levelo://app?vid=6d07a2e5-0060-4e0c-a9c3-a06866ac8415","ios":"levelo://app?vid=6d07a2e5-0060-4e0c-a9c3-a06866ac8415"},"vehicle_type_id":"4","last_reported":1748247610,"current_range_meters":8800,"station_id":"ce4bhk92rcd13ifvqgc0","pricing_plan_id":"cebpf4jnsgd1na2vs0mg"},{"bike_id":"424e4252-ff81-43e1-85f5-cc40d756bcf9","system_id":"levelo_inurba_marseille","lat":43.28028,"lon":5.36954,"is_reserved":false,"is_disabled":false,"rental_uris":{"android":"levelo://app?vid=424e4252-ff81-43e1-85f5-cc40d756bcf9","ios":"levelo://app?vid=424e4252-ff81-43e1-85f5-cc40d756bcf9"},"vehicle_type_id":"4","last_reported":1748247610,"current_range_meters":8800,"station_id":"ce4bha12rcd13ifvqef0","pricing_plan_id":"cebpf4jnsgd1na2vs0mg"},{"bike_id":"f93b74c5-5226-4250-aaa8-c7e610f5fc0b","system_id":"levelo_inurba_marseille","lat":43.270656,"lon":5.422799,"is_reserved":false,"is_disabled":false,"rental_uris":{"android":"levelo://app?vid=f93b74c5-5226-4250-aaa8-c7e610f5fc0b","ios":"levelo://app?vid=f93b74c5-5226-4250-aaa8-c7e610f5fc0b"},"vehicle_type_id":"4","last_reported":1748247610,"current_range_meters":8800,"station_id":"ce4bhk92rcd13ifvqgb0","pricing_plan_id":"cebpf4jnsgd1na2vs0mg"},{"bike_id":"9c5779b7-7cfd-4519-9010-3ccc4c143e58","system_id":"levelo_inurba_marseille","lat":43.27205,"lon":5.39198,"is_reserved":false,"is_disabled":false,"rental_uris":{"android":"levelo://app?vid=9c5779b7-7cfd-4519-9010-3ccc4c143e58","ios":"levelo://app?vid=9c5779b7-7cfd-4519-9010-3ccc4c143e58"},"vehicle_type_id":"4","last_reported":1748247610,"current_range_meters":8800,"station_id":"ce4bhhp2rcd13ifvqfm0","pricing_plan_id":"cebpf4jnsgd1na2vs0mg"},{"bike_id":"dabc077c-bf8d-431d-a5ea-dcd441e9b7b1","system_id":"levelo_inurba_marseille","lat":43.24879,"lon":5.39724,"is_reserved":false,"is_disabled":false,"rental_uris":{"android":"levelo://app?vid=dabc077c-bf8d-431d-a5ea-dcd441e9b7b1","ios":"levelo://app?vid=dabc077c-bf8d-431d-a5ea-dcd441e9b7b1"},"vehicle_type_id":"4","last_reported":1748247610,"current_range_meters":8800,"station_id":"","pricing_plan_id":"cebpf4jnsgd1na2vs0mg"},{"bike_id":"e562edd2-9a56-4328-9a0d-3e97ffe55bbc","system_id":"levelo_inurba_marseille","lat":43.3361,"lon":5.41038,"is_reserved":false,"is_disabled":false,"rental_uris":{"android":"levelo://app?vid=e562edd2-9a56-4328-9a0d-3e97ffe55bbc","ios":"levelo://app?vid=e562edd2-9a56-4328-9a0d-3e97ffe55bbc"},"vehicle_type_id":"4","last_reported":1748247610,"current_range_meters":8800,"station_id":"ce4bhqh2rcd13ifvqhmg","pricing_plan_id":"cebpf4jnsgd1na2vs0mg"},{"bike_id":"e9496718-b841-4999-823d-28c5bee5d6f1","system_id":"levelo_inurba_marseille","lat":43.265321,"lon":5.389986,"is_reserved":false,"is_disabled":false,"rental_uris":{"android":"levelo://app?vid=e9496718-b841-4999-823d-28c5bee5d6f1","ios":"levelo://app?vid=e9496718-b841-4999-823d-28c5bee5d6f1"},"vehicle_type_id":"4","last_reported":1748247610,"current_range_meters":9200,"station_id":"ce4bhe12rcd13ifvqf30","pricing_plan_id":"cebpf4jnsgd1na2vs0mg"},{"bike_id":"37de66f5-bb20-4eff-84c3-5541b6542d35","system_id":"levelo_inurba_marseille","lat":43.27674,"lon":5.38897,"is_reserved":false,"is_disabled":false,"rental_uris":{"android":"levelo://app?vid=37de66f5-bb20-4eff-84c3-5541b6542d35","ios":"levelo://app?vid=37de66f5-bb20-4eff-84c3-5541b6542d35"},"vehicle_type_id":"4","last_reported":1748247610,"current_range_meters":9200,"station_id":"ce4bhi12rcd13ifvqfo0","pricing_plan_id":"cebpf4jnsgd1na2vs0mg"},{"bike_id":"473cdad8-e86f-436c-900c-612ff8b20c12","system_id":"levelo_inurba_marseille","lat":43.317128,"lon":5.437004,"is_reserved":false,"is_disabled":true,"rental_uris":{"android":"levelo://app?vid=473cdad8-e86f-436c-900c-612ff8b20c12","ios":"levelo://app?vid=473cdad8-e86f-436c-900c-612ff8b20c12"},"vehicle_type_id":"4","last_reported":1748247610,"current_range_meters":9200,"station_id":"ce4bhp92rcd13ifvqhcg","pricing_plan_id":"cebpf4jnsgd1na2vs0mg"},{"bike_id":"14a2bfe3-730f-40e5-a83e-169ee27a58d9","system_id":"levelo_inurba_marseille","lat":43.24809,"lon":5.37453,"is_reserved":false,"is_disabled":false,"rental_uris":{"android":"levelo://app?vid=14a2bfe3-730f-40e5-a83e-169ee27a58d9","ios":"levelo://app?vid=14a2bfe3-730f-40e5-a83e-169ee27a58d9"},"vehicle_type_id":"4","last_reported":1748247610,"current_range_meters":9200,"station_id":"ce4bhgh2rcd13ifvqfb0","pricing_plan_id":"cebpf4jnsgd1na2vs0mg"},{"bike_id":"5aa5e23d-21b2-41ca-9e77-c0c017f76361","system_id":"levelo_inurba_marseille","lat":43.23583,"lon":5.40341,"is_reserved":false,"is_disabled":false,"rental_uris":{"android":"levelo://app?vid=5aa5e23d-21b2-41ca-9e77-c0c017f76361","ios":"levelo://app?vid=5aa5e23d-21b2-41ca-9e77-c0c017f76361"},"vehicle_type_id":"4","last_reported":1748247610,"current_range_meters":9200,"station_id":"","pricing_plan_id":"cebpf4jnsgd1na2vs0mg"},{"bike_id":"b7f342b1-545e-4c5e-b129-846e65f7b1f2","system_id":"levelo_inurba_marseille","lat":43.25932,"lon":5.40898,"is_reserved":false,"is_disabled":false,"rental_uris":{"android":"levelo://app?vid=b7f342b1-545e-4c5e-b129-846e65f7b1f2","ios":"levelo://app?vid=b7f342b1-545e-4c5e-b129-846e65f7b1f2"},"vehicle_type_id":"4","last_reported":1748247610,"current_range_meters":9200,"station_id":"ce4bhm92rcd13ifvqglg","pricing_plan_id":"cebpf4jnsgd1na2vs0mg"},{"bike_id":"0c6f29f1-935f-417d-a7c7-176d83571a87","system_id":"levelo_inurba_marseille","lat":43.26951,"lon":5.38627,"is_reserved":false,"is_disabled":false,"rental_uris":{"android":"levelo://app?vid=0c6f29f1-935f-417d-a7c7-176d83571a87","ios":"levelo://app?vid=0c6f29f1-935f-417d-a7c7-176d83571a87"},"vehicle_type_id":"4","last_reported":1748247610,"current_range_meters":9600,"station_id":"ce4bhh92rcd13ifvqfh0","pricing_plan_id":"cebpf4jnsgd1na2vs0mg"},{"bike_id":"5e15febb-ae5f-47bf-a021-b162e172b4f7","system_id":"levelo_inurba_marseille","lat":43.31355,"lon":5.36699,"is_reserved":false,"is_disabled":false,"rental_uris":{"android":"levelo://app?vid=5e15febb-ae5f-47bf-a021-b162e172b4f7","ios":"levelo://app?vid=5e15febb-ae5f-47bf-a021-b162e172b4f7"},"vehicle_type_id":"4","last_reported":1748247610,"current_range_meters":9600,"station_id":"ce4bgr92rcd13ifvqc6g","pricing_plan_id":"cebpf4jnsgd1na2vs0mg"},{"bike_id":"4ecde69a-3a34-421d-8f3c-6a8fe1837c97","system_id":"levelo_inurba_marseille","lat":43.25723,"lon":5.41104,"is_reserved":false,"is_disabled":false,"rental_uris":{"android":"levelo://app?vid=4ecde69a-3a34-421d-8f3c-6a8fe1837c97","ios":"levelo://app?vid=4ecde69a-3a34-421d-8f3c-6a8fe1837c97"},"vehicle_type_id":"4","last_reported":1748247610,"current_range_meters":9600,"station_id":"ce4bhkp2rcd13ifvqgd0","pricing_plan_id":"cebpf4jnsgd1na2vs0mg"},{"bike_id":"5e1a2b52-832e-47e4-b711-8790ea428275","system_id":"levelo_inurba_marseille","lat":43.30291,"lon":5.37698,"is_reserved":false,"is_disabled":false,"rental_uris":{"android":"levelo://app?vid=5e1a2b52-832e-47e4-b711-8790ea428275","ios":"levelo://app?vid=5e1a2b52-832e-47e4-b711-8790ea428275"},"vehicle_type_id":"4","last_reported":1748247610,"current_range_meters":9600,"station_id":"ce4bguh2rcd13ifvqcj0","pricing_plan_id":"cebpf4jnsgd1na2vs0mg"},{"bike_id":"26f61e91-715d-403f-a1f2-952a7f9b1eaa","system_id":"levelo_inurba_marseille","lat":43.30398,"lon":5.42476,"is_reserved":false,"is_disabled":false,"rental_uris":{"android":"levelo://app?vid=26f61e91-715d-403f-a1f2-952a7f9b1eaa","ios":"levelo://app?vid=26f61e91-715d-403f-a1f2-952a7f9b1eaa"},"vehicle_type_id":"4","last_reported":1748247610,"current_range_meters":9600,"station_id":"ce4bghh2rcd13ifvqb60","pricing_plan_id":"cebpf4jnsgd1na2vs0mg"},{"bike_id":"9aceb5dd-8bb2-4456-9693-0ec346793d22","system_id":"levelo_inurba_marseille","lat":43.26686,"lon":5.38273,"is_reserved":false,"is_disabled":false,"rental_uris":{"android":"levelo://app?vid=9aceb5dd-8bb2-4456-9693-0ec346793d22","ios":"levelo://app?vid=9aceb5dd-8bb2-4456-9693-0ec346793d22"},"vehicle_type_id":"4","last_reported":1748247610,"current_range_meters":10000,"station_id":"ce4bhg92rcd13ifvqf90","pricing_plan_id":"cebpf4jnsgd1na2vs0mg"},{"bike_id":"fc56555b-396d-4667-b896-0ad86036e39e","system_id":"levelo_inurba_marseille","lat":43.25899,"lon":5.38043,"is_reserved":false,"is_disabled":false,"rental_uris":{"android":"levelo://app?vid=fc56555b-396d-4667-b896-0ad86036e39e","ios":"levelo://app?vid=fc56555b-396d-4667-b896-0ad86036e39e"},"vehicle_type_id":"4","last_reported":1748247610,"current_range_meters":10000,"station_id":"","pricing_plan_id":"cebpf4jnsgd1na2vs0mg"},{"bike_id":"5c36638b-9d54-4bb5-98de-de7ea70ce913","system_id":"levelo_inurba_marseille","lat":43.299129,"lon":5.374727,"is_reserved":false,"is_disabled":false,"rental_uris":{"android":"levelo://app?vid=5c36638b-9d54-4bb5-98de-de7ea70ce913","ios":"levelo://app?vid=5c36638b-9d54-4bb5-98de-de7ea70ce913"},"vehicle_type_id":"4","last_reported":1748247610,"current_range_meters":10000,"station_id":"ce4bgjh2rcd13ifvqbg0","pricing_plan_id":"cebpf4jnsgd1na2vs0mg"},{"bike_id":"ac71472d-8d55-47ec-a10f-0d89247d35b1","system_id":"levelo_inurba_marseille","lat":43.32286,"lon":5.38278,"is_reserved":false,"is_disabled":false,"rental_uris":{"android":"levelo://app?vid=ac71472d-8d55-47ec-a10f-0d89247d35b1","ios":"levelo://app?vid=ac71472d-8d55-47ec-a10f-0d89247d35b1"},"vehicle_type_id":"4","last_reported":1748247610,"current_range_meters":10000,"station_id":"ce4bhr12rcd13ifvqhqg","pricing_plan_id":"cebpf4jnsgd1na2vs0mg"},{"bike_id":"6b2fcf28-5426-4461-9131-06b6b0efda09","system_id":"levelo_inurba_marseille","lat":43.31369,"lon":5.3671,"is_reserved":false,"is_disabled":false,"rental_uris":{"android":"levelo://app?vid=6b2fcf28-5426-4461-9131-06b6b0efda09","ios":"levelo://app?vid=6b2fcf28-5426-4461-9131-06b6b0efda09"},"vehicle_type_id":"4","last_reported":1748247610,"current_range_meters":10000,"station_id":"","pricing_plan_id":"cebpf4jnsgd1na2vs0mg"},{"bike_id":"cc86d008-27da-409d-b63d-2d35d462ff29","system_id":"levelo_inurba_marseille","lat":43.31475,"lon":5.37311,"is_reserved":false,"is_disabled":false,"rental_uris":{"android":"levelo://app?vid=cc86d008-27da-409d-b63d-2d35d462ff29","ios":"levelo://app?vid=cc86d008-27da-409d-b63d-2d35d462ff29"},"vehicle_type_id":"4","last_reported":1748247610,"current_range_meters":9600,"station_id":"ce4bgt12rcd13ifvqcd0","pricing_plan_id":"cebpf4jnsgd1na2vs0mg"},{"bike_id":"efd698cb-2450-498f-9f0b-bfc662548e61","system_id":"levelo_inurba_marseille","lat":43.26569,"lon":5.40304,"is_reserved":false,"is_disabled":true,"rental_uris":{"android":"levelo://app?vid=efd698cb-2450-498f-9f0b-bfc662548e61","ios":"levelo://app?vid=efd698cb-2450-498f-9f0b-bfc662548e61"},"vehicle_type_id":"4","last_reported":1748247610,"current_range_meters":10000,"station_id":"","pricing_plan_id":"cebpf4jnsgd1na2vs0mg"},{"bike_id":"dc5af9f7-7931-47bb-b92a-d6d9da1ff218","system_id":"levelo_inurba_marseille","lat":43.26798,"lon":5.40265,"is_reserved":false,"is_disabled":false,"rental_uris":{"android":"levelo://app?vid=dc5af9f7-7931-47bb-b92a-d6d9da1ff218","ios":"levelo://app?vid=dc5af9f7-7931-47bb-b92a-d6d9da1ff218"},"vehicle_type_id":"4","last_reported":1748247610,"current_range_meters":10000,"station_id":"ce501612rcd8frsf0b60","pricing_plan_id":"cebpf4jnsgd1na2vs0mg"},{"bike_id":"4639b282-bd40-44f7-b1b1-8cb07eca63b4","system_id":"levelo_inurba_marseille","lat":43.31719,"lon":5.42403,"is_reserved":false,"is_disabled":false,"rental_uris":{"android":"levelo://app?vid=4639b282-bd40-44f7-b1b1-8cb07eca63b4","ios":"levelo://app?vid=4639b282-bd40-44f7-b1b1-8cb07eca63b4"},"vehicle_type_id":"4","last_reported":1748247610,"current_range_meters":10000,"station_id":"ce4bhp92rcd13ifvqhbg","pricing_plan_id":"cebpf4jnsgd1na2vs0mg"},{"bike_id":"874fba91-fbda-4288-b17f-8759eec81e80","system_id":"levelo_inurba_marseille","lat":43.27081,"lon":5.42274,"is_reserved":false,"is_disabled":false,"rental_uris":{"android":"levelo://app?vid=874fba91-fbda-4288-b17f-8759eec81e80","ios":"levelo://app?vid=874fba91-fbda-4288-b17f-8759eec81e80"},"vehicle_type_id":"4","last_reported":1748247610,"current_range_meters":10000,"station_id":"ce4bhk92rcd13ifvqgb0","pricing_plan_id":"cebpf4jnsgd1na2vs0mg"},{"bike_id":"9566d308-cac5-4de3-8926-a8307c1f0e53","system_id":"levelo_inurba_marseille","lat":43.25585,"lon":5.38196,"is_reserved":false,"is_disabled":false,"rental_uris":{"android":"levelo://app?vid=9566d308-cac5-4de3-8926-a8307c1f0e53","ios":"levelo://app?vid=9566d308-cac5-4de3-8926-a8307c1f0e53"},"vehicle_type_id":"4","last_reported":1748247610,"current_range_meters":10800,"station_id":"ce4bhih2rcd13ifvqfs0","pricing_plan_id":"cebpf4jnsgd1na2vs0mg"},{"bike_id":"a4aef2b9-b7e8-4e2d-8340-592d28bc6c85","system_id":"levelo_inurba_marseille","lat":43.337715,"lon":5.374343,"is_reserved":false,"is_disabled":false,"rental_uris":{"android":"levelo://app?vid=a4aef2b9-b7e8-4e2d-8340-592d28bc6c85","ios":"levelo://app?vid=a4aef2b9-b7e8-4e2d-8340-592d28bc6c85"},"vehicle_type_id":"4","last_reported":1748247610,"current_range_meters":10800,"station_id":"","pricing_plan_id":"cebpf4jnsgd1na2vs0mg"},{"bike_id":"532f42e8-575a-4100-92cd-6db83d378e0b","system_id":"levelo_inurba_marseille","lat":43.284881,"lon":5.384151,"is_reserved":false,"is_disabled":false,"rental_uris":{"android":"levelo://app?vid=532f42e8-575a-4100-92cd-6db83d378e0b","ios":"levelo://app?vid=532f42e8-575a-4100-92cd-6db83d378e0b"},"vehicle_type_id":"4","last_reported":1748247610,"current_range_meters":10000,"station_id":"ce4bhg12rcd13ifvqf80","pricing_plan_id":"cebpf4jnsgd1na2vs0mg"},{"bike_id":"40840570-4709-4fe6-9e92-829b201504df","system_id":"levelo_inurba_marseille","lat":43.25902,"lon":5.40888,"is_reserved":false,"is_disabled":false,"rental_uris":{"android":"levelo://app?vid=40840570-4709-4fe6-9e92-829b201504df","ios":"levelo://app?vid=40840570-4709-4fe6-9e92-829b201504df"},"vehicle_type_id":"4","last_reported":1748247610,"current_range_meters":10800,"station_id":"ce4bhm92rcd13ifvqglg","pricing_plan_id":"cebpf4jnsgd1na2vs0mg"},{"bike_id":"51e9562a-77d6-47f0-ad5a-9804bd84f0a9","system_id":"levelo_inurba_marseille","lat":43.26795,"lon":5.394108,"is_reserved":false,"is_disabled":false,"rental_uris":{"android":"levelo://app?vid=51e9562a-77d6-47f0-ad5a-9804bd84f0a9","ios":"levelo://app?vid=51e9562a-77d6-47f0-ad5a-9804bd84f0a9"},"vehicle_type_id":"4","last_reported":1748247610,"current_range_meters":10800,"station_id":"ce4bhh12rcd13ifvqfg0","pricing_plan_id":"cebpf4jnsgd1na2vs0mg"},{"bike_id":"52e6c115-7a56-4426-835d-625f78ef9631","system_id":"levelo_inurba_marseille","lat":43.3089,"lon":5.36835,"is_reserved":false,"is_disabled":false,"rental_uris":{"android":"levelo://app?vid=52e6c115-7a56-4426-835d-625f78ef9631","ios":"levelo://app?vid=52e6c115-7a56-4426-835d-625f78ef9631"},"vehicle_type_id":"4","last_reported":1748247610,"current_range_meters":10800,"station_id":"ce4bgn92rcd13ifvqbvg","pricing_plan_id":"cebpf4jnsgd1na2vs0mg"},{"bike_id":"22100108-0abe-44fd-a9c2-dcb431835f6e","system_id":"levelo_inurba_marseille","lat":43.240807,"lon":5.37739,"is_reserved":false,"is_disabled":false,"rental_uris":{"android":"levelo://app?vid=22100108-0abe-44fd-a9c2-dcb431835f6e","ios":"levelo://app?vid=22100108-0abe-44fd-a9c2-dcb431835f6e"},"vehicle_type_id":"4","last_reported":1748247610,"current_range_meters":10800,"station_id":"ce4bhnp2rcd13ifvqgvg","pricing_plan_id":"cebpf4jnsgd1na2vs0mg"},{"bike_id":"5c77c2be-3947-4e9e-b235-aff1f6a68198","system_id":"levelo_inurba_marseille","lat":43.29868,"lon":5.39734,"is_reserved":false,"is_disabled":false,"rental_uris":{"android":"levelo://app?vid=5c77c2be-3947-4e9e-b235-aff1f6a68198","ios":"levelo://app?vid=5c77c2be-3947-4e9e-b235-aff1f6a68198"},"vehicle_type_id":"4","last_reported":1748247610,"current_range_meters":11200,"station_id":"ce4bh0h2rcd13ifvqd50","pricing_plan_id":"cebpf4jnsgd1na2vs0mg"},{"bike_id":"e5040cc6-5912-44c1-a358-57f34154615c","system_id":"levelo_inurba_marseille","lat":43.28099,"lon":5.38659,"is_reserved":false,"is_disabled":false,"rental_uris":{"android":"levelo://app?vid=e5040cc6-5912-44c1-a358-57f34154615c","ios":"levelo://app?vid=e5040cc6-5912-44c1-a358-57f34154615c"},"vehicle_type_id":"4","last_reported":1748247610,"current_range_meters":11200,"station_id":"","pricing_plan_id":"cebpf4jnsgd1na2vs0mg"},{"bike_id":"71d2d464-d52d-4902-937c-1151cfcfe760","system_id":"levelo_inurba_marseille","lat":43.29781,"lon":5.38095,"is_reserved":false,"is_disabled":false,"rental_uris":{"android":"levelo://app?vid=71d2d464-d52d-4902-937c-1151cfcfe760","ios":"levelo://app?vid=71d2d464-d52d-4902-937c-1151cfcfe760"},"vehicle_type_id":"4","last_reported":1748247610,"current_range_meters":11200,"station_id":"ce4bgip2rcd13ifvqbb0","pricing_plan_id":"cebpf4jnsgd1na2vs0mg"},{"bike_id":"a277990c-f67b-4ec1-8402-fb9059c17035","system_id":"levelo_inurba_marseille","lat":43.29789,"lon":5.38095,"is_reserved":false,"is_disabled":false,"rental_uris":{"android":"levelo://app?vid=a277990c-f67b-4ec1-8402-fb9059c17035","ios":"levelo://app?vid=a277990c-f67b-4ec1-8402-fb9059c17035"},"vehicle_type_id":"4","last_reported":1748247610,"current_range_meters":11200,"station_id":"ce4bgip2rcd13ifvqbb0","pricing_plan_id":"cebpf4jnsgd1na2vs0mg"},{"bike_id":"41d795fd-6b15-4eca-98cc-80356500dbfe","system_id":"levelo_inurba_marseille","lat":43.24169,"lon":5.36404,"is_reserved":false,"is_disabled":false,"rental_uris":{"android":"levelo://app?vid=41d795fd-6b15-4eca-98cc-80356500dbfe","ios":"levelo://app?vid=41d795fd-6b15-4eca-98cc-80356500dbfe"},"vehicle_type_id":"4","last_reported":1748247610,"current_range_meters":11200,"station_id":"cpo36qri1sfpv3e86is0","pricing_plan_id":"cebpf4jnsgd1na2vs0mg"},{"bike_id":"b744080c-dd77-486d-9609-00c9cf60c1ad","system_id":"levelo_inurba_marseille","lat":43.23692,"lon":5.39072,"is_reserved":false,"is_disabled":false,"rental_uris":{"android":"levelo://app?vid=b744080c-dd77-486d-9609-00c9cf60c1ad","ios":"levelo://app?vid=b744080c-dd77-486d-9609-00c9cf60c1ad"},"vehicle_type_id":"4","last_reported":1748247610,"current_range_meters":11200,"station_id":"","pricing_plan_id":"cebpf4jnsgd1na2vs0mg"},{"bike_id":"f6c6d614-57aa-42d2-bd57-8b2141b94c79","system_id":"levelo_inurba_marseille","lat":43.25745,"lon":5.41042,"is_reserved":false,"is_disabled":false,"rental_uris":{"android":"levelo://app?vid=f6c6d614-57aa-42d2-bd57-8b2141b94c79","ios":"levelo://app?vid=f6c6d614-57aa-42d2-bd57-8b2141b94c79"},"vehicle_type_id":"4","last_reported":1748247610,"current_range_meters":11200,"station_id":"","pricing_plan_id":"cebpf4jnsgd1na2vs0mg"},{"bike_id":"faaa0643-dba9-40a9-8627-2c24953071f4","system_id":"levelo_inurba_marseille","lat":43.31295,"lon":5.36766,"is_reserved":false,"is_disabled":false,"rental_uris":{"android":"levelo://app?vid=faaa0643-dba9-40a9-8627-2c24953071f4","ios":"levelo://app?vid=faaa0643-dba9-40a9-8627-2c24953071f4"},"vehicle_type_id":"4","last_reported":1748247610,"current_range_meters":11200,"station_id":"","pricing_plan_id":"cebpf4jnsgd1na2vs0mg"},{"bike_id":"068edd12-6e13-4e2f-a877-9b9ac24a4ac1","system_id":"levelo_inurba_marseille","lat":43.26211,"lon":5.37439,"is_reserved":false,"is_disabled":false,"rental_uris":{"android":"levelo://app?vid=068edd12-6e13-4e2f-a877-9b9ac24a4ac1","ios":"levelo://app?vid=068edd12-6e13-4e2f-a877-9b9ac24a4ac1"},"vehicle_type_id":"4","last_reported":1748247610,"current_range_meters":11200,"station_id":"ce4bhgp2rcd13ifvqfc0","pricing_plan_id":"cebpf4jnsgd1na2vs0mg"},{"bike_id":"0a78a4cc-823b-4914-83c5-d2143f46dd25","system_id":"levelo_inurba_marseille","lat":43.3054,"lon":5.36688,"is_reserved":false,"is_disabled":false,"rental_uris":{"android":"levelo://app?vid=0a78a4cc-823b-4914-83c5-d2143f46dd25","ios":"levelo://app?vid=0a78a4cc-823b-4914-83c5-d2143f46dd25"},"vehicle_type_id":"4","last_reported":1748247610,"current_range_meters":11200,"station_id":"ce4bgrp2rcd13ifvqc9g","pricing_plan_id":"cebpf4jnsgd1na2vs0mg"},{"bike_id":"770cdeb2-73f9-48b2-b2cc-0c25e077d10d","system_id":"levelo_inurba_marseille","lat":43.29772,"lon":5.3712,"is_reserved":false,"is_disabled":false,"rental_uris":{"android":"levelo://app?vid=770cdeb2-73f9-48b2-b2cc-0c25e077d10d","ios":"levelo://app?vid=770cdeb2-73f9-48b2-b2cc-0c25e077d10d"},"vehicle_type_id":"4","last_reported":1748247610,"current_range_meters":11200,"station_id":"ce4bgop2rcd13ifvqc1g","pricing_plan_id":"cebpf4jnsgd1na2vs0mg"},{"bike_id":"fd0953c8-7a6d-47d2-b492-80420409d735","system_id":"levelo_inurba_marseille","lat":43.23958,"lon":5.36632,"is_reserved":false,"is_disabled":false,"rental_uris":{"android":"levelo://app?vid=fd0953c8-7a6d-47d2-b492-80420409d735","ios":"levelo://app?vid=fd0953c8-7a6d-47d2-b492-80420409d735"},"vehicle_type_id":"4","last_reported":1748247610,"current_range_meters":11600,"station_id":"ce4bhi12rcd13ifvqfp0","pricing_plan_id":"cebpf4jnsgd1na2vs0mg"},{"bike_id":"6a4612f8-d511-472f-9784-e69bac545256","system_id":"levelo_inurba_marseille","lat":43.290097,"lon":5.366413,"is_reserved":false,"is_disabled":false,"rental_uris":{"android":"levelo://app?vid=6a4612f8-d511-472f-9784-e69bac545256","ios":"levelo://app?vid=6a4612f8-d511-472f-9784-e69bac545256"},"vehicle_type_id":"4","last_reported":1748247610,"current_range_meters":11600,"station_id":"","pricing_plan_id":"cebpf4jnsgd1na2vs0mg"},{"bike_id":"6e3d650c-e849-4d77-beaf-1f84a1d4a12d","system_id":"levelo_inurba_marseille","lat":43.2767,"lon":5.38877,"is_reserved":false,"is_disabled":false,"rental_uris":{"android":"levelo://app?vid=6e3d650c-e849-4d77-beaf-1f84a1d4a12d","ios":"levelo://app?vid=6e3d650c-e849-4d77-beaf-1f84a1d4a12d"},"vehicle_type_id":"4","last_reported":1748247610,"current_range_meters":11600,"station_id":"ce4bhi12rcd13ifvqfo0","pricing_plan_id":"cebpf4jnsgd1na2vs0mg"},{"bike_id":"1fa18c39-4753-45db-903d-3dccf32547c4","system_id":"levelo_inurba_marseille","lat":43.27556,"lon":5.38405,"is_reserved":false,"is_disabled":false,"rental_uris":{"android":"levelo://app?vid=1fa18c39-4753-45db-903d-3dccf32547c4","ios":"levelo://app?vid=1fa18c39-4753-45db-903d-3dccf32547c4"},"vehicle_type_id":"4","last_reported":1748247610,"current_range_meters":11600,"station_id":"ce4bhh92rcd13ifvqfi0","pricing_plan_id":"cebpf4jnsgd1na2vs0mg"},{"bike_id":"64dc8219-baff-4f5c-9a6f-b0fb27789e88","system_id":"levelo_inurba_marseille","lat":43.3132,"lon":5.36734,"is_reserved":false,"is_disabled":false,"rental_uris":{"android":"levelo://app?vid=64dc8219-baff-4f5c-9a6f-b0fb27789e88","ios":"levelo://app?vid=64dc8219-baff-4f5c-9a6f-b0fb27789e88"},"vehicle_type_id":"4","last_reported":1748247610,"current_range_meters":12000,"station_id":"","pricing_plan_id":"cebpf4jnsgd1na2vs0mg"},{"bike_id":"77844308-0e62-49c6-9cc7-44a7f8468e0d","system_id":"levelo_inurba_marseille","lat":43.29791,"lon":5.38102,"is_reserved":false,"is_disabled":false,"rental_uris":{"android":"levelo://app?vid=77844308-0e62-49c6-9cc7-44a7f8468e0d","ios":"levelo://app?vid=77844308-0e62-49c6-9cc7-44a7f8468e0d"},"vehicle_type_id":"4","last_reported":1748247610,"current_range_meters":12000,"station_id":"ce4bgip2rcd13ifvqbb0","pricing_plan_id":"cebpf4jnsgd1na2vs0mg"},{"bike_id":"0b8db979-7b9d-485b-9e72-172c76ceb12b","system_id":"levelo_inurba_marseille","lat":43.29843,"lon":5.36275,"is_reserved":false,"is_disabled":false,"rental_uris":{"android":"levelo://app?vid=0b8db979-7b9d-485b-9e72-172c76ceb12b","ios":"levelo://app?vid=0b8db979-7b9d-485b-9e72-172c76ceb12b"},"vehicle_type_id":"4","last_reported":1748247610,"current_range_meters":12000,"station_id":"ce4bgpp2rcd13ifvqc3g","pricing_plan_id":"cebpf4jnsgd1na2vs0mg"},{"bike_id":"530bbe3c-9943-40a0-b2ab-5031f93ebaf7","system_id":"levelo_inurba_marseille","lat":43.28693,"lon":5.37927,"is_reserved":false,"is_disabled":false,"rental_uris":{"android":"levelo://app?vid=530bbe3c-9943-40a0-b2ab-5031f93ebaf7","ios":"levelo://app?vid=530bbe3c-9943-40a0-b2ab-5031f93ebaf7"},"vehicle_type_id":"4","last_reported":1748247610,"current_range_meters":12400,"station_id":"","pricing_plan_id":"cebpf4jnsgd1na2vs0mg"},{"bike_id":"6a17cecb-9cd2-43e7-8c71-ebb38aa41cc3","system_id":"levelo_inurba_marseille","lat":43.24172,"lon":5.39748,"is_reserved":false,"is_disabled":false,"rental_uris":{"android":"levelo://app?vid=6a17cecb-9cd2-43e7-8c71-ebb38aa41cc3","ios":"levelo://app?vid=6a17cecb-9cd2-43e7-8c71-ebb38aa41cc3"},"vehicle_type_id":"4","last_reported":1748247610,"current_range_meters":12400,"station_id":"ce4bhn12rcd13ifvqgpg","pricing_plan_id":"cebpf4jnsgd1na2vs0mg"},{"bike_id":"856639d7-9c6e-4da6-9cf8-9df8bc8e0e8e","system_id":"levelo_inurba_marseille","lat":43.29365,"lon":5.37852,"is_reserved":false,"is_disabled":false,"rental_uris":{"android":"levelo://app?vid=856639d7-9c6e-4da6-9cf8-9df8bc8e0e8e","ios":"levelo://app?vid=856639d7-9c6e-4da6-9cf8-9df8bc8e0e8e"},"vehicle_type_id":"4","last_reported":1748247610,"current_range_meters":12400,"station_id":"ce4bgjh2rcd13ifvqbf0","pricing_plan_id":"cebpf4jnsgd1na2vs0mg"},{"bike_id":"b4f55865-d2c7-4348-8cd8-a5f681fde877","system_id":"levelo_inurba_marseille","lat":43.29565,"lon":5.37512,"is_reserved":false,"is_disabled":true,"rental_uris":{"android":"levelo://app?vid=b4f55865-d2c7-4348-8cd8-a5f681fde877","ios":"levelo://app?vid=b4f55865-d2c7-4348-8cd8-a5f681fde877"},"vehicle_type_id":"4","last_reported":1748247610,"current_range_meters":12400,"station_id":"ce4bgh92rcd13ifvqb50","pricing_plan_id":"cebpf4jnsgd1na2vs0mg"},{"bike_id":"a876743d-3dea-49c4-ac0f-f44ae78983d8","system_id":"levelo_inurba_marseille","lat":43.30545,"lon":5.36711,"is_reserved":false,"is_disabled":false,"rental_uris":{"android":"levelo://app?vid=a876743d-3dea-49c4-ac0f-f44ae78983d8","ios":"levelo://app?vid=a876743d-3dea-49c4-ac0f-f44ae78983d8"},"vehicle_type_id":"4","last_reported":1748247610,"current_range_meters":12400,"station_id":"ce4bgrp2rcd13ifvqc9g","pricing_plan_id":"cebpf4jnsgd1na2vs0mg"},{"bike_id":"f05d834d-f458-4564-99f3-dbd191f77412","system_id":"levelo_inurba_marseille","lat":43.30899,"lon":5.36851,"is_reserved":false,"is_disabled":false,"rental_uris":{"android":"levelo://app?vid=f05d834d-f458-4564-99f3-dbd191f77412","ios":"levelo://app?vid=f05d834d-f458-4564-99f3-dbd191f77412"},"vehicle_type_id":"4","last_reported":1748247610,"current_range_meters":12400,"station_id":"ce4bgn92rcd13ifvqbvg","pricing_plan_id":"cebpf4jnsgd1na2vs0mg"},{"bike_id":"e6edbb3c-3cca-4f02-b483-734348479651","system_id":"levelo_inurba_marseille","lat":43.29001,"lon":5.36583,"is_reserved":false,"is_disabled":true,"rental_uris":{"android":"levelo://app?vid=e6edbb3c-3cca-4f02-b483-734348479651","ios":"levelo://app?vid=e6edbb3c-3cca-4f02-b483-734348479651"},"vehicle_type_id":"4","last_reported":1748247610,"current_range_meters":12400,"station_id":"","pricing_plan_id":"cebpf4jnsgd1na2vs0mg"},{"bike_id":"f0db987f-7a9b-45df-8e26-1d773e43b6e4","system_id":"levelo_inurba_marseille","lat":43.31713,"lon":5.43689,"is_reserved":false,"is_disabled":false,"rental_uris":{"android":"levelo://app?vid=f0db987f-7a9b-45df-8e26-1d773e43b6e4","ios":"levelo://app?vid=f0db987f-7a9b-45df-8e26-1d773e43b6e4"},"vehicle_type_id":"4","last_reported":1748247610,"current_range_meters":12800,"station_id":"ce4bhp92rcd13ifvqhcg","pricing_plan_id":"cebpf4jnsgd1na2vs0mg"},{"bike_id":"ddb8bc9d-6b31-4f17-a2d0-f2da0cc7ec91","system_id":"levelo_inurba_marseille","lat":43.29583,"lon":5.36746,"is_reserved":false,"is_disabled":true,"rental_uris":{"android":"levelo://app?vid=ddb8bc9d-6b31-4f17-a2d0-f2da0cc7ec91","ios":"levelo://app?vid=ddb8bc9d-6b31-4f17-a2d0-f2da0cc7ec91"},"vehicle_type_id":"4","last_reported":1748247610,"current_range_meters":12800,"station_id":"ce4bgph2rcd13ifvqc2g","pricing_plan_id":"cebpf4jnsgd1na2vs0mg"},{"bike_id":"8dfc641a-9f73-4a81-9a41-1b7f6c84075c","system_id":"levelo_inurba_marseille","lat":43.25934,"lon":5.40905,"is_reserved":false,"is_disabled":false,"rental_uris":{"android":"levelo://app?vid=8dfc641a-9f73-4a81-9a41-1b7f6c84075c","ios":"levelo://app?vid=8dfc641a-9f73-4a81-9a41-1b7f6c84075c"},"vehicle_type_id":"4","last_reported":1748247610,"current_range_meters":12800,"station_id":"ce4bhm92rcd13ifvqglg","pricing_plan_id":"cebpf4jnsgd1na2vs0mg"},{"bike_id":"5148f8b2-1ecb-4c76-b37d-928f8d5cde64","system_id":"levelo_inurba_marseille","lat":43.3232,"lon":5.36803,"is_reserved":false,"is_disabled":false,"rental_uris":{"android":"levelo://app?vid=5148f8b2-1ecb-4c76-b37d-928f8d5cde64","ios":"levelo://app?vid=5148f8b2-1ecb-4c76-b37d-928f8d5cde64"},"vehicle_type_id":"4","last_reported":1748247610,"current_range_meters":12800,"station_id":"ce4bhsh2rcd13ifvqi2g","pricing_plan_id":"cebpf4jnsgd1na2vs0mg"},{"bike_id":"d562dc59-8854-4e98-88db-d9631c7ada97","system_id":"levelo_inurba_marseille","lat":43.29273,"lon":5.36843,"is_reserved":false,"is_disabled":false,"rental_uris":{"android":"levelo://app?vid=d562dc59-8854-4e98-88db-d9631c7ada97","ios":"levelo://app?vid=d562dc59-8854-4e98-88db-d9631c7ada97"},"vehicle_type_id":"4","last_reported":1748247610,"current_range_meters":12800,"station_id":"ce4bhbp2rcd13ifvqesg","pricing_plan_id":"cebpf4jnsgd1na2vs0mg"},{"bike_id":"4ef899f0-3200-4631-95b1-dadbaa04c417","system_id":"levelo_inurba_marseille","lat":43.291896,"lon":5.357916,"is_reserved":false,"is_disabled":true,"rental_uris":{"android":"levelo://app?vid=4ef899f0-3200-4631-95b1-dadbaa04c417","ios":"levelo://app?vid=4ef899f0-3200-4631-95b1-dadbaa04c417"},"vehicle_type_id":"4","last_reported":1748247610,"current_range_meters":12800,"station_id":"ce4bhb12rcd13ifvqel0","pricing_plan_id":"cebpf4jnsgd1na2vs0mg"},{"bike_id":"65504ddc-7ab7-43a0-a3d2-de8816ec4859","system_id":"levelo_inurba_marseille","lat":43.30137,"lon":5.37417,"is_reserved":false,"is_disabled":false,"rental_uris":{"android":"levelo://app?vid=65504ddc-7ab7-43a0-a3d2-de8816ec4859","ios":"levelo://app?vid=65504ddc-7ab7-43a0-a3d2-de8816ec4859"},"vehicle_type_id":"4","last_reported":1748247610,"current_range_meters":12800,"station_id":"ce4bgs92rcd13ifvqcc0","pricing_plan_id":"cebpf4jnsgd1na2vs0mg"},{"bike_id":"5cbdee3f-ee0f-461d-bad5-35f54a5ac19e","system_id":"levelo_inurba_marseille","lat":43.29572,"lon":5.3752,"is_reserved":false,"is_disabled":false,"rental_uris":{"android":"levelo://app?vid=5cbdee3f-ee0f-461d-bad5-35f54a5ac19e","ios":"levelo://app?vid=5cbdee3f-ee0f-461d-bad5-35f54a5ac19e"},"vehicle_type_id":"4","last_reported":1748247610,"current_range_meters":12800,"station_id":"ce4bgh92rcd13ifvqb50","pricing_plan_id":"cebpf4jnsgd1na2vs0mg"},{"bike_id":"29bff24e-c898-49da-9ffa-90cdf1d535e8","system_id":"levelo_inurba_marseille","lat":43.2952,"lon":5.39395,"is_reserved":false,"is_disabled":true,"rental_uris":{"android":"levelo://app?vid=29bff24e-c898-49da-9ffa-90cdf1d535e8","ios":"levelo://app?vid=29bff24e-c898-49da-9ffa-90cdf1d535e8"},"vehicle_type_id":"4","last_reported":1748247610,"current_range_meters":12800,"station_id":"ce4bh292rcd13ifvqdf0","pricing_plan_id":"cebpf4jnsgd1na2vs0mg"},{"bike_id":"6ca63454-a079-4d65-9eb4-f68cd2eb2dbd","system_id":"levelo_inurba_marseille","lat":43.24995,"lon":5.38926,"is_reserved":false,"is_disabled":false,"rental_uris":{"android":"levelo://app?vid=6ca63454-a079-4d65-9eb4-f68cd2eb2dbd","ios":"levelo://app?vid=6ca63454-a079-4d65-9eb4-f68cd2eb2dbd"},"vehicle_type_id":"4","last_reported":1748247610,"current_range_meters":12400,"station_id":"ce4bhgp2rcd13ifvqfd0","pricing_plan_id":"cebpf4jnsgd1na2vs0mg"},{"bike_id":"cb6b56c9-30b2-469c-a425-c7d6b5766ad3","system_id":"levelo_inurba_marseille","lat":43.30147,"lon":5.37397,"is_reserved":false,"is_disabled":false,"rental_uris":{"android":"levelo://app?vid=cb6b56c9-30b2-469c-a425-c7d6b5766ad3","ios":"levelo://app?vid=cb6b56c9-30b2-469c-a425-c7d6b5766ad3"},"vehicle_type_id":"4","last_reported":1748247610,"current_range_meters":12800,"station_id":"ce4bgs92rcd13ifvqcc0","pricing_plan_id":"cebpf4jnsgd1na2vs0mg"},{"bike_id":"e2f40862-2dad-445f-a50b-597e397b87fc","system_id":"levelo_inurba_marseille","lat":43.26794,"lon":5.39417,"is_reserved":false,"is_disabled":false,"rental_uris":{"android":"levelo://app?vid=e2f40862-2dad-445f-a50b-597e397b87fc","ios":"levelo://app?vid=e2f40862-2dad-445f-a50b-597e397b87fc"},"vehicle_type_id":"4","last_reported":1748247610,"current_range_meters":13600,"station_id":"ce4bhh12rcd13ifvqfg0","pricing_plan_id":"cebpf4jnsgd1na2vs0mg"},{"bike_id":"b7812530-8b9a-457e-a527-2d9ca3d881ca","system_id":"levelo_inurba_marseille","lat":43.29562,"lon":5.39976,"is_reserved":false,"is_disabled":false,"rental_uris":{"android":"levelo://app?vid=b7812530-8b9a-457e-a527-2d9ca3d881ca","ios":"levelo://app?vid=b7812530-8b9a-457e-a527-2d9ca3d881ca"},"vehicle_type_id":"4","last_reported":1748247610,"current_range_meters":13600,"station_id":"ce4bh312rcd13ifvqdj0","pricing_plan_id":"cebpf4jnsgd1na2vs0mg"},{"bike_id":"f9a19947-a09b-4fc8-b7b9-470c94f2c7c9","system_id":"levelo_inurba_marseille","lat":43.273187,"lon":5.390713,"is_reserved":false,"is_disabled":false,"rental_uris":{"android":"levelo://app?vid=f9a19947-a09b-4fc8-b7b9-470c94f2c7c9","ios":"levelo://app?vid=f9a19947-a09b-4fc8-b7b9-470c94f2c7c9"},"vehicle_type_id":"4","last_reported":1748247610,"current_range_meters":13600,"station_id":"","pricing_plan_id":"cebpf4jnsgd1na2vs0mg"},{"bike_id":"6bc651ec-a708-4e79-842a-b55ef65c4da1","system_id":"levelo_inurba_marseille","lat":43.30305,"lon":5.36895,"is_reserved":false,"is_disabled":true,"rental_uris":{"android":"levelo://app?vid=6bc651ec-a708-4e79-842a-b55ef65c4da1","ios":"levelo://app?vid=6bc651ec-a708-4e79-842a-b55ef65c4da1"},"vehicle_type_id":"4","last_reported":1748247610,"current_range_meters":13600,"station_id":"ce4bgqh2rcd13ifvqc5g","pricing_plan_id":"cebpf4jnsgd1na2vs0mg"},{"bike_id":"1a0998e5-8bb9-474f-a827-53cad24c9e8f","system_id":"levelo_inurba_marseille","lat":43.32047,"lon":5.449663,"is_reserved":false,"is_disabled":false,"rental_uris":{"android":"levelo://app?vid=1a0998e5-8bb9-474f-a827-53cad24c9e8f","ios":"levelo://app?vid=1a0998e5-8bb9-474f-a827-53cad24c9e8f"},"vehicle_type_id":"4","last_reported":1748247610,"current_range_meters":14000,"station_id":"","pricing_plan_id":"cebpf4jnsgd1na2vs0mg"},{"bike_id":"ae6e6868-2635-4f49-b7c1-b03759c58ec7","system_id":"levelo_inurba_marseille","lat":43.27291,"lon":5.41582,"is_reserved":false,"is_disabled":false,"rental_uris":{"android":"levelo://app?vid=ae6e6868-2635-4f49-b7c1-b03759c58ec7","ios":"levelo://app?vid=ae6e6868-2635-4f49-b7c1-b03759c58ec7"},"vehicle_type_id":"4","last_reported":1748247610,"current_range_meters":14000,"station_id":"","pricing_plan_id":"cebpf4jnsgd1na2vs0mg"},{"bike_id":"e731c5df-4fac-4c78-a281-98c64b48b8b9","system_id":"levelo_inurba_marseille","lat":43.23961,"lon":5.36628,"is_reserved":false,"is_disabled":false,"rental_uris":{"android":"levelo://app?vid=e731c5df-4fac-4c78-a281-98c64b48b8b9","ios":"levelo://app?vid=e731c5df-4fac-4c78-a281-98c64b48b8b9"},"vehicle_type_id":"4","last_reported":1748247610,"current_range_meters":14000,"station_id":"ce4bhi12rcd13ifvqfp0","pricing_plan_id":"cebpf4jnsgd1na2vs0mg"},{"bike_id":"27812209-e3ad-461e-bc76-ca951b1dd558","system_id":"levelo_inurba_marseille","lat":43.27998,"lon":5.40011,"is_reserved":false,"is_disabled":false,"rental_uris":{"android":"levelo://app?vid=27812209-e3ad-461e-bc76-ca951b1dd558","ios":"levelo://app?vid=27812209-e3ad-461e-bc76-ca951b1dd558"},"vehicle_type_id":"4","last_reported":1748247610,"current_range_meters":14000,"station_id":"ce4bho92rcd13ifvqh4g","pricing_plan_id":"cebpf4jnsgd1na2vs0mg"},{"bike_id":"393bb026-2978-44df-b6d2-3150874b2dc1","system_id":"levelo_inurba_marseille","lat":43.31711,"lon":5.37735,"is_reserved":false,"is_disabled":false,"rental_uris":{"android":"levelo://app?vid=393bb026-2978-44df-b6d2-3150874b2dc1","ios":"levelo://app?vid=393bb026-2978-44df-b6d2-3150874b2dc1"},"vehicle_type_id":"4","last_reported":1748247610,"current_range_meters":14000,"station_id":"ce4bgth2rcd13ifvqch0","pricing_plan_id":"cebpf4jnsgd1na2vs0mg"},{"bike_id":"b7686073-cedc-47c0-a4ff-b85042530a1a","system_id":"levelo_inurba_marseille","lat":43.24067,"lon":5.37763,"is_reserved":false,"is_disabled":false,"rental_uris":{"android":"levelo://app?vid=b7686073-cedc-47c0-a4ff-b85042530a1a","ios":"levelo://app?vid=b7686073-cedc-47c0-a4ff-b85042530a1a"},"vehicle_type_id":"4","last_reported":1748247610,"current_range_meters":14400,"station_id":"ce4bhnp2rcd13ifvqgvg","pricing_plan_id":"cebpf4jnsgd1na2vs0mg"},{"bike_id":"51c3179e-1a03-4290-b5f0-508e095adf86","system_id":"levelo_inurba_marseille","lat":43.309089,"lon":5.368445,"is_reserved":false,"is_disabled":false,"rental_uris":{"android":"levelo://app?vid=51c3179e-1a03-4290-b5f0-508e095adf86","ios":"levelo://app?vid=51c3179e-1a03-4290-b5f0-508e095adf86"},"vehicle_type_id":"4","last_reported":1748247610,"current_range_meters":14400,"station_id":"ce4bgn92rcd13ifvqbvg","pricing_plan_id":"cebpf4jnsgd1na2vs0mg"},{"bike_id":"8abaecc5-0ffe-44fc-b9f5-d4aa22e2835d","system_id":"levelo_inurba_marseille","lat":43.3092,"lon":5.36845,"is_reserved":false,"is_disabled":true,"rental_uris":{"android":"levelo://app?vid=8abaecc5-0ffe-44fc-b9f5-d4aa22e2835d","ios":"levelo://app?vid=8abaecc5-0ffe-44fc-b9f5-d4aa22e2835d"},"vehicle_type_id":"4","last_reported":1748247610,"current_range_meters":14400,"station_id":"ce4bgn92rcd13ifvqbvg","pricing_plan_id":"cebpf4jnsgd1na2vs0mg"},{"bike_id":"720d19b7-025f-4fb1-bfc8-e5f0d86e224e","system_id":"levelo_inurba_marseille","lat":43.30415,"lon":5.3975,"is_reserved":false,"is_disabled":false,"rental_uris":{"android":"levelo://app?vid=720d19b7-025f-4fb1-bfc8-e5f0d86e224e","ios":"levelo://app?vid=720d19b7-025f-4fb1-bfc8-e5f0d86e224e"},"vehicle_type_id":"4","last_reported":1748247610,"current_range_meters":14400,"station_id":"ce4bh092rcd13ifvqd20","pricing_plan_id":"cebpf4jnsgd1na2vs0mg"},{"bike_id":"f8221895-ab5f-46e7-b177-153a00098359","system_id":"levelo_inurba_marseille","lat":43.21753,"lon":5.34599,"is_reserved":false,"is_disabled":true,"rental_uris":{"android":"levelo://app?vid=f8221895-ab5f-46e7-b177-153a00098359","ios":"levelo://app?vid=f8221895-ab5f-46e7-b177-153a00098359"},"vehicle_type_id":"4","last_reported":1748247610,"current_range_meters":14400,"station_id":"st_cvj6r9ubvosntc0bgbag","pricing_plan_id":"cebpf4jnsgd1na2vs0mg"},{"bike_id":"fb51efa7-69fe-4e95-9e07-e182215507e0","system_id":"levelo_inurba_marseille","lat":43.31343,"lon":5.36735,"is_reserved":false,"is_disabled":false,"rental_uris":{"android":"levelo://app?vid=fb51efa7-69fe-4e95-9e07-e182215507e0","ios":"levelo://app?vid=fb51efa7-69fe-4e95-9e07-e182215507e0"},"vehicle_type_id":"4","last_reported":1748247610,"current_range_meters":14400,"station_id":"ce4bgr92rcd13ifvqc6g","pricing_plan_id":"cebpf4jnsgd1na2vs0mg"},{"bike_id":"7d82a684-fb64-452d-9635-e4633585f955","system_id":"levelo_inurba_marseille","lat":43.26955,"lon":5.38635,"is_reserved":false,"is_disabled":false,"rental_uris":{"android":"levelo://app?vid=7d82a684-fb64-452d-9635-e4633585f955","ios":"levelo://app?vid=7d82a684-fb64-452d-9635-e4633585f955"},"vehicle_type_id":"4","last_reported":1748247610,"current_range_meters":14000,"station_id":"ce4bhh92rcd13ifvqfh0","pricing_plan_id":"cebpf4jnsgd1na2vs0mg"},{"bike_id":"2ede3a10-cf4f-4b32-900a-acf54dc804ce","system_id":"levelo_inurba_marseille","lat":43.31226,"lon":5.36863,"is_reserved":false,"is_disabled":false,"rental_uris":{"android":"levelo://app?vid=2ede3a10-cf4f-4b32-900a-acf54dc804ce","ios":"levelo://app?vid=2ede3a10-cf4f-4b32-900a-acf54dc804ce"},"vehicle_type_id":"4","last_reported":1748247610,"current_range_meters":14400,"station_id":"ce4bgl92rcd13ifvqbq0","pricing_plan_id":"cebpf4jnsgd1na2vs0mg"},{"bike_id":"b1ebed4c-f125-4320-aef0-494f6ac234f2","system_id":"levelo_inurba_marseille","lat":43.27492,"lon":5.4245,"is_reserved":false,"is_disabled":false,"rental_uris":{"android":"levelo://app?vid=b1ebed4c-f125-4320-aef0-494f6ac234f2","ios":"levelo://app?vid=b1ebed4c-f125-4320-aef0-494f6ac234f2"},"vehicle_type_id":"4","last_reported":1748247610,"current_range_meters":14400,"station_id":"ce4bhn92rcd13ifvqgrg","pricing_plan_id":"cebpf4jnsgd1na2vs0mg"},{"bike_id":"9af7864d-bf29-4fe8-823e-6832a30f7b66","system_id":"levelo_inurba_marseille","lat":43.31726,"lon":5.42395,"is_reserved":false,"is_disabled":false,"rental_uris":{"android":"levelo://app?vid=9af7864d-bf29-4fe8-823e-6832a30f7b66","ios":"levelo://app?vid=9af7864d-bf29-4fe8-823e-6832a30f7b66"},"vehicle_type_id":"4","last_reported":1748247610,"current_range_meters":14800,"station_id":"ce4bhp92rcd13ifvqhbg","pricing_plan_id":"cebpf4jnsgd1na2vs0mg"},{"bike_id":"b73fb798-5eef-47be-b230-d7813f569e50","system_id":"levelo_inurba_marseille","lat":43.2975,"lon":5.38111,"is_reserved":false,"is_disabled":true,"rental_uris":{"android":"levelo://app?vid=b73fb798-5eef-47be-b230-d7813f569e50","ios":"levelo://app?vid=b73fb798-5eef-47be-b230-d7813f569e50"},"vehicle_type_id":"4","last_reported":1748247610,"current_range_meters":14800,"station_id":"ce4bgip2rcd13ifvqbb0","pricing_plan_id":"cebpf4jnsgd1na2vs0mg"},{"bike_id":"4443286a-c1bd-478e-bb42-fb9895a5ff6c","system_id":"levelo_inurba_marseille","lat":43.268054,"lon":5.402571,"is_reserved":false,"is_disabled":false,"rental_uris":{"android":"levelo://app?vid=4443286a-c1bd-478e-bb42-fb9895a5ff6c","ios":"levelo://app?vid=4443286a-c1bd-478e-bb42-fb9895a5ff6c"},"vehicle_type_id":"4","last_reported":1748247610,"current_range_meters":14800,"station_id":"ce501612rcd8frsf0b60","pricing_plan_id":"cebpf4jnsgd1na2vs0mg"},{"bike_id":"34ffc6fe-38af-4bc3-86c8-742ab3b6ded8","system_id":"levelo_inurba_marseille","lat":43.30309,"lon":5.40455,"is_reserved":false,"is_disabled":true,"rental_uris":{"android":"levelo://app?vid=34ffc6fe-38af-4bc3-86c8-742ab3b6ded8","ios":"levelo://app?vid=34ffc6fe-38af-4bc3-86c8-742ab3b6ded8"},"vehicle_type_id":"4","last_reported":1748247610,"current_range_meters":14800,"station_id":"ce4bh012rcd13ifvqd10","pricing_plan_id":"cebpf4jnsgd1na2vs0mg"},{"bike_id":"a3d5ef11-d80a-4218-84c3-5ab544271ba9","system_id":"levelo_inurba_marseille","lat":43.30313,"lon":5.39209,"is_reserved":false,"is_disabled":false,"rental_uris":{"android":"levelo://app?vid=a3d5ef11-d80a-4218-84c3-5ab544271ba9","ios":"levelo://app?vid=a3d5ef11-d80a-4218-84c3-5ab544271ba9"},"vehicle_type_id":"4","last_reported":1748247610,"current_range_meters":14800,"station_id":"ce4bgkh2rcd13ifvqbk0","pricing_plan_id":"cebpf4jnsgd1na2vs0mg"},{"bike_id":"862ecc0b-0857-4ea2-9c83-8f3ecbf6a143","system_id":"levelo_inurba_marseille","lat":43.29017,"lon":5.38637,"is_reserved":false,"is_disabled":false,"rental_uris":{"android":"levelo://app?vid=862ecc0b-0857-4ea2-9c83-8f3ecbf6a143","ios":"levelo://app?vid=862ecc0b-0857-4ea2-9c83-8f3ecbf6a143"},"vehicle_type_id":"4","last_reported":1748247610,"current_range_meters":15200,"station_id":"ce4bh4p2rcd13ifvqe0g","pricing_plan_id":"cebpf4jnsgd1na2vs0mg"},{"bike_id":"5835b5b0-33f0-4a92-aba8-2d23d2c21e8d","system_id":"levelo_inurba_marseille","lat":43.27372,"lon":5.36255,"is_reserved":false,"is_disabled":false,"rental_uris":{"android":"levelo://app?vid=5835b5b0-33f0-4a92-aba8-2d23d2c21e8d","ios":"levelo://app?vid=5835b5b0-33f0-4a92-aba8-2d23d2c21e8d"},"vehicle_type_id":"4","last_reported":1748247610,"current_range_meters":15200,"station_id":"ce4bhbh2rcd13ifvqeo0","pricing_plan_id":"cebpf4jnsgd1na2vs0mg"},{"bike_id":"c7f6985e-4ae6-44a7-9a4f-5818470e9c1a","system_id":"levelo_inurba_marseille","lat":43.30466,"lon":5.37913,"is_reserved":false,"is_disabled":false,"rental_uris":{"android":"levelo://app?vid=c7f6985e-4ae6-44a7-9a4f-5818470e9c1a","ios":"levelo://app?vid=c7f6985e-4ae6-44a7-9a4f-5818470e9c1a"},"vehicle_type_id":"4","last_reported":1748247610,"current_range_meters":15200,"station_id":"","pricing_plan_id":"cebpf4jnsgd1na2vs0mg"},{"bike_id":"1a775a5e-1792-4706-b4f6-ec50ef749d53","system_id":"levelo_inurba_marseille","lat":43.255796,"lon":5.38223,"is_reserved":false,"is_disabled":false,"rental_uris":{"android":"levelo://app?vid=1a775a5e-1792-4706-b4f6-ec50ef749d53","ios":"levelo://app?vid=1a775a5e-1792-4706-b4f6-ec50ef749d53"},"vehicle_type_id":"4","last_reported":1748247610,"current_range_meters":15200,"station_id":"ce4bhih2rcd13ifvqfs0","pricing_plan_id":"cebpf4jnsgd1na2vs0mg"},{"bike_id":"e28d35da-2704-4bbf-b73a-bff03cf758c8","system_id":"levelo_inurba_marseille","lat":43.29574,"lon":5.39976,"is_reserved":false,"is_disabled":false,"rental_uris":{"android":"levelo://app?vid=e28d35da-2704-4bbf-b73a-bff03cf758c8","ios":"levelo://app?vid=e28d35da-2704-4bbf-b73a-bff03cf758c8"},"vehicle_type_id":"4","last_reported":1748247610,"current_range_meters":15200,"station_id":"ce4bh312rcd13ifvqdj0","pricing_plan_id":"cebpf4jnsgd1na2vs0mg"},{"bike_id":"bd59bb81-0935-470b-81db-4ac2a511a2dc","system_id":"levelo_inurba_marseille","lat":43.29896,"lon":5.43668,"is_reserved":false,"is_disabled":false,"rental_uris":{"android":"levelo://app?vid=bd59bb81-0935-470b-81db-4ac2a511a2dc","ios":"levelo://app?vid=bd59bb81-0935-470b-81db-4ac2a511a2dc"},"vehicle_type_id":"4","last_reported":1748247610,"current_range_meters":15200,"station_id":"ce4bhpp2rcd13ifvqhfg","pricing_plan_id":"cebpf4jnsgd1na2vs0mg"},{"bike_id":"c00abe40-2113-4d29-8e72-a841dce58b38","system_id":"levelo_inurba_marseille","lat":43.285533,"lon":5.385019,"is_reserved":false,"is_disabled":false,"rental_uris":{"android":"levelo://app?vid=c00abe40-2113-4d29-8e72-a841dce58b38","ios":"levelo://app?vid=c00abe40-2113-4d29-8e72-a841dce58b38"},"vehicle_type_id":"4","last_reported":1748247610,"current_range_meters":15200,"station_id":"","pricing_plan_id":"cebpf4jnsgd1na2vs0mg"},{"bike_id":"02d93c50-d0c3-4eef-97b2-f7b19eca064f","system_id":"levelo_inurba_marseille","lat":43.29018,"lon":5.3726,"is_reserved":false,"is_disabled":true,"rental_uris":{"android":"levelo://app?vid=02d93c50-d0c3-4eef-97b2-f7b19eca064f","ios":"levelo://app?vid=02d93c50-d0c3-4eef-97b2-f7b19eca064f"},"vehicle_type_id":"4","last_reported":1748247610,"current_range_meters":15200,"station_id":"","pricing_plan_id":"cebpf4jnsgd1na2vs0mg"},{"bike_id":"5cb8203e-e89d-4be2-9eca-b18f75b5591c","system_id":"levelo_inurba_marseille","lat":43.2315,"lon":5.43723,"is_reserved":false,"is_disabled":false,"rental_uris":{"android":"levelo://app?vid=5cb8203e-e89d-4be2-9eca-b18f75b5591c","ios":"levelo://app?vid=5cb8203e-e89d-4be2-9eca-b18f75b5591c"},"vehicle_type_id":"4","last_reported":1748247610,"current_range_meters":16000,"station_id":"ce4bhmp2rcd13ifvqgog","pricing_plan_id":"cebpf4jnsgd1na2vs0mg"},{"bike_id":"77e915c2-102e-4aae-a236-d9d43c13a376","system_id":"levelo_inurba_marseille","lat":43.30539,"lon":5.36533,"is_reserved":false,"is_disabled":false,"rental_uris":{"android":"levelo://app?vid=77e915c2-102e-4aae-a236-d9d43c13a376","ios":"levelo://app?vid=77e915c2-102e-4aae-a236-d9d43c13a376"},"vehicle_type_id":"4","last_reported":1748247610,"current_range_meters":16000,"station_id":"ce4bgs12rcd13ifvqcag","pricing_plan_id":"cebpf4jnsgd1na2vs0mg"},{"bike_id":"c636587a-4feb-4216-8bef-48c303a326c7","system_id":"levelo_inurba_marseille","lat":43.30508,"lon":5.37267,"is_reserved":false,"is_disabled":false,"rental_uris":{"android":"levelo://app?vid=c636587a-4feb-4216-8bef-48c303a326c7","ios":"levelo://app?vid=c636587a-4feb-4216-8bef-48c303a326c7"},"vehicle_type_id":"4","last_reported":1748247610,"current_range_meters":16000,"station_id":"","pricing_plan_id":"cebpf4jnsgd1na2vs0mg"},{"bike_id":"b1eb3a72-30c0-4f8b-b129-72af4111c29c","system_id":"levelo_inurba_marseille","lat":43.26802,"lon":5.40263,"is_reserved":false,"is_disabled":false,"rental_uris":{"android":"levelo://app?vid=b1eb3a72-30c0-4f8b-b129-72af4111c29c","ios":"levelo://app?vid=b1eb3a72-30c0-4f8b-b129-72af4111c29c"},"vehicle_type_id":"4","last_reported":1748247610,"current_range_meters":16000,"station_id":"ce501612rcd8frsf0b60","pricing_plan_id":"cebpf4jnsgd1na2vs0mg"},{"bike_id":"f8ece8a7-cd0a-4684-ae25-2d276bd6187e","system_id":"levelo_inurba_marseille","lat":43.336,"lon":5.41027,"is_reserved":false,"is_disabled":false,"rental_uris":{"android":"levelo://app?vid=f8ece8a7-cd0a-4684-ae25-2d276bd6187e","ios":"levelo://app?vid=f8ece8a7-cd0a-4684-ae25-2d276bd6187e"},"vehicle_type_id":"4","last_reported":1748247610,"current_range_meters":16000,"station_id":"ce4bhqh2rcd13ifvqhmg","pricing_plan_id":"cebpf4jnsgd1na2vs0mg"},{"bike_id":"5d9b1af1-f977-4a30-b2a5-33040eae71a9","system_id":"levelo_inurba_marseille","lat":43.22513,"lon":5.34779,"is_reserved":false,"is_disabled":false,"rental_uris":{"android":"levelo://app?vid=5d9b1af1-f977-4a30-b2a5-33040eae71a9","ios":"levelo://app?vid=5d9b1af1-f977-4a30-b2a5-33040eae71a9"},"vehicle_type_id":"4","last_reported":1748247610,"current_range_meters":16000,"station_id":"","pricing_plan_id":"cebpf4jnsgd1na2vs0mg"},{"bike_id":"ca2b213b-9afd-4292-be6c-c2185a67a40f","system_id":"levelo_inurba_marseille","lat":43.27489,"lon":5.42445,"is_reserved":false,"is_disabled":false,"rental_uris":{"android":"levelo://app?vid=ca2b213b-9afd-4292-be6c-c2185a67a40f","ios":"levelo://app?vid=ca2b213b-9afd-4292-be6c-c2185a67a40f"},"vehicle_type_id":"4","last_reported":1748247610,"current_range_meters":16000,"station_id":"ce4bhn92rcd13ifvqgrg","pricing_plan_id":"cebpf4jnsgd1na2vs0mg"},{"bike_id":"ed718ae2-79ad-47f3-8444-61475d17bc96","system_id":"levelo_inurba_marseille","lat":43.30944,"lon":5.39037,"is_reserved":false,"is_disabled":false,"rental_uris":{"android":"levelo://app?vid=ed718ae2-79ad-47f3-8444-61475d17bc96","ios":"levelo://app?vid=ed718ae2-79ad-47f3-8444-61475d17bc96"},"vehicle_type_id":"4","last_reported":1748247610,"current_range_meters":16000,"station_id":"ce4bgup2rcd13ifvqco0","pricing_plan_id":"cebpf4jnsgd1na2vs0mg"},{"bike_id":"c07b68dc-e27a-4cfa-9438-a79b9c09b01d","system_id":"levelo_inurba_marseille","lat":43.29033,"lon":5.37589,"is_reserved":false,"is_disabled":false,"rental_uris":{"android":"levelo://app?vid=c07b68dc-e27a-4cfa-9438-a79b9c09b01d","ios":"levelo://app?vid=c07b68dc-e27a-4cfa-9438-a79b9c09b01d"},"vehicle_type_id":"4","last_reported":1748247610,"current_range_meters":16000,"station_id":"ce4bh692rcd13ifvqe90","pricing_plan_id":"cebpf4jnsgd1na2vs0mg"},{"bike_id":"31b4b7c8-e979-44c4-8095-d70dbfec09df","system_id":"levelo_inurba_marseille","lat":43.24168,"lon":5.36383,"is_reserved":false,"is_disabled":false,"rental_uris":{"android":"levelo://app?vid=31b4b7c8-e979-44c4-8095-d70dbfec09df","ios":"levelo://app?vid=31b4b7c8-e979-44c4-8095-d70dbfec09df"},"vehicle_type_id":"4","last_reported":1748247610,"current_range_meters":16000,"station_id":"cpo36qri1sfpv3e86is0","pricing_plan_id":"cebpf4jnsgd1na2vs0mg"},{"bike_id":"f5b1aa50-af32-4b67-af03-fc8d46feddb5","system_id":"levelo_inurba_marseille","lat":43.292694,"lon":5.401271,"is_reserved":false,"is_disabled":false,"rental_uris":{"android":"levelo://app?vid=f5b1aa50-af32-4b67-af03-fc8d46feddb5","ios":"levelo://app?vid=f5b1aa50-af32-4b67-af03-fc8d46feddb5"},"vehicle_type_id":"4","last_reported":1748247610,"current_range_meters":16000,"station_id":"","pricing_plan_id":"cebpf4jnsgd1na2vs0mg"},{"bike_id":"e565e562-2c65-4430-a127-3bd3d57afe87","system_id":"levelo_inurba_marseille","lat":43.25563,"lon":5.38233,"is_reserved":false,"is_disabled":false,"rental_uris":{"android":"levelo://app?vid=e565e562-2c65-4430-a127-3bd3d57afe87","ios":"levelo://app?vid=e565e562-2c65-4430-a127-3bd3d57afe87"},"vehicle_type_id":"4","last_reported":1748247610,"current_range_meters":16000,"station_id":"ce4bhih2rcd13ifvqfs0","pricing_plan_id":"cebpf4jnsgd1na2vs0mg"},{"bike_id":"2e5fdc7f-c2c5-4ff4-bd3e-249f41c4fa0c","system_id":"levelo_inurba_marseille","lat":43.26681,"lon":5.38263,"is_reserved":false,"is_disabled":false,"rental_uris":{"android":"levelo://app?vid=2e5fdc7f-c2c5-4ff4-bd3e-249f41c4fa0c","ios":"levelo://app?vid=2e5fdc7f-c2c5-4ff4-bd3e-249f41c4fa0c"},"vehicle_type_id":"4","last_reported":1748247610,"current_range_meters":16000,"station_id":"ce4bhg92rcd13ifvqf90","pricing_plan_id":"cebpf4jnsgd1na2vs0mg"},{"bike_id":"829d5a7b-a281-4035-8670-d541acbf4ae1","system_id":"levelo_inurba_marseille","lat":43.27211,"lon":5.39175,"is_reserved":false,"is_disabled":true,"rental_uris":{"android":"levelo://app?vid=829d5a7b-a281-4035-8670-d541acbf4ae1","ios":"levelo://app?vid=829d5a7b-a281-4035-8670-d541acbf4ae1"},"vehicle_type_id":"4","last_reported":1748247610,"current_range_meters":16400,"station_id":"ce4bhhp2rcd13ifvqfm0","pricing_plan_id":"cebpf4jnsgd1na2vs0mg"},{"bike_id":"e6c65de3-7d92-4979-809c-6677188473c0","system_id":"levelo_inurba_marseille","lat":43.337711,"lon":5.374355,"is_reserved":false,"is_disabled":false,"rental_uris":{"android":"levelo://app?vid=e6c65de3-7d92-4979-809c-6677188473c0","ios":"levelo://app?vid=e6c65de3-7d92-4979-809c-6677188473c0"},"vehicle_type_id":"4","last_reported":1748247610,"current_range_meters":16400,"station_id":"","pricing_plan_id":"cebpf4jnsgd1na2vs0mg"},{"bike_id":"6ef27e84-462a-46f9-afe5-e09b209cc7f0","system_id":"levelo_inurba_marseille","lat":43.331149,"lon":5.362068,"is_reserved":false,"is_disabled":false,"rental_uris":{"android":"levelo://app?vid=6ef27e84-462a-46f9-afe5-e09b209cc7f0","ios":"levelo://app?vid=6ef27e84-462a-46f9-afe5-e09b209cc7f0"},"vehicle_type_id":"4","last_reported":1748247610,"current_range_meters":16400,"station_id":"","pricing_plan_id":"cebpf4jnsgd1na2vs0mg"},{"bike_id":"2c4ee241-6ad0-4afe-a181-32ff6f43068b","system_id":"levelo_inurba_marseille","lat":43.30902,"lon":5.36875,"is_reserved":false,"is_disabled":false,"rental_uris":{"android":"levelo://app?vid=2c4ee241-6ad0-4afe-a181-32ff6f43068b","ios":"levelo://app?vid=2c4ee241-6ad0-4afe-a181-32ff6f43068b"},"vehicle_type_id":"4","last_reported":1748247610,"current_range_meters":16400,"station_id":"ce4bgn92rcd13ifvqbvg","pricing_plan_id":"cebpf4jnsgd1na2vs0mg"},{"bike_id":"e209d5d0-03ee-4f9d-ac08-ae4b4bb84b62","system_id":"levelo_inurba_marseille","lat":43.24168,"lon":5.39733,"is_reserved":false,"is_disabled":false,"rental_uris":{"android":"levelo://app?vid=e209d5d0-03ee-4f9d-ac08-ae4b4bb84b62","ios":"levelo://app?vid=e209d5d0-03ee-4f9d-ac08-ae4b4bb84b62"},"vehicle_type_id":"4","last_reported":1748247610,"current_range_meters":16400,"station_id":"ce4bhn12rcd13ifvqgpg","pricing_plan_id":"cebpf4jnsgd1na2vs0mg"},{"bike_id":"939ccbc4-853d-4f61-8d4c-290a93633dcb","system_id":"levelo_inurba_marseille","lat":43.26932,"lon":5.38921,"is_reserved":false,"is_disabled":false,"rental_uris":{"android":"levelo://app?vid=939ccbc4-853d-4f61-8d4c-290a93633dcb","ios":"levelo://app?vid=939ccbc4-853d-4f61-8d4c-290a93633dcb"},"vehicle_type_id":"4","last_reported":1748247610,"current_range_meters":16400,"station_id":"ce4bhhh2rcd13ifvqfl0","pricing_plan_id":"cebpf4jnsgd1na2vs0mg"},{"bike_id":"e0edf264-5a4a-47ec-a5f4-1dcc71416973","system_id":"levelo_inurba_marseille","lat":43.29025,"lon":5.38144,"is_reserved":false,"is_disabled":false,"rental_uris":{"android":"levelo://app?vid=e0edf264-5a4a-47ec-a5f4-1dcc71416973","ios":"levelo://app?vid=e0edf264-5a4a-47ec-a5f4-1dcc71416973"},"vehicle_type_id":"4","last_reported":1748247610,"current_range_meters":16000,"station_id":"ce4bh4p2rcd13ifvqe1g","pricing_plan_id":"cebpf4jnsgd1na2vs0mg"},{"bike_id":"d5658925-7a88-4989-8de6-5e98b3f857f6","system_id":"levelo_inurba_marseille","lat":43.33601,"lon":5.41022,"is_reserved":false,"is_disabled":false,"rental_uris":{"android":"levelo://app?vid=d5658925-7a88-4989-8de6-5e98b3f857f6","ios":"levelo://app?vid=d5658925-7a88-4989-8de6-5e98b3f857f6"},"vehicle_type_id":"4","last_reported":1748247610,"current_range_meters":16400,"station_id":"ce4bhqh2rcd13ifvqhmg","pricing_plan_id":"cebpf4jnsgd1na2vs0mg"},{"bike_id":"e3817f2d-af99-43a0-93c1-0cac6c3029e4","system_id":"levelo_inurba_marseille","lat":43.26936,"lon":5.38921,"is_reserved":false,"is_disabled":false,"rental_uris":{"android":"levelo://app?vid=e3817f2d-af99-43a0-93c1-0cac6c3029e4","ios":"levelo://app?vid=e3817f2d-af99-43a0-93c1-0cac6c3029e4"},"vehicle_type_id":"4","last_reported":1748247610,"current_range_meters":16000,"station_id":"ce4bhhh2rcd13ifvqfl0","pricing_plan_id":"cebpf4jnsgd1na2vs0mg"},{"bike_id":"3bd5dde3-1b3b-4124-95d2-e6ff2c3d3ad4","system_id":"levelo_inurba_marseille","lat":43.29248,"lon":5.37602,"is_reserved":false,"is_disabled":false,"rental_uris":{"android":"levelo://app?vid=3bd5dde3-1b3b-4124-95d2-e6ff2c3d3ad4","ios":"levelo://app?vid=3bd5dde3-1b3b-4124-95d2-e6ff2c3d3ad4"},"vehicle_type_id":"4","last_reported":1748247610,"current_range_meters":16400,"station_id":"ce4bgi12rcd13ifvqb80","pricing_plan_id":"cebpf4jnsgd1na2vs0mg"},{"bike_id":"2a046dee-b3af-48c9-9659-b7d30ba20af5","system_id":"levelo_inurba_marseille","lat":43.243263,"lon":5.379934,"is_reserved":false,"is_disabled":false,"rental_uris":{"android":"levelo://app?vid=2a046dee-b3af-48c9-9659-b7d30ba20af5","ios":"levelo://app?vid=2a046dee-b3af-48c9-9659-b7d30ba20af5"},"vehicle_type_id":"4","last_reported":1748247610,"current_range_meters":16400,"station_id":"","pricing_plan_id":"cebpf4jnsgd1na2vs0mg"},{"bike_id":"2cecad4d-9c64-43b7-b586-a5d1c808a7f0","system_id":"levelo_inurba_marseille","lat":43.30952,"lon":5.39042,"is_reserved":false,"is_disabled":false,"rental_uris":{"android":"levelo://app?vid=2cecad4d-9c64-43b7-b586-a5d1c808a7f0","ios":"levelo://app?vid=2cecad4d-9c64-43b7-b586-a5d1c808a7f0"},"vehicle_type_id":"4","last_reported":1748247610,"current_range_meters":16800,"station_id":"ce4bgup2rcd13ifvqco0","pricing_plan_id":"cebpf4jnsgd1na2vs0mg"},{"bike_id":"b20ec400-54c6-4932-90cd-6c86e2706525","system_id":"levelo_inurba_marseille","lat":43.29697,"lon":5.37284,"is_reserved":false,"is_disabled":true,"rental_uris":{"android":"levelo://app?vid=b20ec400-54c6-4932-90cd-6c86e2706525","ios":"levelo://app?vid=b20ec400-54c6-4932-90cd-6c86e2706525"},"vehicle_type_id":"4","last_reported":1748247610,"current_range_meters":16800,"station_id":"ce4bgk12rcd13ifvqbj0","pricing_plan_id":"cebpf4jnsgd1na2vs0mg"},{"bike_id":"ec9d2141-825e-472d-a40b-854b6c8d314c","system_id":"levelo_inurba_marseille","lat":43.26681,"lon":5.38271,"is_reserved":false,"is_disabled":false,"rental_uris":{"android":"levelo://app?vid=ec9d2141-825e-472d-a40b-854b6c8d314c","ios":"levelo://app?vid=ec9d2141-825e-472d-a40b-854b6c8d314c"},"vehicle_type_id":"4","last_reported":1748247610,"current_range_meters":16800,"station_id":"ce4bhg92rcd13ifvqf90","pricing_plan_id":"cebpf4jnsgd1na2vs0mg"},{"bike_id":"b9c6f7aa-eeb7-4b50-8a0f-1842bd3705a6","system_id":"levelo_inurba_marseille","lat":43.25753,"lon":5.40996,"is_reserved":false,"is_disabled":false,"rental_uris":{"android":"levelo://app?vid=b9c6f7aa-eeb7-4b50-8a0f-1842bd3705a6","ios":"levelo://app?vid=b9c6f7aa-eeb7-4b50-8a0f-1842bd3705a6"},"vehicle_type_id":"4","last_reported":1748247610,"current_range_meters":16800,"station_id":"","pricing_plan_id":"cebpf4jnsgd1na2vs0mg"},{"bike_id":"4a7d7e96-debe-4320-8027-fabdfe39cc52","system_id":"levelo_inurba_marseille","lat":43.31206,"lon":5.36918,"is_reserved":false,"is_disabled":false,"rental_uris":{"android":"levelo://app?vid=4a7d7e96-debe-4320-8027-fabdfe39cc52","ios":"levelo://app?vid=4a7d7e96-debe-4320-8027-fabdfe39cc52"},"vehicle_type_id":"4","last_reported":1748247610,"current_range_meters":16800,"station_id":"ce4bgl92rcd13ifvqbq0","pricing_plan_id":"cebpf4jnsgd1na2vs0mg"},{"bike_id":"12e1822f-f545-40fa-999b-fee911cf5621","system_id":"levelo_inurba_marseille","lat":43.24076,"lon":5.37744,"is_reserved":false,"is_disabled":false,"rental_uris":{"android":"levelo://app?vid=12e1822f-f545-40fa-999b-fee911cf5621","ios":"levelo://app?vid=12e1822f-f545-40fa-999b-fee911cf5621"},"vehicle_type_id":"4","last_reported":1748247610,"current_range_meters":16800,"station_id":"ce4bhnp2rcd13ifvqgvg","pricing_plan_id":"cebpf4jnsgd1na2vs0mg"},{"bike_id":"05bb6c29-bb10-4977-b456-549352f549ad","system_id":"levelo_inurba_marseille","lat":43.24154,"lon":5.39755,"is_reserved":false,"is_disabled":false,"rental_uris":{"android":"levelo://app?vid=05bb6c29-bb10-4977-b456-549352f549ad","ios":"levelo://app?vid=05bb6c29-bb10-4977-b456-549352f549ad"},"vehicle_type_id":"4","last_reported":1748247610,"current_range_meters":16800,"station_id":"ce4bhn12rcd13ifvqgpg","pricing_plan_id":"cebpf4jnsgd1na2vs0mg"},{"bike_id":"14b2f2e3-abf2-401e-a57f-5ed8a613121a","system_id":"levelo_inurba_marseille","lat":43.30175,"lon":5.38094,"is_reserved":false,"is_disabled":false,"rental_uris":{"android":"levelo://app?vid=14b2f2e3-abf2-401e-a57f-5ed8a613121a","ios":"levelo://app?vid=14b2f2e3-abf2-401e-a57f-5ed8a613121a"},"vehicle_type_id":"4","last_reported":1748247610,"current_range_meters":16800,"station_id":"ce4bgjp2rcd13ifvqbh0","pricing_plan_id":"cebpf4jnsgd1na2vs0mg"},{"bike_id":"9add839e-b808-4e48-a7b1-a9fe1d7aac5e","system_id":"levelo_inurba_marseille","lat":43.292397,"lon":5.365766,"is_reserved":false,"is_disabled":false,"rental_uris":{"android":"levelo://app?vid=9add839e-b808-4e48-a7b1-a9fe1d7aac5e","ios":"levelo://app?vid=9add839e-b808-4e48-a7b1-a9fe1d7aac5e"},"vehicle_type_id":"4","last_reported":1748247610,"current_range_meters":17200,"station_id":"","pricing_plan_id":"cebpf4jnsgd1na2vs0mg"},{"bike_id":"7ece2224-bbc9-41be-b279-457383278953","system_id":"levelo_inurba_marseille","lat":43.25507,"lon":5.3763,"is_reserved":false,"is_disabled":false,"rental_uris":{"android":"levelo://app?vid=7ece2224-bbc9-41be-b279-457383278953","ios":"levelo://app?vid=7ece2224-bbc9-41be-b279-457383278953"},"vehicle_type_id":"4","last_reported":1748247610,"current_range_meters":17200,"station_id":"ce4bhh12rcd13ifvqff0","pricing_plan_id":"cebpf4jnsgd1na2vs0mg"},{"bike_id":"af026f05-5253-4b1e-9ece-8682b2e2ae39","system_id":"levelo_inurba_marseille","lat":43.29048,"lon":5.3996,"is_reserved":false,"is_disabled":true,"rental_uris":{"android":"levelo://app?vid=af026f05-5253-4b1e-9ece-8682b2e2ae39","ios":"levelo://app?vid=af026f05-5253-4b1e-9ece-8682b2e2ae39"},"vehicle_type_id":"4","last_reported":1748247610,"current_range_meters":17200,"station_id":"ce4bh392rcd13ifvqdm0","pricing_plan_id":"cebpf4jnsgd1na2vs0mg"},{"bike_id":"5246419a-b38f-4b13-a777-56519cb0afde","system_id":"levelo_inurba_marseille","lat":43.30907,"lon":5.37207,"is_reserved":false,"is_disabled":false,"rental_uris":{"android":"levelo://app?vid=5246419a-b38f-4b13-a777-56519cb0afde","ios":"levelo://app?vid=5246419a-b38f-4b13-a777-56519cb0afde"},"vehicle_type_id":"4","last_reported":1748247610,"current_range_meters":17200,"station_id":"ce4bguh2rcd13ifvqckg","pricing_plan_id":"cebpf4jnsgd1na2vs0mg"},{"bike_id":"7c1d476f-d6d9-49be-9af4-dd93998d71fd","system_id":"levelo_inurba_marseille","lat":43.30528,"lon":5.36705,"is_reserved":false,"is_disabled":false,"rental_uris":{"android":"levelo://app?vid=7c1d476f-d6d9-49be-9af4-dd93998d71fd","ios":"levelo://app?vid=7c1d476f-d6d9-49be-9af4-dd93998d71fd"},"vehicle_type_id":"4","last_reported":1748247610,"current_range_meters":17200,"station_id":"ce4bgrp2rcd13ifvqc9g","pricing_plan_id":"cebpf4jnsgd1na2vs0mg"},{"bike_id":"700bdf41-11a4-48f2-838c-85f30635bf24","system_id":"levelo_inurba_marseille","lat":43.24805,"lon":5.37452,"is_reserved":false,"is_disabled":false,"rental_uris":{"android":"levelo://app?vid=700bdf41-11a4-48f2-838c-85f30635bf24","ios":"levelo://app?vid=700bdf41-11a4-48f2-838c-85f30635bf24"},"vehicle_type_id":"4","last_reported":1748247610,"current_range_meters":14400,"station_id":"ce4bhgh2rcd13ifvqfb0","pricing_plan_id":"cebpf4jnsgd1na2vs0mg"},{"bike_id":"899d9034-609a-4571-9d87-0d3bfcaca20f","system_id":"levelo_inurba_marseille","lat":43.30899,"lon":5.36837,"is_reserved":false,"is_disabled":false,"rental_uris":{"android":"levelo://app?vid=899d9034-609a-4571-9d87-0d3bfcaca20f","ios":"levelo://app?vid=899d9034-609a-4571-9d87-0d3bfcaca20f"},"vehicle_type_id":"4","last_reported":1748247610,"current_range_meters":17200,"station_id":"ce4bgn92rcd13ifvqbvg","pricing_plan_id":"cebpf4jnsgd1na2vs0mg"},{"bike_id":"6b482028-512e-4dbe-b943-3138dd0f6f46","system_id":"levelo_inurba_marseille","lat":43.29694,"lon":5.36874,"is_reserved":false,"is_disabled":false,"rental_uris":{"android":"levelo://app?vid=6b482028-512e-4dbe-b943-3138dd0f6f46","ios":"levelo://app?vid=6b482028-512e-4dbe-b943-3138dd0f6f46"},"vehicle_type_id":"4","last_reported":1748247610,"current_range_meters":17200,"station_id":"","pricing_plan_id":"cebpf4jnsgd1na2vs0mg"},{"bike_id":"aa012b16-1e45-4cb0-a58f-fcdb83c484c5","system_id":"levelo_inurba_marseille","lat":43.30469,"lon":5.37903,"is_reserved":false,"is_disabled":false,"rental_uris":{"android":"levelo://app?vid=aa012b16-1e45-4cb0-a58f-fcdb83c484c5","ios":"levelo://app?vid=aa012b16-1e45-4cb0-a58f-fcdb83c484c5"},"vehicle_type_id":"4","last_reported":1748247610,"current_range_meters":17600,"station_id":"ce4bgup2rcd13ifvqcn0","pricing_plan_id":"cebpf4jnsgd1na2vs0mg"},{"bike_id":"a332e45a-2860-4e78-a971-279cf0d5a8ce","system_id":"levelo_inurba_marseille","lat":43.301015,"lon":5.370339,"is_reserved":false,"is_disabled":false,"rental_uris":{"android":"levelo://app?vid=a332e45a-2860-4e78-a971-279cf0d5a8ce","ios":"levelo://app?vid=a332e45a-2860-4e78-a971-279cf0d5a8ce"},"vehicle_type_id":"4","last_reported":1748247610,"current_range_meters":17600,"station_id":"ce4bgrh2rcd13ifvqc8g","pricing_plan_id":"cebpf4jnsgd1na2vs0mg"},{"bike_id":"8deb7f69-279a-465b-beab-f18d0e028d15","system_id":"levelo_inurba_marseille","lat":43.24173,"lon":5.39731,"is_reserved":false,"is_disabled":false,"rental_uris":{"android":"levelo://app?vid=8deb7f69-279a-465b-beab-f18d0e028d15","ios":"levelo://app?vid=8deb7f69-279a-465b-beab-f18d0e028d15"},"vehicle_type_id":"4","last_reported":1748247610,"current_range_meters":17600,"station_id":"ce4bhn12rcd13ifvqgpg","pricing_plan_id":"cebpf4jnsgd1na2vs0mg"},{"bike_id":"6a8d81f0-e954-47cf-a87d-dff0da0892dc","system_id":"levelo_inurba_marseille","lat":43.254949,"lon":5.37651,"is_reserved":false,"is_disabled":false,"rental_uris":{"android":"levelo://app?vid=6a8d81f0-e954-47cf-a87d-dff0da0892dc","ios":"levelo://app?vid=6a8d81f0-e954-47cf-a87d-dff0da0892dc"},"vehicle_type_id":"4","last_reported":1748247610,"current_range_meters":17600,"station_id":"","pricing_plan_id":"cebpf4jnsgd1na2vs0mg"},{"bike_id":"a51538e0-45e2-44c7-8fa6-e0f7e9ea0448","system_id":"levelo_inurba_marseille","lat":43.25823,"lon":5.39439,"is_reserved":false,"is_disabled":false,"rental_uris":{"android":"levelo://app?vid=a51538e0-45e2-44c7-8fa6-e0f7e9ea0448","ios":"levelo://app?vid=a51538e0-45e2-44c7-8fa6-e0f7e9ea0448"},"vehicle_type_id":"4","last_reported":1748247610,"current_range_meters":17600,"station_id":"ce4bhip2rcd13ifvqft0","pricing_plan_id":"cebpf4jnsgd1na2vs0mg"},{"bike_id":"ff5486ad-b164-4e64-85e3-fdd7a94874f1","system_id":"levelo_inurba_marseille","lat":43.30601,"lon":5.39363,"is_reserved":false,"is_disabled":false,"rental_uris":{"android":"levelo://app?vid=ff5486ad-b164-4e64-85e3-fdd7a94874f1","ios":"levelo://app?vid=ff5486ad-b164-4e64-85e3-fdd7a94874f1"},"vehicle_type_id":"4","last_reported":1748247610,"current_range_meters":17600,"station_id":"ce4bh0p2rcd13ifvqd80","pricing_plan_id":"cebpf4jnsgd1na2vs0mg"},{"bike_id":"494bb412-26a1-4e7b-a3d1-fc0566a174aa","system_id":"levelo_inurba_marseille","lat":43.31341,"lon":5.36717,"is_reserved":false,"is_disabled":false,"rental_uris":{"android":"levelo://app?vid=494bb412-26a1-4e7b-a3d1-fc0566a174aa","ios":"levelo://app?vid=494bb412-26a1-4e7b-a3d1-fc0566a174aa"},"vehicle_type_id":"4","last_reported":1748247610,"current_range_meters":17600,"station_id":"ce4bgr92rcd13ifvqc6g","pricing_plan_id":"cebpf4jnsgd1na2vs0mg"},{"bike_id":"5f67a7d6-a40d-4adb-ba18-3cb446bd3d87","system_id":"levelo_inurba_marseille","lat":43.23175,"lon":5.3999,"is_reserved":false,"is_disabled":false,"rental_uris":{"android":"levelo://app?vid=5f67a7d6-a40d-4adb-ba18-3cb446bd3d87","ios":"levelo://app?vid=5f67a7d6-a40d-4adb-ba18-3cb446bd3d87"},"vehicle_type_id":"4","last_reported":1748247610,"current_range_meters":17200,"station_id":"ce4bhn12rcd13ifvqgqg","pricing_plan_id":"cebpf4jnsgd1na2vs0mg"},{"bike_id":"d2bb6332-08b7-4002-8387-234070e3cf63","system_id":"levelo_inurba_marseille","lat":43.23966,"lon":5.36625,"is_reserved":false,"is_disabled":false,"rental_uris":{"android":"levelo://app?vid=d2bb6332-08b7-4002-8387-234070e3cf63","ios":"levelo://app?vid=d2bb6332-08b7-4002-8387-234070e3cf63"},"vehicle_type_id":"4","last_reported":1748247610,"current_range_meters":17600,"station_id":"ce4bhi12rcd13ifvqfp0","pricing_plan_id":"cebpf4jnsgd1na2vs0mg"},{"bike_id":"16a6eca7-bcf0-4405-a06a-3c79e4a79f7e","system_id":"levelo_inurba_marseille","lat":43.29961,"lon":5.38497,"is_reserved":false,"is_disabled":false,"rental_uris":{"android":"levelo://app?vid=16a6eca7-bcf0-4405-a06a-3c79e4a79f7e","ios":"levelo://app?vid=16a6eca7-bcf0-4405-a06a-3c79e4a79f7e"},"vehicle_type_id":"4","last_reported":1748247610,"current_range_meters":17600,"station_id":"ce4bgj92rcd13ifvqbd0","pricing_plan_id":"cebpf4jnsgd1na2vs0mg"},{"bike_id":"ceb81090-b40e-47dd-bc35-8598d269ef58","system_id":"levelo_inurba_marseille","lat":43.26663,"lon":5.38431,"is_reserved":false,"is_disabled":false,"rental_uris":{"android":"levelo://app?vid=ceb81090-b40e-47dd-bc35-8598d269ef58","ios":"levelo://app?vid=ceb81090-b40e-47dd-bc35-8598d269ef58"},"vehicle_type_id":"4","last_reported":1748247610,"current_range_meters":18000,"station_id":"","pricing_plan_id":"cebpf4jnsgd1na2vs0mg"},{"bike_id":"24695fcc-1634-4887-9a04-00f71eb609f0","system_id":"levelo_inurba_marseille","lat":43.23207,"lon":5.39999,"is_reserved":false,"is_disabled":false,"rental_uris":{"android":"levelo://app?vid=24695fcc-1634-4887-9a04-00f71eb609f0","ios":"levelo://app?vid=24695fcc-1634-4887-9a04-00f71eb609f0"},"vehicle_type_id":"4","last_reported":1748247610,"current_range_meters":18000,"station_id":"","pricing_plan_id":"cebpf4jnsgd1na2vs0mg"},{"bike_id":"3b869573-4340-4db9-bfe5-6623e90080e5","system_id":"levelo_inurba_marseille","lat":43.25585,"lon":5.38228,"is_reserved":false,"is_disabled":false,"rental_uris":{"android":"levelo://app?vid=3b869573-4340-4db9-bfe5-6623e90080e5","ios":"levelo://app?vid=3b869573-4340-4db9-bfe5-6623e90080e5"},"vehicle_type_id":"4","last_reported":1748247610,"current_range_meters":18000,"station_id":"ce4bhih2rcd13ifvqfs0","pricing_plan_id":"cebpf4jnsgd1na2vs0mg"},{"bike_id":"8a99a3e8-693b-4453-958a-81741fce3f35","system_id":"levelo_inurba_marseille","lat":43.25892,"lon":5.40896,"is_reserved":false,"is_disabled":false,"rental_uris":{"android":"levelo://app?vid=8a99a3e8-693b-4453-958a-81741fce3f35","ios":"levelo://app?vid=8a99a3e8-693b-4453-958a-81741fce3f35"},"vehicle_type_id":"4","last_reported":1748247610,"current_range_meters":18000,"station_id":"ce4bhm92rcd13ifvqglg","pricing_plan_id":"cebpf4jnsgd1na2vs0mg"},{"bike_id":"dbbc3087-ad3b-473b-9341-4e6aa0da5126","system_id":"levelo_inurba_marseille","lat":43.246278,"lon":5.393456,"is_reserved":false,"is_disabled":false,"rental_uris":{"android":"levelo://app?vid=dbbc3087-ad3b-473b-9341-4e6aa0da5126","ios":"levelo://app?vid=dbbc3087-ad3b-473b-9341-4e6aa0da5126"},"vehicle_type_id":"4","last_reported":1748247610,"current_range_meters":18000,"station_id":"","pricing_plan_id":"cebpf4jnsgd1na2vs0mg"},{"bike_id":"a188ad5d-727d-4571-a76b-b8e1639c3ea2","system_id":"levelo_inurba_marseille","lat":43.297775,"lon":5.37111,"is_reserved":false,"is_disabled":false,"rental_uris":{"android":"levelo://app?vid=a188ad5d-727d-4571-a76b-b8e1639c3ea2","ios":"levelo://app?vid=a188ad5d-727d-4571-a76b-b8e1639c3ea2"},"vehicle_type_id":"4","last_reported":1748247610,"current_range_meters":18000,"station_id":"ce4bgop2rcd13ifvqc1g","pricing_plan_id":"cebpf4jnsgd1na2vs0mg"},{"bike_id":"466f2bd1-bb8b-4e2d-8186-172373026554","system_id":"levelo_inurba_marseille","lat":43.24168,"lon":5.39732,"is_reserved":false,"is_disabled":false,"rental_uris":{"android":"levelo://app?vid=466f2bd1-bb8b-4e2d-8186-172373026554","ios":"levelo://app?vid=466f2bd1-bb8b-4e2d-8186-172373026554"},"vehicle_type_id":"4","last_reported":1748247610,"current_range_meters":18000,"station_id":"ce4bhn12rcd13ifvqgpg","pricing_plan_id":"cebpf4jnsgd1na2vs0mg"},{"bike_id":"30e949a6-9a21-45c6-8b78-d17c7d943515","system_id":"levelo_inurba_marseille","lat":43.2681,"lon":5.40283,"is_reserved":false,"is_disabled":false,"rental_uris":{"android":"levelo://app?vid=30e949a6-9a21-45c6-8b78-d17c7d943515","ios":"levelo://app?vid=30e949a6-9a21-45c6-8b78-d17c7d943515"},"vehicle_type_id":"4","last_reported":1748247610,"current_range_meters":18000,"station_id":"ce501612rcd8frsf0b60","pricing_plan_id":"cebpf4jnsgd1na2vs0mg"},{"bike_id":"38b919fb-a3bd-4305-98fc-731d1b3e4215","system_id":"levelo_inurba_marseille","lat":43.30375,"lon":5.42481,"is_reserved":false,"is_disabled":false,"rental_uris":{"android":"levelo://app?vid=38b919fb-a3bd-4305-98fc-731d1b3e4215","ios":"levelo://app?vid=38b919fb-a3bd-4305-98fc-731d1b3e4215"},"vehicle_type_id":"4","last_reported":1748247610,"current_range_meters":18000,"station_id":"ce4bhoh2rcd13ifvqh6g","pricing_plan_id":"cebpf4jnsgd1na2vs0mg"},{"bike_id":"acb8df19-93de-4272-8ba6-362b18f0b1a2","system_id":"levelo_inurba_marseille","lat":43.265693,"lon":5.390011,"is_reserved":false,"is_disabled":true,"rental_uris":{"android":"levelo://app?vid=acb8df19-93de-4272-8ba6-362b18f0b1a2","ios":"levelo://app?vid=acb8df19-93de-4272-8ba6-362b18f0b1a2"},"vehicle_type_id":"4","last_reported":1748247610,"current_range_meters":18000,"station_id":"","pricing_plan_id":"cebpf4jnsgd1na2vs0mg"},{"bike_id":"4b68db62-1fee-48f8-b42d-786e3610acf3","system_id":"levelo_inurba_marseille","lat":43.31343,"lon":5.36732,"is_reserved":false,"is_disabled":false,"rental_uris":{"android":"levelo://app?vid=4b68db62-1fee-48f8-b42d-786e3610acf3","ios":"levelo://app?vid=4b68db62-1fee-48f8-b42d-786e3610acf3"},"vehicle_type_id":"4","last_reported":1748247610,"current_range_meters":18000,"station_id":"ce4bgr92rcd13ifvqc6g","pricing_plan_id":"cebpf4jnsgd1na2vs0mg"},{"bike_id":"8dd88446-c109-43b3-a107-2b4a6e1b330a","system_id":"levelo_inurba_marseille","lat":43.317159,"lon":5.436994,"is_reserved":false,"is_disabled":false,"rental_uris":{"android":"levelo://app?vid=8dd88446-c109-43b3-a107-2b4a6e1b330a","ios":"levelo://app?vid=8dd88446-c109-43b3-a107-2b4a6e1b330a"},"vehicle_type_id":"4","last_reported":1748247610,"current_range_meters":18000,"station_id":"ce4bhp92rcd13ifvqhcg","pricing_plan_id":"cebpf4jnsgd1na2vs0mg"},{"bike_id":"83b2b4f6-5e72-4923-a91c-e0183dbe7d56","system_id":"levelo_inurba_marseille","lat":43.289428,"lon":5.366332,"is_reserved":false,"is_disabled":true,"rental_uris":{"android":"levelo://app?vid=83b2b4f6-5e72-4923-a91c-e0183dbe7d56","ios":"levelo://app?vid=83b2b4f6-5e72-4923-a91c-e0183dbe7d56"},"vehicle_type_id":"4","last_reported":1748247610,"current_range_meters":18000,"station_id":"ce4bhb92rcd13ifvqen0","pricing_plan_id":"cebpf4jnsgd1na2vs0mg"},{"bike_id":"e6d73e7c-0472-43b8-9fcf-1a0edc86c2ff","system_id":"levelo_inurba_marseille","lat":43.23159,"lon":5.43722,"is_reserved":false,"is_disabled":false,"rental_uris":{"android":"levelo://app?vid=e6d73e7c-0472-43b8-9fcf-1a0edc86c2ff","ios":"levelo://app?vid=e6d73e7c-0472-43b8-9fcf-1a0edc86c2ff"},"vehicle_type_id":"4","last_reported":1748247610,"current_range_meters":18000,"station_id":"ce4bhmp2rcd13ifvqgog","pricing_plan_id":"cebpf4jnsgd1na2vs0mg"},{"bike_id":"ccc35c1a-e34a-4b37-8218-ffcbe093fc32","system_id":"levelo_inurba_marseille","lat":43.24167,"lon":5.39727,"is_reserved":false,"is_disabled":false,"rental_uris":{"android":"levelo://app?vid=ccc35c1a-e34a-4b37-8218-ffcbe093fc32","ios":"levelo://app?vid=ccc35c1a-e34a-4b37-8218-ffcbe093fc32"},"vehicle_type_id":"4","last_reported":1748247610,"current_range_meters":18000,"station_id":"ce4bhn12rcd13ifvqgpg","pricing_plan_id":"cebpf4jnsgd1na2vs0mg"},{"bike_id":"fed917f8-ecd3-4bdd-97d9-c60d07ddebaa","system_id":"levelo_inurba_marseille","lat":43.29272,"lon":5.36845,"is_reserved":false,"is_disabled":false,"rental_uris":{"android":"levelo://app?vid=fed917f8-ecd3-4bdd-97d9-c60d07ddebaa","ios":"levelo://app?vid=fed917f8-ecd3-4bdd-97d9-c60d07ddebaa"},"vehicle_type_id":"4","last_reported":1748247610,"current_range_meters":18000,"station_id":"ce4bhbp2rcd13ifvqesg","pricing_plan_id":"cebpf4jnsgd1na2vs0mg"},{"bike_id":"fc34e4c1-37ca-4853-8345-f5c1fad4260a","system_id":"levelo_inurba_marseille","lat":43.312256,"lon":5.368617,"is_reserved":false,"is_disabled":false,"rental_uris":{"android":"levelo://app?vid=fc34e4c1-37ca-4853-8345-f5c1fad4260a","ios":"levelo://app?vid=fc34e4c1-37ca-4853-8345-f5c1fad4260a"},"vehicle_type_id":"4","last_reported":1748247610,"current_range_meters":18800,"station_id":"ce4bgl92rcd13ifvqbq0","pricing_plan_id":"cebpf4jnsgd1na2vs0mg"},{"bike_id":"a4e0ae5a-6973-41d8-8afa-c26547151893","system_id":"levelo_inurba_marseille","lat":43.30948,"lon":5.3904,"is_reserved":false,"is_disabled":false,"rental_uris":{"android":"levelo://app?vid=a4e0ae5a-6973-41d8-8afa-c26547151893","ios":"levelo://app?vid=a4e0ae5a-6973-41d8-8afa-c26547151893"},"vehicle_type_id":"4","last_reported":1748247610,"current_range_meters":18800,"station_id":"ce4bgup2rcd13ifvqco0","pricing_plan_id":"cebpf4jnsgd1na2vs0mg"},{"bike_id":"77f3d7a3-ff94-4085-bc16-301e8d58ab82","system_id":"levelo_inurba_marseille","lat":43.28714,"lon":5.37944,"is_reserved":false,"is_disabled":false,"rental_uris":{"android":"levelo://app?vid=77f3d7a3-ff94-4085-bc16-301e8d58ab82","ios":"levelo://app?vid=77f3d7a3-ff94-4085-bc16-301e8d58ab82"},"vehicle_type_id":"4","last_reported":1748247610,"current_range_meters":18800,"station_id":"ce4bh9p2rcd13ifvqec0","pricing_plan_id":"cebpf4jnsgd1na2vs0mg"},{"bike_id":"3b732769-d43b-4272-88d4-d528c67c6e7b","system_id":"levelo_inurba_marseille","lat":43.31117,"lon":5.3777,"is_reserved":false,"is_disabled":false,"rental_uris":{"android":"levelo://app?vid=3b732769-d43b-4272-88d4-d528c67c6e7b","ios":"levelo://app?vid=3b732769-d43b-4272-88d4-d528c67c6e7b"},"vehicle_type_id":"4","last_reported":1748247610,"current_range_meters":18800,"station_id":"ce4bgt92rcd13ifvqcg0","pricing_plan_id":"cebpf4jnsgd1na2vs0mg"},