{"last_updated":1746083454,"ttl":60,"version":"2.2","data":{"bikes":[{"bike_id":"833b3fcf-86f5-4bd6-843b-8b0afebe3465","system_id":"levelo_inurba_marseille","lat":43.32109,"lon":5.36776,"is_reserved":false,"is_disabled":false,"rental_uris":{"android":"levelo://app?vid=833b3fcf-86f5-4bd6-843b-8b0afebe3465","ios":"levelo://app?vid=833b3fcf-86f5-4bd6-843b-8b0afebe3465"},"vehicle_type_id":"4","last_reported":1746083454,"current_range_meters":2800,"station_id":"ce4bhrh2rcd13ifvqhug","pricing_plan_id":"cebpf4jnsgd1na2vs0mg"},{"bike_id":"00efbeb5-872a-4078-9994-9640cb88c828","system_id":"levelo_inurba_marseille","lat":43.25725,"lon":5.41108,"is_reserved":false,"is_disabled":false,"rental_uris":{"android":"levelo://app?vid=00efbeb5-872a-4078-9994-9640cb88c828","ios":"levelo://app?vid=00efbeb5-872a-4078-9994-9640cb88c828"},"vehicle_type_id":"4","last_reported":1746083454,"current_range_meters":3200,"station_id":"ce4bhkp2rcd13ifvqgd0","pricing_plan_id":"cebpf4jnsgd1na2vs0mg"},{"bike_id":"e3676e90-152e-48a7-80da-6baae6b20546","system_id":"levelo_inurba_marseille","lat":43.303,"lon":5.37704,"is_reserved":false,"is_disabled":false,"rental_uris":{"android":"levelo://app?vid=e3676e90-152e-48a7-80da-6baae6b20546","ios":"levelo://app?vid=e3676e90-152e-48a7-80da-6baae6b20546"},"vehicle_type_id":"4","last_reported":1746083454,"current_range_meters":3200,"station_id":"ce4bguh2rcd13ifvqcj0","pricing_plan_id":"cebpf4jnsgd1na2vs0mg"},{"bike_id":"e5c20201-7a50-4802-beb4-77f292621441","system_id":"levelo_inurba_marseille","lat":43.25577,"lon":5.38234,"is_reserved":false,"is_disabled":false,"rental_uris":{"android":"levelo://app?vid=e5c20201-7a50-4802-beb4-77f292621441","ios":"levelo://app?vid=e5c20201-7a50-4802-beb4-77f292621441"},"vehicle_type_id":"4","last_reported":1746083454,"current_range_meters":3600,"station_id":"ce4bhih2rcd13ifvqfs0","pricing_plan_id":"cebpf4jnsgd1na2vs0mg"},{"bike_id":"4cf4dd17-8933-4015-85f9-46541bb00e54","system_id":"levelo_inurba_marseille","lat":43.25123,"lon":5.40347,"is_reserved":false,"is_disabled":false,"rental_uris":{"android":"levelo://app?vid=4cf4dd17-8933-4015-85f9-46541bb00e54","ios":"levelo://app?vid=4cf4dd17-8933-4015-85f9-46541bb00e54"},"vehicle_type_id":"4","last_reported":1746083454,"current_range_meters":3600,"station_id":"ce4bhlh2rcd13ifvqgig","pricing_plan_id":"cebpf4jnsgd1na2vs0mg"},{"bike_id":"782d053c-6058-436f-b34a-3a0c46638412","system_id":"levelo_inurba_marseille","lat":43.30458,"lon":5.37889,"is_reserved":false,"is_disabled":false,"rental_uris":{"android":"levelo://app?vid=782d053c-6058-436f-b34a-3a0c46638412","ios":"levelo://app?vid=782d053c-6058-436f-b34a-3a0c46638412"},"vehicle_type_id":"4","last_reported":1746083454,"current_range_meters":3600,"station_id":"ce4bgup2rcd13ifvqcn0","pricing_plan_id":"cebpf4jnsgd1na2vs0mg"},{"bike_id":"8d2d20b9-ad4f-42fe-9dbf-9011a63c7a4a","system_id":"levelo_inurba_marseille","lat":43.28463,"lon":5.35887,"is_reserved":false,"is_disabled":false,"rental_uris":{"android":"levelo://app?vid=8d2d20b9-ad4f-42fe-9dbf-9011a63c7a4a","ios":"levelo://app?vid=8d2d20b9-ad4f-42fe-9dbf-9011a63c7a4a"},"vehicle_type_id":"4","last_reported":1746083454,"current_range_meters":9600,"station_id":"ce4bhah2rcd13ifvqei0","pricing_plan_id":"cebpf4jnsgd1na2vs0mg"},{"bike_id":"673a0c3f-8ece-48df-a2aa-4780ac191d8f","system_id":"levelo_inurba_marseille","lat":43.3203,"lon":5.416,"is_reserved":false,"is_disabled":false,"rental_uris":{"android":"levelo://app?vid=673a0c3f-8ece-48df-a2aa-4780ac191d8f","ios":"levelo://app?vid=673a0c3f-8ece-48df-a2aa-4780ac191d8f"},"vehicle_type_id":"4","last_reported":1746083454,"current_range_meters":4000,"station_id":"ce4bhq92rcd13ifvqhkg","pricing_plan_id":"cebpf4jnsgd1na2vs0mg"},{"bike_id":"e06e3ad6-0e5a-49f2-98bb-d0b7ffaaf745","system_id":"levelo_inurba_marseille","lat":43.23361,"lon":5.36112,"is_reserved":false,"is_disabled":false,"rental_uris":{"android":"levelo://app?vid=e06e3ad6-0e5a-49f2-98bb-d0b7ffaaf745","ios":"levelo://app?vid=e06e3ad6-0e5a-49f2-98bb-d0b7ffaaf745"},"vehicle_type_id":"4","last_reported":1746083454,"current_range_meters":4000,"station_id":"","pricing_plan_id":"cebpf4jnsgd1na2vs0mg"},{"bike_id":"2d0fea3e-041c-4d20-aeb7-63739e3d5c27","system_id":"levelo_inurba_marseille","lat":43.30647,"lon":5.36585,"is_reserved":false,"is_disabled":false,"rental_uris":{"android":"levelo://app?vid=2d0fea3e-041c-4d20-aeb7-63739e3d5c27","ios":"levelo://app?vid=2d0fea3e-041c-4d20-aeb7-63739e3d5c27"},"vehicle_type_id":"4","last_reported":1746083454,"current_range_meters":4400,"station_id":"","pricing_plan_id":"cebpf4jnsgd1na2vs0mg"},{"bike_id":"387bc5ea-7c2b-41e1-a1e6-3b4cc71c9638","system_id":"levelo_inurba_marseille","lat":43.24188,"lon":5.39712,"is_reserved":false,"is_disabled":false,"rental_uris":{"android":"levelo://app?vid=387bc5ea-7c2b-41e1-a1e6-3b4cc71c9638","ios":"levelo://app?vid=387bc5ea-7c2b-41e1-a1e6-3b4cc71c9638"},"vehicle_type_id":"4","last_reported":1746083454,"current_range_meters":4400,"station_id":"ce4bhn12rcd13ifvqgpg","pricing_plan_id":"cebpf4jnsgd1na2vs0mg"},{"bike_id":"039f1bfe-f9c4-4db1-8d5c-be59876e7a22","system_id":"levelo_inurba_marseille","lat":43.30466,"lon":5.37906,"is_reserved":false,"is_disabled":false,"rental_uris":{"android":"levelo://app?vid=039f1bfe-f9c4-4db1-8d5c-be59876e7a22","ios":"levelo://app?vid=039f1bfe-f9c4-4db1-8d5c-be59876e7a22"},"vehicle_type_id":"4","last_reported":1746083454,"current_range_meters":6000,"station_id":"ce4bgup2rcd13ifvqcn0","pricing_plan_id":"cebpf4jnsgd1na2vs0mg"},{"bike_id":"e5d65bc7-d3e8-4f38-a716-1cea714d51f3","system_id":"levelo_inurba_marseille","lat":43.248086,"lon":5.374568,"is_reserved":false,"is_disabled":false,"rental_uris":{"android":"levelo://app?vid=e5d65bc7-d3e8-4f38-a716-1cea714d51f3","ios":"levelo://app?vid=e5d65bc7-d3e8-4f38-a716-1cea714d51f3"},"vehicle_type_id":"4","last_reported":1746083454,"current_range_meters":4800,"station_id":"ce4bhgh2rcd13ifvqfb0","pricing_plan_id":"cebpf4jnsgd1na2vs0mg"},{"bike_id":"97d372a4-7499-4980-ad60-515b98299387","system_id":"levelo_inurba_marseille","lat":43.30527,"lon":5.38435,"is_reserved":false,"is_disabled":false,"rental_uris":{"android":"levelo://app?vid=97d372a4-7499-4980-ad60-515b98299387","ios":"levelo://app?vid=97d372a4-7499-4980-ad60-515b98299387"},"vehicle_type_id":"4","last_reported":1746083454,"current_range_meters":5600,"station_id":"ce4bgg92rcd13ifvqb30","pricing_plan_id":"cebpf4jnsgd1na2vs0mg"},{"bike_id":"ed01b2d3-e777-4cde-b001-4acf8ff4f995","system_id":"levelo_inurba_marseille","lat":43.33612,"lon":5.41013,"is_reserved":false,"is_disabled":false,"rental_uris":{"android":"levelo://app?vid=ed01b2d3-e777-4cde-b001-4acf8ff4f995","ios":"levelo://app?vid=ed01b2d3-e777-4cde-b001-4acf8ff4f995"},"vehicle_type_id":"4","last_reported":1746083454,"current_range_meters":5600,"station_id":"ce4bhqh2rcd13ifvqhmg","pricing_plan_id":"cebpf4jnsgd1na2vs0mg"},{"bike_id":"8d3800cc-7cd4-41dd-b664-571d6f0560a6","system_id":"levelo_inurba_marseille","lat":43.30464,"lon":5.37895,"is_reserved":false,"is_disabled":false,"rental_uris":{"android":"levelo://app?vid=8d3800cc-7cd4-41dd-b664-571d6f0560a6","ios":"levelo://app?vid=8d3800cc-7cd4-41dd-b664-571d6f0560a6"},"vehicle_type_id":"4","last_reported":1746083454,"current_range_meters":5600,"station_id":"ce4bgup2rcd13ifvqcn0","pricing_plan_id":"cebpf4jnsgd1na2vs0mg"},{"bike_id":"f8671eec-1f50-4c00-9347-76a251e6f60c","system_id":"levelo_inurba_marseille","lat":43.29198,"lon":5.35798,"is_reserved":false,"is_disabled":false,"rental_uris":{"android":"levelo://app?vid=f8671eec-1f50-4c00-9347-76a251e6f60c","ios":"levelo://app?vid=f8671eec-1f50-4c00-9347-76a251e6f60c"},"vehicle_type_id":"4","last_reported":1746083454,"current_range_meters":5600,"station_id":"ce4bhb12rcd13ifvqel0","pricing_plan_id":"cebpf4jnsgd1na2vs0mg"},{"bike_id":"2f3b16e5-1506-48f4-8507-b6d411b6bed5","system_id":"levelo_inurba_marseille","lat":43.25724,"lon":5.41108,"is_reserved":false,"is_disabled":false,"rental_uris":{"android":"levelo://app?vid=2f3b16e5-1506-48f4-8507-b6d411b6bed5","ios":"levelo://app?vid=2f3b16e5-1506-48f4-8507-b6d411b6bed5"},"vehicle_type_id":"4","last_reported":1746083454,"current_range_meters":6000,"station_id":"ce4bhkp2rcd13ifvqgd0","pricing_plan_id":"cebpf4jnsgd1na2vs0mg"},{"bike_id":"af45928f-99f5-4c10-8488-a1690bf972d2","system_id":"levelo_inurba_marseille","lat":43.29459,"lon":5.397717,"is_reserved":false,"is_disabled":true,"rental_uris":{"android":"levelo://app?vid=af45928f-99f5-4c10-8488-a1690bf972d2","ios":"levelo://app?vid=af45928f-99f5-4c10-8488-a1690bf972d2"},"vehicle_type_id":"4","last_reported":1746083454,"current_range_meters":6400,"station_id":"ce4bh3h2rcd13ifvqdo0","pricing_plan_id":"cebpf4jnsgd1na2vs0mg"},{"bike_id":"37d1f775-64b4-4153-b4b2-564c273c163c","system_id":"levelo_inurba_marseille","lat":43.29626,"lon":5.37165,"is_reserved":false,"is_disabled":false,"rental_uris":{"android":"levelo://app?vid=37d1f775-64b4-4153-b4b2-564c273c163c","ios":"levelo://app?vid=37d1f775-64b4-4153-b4b2-564c273c163c"},"vehicle_type_id":"4","last_reported":1746083454,"current_range_meters":6400,"station_id":"ce4bgnh2rcd13ifvqc0g","pricing_plan_id":"cebpf4jnsgd1na2vs0mg"},{"bike_id":"6f9efe46-94a4-44a8-924b-b257b20fbbb9","system_id":"levelo_inurba_marseille","lat":43.30695,"lon":5.40073,"is_reserved":false,"is_disabled":false,"rental_uris":{"android":"levelo://app?vid=6f9efe46-94a4-44a8-924b-b257b20fbbb9","ios":"levelo://app?vid=6f9efe46-94a4-44a8-924b-b257b20fbbb9"},"vehicle_type_id":"4","last_reported":1746083454,"current_range_meters":6400,"station_id":"","pricing_plan_id":"cebpf4jnsgd1na2vs0mg"},{"bike_id":"9011d0a2-bd13-4e77-b3b9-c4b97dcb781f","system_id":"levelo_inurba_marseille","lat":43.32544,"lon":5.41435,"is_reserved":false,"is_disabled":false,"rental_uris":{"android":"levelo://app?vid=9011d0a2-bd13-4e77-b3b9-c4b97dcb781f","ios":"levelo://app?vid=9011d0a2-bd13-4e77-b3b9-c4b97dcb781f"},"vehicle_type_id":"4","last_reported":1746083454,"current_range_meters":6400,"station_id":"ce4bhq12rcd13ifvqhhg","pricing_plan_id":"cebpf4jnsgd1na2vs0mg"},{"bike_id":"3c51200c-0f23-499c-aef9-9d47e698a558","system_id":"levelo_inurba_marseille","lat":43.276755,"lon":5.35733,"is_reserved":false,"is_disabled":false,"rental_uris":{"android":"levelo://app?vid=3c51200c-0f23-499c-aef9-9d47e698a558","ios":"levelo://app?vid=3c51200c-0f23-499c-aef9-9d47e698a558"},"vehicle_type_id":"4","last_reported":1746083454,"current_range_meters":6400,"station_id":"","pricing_plan_id":"cebpf4jnsgd1na2vs0mg"},{"bike_id":"d6831b15-be9f-4572-b4e0-abd8063d90fc","system_id":"levelo_inurba_marseille","lat":43.31753,"lon":5.39021,"is_reserved":false,"is_disabled":false,"rental_uris":{"android":"levelo://app?vid=d6831b15-be9f-4572-b4e0-abd8063d90fc","ios":"levelo://app?vid=d6831b15-be9f-4572-b4e0-abd8063d90fc"},"vehicle_type_id":"4","last_reported":1746083454,"current_range_meters":6400,"station_id":"ce4bhqp2rcd13ifvqhng","pricing_plan_id":"cebpf4jnsgd1na2vs0mg"},{"bike_id":"76a9cd10-fdd4-4a05-acce-121be760d6db","system_id":"levelo_inurba_marseille","lat":43.27327,"lon":5.391293,"is_reserved":false,"is_disabled":true,"rental_uris":{"android":"levelo://app?vid=76a9cd10-fdd4-4a05-acce-121be760d6db","ios":"levelo://app?vid=76a9cd10-fdd4-4a05-acce-121be760d6db"},"vehicle_type_id":"4","last_reported":1746083454,"current_range_meters":6400,"station_id":"ce4bhgp2rcd13ifvqfe0","pricing_plan_id":"cebpf4jnsgd1na2vs0mg"},{"bike_id":"38888685-ecee-457f-b7f2-6a456f769de8","system_id":"levelo_inurba_marseille","lat":43.32374,"lon":5.38874,"is_reserved":false,"is_disabled":false,"rental_uris":{"android":"levelo://app?vid=38888685-ecee-457f-b7f2-6a456f769de8","ios":"levelo://app?vid=38888685-ecee-457f-b7f2-6a456f769de8"},"vehicle_type_id":"4","last_reported":1746083454,"current_range_meters":6800,"station_id":"ce4bhqp2rcd13ifvqhog","pricing_plan_id":"cebpf4jnsgd1na2vs0mg"},{"bike_id":"b03038af-ca24-4b30-87ec-afa5b1bfa5af","system_id":"levelo_inurba_marseille","lat":43.25716,"lon":5.41074,"is_reserved":false,"is_disabled":false,"rental_uris":{"android":"levelo://app?vid=b03038af-ca24-4b30-87ec-afa5b1bfa5af","ios":"levelo://app?vid=b03038af-ca24-4b30-87ec-afa5b1bfa5af"},"vehicle_type_id":"4","last_reported":1746083454,"current_range_meters":6800,"station_id":"ce4bhkp2rcd13ifvqgd0","pricing_plan_id":"cebpf4jnsgd1na2vs0mg"},{"bike_id":"489415b8-9254-45c1-b00c-e7554d56755c","system_id":"levelo_inurba_marseille","lat":43.245205,"lon":5.412146,"is_reserved":false,"is_disabled":false,"rental_uris":{"android":"levelo://app?vid=489415b8-9254-45c1-b00c-e7554d56755c","ios":"levelo://app?vid=489415b8-9254-45c1-b00c-e7554d56755c"},"vehicle_type_id":"4","last_reported":1746083454,"current_range_meters":6800,"station_id":"","pricing_plan_id":"cebpf4jnsgd1na2vs0mg"},{"bike_id":"fb3b8183-90cd-43f4-8e49-d95b7778732d","system_id":"levelo_inurba_marseille","lat":43.2564,"lon":5.40548,"is_reserved":false,"is_disabled":false,"rental_uris":{"android":"levelo://app?vid=fb3b8183-90cd-43f4-8e49-d95b7778732d","ios":"levelo://app?vid=fb3b8183-90cd-43f4-8e49-d95b7778732d"},"vehicle_type_id":"4","last_reported":1746083454,"current_range_meters":6800,"station_id":"","pricing_plan_id":"cebpf4jnsgd1na2vs0mg"},{"bike_id":"a0dd5fc2-8200-4cab-bced-de20e33f9788","system_id":"levelo_inurba_marseille","lat":43.3015,"lon":5.381,"is_reserved":false,"is_disabled":false,"rental_uris":{"android":"levelo://app?vid=a0dd5fc2-8200-4cab-bced-de20e33f9788","ios":"levelo://app?vid=a0dd5fc2-8200-4cab-bced-de20e33f9788"},"vehicle_type_id":"4","last_reported":1746083454,"current_range_meters":6800,"station_id":"ce4bgjp2rcd13ifvqbh0","pricing_plan_id":"cebpf4jnsgd1na2vs0mg"},{"bike_id":"258be236-ab83-45b2-96ce-b666db9e9671","system_id":"levelo_inurba_marseille","lat":43.29866,"lon":5.39722,"is_reserved":false,"is_disabled":false,"rental_uris":{"android":"levelo://app?vid=258be236-ab83-45b2-96ce-b666db9e9671","ios":"levelo://app?vid=258be236-ab83-45b2-96ce-b666db9e9671"},"vehicle_type_id":"4","last_reported":1746083454,"current_range_meters":6800,"station_id":"ce4bh0h2rcd13ifvqd50","pricing_plan_id":"cebpf4jnsgd1na2vs0mg"},{"bike_id":"9965e496-e128-48a0-9487-d7af7b498698","system_id":"levelo_inurba_marseille","lat":43.29196,"lon":5.3934,"is_reserved":false,"is_disabled":true,"rental_uris":{"android":"levelo://app?vid=9965e496-e128-48a0-9487-d7af7b498698","ios":"levelo://app?vid=9965e496-e128-48a0-9487-d7af7b498698"},"vehicle_type_id":"4","last_reported":1746083454,"current_range_meters":6800,"station_id":"ce4bh192rcd13ifvqdd0","pricing_plan_id":"cebpf4jnsgd1na2vs0mg"},{"bike_id":"cb13d816-f343-4b66-b9f7-589750920def","system_id":"levelo_inurba_marseille","lat":43.26498,"lon":5.39559,"is_reserved":false,"is_disabled":false,"rental_uris":{"android":"levelo://app?vid=cb13d816-f343-4b66-b9f7-589750920def","ios":"levelo://app?vid=cb13d816-f343-4b66-b9f7-589750920def"},"vehicle_type_id":"4","last_reported":1746083454,"current_range_meters":6800,"station_id":"ce4bhi12rcd13ifvqfq0","pricing_plan_id":"cebpf4jnsgd1na2vs0mg"},{"bike_id":"06d4aaca-eadb-4fef-91cf-7d39ca5b048c","system_id":"levelo_inurba_marseille","lat":43.323324,"lon":5.406245,"is_reserved":false,"is_disabled":false,"rental_uris":{"android":"levelo://app?vid=06d4aaca-eadb-4fef-91cf-7d39ca5b048c","ios":"levelo://app?vid=06d4aaca-eadb-4fef-91cf-7d39ca5b048c"},"vehicle_type_id":"4","last_reported":1746083454,"current_range_meters":6800,"station_id":"ce4bhq92rcd13ifvqhjg","pricing_plan_id":"cebpf4jnsgd1na2vs0mg"},{"bike_id":"be72c957-5086-45b5-b164-09f800df4fff","system_id":"levelo_inurba_marseille","lat":43.26803,"lon":5.40281,"is_reserved":false,"is_disabled":false,"rental_uris":{"android":"levelo://app?vid=be72c957-5086-45b5-b164-09f800df4fff","ios":"levelo://app?vid=be72c957-5086-45b5-b164-09f800df4fff"},"vehicle_type_id":"4","last_reported":1746083454,"current_range_meters":7200,"station_id":"ce501612rcd8frsf0b60","pricing_plan_id":"cebpf4jnsgd1na2vs0mg"},{"bike_id":"07edfd45-c3fa-4b57-b865-cf1bf9963264","system_id":"levelo_inurba_marseille","lat":43.23388,"lon":5.364179,"is_reserved":false,"is_disabled":false,"rental_uris":{"android":"levelo://app?vid=07edfd45-c3fa-4b57-b865-cf1bf9963264","ios":"levelo://app?vid=07edfd45-c3fa-4b57-b865-cf1bf9963264"},"vehicle_type_id":"4","last_reported":1746083454,"current_range_meters":7200,"station_id":"","pricing_plan_id":"cebpf4jnsgd1na2vs0mg"},{"bike_id":"25a6ab30-32de-4f0e-8e11-90bd04ebdee9","system_id":"levelo_inurba_marseille","lat":43.3169,"lon":5.40478,"is_reserved":false,"is_disabled":true,"rental_uris":{"android":"levelo://app?vid=25a6ab30-32de-4f0e-8e11-90bd04ebdee9","ios":"levelo://app?vid=25a6ab30-32de-4f0e-8e11-90bd04ebdee9"},"vehicle_type_id":"4","last_reported":1746083454,"current_range_meters":7200,"station_id":"ce4bh012rcd13ifvqd00","pricing_plan_id":"cebpf4jnsgd1na2vs0mg"},{"bike_id":"1017aff5-1f73-4103-b379-a20915353f27","system_id":"levelo_inurba_marseille","lat":43.25115,"lon":5.40331,"is_reserved":false,"is_disabled":false,"rental_uris":{"android":"levelo://app?vid=1017aff5-1f73-4103-b379-a20915353f27","ios":"levelo://app?vid=1017aff5-1f73-4103-b379-a20915353f27"},"vehicle_type_id":"4","last_reported":1746083454,"current_range_meters":7200,"station_id":"ce4bhlh2rcd13ifvqgig","pricing_plan_id":"cebpf4jnsgd1na2vs0mg"},{"bike_id":"c89af82b-d8de-4524-ac1f-cc5e38330d5b","system_id":"levelo_inurba_marseille","lat":43.32501,"lon":5.36584,"is_reserved":false,"is_disabled":false,"rental_uris":{"android":"levelo://app?vid=c89af82b-d8de-4524-ac1f-cc5e38330d5b","ios":"levelo://app?vid=c89af82b-d8de-4524-ac1f-cc5e38330d5b"},"vehicle_type_id":"4","last_reported":1746083454,"current_range_meters":8000,"station_id":"ce4bhs12rcd13ifvqhvg","pricing_plan_id":"cebpf4jnsgd1na2vs0mg"},{"bike_id":"ab6cc9c9-69c8-48cc-bcbd-c9541d1c7966","system_id":"levelo_inurba_marseille","lat":43.297303,"lon":5.401444,"is_reserved":false,"is_disabled":false,"rental_uris":{"android":"levelo://app?vid=ab6cc9c9-69c8-48cc-bcbd-c9541d1c7966","ios":"levelo://app?vid=ab6cc9c9-69c8-48cc-bcbd-c9541d1c7966"},"vehicle_type_id":"4","last_reported":1746083454,"current_range_meters":8000,"station_id":"","pricing_plan_id":"cebpf4jnsgd1na2vs0mg"},{"bike_id":"9302c8f6-2254-4b52-bb8b-c5acfff44a93","system_id":"levelo_inurba_marseille","lat":43.299559,"lon":5.370229,"is_reserved":false,"is_disabled":false,"rental_uris":{"android":"levelo://app?vid=9302c8f6-2254-4b52-bb8b-c5acfff44a93","ios":"levelo://app?vid=9302c8f6-2254-4b52-bb8b-c5acfff44a93"},"vehicle_type_id":"4","last_reported":1746083454,"current_range_meters":8000,"station_id":"","pricing_plan_id":"cebpf4jnsgd1na2vs0mg"},{"bike_id":"06d2d3c8-9fc9-4d69-a070-0ce5daa9cb28","system_id":"levelo_inurba_marseille","lat":43.26944,"lon":5.403017,"is_reserved":false,"is_disabled":true,"rental_uris":{"android":"levelo://app?vid=06d2d3c8-9fc9-4d69-a070-0ce5daa9cb28","ios":"levelo://app?vid=06d2d3c8-9fc9-4d69-a070-0ce5daa9cb28"},"vehicle_type_id":"4","last_reported":1746083454,"current_range_meters":8000,"station_id":"cjm6bp8fraef2m0cb0m0","pricing_plan_id":"cebpf4jnsgd1na2vs0mg"},{"bike_id":"7bca0793-1176-4b81-940e-92a4b7af9ae5","system_id":"levelo_inurba_marseille","lat":43.28075,"lon":5.396539,"is_reserved":false,"is_disabled":false,"rental_uris":{"android":"levelo://app?vid=7bca0793-1176-4b81-940e-92a4b7af9ae5","ios":"levelo://app?vid=7bca0793-1176-4b81-940e-92a4b7af9ae5"},"vehicle_type_id":"4","last_reported":1746083454,"current_range_meters":8000,"station_id":"ce4bho12rcd13ifvqh2g","pricing_plan_id":"cebpf4jnsgd1na2vs0mg"},{"bike_id":"b63f77e5-9d12-46a1-93e0-ef2f0793d805","system_id":"levelo_inurba_marseille","lat":43.3018,"lon":5.38111,"is_reserved":false,"is_disabled":false,"rental_uris":{"android":"levelo://app?vid=b63f77e5-9d12-46a1-93e0-ef2f0793d805","ios":"levelo://app?vid=b63f77e5-9d12-46a1-93e0-ef2f0793d805"},"vehicle_type_id":"4","last_reported":1746083454,"current_range_meters":8000,"station_id":"ce4bgjp2rcd13ifvqbh0","pricing_plan_id":"cebpf4jnsgd1na2vs0mg"},{"bike_id":"4441e734-dc78-4371-80f0-82ca88aaf54d","system_id":"levelo_inurba_marseille","lat":43.304642,"lon":5.37907,"is_reserved":false,"is_disabled":false,"rental_uris":{"android":"levelo://app?vid=4441e734-dc78-4371-80f0-82ca88aaf54d","ios":"levelo://app?vid=4441e734-dc78-4371-80f0-82ca88aaf54d"},"vehicle_type_id":"4","last_reported":1746083454,"current_range_meters":8000,"station_id":"ce4bgup2rcd13ifvqcn0","pricing_plan_id":"cebpf4jnsgd1na2vs0mg"},{"bike_id":"24fe4670-2cfb-49d4-a3ec-2dd67a898c28","system_id":"levelo_inurba_marseille","lat":43.257024,"lon":5.41117,"is_reserved":false,"is_disabled":false,"rental_uris":{"android":"levelo://app?vid=24fe4670-2cfb-49d4-a3ec-2dd67a898c28","ios":"levelo://app?vid=24fe4670-2cfb-49d4-a3ec-2dd67a898c28"},"vehicle_type_id":"4","last_reported":1746083454,"current_range_meters":8000,"station_id":"ce4bhkp2rcd13ifvqgd0","pricing_plan_id":"cebpf4jnsgd1na2vs0mg"},{"bike_id":"eaf31c42-1550-4d14-8c55-4340864c7651","system_id":"levelo_inurba_marseille","lat":43.27425,"lon":5.3943,"is_reserved":false,"is_disabled":false,"rental_uris":{"android":"levelo://app?vid=eaf31c42-1550-4d14-8c55-4340864c7651","ios":"levelo://app?vid=eaf31c42-1550-4d14-8c55-4340864c7651"},"vehicle_type_id":"4","last_reported":1746083454,"current_range_meters":8400,"station_id":"ce4bhdp2rcd13ifvqf20","pricing_plan_id":"cebpf4jnsgd1na2vs0mg"},{"bike_id":"b35319f1-b87e-4db8-ab3a-f11a22b07a4b","system_id":"levelo_inurba_marseille","lat":43.246673,"lon":5.38172,"is_reserved":false,"is_disabled":true,"rental_uris":{"android":"levelo://app?vid=b35319f1-b87e-4db8-ab3a-f11a22b07a4b","ios":"levelo://app?vid=b35319f1-b87e-4db8-ab3a-f11a22b07a4b"},"vehicle_type_id":"4","last_reported":1746083454,"current_range_meters":8400,"station_id":"ce4bhih2rcd13ifvqfr0","pricing_plan_id":"cebpf4jnsgd1na2vs0mg"},{"bike_id":"3d2f8a49-fca8-49ea-a205-2401e9c4bdac","system_id":"levelo_inurba_marseille","lat":43.23965,"lon":5.36632,"is_reserved":false,"is_disabled":false,"rental_uris":{"android":"levelo://app?vid=3d2f8a49-fca8-49ea-a205-2401e9c4bdac","ios":"levelo://app?vid=3d2f8a49-fca8-49ea-a205-2401e9c4bdac"},"vehicle_type_id":"4","last_reported":1746083454,"current_range_meters":8400,"station_id":"ce4bhi12rcd13ifvqfp0","pricing_plan_id":"cebpf4jnsgd1na2vs0mg"},{"bike_id":"21be1867-8866-4421-8336-0c10e80428db","system_id":"levelo_inurba_marseille","lat":43.31073,"lon":5.42437,"is_reserved":false,"is_disabled":false,"rental_uris":{"android":"levelo://app?vid=21be1867-8866-4421-8336-0c10e80428db","ios":"levelo://app?vid=21be1867-8866-4421-8336-0c10e80428db"},"vehicle_type_id":"4","last_reported":1746083454,"current_range_meters":8400,"station_id":"ce4bhp92rcd13ifvqhag","pricing_plan_id":"cebpf4jnsgd1na2vs0mg"},{"bike_id":"7f770ba9-2e48-47c9-8bb4-942855273bad","system_id":"levelo_inurba_marseille","lat":43.25387,"lon":5.42381,"is_reserved":false,"is_disabled":false,"rental_uris":{"android":"levelo://app?vid=7f770ba9-2e48-47c9-8bb4-942855273bad","ios":"levelo://app?vid=7f770ba9-2e48-47c9-8bb4-942855273bad"},"vehicle_type_id":"4","last_reported":1746083454,"current_range_meters":8400,"station_id":"","pricing_plan_id":"cebpf4jnsgd1na2vs0mg"},{"bike_id":"81e05ebe-9199-4b84-be27-50b827829ce3","system_id":"levelo_inurba_marseille","lat":43.28408,"lon":5.37513,"is_reserved":false,"is_disabled":false,"rental_uris":{"android":"levelo://app?vid=81e05ebe-9199-4b84-be27-50b827829ce3","ios":"levelo://app?vid=81e05ebe-9199-4b84-be27-50b827829ce3"},"vehicle_type_id":"4","last_reported":1746083454,"current_range_meters":8400,"station_id":"ce4bh412rcd13ifvqds0","pricing_plan_id":"cebpf4jnsgd1na2vs0mg"},{"bike_id":"946b2669-01f4-4d30-8e9f-8be8aa4b8038","system_id":"levelo_inurba_marseille","lat":43.30631,"lon":5.40063,"is_reserved":false,"is_disabled":false,"rental_uris":{"android":"levelo://app?vid=946b2669-01f4-4d30-8e9f-8be8aa4b8038","ios":"levelo://app?vid=946b2669-01f4-4d30-8e9f-8be8aa4b8038"},"vehicle_type_id":"4","last_reported":1746083454,"current_range_meters":8400,"station_id":"ce4bh112rcd13ifvqda0","pricing_plan_id":"cebpf4jnsgd1na2vs0mg"},{"bike_id":"4ff0db05-be29-471d-80d9-4fc345b5a0ff","system_id":"levelo_inurba_marseille","lat":43.306511,"lon":5.400907,"is_reserved":false,"is_disabled":false,"rental_uris":{"android":"levelo://app?vid=4ff0db05-be29-471d-80d9-4fc345b5a0ff","ios":"levelo://app?vid=4ff0db05-be29-471d-80d9-4fc345b5a0ff"},"vehicle_type_id":"4","last_reported":1746083454,"current_range_meters":8800,"station_id":"ce4bh112rcd13ifvqda0","pricing_plan_id":"cebpf4jnsgd1na2vs0mg"},{"bike_id":"afb3d955-a6d0-4e5a-acd8-3c4556dfba0a","system_id":"levelo_inurba_marseille","lat":43.289121,"lon":5.368691,"is_reserved":false,"is_disabled":false,"rental_uris":{"android":"levelo://app?vid=afb3d955-a6d0-4e5a-acd8-3c4556dfba0a","ios":"levelo://app?vid=afb3d955-a6d0-4e5a-acd8-3c4556dfba0a"},"vehicle_type_id":"4","last_reported":1746083454,"current_range_meters":8800,"station_id":"","pricing_plan_id":"cebpf4jnsgd1na2vs0mg"},{"bike_id":"f31bf073-e687-4787-90ee-691c464f7f3e","system_id":"levelo_inurba_marseille","lat":43.25726,"lon":5.41095,"is_reserved":false,"is_disabled":false,"rental_uris":{"android":"levelo://app?vid=f31bf073-e687-4787-90ee-691c464f7f3e","ios":"levelo://app?vid=f31bf073-e687-4787-90ee-691c464f7f3e"},"vehicle_type_id":"4","last_reported":1746083454,"current_range_meters":8800,"station_id":"ce4bhkp2rcd13ifvqgd0","pricing_plan_id":"cebpf4jnsgd1na2vs0mg"},{"bike_id":"8a08109b-abba-4662-b984-893ba2719fa3","system_id":"levelo_inurba_marseille","lat":43.24641,"lon":5.38178,"is_reserved":false,"is_disabled":false,"rental_uris":{"android":"levelo://app?vid=8a08109b-abba-4662-b984-893ba2719fa3","ios":"levelo://app?vid=8a08109b-abba-4662-b984-893ba2719fa3"},"vehicle_type_id":"4","last_reported":1746083454,"current_range_meters":8800,"station_id":"ce4bhih2rcd13ifvqfr0","pricing_plan_id":"cebpf4jnsgd1na2vs0mg"},{"bike_id":"3c45809c-b0fa-4bc2-b9c0-d5a87c8b30e1","system_id":"levelo_inurba_marseille","lat":43.3014,"lon":5.38086,"is_reserved":false,"is_disabled":false,"rental_uris":{"android":"levelo://app?vid=3c45809c-b0fa-4bc2-b9c0-d5a87c8b30e1","ios":"levelo://app?vid=3c45809c-b0fa-4bc2-b9c0-d5a87c8b30e1"},"vehicle_type_id":"4","last_reported":1746083454,"current_range_meters":8800,"station_id":"ce4bgjp2rcd13ifvqbh0","pricing_plan_id":"cebpf4jnsgd1na2vs0mg"},{"bike_id":"9ede1e42-052c-4356-a5f5-ddadd7dfa1c8","system_id":"levelo_inurba_marseille","lat":43.2293,"lon":5.35374,"is_reserved":false,"is_disabled":false,"rental_uris":{"android":"levelo://app?vid=9ede1e42-052c-4356-a5f5-ddadd7dfa1c8","ios":"levelo://app?vid=9ede1e42-052c-4356-a5f5-ddadd7dfa1c8"},"vehicle_type_id":"4","last_reported":1746083454,"current_range_meters":8800,"station_id":"cpo3532slgdg3j2ikp40","pricing_plan_id":"cebpf4jnsgd1na2vs0mg"},{"bike_id":"b2552879-9f85-4b7a-8489-9d8a975ee559","system_id":"levelo_inurba_marseille","lat":43.29609,"lon":5.37725,"is_reserved":false,"is_disabled":false,"rental_uris":{"android":"levelo://app?vid=b2552879-9f85-4b7a-8489-9d8a975ee559","ios":"levelo://app?vid=b2552879-9f85-4b7a-8489-9d8a975ee559"},"vehicle_type_id":"4","last_reported":1746083454,"current_range_meters":8800,"station_id":"ce4bgi92rcd13ifvqb90","pricing_plan_id":"cebpf4jnsgd1na2vs0mg"},{"bike_id":"c2822950-d0b4-4023-8870-6743aa9d2122","system_id":"levelo_inurba_marseille","lat":43.26774,"lon":5.394331,"is_reserved":false,"is_disabled":false,"rental_uris":{"android":"levelo://app?vid=c2822950-d0b4-4023-8870-6743aa9d2122","ios":"levelo://app?vid=c2822950-d0b4-4023-8870-6743aa9d2122"},"vehicle_type_id":"4","last_reported":1746083454,"current_range_meters":8800,"station_id":"ce4bhh12rcd13ifvqfg0","pricing_plan_id":"cebpf4jnsgd1na2vs0mg"},{"bike_id":"7924b638-6bb2-4d04-8752-d92a7a4ba43a","system_id":"levelo_inurba_marseille","lat":43.24184,"lon":5.39726,"is_reserved":false,"is_disabled":false,"rental_uris":{"android":"levelo://app?vid=7924b638-6bb2-4d04-8752-d92a7a4ba43a","ios":"levelo://app?vid=7924b638-6bb2-4d04-8752-d92a7a4ba43a"},"vehicle_type_id":"4","last_reported":1746083454,"current_range_meters":9200,"station_id":"ce4bhn12rcd13ifvqgpg","pricing_plan_id":"cebpf4jnsgd1na2vs0mg"},{"bike_id":"912c7719-28e0-48e1-8454-fa465c703922","system_id":"levelo_inurba_marseille","lat":43.29502,"lon":5.37381,"is_reserved":false,"is_disabled":false,"rental_uris":{"android":"levelo://app?vid=912c7719-28e0-48e1-8454-fa465c703922","ios":"levelo://app?vid=912c7719-28e0-48e1-8454-fa465c703922"},"vehicle_type_id":"4","last_reported":1746083454,"current_range_meters":9200,"station_id":"","pricing_plan_id":"cebpf4jnsgd1na2vs0mg"},{"bike_id":"405fa080-f811-46f3-8582-d87d58738f3b","system_id":"levelo_inurba_marseille","lat":43.25715,"lon":5.4181,"is_reserved":false,"is_disabled":false,"rental_uris":{"android":"levelo://app?vid=405fa080-f811-46f3-8582-d87d58738f3b","ios":"levelo://app?vid=405fa080-f811-46f3-8582-d87d58738f3b"},"vehicle_type_id":"4","last_reported":1746083454,"current_range_meters":9200,"station_id":"","pricing_plan_id":"cebpf4jnsgd1na2vs0mg"},{"bike_id":"e5e92a64-e709-4b1a-a9b1-cbffe85789ca","system_id":"levelo_inurba_marseille","lat":43.25541,"lon":5.38137,"is_reserved":false,"is_disabled":false,"rental_uris":{"android":"levelo://app?vid=e5e92a64-e709-4b1a-a9b1-cbffe85789ca","ios":"levelo://app?vid=e5e92a64-e709-4b1a-a9b1-cbffe85789ca"},"vehicle_type_id":"4","last_reported":1746083454,"current_range_meters":9200,"station_id":"","pricing_plan_id":"cebpf4jnsgd1na2vs0mg"},{"bike_id":"8261973d-7fd9-4c15-8fb8-294a251b0456","system_id":"levelo_inurba_marseille","lat":43.29217,"lon":5.386133,"is_reserved":false,"is_disabled":true,"rental_uris":{"android":"levelo://app?vid=8261973d-7fd9-4c15-8fb8-294a251b0456","ios":"levelo://app?vid=8261973d-7fd9-4c15-8fb8-294a251b0456"},"vehicle_type_id":"4","last_reported":1746083454,"current_range_meters":9200,"station_id":"","pricing_plan_id":"cebpf4jnsgd1na2vs0mg"},{"bike_id":"fca9dc8b-9c20-4eab-83ff-17d0ce9a6922","system_id":"levelo_inurba_marseille","lat":43.26038,"lon":5.41742,"is_reserved":false,"is_disabled":false,"rental_uris":{"android":"levelo://app?vid=fca9dc8b-9c20-4eab-83ff-17d0ce9a6922","ios":"levelo://app?vid=fca9dc8b-9c20-4eab-83ff-17d0ce9a6922"},"vehicle_type_id":"4","last_reported":1746083454,"current_range_meters":9600,"station_id":"","pricing_plan_id":"cebpf4jnsgd1na2vs0mg"},{"bike_id":"c5552acd-50fa-4b0d-95c7-8f6dc5626569","system_id":"levelo_inurba_marseille","lat":43.2807,"lon":5.39654,"is_reserved":false,"is_disabled":false,"rental_uris":{"android":"levelo://app?vid=c5552acd-50fa-4b0d-95c7-8f6dc5626569","ios":"levelo://app?vid=c5552acd-50fa-4b0d-95c7-8f6dc5626569"},"vehicle_type_id":"4","last_reported":1746083454,"current_range_meters":9600,"station_id":"ce4bho12rcd13ifvqh2g","pricing_plan_id":"cebpf4jnsgd1na2vs0mg"},{"bike_id":"fa0013e1-384c-4a43-9dc8-c63fff3d2b7e","system_id":"levelo_inurba_marseille","lat":43.2315,"lon":5.39957,"is_reserved":false,"is_disabled":false,"rental_uris":{"android":"levelo://app?vid=fa0013e1-384c-4a43-9dc8-c63fff3d2b7e","ios":"levelo://app?vid=fa0013e1-384c-4a43-9dc8-c63fff3d2b7e"},"vehicle_type_id":"4","last_reported":1746083454,"current_range_meters":9600,"station_id":"","pricing_plan_id":"cebpf4jnsgd1na2vs0mg"},{"bike_id":"c1cbc237-cfab-474a-aa26-81a87506105a","system_id":"levelo_inurba_marseille","lat":43.21754,"lon":5.34615,"is_reserved":false,"is_disabled":false,"rental_uris":{"android":"levelo://app?vid=c1cbc237-cfab-474a-aa26-81a87506105a","ios":"levelo://app?vid=c1cbc237-cfab-474a-aa26-81a87506105a"},"vehicle_type_id":"4","last_reported":1746083454,"current_range_meters":9600,"station_id":"st_cvj6r9ubvosntc0bgbag","pricing_plan_id":"cebpf4jnsgd1na2vs0mg"},{"bike_id":"3ce5a6a0-7c75-4b93-962c-2dd6ababc3c9","system_id":"levelo_inurba_marseille","lat":43.22504,"lon":5.34782,"is_reserved":false,"is_disabled":false,"rental_uris":{"android":"levelo://app?vid=3ce5a6a0-7c75-4b93-962c-2dd6ababc3c9","ios":"levelo://app?vid=3ce5a6a0-7c75-4b93-962c-2dd6ababc3c9"},"vehicle_type_id":"4","last_reported":1746083454,"current_range_meters":9600,"station_id":"st_cvj5dfep6f1abm77gieg","pricing_plan_id":"cebpf4jnsgd1na2vs0mg"},{"bike_id":"4fa9ed5a-1b6b-4d0b-b845-d37eae4caf3e","system_id":"levelo_inurba_marseille","lat":43.31766,"lon":5.3902,"is_reserved":false,"is_disabled":false,"rental_uris":{"android":"levelo://app?vid=4fa9ed5a-1b6b-4d0b-b845-d37eae4caf3e","ios":"levelo://app?vid=4fa9ed5a-1b6b-4d0b-b845-d37eae4caf3e"},"vehicle_type_id":"4","last_reported":1746083454,"current_range_meters":9600,"station_id":"ce4bhqp2rcd13ifvqhng","pricing_plan_id":"cebpf4jnsgd1na2vs0mg"},{"bike_id":"a076933d-3a98-414c-b7e5-30c1a775a06f","system_id":"levelo_inurba_marseille","lat":43.3139,"lon":5.39085,"is_reserved":false,"is_disabled":false,"rental_uris":{"android":"levelo://app?vid=a076933d-3a98-414c-b7e5-30c1a775a06f","ios":"levelo://app?vid=a076933d-3a98-414c-b7e5-30c1a775a06f"},"vehicle_type_id":"4","last_reported":1746083454,"current_range_meters":10000,"station_id":"","pricing_plan_id":"cebpf4jnsgd1na2vs0mg"},{"bike_id":"df93e2e5-6077-4d47-ac12-eb3362d865a5","system_id":"levelo_inurba_marseille","lat":43.284047,"lon":5.375227,"is_reserved":false,"is_disabled":false,"rental_uris":{"android":"levelo://app?vid=df93e2e5-6077-4d47-ac12-eb3362d865a5","ios":"levelo://app?vid=df93e2e5-6077-4d47-ac12-eb3362d865a5"},"vehicle_type_id":"4","last_reported":1746083454,"current_range_meters":10000,"station_id":"ce4bh412rcd13ifvqds0","pricing_plan_id":"cebpf4jnsgd1na2vs0mg"},{"bike_id":"379b8933-bc6e-4164-9d36-daaf2941e50f","system_id":"levelo_inurba_marseille","lat":43.307714,"lon":5.374711,"is_reserved":false,"is_disabled":false,"rental_uris":{"android":"levelo://app?vid=379b8933-bc6e-4164-9d36-daaf2941e50f","ios":"levelo://app?vid=379b8933-bc6e-4164-9d36-daaf2941e50f"},"vehicle_type_id":"4","last_reported":1746083454,"current_range_meters":10000,"station_id":"","pricing_plan_id":"cebpf4jnsgd1na2vs0mg"},{"bike_id":"3716d17a-c495-4731-a70d-6de7f12ecef0","system_id":"levelo_inurba_marseille","lat":43.32351,"lon":5.38884,"is_reserved":false,"is_disabled":false,"rental_uris":{"android":"levelo://app?vid=3716d17a-c495-4731-a70d-6de7f12ecef0","ios":"levelo://app?vid=3716d17a-c495-4731-a70d-6de7f12ecef0"},"vehicle_type_id":"4","last_reported":1746083454,"current_range_meters":10000,"station_id":"ce4bhqp2rcd13ifvqhog","pricing_plan_id":"cebpf4jnsgd1na2vs0mg"},{"bike_id":"42979274-76ae-42a2-b009-8dde9f74aa65","system_id":"levelo_inurba_marseille","lat":43.330163,"lon":5.390259,"is_reserved":false,"is_disabled":false,"rental_uris":{"android":"levelo://app?vid=42979274-76ae-42a2-b009-8dde9f74aa65","ios":"levelo://app?vid=42979274-76ae-42a2-b009-8dde9f74aa65"},"vehicle_type_id":"4","last_reported":1746083454,"current_range_meters":10800,"station_id":"ce4bhr92rcd13ifvqhrg","pricing_plan_id":"cebpf4jnsgd1na2vs0mg"},{"bike_id":"ee76672a-b31a-4ea2-9f1d-aeb0d5846055","system_id":"levelo_inurba_marseille","lat":43.3013,"lon":5.38106,"is_reserved":false,"is_disabled":false,"rental_uris":{"android":"levelo://app?vid=ee76672a-b31a-4ea2-9f1d-aeb0d5846055","ios":"levelo://app?vid=ee76672a-b31a-4ea2-9f1d-aeb0d5846055"},"vehicle_type_id":"4","last_reported":1746083454,"current_range_meters":10800,"station_id":"ce4bgjp2rcd13ifvqbh0","pricing_plan_id":"cebpf4jnsgd1na2vs0mg"},{"bike_id":"80651a87-6c3b-4ad8-a524-9ca686ad66c6","system_id":"levelo_inurba_marseille","lat":43.33014,"lon":5.39022,"is_reserved":false,"is_disabled":false,"rental_uris":{"android":"levelo://app?vid=80651a87-6c3b-4ad8-a524-9ca686ad66c6","ios":"levelo://app?vid=80651a87-6c3b-4ad8-a524-9ca686ad66c6"},"vehicle_type_id":"4","last_reported":1746083454,"current_range_meters":10800,"station_id":"ce4bhr92rcd13ifvqhrg","pricing_plan_id":"cebpf4jnsgd1na2vs0mg"},{"bike_id":"562276dc-22b8-4d74-876e-58926664ab2e","system_id":"levelo_inurba_marseille","lat":43.290217,"lon":5.35616,"is_reserved":false,"is_disabled":true,"rental_uris":{"android":"levelo://app?vid=562276dc-22b8-4d74-876e-58926664ab2e","ios":"levelo://app?vid=562276dc-22b8-4d74-876e-58926664ab2e"},"vehicle_type_id":"4","last_reported":1746083454,"current_range_meters":10800,"station_id":"ce4bhb92rcd13ifvqen0","pricing_plan_id":"cebpf4jnsgd1na2vs0mg"},{"bike_id":"c04da574-a2d9-4d7b-aaa5-47e6514ce6b0","system_id":"levelo_inurba_marseille","lat":43.2439,"lon":5.37052,"is_reserved":false,"is_disabled":false,"rental_uris":{"android":"levelo://app?vid=c04da574-a2d9-4d7b-aaa5-47e6514ce6b0","ios":"levelo://app?vid=c04da574-a2d9-4d7b-aaa5-47e6514ce6b0"},"vehicle_type_id":"4","last_reported":1746083454,"current_range_meters":10800,"station_id":"ce4bhhh2rcd13ifvqfk0","pricing_plan_id":"cebpf4jnsgd1na2vs0mg"},{"bike_id":"87b611f6-ce76-49e3-867c-a8a806a0f0b9","system_id":"levelo_inurba_marseille","lat":43.304636,"lon":5.379074,"is_reserved":false,"is_disabled":false,"rental_uris":{"android":"levelo://app?vid=87b611f6-ce76-49e3-867c-a8a806a0f0b9","ios":"levelo://app?vid=87b611f6-ce76-49e3-867c-a8a806a0f0b9"},"vehicle_type_id":"4","last_reported":1746083454,"current_range_meters":10800,"station_id":"ce4bgup2rcd13ifvqcn0","pricing_plan_id":"cebpf4jnsgd1na2vs0mg"},{"bike_id":"356f1f7a-85b4-466a-a5b8-7303a2582917","system_id":"levelo_inurba_marseille","lat":43.30136,"lon":5.374072,"is_reserved":false,"is_disabled":false,"rental_uris":{"android":"levelo://app?vid=356f1f7a-85b4-466a-a5b8-7303a2582917","ios":"levelo://app?vid=356f1f7a-85b4-466a-a5b8-7303a2582917"},"vehicle_type_id":"4","last_reported":1746083454,"current_range_meters":11200,"station_id":"ce4bgs92rcd13ifvqcc0","pricing_plan_id":"cebpf4jnsgd1na2vs0mg"},{"bike_id":"22da4027-4f6f-45d1-9334-006a58311cd1","system_id":"levelo_inurba_marseille","lat":43.24074,"lon":5.36793,"is_reserved":false,"is_disabled":false,"rental_uris":{"android":"levelo://app?vid=22da4027-4f6f-45d1-9334-006a58311cd1","ios":"levelo://app?vid=22da4027-4f6f-45d1-9334-006a58311cd1"},"vehicle_type_id":"4","last_reported":1746083454,"current_range_meters":11200,"station_id":"","pricing_plan_id":"cebpf4jnsgd1na2vs0mg"},{"bike_id":"54f016eb-d4f2-4464-a9b5-1bd215f5c09b","system_id":"levelo_inurba_marseille","lat":43.32362,"lon":5.38885,"is_reserved":false,"is_disabled":false,"rental_uris":{"android":"levelo://app?vid=54f016eb-d4f2-4464-a9b5-1bd215f5c09b","ios":"levelo://app?vid=54f016eb-d4f2-4464-a9b5-1bd215f5c09b"},"vehicle_type_id":"4","last_reported":1746083454,"current_range_meters":11200,"station_id":"ce4bhqp2rcd13ifvqhog","pricing_plan_id":"cebpf4jnsgd1na2vs0mg"},{"bike_id":"568e8226-15e0-4a16-bfa2-70ee45a44145","system_id":"levelo_inurba_marseille","lat":43.336,"lon":5.4099,"is_reserved":false,"is_disabled":false,"rental_uris":{"android":"levelo://app?vid=568e8226-15e0-4a16-bfa2-70ee45a44145","ios":"levelo://app?vid=568e8226-15e0-4a16-bfa2-70ee45a44145"},"vehicle_type_id":"4","last_reported":1746083454,"current_range_meters":11200,"station_id":"ce4bhqh2rcd13ifvqhmg","pricing_plan_id":"cebpf4jnsgd1na2vs0mg"},{"bike_id":"4f86a978-1faa-41c3-8974-e1b31a2703b5","system_id":"levelo_inurba_marseille","lat":43.25116,"lon":5.40311,"is_reserved":false,"is_disabled":false,"rental_uris":{"android":"levelo://app?vid=4f86a978-1faa-41c3-8974-e1b31a2703b5","ios":"levelo://app?vid=4f86a978-1faa-41c3-8974-e1b31a2703b5"},"vehicle_type_id":"4","last_reported":1746083454,"current_range_meters":11200,"station_id":"ce4bhlh2rcd13ifvqgig","pricing_plan_id":"cebpf4jnsgd1na2vs0mg"},{"bike_id":"ea80e760-79ab-4fb9-ba88-deb6e15c9204","system_id":"levelo_inurba_marseille","lat":43.30159,"lon":5.38075,"is_reserved":false,"is_disabled":false,"rental_uris":{"android":"levelo://app?vid=ea80e760-79ab-4fb9-ba88-deb6e15c9204","ios":"levelo://app?vid=ea80e760-79ab-4fb9-ba88-deb6e15c9204"},"vehicle_type_id":"4","last_reported":1746083454,"current_range_meters":11200,"station_id":"ce4bgjp2rcd13ifvqbh0","pricing_plan_id":"cebpf4jnsgd1na2vs0mg"},{"bike_id":"fd427e05-8ad1-4dac-ba3a-e42fe8245eb3","system_id":"levelo_inurba_marseille","lat":43.28412,"lon":5.34976,"is_reserved":false,"is_disabled":true,"rental_uris":{"android":"levelo://app?vid=fd427e05-8ad1-4dac-ba3a-e42fe8245eb3","ios":"levelo://app?vid=fd427e05-8ad1-4dac-ba3a-e42fe8245eb3"},"vehicle_type_id":"4","last_reported":1746083454,"current_range_meters":11600,"station_id":"ce4bhbh2rcd13ifvqepg","pricing_plan_id":"cebpf4jnsgd1na2vs0mg"},{"bike_id":"9e43dbdf-97fd-4e0b-8659-76c0eeecf214","system_id":"levelo_inurba_marseille","lat":43.25727,"lon":5.41106,"is_reserved":false,"is_disabled":false,"rental_uris":{"android":"levelo://app?vid=9e43dbdf-97fd-4e0b-8659-76c0eeecf214","ios":"levelo://app?vid=9e43dbdf-97fd-4e0b-8659-76c0eeecf214"},"vehicle_type_id":"4","last_reported":1746083454,"current_range_meters":11600,"station_id":"ce4bhkp2rcd13ifvqgd0","pricing_plan_id":"cebpf4jnsgd1na2vs0mg"},{"bike_id":"3e7df39b-5fb4-4bae-9bf7-8dc84665c637","system_id":"levelo_inurba_marseille","lat":43.31223,"lon":5.36846,"is_reserved":false,"is_disabled":false,"rental_uris":{"android":"levelo://app?vid=3e7df39b-5fb4-4bae-9bf7-8dc84665c637","ios":"levelo://app?vid=3e7df39b-5fb4-4bae-9bf7-8dc84665c637"},"vehicle_type_id":"4","last_reported":1746083454,"current_range_meters":11600,"station_id":"ce4bgl92rcd13ifvqbq0","pricing_plan_id":"cebpf4jnsgd1na2vs0mg"},{"bike_id":"1ee4d1e3-8f0e-48e7-b091-e9a0c499d36d","system_id":"levelo_inurba_marseille","lat":43.33603,"lon":5.41037,"is_reserved":false,"is_disabled":false,"rental_uris":{"android":"levelo://app?vid=1ee4d1e3-8f0e-48e7-b091-e9a0c499d36d","ios":"levelo://app?vid=1ee4d1e3-8f0e-48e7-b091-e9a0c499d36d"},"vehicle_type_id":"4","last_reported":1746083454,"current_range_meters":14400,"station_id":"ce4bhqh2rcd13ifvqhmg","pricing_plan_id":"cebpf4jnsgd1na2vs0mg"},{"bike_id":"8fead5b8-7d9b-4e9f-8d43-79e6b1d90d86","system_id":"levelo_inurba_marseille","lat":43.30222,"lon":5.40048,"is_reserved":false,"is_disabled":false,"rental_uris":{"android":"levelo://app?vid=8fead5b8-7d9b-4e9f-8d43-79e6b1d90d86","ios":"levelo://app?vid=8fead5b8-7d9b-4e9f-8d43-79e6b1d90d86"},"vehicle_type_id":"4","last_reported":1746083454,"current_range_meters":11600,"station_id":"","pricing_plan_id":"cebpf4jnsgd1na2vs0mg"},{"bike_id":"85526acc-28a7-4352-a4e7-3abd6a310fed","system_id":"levelo_inurba_marseille","lat":43.28268,"lon":5.35066,"is_reserved":false,"is_disabled":false,"rental_uris":{"android":"levelo://app?vid=85526acc-28a7-4352-a4e7-3abd6a310fed","ios":"levelo://app?vid=85526acc-28a7-4352-a4e7-3abd6a310fed"},"vehicle_type_id":"4","last_reported":1746083454,"current_range_meters":11600,"station_id":"ce4bhbp2rcd13ifvqerg","pricing_plan_id":"cebpf4jnsgd1na2vs0mg"},{"bike_id":"bded5638-5663-46d5-b164-b8214836c3ea","system_id":"levelo_inurba_marseille","lat":43.27303,"lon":5.391999,"is_reserved":false,"is_disabled":false,"rental_uris":{"android":"levelo://app?vid=bded5638-5663-46d5-b164-b8214836c3ea","ios":"levelo://app?vid=bded5638-5663-46d5-b164-b8214836c3ea"},"vehicle_type_id":"4","last_reported":1746083454,"current_range_meters":12000,"station_id":"","pricing_plan_id":"cebpf4jnsgd1na2vs0mg"},{"bike_id":"77a03c0a-3fe7-43c4-997c-d4c8fa7a3f56","system_id":"levelo_inurba_marseille","lat":43.32546,"lon":5.41439,"is_reserved":false,"is_disabled":false,"rental_uris":{"android":"levelo://app?vid=77a03c0a-3fe7-43c4-997c-d4c8fa7a3f56","ios":"levelo://app?vid=77a03c0a-3fe7-43c4-997c-d4c8fa7a3f56"},"vehicle_type_id":"4","last_reported":1746083454,"current_range_meters":12000,"station_id":"ce4bhq12rcd13ifvqhhg","pricing_plan_id":"cebpf4jnsgd1na2vs0mg"},{"bike_id":"a732b3d6-472a-46b2-b5fc-7d86a14ed2fc","system_id":"levelo_inurba_marseille","lat":43.32991,"lon":5.38962,"is_reserved":false,"is_disabled":false,"rental_uris":{"android":"levelo://app?vid=a732b3d6-472a-46b2-b5fc-7d86a14ed2fc","ios":"levelo://app?vid=a732b3d6-472a-46b2-b5fc-7d86a14ed2fc"},"vehicle_type_id":"4","last_reported":1746083454,"current_range_meters":12000,"station_id":"","pricing_plan_id":"cebpf4jnsgd1na2vs0mg"},{"bike_id":"2fab73d2-cef0-485f-94c0-49d3e5fcaea5","system_id":"levelo_inurba_marseille","lat":43.23197,"lon":5.40012,"is_reserved":false,"is_disabled":false,"rental_uris":{"android":"levelo://app?vid=2fab73d2-cef0-485f-94c0-49d3e5fcaea5","ios":"levelo://app?vid=2fab73d2-cef0-485f-94c0-49d3e5fcaea5"},"vehicle_type_id":"4","last_reported":1746083454,"current_range_meters":12000,"station_id":"ce4bhn12rcd13ifvqgqg","pricing_plan_id":"cebpf4jnsgd1na2vs0mg"},{"bike_id":"55f63592-70ea-4970-899d-14e04ab1c395","system_id":"levelo_inurba_marseille","lat":43.30143,"lon":5.38106,"is_reserved":false,"is_disabled":false,"rental_uris":{"android":"levelo://app?vid=55f63592-70ea-4970-899d-14e04ab1c395","ios":"levelo://app?vid=55f63592-70ea-4970-899d-14e04ab1c395"},"vehicle_type_id":"4","last_reported":1746083454,"current_range_meters":12000,"station_id":"ce4bgjp2rcd13ifvqbh0","pricing_plan_id":"cebpf4jnsgd1na2vs0mg"},{"bike_id":"50a1dd8d-541e-4f00-b04e-18bce9de7374","system_id":"levelo_inurba_marseille","lat":43.299123,"lon":5.401099,"is_reserved":false,"is_disabled":false,"rental_uris":{"android":"levelo://app?vid=50a1dd8d-541e-4f00-b04e-18bce9de7374","ios":"levelo://app?vid=50a1dd8d-541e-4f00-b04e-18bce9de7374"},"vehicle_type_id":"4","last_reported":1746083454,"current_range_meters":12000,"station_id":"","pricing_plan_id":"cebpf4jnsgd1na2vs0mg"},{"bike_id":"67bf30a2-e66b-465f-811a-e68aff900c18","system_id":"levelo_inurba_marseille","lat":43.29974,"lon":5.37155,"is_reserved":false,"is_disabled":false,"rental_uris":{"android":"levelo://app?vid=67bf30a2-e66b-465f-811a-e68aff900c18","ios":"levelo://app?vid=67bf30a2-e66b-465f-811a-e68aff900c18"},"vehicle_type_id":"4","last_reported":1746083454,"current_range_meters":9200,"station_id":"ce4bgr92rcd13ifvqc7g","pricing_plan_id":"cebpf4jnsgd1na2vs0mg"},{"bike_id":"cb799d30-a786-4212-8461-e5560b5b16ef","system_id":"levelo_inurba_marseille","lat":43.317108,"lon":5.437038,"is_reserved":false,"is_disabled":false,"rental_uris":{"android":"levelo://app?vid=cb799d30-a786-4212-8461-e5560b5b16ef","ios":"levelo://app?vid=cb799d30-a786-4212-8461-e5560b5b16ef"},"vehicle_type_id":"4","last_reported":1746083454,"current_range_meters":12000,"station_id":"ce4bhp92rcd13ifvqhcg","pricing_plan_id":"cebpf4jnsgd1na2vs0mg"},{"bike_id":"6d7b213b-4449-4477-8ebc-9bcc58a5e565","system_id":"levelo_inurba_marseille","lat":43.22929,"lon":5.35375,"is_reserved":false,"is_disabled":false,"rental_uris":{"android":"levelo://app?vid=6d7b213b-4449-4477-8ebc-9bcc58a5e565","ios":"levelo://app?vid=6d7b213b-4449-4477-8ebc-9bcc58a5e565"},"vehicle_type_id":"4","last_reported":1746083454,"current_range_meters":12400,"station_id":"cpo3532slgdg3j2ikp40","pricing_plan_id":"cebpf4jnsgd1na2vs0mg"},{"bike_id":"a688b131-ae29-4f11-8812-f85f61aa6706","system_id":"levelo_inurba_marseille","lat":43.292101,"lon":5.393194,"is_reserved":false,"is_disabled":true,"rental_uris":{"android":"levelo://app?vid=a688b131-ae29-4f11-8812-f85f61aa6706","ios":"levelo://app?vid=a688b131-ae29-4f11-8812-f85f61aa6706"},"vehicle_type_id":"4","last_reported":1746083454,"current_range_meters":12400,"station_id":"ce4bhbh2rcd13ifvqeo0","pricing_plan_id":"cebpf4jnsgd1na2vs0mg"},{"bike_id":"7940bc1b-eaa7-4f49-a435-46dc9391f6a1","system_id":"levelo_inurba_marseille","lat":43.21199,"lon":5.35051,"is_reserved":false,"is_disabled":false,"rental_uris":{"android":"levelo://app?vid=7940bc1b-eaa7-4f49-a435-46dc9391f6a1","ios":"levelo://app?vid=7940bc1b-eaa7-4f49-a435-46dc9391f6a1"},"vehicle_type_id":"4","last_reported":1746083454,"current_range_meters":12400,"station_id":"st_cvj6sg6p6f1abm77japg","pricing_plan_id":"cebpf4jnsgd1na2vs0mg"},{"bike_id":"34b484ab-c0f1-4e55-b51a-e2bafdafb63e","system_id":"levelo_inurba_marseille","lat":43.230565,"lon":5.354932,"is_reserved":false,"is_disabled":false,"rental_uris":{"android":"levelo://app?vid=34b484ab-c0f1-4e55-b51a-e2bafdafb63e","ios":"levelo://app?vid=34b484ab-c0f1-4e55-b51a-e2bafdafb63e"},"vehicle_type_id":"4","last_reported":1746083454,"current_range_meters":12400,"station_id":"cpo3342slgdg3j2ifvpg","pricing_plan_id":"cebpf4jnsgd1na2vs0mg"},{"bike_id":"da62e04f-aabf-4f2b-9e7f-761fdf6d967b","system_id":"levelo_inurba_marseille","lat":43.28435,"lon":5.37522,"is_reserved":false,"is_disabled":false,"rental_uris":{"android":"levelo://app?vid=da62e04f-aabf-4f2b-9e7f-761fdf6d967b","ios":"levelo://app?vid=da62e04f-aabf-4f2b-9e7f-761fdf6d967b"},"vehicle_type_id":"4","last_reported":1746083454,"current_range_meters":12800,"station_id":"ce4bh412rcd13ifvqds0","pricing_plan_id":"cebpf4jnsgd1na2vs0mg"},{"bike_id":"4fc13aab-47ec-41bf-ba18-3346f7c81d19","system_id":"levelo_inurba_marseille","lat":43.33594,"lon":5.40997,"is_reserved":false,"is_disabled":false,"rental_uris":{"android":"levelo://app?vid=4fc13aab-47ec-41bf-ba18-3346f7c81d19","ios":"levelo://app?vid=4fc13aab-47ec-41bf-ba18-3346f7c81d19"},"vehicle_type_id":"4","last_reported":1746083454,"current_range_meters":12800,"station_id":"ce4bhqh2rcd13ifvqhmg","pricing_plan_id":"cebpf4jnsgd1na2vs0mg"},{"bike_id":"87327be1-1d16-4130-b16a-3587f7db1ba1","system_id":"levelo_inurba_marseille","lat":43.30464,"lon":5.37909,"is_reserved":false,"is_disabled":false,"rental_uris":{"android":"levelo://app?vid=87327be1-1d16-4130-b16a-3587f7db1ba1","ios":"levelo://app?vid=87327be1-1d16-4130-b16a-3587f7db1ba1"},"vehicle_type_id":"4","last_reported":1746083454,"current_range_meters":12800,"station_id":"ce4bgup2rcd13ifvqcn0","pricing_plan_id":"cebpf4jnsgd1na2vs0mg"},{"bike_id":"083163f5-e2fd-40d2-9e4f-7b3d2d85df31","system_id":"levelo_inurba_marseille","lat":43.27006,"lon":5.38754,"is_reserved":false,"is_disabled":true,"rental_uris":{"android":"levelo://app?vid=083163f5-e2fd-40d2-9e4f-7b3d2d85df31","ios":"levelo://app?vid=083163f5-e2fd-40d2-9e4f-7b3d2d85df31"},"vehicle_type_id":"4","last_reported":1746083454,"current_range_meters":12800,"station_id":"","pricing_plan_id":"cebpf4jnsgd1na2vs0mg"},{"bike_id":"4c238086-426b-4572-9adb-d3c64060cc7f","system_id":"levelo_inurba_marseille","lat":43.24182,"lon":5.39729,"is_reserved":false,"is_disabled":false,"rental_uris":{"android":"levelo://app?vid=4c238086-426b-4572-9adb-d3c64060cc7f","ios":"levelo://app?vid=4c238086-426b-4572-9adb-d3c64060cc7f"},"vehicle_type_id":"4","last_reported":1746083454,"current_range_meters":12800,"station_id":"ce4bhn12rcd13ifvqgpg","pricing_plan_id":"cebpf4jnsgd1na2vs0mg"},{"bike_id":"66cf9de5-17de-4e38-9ee0-8d2cef3b4ab3","system_id":"levelo_inurba_marseille","lat":43.306597,"lon":5.400823,"is_reserved":false,"is_disabled":true,"rental_uris":{"android":"levelo://app?vid=66cf9de5-17de-4e38-9ee0-8d2cef3b4ab3","ios":"levelo://app?vid=66cf9de5-17de-4e38-9ee0-8d2cef3b4ab3"},"vehicle_type_id":"4","last_reported":1746083454,"current_range_meters":12800,"station_id":"ce4bh112rcd13ifvqda0","pricing_plan_id":"cebpf4jnsgd1na2vs0mg"},{"bike_id":"9d47f629-13a9-49ed-b913-377266f69688","system_id":"levelo_inurba_marseille","lat":43.29061,"lon":5.37171,"is_reserved":false,"is_disabled":false,"rental_uris":{"android":"levelo://app?vid=9d47f629-13a9-49ed-b913-377266f69688","ios":"levelo://app?vid=9d47f629-13a9-49ed-b913-377266f69688"},"vehicle_type_id":"4","last_reported":1746083454,"current_range_meters":13600,"station_id":"ce4bh5p2rcd13ifvqe4g","pricing_plan_id":"cebpf4jnsgd1na2vs0mg"},{"bike_id":"07541a4c-711f-473d-acfe-1eb9b677008b","system_id":"levelo_inurba_marseille","lat":43.324677,"lon":5.365727,"is_reserved":false,"is_disabled":true,"rental_uris":{"android":"levelo://app?vid=07541a4c-711f-473d-acfe-1eb9b677008b","ios":"levelo://app?vid=07541a4c-711f-473d-acfe-1eb9b677008b"},"vehicle_type_id":"4","last_reported":1746083454,"current_range_meters":13600,"station_id":"ce4bhs12rcd13ifvqhvg","pricing_plan_id":"cebpf4jnsgd1na2vs0mg"},{"bike_id":"fe9083d3-036c-45c9-9372-5aa64c224af0","system_id":"levelo_inurba_marseille","lat":43.30884,"lon":5.37172,"is_reserved":false,"is_disabled":false,"rental_uris":{"android":"levelo://app?vid=fe9083d3-036c-45c9-9372-5aa64c224af0","ios":"levelo://app?vid=fe9083d3-036c-45c9-9372-5aa64c224af0"},"vehicle_type_id":"4","last_reported":1746083454,"current_range_meters":13600,"station_id":"ce4bguh2rcd13ifvqckg","pricing_plan_id":"cebpf4jnsgd1na2vs0mg"},{"bike_id":"fd7875a1-1cd0-47f8-880b-6ef58a6b7e2e","system_id":"levelo_inurba_marseille","lat":43.22942,"lon":5.35414,"is_reserved":false,"is_disabled":false,"rental_uris":{"android":"levelo://app?vid=fd7875a1-1cd0-47f8-880b-6ef58a6b7e2e","ios":"levelo://app?vid=fd7875a1-1cd0-47f8-880b-6ef58a6b7e2e"},"vehicle_type_id":"4","last_reported":1746083454,"current_range_meters":13600,"station_id":"cpo3532slgdg3j2ikp40","pricing_plan_id":"cebpf4jnsgd1na2vs0mg"},{"bike_id":"207d5856-aa8b-4d2a-bb16-82ed9b42a351","system_id":"levelo_inurba_marseille","lat":43.322847,"lon":5.382757,"is_reserved":false,"is_disabled":false,"rental_uris":{"android":"levelo://app?vid=207d5856-aa8b-4d2a-bb16-82ed9b42a351","ios":"levelo://app?vid=207d5856-aa8b-4d2a-bb16-82ed9b42a351"},"vehicle_type_id":"4","last_reported":1746083454,"current_range_meters":13600,"station_id":"ce4bhr12rcd13ifvqhqg","pricing_plan_id":"cebpf4jnsgd1na2vs0mg"},{"bike_id":"734c3611-7469-46e4-9c45-70060c2c0e34","system_id":"levelo_inurba_marseille","lat":43.27907,"lon":5.38009,"is_reserved":false,"is_disabled":false,"rental_uris":{"android":"levelo://app?vid=734c3611-7469-46e4-9c45-70060c2c0e34","ios":"levelo://app?vid=734c3611-7469-46e4-9c45-70060c2c0e34"},"vehicle_type_id":"4","last_reported":1746083454,"current_range_meters":14000,"station_id":"ce4bhf92rcd13ifvqf50","pricing_plan_id":"cebpf4jnsgd1na2vs0mg"},{"bike_id":"5a40d0a7-d467-48d2-9204-072f5fb6a04b","system_id":"levelo_inurba_marseille","lat":43.316655,"lon":5.40449,"is_reserved":false,"is_disabled":false,"rental_uris":{"android":"levelo://app?vid=5a40d0a7-d467-48d2-9204-072f5fb6a04b","ios":"levelo://app?vid=5a40d0a7-d467-48d2-9204-072f5fb6a04b"},"vehicle_type_id":"4","last_reported":1746083454,"current_range_meters":14000,"station_id":"ce4bh012rcd13ifvqd00","pricing_plan_id":"cebpf4jnsgd1na2vs0mg"},{"bike_id":"a365cc5e-2680-4cc8-aba2-82ef0a1c6d9c","system_id":"levelo_inurba_marseille","lat":43.3378,"lon":5.37431,"is_reserved":false,"is_disabled":false,"rental_uris":{"android":"levelo://app?vid=a365cc5e-2680-4cc8-aba2-82ef0a1c6d9c","ios":"levelo://app?vid=a365cc5e-2680-4cc8-aba2-82ef0a1c6d9c"},"vehicle_type_id":"4","last_reported":1746083454,"current_range_meters":14000,"station_id":"","pricing_plan_id":"cebpf4jnsgd1na2vs0mg"},{"bike_id":"0602cf4b-4db4-48c2-a5d3-0aa7c3a32d80","system_id":"levelo_inurba_marseille","lat":43.27376,"lon":5.36253,"is_reserved":false,"is_disabled":false,"rental_uris":{"android":"levelo://app?vid=0602cf4b-4db4-48c2-a5d3-0aa7c3a32d80","ios":"levelo://app?vid=0602cf4b-4db4-48c2-a5d3-0aa7c3a32d80"},"vehicle_type_id":"4","last_reported":1746083454,"current_range_meters":14000,"station_id":"ce4bhbh2rcd13ifvqeo0","pricing_plan_id":"cebpf4jnsgd1na2vs0mg"},{"bike_id":"68387bcf-91b9-4d94-9345-8087e5f6d466","system_id":"levelo_inurba_marseille","lat":43.31333,"lon":5.36771,"is_reserved":false,"is_disabled":true,"rental_uris":{"android":"levelo://app?vid=68387bcf-91b9-4d94-9345-8087e5f6d466","ios":"levelo://app?vid=68387bcf-91b9-4d94-9345-8087e5f6d466"},"vehicle_type_id":"4","last_reported":1746083454,"current_range_meters":14800,"station_id":"","pricing_plan_id":"cebpf4jnsgd1na2vs0mg"},{"bike_id":"a80efe56-7ec7-41b2-959d-a20ff548881b","system_id":"levelo_inurba_marseille","lat":43.323527,"lon":5.388843,"is_reserved":false,"is_disabled":false,"rental_uris":{"android":"levelo://app?vid=a80efe56-7ec7-41b2-959d-a20ff548881b","ios":"levelo://app?vid=a80efe56-7ec7-41b2-959d-a20ff548881b"},"vehicle_type_id":"4","last_reported":1746083454,"current_range_meters":14800,"station_id":"ce4bhqp2rcd13ifvqhog","pricing_plan_id":"cebpf4jnsgd1na2vs0mg"},{"bike_id":"d13198bf-44ec-4da7-acff-e922f2680bbe","system_id":"levelo_inurba_marseille","lat":43.33603,"lon":5.41027,"is_reserved":false,"is_disabled":false,"rental_uris":{"android":"levelo://app?vid=d13198bf-44ec-4da7-acff-e922f2680bbe","ios":"levelo://app?vid=d13198bf-44ec-4da7-acff-e922f2680bbe"},"vehicle_type_id":"4","last_reported":1746083454,"current_range_meters":14800,"station_id":"ce4bhqh2rcd13ifvqhmg","pricing_plan_id":"cebpf4jnsgd1na2vs0mg"},{"bike_id":"977ba9b4-af84-44da-af87-2648fbae0ed5","system_id":"levelo_inurba_marseille","lat":43.26679,"lon":5.38265,"is_reserved":false,"is_disabled":false,"rental_uris":{"android":"levelo://app?vid=977ba9b4-af84-44da-af87-2648fbae0ed5","ios":"levelo://app?vid=977ba9b4-af84-44da-af87-2648fbae0ed5"},"vehicle_type_id":"4","last_reported":1746083454,"current_range_meters":16000,"station_id":"ce4bhg92rcd13ifvqf90","pricing_plan_id":"cebpf4jnsgd1na2vs0mg"},{"bike_id":"b58385b2-d1b2-4ecc-af75-eb7cf4772905","system_id":"levelo_inurba_marseille","lat":43.23073,"lon":5.35519,"is_reserved":false,"is_disabled":false,"rental_uris":{"android":"levelo://app?vid=b58385b2-d1b2-4ecc-af75-eb7cf4772905","ios":"levelo://app?vid=b58385b2-d1b2-4ecc-af75-eb7cf4772905"},"vehicle_type_id":"4","last_reported":1746083454,"current_range_meters":14800,"station_id":"cpo3342slgdg3j2ifvpg","pricing_plan_id":"cebpf4jnsgd1na2vs0mg"},{"bike_id":"6daaf168-bfa9-48eb-82e8-fce6c84467fb","system_id":"levelo_inurba_marseille","lat":43.25874,"lon":5.39954,"is_reserved":false,"is_disabled":false,"rental_uris":{"android":"levelo://app?vid=6daaf168-bfa9-48eb-82e8-fce6c84467fb","ios":"levelo://app?vid=6daaf168-bfa9-48eb-82e8-fce6c84467fb"},"vehicle_type_id":"4","last_reported":1746083454,"current_range_meters":14800,"station_id":"ce4bhl92rcd13ifvqghg","pricing_plan_id":"cebpf4jnsgd1na2vs0mg"},{"bike_id":"bfda9fde-8f01-47c7-b272-fb2f656e50f8","system_id":"levelo_inurba_marseille","lat":43.32028,"lon":5.41557,"is_reserved":false,"is_disabled":false,"rental_uris":{"android":"levelo://app?vid=bfda9fde-8f01-47c7-b272-fb2f656e50f8","ios":"levelo://app?vid=bfda9fde-8f01-47c7-b272-fb2f656e50f8"},"vehicle_type_id":"4","last_reported":1746083454,"current_range_meters":16000,"station_id":"ce4bhq92rcd13ifvqhkg","pricing_plan_id":"cebpf4jnsgd1na2vs0mg"},{"bike_id":"dc2dfdc7-73a2-4f18-837a-0677b3a23fbe","system_id":"levelo_inurba_marseille","lat":43.336,"lon":5.40966,"is_reserved":false,"is_disabled":false,"rental_uris":{"android":"levelo://app?vid=dc2dfdc7-73a2-4f18-837a-0677b3a23fbe","ios":"levelo://app?vid=dc2dfdc7-73a2-4f18-837a-0677b3a23fbe"},"vehicle_type_id":"4","last_reported":1746083454,"current_range_meters":15200,"station_id":"ce4bhqh2rcd13ifvqhmg","pricing_plan_id":"cebpf4jnsgd1na2vs0mg"},{"bike_id":"58e61467-50db-4ef1-a23a-155c99fb9f5b","system_id":"levelo_inurba_marseille","lat":43.31499,"lon":5.3728,"is_reserved":false,"is_disabled":false,"rental_uris":{"android":"levelo://app?vid=58e61467-50db-4ef1-a23a-155c99fb9f5b","ios":"levelo://app?vid=58e61467-50db-4ef1-a23a-155c99fb9f5b"},"vehicle_type_id":"4","last_reported":1746083454,"current_range_meters":16000,"station_id":"ce4bgt12rcd13ifvqcd0","pricing_plan_id":"cebpf4jnsgd1na2vs0mg"},{"bike_id":"9ef9c798-4087-4b24-9319-c52bf68ea680","system_id":"levelo_inurba_marseille","lat":43.30431,"lon":5.39742,"is_reserved":false,"is_disabled":false,"rental_uris":{"android":"levelo://app?vid=9ef9c798-4087-4b24-9319-c52bf68ea680","ios":"levelo://app?vid=9ef9c798-4087-4b24-9319-c52bf68ea680"},"vehicle_type_id":"4","last_reported":1746083454,"current_range_meters":16000,"station_id":"ce4bh092rcd13ifvqd20","pricing_plan_id":"cebpf4jnsgd1na2vs0mg"},{"bike_id":"43fdf588-8115-4b85-8382-fbc0f7bbe361","system_id":"levelo_inurba_marseille","lat":43.25569,"lon":5.38251,"is_reserved":false,"is_disabled":false,"rental_uris":{"android":"levelo://app?vid=43fdf588-8115-4b85-8382-fbc0f7bbe361","ios":"levelo://app?vid=43fdf588-8115-4b85-8382-fbc0f7bbe361"},"vehicle_type_id":"4","last_reported":1746083454,"current_range_meters":16000,"station_id":"ce4bhih2rcd13ifvqfs0","pricing_plan_id":"cebpf4jnsgd1na2vs0mg"},{"bike_id":"a561fc75-679f-441f-9268-2649fce89604","system_id":"levelo_inurba_marseille","lat":43.24542,"lon":5.39529,"is_reserved":false,"is_disabled":false,"rental_uris":{"android":"levelo://app?vid=a561fc75-679f-441f-9268-2649fce89604","ios":"levelo://app?vid=a561fc75-679f-441f-9268-2649fce89604"},"vehicle_type_id":"4","last_reported":1746083454,"current_range_meters":16000,"station_id":"ce4bhlp2rcd13ifvqgjg","pricing_plan_id":"cebpf4jnsgd1na2vs0mg"},{"bike_id":"0c2fd97a-a68c-4bff-8f09-402b6ba070c9","system_id":"levelo_inurba_marseille","lat":43.336041,"lon":5.410244,"is_reserved":false,"is_disabled":false,"rental_uris":{"android":"levelo://app?vid=0c2fd97a-a68c-4bff-8f09-402b6ba070c9","ios":"levelo://app?vid=0c2fd97a-a68c-4bff-8f09-402b6ba070c9"},"vehicle_type_id":"4","last_reported":1746083454,"current_range_meters":16000,"station_id":"ce4bhqh2rcd13ifvqhmg","pricing_plan_id":"cebpf4jnsgd1na2vs0mg"},{"bike_id":"7ecde284-7e31-45fd-b78d-d75dce942db8","system_id":"levelo_inurba_marseille","lat":43.25736,"lon":5.41114,"is_reserved":false,"is_disabled":false,"rental_uris":{"android":"levelo://app?vid=7ecde284-7e31-45fd-b78d-d75dce942db8","ios":"levelo://app?vid=7ecde284-7e31-45fd-b78d-d75dce942db8"},"vehicle_type_id":"4","last_reported":1746083454,"current_range_meters":16000,"station_id":"ce4bhkp2rcd13ifvqgd0","pricing_plan_id":"cebpf4jnsgd1na2vs0mg"},{"bike_id":"db70917f-893e-4376-952f-11ed090f8af4","system_id":"levelo_inurba_marseille","lat":43.29567,"lon":5.375193,"is_reserved":false,"is_disabled":false,"rental_uris":{"android":"levelo://app?vid=db70917f-893e-4376-952f-11ed090f8af4","ios":"levelo://app?vid=db70917f-893e-4376-952f-11ed090f8af4"},"vehicle_type_id":"4","last_reported":1746083454,"current_range_meters":16400,"station_id":"ce4bgh92rcd13ifvqb50","pricing_plan_id":"cebpf4jnsgd1na2vs0mg"},{"bike_id":"b1b4d74f-092b-476b-abae-f60870c92748","system_id":"levelo_inurba_marseille","lat":43.25104,"lon":5.39529,"is_reserved":false,"is_disabled":false,"rental_uris":{"android":"levelo://app?vid=b1b4d74f-092b-476b-abae-f60870c92748","ios":"levelo://app?vid=b1b4d74f-092b-476b-abae-f60870c92748"},"vehicle_type_id":"4","last_reported":1746083454,"current_range_meters":16400,"station_id":"ce4bhm12rcd13ifvqgkg","pricing_plan_id":"cebpf4jnsgd1na2vs0mg"},{"bike_id":"41177f4d-9dde-49ed-af68-61a442fc2a4f","system_id":"levelo_inurba_marseille","lat":43.30248,"lon":5.40051,"is_reserved":false,"is_disabled":false,"rental_uris":{"android":"levelo://app?vid=41177f4d-9dde-49ed-af68-61a442fc2a4f","ios":"levelo://app?vid=41177f4d-9dde-49ed-af68-61a442fc2a4f"},"vehicle_type_id":"4","last_reported":1746083454,"current_range_meters":16400,"station_id":"ce4bgvh2rcd13ifvqcs0","pricing_plan_id":"cebpf4jnsgd1na2vs0mg"},{"bike_id":"5a92311b-afc6-484e-ba35-449afe75ce34","system_id":"levelo_inurba_marseille","lat":43.297743,"lon":5.380993,"is_reserved":false,"is_disabled":true,"rental_uris":{"android":"levelo://app?vid=5a92311b-afc6-484e-ba35-449afe75ce34","ios":"levelo://app?vid=5a92311b-afc6-484e-ba35-449afe75ce34"},"vehicle_type_id":"4","last_reported":1746083454,"current_range_meters":16400,"station_id":"ce4bgip2rcd13ifvqbb0","pricing_plan_id":"cebpf4jnsgd1na2vs0mg"},{"bike_id":"0b9ac188-19a7-4ad4-8279-34f1318ce56d","system_id":"levelo_inurba_marseille","lat":43.31279,"lon":5.37756,"is_reserved":false,"is_disabled":false,"rental_uris":{"android":"levelo://app?vid=0b9ac188-19a7-4ad4-8279-34f1318ce56d","ios":"levelo://app?vid=0b9ac188-19a7-4ad4-8279-34f1318ce56d"},"vehicle_type_id":"4","last_reported":1746083454,"current_range_meters":16400,"station_id":"","pricing_plan_id":"cebpf4jnsgd1na2vs0mg"},{"bike_id":"c8581763-0ce2-4bab-ab9e-b4108eaa2ed7","system_id":"levelo_inurba_marseille","lat":43.32365,"lon":5.38884,"is_reserved":false,"is_disabled":false,"rental_uris":{"android":"levelo://app?vid=c8581763-0ce2-4bab-ab9e-b4108eaa2ed7","ios":"levelo://app?vid=c8581763-0ce2-4bab-ab9e-b4108eaa2ed7"},"vehicle_type_id":"4","last_reported":1746083454,"current_range_meters":16400,"station_id":"ce4bhqp2rcd13ifvqhog","pricing_plan_id":"cebpf4jnsgd1na2vs0mg"},{"bike_id":"2e1ce04f-74c7-4d68-a96b-b9dc1d6897ee","system_id":"levelo_inurba_marseille","lat":43.322842,"lon":5.382853,"is_reserved":false,"is_disabled":false,"rental_uris":{"android":"levelo://app?vid=2e1ce04f-74c7-4d68-a96b-b9dc1d6897ee","ios":"levelo://app?vid=2e1ce04f-74c7-4d68-a96b-b9dc1d6897ee"},"vehicle_type_id":"4","last_reported":1746083454,"current_range_meters":16400,"station_id":"ce4bhr12rcd13ifvqhqg","pricing_plan_id":"cebpf4jnsgd1na2vs0mg"},{"bike_id":"2a0511c7-0a2f-4abb-8112-ca733ea2f7b0","system_id":"levelo_inurba_marseille","lat":43.29567,"lon":5.37531,"is_reserved":false,"is_disabled":false,"rental_uris":{"android":"levelo://app?vid=2a0511c7-0a2f-4abb-8112-ca733ea2f7b0","ios":"levelo://app?vid=2a0511c7-0a2f-4abb-8112-ca733ea2f7b0"},"vehicle_type_id":"4","last_reported":1746083454,"current_range_meters":16400,"station_id":"ce4bgh92rcd13ifvqb50","pricing_plan_id":"cebpf4jnsgd1na2vs0mg"},{"bike_id":"e7ffe102-def9-44df-ab08-bcf2bfb76907","system_id":"levelo_inurba_marseille","lat":43.29609,"lon":5.37727,"is_reserved":false,"is_disabled":true,"rental_uris":{"android":"levelo://app?vid=e7ffe102-def9-44df-ab08-bcf2bfb76907","ios":"levelo://app?vid=e7ffe102-def9-44df-ab08-bcf2bfb76907"},"vehicle_type_id":"4","last_reported":1746083454,"current_range_meters":16800,"station_id":"ce4bgi92rcd13ifvqb90","pricing_plan_id":"cebpf4jnsgd1na2vs0mg"},{"bike_id":"3aba1d0c-e797-40ac-b0dc-2022445cb907","system_id":"levelo_inurba_marseille","lat":43.25136,"lon":5.40396,"is_reserved":false,"is_disabled":false,"rental_uris":{"android":"levelo://app?vid=3aba1d0c-e797-40ac-b0dc-2022445cb907","ios":"levelo://app?vid=3aba1d0c-e797-40ac-b0dc-2022445cb907"},"vehicle_type_id":"4","last_reported":1746083454,"current_range_meters":16800,"station_id":"","pricing_plan_id":"cebpf4jnsgd1na2vs0mg"},{"bike_id":"fdbcbad9-793f-47e9-b0dc-8d575bf138f6","system_id":"levelo_inurba_marseille","lat":43.303,"lon":5.39202,"is_reserved":false,"is_disabled":false,"rental_uris":{"android":"levelo://app?vid=fdbcbad9-793f-47e9-b0dc-8d575bf138f6","ios":"levelo://app?vid=fdbcbad9-793f-47e9-b0dc-8d575bf138f6"},"vehicle_type_id":"4","last_reported":1746083454,"current_range_meters":16800,"station_id":"ce4bgkh2rcd13ifvqbk0","pricing_plan_id":"cebpf4jnsgd1na2vs0mg"},{"bike_id":"0c7f2d70-b849-486d-bca2-848a564f0867","system_id":"levelo_inurba_marseille","lat":43.27998,"lon":5.400126,"is_reserved":false,"is_disabled":false,"rental_uris":{"android":"levelo://app?vid=0c7f2d70-b849-486d-bca2-848a564f0867","ios":"levelo://app?vid=0c7f2d70-b849-486d-bca2-848a564f0867"},"vehicle_type_id":"4","last_reported":1746083454,"current_range_meters":16800,"station_id":"ce4bho92rcd13ifvqh4g","pricing_plan_id":"cebpf4jnsgd1na2vs0mg"},{"bike_id":"1b5ee16c-1220-41a3-b71b-0bf601a3bc0a","system_id":"levelo_inurba_marseille","lat":43.300653,"lon":5.391007,"is_reserved":false,"is_disabled":true,"rental_uris":{"android":"levelo://app?vid=1b5ee16c-1220-41a3-b71b-0bf601a3bc0a","ios":"levelo://app?vid=1b5ee16c-1220-41a3-b71b-0bf601a3bc0a"},"vehicle_type_id":"4","last_reported":1746083454,"current_range_meters":16800,"station_id":"ce4bh192rcd13ifvqdb0","pricing_plan_id":"cebpf4jnsgd1na2vs0mg"},{"bike_id":"314c570d-d342-4e1f-93ca-be55bfbed314","system_id":"levelo_inurba_marseille","lat":43.307397,"lon":5.424367,"is_reserved":false,"is_disabled":false,"rental_uris":{"android":"levelo://app?vid=314c570d-d342-4e1f-93ca-be55bfbed314","ios":"levelo://app?vid=314c570d-d342-4e1f-93ca-be55bfbed314"},"vehicle_type_id":"4","last_reported":1746083454,"current_range_meters":16800,"station_id":"st_cvj6ca6bvosntc0bfgr0","pricing_plan_id":"cebpf4jnsgd1na2vs0mg"},{"bike_id":"beb1d927-2520-405b-a87d-c20cf401f42b","system_id":"levelo_inurba_marseille","lat":43.28418,"lon":5.37504,"is_reserved":false,"is_disabled":false,"rental_uris":{"android":"levelo://app?vid=beb1d927-2520-405b-a87d-c20cf401f42b","ios":"levelo://app?vid=beb1d927-2520-405b-a87d-c20cf401f42b"},"vehicle_type_id":"4","last_reported":1746083454,"current_range_meters":16800,"station_id":"ce4bh412rcd13ifvqds0","pricing_plan_id":"cebpf4jnsgd1na2vs0mg"},{"bike_id":"b59f9ea1-ffd2-46de-a377-e32331e5f122","system_id":"levelo_inurba_marseille","lat":43.315309,"lon":5.380341,"is_reserved":false,"is_disabled":false,"rental_uris":{"android":"levelo://app?vid=b59f9ea1-ffd2-46de-a377-e32331e5f122","ios":"levelo://app?vid=b59f9ea1-ffd2-46de-a377-e32331e5f122"},"vehicle_type_id":"4","last_reported":1746083454,"current_range_meters":17200,"station_id":"ce4bhsp2rcd13ifvqi50","pricing_plan_id":"cebpf4jnsgd1na2vs0mg"},{"bike_id":"16abf086-9b8c-433e-949a-7601ccf5d234","system_id":"levelo_inurba_marseille","lat":43.217499,"lon":5.346027,"is_reserved":false,"is_disabled":false,"rental_uris":{"android":"levelo://app?vid=16abf086-9b8c-433e-949a-7601ccf5d234","ios":"levelo://app?vid=16abf086-9b8c-433e-949a-7601ccf5d234"},"vehicle_type_id":"4","last_reported":1746083454,"current_range_meters":17200,"station_id":"st_cvj6r9ubvosntc0bgbag","pricing_plan_id":"cebpf4jnsgd1na2vs0mg"},{"bike_id":"8d17b367-8061-4c82-8409-5df859a79302","system_id":"levelo_inurba_marseille","lat":43.319851,"lon":5.381521,"is_reserved":false,"is_disabled":false,"rental_uris":{"android":"levelo://app?vid=8d17b367-8061-4c82-8409-5df859a79302","ios":"levelo://app?vid=8d17b367-8061-4c82-8409-5df859a79302"},"vehicle_type_id":"4","last_reported":1746083454,"current_range_meters":17200,"station_id":"ce4bhr12rcd13ifvqhpg","pricing_plan_id":"cebpf4jnsgd1na2vs0mg"},{"bike_id":"8a108257-ba62-40f1-b151-5864796d192a","system_id":"levelo_inurba_marseille","lat":43.21748,"lon":5.34593,"is_reserved":false,"is_disabled":false,"rental_uris":{"android":"levelo://app?vid=8a108257-ba62-40f1-b151-5864796d192a","ios":"levelo://app?vid=8a108257-ba62-40f1-b151-5864796d192a"},"vehicle_type_id":"4","last_reported":1746083454,"current_range_meters":17200,"station_id":"st_cvj6r9ubvosntc0bgbag","pricing_plan_id":"cebpf4jnsgd1na2vs0mg"},{"bike_id":"79ec0592-8a45-4e9d-b86b-d5cdb418a47f","system_id":"levelo_inurba_marseille","lat":43.30151,"lon":5.38087,"is_reserved":false,"is_disabled":false,"rental_uris":{"android":"levelo://app?vid=79ec0592-8a45-4e9d-b86b-d5cdb418a47f","ios":"levelo://app?vid=79ec0592-8a45-4e9d-b86b-d5cdb418a47f"},"vehicle_type_id":"4","last_reported":1746083454,"current_range_meters":17200,"station_id":"ce4bgjp2rcd13ifvqbh0","pricing_plan_id":"cebpf4jnsgd1na2vs0mg"},{"bike_id":"2f58eb3d-ff10-4be7-8a47-0055a4a7d348","system_id":"levelo_inurba_marseille","lat":43.26197,"lon":5.37448,"is_reserved":false,"is_disabled":false,"rental_uris":{"android":"levelo://app?vid=2f58eb3d-ff10-4be7-8a47-0055a4a7d348","ios":"levelo://app?vid=2f58eb3d-ff10-4be7-8a47-0055a4a7d348"},"vehicle_type_id":"4","last_reported":1746083454,"current_range_meters":17200,"station_id":"ce4bhgp2rcd13ifvqfc0","pricing_plan_id":"cebpf4jnsgd1na2vs0mg"},{"bike_id":"1bd1a463-337f-4c4e-98b6-b927dde62105","system_id":"levelo_inurba_marseille","lat":43.303735,"lon":5.42489,"is_reserved":false,"is_disabled":true,"rental_uris":{"android":"levelo://app?vid=1bd1a463-337f-4c4e-98b6-b927dde62105","ios":"levelo://app?vid=1bd1a463-337f-4c4e-98b6-b927dde62105"},"vehicle_type_id":"4","last_reported":1746083454,"current_range_meters":17200,"station_id":"ce4bhoh2rcd13ifvqh6g","pricing_plan_id":"cebpf4jnsgd1na2vs0mg"},{"bike_id":"a0be4085-5aa1-4e70-8872-c0d0d5166c1f","system_id":"levelo_inurba_marseille","lat":43.324832,"lon":5.365764,"is_reserved":false,"is_disabled":false,"rental_uris":{"android":"levelo://app?vid=a0be4085-5aa1-4e70-8872-c0d0d5166c1f","ios":"levelo://app?vid=a0be4085-5aa1-4e70-8872-c0d0d5166c1f"},"vehicle_type_id":"4","last_reported":1746083454,"current_range_meters":18000,"station_id":"ce4bhs12rcd13ifvqhvg","pricing_plan_id":"cebpf4jnsgd1na2vs0mg"},{"bike_id":"1eb215ba-dec8-4bf2-b856-b6d1630b02df","system_id":"levelo_inurba_marseille","lat":43.283237,"lon":5.350331,"is_reserved":false,"is_disabled":false,"rental_uris":{"android":"levelo://app?vid=1eb215ba-dec8-4bf2-b856-b6d1630b02df","ios":"levelo://app?vid=1eb215ba-dec8-4bf2-b856-b6d1630b02df"},"vehicle_type_id":"4","last_reported":1746083454,"current_range_meters":18000,"station_id":"ce4bhbp2rcd13ifvqerg","pricing_plan_id":"cebpf4jnsgd1na2vs0mg"},{"bike_id":"f649bbcf-f1ec-41ae-9810-4157e3752ba7","system_id":"levelo_inurba_marseille","lat":43.2984,"lon":5.37615,"is_reserved":false,"is_disabled":false,"rental_uris":{"android":"levelo://app?vid=f649bbcf-f1ec-41ae-9810-4157e3752ba7","ios":"levelo://app?vid=f649bbcf-f1ec-41ae-9810-4157e3752ba7"},"vehicle_type_id":"4","last_reported":1746083454,"current_range_meters":18000,"station_id":"","pricing_plan_id":"cebpf4jnsgd1na2vs0mg"},{"bike_id":"fd0ab90c-cc8a-440f-ad03-bc6ac1919eb1","system_id":"levelo_inurba_marseille","lat":43.28616,"lon":5.35105,"is_reserved":false,"is_disabled":false,"rental_uris":{"android":"levelo://app?vid=fd0ab90c-cc8a-440f-ad03-bc6ac1919eb1","ios":"levelo://app?vid=fd0ab90c-cc8a-440f-ad03-bc6ac1919eb1"},"vehicle_type_id":"4","last_reported":1746083454,"current_range_meters":18000,"station_id":"ce4bhch2rcd13ifvqeug","pricing_plan_id":"cebpf4jnsgd1na2vs0mg"},{"bike_id":"7acef1b3-6154-45d7-9dd4-b4c37b4ddc94","system_id":"levelo_inurba_marseille","lat":43.30464,"lon":5.379,"is_reserved":false,"is_disabled":false,"rental_uris":{"android":"levelo://app?vid=7acef1b3-6154-45d7-9dd4-b4c37b4ddc94","ios":"levelo://app?vid=7acef1b3-6154-45d7-9dd4-b4c37b4ddc94"},"vehicle_type_id":"4","last_reported":1746083454,"current_range_meters":18000,"station_id":"ce4bgup2rcd13ifvqcn0","pricing_plan_id":"cebpf4jnsgd1na2vs0mg"},{"bike_id":"c7b75ff6-c0be-4f80-94ba-f7afc11fa6b7","system_id":"levelo_inurba_marseille","lat":43.21753,"lon":5.34614,"is_reserved":false,"is_disabled":false,"rental_uris":{"android":"levelo://app?vid=c7b75ff6-c0be-4f80-94ba-f7afc11fa6b7","ios":"levelo://app?vid=c7b75ff6-c0be-4f80-94ba-f7afc11fa6b7"},"vehicle_type_id":"4","last_reported":1746083454,"current_range_meters":18000,"station_id":"st_cvj6r9ubvosntc0bgbag","pricing_plan_id":"cebpf4jnsgd1na2vs0mg"},{"bike_id":"12f19978-8930-4bf2-bdf9-9b4dda3d099c","system_id":"levelo_inurba_marseille","lat":43.275086,"lon":5.424467,"is_reserved":false,"is_disabled":true,"rental_uris":{"android":"levelo://app?vid=12f19978-8930-4bf2-bdf9-9b4dda3d099c","ios":"levelo://app?vid=12f19978-8930-4bf2-bdf9-9b4dda3d099c"},"vehicle_type_id":"4","last_reported":1746083454,"current_range_meters":18000,"station_id":"","pricing_plan_id":"cebpf4jnsgd1na2vs0mg"},{"bike_id":"4fec10d1-ef71-4b58-8320-d49a3806ed8a","system_id":"levelo_inurba_marseille","lat":43.319972,"lon":5.381466,"is_reserved":false,"is_disabled":false,"rental_uris":{"android":"levelo://app?vid=4fec10d1-ef71-4b58-8320-d49a3806ed8a","ios":"levelo://app?vid=4fec10d1-ef71-4b58-8320-d49a3806ed8a"},"vehicle_type_id":"4","last_reported":1746083454,"current_range_meters":18800,"station_id":"ce4bhr12rcd13ifvqhpg","pricing_plan_id":"cebpf4jnsgd1na2vs0mg"},{"bike_id":"24812d1d-d260-439b-aee7-b3fa50cdada8","system_id":"levelo_inurba_marseille","lat":43.29574,"lon":5.3752,"is_reserved":false,"is_disabled":false,"rental_uris":{"android":"levelo://app?vid=24812d1d-d260-439b-aee7-b3fa50cdada8","ios":"levelo://app?vid=24812d1d-d260-439b-aee7-b3fa50cdada8"},"vehicle_type_id":"4","last_reported":1746083454,"current_range_meters":18800,"station_id":"ce4bgh92rcd13ifvqb50","pricing_plan_id":"cebpf4jnsgd1na2vs0mg"},{"bike_id":"7c6dc1bf-0fa8-4cea-bdd8-7824d54eb30f","system_id":"levelo_inurba_marseille","lat":43.29894,"lon":5.43655,"is_reserved":false,"is_disabled":false,"rental_uris":{"android":"levelo://app?vid=7c6dc1bf-0fa8-4cea-bdd8-7824d54eb30f","ios":"levelo://app?vid=7c6dc1bf-0fa8-4cea-bdd8-7824d54eb30f"},"vehicle_type_id":"4","last_reported":1746083454,"current_range_meters":18800,"station_id":"ce4bhpp2rcd13ifvqhfg","pricing_plan_id":"cebpf4jnsgd1na2vs0mg"},{"bike_id":"032f267e-969d-4d7b-bc0f-2f07173a13d0","system_id":"levelo_inurba_marseille","lat":43.301477,"lon":5.380955,"is_reserved":false,"is_disabled":false,"rental_uris":{"android":"levelo://app?vid=032f267e-969d-4d7b-bc0f-2f07173a13d0","ios":"levelo://app?vid=032f267e-969d-4d7b-bc0f-2f07173a13d0"},"vehicle_type_id":"4","last_reported":1746083454,"current_range_meters":18800,"station_id":"ce4bgjp2rcd13ifvqbh0","pricing_plan_id":"cebpf4jnsgd1na2vs0mg"},{"bike_id":"c695bac2-0581-4a6a-b9c9-eb8e0d8673ed","system_id":"levelo_inurba_marseille","lat":43.337127,"lon":5.392002,"is_reserved":false,"is_disabled":false,"rental_uris":{"android":"levelo://app?vid=c695bac2-0581-4a6a-b9c9-eb8e0d8673ed","ios":"levelo://app?vid=c695bac2-0581-4a6a-b9c9-eb8e0d8673ed"},"vehicle_type_id":"4","last_reported":1746083454,"current_range_meters":18800,"station_id":"ce4bhr92rcd13ifvqhsg","pricing_plan_id":"cebpf4jnsgd1na2vs0mg"},{"bike_id":"cd1f00f1-de1f-4b99-b793-b6d2d379752c","system_id":"levelo_inurba_marseille","lat":43.259373,"lon":5.409033,"is_reserved":false,"is_disabled":false,"rental_uris":{"android":"levelo://app?vid=cd1f00f1-de1f-4b99-b793-b6d2d379752c","ios":"levelo://app?vid=cd1f00f1-de1f-4b99-b793-b6d2d379752c"},"vehicle_type_id":"4","last_reported":1746083454,"current_range_meters":18800,"station_id":"ce4bhm92rcd13ifvqglg","pricing_plan_id":"cebpf4jnsgd1na2vs0mg"},{"bike_id":"4b51bf4a-e2aa-4cf3-aa98-e0d6af6f3d12","system_id":"levelo_inurba_marseille","lat":43.29508,"lon":5.37497,"is_reserved":false,"is_disabled":false,"rental_uris":{"android":"levelo://app?vid=4b51bf4a-e2aa-4cf3-aa98-e0d6af6f3d12","ios":"levelo://app?vid=4b51bf4a-e2aa-4cf3-aa98-e0d6af6f3d12"},"vehicle_type_id":"4","last_reported":1746083454,"current_range_meters":18800,"station_id":"ce4bgkp2rcd13ifvqbmg","pricing_plan_id":"cebpf4jnsgd1na2vs0mg"},{"bike_id":"a95dba47-54c0-43ea-a02c-c422bc9aa61b","system_id":"levelo_inurba_marseille","lat":43.2507,"lon":5.39522,"is_reserved":false,"is_disabled":false,"rental_uris":{"android":"levelo://app?vid=a95dba47-54c0-43ea-a02c-c422bc9aa61b","ios":"levelo://app?vid=a95dba47-54c0-43ea-a02c-c422bc9aa61b"},"vehicle_type_id":"4","last_reported":1746083454,"current_range_meters":18800,"station_id":"ce4bhm12rcd13ifvqgkg","pricing_plan_id":"cebpf4jnsgd1na2vs0mg"},{"bike_id":"677a381b-b527-42a3-b987-992902b9ea2d","system_id":"levelo_inurba_marseille","lat":43.230525,"lon":5.354976,"is_reserved":false,"is_disabled":false,"rental_uris":{"android":"levelo://app?vid=677a381b-b527-42a3-b987-992902b9ea2d","ios":"levelo://app?vid=677a381b-b527-42a3-b987-992902b9ea2d"},"vehicle_type_id":"4","last_reported":1746083454,"current_range_meters":18800,"station_id":"cpo3342slgdg3j2ifvpg","pricing_plan_id":"cebpf4jnsgd1na2vs0mg"},{"bike_id":"5bf1014c-0b0c-47d5-acac-c5042744773e","system_id":"levelo_inurba_marseille","lat":43.25491,"lon":5.37635,"is_reserved":false,"is_disabled":true,"rental_uris":{"android":"levelo://app?vid=5bf1014c-0b0c-47d5-acac-c5042744773e","ios":"levelo://app?vid=5bf1014c-0b0c-47d5-acac-c5042744773e"},"vehicle_type_id":"4","last_reported":1746083454,"current_range_meters":18800,"station_id":"ce4bhh12rcd13ifvqff0","pricing_plan_id":"cebpf4jnsgd1na2vs0mg"},{"bike_id":"c8f93613-3d3e-479a-9bb7-35b1762bd9fd","system_id":"levelo_inurba_marseille","lat":43.29633,"lon":5.40595,"is_reserved":false,"is_disabled":false,"rental_uris":{"android":"levelo://app?vid=c8f93613-3d3e-479a-9bb7-35b1762bd9fd","ios":"levelo://app?vid=c8f93613-3d3e-479a-9bb7-35b1762bd9fd"},"vehicle_type_id":"4","last_reported":1746083454,"current_range_meters":18800,"station_id":"ce4bh0h2rcd13ifvqd60","pricing_plan_id":"cebpf4jnsgd1na2vs0mg"},{"bike_id":"3725987d-6e4f-4bf7-aa2b-2ceca052e8b6","system_id":"levelo_inurba_marseille","lat":43.30953,"lon":5.39024,"is_reserved":false,"is_disabled":false,"rental_uris":{"android":"levelo://app?vid=3725987d-6e4f-4bf7-aa2b-2ceca052e8b6","ios":"levelo://app?vid=3725987d-6e4f-4bf7-aa2b-2ceca052e8b6"},"vehicle_type_id":"4","last_reported":1746083454,"current_range_meters":19200,"station_id":"ce4bgup2rcd13ifvqco0","pricing_plan_id":"cebpf4jnsgd1na2vs0mg"},{"bike_id":"1ecfa2c5-bb93-4b68-8c4b-a61ac6606d6f","system_id":"levelo_inurba_marseille","lat":43.286833,"lon":5.399925,"is_reserved":false,"is_disabled":false,"rental_uris":{"android":"levelo://app?vid=1ecfa2c5-bb93-4b68-8c4b-a61ac6606d6f","ios":"levelo://app?vid=1ecfa2c5-bb93-4b68-8c4b-a61ac6606d6f"},"vehicle_type_id":"4","last_reported":1746083454,"current_range_meters":19200,"station_id":"ce4bho92rcd13ifvqh3g","pricing_plan_id":"cebpf4jnsgd1na2vs0mg"},{"bike_id":"2b633bb9-83a5-4d1e-8e12-e220dd22e2c0","system_id":"levelo_inurba_marseille","lat":43.324722,"lon":5.365723,"is_reserved":false,"is_disabled":false,"rental_uris":{"android":"levelo://app?vid=2b633bb9-83a5-4d1e-8e12-e220dd22e2c0","ios":"levelo://app?vid=2b633bb9-83a5-4d1e-8e12-e220dd22e2c0"},"vehicle_type_id":"4","last_reported":1746083454,"current_range_meters":19200,"station_id":"ce4bhs12rcd13ifvqhvg","pricing_plan_id":"cebpf4jnsgd1na2vs0mg"},{"bike_id":"04be37ca-faa1-4652-b893-f8e95ed6e04f","system_id":"levelo_inurba_marseille","lat":43.28617,"lon":5.35102,"is_reserved":false,"is_disabled":false,"rental_uris":{"android":"levelo://app?vid=04be37ca-faa1-4652-b893-f8e95ed6e04f","ios":"levelo://app?vid=04be37ca-faa1-4652-b893-f8e95ed6e04f"},"vehicle_type_id":"4","last_reported":1746083454,"current_range_meters":19200,"station_id":"ce4bhch2rcd13ifvqeug","pricing_plan_id":"cebpf4jnsgd1na2vs0mg"},{"bike_id":"3aeb961f-88b6-47fd-986a-c7b2a855fefd","system_id":"levelo_inurba_marseille","lat":43.230639,"lon":5.354936,"is_reserved":false,"is_disabled":false,"rental_uris":{"android":"levelo://app?vid=3aeb961f-88b6-47fd-986a-c7b2a855fefd","ios":"levelo://app?vid=3aeb961f-88b6-47fd-986a-c7b2a855fefd"},"vehicle_type_id":"4","last_reported":1746083454,"current_range_meters":19200,"station_id":"cpo3342slgdg3j2ifvpg","pricing_plan_id":"cebpf4jnsgd1na2vs0mg"},{"bike_id":"1130c3af-831f-4180-a824-77b5ac50d0ae","system_id":"levelo_inurba_marseille","lat":43.30902,"lon":5.396477,"is_reserved":false,"is_disabled":false,"rental_uris":{"android":"levelo://app?vid=1130c3af-831f-4180-a824-77b5ac50d0ae","ios":"levelo://app?vid=1130c3af-831f-4180-a824-77b5ac50d0ae"},"vehicle_type_id":"4","last_reported":1746083454,"current_range_meters":19200,"station_id":"ce4bh012rcd13ifvqcv0","pricing_plan_id":"cebpf4jnsgd1na2vs0mg"},{"bike_id":"3ccd4a9b-ce78-4056-9847-fcc92723e397","system_id":"levelo_inurba_marseille","lat":43.273862,"lon":5.362631,"is_reserved":false,"is_disabled":true,"rental_uris":{"android":"levelo://app?vid=3ccd4a9b-ce78-4056-9847-fcc92723e397","ios":"levelo://app?vid=3ccd4a9b-ce78-4056-9847-fcc92723e397"},"vehicle_type_id":"4","last_reported":1746083454,"current_range_meters":19200,"station_id":"ce4bhbh2rcd13ifvqeo0","pricing_plan_id":"cebpf4jnsgd1na2vs0mg"},{"bike_id":"511cae00-87ec-44fb-94b1-9eab9d4e4061","system_id":"levelo_inurba_marseille","lat":43.29973,"lon":5.37173,"is_reserved":false,"is_disabled":false,"rental_uris":{"android":"levelo://app?vid=511cae00-87ec-44fb-94b1-9eab9d4e4061","ios":"levelo://app?vid=511cae00-87ec-44fb-94b1-9eab9d4e4061"},"vehicle_type_id":"4","last_reported":1746083454,"current_range_meters":19600,"station_id":"ce4bgr92rcd13ifvqc7g","pricing_plan_id":"cebpf4jnsgd1na2vs0mg"},{"bike_id":"6bdc1a79-8e1b-4360-aec9-e6f9cc32b412","system_id":"levelo_inurba_marseille","lat":43.25734,"lon":5.411,"is_reserved":false,"is_disabled":false,"rental_uris":{"android":"levelo://app?vid=6bdc1a79-8e1b-4360-aec9-e6f9cc32b412","ios":"levelo://app?vid=6bdc1a79-8e1b-4360-aec9-e6f9cc32b412"},"vehicle_type_id":"4","last_reported":1746083454,"current_range_meters":19600,"station_id":"ce4bhkp2rcd13ifvqgd0","pricing_plan_id":"cebpf4jnsgd1na2vs0mg"},{"bike_id":"33723d9a-d476-4493-80f8-a5af486490ea","system_id":"levelo_inurba_marseille","lat":43.30146,"lon":5.38089,"is_reserved":false,"is_disabled":false,"rental_uris":{"android":"levelo://app?vid=33723d9a-d476-4493-80f8-a5af486490ea","ios":"levelo://app?vid=33723d9a-d476-4493-80f8-a5af486490ea"},"vehicle_type_id":"4","last_reported":1746083454,"current_range_meters":20000,"station_id":"ce4bgjp2rcd13ifvqbh0","pricing_plan_id":"cebpf4jnsgd1na2vs0mg"},{"bike_id":"9a3f3df8-d17f-47a8-b545-ae3f1c0dd593","system_id":"levelo_inurba_marseille","lat":43.28418,"lon":5.37508,"is_reserved":false,"is_disabled":false,"rental_uris":{"android":"levelo://app?vid=9a3f3df8-d17f-47a8-b545-ae3f1c0dd593","ios":"levelo://app?vid=9a3f3df8-d17f-47a8-b545-ae3f1c0dd593"},"vehicle_type_id":"4","last_reported":1746083454,"current_range_meters":20000,"station_id":"ce4bh412rcd13ifvqds0","pricing_plan_id":"cebpf4jnsgd1na2vs0mg"},{"bike_id":"68638397-ed88-494e-953b-96159ae4b28b","system_id":"levelo_inurba_marseille","lat":43.290988,"lon":5.381378,"is_reserved":false,"is_disabled":false,"rental_uris":{"android":"levelo://app?vid=68638397-ed88-494e-953b-96159ae4b28b","ios":"levelo://app?vid=68638397-ed88-494e-953b-96159ae4b28b"},"vehicle_type_id":"4","last_reported":1746083454,"current_range_meters":20000,"station_id":"ce4bh512rcd13ifvqe2g","pricing_plan_id":"cebpf4jnsgd1na2vs0mg"},{"bike_id":"9b38d887-e496-4cdf-b540-36b3bdf091bc","system_id":"levelo_inurba_marseille","lat":43.21754,"lon":5.34585,"is_reserved":false,"is_disabled":false,"rental_uris":{"android":"levelo://app?vid=9b38d887-e496-4cdf-b540-36b3bdf091bc","ios":"levelo://app?vid=9b38d887-e496-4cdf-b540-36b3bdf091bc"},"vehicle_type_id":"4","last_reported":1746083454,"current_range_meters":20000,"station_id":"st_cvj6r9ubvosntc0bgbag","pricing_plan_id":"cebpf4jnsgd1na2vs0mg"},{"bike_id":"c0a72000-46b6-4527-9b1c-7432d6b2252e","system_id":"levelo_inurba_marseille","lat":43.27546,"lon":5.38427,"is_reserved":false,"is_disabled":true,"rental_uris":{"android":"levelo://app?vid=c0a72000-46b6-4527-9b1c-7432d6b2252e","ios":"levelo://app?vid=c0a72000-46b6-4527-9b1c-7432d6b2252e"},"vehicle_type_id":"4","last_reported":1746083454,"current_range_meters":20000,"station_id":"ce4bhh92rcd13ifvqfi0","pricing_plan_id":"cebpf4jnsgd1na2vs0mg"},{"bike_id":"1379c0bb-2a62-43e7-8135-356457be17fb","system_id":"levelo_inurba_marseille","lat":43.33641,"lon":5.40999,"is_reserved":false,"is_disabled":true,"rental_uris":{"android":"levelo://app?vid=1379c0bb-2a62-43e7-8135-356457be17fb","ios":"levelo://app?vid=1379c0bb-2a62-43e7-8135-356457be17fb"},"vehicle_type_id":"4","last_reported":1746083454,"current_range_meters":20000,"station_id":"ce4bhqh2rcd13ifvqhmg","pricing_plan_id":"cebpf4jnsgd1na2vs0mg"},{"bike_id":"2e691dbe-dbf3-4b50-b36f-3ccce84f6642","system_id":"levelo_inurba_marseille","lat":43.31115,"lon":5.37771,"is_reserved":false,"is_disabled":false,"rental_uris":{"android":"levelo://app?vid=2e691dbe-dbf3-4b50-b36f-3ccce84f6642","ios":"levelo://app?vid=2e691dbe-dbf3-4b50-b36f-3ccce84f6642"},"vehicle_type_id":"4","last_reported":1746083454,"current_range_meters":20000,"station_id":"ce4bgt92rcd13ifvqcg0","pricing_plan_id":"cebpf4jnsgd1na2vs0mg"},{"bike_id":"aa27357f-dc7f-4741-8b2f-ad8fc4d8dfe9","system_id":"levelo_inurba_marseille","lat":43.27598,"lon":5.36122,"is_reserved":false,"is_disabled":true,"rental_uris":{"android":"levelo://app?vid=aa27357f-dc7f-4741-8b2f-ad8fc4d8dfe9","ios":"levelo://app?vid=aa27357f-dc7f-4741-8b2f-ad8fc4d8dfe9"},"vehicle_type_id":"4","last_reported":1746083454,"current_range_meters":20400,"station_id":"ce4bgj92rcd13ifvqbe0","pricing_plan_id":"cebpf4jnsgd1na2vs0mg"},{"bike_id":"a9f84602-c7d0-4d6c-85bc-f3b5795dbc64","system_id":"levelo_inurba_marseille","lat":43.29565,"lon":5.37531,"is_reserved":false,"is_disabled":false,"rental_uris":{"android":"levelo://app?vid=a9f84602-c7d0-4d6c-85bc-f3b5795dbc64","ios":"levelo://app?vid=a9f84602-c7d0-4d6c-85bc-f3b5795dbc64"},"vehicle_type_id":"4","last_reported":1746083454,"current_range_meters":20400,"station_id":"ce4bgh92rcd13ifvqb50","pricing_plan_id":"cebpf4jnsgd1na2vs0mg"},{"bike_id":"fd4496d3-f665-4291-bea0-eab9c6c59058","system_id":"levelo_inurba_marseille","lat":43.30649,"lon":5.40088,"is_reserved":false,"is_disabled":false,"rental_uris":{"android":"levelo://app?vid=fd4496d3-f665-4291-bea0-eab9c6c59058","ios":"levelo://app?vid=fd4496d3-f665-4291-bea0-eab9c6c59058"},"vehicle_type_id":"4","last_reported":1746083454,"current_range_meters":20400,"station_id":"ce4bh112rcd13ifvqda0","pricing_plan_id":"cebpf4jnsgd1na2vs0mg"},{"bike_id":"9948b8c0-52d2-4eb8-8da4-a50a93afeb9b","system_id":"levelo_inurba_marseille","lat":43.229256,"lon":5.353872,"is_reserved":false,"is_disabled":false,"rental_uris":{"android":"levelo://app?vid=9948b8c0-52d2-4eb8-8da4-a50a93afeb9b","ios":"levelo://app?vid=9948b8c0-52d2-4eb8-8da4-a50a93afeb9b"},"vehicle_type_id":"4","last_reported":1746083454,"current_range_meters":20400,"station_id":"cpo3532slgdg3j2ikp40","pricing_plan_id":"cebpf4jnsgd1na2vs0mg"},{"bike_id":"da19f286-df4e-4f1d-8924-70c6316c30cd","system_id":"levelo_inurba_marseille","lat":43.246451,"lon":5.389055,"is_reserved":false,"is_disabled":false,"rental_uris":{"android":"levelo://app?vid=da19f286-df4e-4f1d-8924-70c6316c30cd","ios":"levelo://app?vid=da19f286-df4e-4f1d-8924-70c6316c30cd"},"vehicle_type_id":"4","last_reported":1746083454,"current_range_meters":20400,"station_id":"ce4bhg12rcd13ifvqf60","pricing_plan_id":"cebpf4jnsgd1na2vs0mg"},{"bike_id":"d3c63377-1a61-45d9-b356-805a6e455fd6","system_id":"levelo_inurba_marseille","lat":43.32371,"lon":5.40638,"is_reserved":false,"is_disabled":false,"rental_uris":{"android":"levelo://app?vid=d3c63377-1a61-45d9-b356-805a6e455fd6","ios":"levelo://app?vid=d3c63377-1a61-45d9-b356-805a6e455fd6"},"vehicle_type_id":"4","last_reported":1746083454,"current_range_meters":20400,"station_id":"ce4bhq92rcd13ifvqhjg","pricing_plan_id":"cebpf4jnsgd1na2vs0mg"},{"bike_id":"cad06a61-a806-487c-9e18-d7fbe1875c4f","system_id":"levelo_inurba_marseille","lat":43.26546,"lon":5.37299,"is_reserved":false,"is_disabled":true,"rental_uris":{"android":"levelo://app?vid=cad06a61-a806-487c-9e18-d7fbe1875c4f","ios":"levelo://app?vid=cad06a61-a806-487c-9e18-d7fbe1875c4f"},"vehicle_type_id":"4","last_reported":1746083454,"current_range_meters":20800,"station_id":"ce4bhg12rcd13ifvqf70","pricing_plan_id":"cebpf4jnsgd1na2vs0mg"},{"bike_id":"3387917c-3e63-4c3b-a6f2-fffb3e617ac2","system_id":"levelo_inurba_marseille","lat":43.30628,"lon":5.40105,"is_reserved":false,"is_disabled":false,"rental_uris":{"android":"levelo://app?vid=3387917c-3e63-4c3b-a6f2-fffb3e617ac2","ios":"levelo://app?vid=3387917c-3e63-4c3b-a6f2-fffb3e617ac2"},"vehicle_type_id":"4","last_reported":1746083454,"current_range_meters":20800,"station_id":"ce4bh112rcd13ifvqda0","pricing_plan_id":"cebpf4jnsgd1na2vs0mg"},{"bike_id":"95bd2a13-10a2-4187-8f03-a3ca4e23bead","system_id":"levelo_inurba_marseille","lat":43.301536,"lon":5.380862,"is_reserved":false,"is_disabled":false,"rental_uris":{"android":"levelo://app?vid=95bd2a13-10a2-4187-8f03-a3ca4e23bead","ios":"levelo://app?vid=95bd2a13-10a2-4187-8f03-a3ca4e23bead"},"vehicle_type_id":"4","last_reported":1746083454,"current_range_meters":20800,"station_id":"ce4bgjp2rcd13ifvqbh0","pricing_plan_id":"cebpf4jnsgd1na2vs0mg"},{"bike_id":"354982e5-4a84-4326-82da-06275fa4daf1","system_id":"levelo_inurba_marseille","lat":43.3064,"lon":5.40068,"is_reserved":false,"is_disabled":false,"rental_uris":{"android":"levelo://app?vid=354982e5-4a84-4326-82da-06275fa4daf1","ios":"levelo://app?vid=354982e5-4a84-4326-82da-06275fa4daf1"},"vehicle_type_id":"4","last_reported":1746083454,"current_range_meters":20800,"station_id":"ce4bh112rcd13ifvqda0","pricing_plan_id":"cebpf4jnsgd1na2vs0mg"},{"bike_id":"03652289-10b3-473e-a7c8-9213f8ab621a","system_id":"levelo_inurba_marseille","lat":43.329598,"lon":5.437751,"is_reserved":false,"is_disabled":false,"rental_uris":{"android":"levelo://app?vid=03652289-10b3-473e-a7c8-9213f8ab621a","ios":"levelo://app?vid=03652289-10b3-473e-a7c8-9213f8ab621a"},"vehicle_type_id":"4","last_reported":1746083454,"current_range_meters":20800,"station_id":"","pricing_plan_id":"cebpf4jnsgd1na2vs0mg"},{"bike_id":"c49631c7-7251-453d-b532-906cd6caf0ef","system_id":"levelo_inurba_marseille","lat":43.284027,"lon":5.375101,"is_reserved":false,"is_disabled":true,"rental_uris":{"android":"levelo://app?vid=c49631c7-7251-453d-b532-906cd6caf0ef","ios":"levelo://app?vid=c49631c7-7251-453d-b532-906cd6caf0ef"},"vehicle_type_id":"4","last_reported":1746083454,"current_range_meters":20800,"station_id":"","pricing_plan_id":"cebpf4jnsgd1na2vs0mg"},{"bike_id":"acba2abc-874c-4fdd-82b5-e93c3d4c7297","system_id":"levelo_inurba_marseille","lat":43.29183,"lon":5.35799,"is_reserved":false,"is_disabled":false,"rental_uris":{"android":"levelo://app?vid=acba2abc-874c-4fdd-82b5-e93c3d4c7297","ios":"levelo://app?vid=acba2abc-874c-4fdd-82b5-e93c3d4c7297"},"vehicle_type_id":"4","last_reported":1746083454,"current_range_meters":21600,"station_id":"ce4bhb12rcd13ifvqel0","pricing_plan_id":"cebpf4jnsgd1na2vs0mg"},{"bike_id":"63ef4185-d9b2-4759-b1f3-46c30f6c000f","system_id":"levelo_inurba_marseille","lat":43.271903,"lon":5.41011,"is_reserved":false,"is_disabled":true,"rental_uris":{"android":"levelo://app?vid=63ef4185-d9b2-4759-b1f3-46c30f6c000f","ios":"levelo://app?vid=63ef4185-d9b2-4759-b1f3-46c30f6c000f"},"vehicle_type_id":"4","last_reported":1746083454,"current_range_meters":21600,"station_id":"ce4bhl12rcd13ifvqgf0","pricing_plan_id":"cebpf4jnsgd1na2vs0mg"},{"bike_id":"1a745a9d-e745-4884-ac9e-92779a2ebdd2","system_id":"levelo_inurba_marseille","lat":43.30442,"lon":5.38884,"is_reserved":false,"is_disabled":false,"rental_uris":{"android":"levelo://app?vid=1a745a9d-e745-4884-ac9e-92779a2ebdd2","ios":"levelo://app?vid=1a745a9d-e745-4884-ac9e-92779a2ebdd2"},"vehicle_type_id":"4","last_reported":1746083454,"current_range_meters":21600,"station_id":"ce4bgk12rcd13ifvqbi0","pricing_plan_id":"cebpf4jnsgd1na2vs0mg"},{"bike_id":"d420c5fc-c1e8-49af-8c49-15c249461af9","system_id":"levelo_inurba_marseille","lat":43.3172,"lon":5.37742,"is_reserved":false,"is_disabled":false,"rental_uris":{"android":"levelo://app?vid=d420c5fc-c1e8-49af-8c49-15c249461af9","ios":"levelo://app?vid=d420c5fc-c1e8-49af-8c49-15c249461af9"},"vehicle_type_id":"4","last_reported":1746083454,"current_range_meters":21600,"station_id":"ce4bgth2rcd13ifvqch0","pricing_plan_id":"cebpf4jnsgd1na2vs0mg"},{"bike_id":"f876a209-bbb5-40e1-b60f-d8e290b188b9","system_id":"levelo_inurba_marseille","lat":43.28697,"lon":5.399894,"is_reserved":false,"is_disabled":false,"rental_uris":{"android":"levelo://app?vid=f876a209-bbb5-40e1-b60f-d8e290b188b9","ios":"levelo://app?vid=f876a209-bbb5-40e1-b60f-d8e290b188b9"},"vehicle_type_id":"4","last_reported":1746083454,"current_range_meters":21600,"station_id":"ce4bho92rcd13ifvqh3g","pricing_plan_id":"cebpf4jnsgd1na2vs0mg"},{"bike_id":"99809d71-475a-467a-b7bd-14f3f272c4c1","system_id":"levelo_inurba_marseille","lat":43.27322,"lon":5.39075,"is_reserved":false,"is_disabled":false,"rental_uris":{"android":"levelo://app?vid=99809d71-475a-467a-b7bd-14f3f272c4c1","ios":"levelo://app?vid=99809d71-475a-467a-b7bd-14f3f272c4c1"},"vehicle_type_id":"4","last_reported":1746083454,"current_range_meters":21600,"station_id":"ce4bhgp2rcd13ifvqfe0","pricing_plan_id":"cebpf4jnsgd1na2vs0mg"},{"bike_id":"61a7a426-425b-4b4e-b7c8-27c7f5f9ce21","system_id":"levelo_inurba_marseille","lat":43.25101,"lon":5.40339,"is_reserved":false,"is_disabled":false,"rental_uris":{"android":"levelo://app?vid=61a7a426-425b-4b4e-b7c8-27c7f5f9ce21","ios":"levelo://app?vid=61a7a426-425b-4b4e-b7c8-27c7f5f9ce21"},"vehicle_type_id":"4","last_reported":1746083454,"current_range_meters":22000,"station_id":"ce4bhlh2rcd13ifvqgig","pricing_plan_id":"cebpf4jnsgd1na2vs0mg"},{"bike_id":"79abb10c-1130-41dd-949e-ee988c336e88","system_id":"levelo_inurba_marseille","lat":43.246591,"lon":5.381679,"is_reserved":false,"is_disabled":false,"rental_uris":{"android":"levelo://app?vid=79abb10c-1130-41dd-949e-ee988c336e88","ios":"levelo://app?vid=79abb10c-1130-41dd-949e-ee988c336e88"},"vehicle_type_id":"4","last_reported":1746083454,"current_range_meters":22000,"station_id":"ce4bhih2rcd13ifvqfr0","pricing_plan_id":"cebpf4jnsgd1na2vs0mg"},{"bike_id":"f660826f-7d6d-49fe-b252-ff756f351436","system_id":"levelo_inurba_marseille","lat":43.27946,"lon":5.41044,"is_reserved":false,"is_disabled":false,"rental_uris":{"android":"levelo://app?vid=f660826f-7d6d-49fe-b252-ff756f351436","ios":"levelo://app?vid=f660826f-7d6d-49fe-b252-ff756f351436"},"vehicle_type_id":"4","last_reported":1746083454,"current_range_meters":22000,"station_id":"ce4bhnp2rcd13ifvqh0g","pricing_plan_id":"cebpf4jnsgd1na2vs0mg"},{"bike_id":"cd9bc675-4986-42fa-889e-1cea4de6cc6d","system_id":"levelo_inurba_marseille","lat":43.25093,"lon":5.40245,"is_reserved":false,"is_disabled":false,"rental_uris":{"android":"levelo://app?vid=cd9bc675-4986-42fa-889e-1cea4de6cc6d","ios":"levelo://app?vid=cd9bc675-4986-42fa-889e-1cea4de6cc6d"},"vehicle_type_id":"4","last_reported":1746083454,"current_range_meters":22000,"station_id":"","pricing_plan_id":"cebpf4jnsgd1na2vs0mg"},{"bike_id":"ef464700-ebd1-4391-bf53-7f1109d398fe","system_id":"levelo_inurba_marseille","lat":43.28403,"lon":5.37489,"is_reserved":false,"is_disabled":false,"rental_uris":{"android":"levelo://app?vid=ef464700-ebd1-4391-bf53-7f1109d398fe","ios":"levelo://app?vid=ef464700-ebd1-4391-bf53-7f1109d398fe"},"vehicle_type_id":"4","last_reported":1746083454,"current_range_meters":22000,"station_id":"ce4bh412rcd13ifvqds0","pricing_plan_id":"cebpf4jnsgd1na2vs0mg"},{"bike_id":"a0b767f6-6270-4d49-b0d6-4b7a5a1d4a31","system_id":"levelo_inurba_marseille","lat":43.32068,"lon":5.415318,"is_reserved":false,"is_disabled":false,"rental_uris":{"android":"levelo://app?vid=a0b767f6-6270-4d49-b0d6-4b7a5a1d4a31","ios":"levelo://app?vid=a0b767f6-6270-4d49-b0d6-4b7a5a1d4a31"},"vehicle_type_id":"4","last_reported":1746083454,"current_range_meters":22000,"station_id":"ce4bhq92rcd13ifvqhkg","pricing_plan_id":"cebpf4jnsgd1na2vs0mg"},{"bike_id":"67e242d3-3952-46fa-9142-ea4dbc44ec27","system_id":"levelo_inurba_marseille","lat":43.273135,"lon":5.390741,"is_reserved":false,"is_disabled":false,"rental_uris":{"android":"levelo://app?vid=67e242d3-3952-46fa-9142-ea4dbc44ec27","ios":"levelo://app?vid=67e242d3-3952-46fa-9142-ea4dbc44ec27"},"vehicle_type_id":"4","last_reported":1746083454,"current_range_meters":22000,"station_id":"ce4bhgp2rcd13ifvqfe0","pricing_plan_id":"cebpf4jnsgd1na2vs0mg"},{"bike_id":"4e8a230c-6730-4c71-96e8-640984cd60b4","system_id":"levelo_inurba_marseille","lat":43.319888,"lon":5.381343,"is_reserved":false,"is_disabled":false,"rental_uris":{"android":"levelo://app?vid=4e8a230c-6730-4c71-96e8-640984cd60b4","ios":"levelo://app?vid=4e8a230c-6730-4c71-96e8-640984cd60b4"},"vehicle_type_id":"4","last_reported":1746083454,"current_range_meters":22400,"station_id":"ce4bhr12rcd13ifvqhpg","pricing_plan_id":"cebpf4jnsgd1na2vs0mg"},{"bike_id":"15b5ac1d-b04c-4d04-affb-6c33170c37d3","system_id":"levelo_inurba_marseille","lat":43.25496,"lon":5.37643,"is_reserved":false,"is_disabled":false,"rental_uris":{"android":"levelo://app?vid=15b5ac1d-b04c-4d04-affb-6c33170c37d3","ios":"levelo://app?vid=15b5ac1d-b04c-4d04-affb-6c33170c37d3"},"vehicle_type_id":"4","last_reported":1746083454,"current_range_meters":22400,"station_id":"ce4bhh12rcd13ifvqff0","pricing_plan_id":"cebpf4jnsgd1na2vs0mg"},{"bike_id":"44977203-d310-44b8-8a25-2f725ef03dd7","system_id":"levelo_inurba_marseille","lat":43.30164,"lon":5.38089,"is_reserved":false,"is_disabled":false,"rental_uris":{"android":"levelo://app?vid=44977203-d310-44b8-8a25-2f725ef03dd7","ios":"levelo://app?vid=44977203-d310-44b8-8a25-2f725ef03dd7"},"vehicle_type_id":"4","last_reported":1746083454,"current_range_meters":22400,"station_id":"ce4bgjp2rcd13ifvqbh0","pricing_plan_id":"cebpf4jnsgd1na2vs0mg"},{"bike_id":"72eac31e-d119-45de-8eec-9cd7c16366a2","system_id":"levelo_inurba_marseille","lat":43.32413,"lon":5.41537,"is_reserved":false,"is_disabled":false,"rental_uris":{"android":"levelo://app?vid=72eac31e-d119-45de-8eec-9cd7c16366a2","ios":"levelo://app?vid=72eac31e-d119-45de-8eec-9cd7c16366a2"},"vehicle_type_id":"4","last_reported":1746083454,"current_range_meters":22400,"station_id":"","pricing_plan_id":"cebpf4jnsgd1na2vs0mg"},