{"last_updated":1759220121,"ttl":60,"version":"2.2","data":{"bikes":[{"bike_id":"f974e647-baa4-41e8-abd9-48c40d734da2","system_id":"levelo_inurba_marseille","lat":43.2847,"lon":5.3843,"is_reserved":false,"is_disabled":true,"rental_uris":{"android":"levelo://app?vid=f974e647-baa4-41e8-abd9-48c40d734da2","ios":"levelo://app?vid=f974e647-baa4-41e8-abd9-48c40d734da2"},"vehicle_type_id":"4","last_reported":1759220121,"current_range_meters":2800,"station_id":"ce4bh512rcd13ifvqe3g","pricing_plan_id":"cebpf4jnsgd1na2vs0mg"},{"bike_id":"a50b6dc2-5be6-45d5-9d6a-95b00fc05f90","system_id":"levelo_inurba_marseille","lat":43.30278,"lon":5.37706,"is_reserved":false,"is_disabled":false,"rental_uris":{"android":"levelo://app?vid=a50b6dc2-5be6-45d5-9d6a-95b00fc05f90","ios":"levelo://app?vid=a50b6dc2-5be6-45d5-9d6a-95b00fc05f90"},"vehicle_type_id":"4","last_reported":1759220121,"current_range_meters":3200,"station_id":"ce4bguh2rcd13ifvqcj0","pricing_plan_id":"cebpf4jnsgd1na2vs0mg"},{"bike_id":"ba1cfbb3-555c-4e6c-85db-b50e9395062e","system_id":"levelo_inurba_marseille","lat":43.23872,"lon":5.36546,"is_reserved":false,"is_disabled":false,"rental_uris":{"android":"levelo://app?vid=ba1cfbb3-555c-4e6c-85db-b50e9395062e","ios":"levelo://app?vid=ba1cfbb3-555c-4e6c-85db-b50e9395062e"},"vehicle_type_id":"4","last_reported":1759220121,"current_range_meters":3200,"station_id":"","pricing_plan_id":"cebpf4jnsgd1na2vs0mg"},{"bike_id":"c2098356-5948-40d4-b48f-cf774b509aa9","system_id":"levelo_inurba_marseille","lat":43.30949,"lon":5.39056,"is_reserved":false,"is_disabled":false,"rental_uris":{"android":"levelo://app?vid=c2098356-5948-40d4-b48f-cf774b509aa9","ios":"levelo://app?vid=c2098356-5948-40d4-b48f-cf774b509aa9"},"vehicle_type_id":"4","last_reported":1759220121,"current_range_meters":3600,"station_id":"ce4bgup2rcd13ifvqco0","pricing_plan_id":"cebpf4jnsgd1na2vs0mg"},{"bike_id":"60ea49ef-1778-4e14-92a6-fcec8012a936","system_id":"levelo_inurba_marseille","lat":43.31224,"lon":5.3684,"is_reserved":false,"is_disabled":false,"rental_uris":{"android":"levelo://app?vid=60ea49ef-1778-4e14-92a6-fcec8012a936","ios":"levelo://app?vid=60ea49ef-1778-4e14-92a6-fcec8012a936"},"vehicle_type_id":"4","last_reported":1759220121,"current_range_meters":3600,"station_id":"ce4bgl92rcd13ifvqbq0","pricing_plan_id":"cebpf4jnsgd1na2vs0mg"},{"bike_id":"a6e133d7-400e-4e24-8be8-c74d022f4c8b","system_id":"levelo_inurba_marseille","lat":43.309325,"lon":5.401412,"is_reserved":false,"is_disabled":false,"rental_uris":{"android":"levelo://app?vid=a6e133d7-400e-4e24-8be8-c74d022f4c8b","ios":"levelo://app?vid=a6e133d7-400e-4e24-8be8-c74d022f4c8b"},"vehicle_type_id":"4","last_reported":1759220121,"current_range_meters":3600,"station_id":"ce4bgvp2rcd13ifvqct0","pricing_plan_id":"cebpf4jnsgd1na2vs0mg"},{"bike_id":"95f02cd1-b0cf-4e3d-8708-b9107583e9a0","system_id":"levelo_inurba_marseille","lat":43.27488,"lon":5.42463,"is_reserved":false,"is_disabled":true,"rental_uris":{"android":"levelo://app?vid=95f02cd1-b0cf-4e3d-8708-b9107583e9a0","ios":"levelo://app?vid=95f02cd1-b0cf-4e3d-8708-b9107583e9a0"},"vehicle_type_id":"4","last_reported":1759220121,"current_range_meters":3600,"station_id":"ce4bhn92rcd13ifvqgrg","pricing_plan_id":"cebpf4jnsgd1na2vs0mg"},{"bike_id":"be7dae0d-94d7-4a0d-89d8-07c528e32b57","system_id":"levelo_inurba_marseille","lat":43.32587,"lon":5.3906,"is_reserved":false,"is_disabled":false,"rental_uris":{"android":"levelo://app?vid=be7dae0d-94d7-4a0d-89d8-07c528e32b57","ios":"levelo://app?vid=be7dae0d-94d7-4a0d-89d8-07c528e32b57"},"vehicle_type_id":"4","last_reported":1759220121,"current_range_meters":3600,"station_id":"","pricing_plan_id":"cebpf4jnsgd1na2vs0mg"},{"bike_id":"8c045487-ac04-4403-9aaf-ed3d3cc7280f","system_id":"levelo_inurba_marseille","lat":43.28611,"lon":5.37061,"is_reserved":false,"is_disabled":false,"rental_uris":{"android":"levelo://app?vid=8c045487-ac04-4403-9aaf-ed3d3cc7280f","ios":"levelo://app?vid=8c045487-ac04-4403-9aaf-ed3d3cc7280f"},"vehicle_type_id":"4","last_reported":1759220121,"current_range_meters":3600,"station_id":"ce4bht12rcd13ifvqi60","pricing_plan_id":"cebpf4jnsgd1na2vs0mg"},{"bike_id":"94b49c27-ab1b-4d93-aea0-a8a9800a6a46","system_id":"levelo_inurba_marseille","lat":43.26952,"lon":5.38632,"is_reserved":false,"is_disabled":false,"rental_uris":{"android":"levelo://app?vid=94b49c27-ab1b-4d93-aea0-a8a9800a6a46","ios":"levelo://app?vid=94b49c27-ab1b-4d93-aea0-a8a9800a6a46"},"vehicle_type_id":"4","last_reported":1759220121,"current_range_meters":4000,"station_id":"ce4bhh92rcd13ifvqfh0","pricing_plan_id":"cebpf4jnsgd1na2vs0mg"},{"bike_id":"6b3834b1-a172-402b-8f2b-0c86f58cc988","system_id":"levelo_inurba_marseille","lat":43.302645,"lon":5.396545,"is_reserved":false,"is_disabled":true,"rental_uris":{"android":"levelo://app?vid=6b3834b1-a172-402b-8f2b-0c86f58cc988","ios":"levelo://app?vid=6b3834b1-a172-402b-8f2b-0c86f58cc988"},"vehicle_type_id":"4","last_reported":1759220121,"current_range_meters":4000,"station_id":"","pricing_plan_id":"cebpf4jnsgd1na2vs0mg"},{"bike_id":"8a4a8404-2223-404b-b9d6-fda388efd3eb","system_id":"levelo_inurba_marseille","lat":43.225399,"lon":5.348524,"is_reserved":false,"is_disabled":false,"rental_uris":{"android":"levelo://app?vid=8a4a8404-2223-404b-b9d6-fda388efd3eb","ios":"levelo://app?vid=8a4a8404-2223-404b-b9d6-fda388efd3eb"},"vehicle_type_id":"4","last_reported":1759220121,"current_range_meters":4000,"station_id":"","pricing_plan_id":"cebpf4jnsgd1na2vs0mg"},{"bike_id":"f7540b20-14be-47bc-9231-02d920bcd3b8","system_id":"levelo_inurba_marseille","lat":43.295716,"lon":5.375268,"is_reserved":false,"is_disabled":false,"rental_uris":{"android":"levelo://app?vid=f7540b20-14be-47bc-9231-02d920bcd3b8","ios":"levelo://app?vid=f7540b20-14be-47bc-9231-02d920bcd3b8"},"vehicle_type_id":"4","last_reported":1759220121,"current_range_meters":4400,"station_id":"ce4bgh92rcd13ifvqb50","pricing_plan_id":"cebpf4jnsgd1na2vs0mg"},{"bike_id":"f2ae6eca-14f6-49ef-a13d-98ec4b34b23a","system_id":"levelo_inurba_marseille","lat":43.25578,"lon":5.38225,"is_reserved":false,"is_disabled":false,"rental_uris":{"android":"levelo://app?vid=f2ae6eca-14f6-49ef-a13d-98ec4b34b23a","ios":"levelo://app?vid=f2ae6eca-14f6-49ef-a13d-98ec4b34b23a"},"vehicle_type_id":"4","last_reported":1759220121,"current_range_meters":4400,"station_id":"ce4bhih2rcd13ifvqfs0","pricing_plan_id":"cebpf4jnsgd1na2vs0mg"},{"bike_id":"fd3eabe6-c2c4-4986-908e-76da0700d2b0","system_id":"levelo_inurba_marseille","lat":43.29275,"lon":5.36849,"is_reserved":false,"is_disabled":false,"rental_uris":{"android":"levelo://app?vid=fd3eabe6-c2c4-4986-908e-76da0700d2b0","ios":"levelo://app?vid=fd3eabe6-c2c4-4986-908e-76da0700d2b0"},"vehicle_type_id":"4","last_reported":1759220121,"current_range_meters":4400,"station_id":"ce4bhbp2rcd13ifvqesg","pricing_plan_id":"cebpf4jnsgd1na2vs0mg"},{"bike_id":"402f735b-a319-4d27-92bb-f24744b636aa","system_id":"levelo_inurba_marseille","lat":43.296326,"lon":5.371457,"is_reserved":false,"is_disabled":false,"rental_uris":{"android":"levelo://app?vid=402f735b-a319-4d27-92bb-f24744b636aa","ios":"levelo://app?vid=402f735b-a319-4d27-92bb-f24744b636aa"},"vehicle_type_id":"4","last_reported":1759220121,"current_range_meters":4400,"station_id":"ce4bgnh2rcd13ifvqc0g","pricing_plan_id":"cebpf4jnsgd1na2vs0mg"},{"bike_id":"617f756a-9114-44d3-a116-8d7a7cebc3e0","system_id":"levelo_inurba_marseille","lat":43.293675,"lon":5.378453,"is_reserved":false,"is_disabled":false,"rental_uris":{"android":"levelo://app?vid=617f756a-9114-44d3-a116-8d7a7cebc3e0","ios":"levelo://app?vid=617f756a-9114-44d3-a116-8d7a7cebc3e0"},"vehicle_type_id":"4","last_reported":1759220121,"current_range_meters":4400,"station_id":"ce4bgjh2rcd13ifvqbf0","pricing_plan_id":"cebpf4jnsgd1na2vs0mg"},{"bike_id":"258ab053-1083-4ca9-a32a-1e85f085fc22","system_id":"levelo_inurba_marseille","lat":43.337444,"lon":5.374475,"is_reserved":false,"is_disabled":false,"rental_uris":{"android":"levelo://app?vid=258ab053-1083-4ca9-a32a-1e85f085fc22","ios":"levelo://app?vid=258ab053-1083-4ca9-a32a-1e85f085fc22"},"vehicle_type_id":"4","last_reported":1759220121,"current_range_meters":4400,"station_id":"","pricing_plan_id":"cebpf4jnsgd1na2vs0mg"},{"bike_id":"8b353c9e-13c5-42ee-a76f-ccbd6269a3dc","system_id":"levelo_inurba_marseille","lat":43.30444,"lon":5.36689,"is_reserved":false,"is_disabled":false,"rental_uris":{"android":"levelo://app?vid=8b353c9e-13c5-42ee-a76f-ccbd6269a3dc","ios":"levelo://app?vid=8b353c9e-13c5-42ee-a76f-ccbd6269a3dc"},"vehicle_type_id":"4","last_reported":1759220121,"current_range_meters":4800,"station_id":"","pricing_plan_id":"cebpf4jnsgd1na2vs0mg"},{"bike_id":"8eba698c-1343-4776-a7ef-1194c9c853da","system_id":"levelo_inurba_marseille","lat":43.266,"lon":5.39346,"is_reserved":false,"is_disabled":false,"rental_uris":{"android":"levelo://app?vid=8eba698c-1343-4776-a7ef-1194c9c853da","ios":"levelo://app?vid=8eba698c-1343-4776-a7ef-1194c9c853da"},"vehicle_type_id":"4","last_reported":1759220121,"current_range_meters":4800,"station_id":"","pricing_plan_id":"cebpf4jnsgd1na2vs0mg"},{"bike_id":"ba04909b-0d7c-4892-b859-e0ca7e0fbb9f","system_id":"levelo_inurba_marseille","lat":43.27374,"lon":5.42393,"is_reserved":false,"is_disabled":false,"rental_uris":{"android":"levelo://app?vid=ba04909b-0d7c-4892-b859-e0ca7e0fbb9f","ios":"levelo://app?vid=ba04909b-0d7c-4892-b859-e0ca7e0fbb9f"},"vehicle_type_id":"4","last_reported":1759220121,"current_range_meters":4800,"station_id":"","pricing_plan_id":"cebpf4jnsgd1na2vs0mg"},{"bike_id":"2c6518be-b3f0-42d2-93c9-c1de9e54885f","system_id":"levelo_inurba_marseille","lat":43.29227,"lon":5.38219,"is_reserved":false,"is_disabled":false,"rental_uris":{"android":"levelo://app?vid=2c6518be-b3f0-42d2-93c9-c1de9e54885f","ios":"levelo://app?vid=2c6518be-b3f0-42d2-93c9-c1de9e54885f"},"vehicle_type_id":"4","last_reported":1759220121,"current_range_meters":5600,"station_id":"","pricing_plan_id":"cebpf4jnsgd1na2vs0mg"},{"bike_id":"aed8b153-a870-4a7f-88f1-087645bcedb0","system_id":"levelo_inurba_marseille","lat":43.29984,"lon":5.37165,"is_reserved":false,"is_disabled":false,"rental_uris":{"android":"levelo://app?vid=aed8b153-a870-4a7f-88f1-087645bcedb0","ios":"levelo://app?vid=aed8b153-a870-4a7f-88f1-087645bcedb0"},"vehicle_type_id":"4","last_reported":1759220121,"current_range_meters":5600,"station_id":"ce4bgr92rcd13ifvqc7g","pricing_plan_id":"cebpf4jnsgd1na2vs0mg"},{"bike_id":"99d84c94-fa46-48ad-bfd1-16b3b4a16e10","system_id":"levelo_inurba_marseille","lat":43.30602,"lon":5.37253,"is_reserved":false,"is_disabled":false,"rental_uris":{"android":"levelo://app?vid=99d84c94-fa46-48ad-bfd1-16b3b4a16e10","ios":"levelo://app?vid=99d84c94-fa46-48ad-bfd1-16b3b4a16e10"},"vehicle_type_id":"4","last_reported":1759220121,"current_range_meters":4800,"station_id":"ce4bgqh2rcd13ifvqc4g","pricing_plan_id":"cebpf4jnsgd1na2vs0mg"},{"bike_id":"31ffaadb-fcc7-44ce-a0a0-030bb6943a70","system_id":"levelo_inurba_marseille","lat":43.29365,"lon":5.37844,"is_reserved":false,"is_disabled":false,"rental_uris":{"android":"levelo://app?vid=31ffaadb-fcc7-44ce-a0a0-030bb6943a70","ios":"levelo://app?vid=31ffaadb-fcc7-44ce-a0a0-030bb6943a70"},"vehicle_type_id":"4","last_reported":1759220121,"current_range_meters":5600,"station_id":"ce4bgjh2rcd13ifvqbf0","pricing_plan_id":"cebpf4jnsgd1na2vs0mg"},{"bike_id":"1dad2113-89e2-44fc-a0b6-ddd6a09baff1","system_id":"levelo_inurba_marseille","lat":43.337444,"lon":5.374475,"is_reserved":false,"is_disabled":false,"rental_uris":{"android":"levelo://app?vid=1dad2113-89e2-44fc-a0b6-ddd6a09baff1","ios":"levelo://app?vid=1dad2113-89e2-44fc-a0b6-ddd6a09baff1"},"vehicle_type_id":"4","last_reported":1759220121,"current_range_meters":5600,"station_id":"","pricing_plan_id":"cebpf4jnsgd1na2vs0mg"},{"bike_id":"00ca83a9-d76a-4bb2-a4ac-b240b7c77b40","system_id":"levelo_inurba_marseille","lat":43.272129,"lon":5.391798,"is_reserved":false,"is_disabled":false,"rental_uris":{"android":"levelo://app?vid=00ca83a9-d76a-4bb2-a4ac-b240b7c77b40","ios":"levelo://app?vid=00ca83a9-d76a-4bb2-a4ac-b240b7c77b40"},"vehicle_type_id":"4","last_reported":1759220121,"current_range_meters":6000,"station_id":"ce4bhhp2rcd13ifvqfm0","pricing_plan_id":"cebpf4jnsgd1na2vs0mg"},{"bike_id":"da0f26e9-0bdb-4063-b9f5-dcfb6728a88e","system_id":"levelo_inurba_marseille","lat":43.22927,"lon":5.35398,"is_reserved":false,"is_disabled":false,"rental_uris":{"android":"levelo://app?vid=da0f26e9-0bdb-4063-b9f5-dcfb6728a88e","ios":"levelo://app?vid=da0f26e9-0bdb-4063-b9f5-dcfb6728a88e"},"vehicle_type_id":"4","last_reported":1759220121,"current_range_meters":6000,"station_id":"cpo3532slgdg3j2ikp40","pricing_plan_id":"cebpf4jnsgd1na2vs0mg"},{"bike_id":"20155838-8a32-4969-8920-ced386045aa9","system_id":"levelo_inurba_marseille","lat":43.2931,"lon":5.37172,"is_reserved":false,"is_disabled":false,"rental_uris":{"android":"levelo://app?vid=20155838-8a32-4969-8920-ced386045aa9","ios":"levelo://app?vid=20155838-8a32-4969-8920-ced386045aa9"},"vehicle_type_id":"4","last_reported":1759220121,"current_range_meters":6400,"station_id":"ce4bgh92rcd13ifvqb40","pricing_plan_id":"cebpf4jnsgd1na2vs0mg"},{"bike_id":"ca660db5-13a2-4b17-89f6-c4a43f402701","system_id":"levelo_inurba_marseille","lat":43.31851,"lon":5.37051,"is_reserved":false,"is_disabled":false,"rental_uris":{"android":"levelo://app?vid=ca660db5-13a2-4b17-89f6-c4a43f402701","ios":"levelo://app?vid=ca660db5-13a2-4b17-89f6-c4a43f402701"},"vehicle_type_id":"4","last_reported":1759220121,"current_range_meters":6400,"station_id":"","pricing_plan_id":"cebpf4jnsgd1na2vs0mg"},{"bike_id":"511cc80f-04a6-4a9f-afdd-004129d93b1f","system_id":"levelo_inurba_marseille","lat":43.26612,"lon":5.39384,"is_reserved":false,"is_disabled":false,"rental_uris":{"android":"levelo://app?vid=511cc80f-04a6-4a9f-afdd-004129d93b1f","ios":"levelo://app?vid=511cc80f-04a6-4a9f-afdd-004129d93b1f"},"vehicle_type_id":"4","last_reported":1759220121,"current_range_meters":6400,"station_id":"","pricing_plan_id":"cebpf4jnsgd1na2vs0mg"},{"bike_id":"e5378695-fba9-432a-9cfb-3b5b05e40fec","system_id":"levelo_inurba_marseille","lat":43.337986,"lon":5.374304,"is_reserved":false,"is_disabled":false,"rental_uris":{"android":"levelo://app?vid=e5378695-fba9-432a-9cfb-3b5b05e40fec","ios":"levelo://app?vid=e5378695-fba9-432a-9cfb-3b5b05e40fec"},"vehicle_type_id":"4","last_reported":1759220121,"current_range_meters":6400,"station_id":"","pricing_plan_id":"cebpf4jnsgd1na2vs0mg"},{"bike_id":"35e8f722-b82a-4247-beb8-7e2827829ce6","system_id":"levelo_inurba_marseille","lat":43.32405,"lon":5.3911,"is_reserved":false,"is_disabled":false,"rental_uris":{"android":"levelo://app?vid=35e8f722-b82a-4247-beb8-7e2827829ce6","ios":"levelo://app?vid=35e8f722-b82a-4247-beb8-7e2827829ce6"},"vehicle_type_id":"4","last_reported":1759220121,"current_range_meters":6800,"station_id":"","pricing_plan_id":"cebpf4jnsgd1na2vs0mg"},{"bike_id":"9c9aec56-01db-429a-9c44-940fba0b5a62","system_id":"levelo_inurba_marseille","lat":43.2721,"lon":5.3919,"is_reserved":false,"is_disabled":false,"rental_uris":{"android":"levelo://app?vid=9c9aec56-01db-429a-9c44-940fba0b5a62","ios":"levelo://app?vid=9c9aec56-01db-429a-9c44-940fba0b5a62"},"vehicle_type_id":"4","last_reported":1759220121,"current_range_meters":6800,"station_id":"ce4bhhp2rcd13ifvqfm0","pricing_plan_id":"cebpf4jnsgd1na2vs0mg"},{"bike_id":"f45045bd-9a6a-45f4-9411-919754427b2f","system_id":"levelo_inurba_marseille","lat":43.31132,"lon":5.36944,"is_reserved":false,"is_disabled":false,"rental_uris":{"android":"levelo://app?vid=f45045bd-9a6a-45f4-9411-919754427b2f","ios":"levelo://app?vid=f45045bd-9a6a-45f4-9411-919754427b2f"},"vehicle_type_id":"4","last_reported":1759220121,"current_range_meters":7200,"station_id":"","pricing_plan_id":"cebpf4jnsgd1na2vs0mg"},{"bike_id":"64fb5c5d-c9f4-4738-bde2-99672f6cdde8","system_id":"levelo_inurba_marseille","lat":43.26563,"lon":5.39027,"is_reserved":false,"is_disabled":false,"rental_uris":{"android":"levelo://app?vid=64fb5c5d-c9f4-4738-bde2-99672f6cdde8","ios":"levelo://app?vid=64fb5c5d-c9f4-4738-bde2-99672f6cdde8"},"vehicle_type_id":"4","last_reported":1759220121,"current_range_meters":7200,"station_id":"ce4bhe12rcd13ifvqf30","pricing_plan_id":"cebpf4jnsgd1na2vs0mg"},{"bike_id":"7952d0c5-c3b4-4c29-bacd-f59ef155894d","system_id":"levelo_inurba_marseille","lat":43.30103,"lon":5.39062,"is_reserved":false,"is_disabled":false,"rental_uris":{"android":"levelo://app?vid=7952d0c5-c3b4-4c29-bacd-f59ef155894d","ios":"levelo://app?vid=7952d0c5-c3b4-4c29-bacd-f59ef155894d"},"vehicle_type_id":"4","last_reported":1759220121,"current_range_meters":7200,"station_id":"ce4bh192rcd13ifvqdb0","pricing_plan_id":"cebpf4jnsgd1na2vs0mg"},{"bike_id":"84bf3440-730b-4e9a-8c32-6ec2ed0e2ab4","system_id":"levelo_inurba_marseille","lat":43.27214,"lon":5.39174,"is_reserved":false,"is_disabled":false,"rental_uris":{"android":"levelo://app?vid=84bf3440-730b-4e9a-8c32-6ec2ed0e2ab4","ios":"levelo://app?vid=84bf3440-730b-4e9a-8c32-6ec2ed0e2ab4"},"vehicle_type_id":"4","last_reported":1759220121,"current_range_meters":7200,"station_id":"ce4bhhp2rcd13ifvqfm0","pricing_plan_id":"cebpf4jnsgd1na2vs0mg"},{"bike_id":"92625698-47ff-4c19-a21b-0eb9082e5953","system_id":"levelo_inurba_marseille","lat":43.299763,"lon":5.371834,"is_reserved":false,"is_disabled":false,"rental_uris":{"android":"levelo://app?vid=92625698-47ff-4c19-a21b-0eb9082e5953","ios":"levelo://app?vid=92625698-47ff-4c19-a21b-0eb9082e5953"},"vehicle_type_id":"4","last_reported":1759220121,"current_range_meters":7200,"station_id":"ce4bgr92rcd13ifvqc7g","pricing_plan_id":"cebpf4jnsgd1na2vs0mg"},{"bike_id":"b17feaf8-f1f6-4569-a6fc-fc60277ff4ff","system_id":"levelo_inurba_marseille","lat":43.32372,"lon":5.36754,"is_reserved":false,"is_disabled":true,"rental_uris":{"android":"levelo://app?vid=b17feaf8-f1f6-4569-a6fc-fc60277ff4ff","ios":"levelo://app?vid=b17feaf8-f1f6-4569-a6fc-fc60277ff4ff"},"vehicle_type_id":"4","last_reported":1759220121,"current_range_meters":8000,"station_id":"ce4bhsh2rcd13ifvqi2g","pricing_plan_id":"cebpf4jnsgd1na2vs0mg"},{"bike_id":"80b98ce0-3233-47ce-84db-722943723d1e","system_id":"levelo_inurba_marseille","lat":43.269329,"lon":5.38928,"is_reserved":false,"is_disabled":false,"rental_uris":{"android":"levelo://app?vid=80b98ce0-3233-47ce-84db-722943723d1e","ios":"levelo://app?vid=80b98ce0-3233-47ce-84db-722943723d1e"},"vehicle_type_id":"4","last_reported":1759220121,"current_range_meters":8000,"station_id":"","pricing_plan_id":"cebpf4jnsgd1na2vs0mg"},{"bike_id":"a7e17f7d-bbfd-4c6e-b87a-9ce9c9971e09","system_id":"levelo_inurba_marseille","lat":43.30935,"lon":5.40147,"is_reserved":false,"is_disabled":false,"rental_uris":{"android":"levelo://app?vid=a7e17f7d-bbfd-4c6e-b87a-9ce9c9971e09","ios":"levelo://app?vid=a7e17f7d-bbfd-4c6e-b87a-9ce9c9971e09"},"vehicle_type_id":"4","last_reported":1759220121,"current_range_meters":8000,"station_id":"ce4bgvp2rcd13ifvqct0","pricing_plan_id":"cebpf4jnsgd1na2vs0mg"},{"bike_id":"7feb3287-eb49-4612-8359-23cc8f7db74d","system_id":"levelo_inurba_marseille","lat":43.26571,"lon":5.39026,"is_reserved":false,"is_disabled":false,"rental_uris":{"android":"levelo://app?vid=7feb3287-eb49-4612-8359-23cc8f7db74d","ios":"levelo://app?vid=7feb3287-eb49-4612-8359-23cc8f7db74d"},"vehicle_type_id":"4","last_reported":1759220121,"current_range_meters":8000,"station_id":"ce4bhe12rcd13ifvqf30","pricing_plan_id":"cebpf4jnsgd1na2vs0mg"},{"bike_id":"03350417-1098-4d6c-b8fe-9e64358744bf","system_id":"levelo_inurba_marseille","lat":43.31134,"lon":5.37592,"is_reserved":false,"is_disabled":true,"rental_uris":{"android":"levelo://app?vid=03350417-1098-4d6c-b8fe-9e64358744bf","ios":"levelo://app?vid=03350417-1098-4d6c-b8fe-9e64358744bf"},"vehicle_type_id":"4","last_reported":1759220121,"current_range_meters":8000,"station_id":"","pricing_plan_id":"cebpf4jnsgd1na2vs0mg"},{"bike_id":"370c339b-38e7-451f-ad88-72dee15f422d","system_id":"levelo_inurba_marseille","lat":43.34145,"lon":5.40898,"is_reserved":false,"is_disabled":false,"rental_uris":{"android":"levelo://app?vid=370c339b-38e7-451f-ad88-72dee15f422d","ios":"levelo://app?vid=370c339b-38e7-451f-ad88-72dee15f422d"},"vehicle_type_id":"4","last_reported":1759220121,"current_range_meters":8400,"station_id":"ce4bhqh2rcd13ifvqhlg","pricing_plan_id":"cebpf4jnsgd1na2vs0mg"},{"bike_id":"1f4563dd-dd62-4bf0-b253-3ec2b98c2cec","system_id":"levelo_inurba_marseille","lat":43.33612,"lon":5.41034,"is_reserved":false,"is_disabled":false,"rental_uris":{"android":"levelo://app?vid=1f4563dd-dd62-4bf0-b253-3ec2b98c2cec","ios":"levelo://app?vid=1f4563dd-dd62-4bf0-b253-3ec2b98c2cec"},"vehicle_type_id":"4","last_reported":1759220121,"current_range_meters":8400,"station_id":"ce4bhqh2rcd13ifvqhmg","pricing_plan_id":"cebpf4jnsgd1na2vs0mg"},{"bike_id":"29fb0313-96d0-4699-a2b9-d9bfae768dba","system_id":"levelo_inurba_marseille","lat":43.28127,"lon":5.42653,"is_reserved":false,"is_disabled":true,"rental_uris":{"android":"levelo://app?vid=29fb0313-96d0-4699-a2b9-d9bfae768dba","ios":"levelo://app?vid=29fb0313-96d0-4699-a2b9-d9bfae768dba"},"vehicle_type_id":"4","last_reported":1759220121,"current_range_meters":8400,"station_id":"ce4bhnh2rcd13ifvqgug","pricing_plan_id":"cebpf4jnsgd1na2vs0mg"},{"bike_id":"008f00ef-5d91-4678-8543-b2d7f596f40f","system_id":"levelo_inurba_marseille","lat":43.31199,"lon":5.36821,"is_reserved":false,"is_disabled":false,"rental_uris":{"android":"levelo://app?vid=008f00ef-5d91-4678-8543-b2d7f596f40f","ios":"levelo://app?vid=008f00ef-5d91-4678-8543-b2d7f596f40f"},"vehicle_type_id":"4","last_reported":1759220121,"current_range_meters":8400,"station_id":"ce4bgl92rcd13ifvqbq0","pricing_plan_id":"cebpf4jnsgd1na2vs0mg"},{"bike_id":"ea59b303-6900-42ad-9e79-5b0f95bedd6c","system_id":"levelo_inurba_marseille","lat":43.30422,"lon":5.36731,"is_reserved":false,"is_disabled":false,"rental_uris":{"android":"levelo://app?vid=ea59b303-6900-42ad-9e79-5b0f95bedd6c","ios":"levelo://app?vid=ea59b303-6900-42ad-9e79-5b0f95bedd6c"},"vehicle_type_id":"4","last_reported":1759220121,"current_range_meters":8400,"station_id":"","pricing_plan_id":"cebpf4jnsgd1na2vs0mg"},{"bike_id":"3bb51226-97eb-48e3-95cb-ca789962c187","system_id":"levelo_inurba_marseille","lat":43.27201,"lon":5.39179,"is_reserved":false,"is_disabled":false,"rental_uris":{"android":"levelo://app?vid=3bb51226-97eb-48e3-95cb-ca789962c187","ios":"levelo://app?vid=3bb51226-97eb-48e3-95cb-ca789962c187"},"vehicle_type_id":"4","last_reported":1759220121,"current_range_meters":8400,"station_id":"ce4bhhp2rcd13ifvqfm0","pricing_plan_id":"cebpf4jnsgd1na2vs0mg"},{"bike_id":"9c4235da-d3d0-4056-aa6b-c6aa6e8e7367","system_id":"levelo_inurba_marseille","lat":43.30691,"lon":5.375149,"is_reserved":false,"is_disabled":false,"rental_uris":{"android":"levelo://app?vid=9c4235da-d3d0-4056-aa6b-c6aa6e8e7367","ios":"levelo://app?vid=9c4235da-d3d0-4056-aa6b-c6aa6e8e7367"},"vehicle_type_id":"4","last_reported":1759220121,"current_range_meters":8400,"station_id":"","pricing_plan_id":"cebpf4jnsgd1na2vs0mg"},{"bike_id":"afeab869-c87f-40e8-936e-8d138ccf0fb4","system_id":"levelo_inurba_marseille","lat":43.231558,"lon":5.437058,"is_reserved":false,"is_disabled":false,"rental_uris":{"android":"levelo://app?vid=afeab869-c87f-40e8-936e-8d138ccf0fb4","ios":"levelo://app?vid=afeab869-c87f-40e8-936e-8d138ccf0fb4"},"vehicle_type_id":"4","last_reported":1759220121,"current_range_meters":8400,"station_id":"ce4bhmp2rcd13ifvqgog","pricing_plan_id":"cebpf4jnsgd1na2vs0mg"},{"bike_id":"76468404-4f55-4468-97f9-6540334ac227","system_id":"levelo_inurba_marseille","lat":43.32472,"lon":5.36556,"is_reserved":false,"is_disabled":false,"rental_uris":{"android":"levelo://app?vid=76468404-4f55-4468-97f9-6540334ac227","ios":"levelo://app?vid=76468404-4f55-4468-97f9-6540334ac227"},"vehicle_type_id":"4","last_reported":1759220121,"current_range_meters":8400,"station_id":"ce4bhs12rcd13ifvqhvg","pricing_plan_id":"cebpf4jnsgd1na2vs0mg"},{"bike_id":"ce5e157e-4ef2-4c41-9b3b-54d3eecbfa45","system_id":"levelo_inurba_marseille","lat":43.2251,"lon":5.34839,"is_reserved":false,"is_disabled":false,"rental_uris":{"android":"levelo://app?vid=ce5e157e-4ef2-4c41-9b3b-54d3eecbfa45","ios":"levelo://app?vid=ce5e157e-4ef2-4c41-9b3b-54d3eecbfa45"},"vehicle_type_id":"4","last_reported":1759220121,"current_range_meters":8400,"station_id":"","pricing_plan_id":"cebpf4jnsgd1na2vs0mg"},{"bike_id":"d8c2c2c0-4619-4a5a-9c31-b9f4ec5c9486","system_id":"levelo_inurba_marseille","lat":43.307809,"lon":5.376553,"is_reserved":false,"is_disabled":false,"rental_uris":{"android":"levelo://app?vid=d8c2c2c0-4619-4a5a-9c31-b9f4ec5c9486","ios":"levelo://app?vid=d8c2c2c0-4619-4a5a-9c31-b9f4ec5c9486"},"vehicle_type_id":"4","last_reported":1759220121,"current_range_meters":8800,"station_id":"ce4bgv92rcd13ifvqcq0","pricing_plan_id":"cebpf4jnsgd1na2vs0mg"},{"bike_id":"3154cc08-e0f5-412d-872f-0c90a9a7d7a2","system_id":"levelo_inurba_marseille","lat":43.30195,"lon":5.36623,"is_reserved":false,"is_disabled":false,"rental_uris":{"android":"levelo://app?vid=3154cc08-e0f5-412d-872f-0c90a9a7d7a2","ios":"levelo://app?vid=3154cc08-e0f5-412d-872f-0c90a9a7d7a2"},"vehicle_type_id":"4","last_reported":1759220121,"current_range_meters":8800,"station_id":"ce4bgrh2rcd13ifvqc8g","pricing_plan_id":"cebpf4jnsgd1na2vs0mg"},{"bike_id":"31bdf2f1-0b2a-478e-a10e-e5dc3caaeea5","system_id":"levelo_inurba_marseille","lat":43.28461,"lon":5.35877,"is_reserved":false,"is_disabled":false,"rental_uris":{"android":"levelo://app?vid=31bdf2f1-0b2a-478e-a10e-e5dc3caaeea5","ios":"levelo://app?vid=31bdf2f1-0b2a-478e-a10e-e5dc3caaeea5"},"vehicle_type_id":"4","last_reported":1759220121,"current_range_meters":8800,"station_id":"ce4bhah2rcd13ifvqei0","pricing_plan_id":"cebpf4jnsgd1na2vs0mg"},{"bike_id":"10176dad-e77f-4f18-8cea-556decfc72aa","system_id":"levelo_inurba_marseille","lat":43.27371,"lon":5.36261,"is_reserved":false,"is_disabled":true,"rental_uris":{"android":"levelo://app?vid=10176dad-e77f-4f18-8cea-556decfc72aa","ios":"levelo://app?vid=10176dad-e77f-4f18-8cea-556decfc72aa"},"vehicle_type_id":"4","last_reported":1759220121,"current_range_meters":8800,"station_id":"ce4bhbh2rcd13ifvqeo0","pricing_plan_id":"cebpf4jnsgd1na2vs0mg"},{"bike_id":"ee96a502-9b76-492e-840a-498b02aefe72","system_id":"levelo_inurba_marseille","lat":43.32358,"lon":5.39224,"is_reserved":false,"is_disabled":false,"rental_uris":{"android":"levelo://app?vid=ee96a502-9b76-492e-840a-498b02aefe72","ios":"levelo://app?vid=ee96a502-9b76-492e-840a-498b02aefe72"},"vehicle_type_id":"4","last_reported":1759220121,"current_range_meters":8800,"station_id":"","pricing_plan_id":"cebpf4jnsgd1na2vs0mg"},{"bike_id":"89b7781a-c199-477d-9de1-7909a1a67ebb","system_id":"levelo_inurba_marseille","lat":43.30532,"lon":5.38431,"is_reserved":false,"is_disabled":false,"rental_uris":{"android":"levelo://app?vid=89b7781a-c199-477d-9de1-7909a1a67ebb","ios":"levelo://app?vid=89b7781a-c199-477d-9de1-7909a1a67ebb"},"vehicle_type_id":"4","last_reported":1759220121,"current_range_meters":8800,"station_id":"ce4bgg92rcd13ifvqb30","pricing_plan_id":"cebpf4jnsgd1na2vs0mg"},{"bike_id":"38b85c3f-b250-49a3-b230-2d4e24f3db88","system_id":"levelo_inurba_marseille","lat":43.28458,"lon":5.35883,"is_reserved":false,"is_disabled":false,"rental_uris":{"android":"levelo://app?vid=38b85c3f-b250-49a3-b230-2d4e24f3db88","ios":"levelo://app?vid=38b85c3f-b250-49a3-b230-2d4e24f3db88"},"vehicle_type_id":"4","last_reported":1759220121,"current_range_meters":16400,"station_id":"ce4bhah2rcd13ifvqei0","pricing_plan_id":"cebpf4jnsgd1na2vs0mg"},{"bike_id":"5901a4c6-8531-46a9-95c5-8d9acf0e1be4","system_id":"levelo_inurba_marseille","lat":43.30906,"lon":5.37194,"is_reserved":false,"is_disabled":false,"rental_uris":{"android":"levelo://app?vid=5901a4c6-8531-46a9-95c5-8d9acf0e1be4","ios":"levelo://app?vid=5901a4c6-8531-46a9-95c5-8d9acf0e1be4"},"vehicle_type_id":"4","last_reported":1759220121,"current_range_meters":8800,"station_id":"ce4bguh2rcd13ifvqckg","pricing_plan_id":"cebpf4jnsgd1na2vs0mg"},{"bike_id":"c47f5c3e-1ff3-43b7-b740-1c081ef57305","system_id":"levelo_inurba_marseille","lat":43.29675,"lon":5.37648,"is_reserved":false,"is_disabled":false,"rental_uris":{"android":"levelo://app?vid=c47f5c3e-1ff3-43b7-b740-1c081ef57305","ios":"levelo://app?vid=c47f5c3e-1ff3-43b7-b740-1c081ef57305"},"vehicle_type_id":"4","last_reported":1759220121,"current_range_meters":9200,"station_id":"ce4bgkh2rcd13ifvqbl0","pricing_plan_id":"cebpf4jnsgd1na2vs0mg"},{"bike_id":"6537c04b-d3d7-49e0-be47-85f19d8f44cb","system_id":"levelo_inurba_marseille","lat":43.30135,"lon":5.37423,"is_reserved":false,"is_disabled":false,"rental_uris":{"android":"levelo://app?vid=6537c04b-d3d7-49e0-be47-85f19d8f44cb","ios":"levelo://app?vid=6537c04b-d3d7-49e0-be47-85f19d8f44cb"},"vehicle_type_id":"4","last_reported":1759220121,"current_range_meters":9200,"station_id":"ce4bgs92rcd13ifvqcc0","pricing_plan_id":"cebpf4jnsgd1na2vs0mg"},{"bike_id":"3d400c08-bd40-45e9-99e7-651e4339ef38","system_id":"levelo_inurba_marseille","lat":43.31222,"lon":5.36889,"is_reserved":false,"is_disabled":false,"rental_uris":{"android":"levelo://app?vid=3d400c08-bd40-45e9-99e7-651e4339ef38","ios":"levelo://app?vid=3d400c08-bd40-45e9-99e7-651e4339ef38"},"vehicle_type_id":"4","last_reported":1759220121,"current_range_meters":9200,"station_id":"ce4bgl92rcd13ifvqbq0","pricing_plan_id":"cebpf4jnsgd1na2vs0mg"},{"bike_id":"a2411a4b-e5ef-475f-b05a-622f2fcb8ba4","system_id":"levelo_inurba_marseille","lat":43.31491,"lon":5.37267,"is_reserved":false,"is_disabled":false,"rental_uris":{"android":"levelo://app?vid=a2411a4b-e5ef-475f-b05a-622f2fcb8ba4","ios":"levelo://app?vid=a2411a4b-e5ef-475f-b05a-622f2fcb8ba4"},"vehicle_type_id":"4","last_reported":1759220121,"current_range_meters":9200,"station_id":"ce4bgt12rcd13ifvqcd0","pricing_plan_id":"cebpf4jnsgd1na2vs0mg"},{"bike_id":"831e6a54-bde0-4f77-80bc-8857d66d3744","system_id":"levelo_inurba_marseille","lat":43.27934,"lon":5.41064,"is_reserved":false,"is_disabled":true,"rental_uris":{"android":"levelo://app?vid=831e6a54-bde0-4f77-80bc-8857d66d3744","ios":"levelo://app?vid=831e6a54-bde0-4f77-80bc-8857d66d3744"},"vehicle_type_id":"4","last_reported":1759220121,"current_range_meters":9200,"station_id":"ce4bhnp2rcd13ifvqh0g","pricing_plan_id":"cebpf4jnsgd1na2vs0mg"},{"bike_id":"ecaee9d6-5f1f-4015-b00a-5fe665c4aa86","system_id":"levelo_inurba_marseille","lat":43.30281,"lon":5.37702,"is_reserved":false,"is_disabled":false,"rental_uris":{"android":"levelo://app?vid=ecaee9d6-5f1f-4015-b00a-5fe665c4aa86","ios":"levelo://app?vid=ecaee9d6-5f1f-4015-b00a-5fe665c4aa86"},"vehicle_type_id":"4","last_reported":1759220121,"current_range_meters":8800,"station_id":"ce4bguh2rcd13ifvqcj0","pricing_plan_id":"cebpf4jnsgd1na2vs0mg"},{"bike_id":"1c349137-26de-47ce-98b2-c9a638b5ace0","system_id":"levelo_inurba_marseille","lat":43.23967,"lon":5.3663,"is_reserved":false,"is_disabled":false,"rental_uris":{"android":"levelo://app?vid=1c349137-26de-47ce-98b2-c9a638b5ace0","ios":"levelo://app?vid=1c349137-26de-47ce-98b2-c9a638b5ace0"},"vehicle_type_id":"4","last_reported":1759220121,"current_range_meters":9200,"station_id":"ce4bhi12rcd13ifvqfp0","pricing_plan_id":"cebpf4jnsgd1na2vs0mg"},{"bike_id":"0eda2527-f3ce-4552-96df-04220f592c11","system_id":"levelo_inurba_marseille","lat":43.27369,"lon":5.36266,"is_reserved":false,"is_disabled":false,"rental_uris":{"android":"levelo://app?vid=0eda2527-f3ce-4552-96df-04220f592c11","ios":"levelo://app?vid=0eda2527-f3ce-4552-96df-04220f592c11"},"vehicle_type_id":"4","last_reported":1759220121,"current_range_meters":9200,"station_id":"ce4bhbh2rcd13ifvqeo0","pricing_plan_id":"cebpf4jnsgd1na2vs0mg"},{"bike_id":"a07a513e-e5a9-4481-8592-d991379bc662","system_id":"levelo_inurba_marseille","lat":43.33735,"lon":5.37481,"is_reserved":false,"is_disabled":false,"rental_uris":{"android":"levelo://app?vid=a07a513e-e5a9-4481-8592-d991379bc662","ios":"levelo://app?vid=a07a513e-e5a9-4481-8592-d991379bc662"},"vehicle_type_id":"4","last_reported":1759220121,"current_range_meters":9200,"station_id":"","pricing_plan_id":"cebpf4jnsgd1na2vs0mg"},{"bike_id":"0030cf69-75f8-4719-a372-efc52bdb748a","system_id":"levelo_inurba_marseille","lat":43.32887,"lon":5.45401,"is_reserved":false,"is_disabled":true,"rental_uris":{"android":"levelo://app?vid=0030cf69-75f8-4719-a372-efc52bdb748a","ios":"levelo://app?vid=0030cf69-75f8-4719-a372-efc52bdb748a"},"vehicle_type_id":"4","last_reported":1759220121,"current_range_meters":9600,"station_id":"","pricing_plan_id":"cebpf4jnsgd1na2vs0mg"},{"bike_id":"c627b34a-8e81-4438-af3b-4fd0aab1c160","system_id":"levelo_inurba_marseille","lat":43.29646,"lon":5.36032,"is_reserved":false,"is_disabled":false,"rental_uris":{"android":"levelo://app?vid=c627b34a-8e81-4438-af3b-4fd0aab1c160","ios":"levelo://app?vid=c627b34a-8e81-4438-af3b-4fd0aab1c160"},"vehicle_type_id":"4","last_reported":1759220121,"current_range_meters":9600,"station_id":"","pricing_plan_id":"cebpf4jnsgd1na2vs0mg"},{"bike_id":"471fdc83-7d42-43c1-920b-6e80802e7a97","system_id":"levelo_inurba_marseille","lat":43.28931,"lon":5.36641,"is_reserved":false,"is_disabled":false,"rental_uris":{"android":"levelo://app?vid=471fdc83-7d42-43c1-920b-6e80802e7a97","ios":"levelo://app?vid=471fdc83-7d42-43c1-920b-6e80802e7a97"},"vehicle_type_id":"4","last_reported":1759220121,"current_range_meters":9600,"station_id":"ce4bhap2rcd13ifvqek0","pricing_plan_id":"cebpf4jnsgd1na2vs0mg"},{"bike_id":"a710eb27-f43d-434d-b850-f9305cf3e1b4","system_id":"levelo_inurba_marseille","lat":43.31247,"lon":5.36857,"is_reserved":false,"is_disabled":false,"rental_uris":{"android":"levelo://app?vid=a710eb27-f43d-434d-b850-f9305cf3e1b4","ios":"levelo://app?vid=a710eb27-f43d-434d-b850-f9305cf3e1b4"},"vehicle_type_id":"4","last_reported":1759220121,"current_range_meters":10000,"station_id":"ce4bgl92rcd13ifvqbq0","pricing_plan_id":"cebpf4jnsgd1na2vs0mg"},{"bike_id":"385fa573-6758-43e7-a2f4-f27be30ea572","system_id":"levelo_inurba_marseille","lat":43.321075,"lon":5.367644,"is_reserved":false,"is_disabled":false,"rental_uris":{"android":"levelo://app?vid=385fa573-6758-43e7-a2f4-f27be30ea572","ios":"levelo://app?vid=385fa573-6758-43e7-a2f4-f27be30ea572"},"vehicle_type_id":"4","last_reported":1759220121,"current_range_meters":10000,"station_id":"ce4bhrh2rcd13ifvqhug","pricing_plan_id":"cebpf4jnsgd1na2vs0mg"},{"bike_id":"f5e2288f-3e9a-45b2-9cd8-3842a1745526","system_id":"levelo_inurba_marseille","lat":43.27313,"lon":5.39099,"is_reserved":false,"is_disabled":false,"rental_uris":{"android":"levelo://app?vid=f5e2288f-3e9a-45b2-9cd8-3842a1745526","ios":"levelo://app?vid=f5e2288f-3e9a-45b2-9cd8-3842a1745526"},"vehicle_type_id":"4","last_reported":1759220121,"current_range_meters":10000,"station_id":"ce4bhgp2rcd13ifvqfe0","pricing_plan_id":"cebpf4jnsgd1na2vs0mg"},{"bike_id":"3cb33bb3-a99b-4c27-84f9-510941a45f04","system_id":"levelo_inurba_marseille","lat":43.298448,"lon":5.362743,"is_reserved":false,"is_disabled":false,"rental_uris":{"android":"levelo://app?vid=3cb33bb3-a99b-4c27-84f9-510941a45f04","ios":"levelo://app?vid=3cb33bb3-a99b-4c27-84f9-510941a45f04"},"vehicle_type_id":"4","last_reported":1759220121,"current_range_meters":10000,"station_id":"ce4bgpp2rcd13ifvqc3g","pricing_plan_id":"cebpf4jnsgd1na2vs0mg"},{"bike_id":"da85755a-becf-4799-9b0a-4cff4b2bea86","system_id":"levelo_inurba_marseille","lat":43.295248,"lon":5.37505,"is_reserved":false,"is_disabled":false,"rental_uris":{"android":"levelo://app?vid=da85755a-becf-4799-9b0a-4cff4b2bea86","ios":"levelo://app?vid=da85755a-becf-4799-9b0a-4cff4b2bea86"},"vehicle_type_id":"4","last_reported":1759220121,"current_range_meters":10800,"station_id":"","pricing_plan_id":"cebpf4jnsgd1na2vs0mg"},{"bike_id":"189b53e1-836b-4793-84f2-afedb12e9774","system_id":"levelo_inurba_marseille","lat":43.30915,"lon":5.36827,"is_reserved":false,"is_disabled":true,"rental_uris":{"android":"levelo://app?vid=189b53e1-836b-4793-84f2-afedb12e9774","ios":"levelo://app?vid=189b53e1-836b-4793-84f2-afedb12e9774"},"vehicle_type_id":"4","last_reported":1759220121,"current_range_meters":10800,"station_id":"ce4bgn92rcd13ifvqbvg","pricing_plan_id":"cebpf4jnsgd1na2vs0mg"},{"bike_id":"498de633-1978-409b-aa35-b617d56ba506","system_id":"levelo_inurba_marseille","lat":43.289401,"lon":5.366452,"is_reserved":false,"is_disabled":false,"rental_uris":{"android":"levelo://app?vid=498de633-1978-409b-aa35-b617d56ba506","ios":"levelo://app?vid=498de633-1978-409b-aa35-b617d56ba506"},"vehicle_type_id":"4","last_reported":1759220121,"current_range_meters":10800,"station_id":"ce4bhap2rcd13ifvqek0","pricing_plan_id":"cebpf4jnsgd1na2vs0mg"},{"bike_id":"cda04981-589a-4bb2-995c-91533edee3c5","system_id":"levelo_inurba_marseille","lat":43.23152,"lon":5.43712,"is_reserved":false,"is_disabled":false,"rental_uris":{"android":"levelo://app?vid=cda04981-589a-4bb2-995c-91533edee3c5","ios":"levelo://app?vid=cda04981-589a-4bb2-995c-91533edee3c5"},"vehicle_type_id":"4","last_reported":1759220121,"current_range_meters":10800,"station_id":"ce4bhmp2rcd13ifvqgog","pricing_plan_id":"cebpf4jnsgd1na2vs0mg"},{"bike_id":"78edd212-3bd8-4a45-bced-089e3907902a","system_id":"levelo_inurba_marseille","lat":43.32743,"lon":5.4236,"is_reserved":false,"is_disabled":true,"rental_uris":{"android":"levelo://app?vid=78edd212-3bd8-4a45-bced-089e3907902a","ios":"levelo://app?vid=78edd212-3bd8-4a45-bced-089e3907902a"},"vehicle_type_id":"4","last_reported":1759220121,"current_range_meters":11200,"station_id":"","pricing_plan_id":"cebpf4jnsgd1na2vs0mg"},{"bike_id":"570817df-132c-420b-86b2-6efaaab6b8a1","system_id":"levelo_inurba_marseille","lat":43.28039,"lon":5.36944,"is_reserved":false,"is_disabled":false,"rental_uris":{"android":"levelo://app?vid=570817df-132c-420b-86b2-6efaaab6b8a1","ios":"levelo://app?vid=570817df-132c-420b-86b2-6efaaab6b8a1"},"vehicle_type_id":"4","last_reported":1759220121,"current_range_meters":11200,"station_id":"ce4bha12rcd13ifvqef0","pricing_plan_id":"cebpf4jnsgd1na2vs0mg"},{"bike_id":"aa123961-c527-4db0-9350-7d548f67905a","system_id":"levelo_inurba_marseille","lat":43.27946,"lon":5.38753,"is_reserved":false,"is_disabled":false,"rental_uris":{"android":"levelo://app?vid=aa123961-c527-4db0-9350-7d548f67905a","ios":"levelo://app?vid=aa123961-c527-4db0-9350-7d548f67905a"},"vehicle_type_id":"4","last_reported":1759220121,"current_range_meters":11200,"station_id":"ce4bh492rcd13ifvqdvg","pricing_plan_id":"cebpf4jnsgd1na2vs0mg"},{"bike_id":"33c37912-7a5a-4cf6-bff3-9fbfe40d20dc","system_id":"levelo_inurba_marseille","lat":43.32108,"lon":5.36771,"is_reserved":false,"is_disabled":false,"rental_uris":{"android":"levelo://app?vid=33c37912-7a5a-4cf6-bff3-9fbfe40d20dc","ios":"levelo://app?vid=33c37912-7a5a-4cf6-bff3-9fbfe40d20dc"},"vehicle_type_id":"4","last_reported":1759220121,"current_range_meters":11200,"station_id":"ce4bhrh2rcd13ifvqhug","pricing_plan_id":"cebpf4jnsgd1na2vs0mg"},{"bike_id":"d749c0fe-8a3f-473a-856a-b02d5865bd61","system_id":"levelo_inurba_marseille","lat":43.262,"lon":5.37928,"is_reserved":false,"is_disabled":false,"rental_uris":{"android":"levelo://app?vid=d749c0fe-8a3f-473a-856a-b02d5865bd61","ios":"levelo://app?vid=d749c0fe-8a3f-473a-856a-b02d5865bd61"},"vehicle_type_id":"4","last_reported":1759220121,"current_range_meters":11200,"station_id":"ce4bhjp2rcd13ifvqg90","pricing_plan_id":"cebpf4jnsgd1na2vs0mg"},{"bike_id":"0cfbc5e7-ffc1-4b98-9352-a260104e6020","system_id":"levelo_inurba_marseille","lat":43.3014,"lon":5.37394,"is_reserved":false,"is_disabled":false,"rental_uris":{"android":"levelo://app?vid=0cfbc5e7-ffc1-4b98-9352-a260104e6020","ios":"levelo://app?vid=0cfbc5e7-ffc1-4b98-9352-a260104e6020"},"vehicle_type_id":"4","last_reported":1759220121,"current_range_meters":11200,"station_id":"ce4bgs92rcd13ifvqcc0","pricing_plan_id":"cebpf4jnsgd1na2vs0mg"},{"bike_id":"2fb20954-37e5-44c5-a45c-78dc472f22d7","system_id":"levelo_inurba_marseille","lat":43.31227,"lon":5.36865,"is_reserved":false,"is_disabled":false,"rental_uris":{"android":"levelo://app?vid=2fb20954-37e5-44c5-a45c-78dc472f22d7","ios":"levelo://app?vid=2fb20954-37e5-44c5-a45c-78dc472f22d7"},"vehicle_type_id":"4","last_reported":1759220121,"current_range_meters":11200,"station_id":"ce4bgl92rcd13ifvqbq0","pricing_plan_id":"cebpf4jnsgd1na2vs0mg"},{"bike_id":"211afd9f-58b0-436e-9b6b-1acbadc34392","system_id":"levelo_inurba_marseille","lat":43.32362,"lon":5.36739,"is_reserved":false,"is_disabled":false,"rental_uris":{"android":"levelo://app?vid=211afd9f-58b0-436e-9b6b-1acbadc34392","ios":"levelo://app?vid=211afd9f-58b0-436e-9b6b-1acbadc34392"},"vehicle_type_id":"4","last_reported":1759220121,"current_range_meters":11200,"station_id":"ce4bhsh2rcd13ifvqi2g","pricing_plan_id":"cebpf4jnsgd1na2vs0mg"},{"bike_id":"aebf0e68-ba27-412a-9ce2-11cc42127dee","system_id":"levelo_inurba_marseille","lat":43.337444,"lon":5.374475,"is_reserved":false,"is_disabled":false,"rental_uris":{"android":"levelo://app?vid=aebf0e68-ba27-412a-9ce2-11cc42127dee","ios":"levelo://app?vid=aebf0e68-ba27-412a-9ce2-11cc42127dee"},"vehicle_type_id":"4","last_reported":1759220121,"current_range_meters":11200,"station_id":"","pricing_plan_id":"cebpf4jnsgd1na2vs0mg"},{"bike_id":"3d325c0a-452a-40b6-b976-7af3843b4d54","system_id":"levelo_inurba_marseille","lat":43.27376,"lon":5.36258,"is_reserved":false,"is_disabled":false,"rental_uris":{"android":"levelo://app?vid=3d325c0a-452a-40b6-b976-7af3843b4d54","ios":"levelo://app?vid=3d325c0a-452a-40b6-b976-7af3843b4d54"},"vehicle_type_id":"4","last_reported":1759220121,"current_range_meters":11600,"station_id":"ce4bhbh2rcd13ifvqeo0","pricing_plan_id":"cebpf4jnsgd1na2vs0mg"},{"bike_id":"8b410ab0-56a2-489a-adb3-68e6c1d7e6ad","system_id":"levelo_inurba_marseille","lat":43.27201,"lon":5.3918,"is_reserved":false,"is_disabled":false,"rental_uris":{"android":"levelo://app?vid=8b410ab0-56a2-489a-adb3-68e6c1d7e6ad","ios":"levelo://app?vid=8b410ab0-56a2-489a-adb3-68e6c1d7e6ad"},"vehicle_type_id":"4","last_reported":1759220121,"current_range_meters":11600,"station_id":"ce4bhhp2rcd13ifvqfm0","pricing_plan_id":"cebpf4jnsgd1na2vs0mg"},{"bike_id":"8e4a3cbf-e0ab-488c-8c64-dc98bdb2feb1","system_id":"levelo_inurba_marseille","lat":43.30141,"lon":5.37401,"is_reserved":false,"is_disabled":false,"rental_uris":{"android":"levelo://app?vid=8e4a3cbf-e0ab-488c-8c64-dc98bdb2feb1","ios":"levelo://app?vid=8e4a3cbf-e0ab-488c-8c64-dc98bdb2feb1"},"vehicle_type_id":"4","last_reported":1759220121,"current_range_meters":11600,"station_id":"ce4bgs92rcd13ifvqcc0","pricing_plan_id":"cebpf4jnsgd1na2vs0mg"},{"bike_id":"e17857ef-9057-4d30-b1e9-4ab6ead4c304","system_id":"levelo_inurba_marseille","lat":43.24654,"lon":5.38904,"is_reserved":false,"is_disabled":true,"rental_uris":{"android":"levelo://app?vid=e17857ef-9057-4d30-b1e9-4ab6ead4c304","ios":"levelo://app?vid=e17857ef-9057-4d30-b1e9-4ab6ead4c304"},"vehicle_type_id":"4","last_reported":1759220121,"current_range_meters":11600,"station_id":"ce4bhg12rcd13ifvqf60","pricing_plan_id":"cebpf4jnsgd1na2vs0mg"},{"bike_id":"8cbcf5e7-b804-4925-bbed-5f57e8580ccf","system_id":"levelo_inurba_marseille","lat":43.31519,"lon":5.36803,"is_reserved":false,"is_disabled":false,"rental_uris":{"android":"levelo://app?vid=8cbcf5e7-b804-4925-bbed-5f57e8580ccf","ios":"levelo://app?vid=8cbcf5e7-b804-4925-bbed-5f57e8580ccf"},"vehicle_type_id":"4","last_reported":1759220121,"current_range_meters":11600,"station_id":"","pricing_plan_id":"cebpf4jnsgd1na2vs0mg"},{"bike_id":"4fcb0f1d-01f2-4136-94b8-b45efaa34c30","system_id":"levelo_inurba_marseille","lat":43.24618,"lon":5.43154,"is_reserved":false,"is_disabled":false,"rental_uris":{"android":"levelo://app?vid=4fcb0f1d-01f2-4136-94b8-b45efaa34c30","ios":"levelo://app?vid=4fcb0f1d-01f2-4136-94b8-b45efaa34c30"},"vehicle_type_id":"4","last_reported":1759220121,"current_range_meters":11600,"station_id":"st_d2m6c4gdas8pm72e190g","pricing_plan_id":"cebpf4jnsgd1na2vs0mg"},{"bike_id":"56d6a008-a903-4bd5-8ee3-1cec5d05c634","system_id":"levelo_inurba_marseille","lat":43.31749,"lon":5.39024,"is_reserved":false,"is_disabled":false,"rental_uris":{"android":"levelo://app?vid=56d6a008-a903-4bd5-8ee3-1cec5d05c634","ios":"levelo://app?vid=56d6a008-a903-4bd5-8ee3-1cec5d05c634"},"vehicle_type_id":"4","last_reported":1759220121,"current_range_meters":11600,"station_id":"ce4bhqp2rcd13ifvqhng","pricing_plan_id":"cebpf4jnsgd1na2vs0mg"},{"bike_id":"38ee16a9-f5a5-48c3-9788-dea945e0c012","system_id":"levelo_inurba_marseille","lat":43.2695,"lon":5.38629,"is_reserved":false,"is_disabled":false,"rental_uris":{"android":"levelo://app?vid=38ee16a9-f5a5-48c3-9788-dea945e0c012","ios":"levelo://app?vid=38ee16a9-f5a5-48c3-9788-dea945e0c012"},"vehicle_type_id":"4","last_reported":1759220121,"current_range_meters":11600,"station_id":"ce4bhh92rcd13ifvqfh0","pricing_plan_id":"cebpf4jnsgd1na2vs0mg"},{"bike_id":"e8259618-1203-4603-a0be-18aab8914e35","system_id":"levelo_inurba_marseille","lat":43.3123,"lon":5.36878,"is_reserved":false,"is_disabled":false,"rental_uris":{"android":"levelo://app?vid=e8259618-1203-4603-a0be-18aab8914e35","ios":"levelo://app?vid=e8259618-1203-4603-a0be-18aab8914e35"},"vehicle_type_id":"4","last_reported":1759220121,"current_range_meters":11600,"station_id":"ce4bgl92rcd13ifvqbq0","pricing_plan_id":"cebpf4jnsgd1na2vs0mg"},{"bike_id":"9040083f-86a7-4196-aef5-d673d487282a","system_id":"levelo_inurba_marseille","lat":43.27506,"lon":5.42444,"is_reserved":false,"is_disabled":false,"rental_uris":{"android":"levelo://app?vid=9040083f-86a7-4196-aef5-d673d487282a","ios":"levelo://app?vid=9040083f-86a7-4196-aef5-d673d487282a"},"vehicle_type_id":"4","last_reported":1759220121,"current_range_meters":12000,"station_id":"ce4bhn92rcd13ifvqgrg","pricing_plan_id":"cebpf4jnsgd1na2vs0mg"},{"bike_id":"96520869-d013-4e0c-a355-f7bbd728ba84","system_id":"levelo_inurba_marseille","lat":43.32344,"lon":5.36728,"is_reserved":false,"is_disabled":false,"rental_uris":{"android":"levelo://app?vid=96520869-d013-4e0c-a355-f7bbd728ba84","ios":"levelo://app?vid=96520869-d013-4e0c-a355-f7bbd728ba84"},"vehicle_type_id":"4","last_reported":1759220121,"current_range_meters":12000,"station_id":"ce4bhsh2rcd13ifvqi2g","pricing_plan_id":"cebpf4jnsgd1na2vs0mg"},{"bike_id":"cca62a4d-6444-46e5-a0db-8969627edea5","system_id":"levelo_inurba_marseille","lat":43.30415,"lon":5.41289,"is_reserved":false,"is_disabled":false,"rental_uris":{"android":"levelo://app?vid=cca62a4d-6444-46e5-a0db-8969627edea5","ios":"levelo://app?vid=cca62a4d-6444-46e5-a0db-8969627edea5"},"vehicle_type_id":"4","last_reported":1759220121,"current_range_meters":12000,"station_id":"ce4bhop2rcd13ifvqh8g","pricing_plan_id":"cebpf4jnsgd1na2vs0mg"},{"bike_id":"7141d5c0-e60c-44f1-bfa8-47000c17aa41","system_id":"levelo_inurba_marseille","lat":43.32047,"lon":5.38117,"is_reserved":false,"is_disabled":false,"rental_uris":{"android":"levelo://app?vid=7141d5c0-e60c-44f1-bfa8-47000c17aa41","ios":"levelo://app?vid=7141d5c0-e60c-44f1-bfa8-47000c17aa41"},"vehicle_type_id":"4","last_reported":1759220121,"current_range_meters":12000,"station_id":"","pricing_plan_id":"cebpf4jnsgd1na2vs0mg"},{"bike_id":"689cea09-828a-45c9-912d-828d07d4467e","system_id":"levelo_inurba_marseille","lat":43.33332,"lon":5.4298,"is_reserved":false,"is_disabled":false,"rental_uris":{"android":"levelo://app?vid=689cea09-828a-45c9-912d-828d07d4467e","ios":"levelo://app?vid=689cea09-828a-45c9-912d-828d07d4467e"},"vehicle_type_id":"4","last_reported":1759220121,"current_range_meters":12000,"station_id":"","pricing_plan_id":"cebpf4jnsgd1na2vs0mg"},{"bike_id":"99ce2063-5dfb-4ed3-a4a6-8fc3a54c4890","system_id":"levelo_inurba_marseille","lat":43.337444,"lon":5.374475,"is_reserved":false,"is_disabled":false,"rental_uris":{"android":"levelo://app?vid=99ce2063-5dfb-4ed3-a4a6-8fc3a54c4890","ios":"levelo://app?vid=99ce2063-5dfb-4ed3-a4a6-8fc3a54c4890"},"vehicle_type_id":"4","last_reported":1759220121,"current_range_meters":12000,"station_id":"","pricing_plan_id":"cebpf4jnsgd1na2vs0mg"},{"bike_id":"878cf6db-2dc4-4f31-be1e-664e4ac45a86","system_id":"levelo_inurba_marseille","lat":43.287221,"lon":5.37942,"is_reserved":false,"is_disabled":false,"rental_uris":{"android":"levelo://app?vid=878cf6db-2dc4-4f31-be1e-664e4ac45a86","ios":"levelo://app?vid=878cf6db-2dc4-4f31-be1e-664e4ac45a86"},"vehicle_type_id":"4","last_reported":1759220121,"current_range_meters":6800,"station_id":"ce4bh9p2rcd13ifvqec0","pricing_plan_id":"cebpf4jnsgd1na2vs0mg"},{"bike_id":"ec95a157-5189-4cd4-a58e-2c4da000143c","system_id":"levelo_inurba_marseille","lat":43.29576,"lon":5.36731,"is_reserved":false,"is_disabled":false,"rental_uris":{"android":"levelo://app?vid=ec95a157-5189-4cd4-a58e-2c4da000143c","ios":"levelo://app?vid=ec95a157-5189-4cd4-a58e-2c4da000143c"},"vehicle_type_id":"4","last_reported":1759220121,"current_range_meters":12000,"station_id":"ce4bgph2rcd13ifvqc2g","pricing_plan_id":"cebpf4jnsgd1na2vs0mg"},{"bike_id":"ea0c3f0b-905f-467b-8a36-823b697d2b6a","system_id":"levelo_inurba_marseille","lat":43.26943,"lon":5.38914,"is_reserved":false,"is_disabled":false,"rental_uris":{"android":"levelo://app?vid=ea0c3f0b-905f-467b-8a36-823b697d2b6a","ios":"levelo://app?vid=ea0c3f0b-905f-467b-8a36-823b697d2b6a"},"vehicle_type_id":"4","last_reported":1759220121,"current_range_meters":12400,"station_id":"ce4bhhh2rcd13ifvqfl0","pricing_plan_id":"cebpf4jnsgd1na2vs0mg"},{"bike_id":"b3921eb0-d0e1-43e7-a089-f2394f700e35","system_id":"levelo_inurba_marseille","lat":43.29022,"lon":5.38142,"is_reserved":false,"is_disabled":false,"rental_uris":{"android":"levelo://app?vid=b3921eb0-d0e1-43e7-a089-f2394f700e35","ios":"levelo://app?vid=b3921eb0-d0e1-43e7-a089-f2394f700e35"},"vehicle_type_id":"4","last_reported":1759220121,"current_range_meters":12400,"station_id":"ce4bh4p2rcd13ifvqe1g","pricing_plan_id":"cebpf4jnsgd1na2vs0mg"},{"bike_id":"f0fc9946-fee3-4526-afcc-98a409b61897","system_id":"levelo_inurba_marseille","lat":43.30907,"lon":5.36854,"is_reserved":false,"is_disabled":false,"rental_uris":{"android":"levelo://app?vid=f0fc9946-fee3-4526-afcc-98a409b61897","ios":"levelo://app?vid=f0fc9946-fee3-4526-afcc-98a409b61897"},"vehicle_type_id":"4","last_reported":1759220121,"current_range_meters":12400,"station_id":"ce4bgn92rcd13ifvqbvg","pricing_plan_id":"cebpf4jnsgd1na2vs0mg"},{"bike_id":"17f6ea02-4f88-4e92-a094-db7e52403b32","system_id":"levelo_inurba_marseille","lat":43.34141,"lon":5.40905,"is_reserved":false,"is_disabled":false,"rental_uris":{"android":"levelo://app?vid=17f6ea02-4f88-4e92-a094-db7e52403b32","ios":"levelo://app?vid=17f6ea02-4f88-4e92-a094-db7e52403b32"},"vehicle_type_id":"4","last_reported":1759220121,"current_range_meters":12400,"station_id":"ce4bhqh2rcd13ifvqhlg","pricing_plan_id":"cebpf4jnsgd1na2vs0mg"},{"bike_id":"53b3fcd5-7331-4c94-9af2-fd89cba52e85","system_id":"levelo_inurba_marseille","lat":43.34154,"lon":5.40882,"is_reserved":false,"is_disabled":false,"rental_uris":{"android":"levelo://app?vid=53b3fcd5-7331-4c94-9af2-fd89cba52e85","ios":"levelo://app?vid=53b3fcd5-7331-4c94-9af2-fd89cba52e85"},"vehicle_type_id":"4","last_reported":1759220121,"current_range_meters":12400,"station_id":"ce4bhqh2rcd13ifvqhlg","pricing_plan_id":"cebpf4jnsgd1na2vs0mg"},{"bike_id":"738a51a6-02d0-4def-8f3f-9c82f6a6dd05","system_id":"levelo_inurba_marseille","lat":43.32339,"lon":5.367,"is_reserved":false,"is_disabled":false,"rental_uris":{"android":"levelo://app?vid=738a51a6-02d0-4def-8f3f-9c82f6a6dd05","ios":"levelo://app?vid=738a51a6-02d0-4def-8f3f-9c82f6a6dd05"},"vehicle_type_id":"4","last_reported":1759220121,"current_range_meters":12400,"station_id":"","pricing_plan_id":"cebpf4jnsgd1na2vs0mg"},{"bike_id":"56ca0258-bee9-4eb2-b3c5-63b5cd0b9e67","system_id":"levelo_inurba_marseille","lat":43.33737,"lon":5.37445,"is_reserved":false,"is_disabled":false,"rental_uris":{"android":"levelo://app?vid=56ca0258-bee9-4eb2-b3c5-63b5cd0b9e67","ios":"levelo://app?vid=56ca0258-bee9-4eb2-b3c5-63b5cd0b9e67"},"vehicle_type_id":"4","last_reported":1759220121,"current_range_meters":12400,"station_id":"","pricing_plan_id":"cebpf4jnsgd1na2vs0mg"},{"bike_id":"92662833-c6ac-4b02-b7df-1638b54b1972","system_id":"levelo_inurba_marseille","lat":43.33742,"lon":5.37449,"is_reserved":false,"is_disabled":false,"rental_uris":{"android":"levelo://app?vid=92662833-c6ac-4b02-b7df-1638b54b1972","ios":"levelo://app?vid=92662833-c6ac-4b02-b7df-1638b54b1972"},"vehicle_type_id":"4","last_reported":1759220121,"current_range_meters":12400,"station_id":"","pricing_plan_id":"cebpf4jnsgd1na2vs0mg"},{"bike_id":"f8d78e5f-60e1-4623-939f-49e76ff16505","system_id":"levelo_inurba_marseille","lat":43.33742,"lon":5.37448,"is_reserved":false,"is_disabled":false,"rental_uris":{"android":"levelo://app?vid=f8d78e5f-60e1-4623-939f-49e76ff16505","ios":"levelo://app?vid=f8d78e5f-60e1-4623-939f-49e76ff16505"},"vehicle_type_id":"4","last_reported":1759220121,"current_range_meters":12400,"station_id":"","pricing_plan_id":"cebpf4jnsgd1na2vs0mg"},{"bike_id":"f44df0c8-3c0a-4103-982e-900169d96e81","system_id":"levelo_inurba_marseille","lat":43.32003,"lon":5.36784,"is_reserved":false,"is_disabled":false,"rental_uris":{"android":"levelo://app?vid=f44df0c8-3c0a-4103-982e-900169d96e81","ios":"levelo://app?vid=f44df0c8-3c0a-4103-982e-900169d96e81"},"vehicle_type_id":"4","last_reported":1759220121,"current_range_meters":12800,"station_id":"","pricing_plan_id":"cebpf4jnsgd1na2vs0mg"},{"bike_id":"13604148-437a-4148-9ed9-019ca4e03ec3","system_id":"levelo_inurba_marseille","lat":43.24637,"lon":5.43141,"is_reserved":false,"is_disabled":false,"rental_uris":{"android":"levelo://app?vid=13604148-437a-4148-9ed9-019ca4e03ec3","ios":"levelo://app?vid=13604148-437a-4148-9ed9-019ca4e03ec3"},"vehicle_type_id":"4","last_reported":1759220121,"current_range_meters":12800,"station_id":"st_d2m6c4gdas8pm72e190g","pricing_plan_id":"cebpf4jnsgd1na2vs0mg"},{"bike_id":"2662ede6-d16a-46cd-bcd9-36fbc909ccdd","system_id":"levelo_inurba_marseille","lat":43.27077,"lon":5.42261,"is_reserved":false,"is_disabled":false,"rental_uris":{"android":"levelo://app?vid=2662ede6-d16a-46cd-bcd9-36fbc909ccdd","ios":"levelo://app?vid=2662ede6-d16a-46cd-bcd9-36fbc909ccdd"},"vehicle_type_id":"4","last_reported":1759220121,"current_range_meters":12800,"station_id":"ce4bhk92rcd13ifvqgb0","pricing_plan_id":"cebpf4jnsgd1na2vs0mg"},{"bike_id":"fbab43d0-89c0-4bd5-a13f-bfb4cf8b4fff","system_id":"levelo_inurba_marseille","lat":43.3361,"lon":5.41031,"is_reserved":false,"is_disabled":false,"rental_uris":{"android":"levelo://app?vid=fbab43d0-89c0-4bd5-a13f-bfb4cf8b4fff","ios":"levelo://app?vid=fbab43d0-89c0-4bd5-a13f-bfb4cf8b4fff"},"vehicle_type_id":"4","last_reported":1759220121,"current_range_meters":12800,"station_id":"ce4bhqh2rcd13ifvqhmg","pricing_plan_id":"cebpf4jnsgd1na2vs0mg"},{"bike_id":"0aba4fe3-5dca-4d79-8b9d-2fc77d6e7d70","system_id":"levelo_inurba_marseille","lat":43.28418,"lon":5.349815,"is_reserved":false,"is_disabled":false,"rental_uris":{"android":"levelo://app?vid=0aba4fe3-5dca-4d79-8b9d-2fc77d6e7d70","ios":"levelo://app?vid=0aba4fe3-5dca-4d79-8b9d-2fc77d6e7d70"},"vehicle_type_id":"4","last_reported":1759220121,"current_range_meters":13600,"station_id":"","pricing_plan_id":"cebpf4jnsgd1na2vs0mg"},{"bike_id":"1fe9f341-3892-4b86-b7cc-35780bf305e0","system_id":"levelo_inurba_marseille","lat":43.24078,"lon":5.37754,"is_reserved":false,"is_disabled":false,"rental_uris":{"android":"levelo://app?vid=1fe9f341-3892-4b86-b7cc-35780bf305e0","ios":"levelo://app?vid=1fe9f341-3892-4b86-b7cc-35780bf305e0"},"vehicle_type_id":"4","last_reported":1759220121,"current_range_meters":13600,"station_id":"","pricing_plan_id":"cebpf4jnsgd1na2vs0mg"},{"bike_id":"b90250a2-2223-41d1-9d54-47df7d26239c","system_id":"levelo_inurba_marseille","lat":43.28082,"lon":5.39654,"is_reserved":false,"is_disabled":false,"rental_uris":{"android":"levelo://app?vid=b90250a2-2223-41d1-9d54-47df7d26239c","ios":"levelo://app?vid=b90250a2-2223-41d1-9d54-47df7d26239c"},"vehicle_type_id":"4","last_reported":1759220121,"current_range_meters":13600,"station_id":"ce4bho12rcd13ifvqh2g","pricing_plan_id":"cebpf4jnsgd1na2vs0mg"},{"bike_id":"132bde58-9571-4164-be37-984678471a24","system_id":"levelo_inurba_marseille","lat":43.2971,"lon":5.36612,"is_reserved":false,"is_disabled":false,"rental_uris":{"android":"levelo://app?vid=132bde58-9571-4164-be37-984678471a24","ios":"levelo://app?vid=132bde58-9571-4164-be37-984678471a24"},"vehicle_type_id":"4","last_reported":1759220121,"current_range_meters":13600,"station_id":"ce4bgn12rcd13ifvqbt0","pricing_plan_id":"cebpf4jnsgd1na2vs0mg"},{"bike_id":"c4eb1c89-dc1f-4ae4-b68c-0a9f98b1b4b3","system_id":"levelo_inurba_marseille","lat":43.24625,"lon":5.43152,"is_reserved":false,"is_disabled":false,"rental_uris":{"android":"levelo://app?vid=c4eb1c89-dc1f-4ae4-b68c-0a9f98b1b4b3","ios":"levelo://app?vid=c4eb1c89-dc1f-4ae4-b68c-0a9f98b1b4b3"},"vehicle_type_id":"4","last_reported":1759220121,"current_range_meters":14000,"station_id":"st_d2m6c4gdas8pm72e190g","pricing_plan_id":"cebpf4jnsgd1na2vs0mg"},{"bike_id":"8c889c5e-dbff-42f9-9e9a-56a3d0500fe9","system_id":"levelo_inurba_marseille","lat":43.30303,"lon":5.36985,"is_reserved":false,"is_disabled":false,"rental_uris":{"android":"levelo://app?vid=8c889c5e-dbff-42f9-9e9a-56a3d0500fe9","ios":"levelo://app?vid=8c889c5e-dbff-42f9-9e9a-56a3d0500fe9"},"vehicle_type_id":"4","last_reported":1759220121,"current_range_meters":14000,"station_id":"","pricing_plan_id":"cebpf4jnsgd1na2vs0mg"},{"bike_id":"d2f46c9e-a53c-42a7-ad54-fd7c896f4565","system_id":"levelo_inurba_marseille","lat":43.33797,"lon":5.37428,"is_reserved":false,"is_disabled":false,"rental_uris":{"android":"levelo://app?vid=d2f46c9e-a53c-42a7-ad54-fd7c896f4565","ios":"levelo://app?vid=d2f46c9e-a53c-42a7-ad54-fd7c896f4565"},"vehicle_type_id":"4","last_reported":1759220121,"current_range_meters":14000,"station_id":"","pricing_plan_id":"cebpf4jnsgd1na2vs0mg"},{"bike_id":"5f8245c1-d6d3-4e20-af8e-6d792fdc04ce","system_id":"levelo_inurba_marseille","lat":43.29848,"lon":5.45603,"is_reserved":false,"is_disabled":false,"rental_uris":{"android":"levelo://app?vid=5f8245c1-d6d3-4e20-af8e-6d792fdc04ce","ios":"levelo://app?vid=5f8245c1-d6d3-4e20-af8e-6d792fdc04ce"},"vehicle_type_id":"4","last_reported":1759220121,"current_range_meters":14400,"station_id":"","pricing_plan_id":"cebpf4jnsgd1na2vs0mg"},{"bike_id":"c144839f-c072-4baa-82ff-86defb47334d","system_id":"levelo_inurba_marseille","lat":43.2732,"lon":5.39079,"is_reserved":false,"is_disabled":false,"rental_uris":{"android":"levelo://app?vid=c144839f-c072-4baa-82ff-86defb47334d","ios":"levelo://app?vid=c144839f-c072-4baa-82ff-86defb47334d"},"vehicle_type_id":"4","last_reported":1759220121,"current_range_meters":14400,"station_id":"ce4bhgp2rcd13ifvqfe0","pricing_plan_id":"cebpf4jnsgd1na2vs0mg"},{"bike_id":"077fdad2-bc96-4cb9-b762-f58800ae1015","system_id":"levelo_inurba_marseille","lat":43.2926,"lon":5.37619,"is_reserved":false,"is_disabled":false,"rental_uris":{"android":"levelo://app?vid=077fdad2-bc96-4cb9-b762-f58800ae1015","ios":"levelo://app?vid=077fdad2-bc96-4cb9-b762-f58800ae1015"},"vehicle_type_id":"4","last_reported":1759220121,"current_range_meters":14400,"station_id":"ce4bgi12rcd13ifvqb80","pricing_plan_id":"cebpf4jnsgd1na2vs0mg"},{"bike_id":"b05bf4d8-ef28-432e-8e85-0ff23615dbf5","system_id":"levelo_inurba_marseille","lat":43.296845,"lon":5.372842,"is_reserved":false,"is_disabled":false,"rental_uris":{"android":"levelo://app?vid=b05bf4d8-ef28-432e-8e85-0ff23615dbf5","ios":"levelo://app?vid=b05bf4d8-ef28-432e-8e85-0ff23615dbf5"},"vehicle_type_id":"4","last_reported":1759220121,"current_range_meters":14000,"station_id":"ce4bgk12rcd13ifvqbj0","pricing_plan_id":"cebpf4jnsgd1na2vs0mg"},{"bike_id":"9559e7fe-91a1-4ac0-a7d8-40fd3c5db739","system_id":"levelo_inurba_marseille","lat":43.33781,"lon":5.37421,"is_reserved":false,"is_disabled":false,"rental_uris":{"android":"levelo://app?vid=9559e7fe-91a1-4ac0-a7d8-40fd3c5db739","ios":"levelo://app?vid=9559e7fe-91a1-4ac0-a7d8-40fd3c5db739"},"vehicle_type_id":"4","last_reported":1759220121,"current_range_meters":14800,"station_id":"","pricing_plan_id":"cebpf4jnsgd1na2vs0mg"},{"bike_id":"2ab535df-4c2c-40d8-af4f-189047a67c11","system_id":"levelo_inurba_marseille","lat":43.24645,"lon":5.43143,"is_reserved":false,"is_disabled":false,"rental_uris":{"android":"levelo://app?vid=2ab535df-4c2c-40d8-af4f-189047a67c11","ios":"levelo://app?vid=2ab535df-4c2c-40d8-af4f-189047a67c11"},"vehicle_type_id":"4","last_reported":1759220121,"current_range_meters":14800,"station_id":"st_d2m6c4gdas8pm72e190g","pricing_plan_id":"cebpf4jnsgd1na2vs0mg"},{"bike_id":"d114139c-60d0-4459-ba3b-cac62be00268","system_id":"levelo_inurba_marseille","lat":43.3017,"lon":5.37388,"is_reserved":false,"is_disabled":true,"rental_uris":{"android":"levelo://app?vid=d114139c-60d0-4459-ba3b-cac62be00268","ios":"levelo://app?vid=d114139c-60d0-4459-ba3b-cac62be00268"},"vehicle_type_id":"4","last_reported":1759220121,"current_range_meters":14800,"station_id":"ce4bgs92rcd13ifvqcc0","pricing_plan_id":"cebpf4jnsgd1na2vs0mg"},{"bike_id":"a8205022-661b-4b9f-b567-3fd2d923e9c8","system_id":"levelo_inurba_marseille","lat":43.32284,"lon":5.38275,"is_reserved":false,"is_disabled":false,"rental_uris":{"android":"levelo://app?vid=a8205022-661b-4b9f-b567-3fd2d923e9c8","ios":"levelo://app?vid=a8205022-661b-4b9f-b567-3fd2d923e9c8"},"vehicle_type_id":"4","last_reported":1759220121,"current_range_meters":14800,"station_id":"ce4bhr12rcd13ifvqhqg","pricing_plan_id":"cebpf4jnsgd1na2vs0mg"},{"bike_id":"ab6dd3e4-a3ee-4b70-b553-35f57dd019f5","system_id":"levelo_inurba_marseille","lat":43.26691,"lon":5.38249,"is_reserved":false,"is_disabled":false,"rental_uris":{"android":"levelo://app?vid=ab6dd3e4-a3ee-4b70-b553-35f57dd019f5","ios":"levelo://app?vid=ab6dd3e4-a3ee-4b70-b553-35f57dd019f5"},"vehicle_type_id":"4","last_reported":1759220121,"current_range_meters":14800,"station_id":"ce4bhg92rcd13ifvqf90","pricing_plan_id":"cebpf4jnsgd1na2vs0mg"},{"bike_id":"63aa2455-2da3-4e9c-9e4e-54ed059c09ac","system_id":"levelo_inurba_marseille","lat":43.31675,"lon":5.38969,"is_reserved":false,"is_disabled":false,"rental_uris":{"android":"levelo://app?vid=63aa2455-2da3-4e9c-9e4e-54ed059c09ac","ios":"levelo://app?vid=63aa2455-2da3-4e9c-9e4e-54ed059c09ac"},"vehicle_type_id":"4","last_reported":1759220121,"current_range_meters":14800,"station_id":"","pricing_plan_id":"cebpf4jnsgd1na2vs0mg"},{"bike_id":"adfbe18b-7ca7-424a-9090-23d85cce22c6","system_id":"levelo_inurba_marseille","lat":43.30044,"lon":5.40934,"is_reserved":false,"is_disabled":false,"rental_uris":{"android":"levelo://app?vid=adfbe18b-7ca7-424a-9090-23d85cce22c6","ios":"levelo://app?vid=adfbe18b-7ca7-424a-9090-23d85cce22c6"},"vehicle_type_id":"4","last_reported":1759220121,"current_range_meters":15200,"station_id":"","pricing_plan_id":"cebpf4jnsgd1na2vs0mg"},{"bike_id":"cd9c0dcf-ceaa-453d-b0ed-70cfeebc6f40","system_id":"levelo_inurba_marseille","lat":43.28487,"lon":5.38418,"is_reserved":false,"is_disabled":false,"rental_uris":{"android":"levelo://app?vid=cd9c0dcf-ceaa-453d-b0ed-70cfeebc6f40","ios":"levelo://app?vid=cd9c0dcf-ceaa-453d-b0ed-70cfeebc6f40"},"vehicle_type_id":"4","last_reported":1759220121,"current_range_meters":15200,"station_id":"ce4bh512rcd13ifvqe3g","pricing_plan_id":"cebpf4jnsgd1na2vs0mg"},{"bike_id":"a2345421-f757-4dd9-8997-9f9d9f4d6895","system_id":"levelo_inurba_marseille","lat":43.29528,"lon":5.37507,"is_reserved":false,"is_disabled":false,"rental_uris":{"android":"levelo://app?vid=a2345421-f757-4dd9-8997-9f9d9f4d6895","ios":"levelo://app?vid=a2345421-f757-4dd9-8997-9f9d9f4d6895"},"vehicle_type_id":"4","last_reported":1759220121,"current_range_meters":15200,"station_id":"ce4bgkp2rcd13ifvqbmg","pricing_plan_id":"cebpf4jnsgd1na2vs0mg"},{"bike_id":"1d77b7d7-6c50-47ce-a252-2a4011bccda7","system_id":"levelo_inurba_marseille","lat":43.25947,"lon":5.41381,"is_reserved":false,"is_disabled":false,"rental_uris":{"android":"levelo://app?vid=1d77b7d7-6c50-47ce-a252-2a4011bccda7","ios":"levelo://app?vid=1d77b7d7-6c50-47ce-a252-2a4011bccda7"},"vehicle_type_id":"4","last_reported":1759220121,"current_range_meters":15200,"station_id":"","pricing_plan_id":"cebpf4jnsgd1na2vs0mg"},{"bike_id":"b786a65e-cc7d-46e0-ac10-791d46eecb32","system_id":"levelo_inurba_marseille","lat":43.29935,"lon":5.36543,"is_reserved":false,"is_disabled":false,"rental_uris":{"android":"levelo://app?vid=b786a65e-cc7d-46e0-ac10-791d46eecb32","ios":"levelo://app?vid=b786a65e-cc7d-46e0-ac10-791d46eecb32"},"vehicle_type_id":"4","last_reported":1759220121,"current_range_meters":15200,"station_id":"ce4bgm92rcd13ifvqbr0","pricing_plan_id":"cebpf4jnsgd1na2vs0mg"},{"bike_id":"44631c7d-87d1-44be-96c2-2a43e54fa7d0","system_id":"levelo_inurba_marseille","lat":43.26196,"lon":5.37451,"is_reserved":false,"is_disabled":false,"rental_uris":{"android":"levelo://app?vid=44631c7d-87d1-44be-96c2-2a43e54fa7d0","ios":"levelo://app?vid=44631c7d-87d1-44be-96c2-2a43e54fa7d0"},"vehicle_type_id":"4","last_reported":1759220121,"current_range_meters":15200,"station_id":"ce4bhgp2rcd13ifvqfc0","pricing_plan_id":"cebpf4jnsgd1na2vs0mg"},{"bike_id":"3eda7b7d-d1d4-4544-ac74-4e2dbf47acf1","system_id":"levelo_inurba_marseille","lat":43.30137,"lon":5.3741,"is_reserved":false,"is_disabled":false,"rental_uris":{"android":"levelo://app?vid=3eda7b7d-d1d4-4544-ac74-4e2dbf47acf1","ios":"levelo://app?vid=3eda7b7d-d1d4-4544-ac74-4e2dbf47acf1"},"vehicle_type_id":"4","last_reported":1759220121,"current_range_meters":15200,"station_id":"ce4bgs92rcd13ifvqcc0","pricing_plan_id":"cebpf4jnsgd1na2vs0mg"},{"bike_id":"11acad3d-b798-4c25-a044-c3c54677d114","system_id":"levelo_inurba_marseille","lat":43.28613,"lon":5.351,"is_reserved":false,"is_disabled":false,"rental_uris":{"android":"levelo://app?vid=11acad3d-b798-4c25-a044-c3c54677d114","ios":"levelo://app?vid=11acad3d-b798-4c25-a044-c3c54677d114"},"vehicle_type_id":"4","last_reported":1759220121,"current_range_meters":16000,"station_id":"ce4bhch2rcd13ifvqeug","pricing_plan_id":"cebpf4jnsgd1na2vs0mg"},{"bike_id":"d3626de2-8599-4d6e-9423-051de6f3e78a","system_id":"levelo_inurba_marseille","lat":43.29533,"lon":5.38537,"is_reserved":false,"is_disabled":true,"rental_uris":{"android":"levelo://app?vid=d3626de2-8599-4d6e-9423-051de6f3e78a","ios":"levelo://app?vid=d3626de2-8599-4d6e-9423-051de6f3e78a"},"vehicle_type_id":"4","last_reported":1759220121,"current_range_meters":16000,"station_id":"ce4bgih2rcd13ifvqba0","pricing_plan_id":"cebpf4jnsgd1na2vs0mg"},{"bike_id":"f752559e-e357-41d0-b0e1-06afd32411be","system_id":"levelo_inurba_marseille","lat":43.27468,"lon":5.40777,"is_reserved":false,"is_disabled":false,"rental_uris":{"android":"levelo://app?vid=f752559e-e357-41d0-b0e1-06afd32411be","ios":"levelo://app?vid=f752559e-e357-41d0-b0e1-06afd32411be"},"vehicle_type_id":"4","last_reported":1759220121,"current_range_meters":16000,"station_id":"","pricing_plan_id":"cebpf4jnsgd1na2vs0mg"},{"bike_id":"4af1d5bb-a9e5-4951-b092-9d4808ab32d2","system_id":"levelo_inurba_marseille","lat":43.34137,"lon":5.40888,"is_reserved":false,"is_disabled":false,"rental_uris":{"android":"levelo://app?vid=4af1d5bb-a9e5-4951-b092-9d4808ab32d2","ios":"levelo://app?vid=4af1d5bb-a9e5-4951-b092-9d4808ab32d2"},"vehicle_type_id":"4","last_reported":1759220121,"current_range_meters":15200,"station_id":"ce4bhqh2rcd13ifvqhlg","pricing_plan_id":"cebpf4jnsgd1na2vs0mg"},{"bike_id":"84f305ce-7cfe-45d4-9172-1384fd3180f3","system_id":"levelo_inurba_marseille","lat":43.229218,"lon":5.353853,"is_reserved":false,"is_disabled":false,"rental_uris":{"android":"levelo://app?vid=84f305ce-7cfe-45d4-9172-1384fd3180f3","ios":"levelo://app?vid=84f305ce-7cfe-45d4-9172-1384fd3180f3"},"vehicle_type_id":"4","last_reported":1759220121,"current_range_meters":16000,"station_id":"cpo3532slgdg3j2ikp40","pricing_plan_id":"cebpf4jnsgd1na2vs0mg"},{"bike_id":"70658e6a-f5ca-4a41-8202-2ffcadbc4766","system_id":"levelo_inurba_marseille","lat":43.30144,"lon":5.3742,"is_reserved":false,"is_disabled":false,"rental_uris":{"android":"levelo://app?vid=70658e6a-f5ca-4a41-8202-2ffcadbc4766","ios":"levelo://app?vid=70658e6a-f5ca-4a41-8202-2ffcadbc4766"},"vehicle_type_id":"4","last_reported":1759220121,"current_range_meters":16400,"station_id":"ce4bgs92rcd13ifvqcc0","pricing_plan_id":"cebpf4jnsgd1na2vs0mg"},{"bike_id":"694a3a5f-723f-47f1-a73b-869220cc5d4c","system_id":"levelo_inurba_marseille","lat":43.27057,"lon":5.42271,"is_reserved":false,"is_disabled":false,"rental_uris":{"android":"levelo://app?vid=694a3a5f-723f-47f1-a73b-869220cc5d4c","ios":"levelo://app?vid=694a3a5f-723f-47f1-a73b-869220cc5d4c"},"vehicle_type_id":"4","last_reported":1759220121,"current_range_meters":16400,"station_id":"ce4bhk92rcd13ifvqgb0","pricing_plan_id":"cebpf4jnsgd1na2vs0mg"},{"bike_id":"a850760d-f890-4818-860e-321d70e97b11","system_id":"levelo_inurba_marseille","lat":43.3235,"lon":5.3675,"is_reserved":false,"is_disabled":false,"rental_uris":{"android":"levelo://app?vid=a850760d-f890-4818-860e-321d70e97b11","ios":"levelo://app?vid=a850760d-f890-4818-860e-321d70e97b11"},"vehicle_type_id":"4","last_reported":1759220121,"current_range_meters":16400,"station_id":"ce4bhsh2rcd13ifvqi2g","pricing_plan_id":"cebpf4jnsgd1na2vs0mg"},{"bike_id":"b77c95f6-2a58-4a7d-9199-551770745178","system_id":"levelo_inurba_marseille","lat":43.33611,"lon":5.41033,"is_reserved":false,"is_disabled":false,"rental_uris":{"android":"levelo://app?vid=b77c95f6-2a58-4a7d-9199-551770745178","ios":"levelo://app?vid=b77c95f6-2a58-4a7d-9199-551770745178"},"vehicle_type_id":"4","last_reported":1759220121,"current_range_meters":16400,"station_id":"ce4bhqh2rcd13ifvqhmg","pricing_plan_id":"cebpf4jnsgd1na2vs0mg"},{"bike_id":"30cbf9c0-d8c9-49e3-afe2-ea0d70b63a10","system_id":"levelo_inurba_marseille","lat":43.28369,"lon":5.38627,"is_reserved":false,"is_disabled":true,"rental_uris":{"android":"levelo://app?vid=30cbf9c0-d8c9-49e3-afe2-ea0d70b63a10","ios":"levelo://app?vid=30cbf9c0-d8c9-49e3-afe2-ea0d70b63a10"},"vehicle_type_id":"4","last_reported":1759220121,"current_range_meters":16400,"station_id":"ce4bh492rcd13ifvqdvg","pricing_plan_id":"cebpf4jnsgd1na2vs0mg"},{"bike_id":"cb8737f5-9915-4005-98ee-fd2aa1c38d9f","system_id":"levelo_inurba_marseille","lat":43.28409,"lon":5.35007,"is_reserved":false,"is_disabled":false,"rental_uris":{"android":"levelo://app?vid=cb8737f5-9915-4005-98ee-fd2aa1c38d9f","ios":"levelo://app?vid=cb8737f5-9915-4005-98ee-fd2aa1c38d9f"},"vehicle_type_id":"4","last_reported":1759220121,"current_range_meters":16400,"station_id":"ce4bhbh2rcd13ifvqepg","pricing_plan_id":"cebpf4jnsgd1na2vs0mg"},{"bike_id":"627f0009-c086-4f8a-8406-c08f3975bb85","system_id":"levelo_inurba_marseille","lat":43.337914,"lon":5.374267,"is_reserved":false,"is_disabled":false,"rental_uris":{"android":"levelo://app?vid=627f0009-c086-4f8a-8406-c08f3975bb85","ios":"levelo://app?vid=627f0009-c086-4f8a-8406-c08f3975bb85"},"vehicle_type_id":"4","last_reported":1759220121,"current_range_meters":16400,"station_id":"","pricing_plan_id":"cebpf4jnsgd1na2vs0mg"},{"bike_id":"3db18104-2a96-4c78-b0f7-32c7d28d0752","system_id":"levelo_inurba_marseille","lat":43.25595,"lon":5.38235,"is_reserved":false,"is_disabled":false,"rental_uris":{"android":"levelo://app?vid=3db18104-2a96-4c78-b0f7-32c7d28d0752","ios":"levelo://app?vid=3db18104-2a96-4c78-b0f7-32c7d28d0752"},"vehicle_type_id":"4","last_reported":1759220121,"current_range_meters":16800,"station_id":"ce4bhih2rcd13ifvqfs0","pricing_plan_id":"cebpf4jnsgd1na2vs0mg"},{"bike_id":"32f010fa-eab7-48a0-9a31-7ce90cfe3f75","system_id":"levelo_inurba_marseille","lat":43.293605,"lon":5.374428,"is_reserved":false,"is_disabled":false,"rental_uris":{"android":"levelo://app?vid=32f010fa-eab7-48a0-9a31-7ce90cfe3f75","ios":"levelo://app?vid=32f010fa-eab7-48a0-9a31-7ce90cfe3f75"},"vehicle_type_id":"4","last_reported":1759220121,"current_range_meters":16800,"station_id":"","pricing_plan_id":"cebpf4jnsgd1na2vs0mg"},{"bike_id":"7cd433e0-4dc5-4dcb-a5c6-f17936bd4cb6","system_id":"levelo_inurba_marseille","lat":43.31546,"lon":5.40323,"is_reserved":false,"is_disabled":false,"rental_uris":{"android":"levelo://app?vid=7cd433e0-4dc5-4dcb-a5c6-f17936bd4cb6","ios":"levelo://app?vid=7cd433e0-4dc5-4dcb-a5c6-f17936bd4cb6"},"vehicle_type_id":"4","last_reported":1759220121,"current_range_meters":16800,"station_id":"","pricing_plan_id":"cebpf4jnsgd1na2vs0mg"},{"bike_id":"c55252ec-7f47-4422-a863-351e2af0586d","system_id":"levelo_inurba_marseille","lat":43.24057,"lon":5.37764,"is_reserved":false,"is_disabled":false,"rental_uris":{"android":"levelo://app?vid=c55252ec-7f47-4422-a863-351e2af0586d","ios":"levelo://app?vid=c55252ec-7f47-4422-a863-351e2af0586d"},"vehicle_type_id":"4","last_reported":1759220121,"current_range_meters":16800,"station_id":"ce4bhnp2rcd13ifvqgvg","pricing_plan_id":"cebpf4jnsgd1na2vs0mg"},{"bike_id":"617dca4b-4508-4d52-9e62-d583d919ac44","system_id":"levelo_inurba_marseille","lat":43.29753,"lon":5.37101,"is_reserved":false,"is_disabled":false,"rental_uris":{"android":"levelo://app?vid=617dca4b-4508-4d52-9e62-d583d919ac44","ios":"levelo://app?vid=617dca4b-4508-4d52-9e62-d583d919ac44"},"vehicle_type_id":"4","last_reported":1759220121,"current_range_meters":16800,"station_id":"ce4bgop2rcd13ifvqc1g","pricing_plan_id":"cebpf4jnsgd1na2vs0mg"},{"bike_id":"8529f32e-2b7c-4b03-9b67-3802b1b158ab","system_id":"levelo_inurba_marseille","lat":43.3138,"lon":5.36679,"is_reserved":false,"is_disabled":false,"rental_uris":{"android":"levelo://app?vid=8529f32e-2b7c-4b03-9b67-3802b1b158ab","ios":"levelo://app?vid=8529f32e-2b7c-4b03-9b67-3802b1b158ab"},"vehicle_type_id":"4","last_reported":1759220121,"current_range_meters":16800,"station_id":"","pricing_plan_id":"cebpf4jnsgd1na2vs0mg"},{"bike_id":"2b993201-32c3-415f-a73f-a532aaf741f7","system_id":"levelo_inurba_marseille","lat":43.29837,"lon":5.36268,"is_reserved":false,"is_disabled":false,"rental_uris":{"android":"levelo://app?vid=2b993201-32c3-415f-a73f-a532aaf741f7","ios":"levelo://app?vid=2b993201-32c3-415f-a73f-a532aaf741f7"},"vehicle_type_id":"4","last_reported":1759220121,"current_range_meters":16800,"station_id":"ce4bgpp2rcd13ifvqc3g","pricing_plan_id":"cebpf4jnsgd1na2vs0mg"},{"bike_id":"7da91ef0-c6fc-49ea-9ccf-8bafe425acd2","system_id":"levelo_inurba_marseille","lat":43.33605,"lon":5.41015,"is_reserved":false,"is_disabled":false,"rental_uris":{"android":"levelo://app?vid=7da91ef0-c6fc-49ea-9ccf-8bafe425acd2","ios":"levelo://app?vid=7da91ef0-c6fc-49ea-9ccf-8bafe425acd2"},"vehicle_type_id":"4","last_reported":1759220121,"current_range_meters":17200,"station_id":"ce4bhqh2rcd13ifvqhmg","pricing_plan_id":"cebpf4jnsgd1na2vs0mg"},{"bike_id":"de465f74-b2e1-47fa-8954-0564a43f223d","system_id":"levelo_inurba_marseille","lat":43.32527,"lon":5.41443,"is_reserved":false,"is_disabled":false,"rental_uris":{"android":"levelo://app?vid=de465f74-b2e1-47fa-8954-0564a43f223d","ios":"levelo://app?vid=de465f74-b2e1-47fa-8954-0564a43f223d"},"vehicle_type_id":"4","last_reported":1759220121,"current_range_meters":17200,"station_id":"ce4bhq12rcd13ifvqhhg","pricing_plan_id":"cebpf4jnsgd1na2vs0mg"},{"bike_id":"f9123536-66b6-4d6e-a473-094539ffdf2f","system_id":"levelo_inurba_marseille","lat":43.31219,"lon":5.36856,"is_reserved":false,"is_disabled":false,"rental_uris":{"android":"levelo://app?vid=f9123536-66b6-4d6e-a473-094539ffdf2f","ios":"levelo://app?vid=f9123536-66b6-4d6e-a473-094539ffdf2f"},"vehicle_type_id":"4","last_reported":1759220121,"current_range_meters":17200,"station_id":"ce4bgl92rcd13ifvqbq0","pricing_plan_id":"cebpf4jnsgd1na2vs0mg"},{"bike_id":"c4794150-c48e-4574-bc1e-ec2ce7e6d984","system_id":"levelo_inurba_marseille","lat":43.299668,"lon":5.384899,"is_reserved":false,"is_disabled":false,"rental_uris":{"android":"levelo://app?vid=c4794150-c48e-4574-bc1e-ec2ce7e6d984","ios":"levelo://app?vid=c4794150-c48e-4574-bc1e-ec2ce7e6d984"},"vehicle_type_id":"4","last_reported":1759220121,"current_range_meters":17200,"station_id":"ce4bgj92rcd13ifvqbd0","pricing_plan_id":"cebpf4jnsgd1na2vs0mg"},{"bike_id":"cfb1ef01-ed0e-413c-bb09-20e6d021e251","system_id":"levelo_inurba_marseille","lat":43.32532,"lon":5.41437,"is_reserved":false,"is_disabled":false,"rental_uris":{"android":"levelo://app?vid=cfb1ef01-ed0e-413c-bb09-20e6d021e251","ios":"levelo://app?vid=cfb1ef01-ed0e-413c-bb09-20e6d021e251"},"vehicle_type_id":"4","last_reported":1759220121,"current_range_meters":17200,"station_id":"ce4bhq12rcd13ifvqhhg","pricing_plan_id":"cebpf4jnsgd1na2vs0mg"},{"bike_id":"9259d079-29af-4c38-99e0-f25e4d514b98","system_id":"levelo_inurba_marseille","lat":43.25937,"lon":5.40892,"is_reserved":false,"is_disabled":false,"rental_uris":{"android":"levelo://app?vid=9259d079-29af-4c38-99e0-f25e4d514b98","ios":"levelo://app?vid=9259d079-29af-4c38-99e0-f25e4d514b98"},"vehicle_type_id":"4","last_reported":1759220121,"current_range_meters":17200,"station_id":"ce4bhm92rcd13ifvqglg","pricing_plan_id":"cebpf4jnsgd1na2vs0mg"},{"bike_id":"fc96277e-6453-4bb0-af0e-c53026f29778","system_id":"levelo_inurba_marseille","lat":43.28538,"lon":5.38413,"is_reserved":false,"is_disabled":false,"rental_uris":{"android":"levelo://app?vid=fc96277e-6453-4bb0-af0e-c53026f29778","ios":"levelo://app?vid=fc96277e-6453-4bb0-af0e-c53026f29778"},"vehicle_type_id":"4","last_reported":1759220121,"current_range_meters":17200,"station_id":"","pricing_plan_id":"cebpf4jnsgd1na2vs0mg"},{"bike_id":"c11d433c-682c-4b66-8bf6-cb02b58590e4","system_id":"levelo_inurba_marseille","lat":43.30889,"lon":5.37213,"is_reserved":false,"is_disabled":false,"rental_uris":{"android":"levelo://app?vid=c11d433c-682c-4b66-8bf6-cb02b58590e4","ios":"levelo://app?vid=c11d433c-682c-4b66-8bf6-cb02b58590e4"},"vehicle_type_id":"4","last_reported":1759220121,"current_range_meters":17200,"station_id":"ce4bguh2rcd13ifvqckg","pricing_plan_id":"cebpf4jnsgd1na2vs0mg"},{"bike_id":"1adf72d4-f2e2-443a-bd81-e3e77d2b1f3e","system_id":"levelo_inurba_marseille","lat":43.26673,"lon":5.40238,"is_reserved":false,"is_disabled":false,"rental_uris":{"android":"levelo://app?vid=1adf72d4-f2e2-443a-bd81-e3e77d2b1f3e","ios":"levelo://app?vid=1adf72d4-f2e2-443a-bd81-e3e77d2b1f3e"},"vehicle_type_id":"4","last_reported":1759220121,"current_range_meters":17200,"station_id":"","pricing_plan_id":"cebpf4jnsgd1na2vs0mg"},{"bike_id":"58cb5abf-1917-4b39-84ce-a022161db96c","system_id":"levelo_inurba_marseille","lat":43.32479,"lon":5.36558,"is_reserved":false,"is_disabled":false,"rental_uris":{"android":"levelo://app?vid=58cb5abf-1917-4b39-84ce-a022161db96c","ios":"levelo://app?vid=58cb5abf-1917-4b39-84ce-a022161db96c"},"vehicle_type_id":"4","last_reported":1759220121,"current_range_meters":17200,"station_id":"ce4bhs12rcd13ifvqhvg","pricing_plan_id":"cebpf4jnsgd1na2vs0mg"},{"bike_id":"70c49bbf-ce06-4333-b52f-1cfc0848c7e2","system_id":"levelo_inurba_marseille","lat":43.28609,"lon":5.37065,"is_reserved":false,"is_disabled":false,"rental_uris":{"android":"levelo://app?vid=70c49bbf-ce06-4333-b52f-1cfc0848c7e2","ios":"levelo://app?vid=70c49bbf-ce06-4333-b52f-1cfc0848c7e2"},"vehicle_type_id":"4","last_reported":1759220121,"current_range_meters":17200,"station_id":"ce4bht12rcd13ifvqi60","pricing_plan_id":"cebpf4jnsgd1na2vs0mg"},{"bike_id":"d88e0d03-a71d-4d69-bfe0-f7906e10eef6","system_id":"levelo_inurba_marseille","lat":43.22924,"lon":5.35381,"is_reserved":false,"is_disabled":false,"rental_uris":{"android":"levelo://app?vid=d88e0d03-a71d-4d69-bfe0-f7906e10eef6","ios":"levelo://app?vid=d88e0d03-a71d-4d69-bfe0-f7906e10eef6"},"vehicle_type_id":"4","last_reported":1759220121,"current_range_meters":17200,"station_id":"cpo3532slgdg3j2ikp40","pricing_plan_id":"cebpf4jnsgd1na2vs0mg"},{"bike_id":"50a6d9be-879d-4d99-9855-abb98fbce5b8","system_id":"levelo_inurba_marseille","lat":43.337851,"lon":5.374298,"is_reserved":false,"is_disabled":false,"rental_uris":{"android":"levelo://app?vid=50a6d9be-879d-4d99-9855-abb98fbce5b8","ios":"levelo://app?vid=50a6d9be-879d-4d99-9855-abb98fbce5b8"},"vehicle_type_id":"4","last_reported":1759220121,"current_range_meters":17200,"station_id":"","pricing_plan_id":"cebpf4jnsgd1na2vs0mg"},{"bike_id":"a7ebc6e1-351a-4571-a1a0-a3afaf012d18","system_id":"levelo_inurba_marseille","lat":43.26484,"lon":5.39548,"is_reserved":false,"is_disabled":false,"rental_uris":{"android":"levelo://app?vid=a7ebc6e1-351a-4571-a1a0-a3afaf012d18","ios":"levelo://app?vid=a7ebc6e1-351a-4571-a1a0-a3afaf012d18"},"vehicle_type_id":"4","last_reported":1759220121,"current_range_meters":17600,"station_id":"ce4bhi12rcd13ifvqfq0","pricing_plan_id":"cebpf4jnsgd1na2vs0mg"},{"bike_id":"a58a4c94-7754-46be-b35a-a0b84fc468a5","system_id":"levelo_inurba_marseille","lat":43.29991,"lon":5.37337,"is_reserved":false,"is_disabled":false,"rental_uris":{"android":"levelo://app?vid=a58a4c94-7754-46be-b35a-a0b84fc468a5","ios":"levelo://app?vid=a58a4c94-7754-46be-b35a-a0b84fc468a5"},"vehicle_type_id":"4","last_reported":1759220121,"current_range_meters":17600,"station_id":"","pricing_plan_id":"cebpf4jnsgd1na2vs0mg"},{"bike_id":"6c2e96f0-0d94-4ada-b75d-f16e4d9045a7","system_id":"levelo_inurba_marseille","lat":43.23973,"lon":5.36635,"is_reserved":false,"is_disabled":false,"rental_uris":{"android":"levelo://app?vid=6c2e96f0-0d94-4ada-b75d-f16e4d9045a7","ios":"levelo://app?vid=6c2e96f0-0d94-4ada-b75d-f16e4d9045a7"},"vehicle_type_id":"4","last_reported":1759220121,"current_range_meters":17600,"station_id":"ce4bhi12rcd13ifvqfp0","pricing_plan_id":"cebpf4jnsgd1na2vs0mg"},{"bike_id":"e1a26520-858a-4d92-9c62-b5be5024bda3","system_id":"levelo_inurba_marseille","lat":43.26692,"lon":5.38272,"is_reserved":false,"is_disabled":false,"rental_uris":{"android":"levelo://app?vid=e1a26520-858a-4d92-9c62-b5be5024bda3","ios":"levelo://app?vid=e1a26520-858a-4d92-9c62-b5be5024bda3"},"vehicle_type_id":"4","last_reported":1759220121,"current_range_meters":17600,"station_id":"ce4bhg92rcd13ifvqf90","pricing_plan_id":"cebpf4jnsgd1na2vs0mg"},{"bike_id":"d8859e0c-0cb2-4f64-936e-23f7db00456f","system_id":"levelo_inurba_marseille","lat":43.30949,"lon":5.39036,"is_reserved":false,"is_disabled":false,"rental_uris":{"android":"levelo://app?vid=d8859e0c-0cb2-4f64-936e-23f7db00456f","ios":"levelo://app?vid=d8859e0c-0cb2-4f64-936e-23f7db00456f"},"vehicle_type_id":"4","last_reported":1759220121,"current_range_meters":17600,"station_id":"ce4bgup2rcd13ifvqco0","pricing_plan_id":"cebpf4jnsgd1na2vs0mg"},{"bike_id":"a6ebbdef-1936-4a9e-8823-b4569c4d3494","system_id":"levelo_inurba_marseille","lat":43.24173,"lon":5.39724,"is_reserved":false,"is_disabled":false,"rental_uris":{"android":"levelo://app?vid=a6ebbdef-1936-4a9e-8823-b4569c4d3494","ios":"levelo://app?vid=a6ebbdef-1936-4a9e-8823-b4569c4d3494"},"vehicle_type_id":"4","last_reported":1759220121,"current_range_meters":17600,"station_id":"ce4bhn12rcd13ifvqgpg","pricing_plan_id":"cebpf4jnsgd1na2vs0mg"},{"bike_id":"dd01cc88-b00e-4503-b7f6-35a9f933c0fe","system_id":"levelo_inurba_marseille","lat":43.25896,"lon":5.4088,"is_reserved":false,"is_disabled":false,"rental_uris":{"android":"levelo://app?vid=dd01cc88-b00e-4503-b7f6-35a9f933c0fe","ios":"levelo://app?vid=dd01cc88-b00e-4503-b7f6-35a9f933c0fe"},"vehicle_type_id":"4","last_reported":1759220121,"current_range_meters":17600,"station_id":"ce4bhm92rcd13ifvqglg","pricing_plan_id":"cebpf4jnsgd1na2vs0mg"},{"bike_id":"00014611-59a6-4e24-b1d5-3ef0a2b6a909","system_id":"levelo_inurba_marseille","lat":43.2417,"lon":5.36402,"is_reserved":false,"is_disabled":false,"rental_uris":{"android":"levelo://app?vid=00014611-59a6-4e24-b1d5-3ef0a2b6a909","ios":"levelo://app?vid=00014611-59a6-4e24-b1d5-3ef0a2b6a909"},"vehicle_type_id":"4","last_reported":1759220121,"current_range_meters":17600,"station_id":"cpo36qri1sfpv3e86is0","pricing_plan_id":"cebpf4jnsgd1na2vs0mg"},{"bike_id":"3f8a7425-65dd-467a-bda8-36ede2e6a269","system_id":"levelo_inurba_marseille","lat":43.26929,"lon":5.41044,"is_reserved":false,"is_disabled":false,"rental_uris":{"android":"levelo://app?vid=3f8a7425-65dd-467a-bda8-36ede2e6a269","ios":"levelo://app?vid=3f8a7425-65dd-467a-bda8-36ede2e6a269"},"vehicle_type_id":"4","last_reported":1759220121,"current_range_meters":18000,"station_id":"","pricing_plan_id":"cebpf4jnsgd1na2vs0mg"},{"bike_id":"6e35eb3a-244d-446e-ba2c-c58465f51251","system_id":"levelo_inurba_marseille","lat":43.32115,"lon":5.36762,"is_reserved":false,"is_disabled":false,"rental_uris":{"android":"levelo://app?vid=6e35eb3a-244d-446e-ba2c-c58465f51251","ios":"levelo://app?vid=6e35eb3a-244d-446e-ba2c-c58465f51251"},"vehicle_type_id":"4","last_reported":1759220121,"current_range_meters":18000,"station_id":"ce4bhrh2rcd13ifvqhug","pricing_plan_id":"cebpf4jnsgd1na2vs0mg"},{"bike_id":"a3577dd7-b1db-4ad9-be15-00d58b2f8c69","system_id":"levelo_inurba_marseille","lat":43.27074,"lon":5.42313,"is_reserved":false,"is_disabled":false,"rental_uris":{"android":"levelo://app?vid=a3577dd7-b1db-4ad9-be15-00d58b2f8c69","ios":"levelo://app?vid=a3577dd7-b1db-4ad9-be15-00d58b2f8c69"},"vehicle_type_id":"4","last_reported":1759220121,"current_range_meters":18000,"station_id":"ce4bhk92rcd13ifvqgb0","pricing_plan_id":"cebpf4jnsgd1na2vs0mg"},{"bike_id":"9995c4b9-f187-4594-b064-caa0aa3cca34","system_id":"levelo_inurba_marseille","lat":43.25943,"lon":5.40888,"is_reserved":false,"is_disabled":false,"rental_uris":{"android":"levelo://app?vid=9995c4b9-f187-4594-b064-caa0aa3cca34","ios":"levelo://app?vid=9995c4b9-f187-4594-b064-caa0aa3cca34"},"vehicle_type_id":"4","last_reported":1759220121,"current_range_meters":18000,"station_id":"ce4bhm92rcd13ifvqglg","pricing_plan_id":"cebpf4jnsgd1na2vs0mg"},{"bike_id":"2410b542-4dbb-4ba2-8de7-3b722fc9a69f","system_id":"levelo_inurba_marseille","lat":43.28469,"lon":5.35888,"is_reserved":false,"is_disabled":true,"rental_uris":{"android":"levelo://app?vid=2410b542-4dbb-4ba2-8de7-3b722fc9a69f","ios":"levelo://app?vid=2410b542-4dbb-4ba2-8de7-3b722fc9a69f"},"vehicle_type_id":"4","last_reported":1759220121,"current_range_meters":18000,"station_id":"ce4bhah2rcd13ifvqei0","pricing_plan_id":"cebpf4jnsgd1na2vs0mg"},{"bike_id":"9f335399-d26f-486d-846c-d4fe645a994b","system_id":"levelo_inurba_marseille","lat":43.273713,"lon":5.36267,"is_reserved":false,"is_disabled":false,"rental_uris":{"android":"levelo://app?vid=9f335399-d26f-486d-846c-d4fe645a994b","ios":"levelo://app?vid=9f335399-d26f-486d-846c-d4fe645a994b"},"vehicle_type_id":"4","last_reported":1759220121,"current_range_meters":18000,"station_id":"ce4bhbh2rcd13ifvqeo0","pricing_plan_id":"cebpf4jnsgd1na2vs0mg"},{"bike_id":"2d7e6056-2204-40fe-8ca4-fb704ec8e47b","system_id":"levelo_inurba_marseille","lat":43.29845,"lon":5.36277,"is_reserved":false,"is_disabled":false,"rental_uris":{"android":"levelo://app?vid=2d7e6056-2204-40fe-8ca4-fb704ec8e47b","ios":"levelo://app?vid=2d7e6056-2204-40fe-8ca4-fb704ec8e47b"},"vehicle_type_id":"4","last_reported":1759220121,"current_range_meters":18000,"station_id":"ce4bgpp2rcd13ifvqc3g","pricing_plan_id":"cebpf4jnsgd1na2vs0mg"},{"bike_id":"a9f05152-e55f-436d-b3d3-ffe2c2f0b84e","system_id":"levelo_inurba_marseille","lat":43.231417,"lon":5.43714,"is_reserved":false,"is_disabled":false,"rental_uris":{"android":"levelo://app?vid=a9f05152-e55f-436d-b3d3-ffe2c2f0b84e","ios":"levelo://app?vid=a9f05152-e55f-436d-b3d3-ffe2c2f0b84e"},"vehicle_type_id":"4","last_reported":1759220121,"current_range_meters":18000,"station_id":"ce4bhmp2rcd13ifvqgog","pricing_plan_id":"cebpf4jnsgd1na2vs0mg"},{"bike_id":"f5bd697f-407e-4b55-810e-d741751c1113","system_id":"levelo_inurba_marseille","lat":43.29889,"lon":5.39753,"is_reserved":false,"is_disabled":false,"rental_uris":{"android":"levelo://app?vid=f5bd697f-407e-4b55-810e-d741751c1113","ios":"levelo://app?vid=f5bd697f-407e-4b55-810e-d741751c1113"},"vehicle_type_id":"4","last_reported":1759220121,"current_range_meters":18000,"station_id":"ce4bh0h2rcd13ifvqd50","pricing_plan_id":"cebpf4jnsgd1na2vs0mg"},{"bike_id":"cc5dd51e-486f-4db9-9baf-a34da2b8dd6a","system_id":"levelo_inurba_marseille","lat":43.29497,"lon":5.36308,"is_reserved":false,"is_disabled":false,"rental_uris":{"android":"levelo://app?vid=cc5dd51e-486f-4db9-9baf-a34da2b8dd6a","ios":"levelo://app?vid=cc5dd51e-486f-4db9-9baf-a34da2b8dd6a"},"vehicle_type_id":"4","last_reported":1759220121,"current_range_meters":18000,"station_id":"","pricing_plan_id":"cebpf4jnsgd1na2vs0mg"},{"bike_id":"db3a202b-6514-4a53-892d-e953fc1e9d26","system_id":"levelo_inurba_marseille","lat":43.225369,"lon":5.348573,"is_reserved":false,"is_disabled":false,"rental_uris":{"android":"levelo://app?vid=db3a202b-6514-4a53-892d-e953fc1e9d26","ios":"levelo://app?vid=db3a202b-6514-4a53-892d-e953fc1e9d26"},"vehicle_type_id":"4","last_reported":1759220121,"current_range_meters":18000,"station_id":"","pricing_plan_id":"cebpf4jnsgd1na2vs0mg"},{"bike_id":"66e01978-b2f5-4c79-9860-c3c2f6c9416f","system_id":"levelo_inurba_marseille","lat":43.31212,"lon":5.36913,"is_reserved":false,"is_disabled":false,"rental_uris":{"android":"levelo://app?vid=66e01978-b2f5-4c79-9860-c3c2f6c9416f","ios":"levelo://app?vid=66e01978-b2f5-4c79-9860-c3c2f6c9416f"},"vehicle_type_id":"4","last_reported":1759220121,"current_range_meters":18000,"station_id":"ce4bgl92rcd13ifvqbq0","pricing_plan_id":"cebpf4jnsgd1na2vs0mg"},{"bike_id":"123e055a-692b-459b-9c4f-970a83ad75be","system_id":"levelo_inurba_marseille","lat":43.32364,"lon":5.36723,"is_reserved":false,"is_disabled":false,"rental_uris":{"android":"levelo://app?vid=123e055a-692b-459b-9c4f-970a83ad75be","ios":"levelo://app?vid=123e055a-692b-459b-9c4f-970a83ad75be"},"vehicle_type_id":"4","last_reported":1759220121,"current_range_meters":18000,"station_id":"ce4bhsh2rcd13ifvqi2g","pricing_plan_id":"cebpf4jnsgd1na2vs0mg"},{"bike_id":"2607755b-ef9a-4569-9cf7-3f7313ec94d9","system_id":"levelo_inurba_marseille","lat":43.296307,"lon":5.377127,"is_reserved":false,"is_disabled":false,"rental_uris":{"android":"levelo://app?vid=2607755b-ef9a-4569-9cf7-3f7313ec94d9","ios":"levelo://app?vid=2607755b-ef9a-4569-9cf7-3f7313ec94d9"},"vehicle_type_id":"4","last_reported":1759220121,"current_range_meters":18000,"station_id":"ce4bgi92rcd13ifvqb90","pricing_plan_id":"cebpf4jnsgd1na2vs0mg"},{"bike_id":"dd96ad11-bc9a-4236-a467-dab6a7e0617d","system_id":"levelo_inurba_marseille","lat":43.25331,"lon":5.42169,"is_reserved":false,"is_disabled":false,"rental_uris":{"android":"levelo://app?vid=dd96ad11-bc9a-4236-a467-dab6a7e0617d","ios":"levelo://app?vid=dd96ad11-bc9a-4236-a467-dab6a7e0617d"},"vehicle_type_id":"4","last_reported":1759220121,"current_range_meters":18800,"station_id":"st_d2m65c5bi1j21697t3ng","pricing_plan_id":"cebpf4jnsgd1na2vs0mg"},{"bike_id":"700e2971-7ce2-46cc-996b-6959d72691c7","system_id":"levelo_inurba_marseille","lat":43.225689,"lon":5.416376,"is_reserved":false,"is_disabled":false,"rental_uris":{"android":"levelo://app?vid=700e2971-7ce2-46cc-996b-6959d72691c7","ios":"levelo://app?vid=700e2971-7ce2-46cc-996b-6959d72691c7"},"vehicle_type_id":"4","last_reported":1759220121,"current_range_meters":18800,"station_id":"st_d2o4gvlbi1j2169b742g","pricing_plan_id":"cebpf4jnsgd1na2vs0mg"},{"bike_id":"8a05e58d-cd1b-487b-945e-9d1a04de09f0","system_id":"levelo_inurba_marseille","lat":43.33608,"lon":5.41031,"is_reserved":false,"is_disabled":false,"rental_uris":{"android":"levelo://app?vid=8a05e58d-cd1b-487b-945e-9d1a04de09f0","ios":"levelo://app?vid=8a05e58d-cd1b-487b-945e-9d1a04de09f0"},"vehicle_type_id":"4","last_reported":1759220121,"current_range_meters":18800,"station_id":"ce4bhqh2rcd13ifvqhmg","pricing_plan_id":"cebpf4jnsgd1na2vs0mg"},{"bike_id":"41954c74-08a1-46af-b291-94f2ab665ff2","system_id":"levelo_inurba_marseille","lat":43.32477,"lon":5.36558,"is_reserved":false,"is_disabled":false,"rental_uris":{"android":"levelo://app?vid=41954c74-08a1-46af-b291-94f2ab665ff2","ios":"levelo://app?vid=41954c74-08a1-46af-b291-94f2ab665ff2"},"vehicle_type_id":"4","last_reported":1759220121,"current_range_meters":18800,"station_id":"ce4bhs12rcd13ifvqhvg","pricing_plan_id":"cebpf4jnsgd1na2vs0mg"},{"bike_id":"bb80e5da-8df2-462f-8828-7587302fcb86","system_id":"levelo_inurba_marseille","lat":43.29784,"lon":5.37666,"is_reserved":false,"is_disabled":false,"rental_uris":{"android":"levelo://app?vid=bb80e5da-8df2-462f-8828-7587302fcb86","ios":"levelo://app?vid=bb80e5da-8df2-462f-8828-7587302fcb86"},"vehicle_type_id":"4","last_reported":1759220121,"current_range_meters":18800,"station_id":"","pricing_plan_id":"cebpf4jnsgd1na2vs0mg"},{"bike_id":"450844ba-2fc2-47be-9959-8fee61f07fb6","system_id":"levelo_inurba_marseille","lat":43.317354,"lon":5.390403,"is_reserved":false,"is_disabled":false,"rental_uris":{"android":"levelo://app?vid=450844ba-2fc2-47be-9959-8fee61f07fb6","ios":"levelo://app?vid=450844ba-2fc2-47be-9959-8fee61f07fb6"},"vehicle_type_id":"4","last_reported":1759220121,"current_range_meters":19200,"station_id":"ce4bhqp2rcd13ifvqhng","pricing_plan_id":"cebpf4jnsgd1na2vs0mg"},{"bike_id":"b7cd29c1-7e6a-4750-89cf-107360408473","system_id":"levelo_inurba_marseille","lat":43.22542,"lon":5.34824,"is_reserved":false,"is_disabled":false,"rental_uris":{"android":"levelo://app?vid=b7cd29c1-7e6a-4750-89cf-107360408473","ios":"levelo://app?vid=b7cd29c1-7e6a-4750-89cf-107360408473"},"vehicle_type_id":"4","last_reported":1759220121,"current_range_meters":19200,"station_id":"","pricing_plan_id":"cebpf4jnsgd1na2vs0mg"},{"bike_id":"42304cd3-42ff-44df-b375-87422a59aea9","system_id":"levelo_inurba_marseille","lat":43.23146,"lon":5.43713,"is_reserved":false,"is_disabled":false,"rental_uris":{"android":"levelo://app?vid=42304cd3-42ff-44df-b375-87422a59aea9","ios":"levelo://app?vid=42304cd3-42ff-44df-b375-87422a59aea9"},"vehicle_type_id":"4","last_reported":1759220121,"current_range_meters":19200,"station_id":"ce4bhmp2rcd13ifvqgog","pricing_plan_id":"cebpf4jnsgd1na2vs0mg"},{"bike_id":"e187db07-50c1-47be-aab2-7c50eb03e8bc","system_id":"levelo_inurba_marseille","lat":43.2926,"lon":5.409096,"is_reserved":false,"is_disabled":false,"rental_uris":{"android":"levelo://app?vid=e187db07-50c1-47be-aab2-7c50eb03e8bc","ios":"levelo://app?vid=e187db07-50c1-47be-aab2-7c50eb03e8bc"},"vehicle_type_id":"4","last_reported":1759220121,"current_range_meters":19200,"station_id":"","pricing_plan_id":"cebpf4jnsgd1na2vs0mg"},{"bike_id":"73e22ed6-f150-4bd5-a7c9-af939e7a8ce9","system_id":"levelo_inurba_marseille","lat":43.290507,"lon":5.419421,"is_reserved":false,"is_disabled":false,"rental_uris":{"android":"levelo://app?vid=73e22ed6-f150-4bd5-a7c9-af939e7a8ce9","ios":"levelo://app?vid=73e22ed6-f150-4bd5-a7c9-af939e7a8ce9"},"vehicle_type_id":"4","last_reported":1759220121,"current_range_meters":19200,"station_id":"","pricing_plan_id":"cebpf4jnsgd1na2vs0mg"},{"bike_id":"e8a6d609-d965-4c72-b22f-83ffb60a3d29","system_id":"levelo_inurba_marseille","lat":43.25946,"lon":5.40898,"is_reserved":false,"is_disabled":false,"rental_uris":{"android":"levelo://app?vid=e8a6d609-d965-4c72-b22f-83ffb60a3d29","ios":"levelo://app?vid=e8a6d609-d965-4c72-b22f-83ffb60a3d29"},"vehicle_type_id":"4","last_reported":1759220121,"current_range_meters":19200,"station_id":"ce4bhm92rcd13ifvqglg","pricing_plan_id":"cebpf4jnsgd1na2vs0mg"},{"bike_id":"dec5a099-8626-4f6c-954c-cdebdec909cd","system_id":"levelo_inurba_marseille","lat":43.30472,"lon":5.37912,"is_reserved":false,"is_disabled":false,"rental_uris":{"android":"levelo://app?vid=dec5a099-8626-4f6c-954c-cdebdec909cd","ios":"levelo://app?vid=dec5a099-8626-4f6c-954c-cdebdec909cd"},"vehicle_type_id":"4","last_reported":1759220121,"current_range_meters":19200,"station_id":"ce4bgup2rcd13ifvqcn0","pricing_plan_id":"cebpf4jnsgd1na2vs0mg"},{"bike_id":"6523f72e-1462-440e-bc86-c0c457314b50","system_id":"levelo_inurba_marseille","lat":43.33603,"lon":5.41015,"is_reserved":false,"is_disabled":false,"rental_uris":{"android":"levelo://app?vid=6523f72e-1462-440e-bc86-c0c457314b50","ios":"levelo://app?vid=6523f72e-1462-440e-bc86-c0c457314b50"},"vehicle_type_id":"4","last_reported":1759220121,"current_range_meters":19200,"station_id":"ce4bhqh2rcd13ifvqhmg","pricing_plan_id":"cebpf4jnsgd1na2vs0mg"},{"bike_id":"8196b811-d39a-4634-a017-c9ef862bb624","system_id":"levelo_inurba_marseille","lat":43.30547,"lon":5.36534,"is_reserved":false,"is_disabled":false,"rental_uris":{"android":"levelo://app?vid=8196b811-d39a-4634-a017-c9ef862bb624","ios":"levelo://app?vid=8196b811-d39a-4634-a017-c9ef862bb624"},"vehicle_type_id":"4","last_reported":1759220121,"current_range_meters":18800,"station_id":"ce4bgs12rcd13ifvqcag","pricing_plan_id":"cebpf4jnsgd1na2vs0mg"},{"bike_id":"d81e7086-a597-422a-8b7f-f9a7c928d9cf","system_id":"levelo_inurba_marseille","lat":43.29775,"lon":5.38868,"is_reserved":false,"is_disabled":false,"rental_uris":{"android":"levelo://app?vid=d81e7086-a597-422a-8b7f-f9a7c928d9cf","ios":"levelo://app?vid=d81e7086-a597-422a-8b7f-f9a7c928d9cf"},"vehicle_type_id":"4","last_reported":1759220121,"current_range_meters":19200,"station_id":"","pricing_plan_id":"cebpf4jnsgd1na2vs0mg"},{"bike_id":"f2ec7fff-dc2d-41e4-9895-f6d2d9927a1c","system_id":"levelo_inurba_marseille","lat":43.29298,"lon":5.37447,"is_reserved":false,"is_disabled":false,"rental_uris":{"android":"levelo://app?vid=f2ec7fff-dc2d-41e4-9895-f6d2d9927a1c","ios":"levelo://app?vid=f2ec7fff-dc2d-41e4-9895-f6d2d9927a1c"},"vehicle_type_id":"4","last_reported":1759220121,"current_range_meters":19200,"station_id":"ce4bgi12rcd13ifvqb70","pricing_plan_id":"cebpf4jnsgd1na2vs0mg"},{"bike_id":"a7d7834a-6060-4214-a66f-8338e20b7942","system_id":"levelo_inurba_marseille","lat":43.29091,"lon":5.3713,"is_reserved":false,"is_disabled":false,"rental_uris":{"android":"levelo://app?vid=a7d7834a-6060-4214-a66f-8338e20b7942","ios":"levelo://app?vid=a7d7834a-6060-4214-a66f-8338e20b7942"},"vehicle_type_id":"4","last_reported":1759220121,"current_range_meters":19200,"station_id":"","pricing_plan_id":"cebpf4jnsgd1na2vs0mg"},{"bike_id":"ac29d873-6915-4631-9ed0-ba140b5afa92","system_id":"levelo_inurba_marseille","lat":43.25728,"lon":5.41099,"is_reserved":false,"is_disabled":false,"rental_uris":{"android":"levelo://app?vid=ac29d873-6915-4631-9ed0-ba140b5afa92","ios":"levelo://app?vid=ac29d873-6915-4631-9ed0-ba140b5afa92"},"vehicle_type_id":"4","last_reported":1759220121,"current_range_meters":19200,"station_id":"ce4bhkp2rcd13ifvqgd0","pricing_plan_id":"cebpf4jnsgd1na2vs0mg"},{"bike_id":"31c27165-7020-462f-a775-f7a184eb3f12","system_id":"levelo_inurba_marseille","lat":43.29064,"lon":5.3714,"is_reserved":false,"is_disabled":true,"rental_uris":{"android":"levelo://app?vid=31c27165-7020-462f-a775-f7a184eb3f12","ios":"levelo://app?vid=31c27165-7020-462f-a775-f7a184eb3f12"},"vehicle_type_id":"4","last_reported":1759220121,"current_range_meters":19200,"station_id":"ce4bh5p2rcd13ifvqe4g","pricing_plan_id":"cebpf4jnsgd1na2vs0mg"},{"bike_id":"606f665f-1aed-4bfd-9b33-226cd955c1ba","system_id":"levelo_inurba_marseille","lat":43.25931,"lon":5.40908,"is_reserved":false,"is_disabled":false,"rental_uris":{"android":"levelo://app?vid=606f665f-1aed-4bfd-9b33-226cd955c1ba","ios":"levelo://app?vid=606f665f-1aed-4bfd-9b33-226cd955c1ba"},"vehicle_type_id":"4","last_reported":1759220121,"current_range_meters":19200,"station_id":"ce4bhm92rcd13ifvqglg","pricing_plan_id":"cebpf4jnsgd1na2vs0mg"},{"bike_id":"0a93e32c-58e9-4e8d-b8bd-c8697cf93704","system_id":"levelo_inurba_marseille","lat":43.25928,"lon":5.40893,"is_reserved":false,"is_disabled":false,"rental_uris":{"android":"levelo://app?vid=0a93e32c-58e9-4e8d-b8bd-c8697cf93704","ios":"levelo://app?vid=0a93e32c-58e9-4e8d-b8bd-c8697cf93704"},"vehicle_type_id":"4","last_reported":1759220121,"current_range_meters":19200,"station_id":"ce4bhm92rcd13ifvqglg","pricing_plan_id":"cebpf4jnsgd1na2vs0mg"},{"bike_id":"abbe8cb0-7830-4fe7-82a9-7402368399e8","system_id":"levelo_inurba_marseille","lat":43.28639,"lon":5.37283,"is_reserved":false,"is_disabled":false,"rental_uris":{"android":"levelo://app?vid=abbe8cb0-7830-4fe7-82a9-7402368399e8","ios":"levelo://app?vid=abbe8cb0-7830-4fe7-82a9-7402368399e8"},"vehicle_type_id":"4","last_reported":1759220121,"current_range_meters":19200,"station_id":"","pricing_plan_id":"cebpf4jnsgd1na2vs0mg"},