{"last_updated":1707674932,"ttl":30,"version":"2.2","data":{"bikes":[{"bike_id":"dec7f95c-98ea-43d0-acf8-6c456c45cea8","system_id":"levelo_inurba_marseille","lat":43.31341,"lon":5.367098,"is_reserved":false,"is_disabled":false,"rental_uris":{"android":"levelo://app?vid=dec7f95c-98ea-43d0-acf8-6c456c45cea8","ios":"levelo://app?vid=dec7f95c-98ea-43d0-acf8-6c456c45cea8"},"vehicle_type_id":"4","last_reported":1707674932,"current_range_meters":800,"station_id":"ce4bgr92rcd13ifvqc6g","pricing_plan_id":"free"},{"bike_id":"424989ab-5f90-47c5-9452-6900e12626e7","system_id":"levelo_inurba_marseille","lat":43.313391,"lon":5.36706,"is_reserved":false,"is_disabled":false,"rental_uris":{"android":"levelo://app?vid=424989ab-5f90-47c5-9452-6900e12626e7","ios":"levelo://app?vid=424989ab-5f90-47c5-9452-6900e12626e7"},"vehicle_type_id":"4","last_reported":1707674932,"current_range_meters":29200,"station_id":"ce4bgr92rcd13ifvqc6g","pricing_plan_id":"free"},{"bike_id":"a6a82cb7-a131-4d2e-9545-2fc2a77352b1","system_id":"levelo_inurba_marseille","lat":43.313391,"lon":5.36706,"is_reserved":false,"is_disabled":false,"rental_uris":{"android":"levelo://app?vid=a6a82cb7-a131-4d2e-9545-2fc2a77352b1","ios":"levelo://app?vid=a6a82cb7-a131-4d2e-9545-2fc2a77352b1"},"vehicle_type_id":"4","last_reported":1707674932,"current_range_meters":9200,"station_id":"ce4bgr92rcd13ifvqc6g","pricing_plan_id":"free"},{"bike_id":"090d47bd-db56-4ce3-bcc5-ffceb6f7a46d","system_id":"levelo_inurba_marseille","lat":43.312239,"lon":5.368562,"is_reserved":false,"is_disabled":false,"rental_uris":{"android":"levelo://app?vid=090d47bd-db56-4ce3-bcc5-ffceb6f7a46d","ios":"levelo://app?vid=090d47bd-db56-4ce3-bcc5-ffceb6f7a46d"},"vehicle_type_id":"4","last_reported":1707674932,"current_range_meters":28000,"station_id":"ce4bgl92rcd13ifvqbq0","pricing_plan_id":"free"},{"bike_id":"f5d7533f-7dd0-43e3-81a3-1967252838f0","system_id":"levelo_inurba_marseille","lat":43.312239,"lon":5.368562,"is_reserved":false,"is_disabled":false,"rental_uris":{"android":"levelo://app?vid=f5d7533f-7dd0-43e3-81a3-1967252838f0","ios":"levelo://app?vid=f5d7533f-7dd0-43e3-81a3-1967252838f0"},"vehicle_type_id":"4","last_reported":1707674932,"current_range_meters":22400,"station_id":"ce4bgl92rcd13ifvqbq0","pricing_plan_id":"free"},{"bike_id":"d53b05b4-69cf-403b-ab16-476e59db4bcd","system_id":"levelo_inurba_marseille","lat":43.312239,"lon":5.368562,"is_reserved":false,"is_disabled":false,"rental_uris":{"android":"levelo://app?vid=d53b05b4-69cf-403b-ab16-476e59db4bcd","ios":"levelo://app?vid=d53b05b4-69cf-403b-ab16-476e59db4bcd"},"vehicle_type_id":"4","last_reported":1707674932,"current_range_meters":28800,"station_id":"ce4bgl92rcd13ifvqbq0","pricing_plan_id":"free"},{"bike_id":"8f79281e-99be-434e-8d71-d02a0098911e","system_id":"levelo_inurba_marseille","lat":43.312397,"lon":5.368823,"is_reserved":false,"is_disabled":false,"rental_uris":{"android":"levelo://app?vid=8f79281e-99be-434e-8d71-d02a0098911e","ios":"levelo://app?vid=8f79281e-99be-434e-8d71-d02a0098911e"},"vehicle_type_id":"4","last_reported":1707674932,"current_range_meters":15600,"station_id":"ce4bgl92rcd13ifvqbq0","pricing_plan_id":"free"},{"bike_id":"69d61244-4401-4706-9010-7dcd29b5c215","system_id":"levelo_inurba_marseille","lat":43.31695,"lon":5.36988,"is_reserved":false,"is_disabled":false,"rental_uris":{"android":"levelo://app?vid=69d61244-4401-4706-9010-7dcd29b5c215","ios":"levelo://app?vid=69d61244-4401-4706-9010-7dcd29b5c215"},"vehicle_type_id":"4","last_reported":1707674932,"current_range_meters":4800,"station_id":"","pricing_plan_id":"free"},{"bike_id":"9a3f07f8-6969-4bdb-94d5-44867da548f2","system_id":"levelo_inurba_marseille","lat":43.314811,"lon":5.373103,"is_reserved":false,"is_disabled":false,"rental_uris":{"android":"levelo://app?vid=9a3f07f8-6969-4bdb-94d5-44867da548f2","ios":"levelo://app?vid=9a3f07f8-6969-4bdb-94d5-44867da548f2"},"vehicle_type_id":"4","last_reported":1707674932,"current_range_meters":1600,"station_id":"ce4bgt12rcd13ifvqcd0","pricing_plan_id":"free"},{"bike_id":"35cb65e8-5eaf-4966-9234-46586990d8aa","system_id":"levelo_inurba_marseille","lat":43.314811,"lon":5.373103,"is_reserved":false,"is_disabled":false,"rental_uris":{"android":"levelo://app?vid=35cb65e8-5eaf-4966-9234-46586990d8aa","ios":"levelo://app?vid=35cb65e8-5eaf-4966-9234-46586990d8aa"},"vehicle_type_id":"4","last_reported":1707674932,"current_range_meters":2000,"station_id":"ce4bgt12rcd13ifvqcd0","pricing_plan_id":"free"},{"bike_id":"2f19d4f9-ac48-4e61-a50f-834e188f8972","system_id":"levelo_inurba_marseille","lat":43.314811,"lon":5.373103,"is_reserved":false,"is_disabled":false,"rental_uris":{"android":"levelo://app?vid=2f19d4f9-ac48-4e61-a50f-834e188f8972","ios":"levelo://app?vid=2f19d4f9-ac48-4e61-a50f-834e188f8972"},"vehicle_type_id":"4","last_reported":1707674932,"current_range_meters":14400,"station_id":"ce4bgt12rcd13ifvqcd0","pricing_plan_id":"free"},{"bike_id":"ede40f05-1f07-42c5-bda6-e2a296bd41c4","system_id":"levelo_inurba_marseille","lat":43.314811,"lon":5.373103,"is_reserved":false,"is_disabled":false,"rental_uris":{"android":"levelo://app?vid=ede40f05-1f07-42c5-bda6-e2a296bd41c4","ios":"levelo://app?vid=ede40f05-1f07-42c5-bda6-e2a296bd41c4"},"vehicle_type_id":"4","last_reported":1707674932,"current_range_meters":22000,"station_id":"ce4bgt12rcd13ifvqcd0","pricing_plan_id":"free"},{"bike_id":"a30ab8f6-f95f-4d66-9867-850eede42df6","system_id":"levelo_inurba_marseille","lat":43.309039,"lon":5.371797,"is_reserved":false,"is_disabled":false,"rental_uris":{"android":"levelo://app?vid=a30ab8f6-f95f-4d66-9867-850eede42df6","ios":"levelo://app?vid=a30ab8f6-f95f-4d66-9867-850eede42df6"},"vehicle_type_id":"4","last_reported":1707674932,"current_range_meters":28400,"station_id":"ce4bguh2rcd13ifvqckg","pricing_plan_id":"free"},{"bike_id":"fbb0b80f-8d16-42cd-b339-1d621a60745c","system_id":"levelo_inurba_marseille","lat":43.309039,"lon":5.371797,"is_reserved":false,"is_disabled":false,"rental_uris":{"android":"levelo://app?vid=fbb0b80f-8d16-42cd-b339-1d621a60745c","ios":"levelo://app?vid=fbb0b80f-8d16-42cd-b339-1d621a60745c"},"vehicle_type_id":"4","last_reported":1707674932,"current_range_meters":2400,"station_id":"ce4bguh2rcd13ifvqckg","pricing_plan_id":"free"},{"bike_id":"18697225-9e0d-41dc-a20b-1e29ba2380d2","system_id":"levelo_inurba_marseille","lat":43.309039,"lon":5.371797,"is_reserved":false,"is_disabled":false,"rental_uris":{"android":"levelo://app?vid=18697225-9e0d-41dc-a20b-1e29ba2380d2","ios":"levelo://app?vid=18697225-9e0d-41dc-a20b-1e29ba2380d2"},"vehicle_type_id":"4","last_reported":1707674932,"current_range_meters":23200,"station_id":"ce4bguh2rcd13ifvqckg","pricing_plan_id":"free"},{"bike_id":"b9e48ac8-61b6-48b7-8ad4-35c29435a4da","system_id":"levelo_inurba_marseille","lat":43.316223,"lon":5.37319,"is_reserved":false,"is_disabled":false,"rental_uris":{"android":"levelo://app?vid=b9e48ac8-61b6-48b7-8ad4-35c29435a4da","ios":"levelo://app?vid=b9e48ac8-61b6-48b7-8ad4-35c29435a4da"},"vehicle_type_id":"4","last_reported":1707674932,"current_range_meters":25200,"station_id":"","pricing_plan_id":"free"},{"bike_id":"bdbec07e-0c4d-4fd7-9db9-ac93a8ee98a8","system_id":"levelo_inurba_marseille","lat":43.30624,"lon":5.366,"is_reserved":false,"is_disabled":false,"rental_uris":{"android":"levelo://app?vid=bdbec07e-0c4d-4fd7-9db9-ac93a8ee98a8","ios":"levelo://app?vid=bdbec07e-0c4d-4fd7-9db9-ac93a8ee98a8"},"vehicle_type_id":"4","last_reported":1707674932,"current_range_meters":12400,"station_id":"ce4bh092rcd13ifvqd20","pricing_plan_id":"free"},{"bike_id":"366e10df-2302-40e1-a245-ecd129f3443d","system_id":"levelo_inurba_marseille","lat":43.30537,"lon":5.367345,"is_reserved":false,"is_disabled":false,"rental_uris":{"android":"levelo://app?vid=366e10df-2302-40e1-a245-ecd129f3443d","ios":"levelo://app?vid=366e10df-2302-40e1-a245-ecd129f3443d"},"vehicle_type_id":"4","last_reported":1707674932,"current_range_meters":27200,"station_id":"ce4bgrp2rcd13ifvqc9g","pricing_plan_id":"free"},{"bike_id":"536ebbde-74d9-4163-8435-e740e11271a6","system_id":"levelo_inurba_marseille","lat":43.30537,"lon":5.367345,"is_reserved":false,"is_disabled":false,"rental_uris":{"android":"levelo://app?vid=536ebbde-74d9-4163-8435-e740e11271a6","ios":"levelo://app?vid=536ebbde-74d9-4163-8435-e740e11271a6"},"vehicle_type_id":"4","last_reported":1707674932,"current_range_meters":3600,"station_id":"ce4bgrp2rcd13ifvqc9g","pricing_plan_id":"free"},{"bike_id":"264220f4-58d3-4f9a-8d47-a39f81911e92","system_id":"levelo_inurba_marseille","lat":43.30556,"lon":5.365295,"is_reserved":false,"is_disabled":false,"rental_uris":{"android":"levelo://app?vid=264220f4-58d3-4f9a-8d47-a39f81911e92","ios":"levelo://app?vid=264220f4-58d3-4f9a-8d47-a39f81911e92"},"vehicle_type_id":"4","last_reported":1707674932,"current_range_meters":6000,"station_id":"ce4bgs12rcd13ifvqcag","pricing_plan_id":"free"},{"bike_id":"41aaa314-bdb5-4b6b-9038-e2585000c941","system_id":"levelo_inurba_marseille","lat":43.305368,"lon":5.367343,"is_reserved":false,"is_disabled":false,"rental_uris":{"android":"levelo://app?vid=41aaa314-bdb5-4b6b-9038-e2585000c941","ios":"levelo://app?vid=41aaa314-bdb5-4b6b-9038-e2585000c941"},"vehicle_type_id":"4","last_reported":1707674932,"current_range_meters":4800,"station_id":"ce4bgrp2rcd13ifvqc9g","pricing_plan_id":"free"},{"bike_id":"a0fe61d4-e260-4d78-a743-3672f4d03c04","system_id":"levelo_inurba_marseille","lat":43.30543,"lon":5.36703,"is_reserved":false,"is_disabled":false,"rental_uris":{"android":"levelo://app?vid=a0fe61d4-e260-4d78-a743-3672f4d03c04","ios":"levelo://app?vid=a0fe61d4-e260-4d78-a743-3672f4d03c04"},"vehicle_type_id":"4","last_reported":1707674932,"current_range_meters":3200,"station_id":"ce4bgrp2rcd13ifvqc9g","pricing_plan_id":"free"},{"bike_id":"7318e608-d360-4c08-8df0-afcec6189803","system_id":"levelo_inurba_marseille","lat":43.305368,"lon":5.367343,"is_reserved":false,"is_disabled":false,"rental_uris":{"android":"levelo://app?vid=7318e608-d360-4c08-8df0-afcec6189803","ios":"levelo://app?vid=7318e608-d360-4c08-8df0-afcec6189803"},"vehicle_type_id":"4","last_reported":1707674932,"current_range_meters":23200,"station_id":"ce4bgrp2rcd13ifvqc9g","pricing_plan_id":"free"},{"bike_id":"adef985b-40ca-4376-bca6-47e2cf4c98ef","system_id":"levelo_inurba_marseille","lat":43.305368,"lon":5.367343,"is_reserved":false,"is_disabled":false,"rental_uris":{"android":"levelo://app?vid=adef985b-40ca-4376-bca6-47e2cf4c98ef","ios":"levelo://app?vid=adef985b-40ca-4376-bca6-47e2cf4c98ef"},"vehicle_type_id":"4","last_reported":1707674932,"current_range_meters":27600,"station_id":"ce4bgrp2rcd13ifvqc9g","pricing_plan_id":"free"},{"bike_id":"8e789084-071c-40d1-a5eb-fe2aa42ae3d3","system_id":"levelo_inurba_marseille","lat":43.305368,"lon":5.367343,"is_reserved":false,"is_disabled":false,"rental_uris":{"android":"levelo://app?vid=8e789084-071c-40d1-a5eb-fe2aa42ae3d3","ios":"levelo://app?vid=8e789084-071c-40d1-a5eb-fe2aa42ae3d3"},"vehicle_type_id":"4","last_reported":1707674932,"current_range_meters":24400,"station_id":"ce4bgrp2rcd13ifvqc9g","pricing_plan_id":"free"},{"bike_id":"308a7265-8cd2-434d-a064-943c3b552ba5","system_id":"levelo_inurba_marseille","lat":43.30537,"lon":5.367345,"is_reserved":false,"is_disabled":false,"rental_uris":{"android":"levelo://app?vid=308a7265-8cd2-434d-a064-943c3b552ba5","ios":"levelo://app?vid=308a7265-8cd2-434d-a064-943c3b552ba5"},"vehicle_type_id":"4","last_reported":1707674932,"current_range_meters":18400,"station_id":"ce4bgrp2rcd13ifvqc9g","pricing_plan_id":"free"},{"bike_id":"cfe6caa8-7a55-407d-a01a-cab51a86e442","system_id":"levelo_inurba_marseille","lat":43.30537,"lon":5.367345,"is_reserved":false,"is_disabled":false,"rental_uris":{"android":"levelo://app?vid=cfe6caa8-7a55-407d-a01a-cab51a86e442","ios":"levelo://app?vid=cfe6caa8-7a55-407d-a01a-cab51a86e442"},"vehicle_type_id":"4","last_reported":1707674932,"current_range_meters":20800,"station_id":"ce4bgrp2rcd13ifvqc9g","pricing_plan_id":"free"},{"bike_id":"1295088e-0871-4a5f-a2e7-5598168edd75","system_id":"levelo_inurba_marseille","lat":43.305989,"lon":5.37225,"is_reserved":false,"is_disabled":false,"rental_uris":{"android":"levelo://app?vid=1295088e-0871-4a5f-a2e7-5598168edd75","ios":"levelo://app?vid=1295088e-0871-4a5f-a2e7-5598168edd75"},"vehicle_type_id":"4","last_reported":1707674932,"current_range_meters":10800,"station_id":"ce4bgqh2rcd13ifvqc4g","pricing_plan_id":"free"},{"bike_id":"43b75d9a-336a-4d56-bb8f-02e418050959","system_id":"levelo_inurba_marseille","lat":43.305989,"lon":5.37225,"is_reserved":false,"is_disabled":false,"rental_uris":{"android":"levelo://app?vid=43b75d9a-336a-4d56-bb8f-02e418050959","ios":"levelo://app?vid=43b75d9a-336a-4d56-bb8f-02e418050959"},"vehicle_type_id":"4","last_reported":1707674932,"current_range_meters":29600,"station_id":"ce4bgqh2rcd13ifvqc4g","pricing_plan_id":"free"},{"bike_id":"736bdea5-6359-4131-825d-62f1b31852ba","system_id":"levelo_inurba_marseille","lat":43.305989,"lon":5.37225,"is_reserved":false,"is_disabled":false,"rental_uris":{"android":"levelo://app?vid=736bdea5-6359-4131-825d-62f1b31852ba","ios":"levelo://app?vid=736bdea5-6359-4131-825d-62f1b31852ba"},"vehicle_type_id":"4","last_reported":1707674932,"current_range_meters":31200,"station_id":"ce4bgqh2rcd13ifvqc4g","pricing_plan_id":"free"},{"bike_id":"13b1a8c3-6d84-4cbb-815b-68acad6c83aa","system_id":"levelo_inurba_marseille","lat":43.305989,"lon":5.37225,"is_reserved":false,"is_disabled":false,"rental_uris":{"android":"levelo://app?vid=13b1a8c3-6d84-4cbb-815b-68acad6c83aa","ios":"levelo://app?vid=13b1a8c3-6d84-4cbb-815b-68acad6c83aa"},"vehicle_type_id":"4","last_reported":1707674932,"current_range_meters":31200,"station_id":"ce4bgqh2rcd13ifvqc4g","pricing_plan_id":"free"},{"bike_id":"d3615284-20d5-40f4-9ec9-2def573a9567","system_id":"levelo_inurba_marseille","lat":43.305989,"lon":5.37225,"is_reserved":false,"is_disabled":false,"rental_uris":{"android":"levelo://app?vid=d3615284-20d5-40f4-9ec9-2def573a9567","ios":"levelo://app?vid=d3615284-20d5-40f4-9ec9-2def573a9567"},"vehicle_type_id":"4","last_reported":1707674932,"current_range_meters":12000,"station_id":"ce4bgqh2rcd13ifvqc4g","pricing_plan_id":"free"},{"bike_id":"857681bd-570f-4c1d-bc19-1586f0defdb4","system_id":"levelo_inurba_marseille","lat":43.305989,"lon":5.37225,"is_reserved":false,"is_disabled":false,"rental_uris":{"android":"levelo://app?vid=857681bd-570f-4c1d-bc19-1586f0defdb4","ios":"levelo://app?vid=857681bd-570f-4c1d-bc19-1586f0defdb4"},"vehicle_type_id":"4","last_reported":1707674932,"current_range_meters":28400,"station_id":"ce4bgqh2rcd13ifvqc4g","pricing_plan_id":"free"},{"bike_id":"1ee5c94c-f722-4da5-8586-f3b999a798ce","system_id":"levelo_inurba_marseille","lat":43.305989,"lon":5.37225,"is_reserved":false,"is_disabled":false,"rental_uris":{"android":"levelo://app?vid=1ee5c94c-f722-4da5-8586-f3b999a798ce","ios":"levelo://app?vid=1ee5c94c-f722-4da5-8586-f3b999a798ce"},"vehicle_type_id":"4","last_reported":1707674932,"current_range_meters":4400,"station_id":"ce4bgqh2rcd13ifvqc4g","pricing_plan_id":"free"},{"bike_id":"f9f239c7-b99d-402d-bda2-b8adb8b6bf19","system_id":"levelo_inurba_marseille","lat":43.305989,"lon":5.37225,"is_reserved":false,"is_disabled":false,"rental_uris":{"android":"levelo://app?vid=f9f239c7-b99d-402d-bda2-b8adb8b6bf19","ios":"levelo://app?vid=f9f239c7-b99d-402d-bda2-b8adb8b6bf19"},"vehicle_type_id":"4","last_reported":1707674932,"current_range_meters":23600,"station_id":"ce4bgqh2rcd13ifvqc4g","pricing_plan_id":"free"},{"bike_id":"e213958f-37b3-4ec3-830f-b81de5482c0e","system_id":"levelo_inurba_marseille","lat":43.305989,"lon":5.37225,"is_reserved":false,"is_disabled":false,"rental_uris":{"android":"levelo://app?vid=e213958f-37b3-4ec3-830f-b81de5482c0e","ios":"levelo://app?vid=e213958f-37b3-4ec3-830f-b81de5482c0e"},"vehicle_type_id":"4","last_reported":1707674932,"current_range_meters":14800,"station_id":"ce4bgqh2rcd13ifvqc4g","pricing_plan_id":"free"},{"bike_id":"1197d265-5425-4d34-99d5-d225e6e47735","system_id":"levelo_inurba_marseille","lat":43.31118,"lon":5.37772,"is_reserved":false,"is_disabled":false,"rental_uris":{"android":"levelo://app?vid=1197d265-5425-4d34-99d5-d225e6e47735","ios":"levelo://app?vid=1197d265-5425-4d34-99d5-d225e6e47735"},"vehicle_type_id":"4","last_reported":1707674932,"current_range_meters":29200,"station_id":"ce4bgt92rcd13ifvqcg0","pricing_plan_id":"free"},{"bike_id":"a01015d0-3f56-48ac-94c5-240567a8949b","system_id":"levelo_inurba_marseille","lat":43.307945,"lon":5.376487,"is_reserved":false,"is_disabled":false,"rental_uris":{"android":"levelo://app?vid=a01015d0-3f56-48ac-94c5-240567a8949b","ios":"levelo://app?vid=a01015d0-3f56-48ac-94c5-240567a8949b"},"vehicle_type_id":"4","last_reported":1707674932,"current_range_meters":19200,"station_id":"ce4bgv92rcd13ifvqcq0","pricing_plan_id":"free"},{"bike_id":"9b2fb06c-b606-49ce-be43-fca9e3245494","system_id":"levelo_inurba_marseille","lat":43.307945,"lon":5.376487,"is_reserved":false,"is_disabled":false,"rental_uris":{"android":"levelo://app?vid=9b2fb06c-b606-49ce-be43-fca9e3245494","ios":"levelo://app?vid=9b2fb06c-b606-49ce-be43-fca9e3245494"},"vehicle_type_id":"4","last_reported":1707674932,"current_range_meters":4400,"station_id":"ce4bgv92rcd13ifvqcq0","pricing_plan_id":"free"},{"bike_id":"2b223a1a-61c5-4c0b-bed5-732d2bbf230c","system_id":"levelo_inurba_marseille","lat":43.307945,"lon":5.376487,"is_reserved":false,"is_disabled":false,"rental_uris":{"android":"levelo://app?vid=2b223a1a-61c5-4c0b-bed5-732d2bbf230c","ios":"levelo://app?vid=2b223a1a-61c5-4c0b-bed5-732d2bbf230c"},"vehicle_type_id":"4","last_reported":1707674932,"current_range_meters":16000,"station_id":"ce4bgv92rcd13ifvqcq0","pricing_plan_id":"free"},{"bike_id":"28fae585-92ec-4f82-ba97-d1e4edde2db9","system_id":"levelo_inurba_marseille","lat":43.317075,"lon":5.377367,"is_reserved":false,"is_disabled":false,"rental_uris":{"android":"levelo://app?vid=28fae585-92ec-4f82-ba97-d1e4edde2db9","ios":"levelo://app?vid=28fae585-92ec-4f82-ba97-d1e4edde2db9"},"vehicle_type_id":"4","last_reported":1707674932,"current_range_meters":25200,"station_id":"ce4bgth2rcd13ifvqch0","pricing_plan_id":"free"},{"bike_id":"a95c0a32-159b-4bd2-85e3-c509287456ad","system_id":"levelo_inurba_marseille","lat":43.30304,"lon":5.368987,"is_reserved":false,"is_disabled":false,"rental_uris":{"android":"levelo://app?vid=a95c0a32-159b-4bd2-85e3-c509287456ad","ios":"levelo://app?vid=a95c0a32-159b-4bd2-85e3-c509287456ad"},"vehicle_type_id":"4","last_reported":1707674932,"current_range_meters":12400,"station_id":"ce4bgqh2rcd13ifvqc5g","pricing_plan_id":"free"},{"bike_id":"627e40d5-8b44-4ddf-bbc1-994b7692ca18","system_id":"levelo_inurba_marseille","lat":43.303165,"lon":5.369005,"is_reserved":false,"is_disabled":false,"rental_uris":{"android":"levelo://app?vid=627e40d5-8b44-4ddf-bbc1-994b7692ca18","ios":"levelo://app?vid=627e40d5-8b44-4ddf-bbc1-994b7692ca18"},"vehicle_type_id":"4","last_reported":1707674932,"current_range_meters":0,"station_id":"ce4bgqh2rcd13ifvqc5g","pricing_plan_id":"free"},{"bike_id":"97c53864-b3d0-4907-9d48-c0fb23d4446d","system_id":"levelo_inurba_marseille","lat":43.30304,"lon":5.368987,"is_reserved":false,"is_disabled":false,"rental_uris":{"android":"levelo://app?vid=97c53864-b3d0-4907-9d48-c0fb23d4446d","ios":"levelo://app?vid=97c53864-b3d0-4907-9d48-c0fb23d4446d"},"vehicle_type_id":"4","last_reported":1707674932,"current_range_meters":20800,"station_id":"ce4bgqh2rcd13ifvqc5g","pricing_plan_id":"free"},{"bike_id":"dca02982-a8ca-4f8f-99aa-c4c50c3dc6cf","system_id":"levelo_inurba_marseille","lat":43.32273,"lon":5.36961,"is_reserved":false,"is_disabled":false,"rental_uris":{"android":"levelo://app?vid=dca02982-a8ca-4f8f-99aa-c4c50c3dc6cf","ios":"levelo://app?vid=dca02982-a8ca-4f8f-99aa-c4c50c3dc6cf"},"vehicle_type_id":"4","last_reported":1707674932,"current_range_meters":17600,"station_id":"","pricing_plan_id":"free"},{"bike_id":"4ee8faf9-1d97-47dd-9597-fe1fe8a03af3","system_id":"levelo_inurba_marseille","lat":43.309039,"lon":5.371797,"is_reserved":false,"is_disabled":false,"rental_uris":{"android":"levelo://app?vid=4ee8faf9-1d97-47dd-9597-fe1fe8a03af3","ios":"levelo://app?vid=4ee8faf9-1d97-47dd-9597-fe1fe8a03af3"},"vehicle_type_id":"4","last_reported":1707674932,"current_range_meters":24000,"station_id":"ce4bguh2rcd13ifvqckg","pricing_plan_id":"free"},{"bike_id":"3ab732c0-26d0-4585-a0b6-1da2fc2ba4b6","system_id":"levelo_inurba_marseille","lat":43.301939,"lon":5.366286,"is_reserved":false,"is_disabled":false,"rental_uris":{"android":"levelo://app?vid=3ab732c0-26d0-4585-a0b6-1da2fc2ba4b6","ios":"levelo://app?vid=3ab732c0-26d0-4585-a0b6-1da2fc2ba4b6"},"vehicle_type_id":"4","last_reported":1707674932,"current_range_meters":0,"station_id":"ce4bgrh2rcd13ifvqc8g","pricing_plan_id":"free"},{"bike_id":"d8fba0c3-f9a3-49d6-9129-1982405db515","system_id":"levelo_inurba_marseille","lat":43.301939,"lon":5.366286,"is_reserved":false,"is_disabled":false,"rental_uris":{"android":"levelo://app?vid=d8fba0c3-f9a3-49d6-9129-1982405db515","ios":"levelo://app?vid=d8fba0c3-f9a3-49d6-9129-1982405db515"},"vehicle_type_id":"4","last_reported":1707674932,"current_range_meters":28800,"station_id":"ce4bgrh2rcd13ifvqc8g","pricing_plan_id":"free"},{"bike_id":"d0fb9fef-c983-4e60-84ce-9bc8bde69e96","system_id":"levelo_inurba_marseille","lat":43.308012,"lon":5.381511,"is_reserved":false,"is_disabled":false,"rental_uris":{"android":"levelo://app?vid=d0fb9fef-c983-4e60-84ce-9bc8bde69e96","ios":"levelo://app?vid=d0fb9fef-c983-4e60-84ce-9bc8bde69e96"},"vehicle_type_id":"4","last_reported":1707674932,"current_range_meters":0,"station_id":"ce4bgt12rcd13ifvqce0","pricing_plan_id":"free"},{"bike_id":"08af8303-6a03-488d-84e7-d2af34b1d6b8","system_id":"levelo_inurba_marseille","lat":43.301939,"lon":5.366286,"is_reserved":false,"is_disabled":false,"rental_uris":{"android":"levelo://app?vid=08af8303-6a03-488d-84e7-d2af34b1d6b8","ios":"levelo://app?vid=08af8303-6a03-488d-84e7-d2af34b1d6b8"},"vehicle_type_id":"4","last_reported":1707674932,"current_range_meters":16000,"station_id":"ce4bgrh2rcd13ifvqc8g","pricing_plan_id":"free"},{"bike_id":"7ac5dbf1-9ffe-49b9-8088-8791d447664b","system_id":"levelo_inurba_marseille","lat":43.301939,"lon":5.366286,"is_reserved":false,"is_disabled":false,"rental_uris":{"android":"levelo://app?vid=7ac5dbf1-9ffe-49b9-8088-8791d447664b","ios":"levelo://app?vid=7ac5dbf1-9ffe-49b9-8088-8791d447664b"},"vehicle_type_id":"4","last_reported":1707674932,"current_range_meters":22000,"station_id":"ce4bgrh2rcd13ifvqc8g","pricing_plan_id":"free"},{"bike_id":"2c2a454b-e0ee-4846-a8cc-ee46fb3c5411","system_id":"levelo_inurba_marseille","lat":43.30804,"lon":5.38141,"is_reserved":false,"is_disabled":false,"rental_uris":{"android":"levelo://app?vid=2c2a454b-e0ee-4846-a8cc-ee46fb3c5411","ios":"levelo://app?vid=2c2a454b-e0ee-4846-a8cc-ee46fb3c5411"},"vehicle_type_id":"4","last_reported":1707674932,"current_range_meters":4000,"station_id":"ce4bgt12rcd13ifvqce0","pricing_plan_id":"free"},{"bike_id":"4ea3eb8c-844b-4f65-b0b0-7f49bce8df84","system_id":"levelo_inurba_marseille","lat":43.308012,"lon":5.381511,"is_reserved":false,"is_disabled":false,"rental_uris":{"android":"levelo://app?vid=4ea3eb8c-844b-4f65-b0b0-7f49bce8df84","ios":"levelo://app?vid=4ea3eb8c-844b-4f65-b0b0-7f49bce8df84"},"vehicle_type_id":"4","last_reported":1707674932,"current_range_meters":6400,"station_id":"ce4bgt12rcd13ifvqce0","pricing_plan_id":"free"},{"bike_id":"bb0e6ce6-fdb9-40db-b7e7-1458dec8dc49","system_id":"levelo_inurba_marseille","lat":43.304606,"lon":5.379026,"is_reserved":false,"is_disabled":false,"rental_uris":{"android":"levelo://app?vid=bb0e6ce6-fdb9-40db-b7e7-1458dec8dc49","ios":"levelo://app?vid=bb0e6ce6-fdb9-40db-b7e7-1458dec8dc49"},"vehicle_type_id":"4","last_reported":1707674932,"current_range_meters":24800,"station_id":"ce4bgup2rcd13ifvqcn0","pricing_plan_id":"free"},{"bike_id":"a34a2f83-cbcd-4c60-acc0-2f59774cd82e","system_id":"levelo_inurba_marseille","lat":43.324771,"lon":5.36557,"is_reserved":false,"is_disabled":false,"rental_uris":{"android":"levelo://app?vid=a34a2f83-cbcd-4c60-acc0-2f59774cd82e","ios":"levelo://app?vid=a34a2f83-cbcd-4c60-acc0-2f59774cd82e"},"vehicle_type_id":"4","last_reported":1707674932,"current_range_meters":10400,"station_id":"ce4bhs12rcd13ifvqhvg","pricing_plan_id":"free"},{"bike_id":"88757b7e-6a70-4dfc-b04c-255bba11b422","system_id":"levelo_inurba_marseille","lat":43.324771,"lon":5.36557,"is_reserved":false,"is_disabled":false,"rental_uris":{"android":"levelo://app?vid=88757b7e-6a70-4dfc-b04c-255bba11b422","ios":"levelo://app?vid=88757b7e-6a70-4dfc-b04c-255bba11b422"},"vehicle_type_id":"4","last_reported":1707674932,"current_range_meters":0,"station_id":"ce4bhs12rcd13ifvqhvg","pricing_plan_id":"free"},{"bike_id":"4b938ca4-1902-4f7a-ae5d-4a15896eebd9","system_id":"levelo_inurba_marseille","lat":43.324771,"lon":5.36557,"is_reserved":false,"is_disabled":false,"rental_uris":{"android":"levelo://app?vid=4b938ca4-1902-4f7a-ae5d-4a15896eebd9","ios":"levelo://app?vid=4b938ca4-1902-4f7a-ae5d-4a15896eebd9"},"vehicle_type_id":"4","last_reported":1707674932,"current_range_meters":28400,"station_id":"ce4bhs12rcd13ifvqhvg","pricing_plan_id":"free"},{"bike_id":"97f71f75-d414-4d74-9636-20377fab8590","system_id":"levelo_inurba_marseille","lat":43.324771,"lon":5.36557,"is_reserved":false,"is_disabled":false,"rental_uris":{"android":"levelo://app?vid=97f71f75-d414-4d74-9636-20377fab8590","ios":"levelo://app?vid=97f71f75-d414-4d74-9636-20377fab8590"},"vehicle_type_id":"4","last_reported":1707674932,"current_range_meters":7200,"station_id":"ce4bhs12rcd13ifvqhvg","pricing_plan_id":"free"},{"bike_id":"73dd03cd-847b-46a2-a69f-9cd97061dc72","system_id":"levelo_inurba_marseille","lat":43.324771,"lon":5.36557,"is_reserved":false,"is_disabled":false,"rental_uris":{"android":"levelo://app?vid=73dd03cd-847b-46a2-a69f-9cd97061dc72","ios":"levelo://app?vid=73dd03cd-847b-46a2-a69f-9cd97061dc72"},"vehicle_type_id":"4","last_reported":1707674932,"current_range_meters":17600,"station_id":"ce4bhs12rcd13ifvqhvg","pricing_plan_id":"free"},{"bike_id":"744a319b-a01d-4d96-a7b5-c0e2a04c1298","system_id":"levelo_inurba_marseille","lat":43.324771,"lon":5.36557,"is_reserved":false,"is_disabled":false,"rental_uris":{"android":"levelo://app?vid=744a319b-a01d-4d96-a7b5-c0e2a04c1298","ios":"levelo://app?vid=744a319b-a01d-4d96-a7b5-c0e2a04c1298"},"vehicle_type_id":"4","last_reported":1707674932,"current_range_meters":9600,"station_id":"ce4bhs12rcd13ifvqhvg","pricing_plan_id":"free"},{"bike_id":"a25a4e72-39fb-4e4c-b007-4f94627eaa37","system_id":"levelo_inurba_marseille","lat":43.324771,"lon":5.36557,"is_reserved":false,"is_disabled":false,"rental_uris":{"android":"levelo://app?vid=a25a4e72-39fb-4e4c-b007-4f94627eaa37","ios":"levelo://app?vid=a25a4e72-39fb-4e4c-b007-4f94627eaa37"},"vehicle_type_id":"4","last_reported":1707674932,"current_range_meters":21200,"station_id":"ce4bhs12rcd13ifvqhvg","pricing_plan_id":"free"},{"bike_id":"11f01369-a7c5-4ba3-8875-c0638819e40c","system_id":"levelo_inurba_marseille","lat":43.324771,"lon":5.36557,"is_reserved":false,"is_disabled":false,"rental_uris":{"android":"levelo://app?vid=11f01369-a7c5-4ba3-8875-c0638819e40c","ios":"levelo://app?vid=11f01369-a7c5-4ba3-8875-c0638819e40c"},"vehicle_type_id":"4","last_reported":1707674932,"current_range_meters":12000,"station_id":"ce4bhs12rcd13ifvqhvg","pricing_plan_id":"free"},{"bike_id":"f05f711b-c32f-4dcf-aab0-5e9245ff1260","system_id":"levelo_inurba_marseille","lat":43.302784,"lon":5.377158,"is_reserved":false,"is_disabled":false,"rental_uris":{"android":"levelo://app?vid=f05f711b-c32f-4dcf-aab0-5e9245ff1260","ios":"levelo://app?vid=f05f711b-c32f-4dcf-aab0-5e9245ff1260"},"vehicle_type_id":"4","last_reported":1707674932,"current_range_meters":31200,"station_id":"ce4bguh2rcd13ifvqcj0","pricing_plan_id":"free"},{"bike_id":"e66198d1-5c87-4529-b915-2ad03f5d52cf","system_id":"levelo_inurba_marseille","lat":43.310804,"lon":5.38359,"is_reserved":false,"is_disabled":false,"rental_uris":{"android":"levelo://app?vid=e66198d1-5c87-4529-b915-2ad03f5d52cf","ios":"levelo://app?vid=e66198d1-5c87-4529-b915-2ad03f5d52cf"},"vehicle_type_id":"4","last_reported":1707674932,"current_range_meters":12400,"station_id":"ce4bgv92rcd13ifvqcr0","pricing_plan_id":"free"},{"bike_id":"3894877a-4e77-495e-8db0-73e9bb120bc7","system_id":"levelo_inurba_marseille","lat":43.310804,"lon":5.38359,"is_reserved":false,"is_disabled":false,"rental_uris":{"android":"levelo://app?vid=3894877a-4e77-495e-8db0-73e9bb120bc7","ios":"levelo://app?vid=3894877a-4e77-495e-8db0-73e9bb120bc7"},"vehicle_type_id":"4","last_reported":1707674932,"current_range_meters":23600,"station_id":"ce4bgv92rcd13ifvqcr0","pricing_plan_id":"free"},{"bike_id":"d8a3593a-027c-4e43-baec-1a030d835518","system_id":"levelo_inurba_marseille","lat":43.302784,"lon":5.377158,"is_reserved":false,"is_disabled":false,"rental_uris":{"android":"levelo://app?vid=d8a3593a-027c-4e43-baec-1a030d835518","ios":"levelo://app?vid=d8a3593a-027c-4e43-baec-1a030d835518"},"vehicle_type_id":"4","last_reported":1707674932,"current_range_meters":400,"station_id":"ce4bguh2rcd13ifvqcj0","pricing_plan_id":"free"},{"bike_id":"a492622d-1b73-4f05-be17-c275b2336d20","system_id":"levelo_inurba_marseille","lat":43.301429,"lon":5.37413,"is_reserved":false,"is_disabled":false,"rental_uris":{"android":"levelo://app?vid=a492622d-1b73-4f05-be17-c275b2336d20","ios":"levelo://app?vid=a492622d-1b73-4f05-be17-c275b2336d20"},"vehicle_type_id":"4","last_reported":1707674932,"current_range_meters":31600,"station_id":"ce4bgs92rcd13ifvqcc0","pricing_plan_id":"free"},{"bike_id":"83e621d3-8454-4a20-a1f9-0d10b3e8bd40","system_id":"levelo_inurba_marseille","lat":43.30146,"lon":5.374211,"is_reserved":false,"is_disabled":false,"rental_uris":{"android":"levelo://app?vid=83e621d3-8454-4a20-a1f9-0d10b3e8bd40","ios":"levelo://app?vid=83e621d3-8454-4a20-a1f9-0d10b3e8bd40"},"vehicle_type_id":"4","last_reported":1707674932,"current_range_meters":30400,"station_id":"ce4bgs92rcd13ifvqcc0","pricing_plan_id":"free"},{"bike_id":"0eb65560-c12d-42b3-83b5-e3dfa0419189","system_id":"levelo_inurba_marseille","lat":43.301429,"lon":5.37413,"is_reserved":false,"is_disabled":false,"rental_uris":{"android":"levelo://app?vid=0eb65560-c12d-42b3-83b5-e3dfa0419189","ios":"levelo://app?vid=0eb65560-c12d-42b3-83b5-e3dfa0419189"},"vehicle_type_id":"4","last_reported":1707674932,"current_range_meters":31200,"station_id":"ce4bgs92rcd13ifvqcc0","pricing_plan_id":"free"},{"bike_id":"895a9455-4ea2-4e94-ac0e-16ec81c77a43","system_id":"levelo_inurba_marseille","lat":43.301429,"lon":5.37413,"is_reserved":false,"is_disabled":false,"rental_uris":{"android":"levelo://app?vid=895a9455-4ea2-4e94-ac0e-16ec81c77a43","ios":"levelo://app?vid=895a9455-4ea2-4e94-ac0e-16ec81c77a43"},"vehicle_type_id":"4","last_reported":1707674932,"current_range_meters":31600,"station_id":"ce4bgs92rcd13ifvqcc0","pricing_plan_id":"free"},{"bike_id":"f3adfb4d-f0b1-4cf5-b3df-89abfa30c2ac","system_id":"levelo_inurba_marseille","lat":43.301429,"lon":5.37413,"is_reserved":false,"is_disabled":false,"rental_uris":{"android":"levelo://app?vid=f3adfb4d-f0b1-4cf5-b3df-89abfa30c2ac","ios":"levelo://app?vid=f3adfb4d-f0b1-4cf5-b3df-89abfa30c2ac"},"vehicle_type_id":"4","last_reported":1707674932,"current_range_meters":22400,"station_id":"ce4bgs92rcd13ifvqcc0","pricing_plan_id":"free"},{"bike_id":"b0e9c3f5-6879-498f-a361-803479ec81f3","system_id":"levelo_inurba_marseille","lat":43.301455,"lon":5.37433,"is_reserved":false,"is_disabled":false,"rental_uris":{"android":"levelo://app?vid=b0e9c3f5-6879-498f-a361-803479ec81f3","ios":"levelo://app?vid=b0e9c3f5-6879-498f-a361-803479ec81f3"},"vehicle_type_id":"4","last_reported":1707674932,"current_range_meters":3200,"station_id":"ce4bgs92rcd13ifvqcc0","pricing_plan_id":"free"},{"bike_id":"752eb8ef-7106-44a6-af74-1fc5d312ea37","system_id":"levelo_inurba_marseille","lat":43.30138,"lon":5.37424,"is_reserved":false,"is_disabled":false,"rental_uris":{"android":"levelo://app?vid=752eb8ef-7106-44a6-af74-1fc5d312ea37","ios":"levelo://app?vid=752eb8ef-7106-44a6-af74-1fc5d312ea37"},"vehicle_type_id":"4","last_reported":1707674932,"current_range_meters":26000,"station_id":"ce4bgs92rcd13ifvqcc0","pricing_plan_id":"free"},{"bike_id":"52ce10df-218c-4855-ab5a-cd0f3cd6dffb","system_id":"levelo_inurba_marseille","lat":43.319935,"lon":5.381699,"is_reserved":false,"is_disabled":false,"rental_uris":{"android":"levelo://app?vid=52ce10df-218c-4855-ab5a-cd0f3cd6dffb","ios":"levelo://app?vid=52ce10df-218c-4855-ab5a-cd0f3cd6dffb"},"vehicle_type_id":"4","last_reported":1707674932,"current_range_meters":22400,"station_id":"ce4bhr12rcd13ifvqhpg","pricing_plan_id":"free"},{"bike_id":"197e2d22-1ad5-47b2-8c09-70933158ca5e","system_id":"levelo_inurba_marseille","lat":43.319935,"lon":5.381699,"is_reserved":false,"is_disabled":false,"rental_uris":{"android":"levelo://app?vid=197e2d22-1ad5-47b2-8c09-70933158ca5e","ios":"levelo://app?vid=197e2d22-1ad5-47b2-8c09-70933158ca5e"},"vehicle_type_id":"4","last_reported":1707674932,"current_range_meters":8000,"station_id":"ce4bhr12rcd13ifvqhpg","pricing_plan_id":"free"},{"bike_id":"29fa302f-0e29-4792-97e2-6007e6d76038","system_id":"levelo_inurba_marseille","lat":43.313571,"lon":5.384829,"is_reserved":false,"is_disabled":false,"rental_uris":{"android":"levelo://app?vid=29fa302f-0e29-4792-97e2-6007e6d76038","ios":"levelo://app?vid=29fa302f-0e29-4792-97e2-6007e6d76038"},"vehicle_type_id":"4","last_reported":1707674932,"current_range_meters":4000,"station_id":"ce4bgt92rcd13ifvqcf0","pricing_plan_id":"free"},{"bike_id":"1327bfa0-8e70-41e2-971f-f9581710f16a","system_id":"levelo_inurba_marseille","lat":43.313571,"lon":5.384829,"is_reserved":false,"is_disabled":false,"rental_uris":{"android":"levelo://app?vid=1327bfa0-8e70-41e2-971f-f9581710f16a","ios":"levelo://app?vid=1327bfa0-8e70-41e2-971f-f9581710f16a"},"vehicle_type_id":"4","last_reported":1707674932,"current_range_meters":6000,"station_id":"ce4bgt92rcd13ifvqcf0","pricing_plan_id":"free"},{"bike_id":"6c057783-c85b-4dab-b822-99e3a417f811","system_id":"levelo_inurba_marseille","lat":43.313571,"lon":5.384829,"is_reserved":false,"is_disabled":false,"rental_uris":{"android":"levelo://app?vid=6c057783-c85b-4dab-b822-99e3a417f811","ios":"levelo://app?vid=6c057783-c85b-4dab-b822-99e3a417f811"},"vehicle_type_id":"4","last_reported":1707674932,"current_range_meters":1600,"station_id":"ce4bgt92rcd13ifvqcf0","pricing_plan_id":"free"},{"bike_id":"99562c58-f17d-446f-afb5-48ccc1eb0fbe","system_id":"levelo_inurba_marseille","lat":43.313571,"lon":5.384829,"is_reserved":false,"is_disabled":false,"rental_uris":{"android":"levelo://app?vid=99562c58-f17d-446f-afb5-48ccc1eb0fbe","ios":"levelo://app?vid=99562c58-f17d-446f-afb5-48ccc1eb0fbe"},"vehicle_type_id":"4","last_reported":1707674932,"current_range_meters":16000,"station_id":"ce4bgt92rcd13ifvqcf0","pricing_plan_id":"free"},{"bike_id":"6c7eb289-c43e-402b-a39b-aeff7faf73e6","system_id":"levelo_inurba_marseille","lat":43.304725,"lon":5.38137,"is_reserved":false,"is_disabled":false,"rental_uris":{"android":"levelo://app?vid=6c7eb289-c43e-402b-a39b-aeff7faf73e6","ios":"levelo://app?vid=6c7eb289-c43e-402b-a39b-aeff7faf73e6"},"vehicle_type_id":"4","last_reported":1707674932,"current_range_meters":6400,"station_id":"","pricing_plan_id":"free"},{"bike_id":"a97e19f4-d5b5-4d13-9f1d-51e548d2fd35","system_id":"levelo_inurba_marseille","lat":43.299222,"lon":5.365554,"is_reserved":false,"is_disabled":false,"rental_uris":{"android":"levelo://app?vid=a97e19f4-d5b5-4d13-9f1d-51e548d2fd35","ios":"levelo://app?vid=a97e19f4-d5b5-4d13-9f1d-51e548d2fd35"},"vehicle_type_id":"4","last_reported":1707674932,"current_range_meters":30400,"station_id":"ce4bgm92rcd13ifvqbr0","pricing_plan_id":"free"},{"bike_id":"a3aaae77-ddec-4b99-b612-24fb05f4b9e9","system_id":"levelo_inurba_marseille","lat":43.299724,"lon":5.371829,"is_reserved":false,"is_disabled":false,"rental_uris":{"android":"levelo://app?vid=a3aaae77-ddec-4b99-b612-24fb05f4b9e9","ios":"levelo://app?vid=a3aaae77-ddec-4b99-b612-24fb05f4b9e9"},"vehicle_type_id":"4","last_reported":1707674932,"current_range_meters":23600,"station_id":"ce4bgr92rcd13ifvqc7g","pricing_plan_id":"free"},{"bike_id":"ed20797e-c65c-4e00-8127-1992cfa5c713","system_id":"levelo_inurba_marseille","lat":43.299724,"lon":5.371829,"is_reserved":false,"is_disabled":false,"rental_uris":{"android":"levelo://app?vid=ed20797e-c65c-4e00-8127-1992cfa5c713","ios":"levelo://app?vid=ed20797e-c65c-4e00-8127-1992cfa5c713"},"vehicle_type_id":"4","last_reported":1707674932,"current_range_meters":23600,"station_id":"ce4bgr92rcd13ifvqc7g","pricing_plan_id":"free"},{"bike_id":"3e7e1748-ed0c-465a-b1f8-17e45577f603","system_id":"levelo_inurba_marseille","lat":43.2986,"lon":5.36282,"is_reserved":false,"is_disabled":false,"rental_uris":{"android":"levelo://app?vid=3e7e1748-ed0c-465a-b1f8-17e45577f603","ios":"levelo://app?vid=3e7e1748-ed0c-465a-b1f8-17e45577f603"},"vehicle_type_id":"4","last_reported":1707674932,"current_range_meters":17600,"station_id":"ce4bgpp2rcd13ifvqc3g","pricing_plan_id":"free"},{"bike_id":"bc9d0828-3280-4632-ba61-6d143638b131","system_id":"levelo_inurba_marseille","lat":43.298527,"lon":5.36288,"is_reserved":false,"is_disabled":false,"rental_uris":{"android":"levelo://app?vid=bc9d0828-3280-4632-ba61-6d143638b131","ios":"levelo://app?vid=bc9d0828-3280-4632-ba61-6d143638b131"},"vehicle_type_id":"4","last_reported":1707674932,"current_range_meters":7200,"station_id":"ce4bgpp2rcd13ifvqc3g","pricing_plan_id":"free"},{"bike_id":"1195e01a-b78d-433f-b86a-b6c35dd72bde","system_id":"levelo_inurba_marseille","lat":43.298433,"lon":5.362774,"is_reserved":false,"is_disabled":false,"rental_uris":{"android":"levelo://app?vid=1195e01a-b78d-433f-b86a-b6c35dd72bde","ios":"levelo://app?vid=1195e01a-b78d-433f-b86a-b6c35dd72bde"},"vehicle_type_id":"4","last_reported":1707674932,"current_range_meters":12000,"station_id":"ce4bgpp2rcd13ifvqc3g","pricing_plan_id":"free"},{"bike_id":"5a8fa001-e3bf-4287-9f59-de66fa4179c0","system_id":"levelo_inurba_marseille","lat":43.31152,"lon":5.38681,"is_reserved":false,"is_disabled":false,"rental_uris":{"android":"levelo://app?vid=5a8fa001-e3bf-4287-9f59-de66fa4179c0","ios":"levelo://app?vid=5a8fa001-e3bf-4287-9f59-de66fa4179c0"},"vehicle_type_id":"4","last_reported":1707674932,"current_range_meters":24000,"station_id":"ce4bgv12rcd13ifvqcp0","pricing_plan_id":"free"},{"bike_id":"e27a2d58-5ece-40b2-ad99-3da71becd743","system_id":"levelo_inurba_marseille","lat":43.298433,"lon":5.362774,"is_reserved":false,"is_disabled":false,"rental_uris":{"android":"levelo://app?vid=e27a2d58-5ece-40b2-ad99-3da71becd743","ios":"levelo://app?vid=e27a2d58-5ece-40b2-ad99-3da71becd743"},"vehicle_type_id":"4","last_reported":1707674932,"current_range_meters":22400,"station_id":"ce4bgpp2rcd13ifvqc3g","pricing_plan_id":"free"},{"bike_id":"f8ac3af1-4ae1-47ef-9d52-91500b383ae0","system_id":"levelo_inurba_marseille","lat":43.298433,"lon":5.362774,"is_reserved":false,"is_disabled":false,"rental_uris":{"android":"levelo://app?vid=f8ac3af1-4ae1-47ef-9d52-91500b383ae0","ios":"levelo://app?vid=f8ac3af1-4ae1-47ef-9d52-91500b383ae0"},"vehicle_type_id":"4","last_reported":1707674932,"current_range_meters":6000,"station_id":"ce4bgpp2rcd13ifvqc3g","pricing_plan_id":"free"},{"bike_id":"cb4412b0-0882-4c34-8746-ccbd947d5610","system_id":"levelo_inurba_marseille","lat":43.298433,"lon":5.362774,"is_reserved":false,"is_disabled":false,"rental_uris":{"android":"levelo://app?vid=cb4412b0-0882-4c34-8746-ccbd947d5610","ios":"levelo://app?vid=cb4412b0-0882-4c34-8746-ccbd947d5610"},"vehicle_type_id":"4","last_reported":1707674932,"current_range_meters":2000,"station_id":"ce4bgpp2rcd13ifvqc3g","pricing_plan_id":"free"},{"bike_id":"3687409d-1ec2-4e0e-9465-62d5a29940cf","system_id":"levelo_inurba_marseille","lat":43.305468,"lon":5.384345,"is_reserved":false,"is_disabled":false,"rental_uris":{"android":"levelo://app?vid=3687409d-1ec2-4e0e-9465-62d5a29940cf","ios":"levelo://app?vid=3687409d-1ec2-4e0e-9465-62d5a29940cf"},"vehicle_type_id":"4","last_reported":1707674932,"current_range_meters":0,"station_id":"ce4bgg92rcd13ifvqb30","pricing_plan_id":"free"},{"bike_id":"f3394f2e-1d96-49ad-bfce-c64b567a5e8c","system_id":"levelo_inurba_marseille","lat":43.298433,"lon":5.362774,"is_reserved":false,"is_disabled":false,"rental_uris":{"android":"levelo://app?vid=f3394f2e-1d96-49ad-bfce-c64b567a5e8c","ios":"levelo://app?vid=f3394f2e-1d96-49ad-bfce-c64b567a5e8c"},"vehicle_type_id":"4","last_reported":1707674932,"current_range_meters":10000,"station_id":"ce4bgpp2rcd13ifvqc3g","pricing_plan_id":"free"},{"bike_id":"e9d7c08a-db71-471c-a2fc-c839847aab22","system_id":"levelo_inurba_marseille","lat":43.298433,"lon":5.362774,"is_reserved":false,"is_disabled":false,"rental_uris":{"android":"levelo://app?vid=e9d7c08a-db71-471c-a2fc-c839847aab22","ios":"levelo://app?vid=e9d7c08a-db71-471c-a2fc-c839847aab22"},"vehicle_type_id":"4","last_reported":1707674932,"current_range_meters":30400,"station_id":"ce4bgpp2rcd13ifvqc3g","pricing_plan_id":"free"},{"bike_id":"f91c7fe3-070e-4347-8431-c9523c66baa9","system_id":"levelo_inurba_marseille","lat":43.298433,"lon":5.362774,"is_reserved":false,"is_disabled":false,"rental_uris":{"android":"levelo://app?vid=f91c7fe3-070e-4347-8431-c9523c66baa9","ios":"levelo://app?vid=f91c7fe3-070e-4347-8431-c9523c66baa9"},"vehicle_type_id":"4","last_reported":1707674932,"current_range_meters":28000,"station_id":"ce4bgpp2rcd13ifvqc3g","pricing_plan_id":"free"},{"bike_id":"71237215-a326-452a-8768-c37488ebb3fe","system_id":"levelo_inurba_marseille","lat":43.29922,"lon":5.37481,"is_reserved":false,"is_disabled":false,"rental_uris":{"android":"levelo://app?vid=71237215-a326-452a-8768-c37488ebb3fe","ios":"levelo://app?vid=71237215-a326-452a-8768-c37488ebb3fe"},"vehicle_type_id":"4","last_reported":1707674932,"current_range_meters":0,"station_id":"ce4bgjh2rcd13ifvqbg0","pricing_plan_id":"free"},{"bike_id":"ec59099c-fc38-41a9-b439-48a237da8f46","system_id":"levelo_inurba_marseille","lat":43.311722,"lon":5.387247,"is_reserved":false,"is_disabled":false,"rental_uris":{"android":"levelo://app?vid=ec59099c-fc38-41a9-b439-48a237da8f46","ios":"levelo://app?vid=ec59099c-fc38-41a9-b439-48a237da8f46"},"vehicle_type_id":"4","last_reported":1707674932,"current_range_meters":11600,"station_id":"ce4bgv12rcd13ifvqcp0","pricing_plan_id":"free"},{"bike_id":"e0ba7866-91c2-4583-a231-f5acb5b94c18","system_id":"levelo_inurba_marseille","lat":43.311722,"lon":5.387247,"is_reserved":false,"is_disabled":false,"rental_uris":{"android":"levelo://app?vid=e0ba7866-91c2-4583-a231-f5acb5b94c18","ios":"levelo://app?vid=e0ba7866-91c2-4583-a231-f5acb5b94c18"},"vehicle_type_id":"4","last_reported":1707674932,"current_range_meters":12800,"station_id":"ce4bgv12rcd13ifvqcp0","pricing_plan_id":"free"},{"bike_id":"d56993cc-4481-4134-b4f9-64d4c3a1685a","system_id":"levelo_inurba_marseille","lat":43.311722,"lon":5.387247,"is_reserved":false,"is_disabled":false,"rental_uris":{"android":"levelo://app?vid=d56993cc-4481-4134-b4f9-64d4c3a1685a","ios":"levelo://app?vid=d56993cc-4481-4134-b4f9-64d4c3a1685a"},"vehicle_type_id":"4","last_reported":1707674932,"current_range_meters":26400,"station_id":"ce4bgv12rcd13ifvqcp0","pricing_plan_id":"free"},{"bike_id":"9143bee5-80b1-4b01-94e0-f07a164605d9","system_id":"levelo_inurba_marseille","lat":43.297794,"lon":5.370888,"is_reserved":false,"is_disabled":false,"rental_uris":{"android":"levelo://app?vid=9143bee5-80b1-4b01-94e0-f07a164605d9","ios":"levelo://app?vid=9143bee5-80b1-4b01-94e0-f07a164605d9"},"vehicle_type_id":"4","last_reported":1707674932,"current_range_meters":8000,"station_id":"ce4bgop2rcd13ifvqc1g","pricing_plan_id":"free"},{"bike_id":"7f3fb8f5-0f0c-45f1-9b91-184855e5a9cc","system_id":"levelo_inurba_marseille","lat":43.327939,"lon":5.366872,"is_reserved":false,"is_disabled":false,"rental_uris":{"android":"levelo://app?vid=7f3fb8f5-0f0c-45f1-9b91-184855e5a9cc","ios":"levelo://app?vid=7f3fb8f5-0f0c-45f1-9b91-184855e5a9cc"},"vehicle_type_id":"4","last_reported":1707674932,"current_range_meters":25600,"station_id":"ce4bhs92rcd13ifvqi0g","pricing_plan_id":"free"},{"bike_id":"c3332315-777e-4af8-b68a-18a46d9c4f28","system_id":"levelo_inurba_marseille","lat":43.322872,"lon":5.382756,"is_reserved":false,"is_disabled":false,"rental_uris":{"android":"levelo://app?vid=c3332315-777e-4af8-b68a-18a46d9c4f28","ios":"levelo://app?vid=c3332315-777e-4af8-b68a-18a46d9c4f28"},"vehicle_type_id":"4","last_reported":1707674932,"current_range_meters":31200,"station_id":"ce4bhr12rcd13ifvqhqg","pricing_plan_id":"free"},{"bike_id":"387a9b26-af21-4ae9-b3fc-b20a0884f8c3","system_id":"levelo_inurba_marseille","lat":43.297794,"lon":5.370888,"is_reserved":false,"is_disabled":false,"rental_uris":{"android":"levelo://app?vid=387a9b26-af21-4ae9-b3fc-b20a0884f8c3","ios":"levelo://app?vid=387a9b26-af21-4ae9-b3fc-b20a0884f8c3"},"vehicle_type_id":"4","last_reported":1707674932,"current_range_meters":12400,"station_id":"ce4bgop2rcd13ifvqc1g","pricing_plan_id":"free"},{"bike_id":"33170a3c-d249-42cf-a23e-db8cbeecfd39","system_id":"levelo_inurba_marseille","lat":43.322872,"lon":5.382756,"is_reserved":false,"is_disabled":false,"rental_uris":{"android":"levelo://app?vid=33170a3c-d249-42cf-a23e-db8cbeecfd39","ios":"levelo://app?vid=33170a3c-d249-42cf-a23e-db8cbeecfd39"},"vehicle_type_id":"4","last_reported":1707674932,"current_range_meters":14400,"station_id":"ce4bhr12rcd13ifvqhqg","pricing_plan_id":"free"},{"bike_id":"7c59bca1-a347-4cb9-b145-64f6481277fc","system_id":"levelo_inurba_marseille","lat":43.322872,"lon":5.382756,"is_reserved":false,"is_disabled":false,"rental_uris":{"android":"levelo://app?vid=7c59bca1-a347-4cb9-b145-64f6481277fc","ios":"levelo://app?vid=7c59bca1-a347-4cb9-b145-64f6481277fc"},"vehicle_type_id":"4","last_reported":1707674932,"current_range_meters":31200,"station_id":"ce4bhr12rcd13ifvqhqg","pricing_plan_id":"free"},{"bike_id":"1a584bd8-d11f-429e-88a7-aaed7dc1afb6","system_id":"levelo_inurba_marseille","lat":43.322872,"lon":5.382756,"is_reserved":false,"is_disabled":false,"rental_uris":{"android":"levelo://app?vid=1a584bd8-d11f-429e-88a7-aaed7dc1afb6","ios":"levelo://app?vid=1a584bd8-d11f-429e-88a7-aaed7dc1afb6"},"vehicle_type_id":"4","last_reported":1707674932,"current_range_meters":1600,"station_id":"ce4bhr12rcd13ifvqhqg","pricing_plan_id":"free"},{"bike_id":"c780842c-e95f-47ff-a149-ed36c8a413db","system_id":"levelo_inurba_marseille","lat":43.322872,"lon":5.382756,"is_reserved":false,"is_disabled":false,"rental_uris":{"android":"levelo://app?vid=c780842c-e95f-47ff-a149-ed36c8a413db","ios":"levelo://app?vid=c780842c-e95f-47ff-a149-ed36c8a413db"},"vehicle_type_id":"4","last_reported":1707674932,"current_range_meters":31600,"station_id":"ce4bhr12rcd13ifvqhqg","pricing_plan_id":"free"},{"bike_id":"abd329cb-35b6-432f-a467-7e380a9ce776","system_id":"levelo_inurba_marseille","lat":43.322872,"lon":5.382756,"is_reserved":false,"is_disabled":false,"rental_uris":{"android":"levelo://app?vid=abd329cb-35b6-432f-a467-7e380a9ce776","ios":"levelo://app?vid=abd329cb-35b6-432f-a467-7e380a9ce776"},"vehicle_type_id":"4","last_reported":1707674932,"current_range_meters":6400,"station_id":"ce4bhr12rcd13ifvqhqg","pricing_plan_id":"free"},{"bike_id":"e5750477-e3f2-40a2-b1f6-91d5216398f6","system_id":"levelo_inurba_marseille","lat":43.322872,"lon":5.382756,"is_reserved":false,"is_disabled":false,"rental_uris":{"android":"levelo://app?vid=e5750477-e3f2-40a2-b1f6-91d5216398f6","ios":"levelo://app?vid=e5750477-e3f2-40a2-b1f6-91d5216398f6"},"vehicle_type_id":"4","last_reported":1707674932,"current_range_meters":28000,"station_id":"ce4bhr12rcd13ifvqhqg","pricing_plan_id":"free"},{"bike_id":"1a66b616-9202-459b-a728-2ec0d016a489","system_id":"levelo_inurba_marseille","lat":43.322872,"lon":5.382756,"is_reserved":false,"is_disabled":false,"rental_uris":{"android":"levelo://app?vid=1a66b616-9202-459b-a728-2ec0d016a489","ios":"levelo://app?vid=1a66b616-9202-459b-a728-2ec0d016a489"},"vehicle_type_id":"4","last_reported":1707674932,"current_range_meters":1600,"station_id":"ce4bhr12rcd13ifvqhqg","pricing_plan_id":"free"},{"bike_id":"d16915ab-365b-49c0-8e2e-1059f74f084d","system_id":"levelo_inurba_marseille","lat":43.322872,"lon":5.382756,"is_reserved":false,"is_disabled":false,"rental_uris":{"android":"levelo://app?vid=d16915ab-365b-49c0-8e2e-1059f74f084d","ios":"levelo://app?vid=d16915ab-365b-49c0-8e2e-1059f74f084d"},"vehicle_type_id":"4","last_reported":1707674932,"current_range_meters":27200,"station_id":"ce4bhr12rcd13ifvqhqg","pricing_plan_id":"free"},{"bike_id":"2ac1f315-5daf-4bcd-9ff8-b6cb88127386","system_id":"levelo_inurba_marseille","lat":43.322872,"lon":5.382756,"is_reserved":false,"is_disabled":false,"rental_uris":{"android":"levelo://app?vid=2ac1f315-5daf-4bcd-9ff8-b6cb88127386","ios":"levelo://app?vid=2ac1f315-5daf-4bcd-9ff8-b6cb88127386"},"vehicle_type_id":"4","last_reported":1707674932,"current_range_meters":4800,"station_id":"ce4bhr12rcd13ifvqhqg","pricing_plan_id":"free"},{"bike_id":"64013356-5f58-47c1-bf3d-bed7335409fd","system_id":"levelo_inurba_marseille","lat":43.32819,"lon":5.36673,"is_reserved":false,"is_disabled":false,"rental_uris":{"android":"levelo://app?vid=64013356-5f58-47c1-bf3d-bed7335409fd","ios":"levelo://app?vid=64013356-5f58-47c1-bf3d-bed7335409fd"},"vehicle_type_id":"4","last_reported":1707674932,"current_range_meters":24000,"station_id":"ce4bhs92rcd13ifvqi0g","pricing_plan_id":"free"},{"bike_id":"9dc43126-690c-4033-80cc-d8c45967e0b8","system_id":"levelo_inurba_marseille","lat":43.32821,"lon":5.36683,"is_reserved":false,"is_disabled":false,"rental_uris":{"android":"levelo://app?vid=9dc43126-690c-4033-80cc-d8c45967e0b8","ios":"levelo://app?vid=9dc43126-690c-4033-80cc-d8c45967e0b8"},"vehicle_type_id":"4","last_reported":1707674932,"current_range_meters":24400,"station_id":"ce4bhs92rcd13ifvqi0g","pricing_plan_id":"free"},{"bike_id":"9aa15d81-4547-4dcd-a953-444d2c97f15f","system_id":"levelo_inurba_marseille","lat":43.32822,"lon":5.36679,"is_reserved":false,"is_disabled":false,"rental_uris":{"android":"levelo://app?vid=9aa15d81-4547-4dcd-a953-444d2c97f15f","ios":"levelo://app?vid=9aa15d81-4547-4dcd-a953-444d2c97f15f"},"vehicle_type_id":"4","last_reported":1707674932,"current_range_meters":3600,"station_id":"ce4bhs92rcd13ifvqi0g","pricing_plan_id":"free"},{"bike_id":"a44933ef-03a0-4282-9ff6-bcc91878fda0","system_id":"levelo_inurba_marseille","lat":43.328223,"lon":5.366815,"is_reserved":false,"is_disabled":false,"rental_uris":{"android":"levelo://app?vid=a44933ef-03a0-4282-9ff6-bcc91878fda0","ios":"levelo://app?vid=a44933ef-03a0-4282-9ff6-bcc91878fda0"},"vehicle_type_id":"4","last_reported":1707674932,"current_range_meters":11600,"station_id":"ce4bhs92rcd13ifvqi0g","pricing_plan_id":"free"},{"bike_id":"c7a4a93f-e9ae-4e04-8011-441e8455160b","system_id":"levelo_inurba_marseille","lat":43.328263,"lon":5.366828,"is_reserved":false,"is_disabled":false,"rental_uris":{"android":"levelo://app?vid=c7a4a93f-e9ae-4e04-8011-441e8455160b","ios":"levelo://app?vid=c7a4a93f-e9ae-4e04-8011-441e8455160b"},"vehicle_type_id":"4","last_reported":1707674932,"current_range_meters":24000,"station_id":"ce4bhs92rcd13ifvqi0g","pricing_plan_id":"free"},{"bike_id":"e4aa0c2e-eb2c-4a01-8f5f-8899f6b1b542","system_id":"levelo_inurba_marseille","lat":43.32827,"lon":5.3668,"is_reserved":false,"is_disabled":false,"rental_uris":{"android":"levelo://app?vid=e4aa0c2e-eb2c-4a01-8f5f-8899f6b1b542","ios":"levelo://app?vid=e4aa0c2e-eb2c-4a01-8f5f-8899f6b1b542"},"vehicle_type_id":"4","last_reported":1707674932,"current_range_meters":14000,"station_id":"ce4bhs92rcd13ifvqi0g","pricing_plan_id":"free"},{"bike_id":"da6e96c9-61f4-42f7-98c7-23a5dd698b48","system_id":"levelo_inurba_marseille","lat":43.32828,"lon":5.36684,"is_reserved":false,"is_disabled":false,"rental_uris":{"android":"levelo://app?vid=da6e96c9-61f4-42f7-98c7-23a5dd698b48","ios":"levelo://app?vid=da6e96c9-61f4-42f7-98c7-23a5dd698b48"},"vehicle_type_id":"4","last_reported":1707674932,"current_range_meters":15600,"station_id":"ce4bhs92rcd13ifvqi0g","pricing_plan_id":"free"},{"bike_id":"b920af76-ba6d-4698-b709-7b37d3d70e64","system_id":"levelo_inurba_marseille","lat":43.32828,"lon":5.36677,"is_reserved":false,"is_disabled":false,"rental_uris":{"android":"levelo://app?vid=b920af76-ba6d-4698-b709-7b37d3d70e64","ios":"levelo://app?vid=b920af76-ba6d-4698-b709-7b37d3d70e64"},"vehicle_type_id":"4","last_reported":1707674932,"current_range_meters":7200,"station_id":"ce4bhs92rcd13ifvqi0g","pricing_plan_id":"free"},{"bike_id":"de562f14-ffaa-41a8-9815-6c8ff06728a2","system_id":"levelo_inurba_marseille","lat":43.32829,"lon":5.36674,"is_reserved":false,"is_disabled":false,"rental_uris":{"android":"levelo://app?vid=de562f14-ffaa-41a8-9815-6c8ff06728a2","ios":"levelo://app?vid=de562f14-ffaa-41a8-9815-6c8ff06728a2"},"vehicle_type_id":"4","last_reported":1707674932,"current_range_meters":22400,"station_id":"ce4bhs92rcd13ifvqi0g","pricing_plan_id":"free"},{"bike_id":"d974a6e6-7f9c-40ba-b257-f1959c183003","system_id":"levelo_inurba_marseille","lat":43.3283,"lon":5.36685,"is_reserved":false,"is_disabled":false,"rental_uris":{"android":"levelo://app?vid=d974a6e6-7f9c-40ba-b257-f1959c183003","ios":"levelo://app?vid=d974a6e6-7f9c-40ba-b257-f1959c183003"},"vehicle_type_id":"4","last_reported":1707674932,"current_range_meters":12800,"station_id":"ce4bhs92rcd13ifvqi0g","pricing_plan_id":"free"},{"bike_id":"1f8bcc96-199c-401e-a00d-ac34b60c808b","system_id":"levelo_inurba_marseille","lat":43.328371,"lon":5.366912,"is_reserved":false,"is_disabled":false,"rental_uris":{"android":"levelo://app?vid=1f8bcc96-199c-401e-a00d-ac34b60c808b","ios":"levelo://app?vid=1f8bcc96-199c-401e-a00d-ac34b60c808b"},"vehicle_type_id":"4","last_reported":1707674932,"current_range_meters":8000,"station_id":"ce4bhs92rcd13ifvqi0g","pricing_plan_id":"free"},{"bike_id":"77ee226d-0dfd-4cae-9685-a65609eeb93f","system_id":"levelo_inurba_marseille","lat":43.297163,"lon":5.365866,"is_reserved":false,"is_disabled":false,"rental_uris":{"android":"levelo://app?vid=77ee226d-0dfd-4cae-9685-a65609eeb93f","ios":"levelo://app?vid=77ee226d-0dfd-4cae-9685-a65609eeb93f"},"vehicle_type_id":"4","last_reported":1707674932,"current_range_meters":15200,"station_id":"ce4bgn12rcd13ifvqbt0","pricing_plan_id":"free"},{"bike_id":"171ee2d2-1631-4a1c-83c3-66174661662b","system_id":"levelo_inurba_marseille","lat":43.297163,"lon":5.365866,"is_reserved":false,"is_disabled":false,"rental_uris":{"android":"levelo://app?vid=171ee2d2-1631-4a1c-83c3-66174661662b","ios":"levelo://app?vid=171ee2d2-1631-4a1c-83c3-66174661662b"},"vehicle_type_id":"4","last_reported":1707674932,"current_range_meters":8800,"station_id":"ce4bgn12rcd13ifvqbt0","pricing_plan_id":"free"},{"bike_id":"03730dd5-0a88-4239-8528-528347df93a2","system_id":"levelo_inurba_marseille","lat":43.328371,"lon":5.366909,"is_reserved":false,"is_disabled":false,"rental_uris":{"android":"levelo://app?vid=03730dd5-0a88-4239-8528-528347df93a2","ios":"levelo://app?vid=03730dd5-0a88-4239-8528-528347df93a2"},"vehicle_type_id":"4","last_reported":1707674932,"current_range_meters":11600,"station_id":"ce4bhs92rcd13ifvqi0g","pricing_plan_id":"free"},{"bike_id":"1dd61976-0d62-4299-9726-a4b5a7bd8b01","system_id":"levelo_inurba_marseille","lat":43.297163,"lon":5.365866,"is_reserved":false,"is_disabled":false,"rental_uris":{"android":"levelo://app?vid=1dd61976-0d62-4299-9726-a4b5a7bd8b01","ios":"levelo://app?vid=1dd61976-0d62-4299-9726-a4b5a7bd8b01"},"vehicle_type_id":"4","last_reported":1707674932,"current_range_meters":13200,"station_id":"ce4bgn12rcd13ifvqbt0","pricing_plan_id":"free"},{"bike_id":"ee0d887c-1664-47cd-b52f-b1ea76ce7783","system_id":"levelo_inurba_marseille","lat":43.299028,"lon":5.381509,"is_reserved":false,"is_disabled":false,"rental_uris":{"android":"levelo://app?vid=ee0d887c-1664-47cd-b52f-b1ea76ce7783","ios":"levelo://app?vid=ee0d887c-1664-47cd-b52f-b1ea76ce7783"},"vehicle_type_id":"4","last_reported":1707674932,"current_range_meters":28800,"station_id":"ce4bgj12rcd13ifvqbc0","pricing_plan_id":"free"},{"bike_id":"3c5b6533-3218-471b-9d42-e80e57b0a1b3","system_id":"levelo_inurba_marseille","lat":43.296935,"lon":5.376544,"is_reserved":false,"is_disabled":false,"rental_uris":{"android":"levelo://app?vid=3c5b6533-3218-471b-9d42-e80e57b0a1b3","ios":"levelo://app?vid=3c5b6533-3218-471b-9d42-e80e57b0a1b3"},"vehicle_type_id":"4","last_reported":1707674932,"current_range_meters":19600,"station_id":"ce4bgkh2rcd13ifvqbl0","pricing_plan_id":"free"},{"bike_id":"62d9b70d-20e9-461e-9fa1-fe92ddd70343","system_id":"levelo_inurba_marseille","lat":43.317557,"lon":5.390173,"is_reserved":false,"is_disabled":false,"rental_uris":{"android":"levelo://app?vid=62d9b70d-20e9-461e-9fa1-fe92ddd70343","ios":"levelo://app?vid=62d9b70d-20e9-461e-9fa1-fe92ddd70343"},"vehicle_type_id":"4","last_reported":1707674932,"current_range_meters":29600,"station_id":"ce4bhqp2rcd13ifvqhng","pricing_plan_id":"free"},{"bike_id":"7e213e69-5b20-4804-9d06-4ccb7e874be7","system_id":"levelo_inurba_marseille","lat":43.317557,"lon":5.390173,"is_reserved":false,"is_disabled":false,"rental_uris":{"android":"levelo://app?vid=7e213e69-5b20-4804-9d06-4ccb7e874be7","ios":"levelo://app?vid=7e213e69-5b20-4804-9d06-4ccb7e874be7"},"vehicle_type_id":"4","last_reported":1707674932,"current_range_meters":31600,"station_id":"ce4bhqp2rcd13ifvqhng","pricing_plan_id":"free"},{"bike_id":"094ad5ed-15b5-4b8e-9769-6e4dfda97318","system_id":"levelo_inurba_marseille","lat":43.317557,"lon":5.390173,"is_reserved":false,"is_disabled":false,"rental_uris":{"android":"levelo://app?vid=094ad5ed-15b5-4b8e-9769-6e4dfda97318","ios":"levelo://app?vid=094ad5ed-15b5-4b8e-9769-6e4dfda97318"},"vehicle_type_id":"4","last_reported":1707674932,"current_range_meters":15200,"station_id":"ce4bhqp2rcd13ifvqhng","pricing_plan_id":"free"},{"bike_id":"d437bb6f-8828-4ae4-9de0-43f7fc156e2c","system_id":"levelo_inurba_marseille","lat":43.304278,"lon":5.388868,"is_reserved":false,"is_disabled":false,"rental_uris":{"android":"levelo://app?vid=d437bb6f-8828-4ae4-9de0-43f7fc156e2c","ios":"levelo://app?vid=d437bb6f-8828-4ae4-9de0-43f7fc156e2c"},"vehicle_type_id":"4","last_reported":1707674932,"current_range_meters":10000,"station_id":"ce4bgk12rcd13ifvqbi0","pricing_plan_id":"free"},{"bike_id":"25004924-962d-498e-9b1a-4c1a9d607f1a","system_id":"levelo_inurba_marseille","lat":43.298037,"lon":5.381066,"is_reserved":false,"is_disabled":false,"rental_uris":{"android":"levelo://app?vid=25004924-962d-498e-9b1a-4c1a9d607f1a","ios":"levelo://app?vid=25004924-962d-498e-9b1a-4c1a9d607f1a"},"vehicle_type_id":"4","last_reported":1707674932,"current_range_meters":8800,"station_id":"ce4bgip2rcd13ifvqbb0","pricing_plan_id":"free"},{"bike_id":"d3f2dab2-fc71-42be-b31d-16eab3e2351f","system_id":"levelo_inurba_marseille","lat":43.29709,"lon":5.37895,"is_reserved":false,"is_disabled":false,"rental_uris":{"android":"levelo://app?vid=d3f2dab2-fc71-42be-b31d-16eab3e2351f","ios":"levelo://app?vid=d3f2dab2-fc71-42be-b31d-16eab3e2351f"},"vehicle_type_id":"4","last_reported":1707674932,"current_range_meters":22000,"station_id":"","pricing_plan_id":"free"},{"bike_id":"63b1cca5-cf5e-4843-963a-e34bda4dac53","system_id":"levelo_inurba_marseille","lat":43.298037,"lon":5.381066,"is_reserved":false,"is_disabled":false,"rental_uris":{"android":"levelo://app?vid=63b1cca5-cf5e-4843-963a-e34bda4dac53","ios":"levelo://app?vid=63b1cca5-cf5e-4843-963a-e34bda4dac53"},"vehicle_type_id":"4","last_reported":1707674932,"current_range_meters":400,"station_id":"ce4bgip2rcd13ifvqbb0","pricing_plan_id":"free"},{"bike_id":"207274f3-e05a-4eed-808f-31b7677b66e9","system_id":"levelo_inurba_marseille","lat":43.298037,"lon":5.381066,"is_reserved":false,"is_disabled":false,"rental_uris":{"android":"levelo://app?vid=207274f3-e05a-4eed-808f-31b7677b66e9","ios":"levelo://app?vid=207274f3-e05a-4eed-808f-31b7677b66e9"},"vehicle_type_id":"4","last_reported":1707674932,"current_range_meters":20000,"station_id":"ce4bgip2rcd13ifvqbb0","pricing_plan_id":"free"},{"bike_id":"e51d339b-dcb8-4d29-809b-8d7597f97b51","system_id":"levelo_inurba_marseille","lat":43.304274,"lon":5.388873,"is_reserved":false,"is_disabled":false,"rental_uris":{"android":"levelo://app?vid=e51d339b-dcb8-4d29-809b-8d7597f97b51","ios":"levelo://app?vid=e51d339b-dcb8-4d29-809b-8d7597f97b51"},"vehicle_type_id":"4","last_reported":1707674932,"current_range_meters":6000,"station_id":"ce4bgk12rcd13ifvqbi0","pricing_plan_id":"free"},{"bike_id":"a4821798-ada0-49e0-973e-1ec82f1efa15","system_id":"levelo_inurba_marseille","lat":43.2962,"lon":5.37713,"is_reserved":false,"is_disabled":false,"rental_uris":{"android":"levelo://app?vid=a4821798-ada0-49e0-973e-1ec82f1efa15","ios":"levelo://app?vid=a4821798-ada0-49e0-973e-1ec82f1efa15"},"vehicle_type_id":"4","last_reported":1707674932,"current_range_meters":0,"station_id":"ce4bgi92rcd13ifvqb90","pricing_plan_id":"free"},{"bike_id":"ed23972c-a33e-4764-ad86-495a056bee53","system_id":"levelo_inurba_marseille","lat":43.2978,"lon":5.38108,"is_reserved":false,"is_disabled":false,"rental_uris":{"android":"levelo://app?vid=ed23972c-a33e-4764-ad86-495a056bee53","ios":"levelo://app?vid=ed23972c-a33e-4764-ad86-495a056bee53"},"vehicle_type_id":"4","last_reported":1707674932,"current_range_meters":0,"station_id":"ce4bgip2rcd13ifvqbb0","pricing_plan_id":"free"},{"bike_id":"40503704-b1ac-48bc-86bc-99a3d5d968c3","system_id":"levelo_inurba_marseille","lat":43.304278,"lon":5.388868,"is_reserved":false,"is_disabled":false,"rental_uris":{"android":"levelo://app?vid=40503704-b1ac-48bc-86bc-99a3d5d968c3","ios":"levelo://app?vid=40503704-b1ac-48bc-86bc-99a3d5d968c3"},"vehicle_type_id":"4","last_reported":1707674932,"current_range_meters":3600,"station_id":"ce4bgk12rcd13ifvqbi0","pricing_plan_id":"free"},{"bike_id":"67efdba0-0bcf-4b33-890e-ad8d5361d77a","system_id":"levelo_inurba_marseille","lat":43.2979,"lon":5.38134,"is_reserved":false,"is_disabled":false,"rental_uris":{"android":"levelo://app?vid=67efdba0-0bcf-4b33-890e-ad8d5361d77a","ios":"levelo://app?vid=67efdba0-0bcf-4b33-890e-ad8d5361d77a"},"vehicle_type_id":"4","last_reported":1707674932,"current_range_meters":6000,"station_id":"ce4bgip2rcd13ifvqbb0","pricing_plan_id":"free"},{"bike_id":"d7b03919-e948-4067-b7a0-c16e3806a576","system_id":"levelo_inurba_marseille","lat":43.299717,"lon":5.384845,"is_reserved":false,"is_disabled":false,"rental_uris":{"android":"levelo://app?vid=d7b03919-e948-4067-b7a0-c16e3806a576","ios":"levelo://app?vid=d7b03919-e948-4067-b7a0-c16e3806a576"},"vehicle_type_id":"4","last_reported":1707674932,"current_range_meters":9600,"station_id":"ce4bgj92rcd13ifvqbd0","pricing_plan_id":"free"},{"bike_id":"a909e428-b415-4c16-a9d6-d152395cb560","system_id":"levelo_inurba_marseille","lat":43.299724,"lon":5.384848,"is_reserved":false,"is_disabled":false,"rental_uris":{"android":"levelo://app?vid=a909e428-b415-4c16-a9d6-d152395cb560","ios":"levelo://app?vid=a909e428-b415-4c16-a9d6-d152395cb560"},"vehicle_type_id":"4","last_reported":1707674932,"current_range_meters":14000,"station_id":"ce4bgj92rcd13ifvqbd0","pricing_plan_id":"free"},{"bike_id":"2ce87bbd-e07e-46fa-b41a-01fd4d5faa64","system_id":"levelo_inurba_marseille","lat":43.299717,"lon":5.384845,"is_reserved":false,"is_disabled":false,"rental_uris":{"android":"levelo://app?vid=2ce87bbd-e07e-46fa-b41a-01fd4d5faa64","ios":"levelo://app?vid=2ce87bbd-e07e-46fa-b41a-01fd4d5faa64"},"vehicle_type_id":"4","last_reported":1707674932,"current_range_meters":28400,"station_id":"ce4bgj92rcd13ifvqbd0","pricing_plan_id":"free"},{"bike_id":"00143bcd-3f92-4226-92d6-52e935b7e4aa","system_id":"levelo_inurba_marseille","lat":43.29636,"lon":5.380937,"is_reserved":false,"is_disabled":false,"rental_uris":{"android":"levelo://app?vid=00143bcd-3f92-4226-92d6-52e935b7e4aa","ios":"levelo://app?vid=00143bcd-3f92-4226-92d6-52e935b7e4aa"},"vehicle_type_id":"4","last_reported":1707674932,"current_range_meters":15200,"station_id":"ce4bgl12rcd13ifvqbo0","pricing_plan_id":"free"},{"bike_id":"55769c3e-d570-4ade-829b-4a0316d221aa","system_id":"levelo_inurba_marseille","lat":43.323664,"lon":5.388821,"is_reserved":false,"is_disabled":false,"rental_uris":{"android":"levelo://app?vid=55769c3e-d570-4ade-829b-4a0316d221aa","ios":"levelo://app?vid=55769c3e-d570-4ade-829b-4a0316d221aa"},"vehicle_type_id":"4","last_reported":1707674932,"current_range_meters":3200,"station_id":"ce4bhqp2rcd13ifvqhog","pricing_plan_id":"free"},{"bike_id":"e1c5c8eb-63f6-4b8e-b9dd-0783ca26b249","system_id":"levelo_inurba_marseille","lat":43.32367,"lon":5.388836,"is_reserved":false,"is_disabled":false,"rental_uris":{"android":"levelo://app?vid=e1c5c8eb-63f6-4b8e-b9dd-0783ca26b249","ios":"levelo://app?vid=e1c5c8eb-63f6-4b8e-b9dd-0783ca26b249"},"vehicle_type_id":"4","last_reported":1707674932,"current_range_meters":24000,"station_id":"ce4bhqp2rcd13ifvqhog","pricing_plan_id":"free"},{"bike_id":"fab4d6e6-5dad-4b4f-bfaf-2d527ea5f7bf","system_id":"levelo_inurba_marseille","lat":43.3237,"lon":5.38882,"is_reserved":false,"is_disabled":false,"rental_uris":{"android":"levelo://app?vid=fab4d6e6-5dad-4b4f-bfaf-2d527ea5f7bf","ios":"levelo://app?vid=fab4d6e6-5dad-4b4f-bfaf-2d527ea5f7bf"},"vehicle_type_id":"4","last_reported":1707674932,"current_range_meters":10000,"station_id":"ce4bhqp2rcd13ifvqhog","pricing_plan_id":"free"},{"bike_id":"8c67e61e-e7d9-4bb7-9545-eb36146dd69c","system_id":"levelo_inurba_marseille","lat":43.32366,"lon":5.38893,"is_reserved":false,"is_disabled":false,"rental_uris":{"android":"levelo://app?vid=8c67e61e-e7d9-4bb7-9545-eb36146dd69c","ios":"levelo://app?vid=8c67e61e-e7d9-4bb7-9545-eb36146dd69c"},"vehicle_type_id":"4","last_reported":1707674932,"current_range_meters":14800,"station_id":"ce4bhqp2rcd13ifvqhog","pricing_plan_id":"free"},{"bike_id":"a8761059-a38c-4e63-b2ae-493e54d91c26","system_id":"levelo_inurba_marseille","lat":43.296,"lon":5.381007,"is_reserved":false,"is_disabled":false,"rental_uris":{"android":"levelo://app?vid=a8761059-a38c-4e63-b2ae-493e54d91c26","ios":"levelo://app?vid=a8761059-a38c-4e63-b2ae-493e54d91c26"},"vehicle_type_id":"4","last_reported":1707674932,"current_range_meters":2800,"station_id":"ce4bgl12rcd13ifvqbo0","pricing_plan_id":"free"},{"bike_id":"e3938b52-d92b-4a83-a2f5-419928a5e6af","system_id":"levelo_inurba_marseille","lat":43.29602,"lon":5.381084,"is_reserved":false,"is_disabled":false,"rental_uris":{"android":"levelo://app?vid=e3938b52-d92b-4a83-a2f5-419928a5e6af","ios":"levelo://app?vid=e3938b52-d92b-4a83-a2f5-419928a5e6af"},"vehicle_type_id":"4","last_reported":1707674932,"current_range_meters":19200,"station_id":"ce4bgl12rcd13ifvqbo0","pricing_plan_id":"free"},{"bike_id":"0e9466bf-f582-4628-b14b-6adbc699f895","system_id":"levelo_inurba_marseille","lat":43.29601,"lon":5.381084,"is_reserved":false,"is_disabled":false,"rental_uris":{"android":"levelo://app?vid=0e9466bf-f582-4628-b14b-6adbc699f895","ios":"levelo://app?vid=0e9466bf-f582-4628-b14b-6adbc699f895"},"vehicle_type_id":"4","last_reported":1707674932,"current_range_meters":26800,"station_id":"ce4bgl12rcd13ifvqbo0","pricing_plan_id":"free"},{"bike_id":"c2f1756a-157c-435e-b2d4-16e28eaaae60","system_id":"levelo_inurba_marseille","lat":43.292749,"lon":5.368402,"is_reserved":false,"is_disabled":false,"rental_uris":{"android":"levelo://app?vid=c2f1756a-157c-435e-b2d4-16e28eaaae60","ios":"levelo://app?vid=c2f1756a-157c-435e-b2d4-16e28eaaae60"},"vehicle_type_id":"4","last_reported":1707674932,"current_range_meters":27600,"station_id":"ce4bhbp2rcd13ifvqesg","pricing_plan_id":"free"},{"bike_id":"09716b50-c1c8-4d13-a9b5-25e7a54e2091","system_id":"levelo_inurba_marseille","lat":43.29313,"lon":5.37197,"is_reserved":false,"is_disabled":false,"rental_uris":{"android":"levelo://app?vid=09716b50-c1c8-4d13-a9b5-25e7a54e2091","ios":"levelo://app?vid=09716b50-c1c8-4d13-a9b5-25e7a54e2091"},"vehicle_type_id":"4","last_reported":1707674932,"current_range_meters":21200,"station_id":"ce4bgh92rcd13ifvqb40","pricing_plan_id":"free"},{"bike_id":"f54a275c-c81e-4213-836f-38e241e4ad2c","system_id":"levelo_inurba_marseille","lat":43.292749,"lon":5.368402,"is_reserved":false,"is_disabled":false,"rental_uris":{"android":"levelo://app?vid=f54a275c-c81e-4213-836f-38e241e4ad2c","ios":"levelo://app?vid=f54a275c-c81e-4213-836f-38e241e4ad2c"},"vehicle_type_id":"4","last_reported":1707674932,"current_range_meters":15200,"station_id":"ce4bhbp2rcd13ifvqesg","pricing_plan_id":"free"},{"bike_id":"de8fe52f-ecd3-44f2-bbf4-571b025393e2","system_id":"levelo_inurba_marseille","lat":43.29281,"lon":5.36844,"is_reserved":false,"is_disabled":false,"rental_uris":{"android":"levelo://app?vid=de8fe52f-ecd3-44f2-bbf4-571b025393e2","ios":"levelo://app?vid=de8fe52f-ecd3-44f2-bbf4-571b025393e2"},"vehicle_type_id":"4","last_reported":1707674932,"current_range_meters":28400,"station_id":"ce4bhbp2rcd13ifvqesg","pricing_plan_id":"free"},{"bike_id":"3d1282b5-0cea-4e3d-b19f-6f86e7d95c32","system_id":"levelo_inurba_marseille","lat":43.293259,"lon":5.371586,"is_reserved":false,"is_disabled":false,"rental_uris":{"android":"levelo://app?vid=3d1282b5-0cea-4e3d-b19f-6f86e7d95c32","ios":"levelo://app?vid=3d1282b5-0cea-4e3d-b19f-6f86e7d95c32"},"vehicle_type_id":"4","last_reported":1707674932,"current_range_meters":22800,"station_id":"ce4bgh92rcd13ifvqb40","pricing_plan_id":"free"},{"bike_id":"0ceea716-152b-4bd3-b095-f28694dc5d99","system_id":"levelo_inurba_marseille","lat":43.29273,"lon":5.36845,"is_reserved":false,"is_disabled":false,"rental_uris":{"android":"levelo://app?vid=0ceea716-152b-4bd3-b095-f28694dc5d99","ios":"levelo://app?vid=0ceea716-152b-4bd3-b095-f28694dc5d99"},"vehicle_type_id":"4","last_reported":1707674932,"current_range_meters":8400,"station_id":"ce4bhbp2rcd13ifvqesg","pricing_plan_id":"free"},{"bike_id":"4c7a6e20-9232-4703-8388-ca81ec24906d","system_id":"levelo_inurba_marseille","lat":43.29271,"lon":5.36841,"is_reserved":false,"is_disabled":false,"rental_uris":{"android":"levelo://app?vid=4c7a6e20-9232-4703-8388-ca81ec24906d","ios":"levelo://app?vid=4c7a6e20-9232-4703-8388-ca81ec24906d"},"vehicle_type_id":"4","last_reported":1707674932,"current_range_meters":31200,"station_id":"ce4bhbp2rcd13ifvqesg","pricing_plan_id":"free"},{"bike_id":"d7216737-9679-41d0-8fbc-bf2a02ccaf0b","system_id":"levelo_inurba_marseille","lat":43.292749,"lon":5.368402,"is_reserved":false,"is_disabled":false,"rental_uris":{"android":"levelo://app?vid=d7216737-9679-41d0-8fbc-bf2a02ccaf0b","ios":"levelo://app?vid=d7216737-9679-41d0-8fbc-bf2a02ccaf0b"},"vehicle_type_id":"4","last_reported":1707674932,"current_range_meters":4800,"station_id":"ce4bhbp2rcd13ifvqesg","pricing_plan_id":"free"},{"bike_id":"7375db37-217c-4596-ba20-5fa377c3a364","system_id":"levelo_inurba_marseille","lat":43.305994,"lon":5.393687,"is_reserved":false,"is_disabled":false,"rental_uris":{"android":"levelo://app?vid=7375db37-217c-4596-ba20-5fa377c3a364","ios":"levelo://app?vid=7375db37-217c-4596-ba20-5fa377c3a364"},"vehicle_type_id":"4","last_reported":1707674932,"current_range_meters":4800,"station_id":"ce4bh0p2rcd13ifvqd80","pricing_plan_id":"free"},{"bike_id":"9ec1fb2e-479f-44d2-b72d-642bb2a6b279","system_id":"levelo_inurba_marseille","lat":43.305994,"lon":5.393687,"is_reserved":false,"is_disabled":false,"rental_uris":{"android":"levelo://app?vid=9ec1fb2e-479f-44d2-b72d-642bb2a6b279","ios":"levelo://app?vid=9ec1fb2e-479f-44d2-b72d-642bb2a6b279"},"vehicle_type_id":"4","last_reported":1707674932,"current_range_meters":13200,"station_id":"ce4bh0p2rcd13ifvqd80","pricing_plan_id":"free"},{"bike_id":"d690466c-a7f4-4572-9139-ef4bc8918546","system_id":"levelo_inurba_marseille","lat":43.305994,"lon":5.393687,"is_reserved":false,"is_disabled":false,"rental_uris":{"android":"levelo://app?vid=d690466c-a7f4-4572-9139-ef4bc8918546","ios":"levelo://app?vid=d690466c-a7f4-4572-9139-ef4bc8918546"},"vehicle_type_id":"4","last_reported":1707674932,"current_range_meters":30400,"station_id":"ce4bh0p2rcd13ifvqd80","pricing_plan_id":"free"},{"bike_id":"7199bc24-e9e3-41c9-aea9-d697a9bd6328","system_id":"levelo_inurba_marseille","lat":43.305994,"lon":5.393687,"is_reserved":false,"is_disabled":false,"rental_uris":{"android":"levelo://app?vid=7199bc24-e9e3-41c9-aea9-d697a9bd6328","ios":"levelo://app?vid=7199bc24-e9e3-41c9-aea9-d697a9bd6328"},"vehicle_type_id":"4","last_reported":1707674932,"current_range_meters":12000,"station_id":"ce4bh0p2rcd13ifvqd80","pricing_plan_id":"free"},{"bike_id":"f132af12-dd50-4801-9839-7cc5e08abf99","system_id":"levelo_inurba_marseille","lat":43.305994,"lon":5.393687,"is_reserved":false,"is_disabled":false,"rental_uris":{"android":"levelo://app?vid=f132af12-dd50-4801-9839-7cc5e08abf99","ios":"levelo://app?vid=f132af12-dd50-4801-9839-7cc5e08abf99"},"vehicle_type_id":"4","last_reported":1707674932,"current_range_meters":2800,"station_id":"ce4bh0p2rcd13ifvqd80","pricing_plan_id":"free"},{"bike_id":"bf3e0c7e-93bd-4dc8-b419-edf20132323c","system_id":"levelo_inurba_marseille","lat":43.2936,"lon":5.37835,"is_reserved":false,"is_disabled":false,"rental_uris":{"android":"levelo://app?vid=bf3e0c7e-93bd-4dc8-b419-edf20132323c","ios":"levelo://app?vid=bf3e0c7e-93bd-4dc8-b419-edf20132323c"},"vehicle_type_id":"4","last_reported":1707674932,"current_range_meters":0,"station_id":"ce4bgjh2rcd13ifvqbf0","pricing_plan_id":"free"},{"bike_id":"f28b2ade-7899-436c-ad12-57d15381bbce","system_id":"levelo_inurba_marseille","lat":43.2936,"lon":5.37835,"is_reserved":false,"is_disabled":false,"rental_uris":{"android":"levelo://app?vid=f28b2ade-7899-436c-ad12-57d15381bbce","ios":"levelo://app?vid=f28b2ade-7899-436c-ad12-57d15381bbce"},"vehicle_type_id":"4","last_reported":1707674932,"current_range_meters":15200,"station_id":"ce4bgjh2rcd13ifvqbf0","pricing_plan_id":"free"},{"bike_id":"95a2878c-bccb-43e1-9879-64a066ac649b","system_id":"levelo_inurba_marseille","lat":43.300852,"lon":5.390859,"is_reserved":false,"is_disabled":false,"rental_uris":{"android":"levelo://app?vid=95a2878c-bccb-43e1-9879-64a066ac649b","ios":"levelo://app?vid=95a2878c-bccb-43e1-9879-64a066ac649b"},"vehicle_type_id":"4","last_reported":1707674932,"current_range_meters":0,"station_id":"ce4bh192rcd13ifvqdb0","pricing_plan_id":"free"},{"bike_id":"eb73ca92-8649-44fe-8e3a-dbcd6c289cd9","system_id":"levelo_inurba_marseille","lat":43.293009,"lon":5.374584,"is_reserved":false,"is_disabled":false,"rental_uris":{"android":"levelo://app?vid=eb73ca92-8649-44fe-8e3a-dbcd6c289cd9","ios":"levelo://app?vid=eb73ca92-8649-44fe-8e3a-dbcd6c289cd9"},"vehicle_type_id":"4","last_reported":1707674932,"current_range_meters":8400,"station_id":"ce4bgi12rcd13ifvqb70","pricing_plan_id":"free"},{"bike_id":"58a9bfb5-77bb-44cd-9f9b-da1dacfa5316","system_id":"levelo_inurba_marseille","lat":43.298764,"lon":5.388973,"is_reserved":false,"is_disabled":false,"rental_uris":{"android":"levelo://app?vid=58a9bfb5-77bb-44cd-9f9b-da1dacfa5316","ios":"levelo://app?vid=58a9bfb5-77bb-44cd-9f9b-da1dacfa5316"},"vehicle_type_id":"4","last_reported":1707674932,"current_range_meters":28000,"station_id":"ce4bh392rcd13ifvqdl0","pricing_plan_id":"free"},{"bike_id":"e25fbe08-9812-4939-9c31-d32578ecbca5","system_id":"levelo_inurba_marseille","lat":43.293009,"lon":5.374584,"is_reserved":false,"is_disabled":false,"rental_uris":{"android":"levelo://app?vid=e25fbe08-9812-4939-9c31-d32578ecbca5","ios":"levelo://app?vid=e25fbe08-9812-4939-9c31-d32578ecbca5"},"vehicle_type_id":"4","last_reported":1707674932,"current_range_meters":17200,"station_id":"ce4bgi12rcd13ifvqb70","pricing_plan_id":"free"},{"bike_id":"bc43fc3b-51e4-48dc-8877-29671455c2f9","system_id":"levelo_inurba_marseille","lat":43.298764,"lon":5.388973,"is_reserved":false,"is_disabled":false,"rental_uris":{"android":"levelo://app?vid=bc43fc3b-51e4-48dc-8877-29671455c2f9","ios":"levelo://app?vid=bc43fc3b-51e4-48dc-8877-29671455c2f9"},"vehicle_type_id":"4","last_reported":1707674932,"current_range_meters":12000,"station_id":"ce4bh392rcd13ifvqdl0","pricing_plan_id":"free"},{"bike_id":"761f0514-6a29-4ec0-ba20-84e8b3a98fcf","system_id":"levelo_inurba_marseille","lat":43.291675,"lon":5.371583,"is_reserved":false,"is_disabled":false,"rental_uris":{"android":"levelo://app?vid=761f0514-6a29-4ec0-ba20-84e8b3a98fcf","ios":"levelo://app?vid=761f0514-6a29-4ec0-ba20-84e8b3a98fcf"},"vehicle_type_id":"4","last_reported":1707674932,"current_range_meters":9200,"station_id":"ce4bha92rcd13ifvqeh0","pricing_plan_id":"free"},{"bike_id":"308a36a6-4ff7-4c27-b6f8-d433d153e9d4","system_id":"levelo_inurba_marseille","lat":43.291675,"lon":5.371583,"is_reserved":false,"is_disabled":false,"rental_uris":{"android":"levelo://app?vid=308a36a6-4ff7-4c27-b6f8-d433d153e9d4","ios":"levelo://app?vid=308a36a6-4ff7-4c27-b6f8-d433d153e9d4"},"vehicle_type_id":"4","last_reported":1707674932,"current_range_meters":4400,"station_id":"ce4bha92rcd13ifvqeh0","pricing_plan_id":"free"},{"bike_id":"dc58123a-0dae-46f9-a969-885273534480","system_id":"levelo_inurba_marseille","lat":43.291671,"lon":5.371575,"is_reserved":false,"is_disabled":false,"rental_uris":{"android":"levelo://app?vid=dc58123a-0dae-46f9-a969-885273534480","ios":"levelo://app?vid=dc58123a-0dae-46f9-a969-885273534480"},"vehicle_type_id":"4","last_reported":1707674932,"current_range_meters":0,"station_id":"ce4bha92rcd13ifvqeh0","pricing_plan_id":"free"},{"bike_id":"337799d3-e4ef-467b-b0ba-e9e5b4ff1a84","system_id":"levelo_inurba_marseille","lat":43.291994,"lon":5.357886,"is_reserved":false,"is_disabled":false,"rental_uris":{"android":"levelo://app?vid=337799d3-e4ef-467b-b0ba-e9e5b4ff1a84","ios":"levelo://app?vid=337799d3-e4ef-467b-b0ba-e9e5b4ff1a84"},"vehicle_type_id":"4","last_reported":1707674932,"current_range_meters":12800,"station_id":"ce4bhb12rcd13ifvqel0","pricing_plan_id":"free"},{"bike_id":"e93070d4-27d5-4c2a-9994-d03420d2b356","system_id":"levelo_inurba_marseille","lat":43.291888,"lon":5.358053,"is_reserved":false,"is_disabled":false,"rental_uris":{"android":"levelo://app?vid=e93070d4-27d5-4c2a-9994-d03420d2b356","ios":"levelo://app?vid=e93070d4-27d5-4c2a-9994-d03420d2b356"},"vehicle_type_id":"4","last_reported":1707674932,"current_range_meters":30800,"station_id":"ce4bhb12rcd13ifvqel0","pricing_plan_id":"free"},{"bike_id":"f8cb2073-ba1d-4935-a7ba-99918e55888f","system_id":"levelo_inurba_marseille","lat":43.313291,"lon":5.396838,"is_reserved":false,"is_disabled":false,"rental_uris":{"android":"levelo://app?vid=f8cb2073-ba1d-4935-a7ba-99918e55888f","ios":"levelo://app?vid=f8cb2073-ba1d-4935-a7ba-99918e55888f"},"vehicle_type_id":"4","last_reported":1707674932,"current_range_meters":24800,"station_id":"ce4bgvp2rcd13ifvqcu0","pricing_plan_id":"free"},{"bike_id":"8468ef98-ed89-4c20-8d22-0031ccbe1292","system_id":"levelo_inurba_marseille","lat":43.309038,"lon":5.396546,"is_reserved":false,"is_disabled":false,"rental_uris":{"android":"levelo://app?vid=8468ef98-ed89-4c20-8d22-0031ccbe1292","ios":"levelo://app?vid=8468ef98-ed89-4c20-8d22-0031ccbe1292"},"vehicle_type_id":"4","last_reported":1707674932,"current_range_meters":24800,"station_id":"ce4bh012rcd13ifvqcv0","pricing_plan_id":"free"},{"bike_id":"27c602cb-4a67-4b3a-8612-f1e7f3982256","system_id":"levelo_inurba_marseille","lat":43.313291,"lon":5.396838,"is_reserved":false,"is_disabled":false,"rental_uris":{"android":"levelo://app?vid=27c602cb-4a67-4b3a-8612-f1e7f3982256","ios":"levelo://app?vid=27c602cb-4a67-4b3a-8612-f1e7f3982256"},"vehicle_type_id":"4","last_reported":1707674932,"current_range_meters":20400,"station_id":"ce4bgvp2rcd13ifvqcu0","pricing_plan_id":"free"},{"bike_id":"b8ee97c3-c225-46be-a127-4aef660e0350","system_id":"levelo_inurba_marseille","lat":43.29529,"lon":5.385581,"is_reserved":false,"is_disabled":false,"rental_uris":{"android":"levelo://app?vid=b8ee97c3-c225-46be-a127-4aef660e0350","ios":"levelo://app?vid=b8ee97c3-c225-46be-a127-4aef660e0350"},"vehicle_type_id":"4","last_reported":1707674932,"current_range_meters":24800,"station_id":"ce4bgih2rcd13ifvqba0","pricing_plan_id":"free"},{"bike_id":"8efda0e6-0c32-4a56-9a6f-debb30cfb45d","system_id":"levelo_inurba_marseille","lat":43.290779,"lon":5.371482,"is_reserved":false,"is_disabled":false,"rental_uris":{"android":"levelo://app?vid=8efda0e6-0c32-4a56-9a6f-debb30cfb45d","ios":"levelo://app?vid=8efda0e6-0c32-4a56-9a6f-debb30cfb45d"},"vehicle_type_id":"4","last_reported":1707674932,"current_range_meters":23600,"station_id":"ce4bh5p2rcd13ifvqe4g","pricing_plan_id":"free"},{"bike_id":"4b623ce1-ad57-4b89-8850-bc76e8a5fc49","system_id":"levelo_inurba_marseille","lat":43.290779,"lon":5.371482,"is_reserved":false,"is_disabled":false,"rental_uris":{"android":"levelo://app?vid=4b623ce1-ad57-4b89-8850-bc76e8a5fc49","ios":"levelo://app?vid=4b623ce1-ad57-4b89-8850-bc76e8a5fc49"},"vehicle_type_id":"4","last_reported":1707674932,"current_range_meters":16400,"station_id":"ce4bh5p2rcd13ifvqe4g","pricing_plan_id":"free"},{"bike_id":"af1ac64f-a8ff-413c-98ad-e66bfa720210","system_id":"levelo_inurba_marseille","lat":43.290779,"lon":5.371482,"is_reserved":false,"is_disabled":false,"rental_uris":{"android":"levelo://app?vid=af1ac64f-a8ff-413c-98ad-e66bfa720210","ios":"levelo://app?vid=af1ac64f-a8ff-413c-98ad-e66bfa720210"},"vehicle_type_id":"4","last_reported":1707674932,"current_range_meters":3600,"station_id":"ce4bh5p2rcd13ifvqe4g","pricing_plan_id":"free"},{"bike_id":"5f5ec23d-abf7-4ad4-82e7-7c38ca4c07ac","system_id":"levelo_inurba_marseille","lat":43.290779,"lon":5.371482,"is_reserved":false,"is_disabled":false,"rental_uris":{"android":"levelo://app?vid=5f5ec23d-abf7-4ad4-82e7-7c38ca4c07ac","ios":"levelo://app?vid=5f5ec23d-abf7-4ad4-82e7-7c38ca4c07ac"},"vehicle_type_id":"4","last_reported":1707674932,"current_range_meters":10000,"station_id":"ce4bh5p2rcd13ifvqe4g","pricing_plan_id":"free"},{"bike_id":"bd3ff98f-cfc3-4ddc-894a-466cb7647f08","system_id":"levelo_inurba_marseille","lat":43.302008,"lon":5.394694,"is_reserved":false,"is_disabled":false,"rental_uris":{"android":"levelo://app?vid=bd3ff98f-cfc3-4ddc-894a-466cb7647f08","ios":"levelo://app?vid=bd3ff98f-cfc3-4ddc-894a-466cb7647f08"},"vehicle_type_id":"4","last_reported":1707674932,"current_range_meters":6800,"station_id":"ce4bh0p2rcd13ifvqd70","pricing_plan_id":"free"},{"bike_id":"e1beb701-9259-4c56-8b07-9cab2a7c45a1","system_id":"levelo_inurba_marseille","lat":43.290327,"lon":5.375711,"is_reserved":false,"is_disabled":false,"rental_uris":{"android":"levelo://app?vid=e1beb701-9259-4c56-8b07-9cab2a7c45a1","ios":"levelo://app?vid=e1beb701-9259-4c56-8b07-9cab2a7c45a1"},"vehicle_type_id":"4","last_reported":1707674932,"current_range_meters":6800,"station_id":"ce4bh692rcd13ifvqe90","pricing_plan_id":"free"},{"bike_id":"7d7e26a1-4f39-44bd-98d9-f13316d0d25d","system_id":"levelo_inurba_marseille","lat":43.290327,"lon":5.375711,"is_reserved":false,"is_disabled":false,"rental_uris":{"android":"levelo://app?vid=7d7e26a1-4f39-44bd-98d9-f13316d0d25d","ios":"levelo://app?vid=7d7e26a1-4f39-44bd-98d9-f13316d0d25d"},"vehicle_type_id":"4","last_reported":1707674932,"current_range_meters":2400,"station_id":"ce4bh692rcd13ifvqe90","pricing_plan_id":"free"},{"bike_id":"06178b1a-ab1f-4f42-898f-c58d90dba05a","system_id":"levelo_inurba_marseille","lat":43.2942,"lon":5.38626,"is_reserved":false,"is_disabled":false,"rental_uris":{"android":"levelo://app?vid=06178b1a-ab1f-4f42-898f-c58d90dba05a","ios":"levelo://app?vid=06178b1a-ab1f-4f42-898f-c58d90dba05a"},"vehicle_type_id":"4","last_reported":1707674932,"current_range_meters":0,"station_id":"ce4bh2h2rcd13ifvqdh0","pricing_plan_id":"free"},{"bike_id":"5b7dfca6-c51b-43be-94a2-8c98ff9da479","system_id":"levelo_inurba_marseille","lat":43.29417,"lon":5.38624,"is_reserved":false,"is_disabled":false,"rental_uris":{"android":"levelo://app?vid=5b7dfca6-c51b-43be-94a2-8c98ff9da479","ios":"levelo://app?vid=5b7dfca6-c51b-43be-94a2-8c98ff9da479"},"vehicle_type_id":"4","last_reported":1707674932,"current_range_meters":0,"station_id":"ce4bh2h2rcd13ifvqdh0","pricing_plan_id":"free"},{"bike_id":"fdd92456-848e-4c0b-914e-7ea48eb10886","system_id":"levelo_inurba_marseille","lat":43.294162,"lon":5.386292,"is_reserved":false,"is_disabled":false,"rental_uris":{"android":"levelo://app?vid=fdd92456-848e-4c0b-914e-7ea48eb10886","ios":"levelo://app?vid=fdd92456-848e-4c0b-914e-7ea48eb10886"},"vehicle_type_id":"4","last_reported":1707674932,"current_range_meters":21200,"station_id":"ce4bh2h2rcd13ifvqdh0","pricing_plan_id":"free"},{"bike_id":"529ad064-816a-42b0-adfe-d85f5a1c3c2b","system_id":"levelo_inurba_marseille","lat":43.294162,"lon":5.386292,"is_reserved":false,"is_disabled":false,"rental_uris":{"android":"levelo://app?vid=529ad064-816a-42b0-adfe-d85f5a1c3c2b","ios":"levelo://app?vid=529ad064-816a-42b0-adfe-d85f5a1c3c2b"},"vehicle_type_id":"4","last_reported":1707674932,"current_range_meters":6000,"station_id":"ce4bh2h2rcd13ifvqdh0","pricing_plan_id":"free"},{"bike_id":"c9f23131-20e2-431a-9689-bc2769e34427","system_id":"levelo_inurba_marseille","lat":43.294162,"lon":5.386292,"is_reserved":false,"is_disabled":false,"rental_uris":{"android":"levelo://app?vid=c9f23131-20e2-431a-9689-bc2769e34427","ios":"levelo://app?vid=c9f23131-20e2-431a-9689-bc2769e34427"},"vehicle_type_id":"4","last_reported":1707674932,"current_range_meters":22000,"station_id":"ce4bh2h2rcd13ifvqdh0","pricing_plan_id":"free"},{"bike_id":"93a4fc78-d109-4f49-8fca-9271c61a4caf","system_id":"levelo_inurba_marseille","lat":43.290319,"lon":5.375732,"is_reserved":false,"is_disabled":false,"rental_uris":{"android":"levelo://app?vid=93a4fc78-d109-4f49-8fca-9271c61a4caf","ios":"levelo://app?vid=93a4fc78-d109-4f49-8fca-9271c61a4caf"},"vehicle_type_id":"4","last_reported":1707674932,"current_range_meters":2000,"station_id":"ce4bh692rcd13ifvqe90","pricing_plan_id":"free"},{"bike_id":"cb9a31a7-77e8-4292-b982-b4862c9134f3","system_id":"levelo_inurba_marseille","lat":43.294162,"lon":5.386292,"is_reserved":false,"is_disabled":false,"rental_uris":{"android":"levelo://app?vid=cb9a31a7-77e8-4292-b982-b4862c9134f3","ios":"levelo://app?vid=cb9a31a7-77e8-4292-b982-b4862c9134f3"},"vehicle_type_id":"4","last_reported":1707674932,"current_range_meters":3600,"station_id":"ce4bh2h2rcd13ifvqdh0","pricing_plan_id":"free"},{"bike_id":"bb89aad1-f071-4a6b-b9b3-7238b2d5f889","system_id":"levelo_inurba_marseille","lat":43.294162,"lon":5.386292,"is_reserved":false,"is_disabled":false,"rental_uris":{"android":"levelo://app?vid=bb89aad1-f071-4a6b-b9b3-7238b2d5f889","ios":"levelo://app?vid=bb89aad1-f071-4a6b-b9b3-7238b2d5f889"},"vehicle_type_id":"4","last_reported":1707674932,"current_range_meters":19200,"station_id":"ce4bh2h2rcd13ifvqdh0","pricing_plan_id":"free"},{"bike_id":"105f18da-f80c-4285-9d09-632953fde786","system_id":"levelo_inurba_marseille","lat":43.294162,"lon":5.386292,"is_reserved":false,"is_disabled":false,"rental_uris":{"android":"levelo://app?vid=105f18da-f80c-4285-9d09-632953fde786","ios":"levelo://app?vid=105f18da-f80c-4285-9d09-632953fde786"},"vehicle_type_id":"4","last_reported":1707674932,"current_range_meters":26800,"station_id":"ce4bh2h2rcd13ifvqdh0","pricing_plan_id":"free"},{"bike_id":"fd19af35-2fac-4561-a9b2-20637172195c","system_id":"levelo_inurba_marseille","lat":43.290327,"lon":5.375711,"is_reserved":false,"is_disabled":false,"rental_uris":{"android":"levelo://app?vid=fd19af35-2fac-4561-a9b2-20637172195c","ios":"levelo://app?vid=fd19af35-2fac-4561-a9b2-20637172195c"},"vehicle_type_id":"4","last_reported":1707674932,"current_range_meters":25200,"station_id":"ce4bh692rcd13ifvqe90","pricing_plan_id":"free"},{"bike_id":"16ea5cfd-43e7-44b0-83c5-0e93774ef104","system_id":"levelo_inurba_marseille","lat":43.28924,"lon":5.36405,"is_reserved":false,"is_disabled":false,"rental_uris":{"android":"levelo://app?vid=16ea5cfd-43e7-44b0-83c5-0e93774ef104","ios":"levelo://app?vid=16ea5cfd-43e7-44b0-83c5-0e93774ef104"},"vehicle_type_id":"4","last_reported":1707674932,"current_range_meters":5600,"station_id":"ce4bhc92rcd13ifvqetg","pricing_plan_id":"free"},{"bike_id":"91fc7fd4-33ac-4609-a5e1-af73e3dc25bd","system_id":"levelo_inurba_marseille","lat":43.28923,"lon":5.36395,"is_reserved":false,"is_disabled":false,"rental_uris":{"android":"levelo://app?vid=91fc7fd4-33ac-4609-a5e1-af73e3dc25bd","ios":"levelo://app?vid=91fc7fd4-33ac-4609-a5e1-af73e3dc25bd"},"vehicle_type_id":"4","last_reported":1707674932,"current_range_meters":21600,"station_id":"ce4bhc92rcd13ifvqetg","pricing_plan_id":"free"},{"bike_id":"50d821e9-cc99-48fd-8d05-9c2110c956e0","system_id":"levelo_inurba_marseille","lat":43.292644,"lon":5.384257,"is_reserved":false,"is_disabled":false,"rental_uris":{"android":"levelo://app?vid=50d821e9-cc99-48fd-8d05-9c2110c956e0","ios":"levelo://app?vid=50d821e9-cc99-48fd-8d05-9c2110c956e0"},"vehicle_type_id":"4","last_reported":1707674932,"current_range_meters":28400,"station_id":"ce4bh692rcd13ifvqea0","pricing_plan_id":"free"},{"bike_id":"303b79ff-4ecf-45e4-a690-352d2dfb2ceb","system_id":"levelo_inurba_marseille","lat":43.292642,"lon":5.384254,"is_reserved":false,"is_disabled":false,"rental_uris":{"android":"levelo://app?vid=303b79ff-4ecf-45e4-a690-352d2dfb2ceb","ios":"levelo://app?vid=303b79ff-4ecf-45e4-a690-352d2dfb2ceb"},"vehicle_type_id":"4","last_reported":1707674932,"current_range_meters":23600,"station_id":"ce4bh692rcd13ifvqea0","pricing_plan_id":"free"},{"bike_id":"8c6a9e02-c150-45d8-8ea8-e4320496b8f9","system_id":"levelo_inurba_marseille","lat":43.292642,"lon":5.384254,"is_reserved":false,"is_disabled":false,"rental_uris":{"android":"levelo://app?vid=8c6a9e02-c150-45d8-8ea8-e4320496b8f9","ios":"levelo://app?vid=8c6a9e02-c150-45d8-8ea8-e4320496b8f9"},"vehicle_type_id":"4","last_reported":1707674932,"current_range_meters":31200,"station_id":"ce4bh692rcd13ifvqea0","pricing_plan_id":"free"},{"bike_id":"75a0082b-92b7-4e91-88fa-6b84acd16e48","system_id":"levelo_inurba_marseille","lat":43.292642,"lon":5.384254,"is_reserved":false,"is_disabled":false,"rental_uris":{"android":"levelo://app?vid=75a0082b-92b7-4e91-88fa-6b84acd16e48","ios":"levelo://app?vid=75a0082b-92b7-4e91-88fa-6b84acd16e48"},"vehicle_type_id":"4","last_reported":1707674932,"current_range_meters":31200,"station_id":"ce4bh692rcd13ifvqea0","pricing_plan_id":"free"},{"bike_id":"3085c0b5-a8bb-4878-9bf6-f2033e6e4801","system_id":"levelo_inurba_marseille","lat":43.3043,"lon":5.39752,"is_reserved":false,"is_disabled":false,"rental_uris":{"android":"levelo://app?vid=3085c0b5-a8bb-4878-9bf6-f2033e6e4801","ios":"levelo://app?vid=3085c0b5-a8bb-4878-9bf6-f2033e6e4801"},"vehicle_type_id":"4","last_reported":1707674932,"current_range_meters":0,"station_id":"ce4bh092rcd13ifvqd20","pricing_plan_id":"free"},{"bike_id":"4b7991c0-e22c-48dd-8346-03345c73e55d","system_id":"levelo_inurba_marseille","lat":43.29262,"lon":5.38442,"is_reserved":false,"is_disabled":false,"rental_uris":{"android":"levelo://app?vid=4b7991c0-e22c-48dd-8346-03345c73e55d","ios":"levelo://app?vid=4b7991c0-e22c-48dd-8346-03345c73e55d"},"vehicle_type_id":"4","last_reported":1707674932,"current_range_meters":17600,"station_id":"ce4bh692rcd13ifvqea0","pricing_plan_id":"free"},{"bike_id":"a5689a2b-7262-4d9f-87e1-756fca9b3550","system_id":"levelo_inurba_marseille","lat":43.29261,"lon":5.38441,"is_reserved":false,"is_disabled":false,"rental_uris":{"android":"levelo://app?vid=a5689a2b-7262-4d9f-87e1-756fca9b3550","ios":"levelo://app?vid=a5689a2b-7262-4d9f-87e1-756fca9b3550"},"vehicle_type_id":"4","last_reported":1707674932,"current_range_meters":27600,"station_id":"ce4bh692rcd13ifvqea0","pricing_plan_id":"free"},{"bike_id":"3711a31e-9414-458a-b4c8-4818361cad0d","system_id":"levelo_inurba_marseille","lat":43.304274,"lon":5.397513,"is_reserved":false,"is_disabled":false,"rental_uris":{"android":"levelo://app?vid=3711a31e-9414-458a-b4c8-4818361cad0d","ios":"levelo://app?vid=3711a31e-9414-458a-b4c8-4818361cad0d"},"vehicle_type_id":"4","last_reported":1707674932,"current_range_meters":21600,"station_id":"ce4bh092rcd13ifvqd20","pricing_plan_id":"free"},{"bike_id":"6da51c20-e7d7-4d4f-9dcc-d34ecb39844a","system_id":"levelo_inurba_marseille","lat":43.292642,"lon":5.384254,"is_reserved":false,"is_disabled":false,"rental_uris":{"android":"levelo://app?vid=6da51c20-e7d7-4d4f-9dcc-d34ecb39844a","ios":"levelo://app?vid=6da51c20-e7d7-4d4f-9dcc-d34ecb39844a"},"vehicle_type_id":"4","last_reported":1707674932,"current_range_meters":12000,"station_id":"ce4bh692rcd13ifvqea0","pricing_plan_id":"free"},{"bike_id":"434fc846-ec49-42a8-a67d-aef06d1f37ed","system_id":"levelo_inurba_marseille","lat":43.2926,"lon":5.38443,"is_reserved":false,"is_disabled":false,"rental_uris":{"android":"levelo://app?vid=434fc846-ec49-42a8-a67d-aef06d1f37ed","ios":"levelo://app?vid=434fc846-ec49-42a8-a67d-aef06d1f37ed"},"vehicle_type_id":"4","last_reported":1707674932,"current_range_meters":3600,"station_id":"ce4bh692rcd13ifvqea0","pricing_plan_id":"free"},{"bike_id":"b8d21cc0-84b8-48cb-bb3d-ad07d8c8a6f8","system_id":"levelo_inurba_marseille","lat":43.29265,"lon":5.38454,"is_reserved":false,"is_disabled":false,"rental_uris":{"android":"levelo://app?vid=b8d21cc0-84b8-48cb-bb3d-ad07d8c8a6f8","ios":"levelo://app?vid=b8d21cc0-84b8-48cb-bb3d-ad07d8c8a6f8"},"vehicle_type_id":"4","last_reported":1707674932,"current_range_meters":9200,"station_id":"ce4bh692rcd13ifvqea0","pricing_plan_id":"free"},{"bike_id":"a08e1416-5fe5-4075-a8d5-34cd02f0524d","system_id":"levelo_inurba_marseille","lat":43.292642,"lon":5.384254,"is_reserved":false,"is_disabled":false,"rental_uris":{"android":"levelo://app?vid=a08e1416-5fe5-4075-a8d5-34cd02f0524d","ios":"levelo://app?vid=a08e1416-5fe5-4075-a8d5-34cd02f0524d"},"vehicle_type_id":"4","last_reported":1707674932,"current_range_meters":11600,"station_id":"ce4bh692rcd13ifvqea0","pricing_plan_id":"free"},{"bike_id":"59e94a1e-4ba0-4a16-90c6-958408d6e57d","system_id":"levelo_inurba_marseille","lat":43.292644,"lon":5.384257,"is_reserved":false,"is_disabled":false,"rental_uris":{"android":"levelo://app?vid=59e94a1e-4ba0-4a16-90c6-958408d6e57d","ios":"levelo://app?vid=59e94a1e-4ba0-4a16-90c6-958408d6e57d"},"vehicle_type_id":"4","last_reported":1707674932,"current_range_meters":28400,"station_id":"ce4bh692rcd13ifvqea0","pricing_plan_id":"free"},{"bike_id":"1f092a11-dc96-4f22-9a5f-309e4edf126c","system_id":"levelo_inurba_marseille","lat":43.292642,"lon":5.384254,"is_reserved":false,"is_disabled":false,"rental_uris":{"android":"levelo://app?vid=1f092a11-dc96-4f22-9a5f-309e4edf126c","ios":"levelo://app?vid=1f092a11-dc96-4f22-9a5f-309e4edf126c"},"vehicle_type_id":"4","last_reported":1707674932,"current_range_meters":20000,"station_id":"ce4bh692rcd13ifvqea0","pricing_plan_id":"free"},{"bike_id":"cad0839f-c02a-4993-924f-482e9b32ff4e","system_id":"levelo_inurba_marseille","lat":43.292644,"lon":5.384257,"is_reserved":false,"is_disabled":false,"rental_uris":{"android":"levelo://app?vid=cad0839f-c02a-4993-924f-482e9b32ff4e","ios":"levelo://app?vid=cad0839f-c02a-4993-924f-482e9b32ff4e"},"vehicle_type_id":"4","last_reported":1707674932,"current_range_meters":1200,"station_id":"ce4bh692rcd13ifvqea0","pricing_plan_id":"free"},{"bike_id":"639b59c4-81e8-4b07-9236-6215d684c503","system_id":"levelo_inurba_marseille","lat":43.292642,"lon":5.384254,"is_reserved":false,"is_disabled":false,"rental_uris":{"android":"levelo://app?vid=639b59c4-81e8-4b07-9236-6215d684c503","ios":"levelo://app?vid=639b59c4-81e8-4b07-9236-6215d684c503"},"vehicle_type_id":"4","last_reported":1707674932,"current_range_meters":1600,"station_id":"ce4bh692rcd13ifvqea0","pricing_plan_id":"free"},{"bike_id":"cc6bfad0-d6ad-4736-8168-4e8e176ccf64","system_id":"levelo_inurba_marseille","lat":43.30427,"lon":5.39758,"is_reserved":false,"is_disabled":false,"rental_uris":{"android":"levelo://app?vid=cc6bfad0-d6ad-4736-8168-4e8e176ccf64","ios":"levelo://app?vid=cc6bfad0-d6ad-4736-8168-4e8e176ccf64"},"vehicle_type_id":"4","last_reported":1707674932,"current_range_meters":17200,"station_id":"ce4bh092rcd13ifvqd20","pricing_plan_id":"free"},{"bike_id":"36da5920-b0e0-485a-932a-59c76621e961","system_id":"levelo_inurba_marseille","lat":43.30424,"lon":5.39757,"is_reserved":false,"is_disabled":false,"rental_uris":{"android":"levelo://app?vid=36da5920-b0e0-485a-932a-59c76621e961","ios":"levelo://app?vid=36da5920-b0e0-485a-932a-59c76621e961"},"vehicle_type_id":"4","last_reported":1707674932,"current_range_meters":4000,"station_id":"ce4bh092rcd13ifvqd20","pricing_plan_id":"free"},{"bike_id":"8d7a8473-8d1e-41d4-8723-79936b5bfe3a","system_id":"levelo_inurba_marseille","lat":43.304274,"lon":5.397513,"is_reserved":false,"is_disabled":false,"rental_uris":{"android":"levelo://app?vid=8d7a8473-8d1e-41d4-8723-79936b5bfe3a","ios":"levelo://app?vid=8d7a8473-8d1e-41d4-8723-79936b5bfe3a"},"vehicle_type_id":"4","last_reported":1707674932,"current_range_meters":20800,"station_id":"ce4bh092rcd13ifvqd20","pricing_plan_id":"free"},{"bike_id":"592ecf81-c142-46b8-8376-66486447457a","system_id":"levelo_inurba_marseille","lat":43.29249,"lon":5.38452,"is_reserved":false,"is_disabled":false,"rental_uris":{"android":"levelo://app?vid=592ecf81-c142-46b8-8376-66486447457a","ios":"levelo://app?vid=592ecf81-c142-46b8-8376-66486447457a"},"vehicle_type_id":"4","last_reported":1707674932,"current_range_meters":2400,"station_id":"ce4bh692rcd13ifvqea0","pricing_plan_id":"free"},{"bike_id":"cbe75a57-1bb9-404e-b734-234fb54c53a6","system_id":"levelo_inurba_marseille","lat":43.290103,"lon":5.356114,"is_reserved":false,"is_disabled":false,"rental_uris":{"android":"levelo://app?vid=cbe75a57-1bb9-404e-b734-234fb54c53a6","ios":"levelo://app?vid=cbe75a57-1bb9-404e-b734-234fb54c53a6"},"vehicle_type_id":"4","last_reported":1707674932,"current_range_meters":31200,"station_id":"ce4bhb92rcd13ifvqen0","pricing_plan_id":"free"},{"bike_id":"c3e7c409-e748-4894-9e07-f0fd1be51b31","system_id":"levelo_inurba_marseille","lat":43.290104,"lon":5.356111,"is_reserved":false,"is_disabled":false,"rental_uris":{"android":"levelo://app?vid=c3e7c409-e748-4894-9e07-f0fd1be51b31","ios":"levelo://app?vid=c3e7c409-e748-4894-9e07-f0fd1be51b31"},"vehicle_type_id":"4","last_reported":1707674932,"current_range_meters":21600,"station_id":"ce4bhb92rcd13ifvqen0","pricing_plan_id":"free"},{"bike_id":"f4c7443f-7127-4da1-abe9-7baa9744099a","system_id":"levelo_inurba_marseille","lat":43.290995,"lon":5.381361,"is_reserved":false,"is_disabled":false,"rental_uris":{"android":"levelo://app?vid=f4c7443f-7127-4da1-abe9-7baa9744099a","ios":"levelo://app?vid=f4c7443f-7127-4da1-abe9-7baa9744099a"},"vehicle_type_id":"4","last_reported":1707674932,"current_range_meters":24400,"station_id":"ce4bh512rcd13ifvqe2g","pricing_plan_id":"free"},{"bike_id":"54742987-98fc-4540-abc7-59682f30a7ec","system_id":"levelo_inurba_marseille","lat":43.290995,"lon":5.381361,"is_reserved":false,"is_disabled":false,"rental_uris":{"android":"levelo://app?vid=54742987-98fc-4540-abc7-59682f30a7ec","ios":"levelo://app?vid=54742987-98fc-4540-abc7-59682f30a7ec"},"vehicle_type_id":"4","last_reported":1707674932,"current_range_meters":20000,"station_id":"ce4bh512rcd13ifvqe2g","pricing_plan_id":"free"},{"bike_id":"645c7774-9efe-433d-bf92-ff3cb14ff207","system_id":"levelo_inurba_marseille","lat":43.290103,"lon":5.356114,"is_reserved":false,"is_disabled":false,"rental_uris":{"android":"levelo://app?vid=645c7774-9efe-433d-bf92-ff3cb14ff207","ios":"levelo://app?vid=645c7774-9efe-433d-bf92-ff3cb14ff207"},"vehicle_type_id":"4","last_reported":1707674932,"current_range_meters":31200,"station_id":"ce4bhb92rcd13ifvqen0","pricing_plan_id":"free"},{"bike_id":"2526e8c4-5c4e-4703-8bc4-1370e71b4ab7","system_id":"levelo_inurba_marseille","lat":43.29787,"lon":5.39333,"is_reserved":false,"is_disabled":false,"rental_uris":{"android":"levelo://app?vid=2526e8c4-5c4e-4703-8bc4-1370e71b4ab7","ios":"levelo://app?vid=2526e8c4-5c4e-4703-8bc4-1370e71b4ab7"},"vehicle_type_id":"4","last_reported":1707674932,"current_range_meters":6400,"station_id":"chh1huq6cuj3fo74tm60","pricing_plan_id":"free"},