{"last_updated":1726063684,"ttl":30,"version":"2.2","data":{"bikes":[{"bike_id":"f56f0c93-bf77-4e54-9e0a-65b6b35b836b","system_id":"levelo_inurba_marseille","lat":43.2594,"lon":5.40904,"is_reserved":false,"is_disabled":false,"rental_uris":{"android":"levelo://app?vid=f56f0c93-bf77-4e54-9e0a-65b6b35b836b","ios":"levelo://app?vid=f56f0c93-bf77-4e54-9e0a-65b6b35b836b"},"vehicle_type_id":"4","last_reported":1726063684,"current_range_meters":11200,"station_id":"ce4bhm92rcd13ifvqglg","pricing_plan_id":"cebpf4jnsgd1na2vs0mg"},{"bike_id":"fd4c3226-4d2a-41d2-b090-c2a4de7079a9","system_id":"levelo_inurba_marseille","lat":43.29888,"lon":5.38909,"is_reserved":false,"is_disabled":false,"rental_uris":{"android":"levelo://app?vid=fd4c3226-4d2a-41d2-b090-c2a4de7079a9","ios":"levelo://app?vid=fd4c3226-4d2a-41d2-b090-c2a4de7079a9"},"vehicle_type_id":"4","last_reported":1726063684,"current_range_meters":14400,"station_id":"ce4bh392rcd13ifvqdl0","pricing_plan_id":"cebpf4jnsgd1na2vs0mg"},{"bike_id":"df309b89-5a78-43de-882f-97473f6ecfee","system_id":"levelo_inurba_marseille","lat":43.26199,"lon":5.37445,"is_reserved":false,"is_disabled":false,"rental_uris":{"android":"levelo://app?vid=df309b89-5a78-43de-882f-97473f6ecfee","ios":"levelo://app?vid=df309b89-5a78-43de-882f-97473f6ecfee"},"vehicle_type_id":"4","last_reported":1726063684,"current_range_meters":11200,"station_id":"ce4bhgp2rcd13ifvqfc0","pricing_plan_id":"cebpf4jnsgd1na2vs0mg"},{"bike_id":"4715da1f-1f62-4497-b065-75dcf6f43e3b","system_id":"levelo_inurba_marseille","lat":43.30141,"lon":5.39862,"is_reserved":false,"is_disabled":false,"rental_uris":{"android":"levelo://app?vid=4715da1f-1f62-4497-b065-75dcf6f43e3b","ios":"levelo://app?vid=4715da1f-1f62-4497-b065-75dcf6f43e3b"},"vehicle_type_id":"4","last_reported":1726063684,"current_range_meters":25600,"station_id":"ce4bh0h2rcd13ifvqd40","pricing_plan_id":"cebpf4jnsgd1na2vs0mg"},{"bike_id":"9f9165d9-c806-4348-889b-ebbaf58c32a2","system_id":"levelo_inurba_marseille","lat":43.30172,"lon":5.38067,"is_reserved":false,"is_disabled":false,"rental_uris":{"android":"levelo://app?vid=9f9165d9-c806-4348-889b-ebbaf58c32a2","ios":"levelo://app?vid=9f9165d9-c806-4348-889b-ebbaf58c32a2"},"vehicle_type_id":"4","last_reported":1726063684,"current_range_meters":36800,"station_id":"ce4bgjp2rcd13ifvqbh0","pricing_plan_id":"cebpf4jnsgd1na2vs0mg"},{"bike_id":"459045c8-99fe-482e-a95d-42de6a6dc13d","system_id":"levelo_inurba_marseille","lat":43.301361,"lon":5.387786,"is_reserved":false,"is_disabled":false,"rental_uris":{"android":"levelo://app?vid=459045c8-99fe-482e-a95d-42de6a6dc13d","ios":"levelo://app?vid=459045c8-99fe-482e-a95d-42de6a6dc13d"},"vehicle_type_id":"4","last_reported":1726063684,"current_range_meters":21600,"station_id":"ce4bghh2rcd13ifvqb60","pricing_plan_id":"cebpf4jnsgd1na2vs0mg"},{"bike_id":"ea2ddb7b-9622-4f69-a771-c53556b72d68","system_id":"levelo_inurba_marseille","lat":43.25083,"lon":5.39519,"is_reserved":false,"is_disabled":false,"rental_uris":{"android":"levelo://app?vid=ea2ddb7b-9622-4f69-a771-c53556b72d68","ios":"levelo://app?vid=ea2ddb7b-9622-4f69-a771-c53556b72d68"},"vehicle_type_id":"4","last_reported":1726063684,"current_range_meters":35200,"station_id":"ce4bhm12rcd13ifvqgkg","pricing_plan_id":"cebpf4jnsgd1na2vs0mg"},{"bike_id":"b2209165-0dc0-40e8-a828-b20400ca6442","system_id":"levelo_inurba_marseille","lat":43.30423,"lon":5.41276,"is_reserved":false,"is_disabled":false,"rental_uris":{"android":"levelo://app?vid=b2209165-0dc0-40e8-a828-b20400ca6442","ios":"levelo://app?vid=b2209165-0dc0-40e8-a828-b20400ca6442"},"vehicle_type_id":"4","last_reported":1726063684,"current_range_meters":28800,"station_id":"ce4bhop2rcd13ifvqh8g","pricing_plan_id":"cebpf4jnsgd1na2vs0mg"},{"bike_id":"85904a98-dc12-40a3-a070-47f0c10d5b46","system_id":"levelo_inurba_marseille","lat":43.29972,"lon":5.37174,"is_reserved":false,"is_disabled":false,"rental_uris":{"android":"levelo://app?vid=85904a98-dc12-40a3-a070-47f0c10d5b46","ios":"levelo://app?vid=85904a98-dc12-40a3-a070-47f0c10d5b46"},"vehicle_type_id":"4","last_reported":1726063684,"current_range_meters":16000,"station_id":"ce4bgr92rcd13ifvqc7g","pricing_plan_id":"cebpf4jnsgd1na2vs0mg"},{"bike_id":"02e83d87-c1de-4904-9b22-e414160a080c","system_id":"levelo_inurba_marseille","lat":43.30433,"lon":5.38893,"is_reserved":false,"is_disabled":false,"rental_uris":{"android":"levelo://app?vid=02e83d87-c1de-4904-9b22-e414160a080c","ios":"levelo://app?vid=02e83d87-c1de-4904-9b22-e414160a080c"},"vehicle_type_id":"4","last_reported":1726063684,"current_range_meters":8400,"station_id":"ce4bgk12rcd13ifvqbi0","pricing_plan_id":"cebpf4jnsgd1na2vs0mg"},{"bike_id":"e661e5ee-bb6a-436f-bc80-c47e301a0037","system_id":"levelo_inurba_marseille","lat":43.27068,"lon":5.42273,"is_reserved":false,"is_disabled":false,"rental_uris":{"android":"levelo://app?vid=e661e5ee-bb6a-436f-bc80-c47e301a0037","ios":"levelo://app?vid=e661e5ee-bb6a-436f-bc80-c47e301a0037"},"vehicle_type_id":"4","last_reported":1726063684,"current_range_meters":38800,"station_id":"ce4bhk92rcd13ifvqgb0","pricing_plan_id":"cebpf4jnsgd1na2vs0mg"},{"bike_id":"2565d5d9-0120-4503-ab80-8594e09ed4ea","system_id":"levelo_inurba_marseille","lat":43.298014,"lon":5.403853,"is_reserved":false,"is_disabled":false,"rental_uris":{"android":"levelo://app?vid=2565d5d9-0120-4503-ab80-8594e09ed4ea","ios":"levelo://app?vid=2565d5d9-0120-4503-ab80-8594e09ed4ea"},"vehicle_type_id":"4","last_reported":1726063684,"current_range_meters":12400,"station_id":"ce4bh112rcd13ifvqd90","pricing_plan_id":"cebpf4jnsgd1na2vs0mg"},{"bike_id":"8763a202-047a-4757-a383-8b55ec9d3f3a","system_id":"levelo_inurba_marseille","lat":43.25833,"lon":5.39436,"is_reserved":false,"is_disabled":false,"rental_uris":{"android":"levelo://app?vid=8763a202-047a-4757-a383-8b55ec9d3f3a","ios":"levelo://app?vid=8763a202-047a-4757-a383-8b55ec9d3f3a"},"vehicle_type_id":"4","last_reported":1726063684,"current_range_meters":22400,"station_id":"ce4bhip2rcd13ifvqft0","pricing_plan_id":"cebpf4jnsgd1na2vs0mg"},{"bike_id":"d02d6740-b6de-4487-a048-a0fcd35b8dee","system_id":"levelo_inurba_marseille","lat":43.23153,"lon":5.4371,"is_reserved":false,"is_disabled":false,"rental_uris":{"android":"levelo://app?vid=d02d6740-b6de-4487-a048-a0fcd35b8dee","ios":"levelo://app?vid=d02d6740-b6de-4487-a048-a0fcd35b8dee"},"vehicle_type_id":"4","last_reported":1726063684,"current_range_meters":39200,"station_id":"ce4bhmp2rcd13ifvqgog","pricing_plan_id":"cebpf4jnsgd1na2vs0mg"},{"bike_id":"25d5c37c-dd2d-4026-9a2d-3b77079af424","system_id":"levelo_inurba_marseille","lat":43.24173,"lon":5.39721,"is_reserved":false,"is_disabled":false,"rental_uris":{"android":"levelo://app?vid=25d5c37c-dd2d-4026-9a2d-3b77079af424","ios":"levelo://app?vid=25d5c37c-dd2d-4026-9a2d-3b77079af424"},"vehicle_type_id":"4","last_reported":1726063684,"current_range_meters":7200,"station_id":"ce4bhn12rcd13ifvqgpg","pricing_plan_id":"cebpf4jnsgd1na2vs0mg"},{"bike_id":"d04bf960-03b1-423f-816d-228aa9991efc","system_id":"levelo_inurba_marseille","lat":43.31685,"lon":5.40471,"is_reserved":false,"is_disabled":false,"rental_uris":{"android":"levelo://app?vid=d04bf960-03b1-423f-816d-228aa9991efc","ios":"levelo://app?vid=d04bf960-03b1-423f-816d-228aa9991efc"},"vehicle_type_id":"4","last_reported":1726063684,"current_range_meters":16400,"station_id":"ce4bh012rcd13ifvqd00","pricing_plan_id":"cebpf4jnsgd1na2vs0mg"},{"bike_id":"02b6dfd8-412d-4268-9527-a302363db4ed","system_id":"levelo_inurba_marseille","lat":43.29442,"lon":5.383246,"is_reserved":false,"is_disabled":false,"rental_uris":{"android":"levelo://app?vid=02b6dfd8-412d-4268-9527-a302363db4ed","ios":"levelo://app?vid=02b6dfd8-412d-4268-9527-a302363db4ed"},"vehicle_type_id":"4","last_reported":1726063684,"current_range_meters":10000,"station_id":"ce4bh692rcd13ifvqea0","pricing_plan_id":"cebpf4jnsgd1na2vs0mg"},{"bike_id":"b864fb5e-4293-4b4b-9fec-9ca995475450","system_id":"levelo_inurba_marseille","lat":43.29556,"lon":5.42292,"is_reserved":false,"is_disabled":false,"rental_uris":{"android":"levelo://app?vid=b864fb5e-4293-4b4b-9fec-9ca995475450","ios":"levelo://app?vid=b864fb5e-4293-4b4b-9fec-9ca995475450"},"vehicle_type_id":"4","last_reported":1726063684,"current_range_meters":10000,"station_id":"ce4bhph2rcd13ifvqhdg","pricing_plan_id":"cebpf4jnsgd1na2vs0mg"},{"bike_id":"a99719ee-72f5-442e-bbc2-ae96bd5c2fd7","system_id":"levelo_inurba_marseille","lat":43.30139,"lon":5.37414,"is_reserved":false,"is_disabled":false,"rental_uris":{"android":"levelo://app?vid=a99719ee-72f5-442e-bbc2-ae96bd5c2fd7","ios":"levelo://app?vid=a99719ee-72f5-442e-bbc2-ae96bd5c2fd7"},"vehicle_type_id":"4","last_reported":1726063684,"current_range_meters":15200,"station_id":"ce4bh0h2rcd13ifvqd50","pricing_plan_id":"cebpf4jnsgd1na2vs0mg"},{"bike_id":"98f8975b-1652-45a9-a84f-e0f8cf84af34","system_id":"levelo_inurba_marseille","lat":43.23153,"lon":5.4372,"is_reserved":false,"is_disabled":false,"rental_uris":{"android":"levelo://app?vid=98f8975b-1652-45a9-a84f-e0f8cf84af34","ios":"levelo://app?vid=98f8975b-1652-45a9-a84f-e0f8cf84af34"},"vehicle_type_id":"4","last_reported":1726063684,"current_range_meters":15200,"station_id":"ce4bhmp2rcd13ifvqgog","pricing_plan_id":"cebpf4jnsgd1na2vs0mg"},{"bike_id":"b413bc3e-6bbd-4e11-abff-54bb0b63b087","system_id":"levelo_inurba_marseille","lat":43.23969,"lon":5.36625,"is_reserved":false,"is_disabled":false,"rental_uris":{"android":"levelo://app?vid=b413bc3e-6bbd-4e11-abff-54bb0b63b087","ios":"levelo://app?vid=b413bc3e-6bbd-4e11-abff-54bb0b63b087"},"vehicle_type_id":"4","last_reported":1726063684,"current_range_meters":19200,"station_id":"ce4bhi12rcd13ifvqfp0","pricing_plan_id":"cebpf4jnsgd1na2vs0mg"},{"bike_id":"c418a0a3-69bc-4a59-97fd-7bc4eeb30394","system_id":"levelo_inurba_marseille","lat":43.30538,"lon":5.36538,"is_reserved":false,"is_disabled":false,"rental_uris":{"android":"levelo://app?vid=c418a0a3-69bc-4a59-97fd-7bc4eeb30394","ios":"levelo://app?vid=c418a0a3-69bc-4a59-97fd-7bc4eeb30394"},"vehicle_type_id":"4","last_reported":1726063684,"current_range_meters":39200,"station_id":"ce4bgs12rcd13ifvqcag","pricing_plan_id":"cebpf4jnsgd1na2vs0mg"},{"bike_id":"08c47e60-2f37-4064-bcbc-08dd04c791ff","system_id":"levelo_inurba_marseille","lat":43.28418,"lon":5.3499,"is_reserved":false,"is_disabled":false,"rental_uris":{"android":"levelo://app?vid=08c47e60-2f37-4064-bcbc-08dd04c791ff","ios":"levelo://app?vid=08c47e60-2f37-4064-bcbc-08dd04c791ff"},"vehicle_type_id":"4","last_reported":1726063684,"current_range_meters":15200,"station_id":"ce4bhbh2rcd13ifvqepg","pricing_plan_id":"cebpf4jnsgd1na2vs0mg"},{"bike_id":"ed77d6a7-91e8-4a72-8cff-f002fec77002","system_id":"levelo_inurba_marseille","lat":43.28267,"lon":5.3506,"is_reserved":false,"is_disabled":false,"rental_uris":{"android":"levelo://app?vid=ed77d6a7-91e8-4a72-8cff-f002fec77002","ios":"levelo://app?vid=ed77d6a7-91e8-4a72-8cff-f002fec77002"},"vehicle_type_id":"4","last_reported":1726063684,"current_range_meters":14000,"station_id":"ce4bhbp2rcd13ifvqerg","pricing_plan_id":"cebpf4jnsgd1na2vs0mg"},{"bike_id":"a21c3523-e07c-4797-b9a3-e320b570c062","system_id":"levelo_inurba_marseille","lat":43.24391,"lon":5.37056,"is_reserved":false,"is_disabled":false,"rental_uris":{"android":"levelo://app?vid=a21c3523-e07c-4797-b9a3-e320b570c062","ios":"levelo://app?vid=a21c3523-e07c-4797-b9a3-e320b570c062"},"vehicle_type_id":"4","last_reported":1726063684,"current_range_meters":37600,"station_id":"ce4bhhh2rcd13ifvqfk0","pricing_plan_id":"cebpf4jnsgd1na2vs0mg"},{"bike_id":"881cd0aa-4129-4522-8b06-6464098f1e64","system_id":"levelo_inurba_marseille","lat":43.28362,"lon":5.38625,"is_reserved":false,"is_disabled":false,"rental_uris":{"android":"levelo://app?vid=881cd0aa-4129-4522-8b06-6464098f1e64","ios":"levelo://app?vid=881cd0aa-4129-4522-8b06-6464098f1e64"},"vehicle_type_id":"4","last_reported":1726063684,"current_range_meters":12800,"station_id":"ce4bh492rcd13ifvqdvg","pricing_plan_id":"cebpf4jnsgd1na2vs0mg"},{"bike_id":"da2e5ada-2b96-4065-8961-c375cf41a3bc","system_id":"levelo_inurba_marseille","lat":43.27201,"lon":5.39163,"is_reserved":false,"is_disabled":false,"rental_uris":{"android":"levelo://app?vid=da2e5ada-2b96-4065-8961-c375cf41a3bc","ios":"levelo://app?vid=da2e5ada-2b96-4065-8961-c375cf41a3bc"},"vehicle_type_id":"4","last_reported":1726063684,"current_range_meters":22800,"station_id":"ce4bhhp2rcd13ifvqfm0","pricing_plan_id":"cebpf4jnsgd1na2vs0mg"},{"bike_id":"9e29c0f6-2f9e-42b0-abef-550cbd744e5f","system_id":"levelo_inurba_marseille","lat":43.31723,"lon":5.42399,"is_reserved":false,"is_disabled":false,"rental_uris":{"android":"levelo://app?vid=9e29c0f6-2f9e-42b0-abef-550cbd744e5f","ios":"levelo://app?vid=9e29c0f6-2f9e-42b0-abef-550cbd744e5f"},"vehicle_type_id":"4","last_reported":1726063684,"current_range_meters":26000,"station_id":"ce4bhp92rcd13ifvqhbg","pricing_plan_id":"cebpf4jnsgd1na2vs0mg"},{"bike_id":"ff17172b-4e3d-4121-814e-f28de6da65b9","system_id":"levelo_inurba_marseille","lat":43.3054,"lon":5.36695,"is_reserved":false,"is_disabled":false,"rental_uris":{"android":"levelo://app?vid=ff17172b-4e3d-4121-814e-f28de6da65b9","ios":"levelo://app?vid=ff17172b-4e3d-4121-814e-f28de6da65b9"},"vehicle_type_id":"4","last_reported":1726063684,"current_range_meters":38000,"station_id":"ce4bgrp2rcd13ifvqc9g","pricing_plan_id":"cebpf4jnsgd1na2vs0mg"},{"bike_id":"25842457-7db9-450c-bb0c-92b879caa9ef","system_id":"levelo_inurba_marseille","lat":43.29853,"lon":5.36272,"is_reserved":false,"is_disabled":false,"rental_uris":{"android":"levelo://app?vid=25842457-7db9-450c-bb0c-92b879caa9ef","ios":"levelo://app?vid=25842457-7db9-450c-bb0c-92b879caa9ef"},"vehicle_type_id":"4","last_reported":1726063684,"current_range_meters":38400,"station_id":"ce4bgpp2rcd13ifvqc3g","pricing_plan_id":"cebpf4jnsgd1na2vs0mg"},{"bike_id":"00115f0a-ac26-4e9a-986d-383b5654c372","system_id":"levelo_inurba_marseille","lat":43.26687,"lon":5.38273,"is_reserved":false,"is_disabled":false,"rental_uris":{"android":"levelo://app?vid=00115f0a-ac26-4e9a-986d-383b5654c372","ios":"levelo://app?vid=00115f0a-ac26-4e9a-986d-383b5654c372"},"vehicle_type_id":"4","last_reported":1726063684,"current_range_meters":24000,"station_id":"ce4bhg92rcd13ifvqf90","pricing_plan_id":"cebpf4jnsgd1na2vs0mg"},{"bike_id":"15f7bffd-e890-4700-ae02-156b1b21c8ed","system_id":"levelo_inurba_marseille","lat":43.28663,"lon":5.36352,"is_reserved":false,"is_disabled":false,"rental_uris":{"android":"levelo://app?vid=15f7bffd-e890-4700-ae02-156b1b21c8ed","ios":"levelo://app?vid=15f7bffd-e890-4700-ae02-156b1b21c8ed"},"vehicle_type_id":"4","last_reported":1726063684,"current_range_meters":25200,"station_id":"ce4bhah2rcd13ifvqej0","pricing_plan_id":"cebpf4jnsgd1na2vs0mg"},{"bike_id":"0e9e81b5-584c-4fad-a94a-dad93b664bd7","system_id":"levelo_inurba_marseille","lat":43.29276,"lon":5.38444,"is_reserved":false,"is_disabled":false,"rental_uris":{"android":"levelo://app?vid=0e9e81b5-584c-4fad-a94a-dad93b664bd7","ios":"levelo://app?vid=0e9e81b5-584c-4fad-a94a-dad93b664bd7"},"vehicle_type_id":"4","last_reported":1726063684,"current_range_meters":30000,"station_id":"ce4bh692rcd13ifvqea0","pricing_plan_id":"cebpf4jnsgd1na2vs0mg"},{"bike_id":"f2cfc0ac-30b0-41ef-a051-e38e90421319","system_id":"levelo_inurba_marseille","lat":43.31713,"lon":5.37765,"is_reserved":false,"is_disabled":false,"rental_uris":{"android":"levelo://app?vid=f2cfc0ac-30b0-41ef-a051-e38e90421319","ios":"levelo://app?vid=f2cfc0ac-30b0-41ef-a051-e38e90421319"},"vehicle_type_id":"4","last_reported":1726063684,"current_range_meters":39200,"station_id":"ce4bgth2rcd13ifvqch0","pricing_plan_id":"cebpf4jnsgd1na2vs0mg"},{"bike_id":"1da1ae6b-0bb1-4600-acc0-a8a7b3124929","system_id":"levelo_inurba_marseille","lat":43.25585,"lon":5.382225,"is_reserved":false,"is_disabled":false,"rental_uris":{"android":"levelo://app?vid=1da1ae6b-0bb1-4600-acc0-a8a7b3124929","ios":"levelo://app?vid=1da1ae6b-0bb1-4600-acc0-a8a7b3124929"},"vehicle_type_id":"4","last_reported":1726063684,"current_range_meters":25200,"station_id":"ce4bhih2rcd13ifvqfs0","pricing_plan_id":"cebpf4jnsgd1na2vs0mg"},{"bike_id":"b1e2266a-36f7-4a04-a387-80ff24cacc69","system_id":"levelo_inurba_marseille","lat":43.26194,"lon":5.37448,"is_reserved":false,"is_disabled":false,"rental_uris":{"android":"levelo://app?vid=b1e2266a-36f7-4a04-a387-80ff24cacc69","ios":"levelo://app?vid=b1e2266a-36f7-4a04-a387-80ff24cacc69"},"vehicle_type_id":"4","last_reported":1726063684,"current_range_meters":14800,"station_id":"ce4bhgp2rcd13ifvqfc0","pricing_plan_id":"cebpf4jnsgd1na2vs0mg"},{"bike_id":"ca903f7a-bbf9-429e-b4a2-518fa91a32c7","system_id":"levelo_inurba_marseille","lat":43.27921,"lon":5.39582,"is_reserved":false,"is_disabled":false,"rental_uris":{"android":"levelo://app?vid=ca903f7a-bbf9-429e-b4a2-518fa91a32c7","ios":"levelo://app?vid=ca903f7a-bbf9-429e-b4a2-518fa91a32c7"},"vehicle_type_id":"4","last_reported":1726063684,"current_range_meters":10800,"station_id":"ce4bhf92rcd13ifvqf40","pricing_plan_id":"cebpf4jnsgd1na2vs0mg"},{"bike_id":"c23d2b2a-c758-4475-b86b-aec63105415c","system_id":"levelo_inurba_marseille","lat":43.29534,"lon":5.38543,"is_reserved":false,"is_disabled":false,"rental_uris":{"android":"levelo://app?vid=c23d2b2a-c758-4475-b86b-aec63105415c","ios":"levelo://app?vid=c23d2b2a-c758-4475-b86b-aec63105415c"},"vehicle_type_id":"4","last_reported":1726063684,"current_range_meters":12400,"station_id":"ce4bgih2rcd13ifvqba0","pricing_plan_id":"cebpf4jnsgd1na2vs0mg"},{"bike_id":"00ca710c-aa25-453d-b5eb-9286e939dc6d","system_id":"levelo_inurba_marseille","lat":43.29553,"lon":5.42286,"is_reserved":false,"is_disabled":false,"rental_uris":{"android":"levelo://app?vid=00ca710c-aa25-453d-b5eb-9286e939dc6d","ios":"levelo://app?vid=00ca710c-aa25-453d-b5eb-9286e939dc6d"},"vehicle_type_id":"4","last_reported":1726063684,"current_range_meters":38800,"station_id":"ce4bhph2rcd13ifvqhdg","pricing_plan_id":"cebpf4jnsgd1na2vs0mg"},{"bike_id":"8906544b-f377-4ea8-8005-1800cd8de0f5","system_id":"levelo_inurba_marseille","lat":43.29264,"lon":5.38425,"is_reserved":false,"is_disabled":false,"rental_uris":{"android":"levelo://app?vid=8906544b-f377-4ea8-8005-1800cd8de0f5","ios":"levelo://app?vid=8906544b-f377-4ea8-8005-1800cd8de0f5"},"vehicle_type_id":"4","last_reported":1726063684,"current_range_meters":20000,"station_id":"ce4bh692rcd13ifvqea0","pricing_plan_id":"cebpf4jnsgd1na2vs0mg"},{"bike_id":"a36a6131-7175-4d21-afcf-16a3b952996a","system_id":"levelo_inurba_marseille","lat":43.30817,"lon":5.37647,"is_reserved":false,"is_disabled":false,"rental_uris":{"android":"levelo://app?vid=a36a6131-7175-4d21-afcf-16a3b952996a","ios":"levelo://app?vid=a36a6131-7175-4d21-afcf-16a3b952996a"},"vehicle_type_id":"4","last_reported":1726063684,"current_range_meters":9600,"station_id":"ce4bgv92rcd13ifvqcq0","pricing_plan_id":"cebpf4jnsgd1na2vs0mg"},{"bike_id":"3be19a4a-e7a2-4727-8522-bfdcc2f9851c","system_id":"levelo_inurba_marseille","lat":43.25505,"lon":5.3765,"is_reserved":false,"is_disabled":false,"rental_uris":{"android":"levelo://app?vid=3be19a4a-e7a2-4727-8522-bfdcc2f9851c","ios":"levelo://app?vid=3be19a4a-e7a2-4727-8522-bfdcc2f9851c"},"vehicle_type_id":"4","last_reported":1726063684,"current_range_meters":25600,"station_id":"ce4bhh12rcd13ifvqff0","pricing_plan_id":"cebpf4jnsgd1na2vs0mg"},{"bike_id":"c514ee5d-6f5a-43fa-945e-ee6c92be336f","system_id":"levelo_inurba_marseille","lat":43.29569,"lon":5.37529,"is_reserved":false,"is_disabled":false,"rental_uris":{"android":"levelo://app?vid=c514ee5d-6f5a-43fa-945e-ee6c92be336f","ios":"levelo://app?vid=c514ee5d-6f5a-43fa-945e-ee6c92be336f"},"vehicle_type_id":"4","last_reported":1726063684,"current_range_meters":13600,"station_id":"ce4bgh92rcd13ifvqb50","pricing_plan_id":"cebpf4jnsgd1na2vs0mg"},{"bike_id":"f580a12d-01b9-465d-9911-b465aacd841c","system_id":"levelo_inurba_marseille","lat":43.255,"lon":5.37645,"is_reserved":false,"is_disabled":false,"rental_uris":{"android":"levelo://app?vid=f580a12d-01b9-465d-9911-b465aacd841c","ios":"levelo://app?vid=f580a12d-01b9-465d-9911-b465aacd841c"},"vehicle_type_id":"4","last_reported":1726063684,"current_range_meters":2000,"station_id":"ce4bhh12rcd13ifvqff0","pricing_plan_id":"cebpf4jnsgd1na2vs0mg"},{"bike_id":"d0b7aa61-7851-46ae-af5a-7a19cfdfc900","system_id":"levelo_inurba_marseille","lat":43.2606,"lon":5.39393,"is_reserved":false,"is_disabled":false,"rental_uris":{"android":"levelo://app?vid=d0b7aa61-7851-46ae-af5a-7a19cfdfc900","ios":"levelo://app?vid=d0b7aa61-7851-46ae-af5a-7a19cfdfc900"},"vehicle_type_id":"4","last_reported":1726063684,"current_range_meters":35600,"station_id":"ce4bhh92rcd13ifvqfj0","pricing_plan_id":"cebpf4jnsgd1na2vs0mg"},{"bike_id":"2c0bf431-778b-4bab-b77b-57ca59843fbf","system_id":"levelo_inurba_marseille","lat":43.23184,"lon":5.39982,"is_reserved":false,"is_disabled":false,"rental_uris":{"android":"levelo://app?vid=2c0bf431-778b-4bab-b77b-57ca59843fbf","ios":"levelo://app?vid=2c0bf431-778b-4bab-b77b-57ca59843fbf"},"vehicle_type_id":"4","last_reported":1726063684,"current_range_meters":26800,"station_id":"ce4bhn12rcd13ifvqgqg","pricing_plan_id":"cebpf4jnsgd1na2vs0mg"},{"bike_id":"3e71dd62-37f9-4fdf-b475-7d894230e08d","system_id":"levelo_inurba_marseille","lat":43.2315,"lon":5.43719,"is_reserved":false,"is_disabled":false,"rental_uris":{"android":"levelo://app?vid=3e71dd62-37f9-4fdf-b475-7d894230e08d","ios":"levelo://app?vid=3e71dd62-37f9-4fdf-b475-7d894230e08d"},"vehicle_type_id":"4","last_reported":1726063684,"current_range_meters":16400,"station_id":"ce4bhmp2rcd13ifvqgog","pricing_plan_id":"cebpf4jnsgd1na2vs0mg"},{"bike_id":"738025fc-7584-417e-910b-f34061370de4","system_id":"levelo_inurba_marseille","lat":43.30015,"lon":5.36827,"is_reserved":false,"is_disabled":false,"rental_uris":{"android":"levelo://app?vid=738025fc-7584-417e-910b-f34061370de4","ios":"levelo://app?vid=738025fc-7584-417e-910b-f34061370de4"},"vehicle_type_id":"4","last_reported":1726063684,"current_range_meters":36000,"station_id":"","pricing_plan_id":"cebpf4jnsgd1na2vs0mg"},{"bike_id":"70496fba-c8e9-4ae2-90e5-e17cbeaa2919","system_id":"levelo_inurba_marseille","lat":43.28009,"lon":5.40014,"is_reserved":false,"is_disabled":false,"rental_uris":{"android":"levelo://app?vid=70496fba-c8e9-4ae2-90e5-e17cbeaa2919","ios":"levelo://app?vid=70496fba-c8e9-4ae2-90e5-e17cbeaa2919"},"vehicle_type_id":"4","last_reported":1726063684,"current_range_meters":17200,"station_id":"ce4bho92rcd13ifvqh4g","pricing_plan_id":"cebpf4jnsgd1na2vs0mg"},{"bike_id":"b57b7c50-b45e-48bf-80f1-5809fd7245ab","system_id":"levelo_inurba_marseille","lat":43.26675,"lon":5.38268,"is_reserved":false,"is_disabled":false,"rental_uris":{"android":"levelo://app?vid=b57b7c50-b45e-48bf-80f1-5809fd7245ab","ios":"levelo://app?vid=b57b7c50-b45e-48bf-80f1-5809fd7245ab"},"vehicle_type_id":"4","last_reported":1726063684,"current_range_meters":38800,"station_id":"ce4bhg92rcd13ifvqf90","pricing_plan_id":"cebpf4jnsgd1na2vs0mg"},{"bike_id":"9734d854-1bee-4703-b105-c182cf679f1a","system_id":"levelo_inurba_marseille","lat":43.25934,"lon":5.40906,"is_reserved":false,"is_disabled":false,"rental_uris":{"android":"levelo://app?vid=9734d854-1bee-4703-b105-c182cf679f1a","ios":"levelo://app?vid=9734d854-1bee-4703-b105-c182cf679f1a"},"vehicle_type_id":"4","last_reported":1726063684,"current_range_meters":18800,"station_id":"ce4bhm92rcd13ifvqglg","pricing_plan_id":"cebpf4jnsgd1na2vs0mg"},{"bike_id":"5953d051-b165-4072-8d20-1fe5dbb6576f","system_id":"levelo_inurba_marseille","lat":43.28417,"lon":5.34981,"is_reserved":false,"is_disabled":false,"rental_uris":{"android":"levelo://app?vid=5953d051-b165-4072-8d20-1fe5dbb6576f","ios":"levelo://app?vid=5953d051-b165-4072-8d20-1fe5dbb6576f"},"vehicle_type_id":"4","last_reported":1726063684,"current_range_meters":30400,"station_id":"ce4bhbh2rcd13ifvqepg","pricing_plan_id":"cebpf4jnsgd1na2vs0mg"},{"bike_id":"d1ae747e-0602-4bfa-badb-bb8c37d9cfbd","system_id":"levelo_inurba_marseille","lat":43.25116,"lon":5.40318,"is_reserved":false,"is_disabled":false,"rental_uris":{"android":"levelo://app?vid=d1ae747e-0602-4bfa-badb-bb8c37d9cfbd","ios":"levelo://app?vid=d1ae747e-0602-4bfa-badb-bb8c37d9cfbd"},"vehicle_type_id":"4","last_reported":1726063684,"current_range_meters":16800,"station_id":"ce4bhlh2rcd13ifvqgig","pricing_plan_id":"cebpf4jnsgd1na2vs0mg"},{"bike_id":"aaf6dc9c-0f49-4cfb-8053-0ab150017608","system_id":"levelo_inurba_marseille","lat":43.2594,"lon":5.40904,"is_reserved":false,"is_disabled":false,"rental_uris":{"android":"levelo://app?vid=aaf6dc9c-0f49-4cfb-8053-0ab150017608","ios":"levelo://app?vid=aaf6dc9c-0f49-4cfb-8053-0ab150017608"},"vehicle_type_id":"4","last_reported":1726063684,"current_range_meters":31200,"station_id":"ce4bhm92rcd13ifvqglg","pricing_plan_id":"cebpf4jnsgd1na2vs0mg"},{"bike_id":"34f1f2d2-e8dc-46d1-818b-0e14859e7b8f","system_id":"levelo_inurba_marseille","lat":43.2587,"lon":5.39893,"is_reserved":false,"is_disabled":false,"rental_uris":{"android":"levelo://app?vid=34f1f2d2-e8dc-46d1-818b-0e14859e7b8f","ios":"levelo://app?vid=34f1f2d2-e8dc-46d1-818b-0e14859e7b8f"},"vehicle_type_id":"4","last_reported":1726063684,"current_range_meters":3200,"station_id":"ce4bhl92rcd13ifvqghg","pricing_plan_id":"cebpf4jnsgd1na2vs0mg"},{"bike_id":"682d6a83-4be7-4875-9582-a7844aa64b02","system_id":"levelo_inurba_marseille","lat":43.30143,"lon":5.37424,"is_reserved":false,"is_disabled":false,"rental_uris":{"android":"levelo://app?vid=682d6a83-4be7-4875-9582-a7844aa64b02","ios":"levelo://app?vid=682d6a83-4be7-4875-9582-a7844aa64b02"},"vehicle_type_id":"4","last_reported":1726063684,"current_range_meters":19600,"station_id":"ce4bgs92rcd13ifvqcc0","pricing_plan_id":"cebpf4jnsgd1na2vs0mg"},{"bike_id":"88cf5dd6-c835-4104-9def-26019de205df","system_id":"levelo_inurba_marseille","lat":43.29898,"lon":5.43671,"is_reserved":false,"is_disabled":false,"rental_uris":{"android":"levelo://app?vid=88cf5dd6-c835-4104-9def-26019de205df","ios":"levelo://app?vid=88cf5dd6-c835-4104-9def-26019de205df"},"vehicle_type_id":"4","last_reported":1726063684,"current_range_meters":34000,"station_id":"ce4bhpp2rcd13ifvqhfg","pricing_plan_id":"cebpf4jnsgd1na2vs0mg"},{"bike_id":"50f0f4d8-ea81-4e53-b47f-f5d063f7e37c","system_id":"levelo_inurba_marseille","lat":43.25109,"lon":5.40321,"is_reserved":false,"is_disabled":false,"rental_uris":{"android":"levelo://app?vid=50f0f4d8-ea81-4e53-b47f-f5d063f7e37c","ios":"levelo://app?vid=50f0f4d8-ea81-4e53-b47f-f5d063f7e37c"},"vehicle_type_id":"4","last_reported":1726063684,"current_range_meters":27600,"station_id":"ce4bhlh2rcd13ifvqgig","pricing_plan_id":"cebpf4jnsgd1na2vs0mg"},{"bike_id":"46fed3f8-27ec-4816-b0fa-a182a2b87203","system_id":"levelo_inurba_marseille","lat":43.33029,"lon":5.39041,"is_reserved":false,"is_disabled":false,"rental_uris":{"android":"levelo://app?vid=46fed3f8-27ec-4816-b0fa-a182a2b87203","ios":"levelo://app?vid=46fed3f8-27ec-4816-b0fa-a182a2b87203"},"vehicle_type_id":"4","last_reported":1726063684,"current_range_meters":13600,"station_id":"ce4bhr92rcd13ifvqhrg","pricing_plan_id":"cebpf4jnsgd1na2vs0mg"},{"bike_id":"0a399320-3934-4592-a0d7-c89b8f73fb58","system_id":"levelo_inurba_marseille","lat":43.30548,"lon":5.36707,"is_reserved":false,"is_disabled":false,"rental_uris":{"android":"levelo://app?vid=0a399320-3934-4592-a0d7-c89b8f73fb58","ios":"levelo://app?vid=0a399320-3934-4592-a0d7-c89b8f73fb58"},"vehicle_type_id":"4","last_reported":1726063684,"current_range_meters":38800,"station_id":"ce4bgrp2rcd13ifvqc9g","pricing_plan_id":"cebpf4jnsgd1na2vs0mg"},{"bike_id":"8e06870f-59b1-4019-8c4e-0fd97a649554","system_id":"levelo_inurba_marseille","lat":43.28007,"lon":5.40007,"is_reserved":false,"is_disabled":false,"rental_uris":{"android":"levelo://app?vid=8e06870f-59b1-4019-8c4e-0fd97a649554","ios":"levelo://app?vid=8e06870f-59b1-4019-8c4e-0fd97a649554"},"vehicle_type_id":"4","last_reported":1726063684,"current_range_meters":16400,"station_id":"ce4bho92rcd13ifvqh4g","pricing_plan_id":"cebpf4jnsgd1na2vs0mg"},{"bike_id":"21665c0d-25aa-4df8-8ca3-d9e04b703040","system_id":"levelo_inurba_marseille","lat":43.29962,"lon":5.41321,"is_reserved":false,"is_disabled":false,"rental_uris":{"android":"levelo://app?vid=21665c0d-25aa-4df8-8ca3-d9e04b703040","ios":"levelo://app?vid=21665c0d-25aa-4df8-8ca3-d9e04b703040"},"vehicle_type_id":"4","last_reported":1726063684,"current_range_meters":24800,"station_id":"ce4bhp12rcd13ifvqh9g","pricing_plan_id":"cebpf4jnsgd1na2vs0mg"},{"bike_id":"1abc4bc9-7fd6-42e9-a17b-6751fe79bb00","system_id":"levelo_inurba_marseille","lat":43.32293,"lon":5.38261,"is_reserved":false,"is_disabled":false,"rental_uris":{"android":"levelo://app?vid=1abc4bc9-7fd6-42e9-a17b-6751fe79bb00","ios":"levelo://app?vid=1abc4bc9-7fd6-42e9-a17b-6751fe79bb00"},"vehicle_type_id":"4","last_reported":1726063684,"current_range_meters":2000,"station_id":"ce4bhr12rcd13ifvqhqg","pricing_plan_id":"cebpf4jnsgd1na2vs0mg"},{"bike_id":"ca83b445-f9b8-4c3b-8fbf-9f0e930b1f13","system_id":"levelo_inurba_marseille","lat":43.29845,"lon":5.36275,"is_reserved":false,"is_disabled":false,"rental_uris":{"android":"levelo://app?vid=ca83b445-f9b8-4c3b-8fbf-9f0e930b1f13","ios":"levelo://app?vid=ca83b445-f9b8-4c3b-8fbf-9f0e930b1f13"},"vehicle_type_id":"4","last_reported":1726063684,"current_range_meters":36000,"station_id":"ce4bgpp2rcd13ifvqc3g","pricing_plan_id":"cebpf4jnsgd1na2vs0mg"},{"bike_id":"8483adcd-702d-4bde-b173-32fac39724c2","system_id":"levelo_inurba_marseille","lat":43.3054,"lon":5.36554,"is_reserved":false,"is_disabled":false,"rental_uris":{"android":"levelo://app?vid=8483adcd-702d-4bde-b173-32fac39724c2","ios":"levelo://app?vid=8483adcd-702d-4bde-b173-32fac39724c2"},"vehicle_type_id":"4","last_reported":1726063684,"current_range_meters":7200,"station_id":"ce4bgs12rcd13ifvqcag","pricing_plan_id":"cebpf4jnsgd1na2vs0mg"},{"bike_id":"293bda51-9576-4304-b92c-c060057bed94","system_id":"levelo_inurba_marseille","lat":43.27376,"lon":5.3625,"is_reserved":false,"is_disabled":false,"rental_uris":{"android":"levelo://app?vid=293bda51-9576-4304-b92c-c060057bed94","ios":"levelo://app?vid=293bda51-9576-4304-b92c-c060057bed94"},"vehicle_type_id":"4","last_reported":1726063684,"current_range_meters":6000,"station_id":"ce4bhbh2rcd13ifvqeo0","pricing_plan_id":"cebpf4jnsgd1na2vs0mg"},{"bike_id":"80517cc1-69f0-4d8a-98cf-1adc8526c83e","system_id":"levelo_inurba_marseille","lat":43.2439,"lon":5.37058,"is_reserved":false,"is_disabled":false,"rental_uris":{"android":"levelo://app?vid=80517cc1-69f0-4d8a-98cf-1adc8526c83e","ios":"levelo://app?vid=80517cc1-69f0-4d8a-98cf-1adc8526c83e"},"vehicle_type_id":"4","last_reported":1726063684,"current_range_meters":22000,"station_id":"ce4bhhh2rcd13ifvqfk0","pricing_plan_id":"cebpf4jnsgd1na2vs0mg"},{"bike_id":"91fce6cf-0af2-4d89-84b8-e2ab9664d9dc","system_id":"levelo_inurba_marseille","lat":43.29955,"lon":5.41323,"is_reserved":false,"is_disabled":false,"rental_uris":{"android":"levelo://app?vid=91fce6cf-0af2-4d89-84b8-e2ab9664d9dc","ios":"levelo://app?vid=91fce6cf-0af2-4d89-84b8-e2ab9664d9dc"},"vehicle_type_id":"4","last_reported":1726063684,"current_range_meters":20400,"station_id":"ce4bhp12rcd13ifvqh9g","pricing_plan_id":"cebpf4jnsgd1na2vs0mg"},{"bike_id":"152c16e5-ee8e-4575-8d12-1841d802a248","system_id":"levelo_inurba_marseille","lat":43.30412,"lon":5.41287,"is_reserved":false,"is_disabled":false,"rental_uris":{"android":"levelo://app?vid=152c16e5-ee8e-4575-8d12-1841d802a248","ios":"levelo://app?vid=152c16e5-ee8e-4575-8d12-1841d802a248"},"vehicle_type_id":"4","last_reported":1726063684,"current_range_meters":24800,"station_id":"ce4bhop2rcd13ifvqh8g","pricing_plan_id":"cebpf4jnsgd1na2vs0mg"},{"bike_id":"73b9e7db-6862-45af-a8fe-5c1dd087d721","system_id":"levelo_inurba_marseille","lat":43.28432,"lon":5.39179,"is_reserved":false,"is_disabled":false,"rental_uris":{"android":"levelo://app?vid=73b9e7db-6862-45af-a8fe-5c1dd087d721","ios":"levelo://app?vid=73b9e7db-6862-45af-a8fe-5c1dd087d721"},"vehicle_type_id":"4","last_reported":1726063684,"current_range_meters":36400,"station_id":"ce4bhoh2rcd13ifvqh5g","pricing_plan_id":"cebpf4jnsgd1na2vs0mg"},{"bike_id":"d1fc0d47-7769-454b-be6a-1c17b2b03cc9","system_id":"levelo_inurba_marseille","lat":43.2984,"lon":5.3626,"is_reserved":false,"is_disabled":false,"rental_uris":{"android":"levelo://app?vid=d1fc0d47-7769-454b-be6a-1c17b2b03cc9","ios":"levelo://app?vid=d1fc0d47-7769-454b-be6a-1c17b2b03cc9"},"vehicle_type_id":"4","last_reported":1726063684,"current_range_meters":17600,"station_id":"ce4bgpp2rcd13ifvqc3g","pricing_plan_id":"cebpf4jnsgd1na2vs0mg"},{"bike_id":"83babb1f-2d07-4a77-86df-cee59a4741b9","system_id":"levelo_inurba_marseille","lat":43.28437,"lon":5.39185,"is_reserved":false,"is_disabled":false,"rental_uris":{"android":"levelo://app?vid=83babb1f-2d07-4a77-86df-cee59a4741b9","ios":"levelo://app?vid=83babb1f-2d07-4a77-86df-cee59a4741b9"},"vehicle_type_id":"4","last_reported":1726063684,"current_range_meters":36000,"station_id":"ce4bhoh2rcd13ifvqh5g","pricing_plan_id":"cebpf4jnsgd1na2vs0mg"},{"bike_id":"75247513-4891-4114-a6d8-ba68393e79f0","system_id":"levelo_inurba_marseille","lat":43.29581,"lon":5.36744,"is_reserved":false,"is_disabled":false,"rental_uris":{"android":"levelo://app?vid=75247513-4891-4114-a6d8-ba68393e79f0","ios":"levelo://app?vid=75247513-4891-4114-a6d8-ba68393e79f0"},"vehicle_type_id":"4","last_reported":1726063684,"current_range_meters":16800,"station_id":"ce4bgph2rcd13ifvqc2g","pricing_plan_id":"cebpf4jnsgd1na2vs0mg"},{"bike_id":"1da17a09-effc-4006-8d9b-8e9257de764c","system_id":"levelo_inurba_marseille","lat":43.23196,"lon":5.3555,"is_reserved":false,"is_disabled":false,"rental_uris":{"android":"levelo://app?vid=1da17a09-effc-4006-8d9b-8e9257de764c","ios":"levelo://app?vid=1da17a09-effc-4006-8d9b-8e9257de764c"},"vehicle_type_id":"4","last_reported":1726063684,"current_range_meters":19600,"station_id":"ce4bhu92rcd13ifvqi70","pricing_plan_id":"cebpf4jnsgd1na2vs0mg"},{"bike_id":"df5bd83d-06d4-432f-83c4-381810e7a4a9","system_id":"levelo_inurba_marseille","lat":43.25931,"lon":5.40907,"is_reserved":false,"is_disabled":false,"rental_uris":{"android":"levelo://app?vid=df5bd83d-06d4-432f-83c4-381810e7a4a9","ios":"levelo://app?vid=df5bd83d-06d4-432f-83c4-381810e7a4a9"},"vehicle_type_id":"4","last_reported":1726063684,"current_range_meters":27600,"station_id":"ce4bhm92rcd13ifvqglg","pricing_plan_id":"cebpf4jnsgd1na2vs0mg"},{"bike_id":"dd7f6df3-46e6-4f22-b872-d4de8dbafbeb","system_id":"levelo_inurba_marseille","lat":43.28282,"lon":5.35065,"is_reserved":false,"is_disabled":false,"rental_uris":{"android":"levelo://app?vid=dd7f6df3-46e6-4f22-b872-d4de8dbafbeb","ios":"levelo://app?vid=dd7f6df3-46e6-4f22-b872-d4de8dbafbeb"},"vehicle_type_id":"4","last_reported":1726063684,"current_range_meters":25200,"station_id":"ce4bhbp2rcd13ifvqerg","pricing_plan_id":"cebpf4jnsgd1na2vs0mg"},{"bike_id":"8c1c13d1-6edd-4435-b441-e172ff7a065e","system_id":"levelo_inurba_marseille","lat":43.29966,"lon":5.38508,"is_reserved":false,"is_disabled":false,"rental_uris":{"android":"levelo://app?vid=8c1c13d1-6edd-4435-b441-e172ff7a065e","ios":"levelo://app?vid=8c1c13d1-6edd-4435-b441-e172ff7a065e"},"vehicle_type_id":"4","last_reported":1726063684,"current_range_meters":35200,"station_id":"ce4bgj92rcd13ifvqbd0","pricing_plan_id":"cebpf4jnsgd1na2vs0mg"},{"bike_id":"76d950e4-d6f6-43f4-8308-cae38f4f2ae1","system_id":"levelo_inurba_marseille","lat":43.24806,"lon":5.37452,"is_reserved":false,"is_disabled":false,"rental_uris":{"android":"levelo://app?vid=76d950e4-d6f6-43f4-8308-cae38f4f2ae1","ios":"levelo://app?vid=76d950e4-d6f6-43f4-8308-cae38f4f2ae1"},"vehicle_type_id":"4","last_reported":1726063684,"current_range_meters":20000,"station_id":"ce4bhgh2rcd13ifvqfb0","pricing_plan_id":"cebpf4jnsgd1na2vs0mg"},{"bike_id":"83904cee-86b0-4594-9c63-f32a99a8097f","system_id":"levelo_inurba_marseille","lat":43.25005,"lon":5.38927,"is_reserved":false,"is_disabled":false,"rental_uris":{"android":"levelo://app?vid=83904cee-86b0-4594-9c63-f32a99a8097f","ios":"levelo://app?vid=83904cee-86b0-4594-9c63-f32a99a8097f"},"vehicle_type_id":"4","last_reported":1726063684,"current_range_meters":22800,"station_id":"ce4bhgp2rcd13ifvqfd0","pricing_plan_id":"cebpf4jnsgd1na2vs0mg"},{"bike_id":"afba6b6d-963a-49c5-b260-b949af368258","system_id":"levelo_inurba_marseille","lat":43.27325,"lon":5.39101,"is_reserved":false,"is_disabled":false,"rental_uris":{"android":"levelo://app?vid=afba6b6d-963a-49c5-b260-b949af368258","ios":"levelo://app?vid=afba6b6d-963a-49c5-b260-b949af368258"},"vehicle_type_id":"4","last_reported":1726063684,"current_range_meters":32400,"station_id":"ce4bhgp2rcd13ifvqfe0","pricing_plan_id":"cebpf4jnsgd1na2vs0mg"},{"bike_id":"74d7f432-f596-45ae-b14d-0ddc7f8a62f6","system_id":"levelo_inurba_marseille","lat":43.23147,"lon":5.43715,"is_reserved":false,"is_disabled":false,"rental_uris":{"android":"levelo://app?vid=74d7f432-f596-45ae-b14d-0ddc7f8a62f6","ios":"levelo://app?vid=74d7f432-f596-45ae-b14d-0ddc7f8a62f6"},"vehicle_type_id":"4","last_reported":1726063684,"current_range_meters":8000,"station_id":"ce4bhmp2rcd13ifvqgog","pricing_plan_id":"cebpf4jnsgd1na2vs0mg"},{"bike_id":"2958f99e-1d9a-4e2c-be3e-eed7fc3e01c7","system_id":"levelo_inurba_marseille","lat":43.29882,"lon":5.38903,"is_reserved":false,"is_disabled":false,"rental_uris":{"android":"levelo://app?vid=2958f99e-1d9a-4e2c-be3e-eed7fc3e01c7","ios":"levelo://app?vid=2958f99e-1d9a-4e2c-be3e-eed7fc3e01c7"},"vehicle_type_id":"4","last_reported":1726063684,"current_range_meters":28400,"station_id":"ce4bh392rcd13ifvqdl0","pricing_plan_id":"cebpf4jnsgd1na2vs0mg"},{"bike_id":"99f93543-3031-41d2-9437-e5c0b0a54eb6","system_id":"levelo_inurba_marseille","lat":43.30599,"lon":5.37235,"is_reserved":false,"is_disabled":false,"rental_uris":{"android":"levelo://app?vid=99f93543-3031-41d2-9437-e5c0b0a54eb6","ios":"levelo://app?vid=99f93543-3031-41d2-9437-e5c0b0a54eb6"},"vehicle_type_id":"4","last_reported":1726063684,"current_range_meters":22800,"station_id":"ce4bgqh2rcd13ifvqc4g","pricing_plan_id":"cebpf4jnsgd1na2vs0mg"},{"bike_id":"061e76f9-f2be-48ca-bb2d-f66e7a7deb78","system_id":"levelo_inurba_marseille","lat":43.25723,"lon":5.41112,"is_reserved":false,"is_disabled":false,"rental_uris":{"android":"levelo://app?vid=061e76f9-f2be-48ca-bb2d-f66e7a7deb78","ios":"levelo://app?vid=061e76f9-f2be-48ca-bb2d-f66e7a7deb78"},"vehicle_type_id":"4","last_reported":1726063684,"current_range_meters":26800,"station_id":"ce4bhkp2rcd13ifvqgd0","pricing_plan_id":"cebpf4jnsgd1na2vs0mg"},{"bike_id":"f9a8441d-3927-482a-b85b-911ee070cbc3","system_id":"levelo_inurba_marseille","lat":43.28607,"lon":5.3706,"is_reserved":false,"is_disabled":false,"rental_uris":{"android":"levelo://app?vid=f9a8441d-3927-482a-b85b-911ee070cbc3","ios":"levelo://app?vid=f9a8441d-3927-482a-b85b-911ee070cbc3"},"vehicle_type_id":"4","last_reported":1726063684,"current_range_meters":2000,"station_id":"ce4bht12rcd13ifvqi60","pricing_plan_id":"cebpf4jnsgd1na2vs0mg"},{"bike_id":"883adf4f-9822-48e8-9c16-82ae0dbc702a","system_id":"levelo_inurba_marseille","lat":43.2315,"lon":5.43702,"is_reserved":false,"is_disabled":false,"rental_uris":{"android":"levelo://app?vid=883adf4f-9822-48e8-9c16-82ae0dbc702a","ios":"levelo://app?vid=883adf4f-9822-48e8-9c16-82ae0dbc702a"},"vehicle_type_id":"4","last_reported":1726063684,"current_range_meters":8400,"station_id":"ce4bhmp2rcd13ifvqgog","pricing_plan_id":"cebpf4jnsgd1na2vs0mg"},{"bike_id":"7dcd8fcd-6a55-496a-8a72-6799b3b822ef","system_id":"levelo_inurba_marseille","lat":43.28272,"lon":5.35072,"is_reserved":false,"is_disabled":false,"rental_uris":{"android":"levelo://app?vid=7dcd8fcd-6a55-496a-8a72-6799b3b822ef","ios":"levelo://app?vid=7dcd8fcd-6a55-496a-8a72-6799b3b822ef"},"vehicle_type_id":"4","last_reported":1726063684,"current_range_meters":29600,"station_id":"ce4bhbp2rcd13ifvqerg","pricing_plan_id":"cebpf4jnsgd1na2vs0mg"},{"bike_id":"2f76df8b-eb6b-4d70-84b1-33bec47ddb41","system_id":"levelo_inurba_marseille","lat":43.28935,"lon":5.36632,"is_reserved":false,"is_disabled":false,"rental_uris":{"android":"levelo://app?vid=2f76df8b-eb6b-4d70-84b1-33bec47ddb41","ios":"levelo://app?vid=2f76df8b-eb6b-4d70-84b1-33bec47ddb41"},"vehicle_type_id":"4","last_reported":1726063684,"current_range_meters":30400,"station_id":"ce4bhap2rcd13ifvqek0","pricing_plan_id":"cebpf4jnsgd1na2vs0mg"},{"bike_id":"e6f96de0-61ec-4748-a734-8c2cacbee67f","system_id":"levelo_inurba_marseille","lat":43.23053,"lon":5.35486,"is_reserved":false,"is_disabled":false,"rental_uris":{"android":"levelo://app?vid=e6f96de0-61ec-4748-a734-8c2cacbee67f","ios":"levelo://app?vid=e6f96de0-61ec-4748-a734-8c2cacbee67f"},"vehicle_type_id":"4","last_reported":1726063684,"current_range_meters":5600,"station_id":"cpo3342slgdg3j2ifvpg","pricing_plan_id":"cebpf4jnsgd1na2vs0mg"},{"bike_id":"9a3c6365-df00-48f6-9220-61b0c5e00a7f","system_id":"levelo_inurba_marseille","lat":43.28437,"lon":5.39175,"is_reserved":false,"is_disabled":false,"rental_uris":{"android":"levelo://app?vid=9a3c6365-df00-48f6-9220-61b0c5e00a7f","ios":"levelo://app?vid=9a3c6365-df00-48f6-9220-61b0c5e00a7f"},"vehicle_type_id":"4","last_reported":1726063684,"current_range_meters":22800,"station_id":"ce4bhoh2rcd13ifvqh5g","pricing_plan_id":"cebpf4jnsgd1na2vs0mg"},{"bike_id":"408c3952-5497-4aed-817e-254844883f69","system_id":"levelo_inurba_marseille","lat":43.28925,"lon":5.38389,"is_reserved":false,"is_disabled":false,"rental_uris":{"android":"levelo://app?vid=408c3952-5497-4aed-817e-254844883f69","ios":"levelo://app?vid=408c3952-5497-4aed-817e-254844883f69"},"vehicle_type_id":"4","last_reported":1726063684,"current_range_meters":34000,"station_id":"ce4bh612rcd13ifvqe6g","pricing_plan_id":"cebpf4jnsgd1na2vs0mg"},{"bike_id":"638343ce-15e7-4192-b8b3-9dbbe2d9e121","system_id":"levelo_inurba_marseille","lat":43.27184,"lon":5.40996,"is_reserved":false,"is_disabled":false,"rental_uris":{"android":"levelo://app?vid=638343ce-15e7-4192-b8b3-9dbbe2d9e121","ios":"levelo://app?vid=638343ce-15e7-4192-b8b3-9dbbe2d9e121"},"vehicle_type_id":"4","last_reported":1726063684,"current_range_meters":36000,"station_id":"ce4bhl12rcd13ifvqgf0","pricing_plan_id":"cebpf4jnsgd1na2vs0mg"},{"bike_id":"ae4efac1-b3ff-4cde-85bf-de29f8382ea9","system_id":"levelo_inurba_marseille","lat":43.29042,"lon":5.35922,"is_reserved":false,"is_disabled":false,"rental_uris":{"android":"levelo://app?vid=ae4efac1-b3ff-4cde-85bf-de29f8382ea9","ios":"levelo://app?vid=ae4efac1-b3ff-4cde-85bf-de29f8382ea9"},"vehicle_type_id":"4","last_reported":1726063684,"current_range_meters":12800,"station_id":"ce4bha92rcd13ifvqeg0","pricing_plan_id":"cebpf4jnsgd1na2vs0mg"},{"bike_id":"f56c35ce-d5c4-40a2-8d71-0dd352be39c9","system_id":"levelo_inurba_marseille","lat":43.29563,"lon":5.42279,"is_reserved":false,"is_disabled":false,"rental_uris":{"android":"levelo://app?vid=f56c35ce-d5c4-40a2-8d71-0dd352be39c9","ios":"levelo://app?vid=f56c35ce-d5c4-40a2-8d71-0dd352be39c9"},"vehicle_type_id":"4","last_reported":1726063684,"current_range_meters":30000,"station_id":"ce4bhph2rcd13ifvqhdg","pricing_plan_id":"cebpf4jnsgd1na2vs0mg"},{"bike_id":"f8204089-eb8b-4c50-8900-19fede8da2f4","system_id":"levelo_inurba_marseille","lat":43.28613,"lon":5.35101,"is_reserved":false,"is_disabled":false,"rental_uris":{"android":"levelo://app?vid=f8204089-eb8b-4c50-8900-19fede8da2f4","ios":"levelo://app?vid=f8204089-eb8b-4c50-8900-19fede8da2f4"},"vehicle_type_id":"4","last_reported":1726063684,"current_range_meters":31200,"station_id":"ce4bhch2rcd13ifvqeug","pricing_plan_id":"cebpf4jnsgd1na2vs0mg"},{"bike_id":"f0974e9a-31a3-4c17-841c-57224836aa7a","system_id":"levelo_inurba_marseille","lat":43.24183,"lon":5.39716,"is_reserved":false,"is_disabled":false,"rental_uris":{"android":"levelo://app?vid=f0974e9a-31a3-4c17-841c-57224836aa7a","ios":"levelo://app?vid=f0974e9a-31a3-4c17-841c-57224836aa7a"},"vehicle_type_id":"4","last_reported":1726063684,"current_range_meters":22800,"station_id":"ce4bhn12rcd13ifvqgpg","pricing_plan_id":"cebpf4jnsgd1na2vs0mg"},{"bike_id":"35d6f27b-c497-4c62-a1ad-ca5a3fdaded9","system_id":"levelo_inurba_marseille","lat":43.3176,"lon":5.39012,"is_reserved":false,"is_disabled":false,"rental_uris":{"android":"levelo://app?vid=35d6f27b-c497-4c62-a1ad-ca5a3fdaded9","ios":"levelo://app?vid=35d6f27b-c497-4c62-a1ad-ca5a3fdaded9"},"vehicle_type_id":"4","last_reported":1726063684,"current_range_meters":17200,"station_id":"ce4bhqp2rcd13ifvqhng","pricing_plan_id":"cebpf4jnsgd1na2vs0mg"},{"bike_id":"8fa87e54-6918-4414-893c-61387a229692","system_id":"levelo_inurba_marseille","lat":43.23207,"lon":5.35538,"is_reserved":false,"is_disabled":false,"rental_uris":{"android":"levelo://app?vid=8fa87e54-6918-4414-893c-61387a229692","ios":"levelo://app?vid=8fa87e54-6918-4414-893c-61387a229692"},"vehicle_type_id":"4","last_reported":1726063684,"current_range_meters":8800,"station_id":"ce4bhu92rcd13ifvqi70","pricing_plan_id":"cebpf4jnsgd1na2vs0mg"},{"bike_id":"2f886a15-37e4-4dad-86c7-a7a6746278bd","system_id":"levelo_inurba_marseille","lat":43.25941,"lon":5.40901,"is_reserved":false,"is_disabled":false,"rental_uris":{"android":"levelo://app?vid=2f886a15-37e4-4dad-86c7-a7a6746278bd","ios":"levelo://app?vid=2f886a15-37e4-4dad-86c7-a7a6746278bd"},"vehicle_type_id":"4","last_reported":1726063684,"current_range_meters":32800,"station_id":"ce4bhm92rcd13ifvqglg","pricing_plan_id":"cebpf4jnsgd1na2vs0mg"},{"bike_id":"b4f0e894-38bb-4989-aa80-a84fe944404f","system_id":"levelo_inurba_marseille","lat":43.28728,"lon":5.37938,"is_reserved":false,"is_disabled":false,"rental_uris":{"android":"levelo://app?vid=b4f0e894-38bb-4989-aa80-a84fe944404f","ios":"levelo://app?vid=b4f0e894-38bb-4989-aa80-a84fe944404f"},"vehicle_type_id":"4","last_reported":1726063684,"current_range_meters":11200,"station_id":"ce4bh9p2rcd13ifvqec0","pricing_plan_id":"cebpf4jnsgd1na2vs0mg"},{"bike_id":"903a17fc-6d51-47bc-8223-972952786bdc","system_id":"levelo_inurba_marseille","lat":43.23183,"lon":5.39983,"is_reserved":false,"is_disabled":false,"rental_uris":{"android":"levelo://app?vid=903a17fc-6d51-47bc-8223-972952786bdc","ios":"levelo://app?vid=903a17fc-6d51-47bc-8223-972952786bdc"},"vehicle_type_id":"4","last_reported":1726063684,"current_range_meters":16800,"station_id":"ce4bhn12rcd13ifvqgqg","pricing_plan_id":"cebpf4jnsgd1na2vs0mg"},{"bike_id":"4eb5cf07-a838-47ac-bfa9-94266ba671b6","system_id":"levelo_inurba_marseille","lat":43.25087,"lon":5.39516,"is_reserved":false,"is_disabled":false,"rental_uris":{"android":"levelo://app?vid=4eb5cf07-a838-47ac-bfa9-94266ba671b6","ios":"levelo://app?vid=4eb5cf07-a838-47ac-bfa9-94266ba671b6"},"vehicle_type_id":"4","last_reported":1726063684,"current_range_meters":18000,"station_id":"ce4bhm12rcd13ifvqgkg","pricing_plan_id":"cebpf4jnsgd1na2vs0mg"},{"bike_id":"d323d2ee-cfa6-4f24-939e-461241dafdd1","system_id":"levelo_inurba_marseille","lat":43.2668,"lon":5.38265,"is_reserved":false,"is_disabled":false,"rental_uris":{"android":"levelo://app?vid=d323d2ee-cfa6-4f24-939e-461241dafdd1","ios":"levelo://app?vid=d323d2ee-cfa6-4f24-939e-461241dafdd1"},"vehicle_type_id":"4","last_reported":1726063684,"current_range_meters":4400,"station_id":"ce4bhg92rcd13ifvqf90","pricing_plan_id":"cebpf4jnsgd1na2vs0mg"},{"bike_id":"33ded4ab-6655-4df3-92ad-5e7e6f0b471e","system_id":"levelo_inurba_marseille","lat":43.30809,"lon":5.38152,"is_reserved":false,"is_disabled":false,"rental_uris":{"android":"levelo://app?vid=33ded4ab-6655-4df3-92ad-5e7e6f0b471e","ios":"levelo://app?vid=33ded4ab-6655-4df3-92ad-5e7e6f0b471e"},"vehicle_type_id":"4","last_reported":1726063684,"current_range_meters":4800,"station_id":"ce4bgt12rcd13ifvqce0","pricing_plan_id":"cebpf4jnsgd1na2vs0mg"},{"bike_id":"0d78d25f-2501-4ffb-b495-6cd64f4c7d8f","system_id":"levelo_inurba_marseille","lat":43.24178,"lon":5.39727,"is_reserved":false,"is_disabled":false,"rental_uris":{"android":"levelo://app?vid=0d78d25f-2501-4ffb-b495-6cd64f4c7d8f","ios":"levelo://app?vid=0d78d25f-2501-4ffb-b495-6cd64f4c7d8f"},"vehicle_type_id":"4","last_reported":1726063684,"current_range_meters":19200,"station_id":"ce4bhn12rcd13ifvqgpg","pricing_plan_id":"cebpf4jnsgd1na2vs0mg"},{"bike_id":"53925ccc-af03-454b-8c43-f8d9565c96c5","system_id":"levelo_inurba_marseille","lat":43.28265,"lon":5.35063,"is_reserved":false,"is_disabled":false,"rental_uris":{"android":"levelo://app?vid=53925ccc-af03-454b-8c43-f8d9565c96c5","ios":"levelo://app?vid=53925ccc-af03-454b-8c43-f8d9565c96c5"},"vehicle_type_id":"4","last_reported":1726063684,"current_range_meters":20000,"station_id":"ce4bhbp2rcd13ifvqerg","pricing_plan_id":"cebpf4jnsgd1na2vs0mg"},{"bike_id":"4ec510d2-7859-4301-a0bf-a6b2f90287b4","system_id":"levelo_inurba_marseille","lat":43.29258,"lon":5.40906,"is_reserved":false,"is_disabled":false,"rental_uris":{"android":"levelo://app?vid=4ec510d2-7859-4301-a0bf-a6b2f90287b4","ios":"levelo://app?vid=4ec510d2-7859-4301-a0bf-a6b2f90287b4"},"vehicle_type_id":"4","last_reported":1726063684,"current_range_meters":12400,"station_id":"ce4bh192rcd13ifvqdc0","pricing_plan_id":"cebpf4jnsgd1na2vs0mg"},{"bike_id":"daab6d33-1de9-4536-9c3f-112d06fe3b1b","system_id":"levelo_inurba_marseille","lat":43.28437,"lon":5.39182,"is_reserved":false,"is_disabled":false,"rental_uris":{"android":"levelo://app?vid=daab6d33-1de9-4536-9c3f-112d06fe3b1b","ios":"levelo://app?vid=daab6d33-1de9-4536-9c3f-112d06fe3b1b"},"vehicle_type_id":"4","last_reported":1726063684,"current_range_meters":26000,"station_id":"ce4bhoh2rcd13ifvqh5g","pricing_plan_id":"cebpf4jnsgd1na2vs0mg"},{"bike_id":"183f1e2e-2cf8-4b28-8a17-5a4c8ed08f98","system_id":"levelo_inurba_marseille","lat":43.2619,"lon":5.37447,"is_reserved":false,"is_disabled":false,"rental_uris":{"android":"levelo://app?vid=183f1e2e-2cf8-4b28-8a17-5a4c8ed08f98","ios":"levelo://app?vid=183f1e2e-2cf8-4b28-8a17-5a4c8ed08f98"},"vehicle_type_id":"4","last_reported":1726063684,"current_range_meters":33200,"station_id":"ce4bhgp2rcd13ifvqfc0","pricing_plan_id":"cebpf4jnsgd1na2vs0mg"},{"bike_id":"0b5b73e0-1f1c-43e5-8f2c-e51bc18db214","system_id":"levelo_inurba_marseille","lat":43.31167,"lon":5.38707,"is_reserved":false,"is_disabled":false,"rental_uris":{"android":"levelo://app?vid=0b5b73e0-1f1c-43e5-8f2c-e51bc18db214","ios":"levelo://app?vid=0b5b73e0-1f1c-43e5-8f2c-e51bc18db214"},"vehicle_type_id":"4","last_reported":1726063684,"current_range_meters":32000,"station_id":"ce4bgv12rcd13ifvqcp0","pricing_plan_id":"cebpf4jnsgd1na2vs0mg"},{"bike_id":"20830e58-6dfa-4d74-b146-cb3e5ad772ce","system_id":"levelo_inurba_marseille","lat":43.29005,"lon":5.35609,"is_reserved":false,"is_disabled":false,"rental_uris":{"android":"levelo://app?vid=20830e58-6dfa-4d74-b146-cb3e5ad772ce","ios":"levelo://app?vid=20830e58-6dfa-4d74-b146-cb3e5ad772ce"},"vehicle_type_id":"4","last_reported":1726063684,"current_range_meters":32000,"station_id":"ce4bhb92rcd13ifvqen0","pricing_plan_id":"cebpf4jnsgd1na2vs0mg"},{"bike_id":"37d8c39f-1cdd-4f24-9274-2d093441df6e","system_id":"levelo_inurba_marseille","lat":43.31221,"lon":5.36845,"is_reserved":false,"is_disabled":false,"rental_uris":{"android":"levelo://app?vid=37d8c39f-1cdd-4f24-9274-2d093441df6e","ios":"levelo://app?vid=37d8c39f-1cdd-4f24-9274-2d093441df6e"},"vehicle_type_id":"4","last_reported":1726063684,"current_range_meters":30000,"station_id":"","pricing_plan_id":"cebpf4jnsgd1na2vs0mg"},{"bike_id":"a5a441ce-6242-469a-b330-fa1ec11ece58","system_id":"levelo_inurba_marseille","lat":43.30805,"lon":5.38149,"is_reserved":false,"is_disabled":false,"rental_uris":{"android":"levelo://app?vid=a5a441ce-6242-469a-b330-fa1ec11ece58","ios":"levelo://app?vid=a5a441ce-6242-469a-b330-fa1ec11ece58"},"vehicle_type_id":"4","last_reported":1726063684,"current_range_meters":33600,"station_id":"ce4bgt12rcd13ifvqce0","pricing_plan_id":"cebpf4jnsgd1na2vs0mg"},{"bike_id":"ea31f0b9-fc8c-420d-b410-67dcd70c48ab","system_id":"levelo_inurba_marseille","lat":43.33027,"lon":5.39036,"is_reserved":false,"is_disabled":false,"rental_uris":{"android":"levelo://app?vid=ea31f0b9-fc8c-420d-b410-67dcd70c48ab","ios":"levelo://app?vid=ea31f0b9-fc8c-420d-b410-67dcd70c48ab"},"vehicle_type_id":"4","last_reported":1726063684,"current_range_meters":38400,"station_id":"ce4bhr92rcd13ifvqhrg","pricing_plan_id":"cebpf4jnsgd1na2vs0mg"},{"bike_id":"8700fd3d-0eb2-428b-9eea-7783bb122752","system_id":"levelo_inurba_marseille","lat":43.32048,"lon":5.41544,"is_reserved":false,"is_disabled":false,"rental_uris":{"android":"levelo://app?vid=8700fd3d-0eb2-428b-9eea-7783bb122752","ios":"levelo://app?vid=8700fd3d-0eb2-428b-9eea-7783bb122752"},"vehicle_type_id":"4","last_reported":1726063684,"current_range_meters":18000,"station_id":"ce4bhq92rcd13ifvqhkg","pricing_plan_id":"cebpf4jnsgd1na2vs0mg"},{"bike_id":"1f64c464-22ee-4afc-9f06-000a5adcc027","system_id":"levelo_inurba_marseille","lat":43.28858,"lon":5.35853,"is_reserved":false,"is_disabled":false,"rental_uris":{"android":"levelo://app?vid=1f64c464-22ee-4afc-9f06-000a5adcc027","ios":"levelo://app?vid=1f64c464-22ee-4afc-9f06-000a5adcc027"},"vehicle_type_id":"4","last_reported":1726063684,"current_range_meters":33200,"station_id":"ce4bhb12rcd13ifvqem0","pricing_plan_id":"cebpf4jnsgd1na2vs0mg"},{"bike_id":"a9245d0e-7719-4e18-b012-1b60127f1569","system_id":"levelo_inurba_marseille","lat":43.29069,"lon":5.37188,"is_reserved":false,"is_disabled":false,"rental_uris":{"android":"levelo://app?vid=a9245d0e-7719-4e18-b012-1b60127f1569","ios":"levelo://app?vid=a9245d0e-7719-4e18-b012-1b60127f1569"},"vehicle_type_id":"4","last_reported":1726063684,"current_range_meters":17200,"station_id":"ce4bh5p2rcd13ifvqe4g","pricing_plan_id":"cebpf4jnsgd1na2vs0mg"},{"bike_id":"230e2a21-e8bf-41ef-a6b8-27d11b501d7a","system_id":"levelo_inurba_marseille","lat":43.28987,"lon":5.37827,"is_reserved":false,"is_disabled":false,"rental_uris":{"android":"levelo://app?vid=230e2a21-e8bf-41ef-a6b8-27d11b501d7a","ios":"levelo://app?vid=230e2a21-e8bf-41ef-a6b8-27d11b501d7a"},"vehicle_type_id":"4","last_reported":1726063684,"current_range_meters":12800,"station_id":"ce4bh9p2rcd13ifvqed0","pricing_plan_id":"cebpf4jnsgd1na2vs0mg"},{"bike_id":"dd2d66a6-976d-43e6-83be-d6211ff78acc","system_id":"levelo_inurba_marseille","lat":43.33723,"lon":5.39175,"is_reserved":false,"is_disabled":false,"rental_uris":{"android":"levelo://app?vid=dd2d66a6-976d-43e6-83be-d6211ff78acc","ios":"levelo://app?vid=dd2d66a6-976d-43e6-83be-d6211ff78acc"},"vehicle_type_id":"4","last_reported":1726063684,"current_range_meters":16800,"station_id":"ce4bhr92rcd13ifvqhsg","pricing_plan_id":"cebpf4jnsgd1na2vs0mg"},{"bike_id":"0c48444a-5ea2-4f74-a9c7-a6253d8c835d","system_id":"levelo_inurba_marseille","lat":43.255066,"lon":5.376362,"is_reserved":false,"is_disabled":false,"rental_uris":{"android":"levelo://app?vid=0c48444a-5ea2-4f74-a9c7-a6253d8c835d","ios":"levelo://app?vid=0c48444a-5ea2-4f74-a9c7-a6253d8c835d"},"vehicle_type_id":"4","last_reported":1726063684,"current_range_meters":10800,"station_id":"ce4bhh12rcd13ifvqff0","pricing_plan_id":"cebpf4jnsgd1na2vs0mg"},{"bike_id":"ed95cd74-6231-4387-983c-ebec7ffce090","system_id":"levelo_inurba_marseille","lat":43.30536,"lon":5.36563,"is_reserved":false,"is_disabled":false,"rental_uris":{"android":"levelo://app?vid=ed95cd74-6231-4387-983c-ebec7ffce090","ios":"levelo://app?vid=ed95cd74-6231-4387-983c-ebec7ffce090"},"vehicle_type_id":"4","last_reported":1726063684,"current_range_meters":18800,"station_id":"ce4bgs12rcd13ifvqcag","pricing_plan_id":"cebpf4jnsgd1na2vs0mg"},{"bike_id":"c49d6ebc-2616-4703-8f14-30a51b54111c","system_id":"levelo_inurba_marseille","lat":43.3266,"lon":5.4099,"is_reserved":false,"is_disabled":false,"rental_uris":{"android":"levelo://app?vid=c49d6ebc-2616-4703-8f14-30a51b54111c","ios":"levelo://app?vid=c49d6ebc-2616-4703-8f14-30a51b54111c"},"vehicle_type_id":"4","last_reported":1726063684,"current_range_meters":14400,"station_id":"ce4bhpp2rcd13ifvqhgg","pricing_plan_id":"cebpf4jnsgd1na2vs0mg"},{"bike_id":"5876c5ef-9fac-478d-bd3c-ea1780c21005","system_id":"levelo_inurba_marseille","lat":43.33755,"lon":5.37446,"is_reserved":false,"is_disabled":false,"rental_uris":{"android":"levelo://app?vid=5876c5ef-9fac-478d-bd3c-ea1780c21005","ios":"levelo://app?vid=5876c5ef-9fac-478d-bd3c-ea1780c21005"},"vehicle_type_id":"4","last_reported":1726063684,"current_range_meters":38000,"station_id":"","pricing_plan_id":"cebpf4jnsgd1na2vs0mg"},{"bike_id":"3ef293cb-6b10-47c2-a61b-1c747b67c2aa","system_id":"levelo_inurba_marseille","lat":43.22929,"lon":5.35378,"is_reserved":false,"is_disabled":false,"rental_uris":{"android":"levelo://app?vid=3ef293cb-6b10-47c2-a61b-1c747b67c2aa","ios":"levelo://app?vid=3ef293cb-6b10-47c2-a61b-1c747b67c2aa"},"vehicle_type_id":"4","last_reported":1726063684,"current_range_meters":35200,"station_id":"cpo3532slgdg3j2ikp40","pricing_plan_id":"cebpf4jnsgd1na2vs0mg"},{"bike_id":"dc9b07db-1460-4695-8cb5-f8898fe0649e","system_id":"levelo_inurba_marseille","lat":43.29854,"lon":5.36287,"is_reserved":false,"is_disabled":false,"rental_uris":{"android":"levelo://app?vid=dc9b07db-1460-4695-8cb5-f8898fe0649e","ios":"levelo://app?vid=dc9b07db-1460-4695-8cb5-f8898fe0649e"},"vehicle_type_id":"4","last_reported":1726063684,"current_range_meters":32000,"station_id":"ce4bgpp2rcd13ifvqc3g","pricing_plan_id":"cebpf4jnsgd1na2vs0mg"},{"bike_id":"39c2c64e-100d-4847-9893-ec2a93f229d4","system_id":"levelo_inurba_marseille","lat":43.30955,"lon":5.39028,"is_reserved":false,"is_disabled":false,"rental_uris":{"android":"levelo://app?vid=39c2c64e-100d-4847-9893-ec2a93f229d4","ios":"levelo://app?vid=39c2c64e-100d-4847-9893-ec2a93f229d4"},"vehicle_type_id":"4","last_reported":1726063684,"current_range_meters":34800,"station_id":"ce4bgup2rcd13ifvqco0","pricing_plan_id":"cebpf4jnsgd1na2vs0mg"},{"bike_id":"1f760f8e-a6ab-47e4-81b2-36b156d4f3d5","system_id":"levelo_inurba_marseille","lat":43.30596,"lon":5.37203,"is_reserved":false,"is_disabled":false,"rental_uris":{"android":"levelo://app?vid=1f760f8e-a6ab-47e4-81b2-36b156d4f3d5","ios":"levelo://app?vid=1f760f8e-a6ab-47e4-81b2-36b156d4f3d5"},"vehicle_type_id":"4","last_reported":1726063684,"current_range_meters":14800,"station_id":"ce4bgqh2rcd13ifvqc4g","pricing_plan_id":"cebpf4jnsgd1na2vs0mg"},{"bike_id":"adb6b7b0-5f6a-49a6-8d44-1c378f97846b","system_id":"levelo_inurba_marseille","lat":43.30334,"lon":5.4043,"is_reserved":false,"is_disabled":false,"rental_uris":{"android":"levelo://app?vid=adb6b7b0-5f6a-49a6-8d44-1c378f97846b","ios":"levelo://app?vid=adb6b7b0-5f6a-49a6-8d44-1c378f97846b"},"vehicle_type_id":"4","last_reported":1726063684,"current_range_meters":22000,"station_id":"ce4bh012rcd13ifvqd10","pricing_plan_id":"cebpf4jnsgd1na2vs0mg"},{"bike_id":"993c4f0e-3eac-469b-bc70-94ad2a6a43e5","system_id":"levelo_inurba_marseille","lat":43.29956,"lon":5.41319,"is_reserved":false,"is_disabled":false,"rental_uris":{"android":"levelo://app?vid=993c4f0e-3eac-469b-bc70-94ad2a6a43e5","ios":"levelo://app?vid=993c4f0e-3eac-469b-bc70-94ad2a6a43e5"},"vehicle_type_id":"4","last_reported":1726063684,"current_range_meters":29600,"station_id":"ce4bhp12rcd13ifvqh9g","pricing_plan_id":"cebpf4jnsgd1na2vs0mg"},{"bike_id":"b8f17ae2-fb03-47a3-b242-9374292bf127","system_id":"levelo_inurba_marseille","lat":43.3149,"lon":5.37304,"is_reserved":false,"is_disabled":false,"rental_uris":{"android":"levelo://app?vid=b8f17ae2-fb03-47a3-b242-9374292bf127","ios":"levelo://app?vid=b8f17ae2-fb03-47a3-b242-9374292bf127"},"vehicle_type_id":"4","last_reported":1726063684,"current_range_meters":31200,"station_id":"ce4bgt12rcd13ifvqcd0","pricing_plan_id":"cebpf4jnsgd1na2vs0mg"},{"bike_id":"b8238a33-c501-47ba-bfa8-e7dc4d31d9c3","system_id":"levelo_inurba_marseille","lat":43.33026,"lon":5.39031,"is_reserved":false,"is_disabled":false,"rental_uris":{"android":"levelo://app?vid=b8238a33-c501-47ba-bfa8-e7dc4d31d9c3","ios":"levelo://app?vid=b8238a33-c501-47ba-bfa8-e7dc4d31d9c3"},"vehicle_type_id":"4","last_reported":1726063684,"current_range_meters":27600,"station_id":"ce4bhr92rcd13ifvqhrg","pricing_plan_id":"cebpf4jnsgd1na2vs0mg"},{"bike_id":"e80aca27-bc03-4d4c-ad3d-9f1df805aa08","system_id":"levelo_inurba_marseille","lat":43.23972,"lon":5.36627,"is_reserved":false,"is_disabled":false,"rental_uris":{"android":"levelo://app?vid=e80aca27-bc03-4d4c-ad3d-9f1df805aa08","ios":"levelo://app?vid=e80aca27-bc03-4d4c-ad3d-9f1df805aa08"},"vehicle_type_id":"4","last_reported":1726063684,"current_range_meters":3200,"station_id":"ce4bhi12rcd13ifvqfp0","pricing_plan_id":"cebpf4jnsgd1na2vs0mg"},{"bike_id":"c9da0774-0680-4020-bb36-e88fbe984bd3","system_id":"levelo_inurba_marseille","lat":43.28438,"lon":5.3918,"is_reserved":false,"is_disabled":false,"rental_uris":{"android":"levelo://app?vid=c9da0774-0680-4020-bb36-e88fbe984bd3","ios":"levelo://app?vid=c9da0774-0680-4020-bb36-e88fbe984bd3"},"vehicle_type_id":"4","last_reported":1726063684,"current_range_meters":12000,"station_id":"ce4bhoh2rcd13ifvqh5g","pricing_plan_id":"cebpf4jnsgd1na2vs0mg"},{"bike_id":"4ca3c991-1ebe-4b6e-839a-072ba50b8daa","system_id":"levelo_inurba_marseille","lat":43.266796,"lon":5.395194,"is_reserved":false,"is_disabled":false,"rental_uris":{"android":"levelo://app?vid=4ca3c991-1ebe-4b6e-839a-072ba50b8daa","ios":"levelo://app?vid=4ca3c991-1ebe-4b6e-839a-072ba50b8daa"},"vehicle_type_id":"4","last_reported":1726063684,"current_range_meters":21600,"station_id":"","pricing_plan_id":"cebpf4jnsgd1na2vs0mg"},{"bike_id":"1058e7c1-db33-402e-9be8-9d1ad73f4d5f","system_id":"levelo_inurba_marseille","lat":43.30543,"lon":5.36701,"is_reserved":false,"is_disabled":false,"rental_uris":{"android":"levelo://app?vid=1058e7c1-db33-402e-9be8-9d1ad73f4d5f","ios":"levelo://app?vid=1058e7c1-db33-402e-9be8-9d1ad73f4d5f"},"vehicle_type_id":"4","last_reported":1726063684,"current_range_meters":36400,"station_id":"ce4bgrp2rcd13ifvqc9g","pricing_plan_id":"cebpf4jnsgd1na2vs0mg"},{"bike_id":"5ec88c93-f2ed-4c74-899b-3b3490e2678d","system_id":"levelo_inurba_marseille","lat":43.2657,"lon":5.39016,"is_reserved":false,"is_disabled":false,"rental_uris":{"android":"levelo://app?vid=5ec88c93-f2ed-4c74-899b-3b3490e2678d","ios":"levelo://app?vid=5ec88c93-f2ed-4c74-899b-3b3490e2678d"},"vehicle_type_id":"4","last_reported":1726063684,"current_range_meters":25600,"station_id":"ce4bhe12rcd13ifvqf30","pricing_plan_id":"cebpf4jnsgd1na2vs0mg"},{"bike_id":"ca3bdd0a-f8aa-47c5-a2fe-de38024a1368","system_id":"levelo_inurba_marseille","lat":43.299991,"lon":5.368533,"is_reserved":false,"is_disabled":false,"rental_uris":{"android":"levelo://app?vid=ca3bdd0a-f8aa-47c5-a2fe-de38024a1368","ios":"levelo://app?vid=ca3bdd0a-f8aa-47c5-a2fe-de38024a1368"},"vehicle_type_id":"4","last_reported":1726063684,"current_range_meters":38800,"station_id":"","pricing_plan_id":"cebpf4jnsgd1na2vs0mg"},{"bike_id":"d5564c65-6623-42a6-ba2d-f946e327a04e","system_id":"levelo_inurba_marseille","lat":43.28624,"lon":5.35101,"is_reserved":false,"is_disabled":false,"rental_uris":{"android":"levelo://app?vid=d5564c65-6623-42a6-ba2d-f946e327a04e","ios":"levelo://app?vid=d5564c65-6623-42a6-ba2d-f946e327a04e"},"vehicle_type_id":"4","last_reported":1726063684,"current_range_meters":30800,"station_id":"ce4bhch2rcd13ifvqeug","pricing_plan_id":"cebpf4jnsgd1na2vs0mg"},{"bike_id":"f45ec182-9359-40e1-9d29-51a7570945d5","system_id":"levelo_inurba_marseille","lat":43.26683,"lon":5.38273,"is_reserved":false,"is_disabled":false,"rental_uris":{"android":"levelo://app?vid=f45ec182-9359-40e1-9d29-51a7570945d5","ios":"levelo://app?vid=f45ec182-9359-40e1-9d29-51a7570945d5"},"vehicle_type_id":"4","last_reported":1726063684,"current_range_meters":28400,"station_id":"ce4bhg92rcd13ifvqf90","pricing_plan_id":"cebpf4jnsgd1na2vs0mg"},{"bike_id":"901b867e-39fc-4b9e-a653-22a50f4a496d","system_id":"levelo_inurba_marseille","lat":43.25934,"lon":5.40909,"is_reserved":false,"is_disabled":false,"rental_uris":{"android":"levelo://app?vid=901b867e-39fc-4b9e-a653-22a50f4a496d","ios":"levelo://app?vid=901b867e-39fc-4b9e-a653-22a50f4a496d"},"vehicle_type_id":"4","last_reported":1726063684,"current_range_meters":24000,"station_id":"ce4bhm92rcd13ifvqglg","pricing_plan_id":"cebpf4jnsgd1na2vs0mg"},{"bike_id":"b97fb604-bf4c-4942-82a7-443b8a114f7c","system_id":"levelo_inurba_marseille","lat":43.292721,"lon":5.368458,"is_reserved":false,"is_disabled":false,"rental_uris":{"android":"levelo://app?vid=b97fb604-bf4c-4942-82a7-443b8a114f7c","ios":"levelo://app?vid=b97fb604-bf4c-4942-82a7-443b8a114f7c"},"vehicle_type_id":"4","last_reported":1726063684,"current_range_meters":6400,"station_id":"ce4bhbp2rcd13ifvqesg","pricing_plan_id":"cebpf4jnsgd1na2vs0mg"},{"bike_id":"ba6d807b-0bc7-4232-9bb2-66d3e97d9b5a","system_id":"levelo_inurba_marseille","lat":43.28412,"lon":5.34992,"is_reserved":false,"is_disabled":false,"rental_uris":{"android":"levelo://app?vid=ba6d807b-0bc7-4232-9bb2-66d3e97d9b5a","ios":"levelo://app?vid=ba6d807b-0bc7-4232-9bb2-66d3e97d9b5a"},"vehicle_type_id":"4","last_reported":1726063684,"current_range_meters":37600,"station_id":"ce4bhbh2rcd13ifvqepg","pricing_plan_id":"cebpf4jnsgd1na2vs0mg"},{"bike_id":"c20a8385-754d-4d21-b08b-3aa7b34b53a4","system_id":"levelo_inurba_marseille","lat":43.24806,"lon":5.37452,"is_reserved":false,"is_disabled":false,"rental_uris":{"android":"levelo://app?vid=c20a8385-754d-4d21-b08b-3aa7b34b53a4","ios":"levelo://app?vid=c20a8385-754d-4d21-b08b-3aa7b34b53a4"},"vehicle_type_id":"4","last_reported":1726063684,"current_range_meters":2000,"station_id":"ce4bhgh2rcd13ifvqfb0","pricing_plan_id":"cebpf4jnsgd1na2vs0mg"},{"bike_id":"5722f385-0124-4bed-a8de-85c0d18d21ac","system_id":"levelo_inurba_marseille","lat":43.25938,"lon":5.40886,"is_reserved":false,"is_disabled":false,"rental_uris":{"android":"levelo://app?vid=5722f385-0124-4bed-a8de-85c0d18d21ac","ios":"levelo://app?vid=5722f385-0124-4bed-a8de-85c0d18d21ac"},"vehicle_type_id":"4","last_reported":1726063684,"current_range_meters":28400,"station_id":"ce4bhm92rcd13ifvqglg","pricing_plan_id":"cebpf4jnsgd1na2vs0mg"},{"bike_id":"906646cf-639f-4a27-805b-b1b496d7601e","system_id":"levelo_inurba_marseille","lat":43.29258,"lon":5.40907,"is_reserved":false,"is_disabled":false,"rental_uris":{"android":"levelo://app?vid=906646cf-639f-4a27-805b-b1b496d7601e","ios":"levelo://app?vid=906646cf-639f-4a27-805b-b1b496d7601e"},"vehicle_type_id":"4","last_reported":1726063684,"current_range_meters":38800,"station_id":"ce4bh192rcd13ifvqdc0","pricing_plan_id":"cebpf4jnsgd1na2vs0mg"},{"bike_id":"81e07d0b-3153-4dda-b2c1-9344be762812","system_id":"levelo_inurba_marseille","lat":43.28685,"lon":5.37404,"is_reserved":false,"is_disabled":false,"rental_uris":{"android":"levelo://app?vid=81e07d0b-3153-4dda-b2c1-9344be762812","ios":"levelo://app?vid=81e07d0b-3153-4dda-b2c1-9344be762812"},"vehicle_type_id":"4","last_reported":1726063684,"current_range_meters":16400,"station_id":"ce4bh3p2rcd13ifvqdq0","pricing_plan_id":"cebpf4jnsgd1na2vs0mg"},{"bike_id":"eb67dcd5-23fa-40ff-b4e2-446c978317fe","system_id":"levelo_inurba_marseille","lat":43.29418,"lon":5.38621,"is_reserved":false,"is_disabled":false,"rental_uris":{"android":"levelo://app?vid=eb67dcd5-23fa-40ff-b4e2-446c978317fe","ios":"levelo://app?vid=eb67dcd5-23fa-40ff-b4e2-446c978317fe"},"vehicle_type_id":"4","last_reported":1726063684,"current_range_meters":35600,"station_id":"ce4bh2h2rcd13ifvqdh0","pricing_plan_id":"cebpf4jnsgd1na2vs0mg"},{"bike_id":"321dc09b-9853-4170-af08-25a0d828d560","system_id":"levelo_inurba_marseille","lat":43.23184,"lon":5.3998,"is_reserved":false,"is_disabled":false,"rental_uris":{"android":"levelo://app?vid=321dc09b-9853-4170-af08-25a0d828d560","ios":"levelo://app?vid=321dc09b-9853-4170-af08-25a0d828d560"},"vehicle_type_id":"4","last_reported":1726063684,"current_range_meters":39200,"station_id":"ce4bhn12rcd13ifvqgqg","pricing_plan_id":"cebpf4jnsgd1na2vs0mg"},{"bike_id":"762e71da-4202-4ce4-bc84-646c99754f93","system_id":"levelo_inurba_marseille","lat":43.337444,"lon":5.374475,"is_reserved":false,"is_disabled":false,"rental_uris":{"android":"levelo://app?vid=762e71da-4202-4ce4-bc84-646c99754f93","ios":"levelo://app?vid=762e71da-4202-4ce4-bc84-646c99754f93"},"vehicle_type_id":"4","last_reported":1726063684,"current_range_meters":7200,"station_id":"ce4bhqp2rcd13ifvqhng","pricing_plan_id":"cebpf4jnsgd1na2vs0mg"},{"bike_id":"970b494d-9409-4b08-a88c-7a920d33be00","system_id":"levelo_inurba_marseille","lat":43.28273,"lon":5.35072,"is_reserved":false,"is_disabled":false,"rental_uris":{"android":"levelo://app?vid=970b494d-9409-4b08-a88c-7a920d33be00","ios":"levelo://app?vid=970b494d-9409-4b08-a88c-7a920d33be00"},"vehicle_type_id":"4","last_reported":1726063684,"current_range_meters":9200,"station_id":"ce4bhbp2rcd13ifvqerg","pricing_plan_id":"cebpf4jnsgd1na2vs0mg"},{"bike_id":"4f9186ae-f72c-4b8e-ba9a-431b6576c950","system_id":"levelo_inurba_marseille","lat":43.29884,"lon":5.38905,"is_reserved":false,"is_disabled":false,"rental_uris":{"android":"levelo://app?vid=4f9186ae-f72c-4b8e-ba9a-431b6576c950","ios":"levelo://app?vid=4f9186ae-f72c-4b8e-ba9a-431b6576c950"},"vehicle_type_id":"4","last_reported":1726063684,"current_range_meters":18000,"station_id":"ce4bh392rcd13ifvqdl0","pricing_plan_id":"cebpf4jnsgd1na2vs0mg"},{"bike_id":"2b62debc-02ab-46e1-9f60-03756442d206","system_id":"levelo_inurba_marseille","lat":43.23155,"lon":5.43699,"is_reserved":false,"is_disabled":false,"rental_uris":{"android":"levelo://app?vid=2b62debc-02ab-46e1-9f60-03756442d206","ios":"levelo://app?vid=2b62debc-02ab-46e1-9f60-03756442d206"},"vehicle_type_id":"4","last_reported":1726063684,"current_range_meters":12400,"station_id":"ce4bhmp2rcd13ifvqgog","pricing_plan_id":"cebpf4jnsgd1na2vs0mg"},{"bike_id":"c8e0fcb6-1d3f-4d83-b861-1f56e6b3ab2c","system_id":"levelo_inurba_marseille","lat":43.32297,"lon":5.38258,"is_reserved":false,"is_disabled":false,"rental_uris":{"android":"levelo://app?vid=c8e0fcb6-1d3f-4d83-b861-1f56e6b3ab2c","ios":"levelo://app?vid=c8e0fcb6-1d3f-4d83-b861-1f56e6b3ab2c"},"vehicle_type_id":"4","last_reported":1726063684,"current_range_meters":31200,"station_id":"ce4bhr12rcd13ifvqhqg","pricing_plan_id":"cebpf4jnsgd1na2vs0mg"},{"bike_id":"88260468-edac-42b3-a377-bf17d9659cde","system_id":"levelo_inurba_marseille","lat":43.24389,"lon":5.37066,"is_reserved":false,"is_disabled":false,"rental_uris":{"android":"levelo://app?vid=88260468-edac-42b3-a377-bf17d9659cde","ios":"levelo://app?vid=88260468-edac-42b3-a377-bf17d9659cde"},"vehicle_type_id":"4","last_reported":1726063684,"current_range_meters":26800,"station_id":"ce4bhhh2rcd13ifvqfk0","pricing_plan_id":"cebpf4jnsgd1na2vs0mg"},{"bike_id":"ad829389-8d87-4a0b-8aa1-dae421a11b02","system_id":"levelo_inurba_marseille","lat":43.30544,"lon":5.38427,"is_reserved":false,"is_disabled":false,"rental_uris":{"android":"levelo://app?vid=ad829389-8d87-4a0b-8aa1-dae421a11b02","ios":"levelo://app?vid=ad829389-8d87-4a0b-8aa1-dae421a11b02"},"vehicle_type_id":"4","last_reported":1726063684,"current_range_meters":22800,"station_id":"ce4bgg92rcd13ifvqb30","pricing_plan_id":"cebpf4jnsgd1na2vs0mg"},{"bike_id":"60636253-0a37-45e9-84b9-b01d883d166f","system_id":"levelo_inurba_marseille","lat":43.29264,"lon":5.38429,"is_reserved":false,"is_disabled":false,"rental_uris":{"android":"levelo://app?vid=60636253-0a37-45e9-84b9-b01d883d166f","ios":"levelo://app?vid=60636253-0a37-45e9-84b9-b01d883d166f"},"vehicle_type_id":"4","last_reported":1726063684,"current_range_meters":8400,"station_id":"ce4bh692rcd13ifvqea0","pricing_plan_id":"cebpf4jnsgd1na2vs0mg"},{"bike_id":"394ba6fe-4a64-44af-8ad8-9ff0cdf59d14","system_id":"levelo_inurba_marseille","lat":43.30553,"lon":5.36532,"is_reserved":false,"is_disabled":false,"rental_uris":{"android":"levelo://app?vid=394ba6fe-4a64-44af-8ad8-9ff0cdf59d14","ios":"levelo://app?vid=394ba6fe-4a64-44af-8ad8-9ff0cdf59d14"},"vehicle_type_id":"4","last_reported":1726063684,"current_range_meters":17200,"station_id":"ce4bgs12rcd13ifvqcag","pricing_plan_id":"cebpf4jnsgd1na2vs0mg"},{"bike_id":"4f6d0253-e9fc-4cc3-a19c-352c470b5f09","system_id":"levelo_inurba_marseille","lat":43.306489,"lon":5.400957,"is_reserved":false,"is_disabled":false,"rental_uris":{"android":"levelo://app?vid=4f6d0253-e9fc-4cc3-a19c-352c470b5f09","ios":"levelo://app?vid=4f6d0253-e9fc-4cc3-a19c-352c470b5f09"},"vehicle_type_id":"4","last_reported":1726063684,"current_range_meters":12800,"station_id":"ce4bh112rcd13ifvqda0","pricing_plan_id":"cebpf4jnsgd1na2vs0mg"},{"bike_id":"206eb04c-b603-40cb-b369-a8090514b8b3","system_id":"levelo_inurba_marseille","lat":43.28431,"lon":5.34989,"is_reserved":false,"is_disabled":false,"rental_uris":{"android":"levelo://app?vid=206eb04c-b603-40cb-b369-a8090514b8b3","ios":"levelo://app?vid=206eb04c-b603-40cb-b369-a8090514b8b3"},"vehicle_type_id":"4","last_reported":1726063684,"current_range_meters":38000,"station_id":"ce4bhbh2rcd13ifvqepg","pricing_plan_id":"cebpf4jnsgd1na2vs0mg"},{"bike_id":"dc01a1a0-750d-4bc1-a59b-a666b591fc20","system_id":"levelo_inurba_marseille","lat":43.29269,"lon":5.38436,"is_reserved":false,"is_disabled":false,"rental_uris":{"android":"levelo://app?vid=dc01a1a0-750d-4bc1-a59b-a666b591fc20","ios":"levelo://app?vid=dc01a1a0-750d-4bc1-a59b-a666b591fc20"},"vehicle_type_id":"4","last_reported":1726063684,"current_range_meters":4000,"station_id":"ce4bh692rcd13ifvqea0","pricing_plan_id":"cebpf4jnsgd1na2vs0mg"},{"bike_id":"c602249e-494b-43d8-a02d-3f4fc9ec8842","system_id":"levelo_inurba_marseille","lat":43.315347,"lon":5.380234,"is_reserved":false,"is_disabled":false,"rental_uris":{"android":"levelo://app?vid=c602249e-494b-43d8-a02d-3f4fc9ec8842","ios":"levelo://app?vid=c602249e-494b-43d8-a02d-3f4fc9ec8842"},"vehicle_type_id":"4","last_reported":1726063684,"current_range_meters":28000,"station_id":"ce4bhsp2rcd13ifvqi50","pricing_plan_id":"cebpf4jnsgd1na2vs0mg"},{"bike_id":"a283cad7-ff3e-412b-8556-cacb3424818a","system_id":"levelo_inurba_marseille","lat":43.27422,"lon":5.39405,"is_reserved":false,"is_disabled":false,"rental_uris":{"android":"levelo://app?vid=a283cad7-ff3e-412b-8556-cacb3424818a","ios":"levelo://app?vid=a283cad7-ff3e-412b-8556-cacb3424818a"},"vehicle_type_id":"4","last_reported":1726063684,"current_range_meters":12400,"station_id":"ce4bhdp2rcd13ifvqf20","pricing_plan_id":"cebpf4jnsgd1na2vs0mg"},{"bike_id":"e934963e-5ae3-4b94-b954-49ab350306ba","system_id":"levelo_inurba_marseille","lat":43.33027,"lon":5.39036,"is_reserved":false,"is_disabled":false,"rental_uris":{"android":"levelo://app?vid=e934963e-5ae3-4b94-b954-49ab350306ba","ios":"levelo://app?vid=e934963e-5ae3-4b94-b954-49ab350306ba"},"vehicle_type_id":"4","last_reported":1726063684,"current_range_meters":35600,"station_id":"ce4bhr92rcd13ifvqhrg","pricing_plan_id":"cebpf4jnsgd1na2vs0mg"},{"bike_id":"9610f388-60c6-49bb-84bb-4ea91a1f925b","system_id":"levelo_inurba_marseille","lat":43.29551,"lon":5.42278,"is_reserved":false,"is_disabled":false,"rental_uris":{"android":"levelo://app?vid=9610f388-60c6-49bb-84bb-4ea91a1f925b","ios":"levelo://app?vid=9610f388-60c6-49bb-84bb-4ea91a1f925b"},"vehicle_type_id":"4","last_reported":1726063684,"current_range_meters":4400,"station_id":"ce4bhph2rcd13ifvqhdg","pricing_plan_id":"cebpf4jnsgd1na2vs0mg"},{"bike_id":"e13f348c-8843-4d5f-8135-58f0927d026c","system_id":"levelo_inurba_marseille","lat":43.28609,"lon":5.37063,"is_reserved":false,"is_disabled":false,"rental_uris":{"android":"levelo://app?vid=e13f348c-8843-4d5f-8135-58f0927d026c","ios":"levelo://app?vid=e13f348c-8843-4d5f-8135-58f0927d026c"},"vehicle_type_id":"4","last_reported":1726063684,"current_range_meters":11600,"station_id":"ce4bht12rcd13ifvqi60","pricing_plan_id":"cebpf4jnsgd1na2vs0mg"},{"bike_id":"9853c78c-8263-484a-97a8-9a982a387087","system_id":"levelo_inurba_marseille","lat":43.2619,"lon":5.37447,"is_reserved":false,"is_disabled":false,"rental_uris":{"android":"levelo://app?vid=9853c78c-8263-484a-97a8-9a982a387087","ios":"levelo://app?vid=9853c78c-8263-484a-97a8-9a982a387087"},"vehicle_type_id":"4","last_reported":1726063684,"current_range_meters":37600,"station_id":"ce4bhgp2rcd13ifvqfc0","pricing_plan_id":"cebpf4jnsgd1na2vs0mg"},{"bike_id":"5f8714c2-4691-49c6-af6f-ae88c4dd369a","system_id":"levelo_inurba_marseille","lat":43.28003,"lon":5.40017,"is_reserved":false,"is_disabled":false,"rental_uris":{"android":"levelo://app?vid=5f8714c2-4691-49c6-af6f-ae88c4dd369a","ios":"levelo://app?vid=5f8714c2-4691-49c6-af6f-ae88c4dd369a"},"vehicle_type_id":"4","last_reported":1726063684,"current_range_meters":6000,"station_id":"ce4bho92rcd13ifvqh4g","pricing_plan_id":"cebpf4jnsgd1na2vs0mg"},{"bike_id":"f660952c-284f-48d6-a47d-da10abe52f41","system_id":"levelo_inurba_marseille","lat":43.29514,"lon":5.39404,"is_reserved":false,"is_disabled":false,"rental_uris":{"android":"levelo://app?vid=f660952c-284f-48d6-a47d-da10abe52f41","ios":"levelo://app?vid=f660952c-284f-48d6-a47d-da10abe52f41"},"vehicle_type_id":"4","last_reported":1726063684,"current_range_meters":4400,"station_id":"ce4bh292rcd13ifvqdf0","pricing_plan_id":"cebpf4jnsgd1na2vs0mg"},{"bike_id":"7ea8139e-6dba-478b-be2e-eab026036a1e","system_id":"levelo_inurba_marseille","lat":43.27424,"lon":5.3941,"is_reserved":false,"is_disabled":false,"rental_uris":{"android":"levelo://app?vid=7ea8139e-6dba-478b-be2e-eab026036a1e","ios":"levelo://app?vid=7ea8139e-6dba-478b-be2e-eab026036a1e"},"vehicle_type_id":"4","last_reported":1726063684,"current_range_meters":29600,"station_id":"ce4bhdp2rcd13ifvqf20","pricing_plan_id":"cebpf4jnsgd1na2vs0mg"},{"bike_id":"59c69735-67c5-4616-a4e3-4d11b991683d","system_id":"levelo_inurba_marseille","lat":43.26059,"lon":5.39398,"is_reserved":false,"is_disabled":false,"rental_uris":{"android":"levelo://app?vid=59c69735-67c5-4616-a4e3-4d11b991683d","ios":"levelo://app?vid=59c69735-67c5-4616-a4e3-4d11b991683d"},"vehicle_type_id":"4","last_reported":1726063684,"current_range_meters":28400,"station_id":"ce4bhh92rcd13ifvqfj0","pricing_plan_id":"cebpf4jnsgd1na2vs0mg"},{"bike_id":"44eae123-db97-403a-aa5a-a0af2e10dfcf","system_id":"levelo_inurba_marseille","lat":43.29275,"lon":5.36837,"is_reserved":false,"is_disabled":false,"rental_uris":{"android":"levelo://app?vid=44eae123-db97-403a-aa5a-a0af2e10dfcf","ios":"levelo://app?vid=44eae123-db97-403a-aa5a-a0af2e10dfcf"},"vehicle_type_id":"4","last_reported":1726063684,"current_range_meters":24800,"station_id":"ce4bhbp2rcd13ifvqesg","pricing_plan_id":"cebpf4jnsgd1na2vs0mg"},{"bike_id":"3f3c7833-98b4-4391-8709-42d43781f1ad","system_id":"levelo_inurba_marseille","lat":43.276367,"lon":5.384179,"is_reserved":false,"is_disabled":false,"rental_uris":{"android":"levelo://app?vid=3f3c7833-98b4-4391-8709-42d43781f1ad","ios":"levelo://app?vid=3f3c7833-98b4-4391-8709-42d43781f1ad"},"vehicle_type_id":"4","last_reported":1726063684,"current_range_meters":29600,"station_id":"ce4bhh92rcd13ifvqfi0","pricing_plan_id":"cebpf4jnsgd1na2vs0mg"},{"bike_id":"f400d370-a20e-4ced-86f0-64f62510749c","system_id":"levelo_inurba_marseille","lat":43.3237,"lon":5.38926,"is_reserved":false,"is_disabled":false,"rental_uris":{"android":"levelo://app?vid=f400d370-a20e-4ced-86f0-64f62510749c","ios":"levelo://app?vid=f400d370-a20e-4ced-86f0-64f62510749c"},"vehicle_type_id":"4","last_reported":1726063684,"current_range_meters":13600,"station_id":"","pricing_plan_id":"cebpf4jnsgd1na2vs0mg"},{"bike_id":"ede0aed3-c023-4853-89b7-450f0ea2a60b","system_id":"levelo_inurba_marseille","lat":43.30418,"lon":5.41276,"is_reserved":false,"is_disabled":false,"rental_uris":{"android":"levelo://app?vid=ede0aed3-c023-4853-89b7-450f0ea2a60b","ios":"levelo://app?vid=ede0aed3-c023-4853-89b7-450f0ea2a60b"},"vehicle_type_id":"4","last_reported":1726063684,"current_range_meters":25600,"station_id":"ce4bhop2rcd13ifvqh8g","pricing_plan_id":"cebpf4jnsgd1na2vs0mg"},{"bike_id":"8c48b7f4-0e65-46b4-8c02-a3834486ff4e","system_id":"levelo_inurba_marseille","lat":43.29205,"lon":5.39318,"is_reserved":false,"is_disabled":false,"rental_uris":{"android":"levelo://app?vid=8c48b7f4-0e65-46b4-8c02-a3834486ff4e","ios":"levelo://app?vid=8c48b7f4-0e65-46b4-8c02-a3834486ff4e"},"vehicle_type_id":"4","last_reported":1726063684,"current_range_meters":14400,"station_id":"ce4bh192rcd13ifvqdd0","pricing_plan_id":"cebpf4jnsgd1na2vs0mg"},{"bike_id":"143049cf-4830-4219-a121-2a60df83aa5d","system_id":"levelo_inurba_marseille","lat":43.337444,"lon":5.374475,"is_reserved":false,"is_disabled":false,"rental_uris":{"android":"levelo://app?vid=143049cf-4830-4219-a121-2a60df83aa5d","ios":"levelo://app?vid=143049cf-4830-4219-a121-2a60df83aa5d"},"vehicle_type_id":"4","last_reported":1726063684,"current_range_meters":32400,"station_id":"","pricing_plan_id":"cebpf4jnsgd1na2vs0mg"},{"bike_id":"3f61ab71-0421-4b85-a412-4dd59ab952e6","system_id":"levelo_inurba_marseille","lat":43.30644,"lon":5.40092,"is_reserved":false,"is_disabled":false,"rental_uris":{"android":"levelo://app?vid=3f61ab71-0421-4b85-a412-4dd59ab952e6","ios":"levelo://app?vid=3f61ab71-0421-4b85-a412-4dd59ab952e6"},"vehicle_type_id":"4","last_reported":1726063684,"current_range_meters":14400,"station_id":"ce4bh112rcd13ifvqda0","pricing_plan_id":"cebpf4jnsgd1na2vs0mg"},{"bike_id":"8aa7bcf0-e295-4bcb-8316-1e2c632e524a","system_id":"levelo_inurba_marseille","lat":43.28459,"lon":5.35894,"is_reserved":false,"is_disabled":false,"rental_uris":{"android":"levelo://app?vid=8aa7bcf0-e295-4bcb-8316-1e2c632e524a","ios":"levelo://app?vid=8aa7bcf0-e295-4bcb-8316-1e2c632e524a"},"vehicle_type_id":"4","last_reported":1726063684,"current_range_meters":10800,"station_id":"ce4bhah2rcd13ifvqei0","pricing_plan_id":"cebpf4jnsgd1na2vs0mg"},{"bike_id":"b29f1ed4-b917-4440-b758-75779f23d985","system_id":"levelo_inurba_marseille","lat":43.29036,"lon":5.37572,"is_reserved":false,"is_disabled":false,"rental_uris":{"android":"levelo://app?vid=b29f1ed4-b917-4440-b758-75779f23d985","ios":"levelo://app?vid=b29f1ed4-b917-4440-b758-75779f23d985"},"vehicle_type_id":"4","last_reported":1726063684,"current_range_meters":26000,"station_id":"ce4bh692rcd13ifvqe90","pricing_plan_id":"cebpf4jnsgd1na2vs0mg"},{"bike_id":"9045d080-ce32-4b99-b64b-b240a5071021","system_id":"levelo_inurba_marseille","lat":43.298454,"lon":5.362671,"is_reserved":false,"is_disabled":false,"rental_uris":{"android":"levelo://app?vid=9045d080-ce32-4b99-b64b-b240a5071021","ios":"levelo://app?vid=9045d080-ce32-4b99-b64b-b240a5071021"},"vehicle_type_id":"4","last_reported":1726063684,"current_range_meters":35200,"station_id":"ce4bhg12rcd13ifvqf80","pricing_plan_id":"cebpf4jnsgd1na2vs0mg"},{"bike_id":"b6160482-6579-4e12-9ca5-331bbcdcfd9f","system_id":"levelo_inurba_marseille","lat":43.26553,"lon":5.37289,"is_reserved":false,"is_disabled":false,"rental_uris":{"android":"levelo://app?vid=b6160482-6579-4e12-9ca5-331bbcdcfd9f","ios":"levelo://app?vid=b6160482-6579-4e12-9ca5-331bbcdcfd9f"},"vehicle_type_id":"4","last_reported":1726063684,"current_range_meters":6000,"station_id":"ce4bhg12rcd13ifvqf70","pricing_plan_id":"cebpf4jnsgd1na2vs0mg"},{"bike_id":"227e4936-b489-451c-836f-20de4c6d0d06","system_id":"levelo_inurba_marseille","lat":43.29417,"lon":5.38626,"is_reserved":false,"is_disabled":false,"rental_uris":{"android":"levelo://app?vid=227e4936-b489-451c-836f-20de4c6d0d06","ios":"levelo://app?vid=227e4936-b489-451c-836f-20de4c6d0d06"},"vehicle_type_id":"4","last_reported":1726063684,"current_range_meters":32000,"station_id":"ce4bh2h2rcd13ifvqdh0","pricing_plan_id":"cebpf4jnsgd1na2vs0mg"},{"bike_id":"cec131b6-6c84-4899-9723-159f4b060af5","system_id":"levelo_inurba_marseille","lat":43.31704,"lon":5.37658,"is_reserved":false,"is_disabled":false,"rental_uris":{"android":"levelo://app?vid=cec131b6-6c84-4899-9723-159f4b060af5","ios":"levelo://app?vid=cec131b6-6c84-4899-9723-159f4b060af5"},"vehicle_type_id":"4","last_reported":1726063684,"current_range_meters":7200,"station_id":"","pricing_plan_id":"cebpf4jnsgd1na2vs0mg"},{"bike_id":"f2b3b549-7f8a-4eae-b464-4b6623533f44","system_id":"levelo_inurba_marseille","lat":43.33749,"lon":5.37451,"is_reserved":false,"is_disabled":false,"rental_uris":{"android":"levelo://app?vid=f2b3b549-7f8a-4eae-b464-4b6623533f44","ios":"levelo://app?vid=f2b3b549-7f8a-4eae-b464-4b6623533f44"},"vehicle_type_id":"4","last_reported":1726063684,"current_range_meters":32400,"station_id":"","pricing_plan_id":"cebpf4jnsgd1na2vs0mg"},{"bike_id":"a3d54383-6464-4952-9ea5-c29ed8df66e2","system_id":"levelo_inurba_marseille","lat":43.29284,"lon":5.36837,"is_reserved":false,"is_disabled":false,"rental_uris":{"android":"levelo://app?vid=a3d54383-6464-4952-9ea5-c29ed8df66e2","ios":"levelo://app?vid=a3d54383-6464-4952-9ea5-c29ed8df66e2"},"vehicle_type_id":"4","last_reported":1726063684,"current_range_meters":32000,"station_id":"ce4bhbp2rcd13ifvqesg","pricing_plan_id":"cebpf4jnsgd1na2vs0mg"},{"bike_id":"61cf4a3a-2942-44a8-a346-1fbbdf1a4d5c","system_id":"levelo_inurba_marseille","lat":43.23156,"lon":5.43703,"is_reserved":false,"is_disabled":false,"rental_uris":{"android":"levelo://app?vid=61cf4a3a-2942-44a8-a346-1fbbdf1a4d5c","ios":"levelo://app?vid=61cf4a3a-2942-44a8-a346-1fbbdf1a4d5c"},"vehicle_type_id":"4","last_reported":1726063684,"current_range_meters":12000,"station_id":"ce4bhmp2rcd13ifvqgog","pricing_plan_id":"cebpf4jnsgd1na2vs0mg"},{"bike_id":"55ea7281-a25a-4c8f-8821-31a901926871","system_id":"levelo_inurba_marseille","lat":43.29793,"lon":5.39347,"is_reserved":false,"is_disabled":false,"rental_uris":{"android":"levelo://app?vid=55ea7281-a25a-4c8f-8821-31a901926871","ios":"levelo://app?vid=55ea7281-a25a-4c8f-8821-31a901926871"},"vehicle_type_id":"4","last_reported":1726063684,"current_range_meters":30400,"station_id":"chh1huq6cuj3fo74tm60","pricing_plan_id":"cebpf4jnsgd1na2vs0mg"},{"bike_id":"e9276a52-c68d-4d0a-a50e-d5f93d416648","system_id":"levelo_inurba_marseille","lat":43.24391,"lon":5.37056,"is_reserved":false,"is_disabled":false,"rental_uris":{"android":"levelo://app?vid=e9276a52-c68d-4d0a-a50e-d5f93d416648","ios":"levelo://app?vid=e9276a52-c68d-4d0a-a50e-d5f93d416648"},"vehicle_type_id":"4","last_reported":1726063684,"current_range_meters":32000,"station_id":"ce4bhhh2rcd13ifvqfk0","pricing_plan_id":"cebpf4jnsgd1na2vs0mg"},{"bike_id":"38a69614-fc80-4fe6-9020-2aa2f561d214","system_id":"levelo_inurba_marseille","lat":43.2668,"lon":5.38264,"is_reserved":false,"is_disabled":false,"rental_uris":{"android":"levelo://app?vid=38a69614-fc80-4fe6-9020-2aa2f561d214","ios":"levelo://app?vid=38a69614-fc80-4fe6-9020-2aa2f561d214"},"vehicle_type_id":"4","last_reported":1726063684,"current_range_meters":38800,"station_id":"ce4bhg92rcd13ifvqf90","pricing_plan_id":"cebpf4jnsgd1na2vs0mg"},{"bike_id":"76acd992-eed1-4450-9486-292616d41e45","system_id":"levelo_inurba_marseille","lat":43.29366,"lon":5.37835,"is_reserved":false,"is_disabled":false,"rental_uris":{"android":"levelo://app?vid=76acd992-eed1-4450-9486-292616d41e45","ios":"levelo://app?vid=76acd992-eed1-4450-9486-292616d41e45"},"vehicle_type_id":"4","last_reported":1726063684,"current_range_meters":15200,"station_id":"ce4bgjh2rcd13ifvqbf0","pricing_plan_id":"cebpf4jnsgd1na2vs0mg"},{"bike_id":"f9512620-8937-42df-b0f9-dddc2d1232b9","system_id":"levelo_inurba_marseille","lat":43.28425,"lon":5.34986,"is_reserved":false,"is_disabled":false,"rental_uris":{"android":"levelo://app?vid=f9512620-8937-42df-b0f9-dddc2d1232b9","ios":"levelo://app?vid=f9512620-8937-42df-b0f9-dddc2d1232b9"},"vehicle_type_id":"4","last_reported":1726063684,"current_range_meters":39200,"station_id":"ce4bhbh2rcd13ifvqepg","pricing_plan_id":"cebpf4jnsgd1na2vs0mg"},{"bike_id":"ad42b8d3-4a1e-40e4-b71a-59842a111e3b","system_id":"levelo_inurba_marseille","lat":43.29882,"lon":5.39747,"is_reserved":false,"is_disabled":false,"rental_uris":{"android":"levelo://app?vid=ad42b8d3-4a1e-40e4-b71a-59842a111e3b","ios":"levelo://app?vid=ad42b8d3-4a1e-40e4-b71a-59842a111e3b"},"vehicle_type_id":"4","last_reported":1726063684,"current_range_meters":26000,"station_id":"ce4bh0h2rcd13ifvqd50","pricing_plan_id":"cebpf4jnsgd1na2vs0mg"},{"bike_id":"16d37247-1939-4a7b-992c-9c6330b9f1cd","system_id":"levelo_inurba_marseille","lat":43.26554,"lon":5.37283,"is_reserved":false,"is_disabled":false,"rental_uris":{"android":"levelo://app?vid=16d37247-1939-4a7b-992c-9c6330b9f1cd","ios":"levelo://app?vid=16d37247-1939-4a7b-992c-9c6330b9f1cd"},"vehicle_type_id":"4","last_reported":1726063684,"current_range_meters":28000,"station_id":"ce4bhg12rcd13ifvqf70","pricing_plan_id":"cebpf4jnsgd1na2vs0mg"},{"bike_id":"21ca43f1-f564-4fdc-a5ab-1c7e5f0e8859","system_id":"levelo_inurba_marseille","lat":43.24389,"lon":5.37054,"is_reserved":false,"is_disabled":false,"rental_uris":{"android":"levelo://app?vid=21ca43f1-f564-4fdc-a5ab-1c7e5f0e8859","ios":"levelo://app?vid=21ca43f1-f564-4fdc-a5ab-1c7e5f0e8859"},"vehicle_type_id":"4","last_reported":1726063684,"current_range_meters":27600,"station_id":"ce4bhhh2rcd13ifvqfk0","pricing_plan_id":"cebpf4jnsgd1na2vs0mg"},{"bike_id":"21a93f7a-d61f-40fd-ab85-5eb2fd8eb0a1","system_id":"levelo_inurba_marseille","lat":43.25085,"lon":5.39517,"is_reserved":false,"is_disabled":false,"rental_uris":{"android":"levelo://app?vid=21a93f7a-d61f-40fd-ab85-5eb2fd8eb0a1","ios":"levelo://app?vid=21a93f7a-d61f-40fd-ab85-5eb2fd8eb0a1"},"vehicle_type_id":"4","last_reported":1726063684,"current_range_meters":19200,"station_id":"ce4bhm12rcd13ifvqgkg","pricing_plan_id":"cebpf4jnsgd1na2vs0mg"},{"bike_id":"deeef3eb-5697-49c5-b2c5-06e61dacd04b","system_id":"levelo_inurba_marseille","lat":43.30353,"lon":5.41873,"is_reserved":false,"is_disabled":false,"rental_uris":{"android":"levelo://app?vid=deeef3eb-5697-49c5-b2c5-06e61dacd04b","ios":"levelo://app?vid=deeef3eb-5697-49c5-b2c5-06e61dacd04b"},"vehicle_type_id":"4","last_reported":1726063684,"current_range_meters":35200,"station_id":"ce4bhop2rcd13ifvqh7g","pricing_plan_id":"cebpf4jnsgd1na2vs0mg"},{"bike_id":"97194a69-4a57-426c-aea5-19f70d469e8f","system_id":"levelo_inurba_marseille","lat":43.30118,"lon":5.36754,"is_reserved":false,"is_disabled":false,"rental_uris":{"android":"levelo://app?vid=97194a69-4a57-426c-aea5-19f70d469e8f","ios":"levelo://app?vid=97194a69-4a57-426c-aea5-19f70d469e8f"},"vehicle_type_id":"4","last_reported":1726063684,"current_range_meters":38000,"station_id":"","pricing_plan_id":"cebpf4jnsgd1na2vs0mg"},{"bike_id":"365eec02-a8ae-43e7-8eb4-3379b9366190","system_id":"levelo_inurba_marseille","lat":43.23151,"lon":5.43709,"is_reserved":false,"is_disabled":false,"rental_uris":{"android":"levelo://app?vid=365eec02-a8ae-43e7-8eb4-3379b9366190","ios":"levelo://app?vid=365eec02-a8ae-43e7-8eb4-3379b9366190"},"vehicle_type_id":"4","last_reported":1726063684,"current_range_meters":16800,"station_id":"ce4bhmp2rcd13ifvqgog","pricing_plan_id":"cebpf4jnsgd1na2vs0mg"},{"bike_id":"6ef09b2f-9473-4974-9a99-cbb2eef8db2e","system_id":"levelo_inurba_marseille","lat":43.272736,"lon":5.391396,"is_reserved":false,"is_disabled":false,"rental_uris":{"android":"levelo://app?vid=6ef09b2f-9473-4974-9a99-cbb2eef8db2e","ios":"levelo://app?vid=6ef09b2f-9473-4974-9a99-cbb2eef8db2e"},"vehicle_type_id":"4","last_reported":1726063684,"current_range_meters":16400,"station_id":"ce4bhi12rcd13ifvqfo0","pricing_plan_id":"cebpf4jnsgd1na2vs0mg"},{"bike_id":"c363a9df-d3b0-4a43-a7e3-f95f5f33265f","system_id":"levelo_inurba_marseille","lat":43.23052,"lon":5.35489,"is_reserved":false,"is_disabled":false,"rental_uris":{"android":"levelo://app?vid=c363a9df-d3b0-4a43-a7e3-f95f5f33265f","ios":"levelo://app?vid=c363a9df-d3b0-4a43-a7e3-f95f5f33265f"},"vehicle_type_id":"4","last_reported":1726063684,"current_range_meters":15200,"station_id":"cpo3342slgdg3j2ifvpg","pricing_plan_id":"cebpf4jnsgd1na2vs0mg"},{"bike_id":"e9851718-6392-4d75-a863-eb310907e97a","system_id":"levelo_inurba_marseille","lat":43.30547,"lon":5.36534,"is_reserved":false,"is_disabled":false,"rental_uris":{"android":"levelo://app?vid=e9851718-6392-4d75-a863-eb310907e97a","ios":"levelo://app?vid=e9851718-6392-4d75-a863-eb310907e97a"},"vehicle_type_id":"4","last_reported":1726063684,"current_range_meters":38400,"station_id":"ce4bgs12rcd13ifvqcag","pricing_plan_id":"cebpf4jnsgd1na2vs0mg"},{"bike_id":"8371cf27-c593-4d1d-8017-a9645ecf4746","system_id":"levelo_inurba_marseille","lat":43.27205,"lon":5.3919,"is_reserved":false,"is_disabled":false,"rental_uris":{"android":"levelo://app?vid=8371cf27-c593-4d1d-8017-a9645ecf4746","ios":"levelo://app?vid=8371cf27-c593-4d1d-8017-a9645ecf4746"},"vehicle_type_id":"4","last_reported":1726063684,"current_range_meters":27600,"station_id":"ce4bhhp2rcd13ifvqfm0","pricing_plan_id":"cebpf4jnsgd1na2vs0mg"},{"bike_id":"cc4d0a8b-7598-4e3e-b42c-8903a5620313","system_id":"levelo_inurba_marseille","lat":43.25939,"lon":5.40896,"is_reserved":false,"is_disabled":false,"rental_uris":{"android":"levelo://app?vid=cc4d0a8b-7598-4e3e-b42c-8903a5620313","ios":"levelo://app?vid=cc4d0a8b-7598-4e3e-b42c-8903a5620313"},"vehicle_type_id":"4","last_reported":1726063684,"current_range_meters":30000,"station_id":"ce4bhm92rcd13ifvqglg","pricing_plan_id":"cebpf4jnsgd1na2vs0mg"},{"bike_id":"97cb76f3-4982-4381-baa0-d4295d3a35b5","system_id":"levelo_inurba_marseille","lat":43.30209,"lon":5.39468,"is_reserved":false,"is_disabled":false,"rental_uris":{"android":"levelo://app?vid=97cb76f3-4982-4381-baa0-d4295d3a35b5","ios":"levelo://app?vid=97cb76f3-4982-4381-baa0-d4295d3a35b5"},"vehicle_type_id":"4","last_reported":1726063684,"current_range_meters":28800,"station_id":"ce4bh0p2rcd13ifvqd70","pricing_plan_id":"cebpf4jnsgd1na2vs0mg"},{"bike_id":"a1cee584-b64d-4217-8183-45d85287b461","system_id":"levelo_inurba_marseille","lat":43.26196,"lon":5.37449,"is_reserved":false,"is_disabled":false,"rental_uris":{"android":"levelo://app?vid=a1cee584-b64d-4217-8183-45d85287b461","ios":"levelo://app?vid=a1cee584-b64d-4217-8183-45d85287b461"},"vehicle_type_id":"4","last_reported":1726063684,"current_range_meters":28800,"station_id":"ce4bhgp2rcd13ifvqfc0","pricing_plan_id":"cebpf4jnsgd1na2vs0mg"},{"bike_id":"3c45e72c-a88e-44aa-8bca-e1a0ffd178f8","system_id":"levelo_inurba_marseille","lat":43.27533,"lon":5.43426,"is_reserved":false,"is_disabled":false,"rental_uris":{"android":"levelo://app?vid=3c45e72c-a88e-44aa-8bca-e1a0ffd178f8","ios":"levelo://app?vid=3c45e72c-a88e-44aa-8bca-e1a0ffd178f8"},"vehicle_type_id":"4","last_reported":1726063684,"current_range_meters":6000,"station_id":"","pricing_plan_id":"cebpf4jnsgd1na2vs0mg"},{"bike_id":"f05fc4e7-5435-424e-8f86-827fdf979fe4","system_id":"levelo_inurba_marseille","lat":43.2955,"lon":5.42278,"is_reserved":false,"is_disabled":false,"rental_uris":{"android":"levelo://app?vid=f05fc4e7-5435-424e-8f86-827fdf979fe4","ios":"levelo://app?vid=f05fc4e7-5435-424e-8f86-827fdf979fe4"},"vehicle_type_id":"4","last_reported":1726063684,"current_range_meters":34800,"station_id":"ce4bhph2rcd13ifvqhdg","pricing_plan_id":"cebpf4jnsgd1na2vs0mg"},{"bike_id":"52162e44-9309-4aeb-9696-bb565746c341","system_id":"levelo_inurba_marseille","lat":43.30666,"lon":5.39291,"is_reserved":false,"is_disabled":false,"rental_uris":{"android":"levelo://app?vid=52162e44-9309-4aeb-9696-bb565746c341","ios":"levelo://app?vid=52162e44-9309-4aeb-9696-bb565746c341"},"vehicle_type_id":"4","last_reported":1726063684,"current_range_meters":9200,"station_id":"","pricing_plan_id":"cebpf4jnsgd1na2vs0mg"},{"bike_id":"7b5b4ccb-1ea8-40d5-8062-f28ecf9b92a3","system_id":"levelo_inurba_marseille","lat":43.28155,"lon":5.42641,"is_reserved":false,"is_disabled":false,"rental_uris":{"android":"levelo://app?vid=7b5b4ccb-1ea8-40d5-8062-f28ecf9b92a3","ios":"levelo://app?vid=7b5b4ccb-1ea8-40d5-8062-f28ecf9b92a3"},"vehicle_type_id":"4","last_reported":1726063684,"current_range_meters":2800,"station_id":"ce4bhnh2rcd13ifvqgug","pricing_plan_id":"cebpf4jnsgd1na2vs0mg"},{"bike_id":"f58772ed-080f-4a06-947e-cfd3417ad257","system_id":"levelo_inurba_marseille","lat":43.30415,"lon":5.41288,"is_reserved":false,"is_disabled":false,"rental_uris":{"android":"levelo://app?vid=f58772ed-080f-4a06-947e-cfd3417ad257","ios":"levelo://app?vid=f58772ed-080f-4a06-947e-cfd3417ad257"},"vehicle_type_id":"4","last_reported":1726063684,"current_range_meters":19600,"station_id":"ce4bhop2rcd13ifvqh8g","pricing_plan_id":"cebpf4jnsgd1na2vs0mg"},{"bike_id":"6cc95b7a-cb37-48e2-8682-a1d2bf2d8e96","system_id":"levelo_inurba_marseille","lat":43.30527,"lon":5.36538,"is_reserved":false,"is_disabled":false,"rental_uris":{"android":"levelo://app?vid=6cc95b7a-cb37-48e2-8682-a1d2bf2d8e96","ios":"levelo://app?vid=6cc95b7a-cb37-48e2-8682-a1d2bf2d8e96"},"vehicle_type_id":"4","last_reported":1726063684,"current_range_meters":7200,"station_id":"ce4bgs12rcd13ifvqcag","pricing_plan_id":"cebpf4jnsgd1na2vs0mg"},{"bike_id":"3430d364-ef66-43ca-8426-4d743bfb64ea","system_id":"levelo_inurba_marseille","lat":43.30537,"lon":5.36531,"is_reserved":false,"is_disabled":false,"rental_uris":{"android":"levelo://app?vid=3430d364-ef66-43ca-8426-4d743bfb64ea","ios":"levelo://app?vid=3430d364-ef66-43ca-8426-4d743bfb64ea"},"vehicle_type_id":"4","last_reported":1726063684,"current_range_meters":6000,"station_id":"ce4bgs12rcd13ifvqcag","pricing_plan_id":"cebpf4jnsgd1na2vs0mg"},{"bike_id":"e34ee023-ef76-40bb-9e08-f983fb5f1a48","system_id":"levelo_inurba_marseille","lat":43.29166,"lon":5.37167,"is_reserved":false,"is_disabled":false,"rental_uris":{"android":"levelo://app?vid=e34ee023-ef76-40bb-9e08-f983fb5f1a48","ios":"levelo://app?vid=e34ee023-ef76-40bb-9e08-f983fb5f1a48"},"vehicle_type_id":"4","last_reported":1726063684,"current_range_meters":31200,"station_id":"ce4bha92rcd13ifvqeh0","pricing_plan_id":"cebpf4jnsgd1na2vs0mg"},{"bike_id":"ee41233d-7057-4ec4-b3c6-63f582836de8","system_id":"levelo_inurba_marseille","lat":43.22934,"lon":5.35376,"is_reserved":false,"is_disabled":false,"rental_uris":{"android":"levelo://app?vid=ee41233d-7057-4ec4-b3c6-63f582836de8","ios":"levelo://app?vid=ee41233d-7057-4ec4-b3c6-63f582836de8"},"vehicle_type_id":"4","last_reported":1726063684,"current_range_meters":32400,"station_id":"cpo3532slgdg3j2ikp40","pricing_plan_id":"cebpf4jnsgd1na2vs0mg"},{"bike_id":"aceaa97a-b654-4426-aee8-30a89abe4327","system_id":"levelo_inurba_marseille","lat":43.23961,"lon":5.36622,"is_reserved":false,"is_disabled":false,"rental_uris":{"android":"levelo://app?vid=aceaa97a-b654-4426-aee8-30a89abe4327","ios":"levelo://app?vid=aceaa97a-b654-4426-aee8-30a89abe4327"},"vehicle_type_id":"4","last_reported":1726063684,"current_range_meters":33600,"station_id":"ce4bhi12rcd13ifvqfp0","pricing_plan_id":"cebpf4jnsgd1na2vs0mg"},{"bike_id":"8a58afad-98e9-4736-9400-42885fbd7178","system_id":"levelo_inurba_marseille","lat":43.23153,"lon":5.43705,"is_reserved":false,"is_disabled":false,"rental_uris":{"android":"levelo://app?vid=8a58afad-98e9-4736-9400-42885fbd7178","ios":"levelo://app?vid=8a58afad-98e9-4736-9400-42885fbd7178"},"vehicle_type_id":"4","last_reported":1726063684,"current_range_meters":16400,"station_id":"ce4bhmp2rcd13ifvqgog","pricing_plan_id":"cebpf4jnsgd1na2vs0mg"},{"bike_id":"ea2e78fc-c554-4f98-8d5b-d0587ceb1c27","system_id":"levelo_inurba_marseille","lat":43.33727,"lon":5.39188,"is_reserved":false,"is_disabled":false,"rental_uris":{"android":"levelo://app?vid=ea2e78fc-c554-4f98-8d5b-d0587ceb1c27","ios":"levelo://app?vid=ea2e78fc-c554-4f98-8d5b-d0587ceb1c27"},"vehicle_type_id":"4","last_reported":1726063684,"current_range_meters":39200,"station_id":"ce4bhr92rcd13ifvqhsg","pricing_plan_id":"cebpf4jnsgd1na2vs0mg"},{"bike_id":"4df3aae1-0e8d-4fa3-9e30-3f161c8e94b9","system_id":"levelo_inurba_marseille","lat":43.23181,"lon":5.39985,"is_reserved":false,"is_disabled":false,"rental_uris":{"android":"levelo://app?vid=4df3aae1-0e8d-4fa3-9e30-3f161c8e94b9","ios":"levelo://app?vid=4df3aae1-0e8d-4fa3-9e30-3f161c8e94b9"},"vehicle_type_id":"4","last_reported":1726063684,"current_range_meters":14400,"station_id":"ce4bhn12rcd13ifvqgqg","pricing_plan_id":"cebpf4jnsgd1na2vs0mg"},{"bike_id":"19db9951-7f11-4e0f-8e43-1de77a4f6d0c","system_id":"levelo_inurba_marseille","lat":43.273201,"lon":5.390732,"is_reserved":false,"is_disabled":false,"rental_uris":{"android":"levelo://app?vid=19db9951-7f11-4e0f-8e43-1de77a4f6d0c","ios":"levelo://app?vid=19db9951-7f11-4e0f-8e43-1de77a4f6d0c"},"vehicle_type_id":"4","last_reported":1726063684,"current_range_meters":20800,"station_id":"ce4bhgp2rcd13ifvqfe0","pricing_plan_id":"cebpf4jnsgd1na2vs0mg"},