{"last_updated":1742991528,"ttl":60,"version":"2.2","data":{"bikes":[{"bike_id":"9f12f494-08af-4e7b-9cd1-e5b2f15158ba","system_id":"levelo_inurba_marseille","lat":43.29962,"lon":5.38493,"is_reserved":false,"is_disabled":false,"rental_uris":{"android":"levelo://app?vid=9f12f494-08af-4e7b-9cd1-e5b2f15158ba","ios":"levelo://app?vid=9f12f494-08af-4e7b-9cd1-e5b2f15158ba"},"vehicle_type_id":"4","last_reported":1742991528,"current_range_meters":2800,"station_id":"ce4bgj92rcd13ifvqbd0","pricing_plan_id":"cebpf4jnsgd1na2vs0mg"},{"bike_id":"b4572e24-6662-493d-b859-dee02cb7e17e","system_id":"levelo_inurba_marseille","lat":43.30321,"lon":5.40432,"is_reserved":false,"is_disabled":false,"rental_uris":{"android":"levelo://app?vid=b4572e24-6662-493d-b859-dee02cb7e17e","ios":"levelo://app?vid=b4572e24-6662-493d-b859-dee02cb7e17e"},"vehicle_type_id":"4","last_reported":1742991528,"current_range_meters":2800,"station_id":"ce4bh012rcd13ifvqd10","pricing_plan_id":"cebpf4jnsgd1na2vs0mg"},{"bike_id":"bcd8b8f1-fed6-441a-b17f-5498f4d61d3a","system_id":"levelo_inurba_marseille","lat":43.26931,"lon":5.3893,"is_reserved":false,"is_disabled":false,"rental_uris":{"android":"levelo://app?vid=bcd8b8f1-fed6-441a-b17f-5498f4d61d3a","ios":"levelo://app?vid=bcd8b8f1-fed6-441a-b17f-5498f4d61d3a"},"vehicle_type_id":"4","last_reported":1742991528,"current_range_meters":2800,"station_id":"ce4bhhh2rcd13ifvqfl0","pricing_plan_id":"cebpf4jnsgd1na2vs0mg"},{"bike_id":"4508502e-10c7-4168-95ba-290b8aa8d844","system_id":"levelo_inurba_marseille","lat":43.26589,"lon":5.39029,"is_reserved":false,"is_disabled":false,"rental_uris":{"android":"levelo://app?vid=4508502e-10c7-4168-95ba-290b8aa8d844","ios":"levelo://app?vid=4508502e-10c7-4168-95ba-290b8aa8d844"},"vehicle_type_id":"4","last_reported":1742991528,"current_range_meters":2800,"station_id":"ce4bhe12rcd13ifvqf30","pricing_plan_id":"cebpf4jnsgd1na2vs0mg"},{"bike_id":"02c642d0-bab7-4205-b1fb-4419adeb4af1","system_id":"levelo_inurba_marseille","lat":43.29042,"lon":5.356,"is_reserved":false,"is_disabled":true,"rental_uris":{"android":"levelo://app?vid=02c642d0-bab7-4205-b1fb-4419adeb4af1","ios":"levelo://app?vid=02c642d0-bab7-4205-b1fb-4419adeb4af1"},"vehicle_type_id":"4","last_reported":1742991528,"current_range_meters":3200,"station_id":"","pricing_plan_id":"cebpf4jnsgd1na2vs0mg"},{"bike_id":"74079216-fa7c-4d09-ae7a-1aea87c54c3a","system_id":"levelo_inurba_marseille","lat":43.302765,"lon":5.377808,"is_reserved":false,"is_disabled":false,"rental_uris":{"android":"levelo://app?vid=74079216-fa7c-4d09-ae7a-1aea87c54c3a","ios":"levelo://app?vid=74079216-fa7c-4d09-ae7a-1aea87c54c3a"},"vehicle_type_id":"4","last_reported":1742991528,"current_range_meters":3200,"station_id":"ce4bguh2rcd13ifvqcj0","pricing_plan_id":"cebpf4jnsgd1na2vs0mg"},{"bike_id":"72c97ed5-8e93-479c-9215-2ddd5a3d2715","system_id":"levelo_inurba_marseille","lat":43.2998,"lon":5.38489,"is_reserved":false,"is_disabled":false,"rental_uris":{"android":"levelo://app?vid=72c97ed5-8e93-479c-9215-2ddd5a3d2715","ios":"levelo://app?vid=72c97ed5-8e93-479c-9215-2ddd5a3d2715"},"vehicle_type_id":"4","last_reported":1742991528,"current_range_meters":3600,"station_id":"ce4bgj92rcd13ifvqbd0","pricing_plan_id":"cebpf4jnsgd1na2vs0mg"},{"bike_id":"5eb00e60-b5d9-4a65-9bba-344db36c1e04","system_id":"levelo_inurba_marseille","lat":43.25833,"lon":5.39458,"is_reserved":false,"is_disabled":false,"rental_uris":{"android":"levelo://app?vid=5eb00e60-b5d9-4a65-9bba-344db36c1e04","ios":"levelo://app?vid=5eb00e60-b5d9-4a65-9bba-344db36c1e04"},"vehicle_type_id":"4","last_reported":1742991528,"current_range_meters":3600,"station_id":"ce4bhip2rcd13ifvqft0","pricing_plan_id":"cebpf4jnsgd1na2vs0mg"},{"bike_id":"bc9e59da-24a5-43b2-9344-e686036c5b53","system_id":"levelo_inurba_marseille","lat":43.26047,"lon":5.39419,"is_reserved":false,"is_disabled":false,"rental_uris":{"android":"levelo://app?vid=bc9e59da-24a5-43b2-9344-e686036c5b53","ios":"levelo://app?vid=bc9e59da-24a5-43b2-9344-e686036c5b53"},"vehicle_type_id":"4","last_reported":1742991528,"current_range_meters":3600,"station_id":"ce4bhh92rcd13ifvqfj0","pricing_plan_id":"cebpf4jnsgd1na2vs0mg"},{"bike_id":"d549965b-3736-4617-ac92-bd8ff1a2cfc7","system_id":"levelo_inurba_marseille","lat":43.25857,"lon":5.39898,"is_reserved":false,"is_disabled":false,"rental_uris":{"android":"levelo://app?vid=d549965b-3736-4617-ac92-bd8ff1a2cfc7","ios":"levelo://app?vid=d549965b-3736-4617-ac92-bd8ff1a2cfc7"},"vehicle_type_id":"4","last_reported":1742991528,"current_range_meters":3600,"station_id":"ce4bhl92rcd13ifvqghg","pricing_plan_id":"cebpf4jnsgd1na2vs0mg"},{"bike_id":"0c982cb9-0f5c-47bc-83f9-868473b04caf","system_id":"levelo_inurba_marseille","lat":43.29746,"lon":5.37116,"is_reserved":false,"is_disabled":false,"rental_uris":{"android":"levelo://app?vid=0c982cb9-0f5c-47bc-83f9-868473b04caf","ios":"levelo://app?vid=0c982cb9-0f5c-47bc-83f9-868473b04caf"},"vehicle_type_id":"4","last_reported":1742991528,"current_range_meters":4000,"station_id":"ce4bgop2rcd13ifvqc1g","pricing_plan_id":"cebpf4jnsgd1na2vs0mg"},{"bike_id":"1daf2de6-703d-45be-ae24-796c4be5fe7c","system_id":"levelo_inurba_marseille","lat":43.3026,"lon":5.39426,"is_reserved":false,"is_disabled":true,"rental_uris":{"android":"levelo://app?vid=1daf2de6-703d-45be-ae24-796c4be5fe7c","ios":"levelo://app?vid=1daf2de6-703d-45be-ae24-796c4be5fe7c"},"vehicle_type_id":"4","last_reported":1742991528,"current_range_meters":4000,"station_id":"","pricing_plan_id":"cebpf4jnsgd1na2vs0mg"},{"bike_id":"85f740ce-b25c-4f01-a4d0-1cb1211ec32c","system_id":"levelo_inurba_marseille","lat":43.231821,"lon":5.399836,"is_reserved":false,"is_disabled":false,"rental_uris":{"android":"levelo://app?vid=85f740ce-b25c-4f01-a4d0-1cb1211ec32c","ios":"levelo://app?vid=85f740ce-b25c-4f01-a4d0-1cb1211ec32c"},"vehicle_type_id":"4","last_reported":1742991528,"current_range_meters":4000,"station_id":"ce4bhn12rcd13ifvqgqg","pricing_plan_id":"cebpf4jnsgd1na2vs0mg"},{"bike_id":"04964a40-f29d-4dfd-b2ab-3b6a1eefb699","system_id":"levelo_inurba_marseille","lat":43.23152,"lon":5.437,"is_reserved":false,"is_disabled":false,"rental_uris":{"android":"levelo://app?vid=04964a40-f29d-4dfd-b2ab-3b6a1eefb699","ios":"levelo://app?vid=04964a40-f29d-4dfd-b2ab-3b6a1eefb699"},"vehicle_type_id":"4","last_reported":1742991528,"current_range_meters":4000,"station_id":"ce4bhmp2rcd13ifvqgog","pricing_plan_id":"cebpf4jnsgd1na2vs0mg"},{"bike_id":"48fb31a8-b84c-4381-8d46-377e59e64c65","system_id":"levelo_inurba_marseille","lat":43.31344,"lon":5.37936,"is_reserved":false,"is_disabled":true,"rental_uris":{"android":"levelo://app?vid=48fb31a8-b84c-4381-8d46-377e59e64c65","ios":"levelo://app?vid=48fb31a8-b84c-4381-8d46-377e59e64c65"},"vehicle_type_id":"4","last_reported":1742991528,"current_range_meters":4000,"station_id":"","pricing_plan_id":"cebpf4jnsgd1na2vs0mg"},{"bike_id":"6d9af44c-5cae-4b84-9d3b-2f184edf7275","system_id":"levelo_inurba_marseille","lat":43.32539,"lon":5.41428,"is_reserved":false,"is_disabled":false,"rental_uris":{"android":"levelo://app?vid=6d9af44c-5cae-4b84-9d3b-2f184edf7275","ios":"levelo://app?vid=6d9af44c-5cae-4b84-9d3b-2f184edf7275"},"vehicle_type_id":"4","last_reported":1742991528,"current_range_meters":4000,"station_id":"ce4bhq12rcd13ifvqhhg","pricing_plan_id":"cebpf4jnsgd1na2vs0mg"},{"bike_id":"a0d4632a-7a87-4031-aeeb-061ca0feaca6","system_id":"levelo_inurba_marseille","lat":43.239537,"lon":5.366281,"is_reserved":false,"is_disabled":false,"rental_uris":{"android":"levelo://app?vid=a0d4632a-7a87-4031-aeeb-061ca0feaca6","ios":"levelo://app?vid=a0d4632a-7a87-4031-aeeb-061ca0feaca6"},"vehicle_type_id":"4","last_reported":1742991528,"current_range_meters":4400,"station_id":"ce4bhi12rcd13ifvqfp0","pricing_plan_id":"cebpf4jnsgd1na2vs0mg"},{"bike_id":"66f69882-9bc0-4f69-af42-1e4faa3ed134","system_id":"levelo_inurba_marseille","lat":43.29928,"lon":5.43664,"is_reserved":false,"is_disabled":false,"rental_uris":{"android":"levelo://app?vid=66f69882-9bc0-4f69-af42-1e4faa3ed134","ios":"levelo://app?vid=66f69882-9bc0-4f69-af42-1e4faa3ed134"},"vehicle_type_id":"4","last_reported":1742991528,"current_range_meters":4400,"station_id":"ce4bhpp2rcd13ifvqhfg","pricing_plan_id":"cebpf4jnsgd1na2vs0mg"},{"bike_id":"49a77b57-0e61-4a5d-bd8d-3f7e3a8cf2fb","system_id":"levelo_inurba_marseille","lat":43.27427,"lon":5.39416,"is_reserved":false,"is_disabled":true,"rental_uris":{"android":"levelo://app?vid=49a77b57-0e61-4a5d-bd8d-3f7e3a8cf2fb","ios":"levelo://app?vid=49a77b57-0e61-4a5d-bd8d-3f7e3a8cf2fb"},"vehicle_type_id":"4","last_reported":1742991528,"current_range_meters":4800,"station_id":"ce4bhdp2rcd13ifvqf20","pricing_plan_id":"cebpf4jnsgd1na2vs0mg"},{"bike_id":"6e38dec4-9f97-48ce-aeaf-8ff8c2a020e9","system_id":"levelo_inurba_marseille","lat":43.25918,"lon":5.40898,"is_reserved":false,"is_disabled":false,"rental_uris":{"android":"levelo://app?vid=6e38dec4-9f97-48ce-aeaf-8ff8c2a020e9","ios":"levelo://app?vid=6e38dec4-9f97-48ce-aeaf-8ff8c2a020e9"},"vehicle_type_id":"4","last_reported":1742991528,"current_range_meters":4800,"station_id":"ce4bhm92rcd13ifvqglg","pricing_plan_id":"cebpf4jnsgd1na2vs0mg"},{"bike_id":"3f3dc18c-6df6-4f10-bdb6-bb2ee80a2e60","system_id":"levelo_inurba_marseille","lat":43.27208,"lon":5.39193,"is_reserved":false,"is_disabled":false,"rental_uris":{"android":"levelo://app?vid=3f3dc18c-6df6-4f10-bdb6-bb2ee80a2e60","ios":"levelo://app?vid=3f3dc18c-6df6-4f10-bdb6-bb2ee80a2e60"},"vehicle_type_id":"4","last_reported":1742991528,"current_range_meters":4800,"station_id":"ce4bhhp2rcd13ifvqfm0","pricing_plan_id":"cebpf4jnsgd1na2vs0mg"},{"bike_id":"b10a8c40-550e-4072-a4c6-55da87e1264d","system_id":"levelo_inurba_marseille","lat":43.2781,"lon":5.40704,"is_reserved":false,"is_disabled":false,"rental_uris":{"android":"levelo://app?vid=b10a8c40-550e-4072-a4c6-55da87e1264d","ios":"levelo://app?vid=b10a8c40-550e-4072-a4c6-55da87e1264d"},"vehicle_type_id":"4","last_reported":1742991528,"current_range_meters":4800,"station_id":"ce4bhnh2rcd13ifvqgtg","pricing_plan_id":"cebpf4jnsgd1na2vs0mg"},{"bike_id":"886245e8-894a-472e-9ecb-0853738d2d1f","system_id":"levelo_inurba_marseille","lat":43.23152,"lon":5.4371,"is_reserved":false,"is_disabled":false,"rental_uris":{"android":"levelo://app?vid=886245e8-894a-472e-9ecb-0853738d2d1f","ios":"levelo://app?vid=886245e8-894a-472e-9ecb-0853738d2d1f"},"vehicle_type_id":"4","last_reported":1742991528,"current_range_meters":4800,"station_id":"ce4bhmp2rcd13ifvqgog","pricing_plan_id":"cebpf4jnsgd1na2vs0mg"},{"bike_id":"403e13f3-37ff-493c-b415-9da25b2f21b2","system_id":"levelo_inurba_marseille","lat":43.31109,"lon":5.37767,"is_reserved":false,"is_disabled":false,"rental_uris":{"android":"levelo://app?vid=403e13f3-37ff-493c-b415-9da25b2f21b2","ios":"levelo://app?vid=403e13f3-37ff-493c-b415-9da25b2f21b2"},"vehicle_type_id":"4","last_reported":1742991528,"current_range_meters":5600,"station_id":"ce4bgt92rcd13ifvqcg0","pricing_plan_id":"cebpf4jnsgd1na2vs0mg"},{"bike_id":"6fb4622b-604a-4756-b82b-265d06340b21","system_id":"levelo_inurba_marseille","lat":43.320408,"lon":5.415554,"is_reserved":false,"is_disabled":false,"rental_uris":{"android":"levelo://app?vid=6fb4622b-604a-4756-b82b-265d06340b21","ios":"levelo://app?vid=6fb4622b-604a-4756-b82b-265d06340b21"},"vehicle_type_id":"4","last_reported":1742991528,"current_range_meters":4800,"station_id":"ce4bhqh2rcd13ifvqhmg","pricing_plan_id":"cebpf4jnsgd1na2vs0mg"},{"bike_id":"2a99ecb7-4bf0-4c00-89bb-11ff019b8a6d","system_id":"levelo_inurba_marseille","lat":43.22929,"lon":5.35391,"is_reserved":false,"is_disabled":false,"rental_uris":{"android":"levelo://app?vid=2a99ecb7-4bf0-4c00-89bb-11ff019b8a6d","ios":"levelo://app?vid=2a99ecb7-4bf0-4c00-89bb-11ff019b8a6d"},"vehicle_type_id":"4","last_reported":1742991528,"current_range_meters":6000,"station_id":"cpo3532slgdg3j2ikp40","pricing_plan_id":"cebpf4jnsgd1na2vs0mg"},{"bike_id":"d9f7d8be-9425-4103-9342-1eabe2318a05","system_id":"levelo_inurba_marseille","lat":43.26686,"lon":5.38271,"is_reserved":false,"is_disabled":false,"rental_uris":{"android":"levelo://app?vid=d9f7d8be-9425-4103-9342-1eabe2318a05","ios":"levelo://app?vid=d9f7d8be-9425-4103-9342-1eabe2318a05"},"vehicle_type_id":"4","last_reported":1742991528,"current_range_meters":6000,"station_id":"ce4bhg92rcd13ifvqf90","pricing_plan_id":"cebpf4jnsgd1na2vs0mg"},{"bike_id":"c27804bd-f22b-4f5e-b0b6-7240b2cee169","system_id":"levelo_inurba_marseille","lat":43.279391,"lon":5.4103,"is_reserved":false,"is_disabled":false,"rental_uris":{"android":"levelo://app?vid=c27804bd-f22b-4f5e-b0b6-7240b2cee169","ios":"levelo://app?vid=c27804bd-f22b-4f5e-b0b6-7240b2cee169"},"vehicle_type_id":"4","last_reported":1742991528,"current_range_meters":6000,"station_id":"ce4bhnp2rcd13ifvqh0g","pricing_plan_id":"cebpf4jnsgd1na2vs0mg"},{"bike_id":"e0212fe1-7235-4298-a4ff-b98bf139135c","system_id":"levelo_inurba_marseille","lat":43.33608,"lon":5.41012,"is_reserved":false,"is_disabled":false,"rental_uris":{"android":"levelo://app?vid=e0212fe1-7235-4298-a4ff-b98bf139135c","ios":"levelo://app?vid=e0212fe1-7235-4298-a4ff-b98bf139135c"},"vehicle_type_id":"4","last_reported":1742991528,"current_range_meters":6000,"station_id":"ce4bhqh2rcd13ifvqhmg","pricing_plan_id":"cebpf4jnsgd1na2vs0mg"},{"bike_id":"5fd3558b-da7a-4ffc-b6b3-74cf80c2c57a","system_id":"levelo_inurba_marseille","lat":43.304641,"lon":5.379075,"is_reserved":false,"is_disabled":false,"rental_uris":{"android":"levelo://app?vid=5fd3558b-da7a-4ffc-b6b3-74cf80c2c57a","ios":"levelo://app?vid=5fd3558b-da7a-4ffc-b6b3-74cf80c2c57a"},"vehicle_type_id":"4","last_reported":1742991528,"current_range_meters":6000,"station_id":"ce4bgjp2rcd13ifvqbh0","pricing_plan_id":"cebpf4jnsgd1na2vs0mg"},{"bike_id":"7d354833-0cc9-49e9-b699-c8053c5b4d7a","system_id":"levelo_inurba_marseille","lat":43.25719,"lon":5.41122,"is_reserved":false,"is_disabled":false,"rental_uris":{"android":"levelo://app?vid=7d354833-0cc9-49e9-b699-c8053c5b4d7a","ios":"levelo://app?vid=7d354833-0cc9-49e9-b699-c8053c5b4d7a"},"vehicle_type_id":"4","last_reported":1742991528,"current_range_meters":6000,"station_id":"ce4bhkp2rcd13ifvqgd0","pricing_plan_id":"cebpf4jnsgd1na2vs0mg"},{"bike_id":"661ad638-f20a-4099-990d-7e316fc20bf4","system_id":"levelo_inurba_marseille","lat":43.269379,"lon":5.402538,"is_reserved":false,"is_disabled":false,"rental_uris":{"android":"levelo://app?vid=661ad638-f20a-4099-990d-7e316fc20bf4","ios":"levelo://app?vid=661ad638-f20a-4099-990d-7e316fc20bf4"},"vehicle_type_id":"4","last_reported":1742991528,"current_range_meters":6000,"station_id":"cjm6bp8fraef2m0cb0m0","pricing_plan_id":"cebpf4jnsgd1na2vs0mg"},{"bike_id":"0c9cada4-2764-4013-a528-15089818cb84","system_id":"levelo_inurba_marseille","lat":43.27753,"lon":5.41157,"is_reserved":false,"is_disabled":false,"rental_uris":{"android":"levelo://app?vid=0c9cada4-2764-4013-a528-15089818cb84","ios":"levelo://app?vid=0c9cada4-2764-4013-a528-15089818cb84"},"vehicle_type_id":"4","last_reported":1742991528,"current_range_meters":6400,"station_id":"","pricing_plan_id":"cebpf4jnsgd1na2vs0mg"},{"bike_id":"f95dd7f5-a2d3-43fd-99d6-6568a82eb40b","system_id":"levelo_inurba_marseille","lat":43.29193,"lon":5.35812,"is_reserved":false,"is_disabled":false,"rental_uris":{"android":"levelo://app?vid=f95dd7f5-a2d3-43fd-99d6-6568a82eb40b","ios":"levelo://app?vid=f95dd7f5-a2d3-43fd-99d6-6568a82eb40b"},"vehicle_type_id":"4","last_reported":1742991528,"current_range_meters":6400,"station_id":"ce4bhb12rcd13ifvqel0","pricing_plan_id":"cebpf4jnsgd1na2vs0mg"},{"bike_id":"ae64d049-3c54-4b63-a552-b1e07d06f548","system_id":"levelo_inurba_marseille","lat":43.25728,"lon":5.41109,"is_reserved":false,"is_disabled":false,"rental_uris":{"android":"levelo://app?vid=ae64d049-3c54-4b63-a552-b1e07d06f548","ios":"levelo://app?vid=ae64d049-3c54-4b63-a552-b1e07d06f548"},"vehicle_type_id":"4","last_reported":1742991528,"current_range_meters":6400,"station_id":"ce4bho12rcd13ifvqh1g","pricing_plan_id":"cebpf4jnsgd1na2vs0mg"},{"bike_id":"f997273d-d2b5-468d-b050-aebb37ac1c24","system_id":"levelo_inurba_marseille","lat":43.2989,"lon":5.4367,"is_reserved":false,"is_disabled":false,"rental_uris":{"android":"levelo://app?vid=f997273d-d2b5-468d-b050-aebb37ac1c24","ios":"levelo://app?vid=f997273d-d2b5-468d-b050-aebb37ac1c24"},"vehicle_type_id":"4","last_reported":1742991528,"current_range_meters":6400,"station_id":"ce4bhpp2rcd13ifvqhfg","pricing_plan_id":"cebpf4jnsgd1na2vs0mg"},{"bike_id":"aa794ec4-81a6-42f4-a54e-ca5925ac23e8","system_id":"levelo_inurba_marseille","lat":43.30948,"lon":5.39037,"is_reserved":false,"is_disabled":false,"rental_uris":{"android":"levelo://app?vid=aa794ec4-81a6-42f4-a54e-ca5925ac23e8","ios":"levelo://app?vid=aa794ec4-81a6-42f4-a54e-ca5925ac23e8"},"vehicle_type_id":"4","last_reported":1742991528,"current_range_meters":6400,"station_id":"ce4bgup2rcd13ifvqco0","pricing_plan_id":"cebpf4jnsgd1na2vs0mg"},{"bike_id":"77892976-de08-4b86-88be-caaa891cdcc1","system_id":"levelo_inurba_marseille","lat":43.26213,"lon":5.37439,"is_reserved":false,"is_disabled":false,"rental_uris":{"android":"levelo://app?vid=77892976-de08-4b86-88be-caaa891cdcc1","ios":"levelo://app?vid=77892976-de08-4b86-88be-caaa891cdcc1"},"vehicle_type_id":"4","last_reported":1742991528,"current_range_meters":6400,"station_id":"ce4bhgp2rcd13ifvqfc0","pricing_plan_id":"cebpf4jnsgd1na2vs0mg"},{"bike_id":"f94787fd-32f0-4eda-8c0c-63c5fe1957dc","system_id":"levelo_inurba_marseille","lat":43.267814,"lon":5.394195,"is_reserved":false,"is_disabled":false,"rental_uris":{"android":"levelo://app?vid=f94787fd-32f0-4eda-8c0c-63c5fe1957dc","ios":"levelo://app?vid=f94787fd-32f0-4eda-8c0c-63c5fe1957dc"},"vehicle_type_id":"4","last_reported":1742991528,"current_range_meters":6800,"station_id":"ce4bhh12rcd13ifvqfg0","pricing_plan_id":"cebpf4jnsgd1na2vs0mg"},{"bike_id":"ccd7db91-2a06-4510-bd3a-6e7707ab1a6b","system_id":"levelo_inurba_marseille","lat":43.30959,"lon":5.39036,"is_reserved":false,"is_disabled":true,"rental_uris":{"android":"levelo://app?vid=ccd7db91-2a06-4510-bd3a-6e7707ab1a6b","ios":"levelo://app?vid=ccd7db91-2a06-4510-bd3a-6e7707ab1a6b"},"vehicle_type_id":"4","last_reported":1742991528,"current_range_meters":6800,"station_id":"ce4bgup2rcd13ifvqco0","pricing_plan_id":"cebpf4jnsgd1na2vs0mg"},{"bike_id":"2f3e2a92-1301-4a27-8eaa-7b0ea525530e","system_id":"levelo_inurba_marseille","lat":43.31748,"lon":5.43702,"is_reserved":false,"is_disabled":false,"rental_uris":{"android":"levelo://app?vid=2f3e2a92-1301-4a27-8eaa-7b0ea525530e","ios":"levelo://app?vid=2f3e2a92-1301-4a27-8eaa-7b0ea525530e"},"vehicle_type_id":"4","last_reported":1742991528,"current_range_meters":6800,"station_id":"ce4bhp92rcd13ifvqhcg","pricing_plan_id":"cebpf4jnsgd1na2vs0mg"},{"bike_id":"aa316640-b4e3-46a6-a983-b02f99f14049","system_id":"levelo_inurba_marseille","lat":43.26219,"lon":5.37447,"is_reserved":false,"is_disabled":false,"rental_uris":{"android":"levelo://app?vid=aa316640-b4e3-46a6-a983-b02f99f14049","ios":"levelo://app?vid=aa316640-b4e3-46a6-a983-b02f99f14049"},"vehicle_type_id":"4","last_reported":1742991528,"current_range_meters":6800,"station_id":"ce4bhgp2rcd13ifvqfc0","pricing_plan_id":"cebpf4jnsgd1na2vs0mg"},{"bike_id":"77823725-c761-49bc-902c-64c32b686ae7","system_id":"levelo_inurba_marseille","lat":43.23029,"lon":5.35512,"is_reserved":false,"is_disabled":false,"rental_uris":{"android":"levelo://app?vid=77823725-c761-49bc-902c-64c32b686ae7","ios":"levelo://app?vid=77823725-c761-49bc-902c-64c32b686ae7"},"vehicle_type_id":"4","last_reported":1742991528,"current_range_meters":6800,"station_id":"cpo3342slgdg3j2ifvpg","pricing_plan_id":"cebpf4jnsgd1na2vs0mg"},{"bike_id":"bb8ab43e-d77e-40ca-92f3-39f857d462c7","system_id":"levelo_inurba_marseille","lat":43.29244,"lon":5.36133,"is_reserved":false,"is_disabled":false,"rental_uris":{"android":"levelo://app?vid=bb8ab43e-d77e-40ca-92f3-39f857d462c7","ios":"levelo://app?vid=bb8ab43e-d77e-40ca-92f3-39f857d462c7"},"vehicle_type_id":"4","last_reported":1742991528,"current_range_meters":6800,"station_id":"","pricing_plan_id":"cebpf4jnsgd1na2vs0mg"},{"bike_id":"7e628bd8-f74d-4310-8492-8512d6f315fe","system_id":"levelo_inurba_marseille","lat":43.23183,"lon":5.40019,"is_reserved":false,"is_disabled":false,"rental_uris":{"android":"levelo://app?vid=7e628bd8-f74d-4310-8492-8512d6f315fe","ios":"levelo://app?vid=7e628bd8-f74d-4310-8492-8512d6f315fe"},"vehicle_type_id":"4","last_reported":1742991528,"current_range_meters":6800,"station_id":"ce4bhn12rcd13ifvqgqg","pricing_plan_id":"cebpf4jnsgd1na2vs0mg"},{"bike_id":"5eb0e2f0-8111-4362-8b3d-f072323b11aa","system_id":"levelo_inurba_marseille","lat":43.28614,"lon":5.37051,"is_reserved":false,"is_disabled":false,"rental_uris":{"android":"levelo://app?vid=5eb0e2f0-8111-4362-8b3d-f072323b11aa","ios":"levelo://app?vid=5eb0e2f0-8111-4362-8b3d-f072323b11aa"},"vehicle_type_id":"4","last_reported":1742991528,"current_range_meters":7200,"station_id":"ce4bht12rcd13ifvqi60","pricing_plan_id":"cebpf4jnsgd1na2vs0mg"},{"bike_id":"9044c124-7f8b-4f46-92b4-6bb3bf42d405","system_id":"levelo_inurba_marseille","lat":43.24811,"lon":5.37477,"is_reserved":false,"is_disabled":false,"rental_uris":{"android":"levelo://app?vid=9044c124-7f8b-4f46-92b4-6bb3bf42d405","ios":"levelo://app?vid=9044c124-7f8b-4f46-92b4-6bb3bf42d405"},"vehicle_type_id":"4","last_reported":1742991528,"current_range_meters":7200,"station_id":"ce4bhgh2rcd13ifvqfb0","pricing_plan_id":"cebpf4jnsgd1na2vs0mg"},{"bike_id":"92b9c655-2b20-467e-b206-4992ba74e523","system_id":"levelo_inurba_marseille","lat":43.31083,"lon":5.42428,"is_reserved":false,"is_disabled":false,"rental_uris":{"android":"levelo://app?vid=92b9c655-2b20-467e-b206-4992ba74e523","ios":"levelo://app?vid=92b9c655-2b20-467e-b206-4992ba74e523"},"vehicle_type_id":"4","last_reported":1742991528,"current_range_meters":7200,"station_id":"ce4bhp92rcd13ifvqhag","pricing_plan_id":"cebpf4jnsgd1na2vs0mg"},{"bike_id":"fc4e0099-5f68-41d9-8cd3-70ad0b977df7","system_id":"levelo_inurba_marseille","lat":43.29307,"lon":5.37459,"is_reserved":false,"is_disabled":false,"rental_uris":{"android":"levelo://app?vid=fc4e0099-5f68-41d9-8cd3-70ad0b977df7","ios":"levelo://app?vid=fc4e0099-5f68-41d9-8cd3-70ad0b977df7"},"vehicle_type_id":"4","last_reported":1742991528,"current_range_meters":7200,"station_id":"ce4bgi12rcd13ifvqb70","pricing_plan_id":"cebpf4jnsgd1na2vs0mg"},{"bike_id":"e463b21e-b888-4592-8526-39bbc23cccf0","system_id":"levelo_inurba_marseille","lat":43.28426,"lon":5.37512,"is_reserved":false,"is_disabled":false,"rental_uris":{"android":"levelo://app?vid=e463b21e-b888-4592-8526-39bbc23cccf0","ios":"levelo://app?vid=e463b21e-b888-4592-8526-39bbc23cccf0"},"vehicle_type_id":"4","last_reported":1742991528,"current_range_meters":7200,"station_id":"ce4bh412rcd13ifvqds0","pricing_plan_id":"cebpf4jnsgd1na2vs0mg"},{"bike_id":"d27dee6f-38a4-4cd7-94d4-c5241662ed91","system_id":"levelo_inurba_marseille","lat":43.31489,"lon":5.37313,"is_reserved":false,"is_disabled":false,"rental_uris":{"android":"levelo://app?vid=d27dee6f-38a4-4cd7-94d4-c5241662ed91","ios":"levelo://app?vid=d27dee6f-38a4-4cd7-94d4-c5241662ed91"},"vehicle_type_id":"4","last_reported":1742991528,"current_range_meters":8000,"station_id":"ce4bgt12rcd13ifvqcd0","pricing_plan_id":"cebpf4jnsgd1na2vs0mg"},{"bike_id":"f294d69a-8637-46e9-95b8-3d82151d6376","system_id":"levelo_inurba_marseille","lat":43.28004,"lon":5.41645,"is_reserved":false,"is_disabled":true,"rental_uris":{"android":"levelo://app?vid=f294d69a-8637-46e9-95b8-3d82151d6376","ios":"levelo://app?vid=f294d69a-8637-46e9-95b8-3d82151d6376"},"vehicle_type_id":"4","last_reported":1742991528,"current_range_meters":8000,"station_id":"ce4bho12rcd13ifvqh1g","pricing_plan_id":"cebpf4jnsgd1na2vs0mg"},{"bike_id":"c59e7ae9-09e6-484d-a37c-6a8205ad0f01","system_id":"levelo_inurba_marseille","lat":43.26192,"lon":5.3745,"is_reserved":false,"is_disabled":false,"rental_uris":{"android":"levelo://app?vid=c59e7ae9-09e6-484d-a37c-6a8205ad0f01","ios":"levelo://app?vid=c59e7ae9-09e6-484d-a37c-6a8205ad0f01"},"vehicle_type_id":"4","last_reported":1742991528,"current_range_meters":8000,"station_id":"ce4bhgp2rcd13ifvqfc0","pricing_plan_id":"cebpf4jnsgd1na2vs0mg"},{"bike_id":"71c8e650-22af-4084-a3bd-771dc2ba1d15","system_id":"levelo_inurba_marseille","lat":43.257237,"lon":5.411201,"is_reserved":false,"is_disabled":false,"rental_uris":{"android":"levelo://app?vid=71c8e650-22af-4084-a3bd-771dc2ba1d15","ios":"levelo://app?vid=71c8e650-22af-4084-a3bd-771dc2ba1d15"},"vehicle_type_id":"4","last_reported":1742991528,"current_range_meters":8000,"station_id":"ce4bhkp2rcd13ifvqgd0","pricing_plan_id":"cebpf4jnsgd1na2vs0mg"},{"bike_id":"c5a53012-3ad4-48af-9734-3592df1799d5","system_id":"levelo_inurba_marseille","lat":43.231968,"lon":5.355466,"is_reserved":false,"is_disabled":false,"rental_uris":{"android":"levelo://app?vid=c5a53012-3ad4-48af-9734-3592df1799d5","ios":"levelo://app?vid=c5a53012-3ad4-48af-9734-3592df1799d5"},"vehicle_type_id":"4","last_reported":1742991528,"current_range_meters":8000,"station_id":"ce4bhu92rcd13ifvqi70","pricing_plan_id":"cebpf4jnsgd1na2vs0mg"},{"bike_id":"6633349b-54ae-41b8-88d5-61ec5d012302","system_id":"levelo_inurba_marseille","lat":43.321034,"lon":5.367788,"is_reserved":false,"is_disabled":false,"rental_uris":{"android":"levelo://app?vid=6633349b-54ae-41b8-88d5-61ec5d012302","ios":"levelo://app?vid=6633349b-54ae-41b8-88d5-61ec5d012302"},"vehicle_type_id":"4","last_reported":1742991528,"current_range_meters":8000,"station_id":"ce4bhrh2rcd13ifvqhug","pricing_plan_id":"cebpf4jnsgd1na2vs0mg"},{"bike_id":"74406c35-ee35-437d-be26-2d7711378046","system_id":"levelo_inurba_marseille","lat":43.32362,"lon":5.36778,"is_reserved":false,"is_disabled":false,"rental_uris":{"android":"levelo://app?vid=74406c35-ee35-437d-be26-2d7711378046","ios":"levelo://app?vid=74406c35-ee35-437d-be26-2d7711378046"},"vehicle_type_id":"4","last_reported":1742991528,"current_range_meters":8000,"station_id":"ce4bhsh2rcd13ifvqi2g","pricing_plan_id":"cebpf4jnsgd1na2vs0mg"},{"bike_id":"16e3790f-41b6-400e-8d88-6751ca433300","system_id":"levelo_inurba_marseille","lat":43.25004,"lon":5.38936,"is_reserved":false,"is_disabled":false,"rental_uris":{"android":"levelo://app?vid=16e3790f-41b6-400e-8d88-6751ca433300","ios":"levelo://app?vid=16e3790f-41b6-400e-8d88-6751ca433300"},"vehicle_type_id":"4","last_reported":1742991528,"current_range_meters":8000,"station_id":"ce4bhgp2rcd13ifvqfd0","pricing_plan_id":"cebpf4jnsgd1na2vs0mg"},{"bike_id":"5fac8845-a082-4b56-81f2-6925abbc462e","system_id":"levelo_inurba_marseille","lat":43.28269,"lon":5.35079,"is_reserved":false,"is_disabled":false,"rental_uris":{"android":"levelo://app?vid=5fac8845-a082-4b56-81f2-6925abbc462e","ios":"levelo://app?vid=5fac8845-a082-4b56-81f2-6925abbc462e"},"vehicle_type_id":"4","last_reported":1742991528,"current_range_meters":8000,"station_id":"ce4bhbp2rcd13ifvqerg","pricing_plan_id":"cebpf4jnsgd1na2vs0mg"},{"bike_id":"8046ef72-cb0a-400d-b1d8-b0250c67a0d7","system_id":"levelo_inurba_marseille","lat":43.246805,"lon":5.381625,"is_reserved":false,"is_disabled":true,"rental_uris":{"android":"levelo://app?vid=8046ef72-cb0a-400d-b1d8-b0250c67a0d7","ios":"levelo://app?vid=8046ef72-cb0a-400d-b1d8-b0250c67a0d7"},"vehicle_type_id":"4","last_reported":1742991528,"current_range_meters":8000,"station_id":"ce4bhih2rcd13ifvqfr0","pricing_plan_id":"cebpf4jnsgd1na2vs0mg"},{"bike_id":"b51614f1-a055-42d4-901a-339f7104a5f1","system_id":"levelo_inurba_marseille","lat":43.26557,"lon":5.37294,"is_reserved":false,"is_disabled":false,"rental_uris":{"android":"levelo://app?vid=b51614f1-a055-42d4-901a-339f7104a5f1","ios":"levelo://app?vid=b51614f1-a055-42d4-901a-339f7104a5f1"},"vehicle_type_id":"4","last_reported":1742991528,"current_range_meters":8000,"station_id":"ce4bhg12rcd13ifvqf70","pricing_plan_id":"cebpf4jnsgd1na2vs0mg"},{"bike_id":"0d0c410c-dd15-4b51-ab1a-0e02448e9d62","system_id":"levelo_inurba_marseille","lat":43.31114,"lon":5.37773,"is_reserved":false,"is_disabled":false,"rental_uris":{"android":"levelo://app?vid=0d0c410c-dd15-4b51-ab1a-0e02448e9d62","ios":"levelo://app?vid=0d0c410c-dd15-4b51-ab1a-0e02448e9d62"},"vehicle_type_id":"4","last_reported":1742991528,"current_range_meters":8400,"station_id":"ce4bgt92rcd13ifvqcg0","pricing_plan_id":"cebpf4jnsgd1na2vs0mg"},{"bike_id":"41c128db-806a-4d3b-b38d-bc690dcceabb","system_id":"levelo_inurba_marseille","lat":43.28976,"lon":5.378358,"is_reserved":false,"is_disabled":true,"rental_uris":{"android":"levelo://app?vid=41c128db-806a-4d3b-b38d-bc690dcceabb","ios":"levelo://app?vid=41c128db-806a-4d3b-b38d-bc690dcceabb"},"vehicle_type_id":"4","last_reported":1742991528,"current_range_meters":8400,"station_id":"ce4bh9p2rcd13ifvqed0","pricing_plan_id":"cebpf4jnsgd1na2vs0mg"},{"bike_id":"2a79e2c1-8c1d-4d16-a18f-639b8dd7ff61","system_id":"levelo_inurba_marseille","lat":43.24814,"lon":5.37467,"is_reserved":false,"is_disabled":false,"rental_uris":{"android":"levelo://app?vid=2a79e2c1-8c1d-4d16-a18f-639b8dd7ff61","ios":"levelo://app?vid=2a79e2c1-8c1d-4d16-a18f-639b8dd7ff61"},"vehicle_type_id":"4","last_reported":1742991528,"current_range_meters":8400,"station_id":"ce4bhgh2rcd13ifvqfb0","pricing_plan_id":"cebpf4jnsgd1na2vs0mg"},{"bike_id":"25f301e2-8def-43d7-baf9-030c1322bd09","system_id":"levelo_inurba_marseille","lat":43.292683,"lon":5.384373,"is_reserved":false,"is_disabled":false,"rental_uris":{"android":"levelo://app?vid=25f301e2-8def-43d7-baf9-030c1322bd09","ios":"levelo://app?vid=25f301e2-8def-43d7-baf9-030c1322bd09"},"vehicle_type_id":"4","last_reported":1742991528,"current_range_meters":8400,"station_id":"ce4bhbh2rcd13ifvqeqg","pricing_plan_id":"cebpf4jnsgd1na2vs0mg"},{"bike_id":"6c565aa4-82a9-41b4-833b-ae75d9a678cd","system_id":"levelo_inurba_marseille","lat":43.31475,"lon":5.373,"is_reserved":false,"is_disabled":false,"rental_uris":{"android":"levelo://app?vid=6c565aa4-82a9-41b4-833b-ae75d9a678cd","ios":"levelo://app?vid=6c565aa4-82a9-41b4-833b-ae75d9a678cd"},"vehicle_type_id":"4","last_reported":1742991528,"current_range_meters":8400,"station_id":"ce4bgt12rcd13ifvqcd0","pricing_plan_id":"cebpf4jnsgd1na2vs0mg"},{"bike_id":"017c002d-6fc7-4d72-aa20-9c39c3888c25","system_id":"levelo_inurba_marseille","lat":43.25506,"lon":5.37677,"is_reserved":false,"is_disabled":false,"rental_uris":{"android":"levelo://app?vid=017c002d-6fc7-4d72-aa20-9c39c3888c25","ios":"levelo://app?vid=017c002d-6fc7-4d72-aa20-9c39c3888c25"},"vehicle_type_id":"4","last_reported":1742991528,"current_range_meters":8400,"station_id":"ce4bhh12rcd13ifvqff0","pricing_plan_id":"cebpf4jnsgd1na2vs0mg"},{"bike_id":"3082883e-716b-4940-977a-23703e6964ed","system_id":"levelo_inurba_marseille","lat":43.3133,"lon":5.39684,"is_reserved":false,"is_disabled":false,"rental_uris":{"android":"levelo://app?vid=3082883e-716b-4940-977a-23703e6964ed","ios":"levelo://app?vid=3082883e-716b-4940-977a-23703e6964ed"},"vehicle_type_id":"4","last_reported":1742991528,"current_range_meters":8400,"station_id":"ce4bgvp2rcd13ifvqcu0","pricing_plan_id":"cebpf4jnsgd1na2vs0mg"},{"bike_id":"681ec03c-5fcc-472b-a4f7-a3ac540e8e2a","system_id":"levelo_inurba_marseille","lat":43.30809,"lon":5.37076,"is_reserved":false,"is_disabled":false,"rental_uris":{"android":"levelo://app?vid=681ec03c-5fcc-472b-a4f7-a3ac540e8e2a","ios":"levelo://app?vid=681ec03c-5fcc-472b-a4f7-a3ac540e8e2a"},"vehicle_type_id":"4","last_reported":1742991528,"current_range_meters":8400,"station_id":"","pricing_plan_id":"cebpf4jnsgd1na2vs0mg"},{"bike_id":"716148cb-cea4-42a4-880b-025eb1ddc48f","system_id":"levelo_inurba_marseille","lat":43.33596,"lon":5.41016,"is_reserved":false,"is_disabled":false,"rental_uris":{"android":"levelo://app?vid=716148cb-cea4-42a4-880b-025eb1ddc48f","ios":"levelo://app?vid=716148cb-cea4-42a4-880b-025eb1ddc48f"},"vehicle_type_id":"4","last_reported":1742991528,"current_range_meters":8800,"station_id":"ce4bhqh2rcd13ifvqhmg","pricing_plan_id":"cebpf4jnsgd1na2vs0mg"},{"bike_id":"f87d39d0-285b-46df-a46c-d85ac5f15861","system_id":"levelo_inurba_marseille","lat":43.30278,"lon":5.37703,"is_reserved":false,"is_disabled":false,"rental_uris":{"android":"levelo://app?vid=f87d39d0-285b-46df-a46c-d85ac5f15861","ios":"levelo://app?vid=f87d39d0-285b-46df-a46c-d85ac5f15861"},"vehicle_type_id":"4","last_reported":1742991528,"current_range_meters":8800,"station_id":"ce4bguh2rcd13ifvqcj0","pricing_plan_id":"cebpf4jnsgd1na2vs0mg"},{"bike_id":"6317b5cd-df41-47b3-b44a-015ba8db084f","system_id":"levelo_inurba_marseille","lat":43.28721,"lon":5.37937,"is_reserved":false,"is_disabled":false,"rental_uris":{"android":"levelo://app?vid=6317b5cd-df41-47b3-b44a-015ba8db084f","ios":"levelo://app?vid=6317b5cd-df41-47b3-b44a-015ba8db084f"},"vehicle_type_id":"4","last_reported":1742991528,"current_range_meters":8800,"station_id":"ce4bh9p2rcd13ifvqec0","pricing_plan_id":"cebpf4jnsgd1na2vs0mg"},{"bike_id":"aec1d2be-86f6-4e60-beb2-de9c370350a2","system_id":"levelo_inurba_marseille","lat":43.30121,"lon":5.37398,"is_reserved":false,"is_disabled":false,"rental_uris":{"android":"levelo://app?vid=aec1d2be-86f6-4e60-beb2-de9c370350a2","ios":"levelo://app?vid=aec1d2be-86f6-4e60-beb2-de9c370350a2"},"vehicle_type_id":"4","last_reported":1742991528,"current_range_meters":8800,"station_id":"ce4bgs92rcd13ifvqcc0","pricing_plan_id":"cebpf4jnsgd1na2vs0mg"},{"bike_id":"ff8246f6-3afa-4f54-9003-24d8387a0e12","system_id":"levelo_inurba_marseille","lat":43.27062,"lon":5.40254,"is_reserved":false,"is_disabled":false,"rental_uris":{"android":"levelo://app?vid=ff8246f6-3afa-4f54-9003-24d8387a0e12","ios":"levelo://app?vid=ff8246f6-3afa-4f54-9003-24d8387a0e12"},"vehicle_type_id":"4","last_reported":1742991528,"current_range_meters":8800,"station_id":"ce4bhk92rcd13ifvqgc0","pricing_plan_id":"cebpf4jnsgd1na2vs0mg"},{"bike_id":"d3664ec0-1481-458d-8cdf-4ce6d8553249","system_id":"levelo_inurba_marseille","lat":43.28258,"lon":5.3507,"is_reserved":false,"is_disabled":false,"rental_uris":{"android":"levelo://app?vid=d3664ec0-1481-458d-8cdf-4ce6d8553249","ios":"levelo://app?vid=d3664ec0-1481-458d-8cdf-4ce6d8553249"},"vehicle_type_id":"4","last_reported":1742991528,"current_range_meters":8800,"station_id":"ce4bhbp2rcd13ifvqerg","pricing_plan_id":"cebpf4jnsgd1na2vs0mg"},{"bike_id":"494edb5c-8886-472a-b4b2-0033adc0ccbd","system_id":"levelo_inurba_marseille","lat":43.23186,"lon":5.39983,"is_reserved":false,"is_disabled":false,"rental_uris":{"android":"levelo://app?vid=494edb5c-8886-472a-b4b2-0033adc0ccbd","ios":"levelo://app?vid=494edb5c-8886-472a-b4b2-0033adc0ccbd"},"vehicle_type_id":"4","last_reported":1742991528,"current_range_meters":8800,"station_id":"ce4bhn12rcd13ifvqgqg","pricing_plan_id":"cebpf4jnsgd1na2vs0mg"},{"bike_id":"81e9f135-1b75-417c-af09-81a6069a3f51","system_id":"levelo_inurba_marseille","lat":43.26522,"lon":5.39484,"is_reserved":false,"is_disabled":false,"rental_uris":{"android":"levelo://app?vid=81e9f135-1b75-417c-af09-81a6069a3f51","ios":"levelo://app?vid=81e9f135-1b75-417c-af09-81a6069a3f51"},"vehicle_type_id":"4","last_reported":1742991528,"current_range_meters":8800,"station_id":"","pricing_plan_id":"cebpf4jnsgd1na2vs0mg"},{"bike_id":"ffaf6716-09fd-4ee2-be14-fe7fd975c6bd","system_id":"levelo_inurba_marseille","lat":43.27371,"lon":5.36262,"is_reserved":false,"is_disabled":false,"rental_uris":{"android":"levelo://app?vid=ffaf6716-09fd-4ee2-be14-fe7fd975c6bd","ios":"levelo://app?vid=ffaf6716-09fd-4ee2-be14-fe7fd975c6bd"},"vehicle_type_id":"4","last_reported":1742991528,"current_range_meters":9200,"station_id":"ce4bhbh2rcd13ifvqeo0","pricing_plan_id":"cebpf4jnsgd1na2vs0mg"},{"bike_id":"e5fce1cf-8504-472f-9423-3deff9361685","system_id":"levelo_inurba_marseille","lat":43.2841,"lon":5.34985,"is_reserved":false,"is_disabled":false,"rental_uris":{"android":"levelo://app?vid=e5fce1cf-8504-472f-9423-3deff9361685","ios":"levelo://app?vid=e5fce1cf-8504-472f-9423-3deff9361685"},"vehicle_type_id":"4","last_reported":1742991528,"current_range_meters":9200,"station_id":"ce4bhbh2rcd13ifvqepg","pricing_plan_id":"cebpf4jnsgd1na2vs0mg"},{"bike_id":"d0d17579-3cc2-4636-a736-ff0e78e57b2c","system_id":"levelo_inurba_marseille","lat":43.243903,"lon":5.370589,"is_reserved":false,"is_disabled":false,"rental_uris":{"android":"levelo://app?vid=d0d17579-3cc2-4636-a736-ff0e78e57b2c","ios":"levelo://app?vid=d0d17579-3cc2-4636-a736-ff0e78e57b2c"},"vehicle_type_id":"4","last_reported":1742991528,"current_range_meters":9200,"station_id":"ce4bhhh2rcd13ifvqfk0","pricing_plan_id":"cebpf4jnsgd1na2vs0mg"},{"bike_id":"ce955fe5-fdee-461e-9052-fdb1028439f4","system_id":"levelo_inurba_marseille","lat":43.28616,"lon":5.3511,"is_reserved":false,"is_disabled":false,"rental_uris":{"android":"levelo://app?vid=ce955fe5-fdee-461e-9052-fdb1028439f4","ios":"levelo://app?vid=ce955fe5-fdee-461e-9052-fdb1028439f4"},"vehicle_type_id":"4","last_reported":1742991528,"current_range_meters":9200,"station_id":"ce4bhch2rcd13ifvqeug","pricing_plan_id":"cebpf4jnsgd1na2vs0mg"},{"bike_id":"3de42e2e-a603-4059-9279-2c8d680ab946","system_id":"levelo_inurba_marseille","lat":43.24981,"lon":5.38953,"is_reserved":false,"is_disabled":false,"rental_uris":{"android":"levelo://app?vid=3de42e2e-a603-4059-9279-2c8d680ab946","ios":"levelo://app?vid=3de42e2e-a603-4059-9279-2c8d680ab946"},"vehicle_type_id":"4","last_reported":1742991528,"current_range_meters":9200,"station_id":"ce4bhgp2rcd13ifvqfd0","pricing_plan_id":"cebpf4jnsgd1na2vs0mg"},{"bike_id":"59b9c35c-d2ae-4cc6-83a7-1b0aafb9cab9","system_id":"levelo_inurba_marseille","lat":43.30253,"lon":5.4006,"is_reserved":false,"is_disabled":false,"rental_uris":{"android":"levelo://app?vid=59b9c35c-d2ae-4cc6-83a7-1b0aafb9cab9","ios":"levelo://app?vid=59b9c35c-d2ae-4cc6-83a7-1b0aafb9cab9"},"vehicle_type_id":"4","last_reported":1742991528,"current_range_meters":9200,"station_id":"ce4bgvh2rcd13ifvqcs0","pricing_plan_id":"cebpf4jnsgd1na2vs0mg"},{"bike_id":"ee28380f-2566-499f-8ab8-5a75cb1ed72f","system_id":"levelo_inurba_marseille","lat":43.288329,"lon":5.393258,"is_reserved":false,"is_disabled":true,"rental_uris":{"android":"levelo://app?vid=ee28380f-2566-499f-8ab8-5a75cb1ed72f","ios":"levelo://app?vid=ee28380f-2566-499f-8ab8-5a75cb1ed72f"},"vehicle_type_id":"4","last_reported":1742991528,"current_range_meters":9200,"station_id":"","pricing_plan_id":"cebpf4jnsgd1na2vs0mg"},{"bike_id":"4fb2f98f-f413-4758-8955-bb1720f5cdcf","system_id":"levelo_inurba_marseille","lat":43.27913,"lon":5.39585,"is_reserved":false,"is_disabled":false,"rental_uris":{"android":"levelo://app?vid=4fb2f98f-f413-4758-8955-bb1720f5cdcf","ios":"levelo://app?vid=4fb2f98f-f413-4758-8955-bb1720f5cdcf"},"vehicle_type_id":"4","last_reported":1742991528,"current_range_meters":9200,"station_id":"ce4bhf92rcd13ifvqf40","pricing_plan_id":"cebpf4jnsgd1na2vs0mg"},{"bike_id":"6014c8c5-d179-414f-ba5e-6122a0b3b802","system_id":"levelo_inurba_marseille","lat":43.23151,"lon":5.43701,"is_reserved":false,"is_disabled":false,"rental_uris":{"android":"levelo://app?vid=6014c8c5-d179-414f-ba5e-6122a0b3b802","ios":"levelo://app?vid=6014c8c5-d179-414f-ba5e-6122a0b3b802"},"vehicle_type_id":"4","last_reported":1742991528,"current_range_meters":9200,"station_id":"ce4bhmp2rcd13ifvqgog","pricing_plan_id":"cebpf4jnsgd1na2vs0mg"},{"bike_id":"ef10197c-a12d-4572-9fbb-b2c0fcd4748d","system_id":"levelo_inurba_marseille","lat":43.28108,"lon":5.37833,"is_reserved":false,"is_disabled":false,"rental_uris":{"android":"levelo://app?vid=ef10197c-a12d-4572-9fbb-b2c0fcd4748d","ios":"levelo://app?vid=ef10197c-a12d-4572-9fbb-b2c0fcd4748d"},"vehicle_type_id":"4","last_reported":1742991528,"current_range_meters":9200,"station_id":"ce4bha12rcd13ifvqee0","pricing_plan_id":"cebpf4jnsgd1na2vs0mg"},{"bike_id":"f70ef874-4b06-4723-88fc-4b31cdc74353","system_id":"levelo_inurba_marseille","lat":43.23185,"lon":5.39989,"is_reserved":false,"is_disabled":false,"rental_uris":{"android":"levelo://app?vid=f70ef874-4b06-4723-88fc-4b31cdc74353","ios":"levelo://app?vid=f70ef874-4b06-4723-88fc-4b31cdc74353"},"vehicle_type_id":"4","last_reported":1742991528,"current_range_meters":9600,"station_id":"ce4bhn12rcd13ifvqgqg","pricing_plan_id":"cebpf4jnsgd1na2vs0mg"},{"bike_id":"de348bc8-358e-428b-8ad7-4bf54bd71853","system_id":"levelo_inurba_marseille","lat":43.30611,"lon":5.37235,"is_reserved":false,"is_disabled":false,"rental_uris":{"android":"levelo://app?vid=de348bc8-358e-428b-8ad7-4bf54bd71853","ios":"levelo://app?vid=de348bc8-358e-428b-8ad7-4bf54bd71853"},"vehicle_type_id":"4","last_reported":1742991528,"current_range_meters":9600,"station_id":"ce4bgqh2rcd13ifvqc4g","pricing_plan_id":"cebpf4jnsgd1na2vs0mg"},{"bike_id":"5729a4c1-259a-4457-af5c-386b4ba016fe","system_id":"levelo_inurba_marseille","lat":43.267848,"lon":5.394201,"is_reserved":false,"is_disabled":false,"rental_uris":{"android":"levelo://app?vid=5729a4c1-259a-4457-af5c-386b4ba016fe","ios":"levelo://app?vid=5729a4c1-259a-4457-af5c-386b4ba016fe"},"vehicle_type_id":"4","last_reported":1742991528,"current_range_meters":9600,"station_id":"ce4bhh12rcd13ifvqfg0","pricing_plan_id":"cebpf4jnsgd1na2vs0mg"},{"bike_id":"04bf78a2-aefc-489e-b9bc-b4b82d9e0fc4","system_id":"levelo_inurba_marseille","lat":43.25111,"lon":5.40319,"is_reserved":false,"is_disabled":false,"rental_uris":{"android":"levelo://app?vid=04bf78a2-aefc-489e-b9bc-b4b82d9e0fc4","ios":"levelo://app?vid=04bf78a2-aefc-489e-b9bc-b4b82d9e0fc4"},"vehicle_type_id":"4","last_reported":1742991528,"current_range_meters":9600,"station_id":"ce4bhlh2rcd13ifvqgig","pricing_plan_id":"cebpf4jnsgd1na2vs0mg"},{"bike_id":"61c79b34-50ea-4612-8bab-fd54e2d0592c","system_id":"levelo_inurba_marseille","lat":43.317188,"lon":5.423921,"is_reserved":false,"is_disabled":false,"rental_uris":{"android":"levelo://app?vid=61c79b34-50ea-4612-8bab-fd54e2d0592c","ios":"levelo://app?vid=61c79b34-50ea-4612-8bab-fd54e2d0592c"},"vehicle_type_id":"4","last_reported":1742991528,"current_range_meters":9600,"station_id":"ce4bhp92rcd13ifvqhbg","pricing_plan_id":"cebpf4jnsgd1na2vs0mg"},{"bike_id":"efbcaaa6-b11f-400a-9240-cc4b1a3b098a","system_id":"levelo_inurba_marseille","lat":43.30596,"lon":5.39337,"is_reserved":false,"is_disabled":true,"rental_uris":{"android":"levelo://app?vid=efbcaaa6-b11f-400a-9240-cc4b1a3b098a","ios":"levelo://app?vid=efbcaaa6-b11f-400a-9240-cc4b1a3b098a"},"vehicle_type_id":"4","last_reported":1742991528,"current_range_meters":9600,"station_id":"ce4bh0p2rcd13ifvqd80","pricing_plan_id":"cebpf4jnsgd1na2vs0mg"},{"bike_id":"bab1cd05-eed1-407d-9518-51f64e53d9e0","system_id":"levelo_inurba_marseille","lat":43.2619,"lon":5.37446,"is_reserved":false,"is_disabled":false,"rental_uris":{"android":"levelo://app?vid=bab1cd05-eed1-407d-9518-51f64e53d9e0","ios":"levelo://app?vid=bab1cd05-eed1-407d-9518-51f64e53d9e0"},"vehicle_type_id":"4","last_reported":1742991528,"current_range_meters":9600,"station_id":"ce4bhgp2rcd13ifvqfc0","pricing_plan_id":"cebpf4jnsgd1na2vs0mg"},{"bike_id":"8de7059d-00de-4eed-a842-00ac61b0e1a8","system_id":"levelo_inurba_marseille","lat":43.29592,"lon":5.38086,"is_reserved":false,"is_disabled":true,"rental_uris":{"android":"levelo://app?vid=8de7059d-00de-4eed-a842-00ac61b0e1a8","ios":"levelo://app?vid=8de7059d-00de-4eed-a842-00ac61b0e1a8"},"vehicle_type_id":"4","last_reported":1742991528,"current_range_meters":10000,"station_id":"ce4bgl12rcd13ifvqbo0","pricing_plan_id":"cebpf4jnsgd1na2vs0mg"},{"bike_id":"e969a44b-dcb1-4108-a5c5-4497b1c4f4ee","system_id":"levelo_inurba_marseille","lat":43.26932,"lon":5.40258,"is_reserved":false,"is_disabled":false,"rental_uris":{"android":"levelo://app?vid=e969a44b-dcb1-4108-a5c5-4497b1c4f4ee","ios":"levelo://app?vid=e969a44b-dcb1-4108-a5c5-4497b1c4f4ee"},"vehicle_type_id":"4","last_reported":1742991528,"current_range_meters":10000,"station_id":"cjm6bp8fraef2m0cb0m0","pricing_plan_id":"cebpf4jnsgd1na2vs0mg"},{"bike_id":"8e1b69fe-38a9-404e-9145-427fd10d244c","system_id":"levelo_inurba_marseille","lat":43.28416,"lon":5.34982,"is_reserved":false,"is_disabled":false,"rental_uris":{"android":"levelo://app?vid=8e1b69fe-38a9-404e-9145-427fd10d244c","ios":"levelo://app?vid=8e1b69fe-38a9-404e-9145-427fd10d244c"},"vehicle_type_id":"4","last_reported":1742991528,"current_range_meters":10000,"station_id":"ce4bhbh2rcd13ifvqepg","pricing_plan_id":"cebpf4jnsgd1na2vs0mg"},{"bike_id":"2e937e50-8cbb-4e6b-ad1e-da2a6ed9f8c3","system_id":"levelo_inurba_marseille","lat":43.28271,"lon":5.35074,"is_reserved":false,"is_disabled":false,"rental_uris":{"android":"levelo://app?vid=2e937e50-8cbb-4e6b-ad1e-da2a6ed9f8c3","ios":"levelo://app?vid=2e937e50-8cbb-4e6b-ad1e-da2a6ed9f8c3"},"vehicle_type_id":"4","last_reported":1742991528,"current_range_meters":10000,"station_id":"ce4bhbp2rcd13ifvqerg","pricing_plan_id":"cebpf4jnsgd1na2vs0mg"},{"bike_id":"67a28f43-4b9e-4544-900a-f63a0d2983dd","system_id":"levelo_inurba_marseille","lat":43.257263,"lon":5.41109,"is_reserved":false,"is_disabled":false,"rental_uris":{"android":"levelo://app?vid=67a28f43-4b9e-4544-900a-f63a0d2983dd","ios":"levelo://app?vid=67a28f43-4b9e-4544-900a-f63a0d2983dd"},"vehicle_type_id":"4","last_reported":1742991528,"current_range_meters":10000,"station_id":"ce4bhkp2rcd13ifvqgd0","pricing_plan_id":"cebpf4jnsgd1na2vs0mg"},{"bike_id":"8a9602e7-e6f2-4dac-845f-cea224e49dd5","system_id":"levelo_inurba_marseille","lat":43.23067,"lon":5.35495,"is_reserved":false,"is_disabled":false,"rental_uris":{"android":"levelo://app?vid=8a9602e7-e6f2-4dac-845f-cea224e49dd5","ios":"levelo://app?vid=8a9602e7-e6f2-4dac-845f-cea224e49dd5"},"vehicle_type_id":"4","last_reported":1742991528,"current_range_meters":10000,"station_id":"cpo3342slgdg3j2ifvpg","pricing_plan_id":"cebpf4jnsgd1na2vs0mg"},{"bike_id":"01cbffb0-3fb0-4769-96f8-4c2dd20b8277","system_id":"levelo_inurba_marseille","lat":43.28529,"lon":5.40565,"is_reserved":false,"is_disabled":true,"rental_uris":{"android":"levelo://app?vid=01cbffb0-3fb0-4769-96f8-4c2dd20b8277","ios":"levelo://app?vid=01cbffb0-3fb0-4769-96f8-4c2dd20b8277"},"vehicle_type_id":"4","last_reported":1742991528,"current_range_meters":10000,"station_id":"","pricing_plan_id":"cebpf4jnsgd1na2vs0mg"},{"bike_id":"34ff9dfa-f521-4b06-a88c-c4e4d9d74f39","system_id":"levelo_inurba_marseille","lat":43.27806,"lon":5.4073,"is_reserved":false,"is_disabled":true,"rental_uris":{"android":"levelo://app?vid=34ff9dfa-f521-4b06-a88c-c4e4d9d74f39","ios":"levelo://app?vid=34ff9dfa-f521-4b06-a88c-c4e4d9d74f39"},"vehicle_type_id":"4","last_reported":1742991528,"current_range_meters":10000,"station_id":"ce4bhnh2rcd13ifvqgtg","pricing_plan_id":"cebpf4jnsgd1na2vs0mg"},{"bike_id":"974f5876-effd-44d0-911c-76ea7a107a8c","system_id":"levelo_inurba_marseille","lat":43.33359,"lon":5.35993,"is_reserved":false,"is_disabled":false,"rental_uris":{"android":"levelo://app?vid=974f5876-effd-44d0-911c-76ea7a107a8c","ios":"levelo://app?vid=974f5876-effd-44d0-911c-76ea7a107a8c"},"vehicle_type_id":"4","last_reported":1742991528,"current_range_meters":10000,"station_id":"","pricing_plan_id":"cebpf4jnsgd1na2vs0mg"},{"bike_id":"999c471f-3221-45af-b4d0-2327251c3e9b","system_id":"levelo_inurba_marseille","lat":43.26942,"lon":5.40253,"is_reserved":false,"is_disabled":false,"rental_uris":{"android":"levelo://app?vid=999c471f-3221-45af-b4d0-2327251c3e9b","ios":"levelo://app?vid=999c471f-3221-45af-b4d0-2327251c3e9b"},"vehicle_type_id":"4","last_reported":1742991528,"current_range_meters":10000,"station_id":"cjm6bp8fraef2m0cb0m0","pricing_plan_id":"cebpf4jnsgd1na2vs0mg"},{"bike_id":"9edd6758-f9ac-4a13-97d4-cdecf4140cf8","system_id":"levelo_inurba_marseille","lat":43.279996,"lon":5.400032,"is_reserved":false,"is_disabled":false,"rental_uris":{"android":"levelo://app?vid=9edd6758-f9ac-4a13-97d4-cdecf4140cf8","ios":"levelo://app?vid=9edd6758-f9ac-4a13-97d4-cdecf4140cf8"},"vehicle_type_id":"4","last_reported":1742991528,"current_range_meters":10000,"station_id":"ce4bho92rcd13ifvqh4g","pricing_plan_id":"cebpf4jnsgd1na2vs0mg"},{"bike_id":"748c4205-8a58-446f-95aa-d2a53e185ce9","system_id":"levelo_inurba_marseille","lat":43.31172,"lon":5.38718,"is_reserved":false,"is_disabled":false,"rental_uris":{"android":"levelo://app?vid=748c4205-8a58-446f-95aa-d2a53e185ce9","ios":"levelo://app?vid=748c4205-8a58-446f-95aa-d2a53e185ce9"},"vehicle_type_id":"4","last_reported":1742991528,"current_range_meters":10000,"station_id":"ce4bgv12rcd13ifvqcp0","pricing_plan_id":"cebpf4jnsgd1na2vs0mg"},{"bike_id":"5d2c04b4-328c-4d75-a9ae-ee3b58acb165","system_id":"levelo_inurba_marseille","lat":43.28267,"lon":5.35066,"is_reserved":false,"is_disabled":false,"rental_uris":{"android":"levelo://app?vid=5d2c04b4-328c-4d75-a9ae-ee3b58acb165","ios":"levelo://app?vid=5d2c04b4-328c-4d75-a9ae-ee3b58acb165"},"vehicle_type_id":"4","last_reported":1742991528,"current_range_meters":10800,"station_id":"ce4bhbp2rcd13ifvqerg","pricing_plan_id":"cebpf4jnsgd1na2vs0mg"},{"bike_id":"40aea8ca-b5e5-4267-a1e3-f70f6de3777b","system_id":"levelo_inurba_marseille","lat":43.25005,"lon":5.38932,"is_reserved":false,"is_disabled":false,"rental_uris":{"android":"levelo://app?vid=40aea8ca-b5e5-4267-a1e3-f70f6de3777b","ios":"levelo://app?vid=40aea8ca-b5e5-4267-a1e3-f70f6de3777b"},"vehicle_type_id":"4","last_reported":1742991528,"current_range_meters":10800,"station_id":"ce4bhgp2rcd13ifvqfd0","pricing_plan_id":"cebpf4jnsgd1na2vs0mg"},{"bike_id":"84a7a785-5392-42bc-8088-fb903bcc7f5c","system_id":"levelo_inurba_marseille","lat":43.230737,"lon":5.354879,"is_reserved":false,"is_disabled":false,"rental_uris":{"android":"levelo://app?vid=84a7a785-5392-42bc-8088-fb903bcc7f5c","ios":"levelo://app?vid=84a7a785-5392-42bc-8088-fb903bcc7f5c"},"vehicle_type_id":"4","last_reported":1742991528,"current_range_meters":10800,"station_id":"cpo3342slgdg3j2ifvpg","pricing_plan_id":"cebpf4jnsgd1na2vs0mg"},{"bike_id":"9c31a06b-b971-46ad-8246-1f659e5293f1","system_id":"levelo_inurba_marseille","lat":43.26194,"lon":5.37446,"is_reserved":false,"is_disabled":false,"rental_uris":{"android":"levelo://app?vid=9c31a06b-b971-46ad-8246-1f659e5293f1","ios":"levelo://app?vid=9c31a06b-b971-46ad-8246-1f659e5293f1"},"vehicle_type_id":"4","last_reported":1742991528,"current_range_meters":10800,"station_id":"ce4bhgp2rcd13ifvqfc0","pricing_plan_id":"cebpf4jnsgd1na2vs0mg"},{"bike_id":"5e832fee-0518-4624-80d7-bacdbebfb5a7","system_id":"levelo_inurba_marseille","lat":43.3171,"lon":5.37751,"is_reserved":false,"is_disabled":false,"rental_uris":{"android":"levelo://app?vid=5e832fee-0518-4624-80d7-bacdbebfb5a7","ios":"levelo://app?vid=5e832fee-0518-4624-80d7-bacdbebfb5a7"},"vehicle_type_id":"4","last_reported":1742991528,"current_range_meters":10800,"station_id":"ce4bgth2rcd13ifvqch0","pricing_plan_id":"cebpf4jnsgd1na2vs0mg"},{"bike_id":"82219511-549c-4b63-baf5-ff8405cca9d7","system_id":"levelo_inurba_marseille","lat":43.31751,"lon":5.43702,"is_reserved":false,"is_disabled":false,"rental_uris":{"android":"levelo://app?vid=82219511-549c-4b63-baf5-ff8405cca9d7","ios":"levelo://app?vid=82219511-549c-4b63-baf5-ff8405cca9d7"},"vehicle_type_id":"4","last_reported":1742991528,"current_range_meters":10800,"station_id":"ce4bhp92rcd13ifvqhcg","pricing_plan_id":"cebpf4jnsgd1na2vs0mg"},{"bike_id":"dd3c2c21-8058-4ad2-bb2d-1b89c01c402f","system_id":"levelo_inurba_marseille","lat":43.30498,"lon":5.36552,"is_reserved":false,"is_disabled":false,"rental_uris":{"android":"levelo://app?vid=dd3c2c21-8058-4ad2-bb2d-1b89c01c402f","ios":"levelo://app?vid=dd3c2c21-8058-4ad2-bb2d-1b89c01c402f"},"vehicle_type_id":"4","last_reported":1742991528,"current_range_meters":10800,"station_id":"","pricing_plan_id":"cebpf4jnsgd1na2vs0mg"},{"bike_id":"2349ea78-e5ff-44c1-8a9d-5755df83b4b0","system_id":"levelo_inurba_marseille","lat":43.28128,"lon":5.42693,"is_reserved":false,"is_disabled":false,"rental_uris":{"android":"levelo://app?vid=2349ea78-e5ff-44c1-8a9d-5755df83b4b0","ios":"levelo://app?vid=2349ea78-e5ff-44c1-8a9d-5755df83b4b0"},"vehicle_type_id":"4","last_reported":1742991528,"current_range_meters":10800,"station_id":"","pricing_plan_id":"cebpf4jnsgd1na2vs0mg"},{"bike_id":"ba6a46e1-2737-444a-9c29-0a44b16eab2c","system_id":"levelo_inurba_marseille","lat":43.30559,"lon":5.36502,"is_reserved":false,"is_disabled":false,"rental_uris":{"android":"levelo://app?vid=ba6a46e1-2737-444a-9c29-0a44b16eab2c","ios":"levelo://app?vid=ba6a46e1-2737-444a-9c29-0a44b16eab2c"},"vehicle_type_id":"4","last_reported":1742991528,"current_range_meters":10800,"station_id":"ce4bgs12rcd13ifvqcag","pricing_plan_id":"cebpf4jnsgd1na2vs0mg"},{"bike_id":"b418d168-f2ad-4db0-9a6f-e88743ba94c8","system_id":"levelo_inurba_marseille","lat":43.29263,"lon":5.37616,"is_reserved":false,"is_disabled":true,"rental_uris":{"android":"levelo://app?vid=b418d168-f2ad-4db0-9a6f-e88743ba94c8","ios":"levelo://app?vid=b418d168-f2ad-4db0-9a6f-e88743ba94c8"},"vehicle_type_id":"4","last_reported":1742991528,"current_range_meters":11200,"station_id":"ce4bgi12rcd13ifvqb80","pricing_plan_id":"cebpf4jnsgd1na2vs0mg"},{"bike_id":"d1f0bfd4-c951-4e4e-b8ea-91fef0511b94","system_id":"levelo_inurba_marseille","lat":43.32357,"lon":5.36764,"is_reserved":false,"is_disabled":false,"rental_uris":{"android":"levelo://app?vid=d1f0bfd4-c951-4e4e-b8ea-91fef0511b94","ios":"levelo://app?vid=d1f0bfd4-c951-4e4e-b8ea-91fef0511b94"},"vehicle_type_id":"4","last_reported":1742991528,"current_range_meters":11200,"station_id":"ce4bhsh2rcd13ifvqi2g","pricing_plan_id":"cebpf4jnsgd1na2vs0mg"},{"bike_id":"589f1146-20bc-4a88-9ab7-60ee275b3000","system_id":"levelo_inurba_marseille","lat":43.29744,"lon":5.38043,"is_reserved":false,"is_disabled":false,"rental_uris":{"android":"levelo://app?vid=589f1146-20bc-4a88-9ab7-60ee275b3000","ios":"levelo://app?vid=589f1146-20bc-4a88-9ab7-60ee275b3000"},"vehicle_type_id":"4","last_reported":1742991528,"current_range_meters":11200,"station_id":"","pricing_plan_id":"cebpf4jnsgd1na2vs0mg"},{"bike_id":"09a2833f-64ea-4550-8dcc-0e74c47110a9","system_id":"levelo_inurba_marseille","lat":43.29895,"lon":5.43671,"is_reserved":false,"is_disabled":false,"rental_uris":{"android":"levelo://app?vid=09a2833f-64ea-4550-8dcc-0e74c47110a9","ios":"levelo://app?vid=09a2833f-64ea-4550-8dcc-0e74c47110a9"},"vehicle_type_id":"4","last_reported":1742991528,"current_range_meters":11200,"station_id":"ce4bhpp2rcd13ifvqhfg","pricing_plan_id":"cebpf4jnsgd1na2vs0mg"},{"bike_id":"a21e7670-6927-4a9c-b64a-c6977432fd91","system_id":"levelo_inurba_marseille","lat":43.28941,"lon":5.36628,"is_reserved":false,"is_disabled":false,"rental_uris":{"android":"levelo://app?vid=a21e7670-6927-4a9c-b64a-c6977432fd91","ios":"levelo://app?vid=a21e7670-6927-4a9c-b64a-c6977432fd91"},"vehicle_type_id":"4","last_reported":1742991528,"current_range_meters":11200,"station_id":"ce4bhap2rcd13ifvqek0","pricing_plan_id":"cebpf4jnsgd1na2vs0mg"},{"bike_id":"d45a2f6c-957b-46cd-bd89-ee8e58d1536e","system_id":"levelo_inurba_marseille","lat":43.27746,"lon":5.40802,"is_reserved":false,"is_disabled":false,"rental_uris":{"android":"levelo://app?vid=d45a2f6c-957b-46cd-bd89-ee8e58d1536e","ios":"levelo://app?vid=d45a2f6c-957b-46cd-bd89-ee8e58d1536e"},"vehicle_type_id":"4","last_reported":1742991528,"current_range_meters":11200,"station_id":"","pricing_plan_id":"cebpf4jnsgd1na2vs0mg"},{"bike_id":"e3afe5d8-8846-4a46-b89a-acb7b0094b2c","system_id":"levelo_inurba_marseille","lat":43.25927,"lon":5.40928,"is_reserved":false,"is_disabled":false,"rental_uris":{"android":"levelo://app?vid=e3afe5d8-8846-4a46-b89a-acb7b0094b2c","ios":"levelo://app?vid=e3afe5d8-8846-4a46-b89a-acb7b0094b2c"},"vehicle_type_id":"4","last_reported":1742991528,"current_range_meters":11200,"station_id":"ce4bhm92rcd13ifvqglg","pricing_plan_id":"cebpf4jnsgd1na2vs0mg"},{"bike_id":"6881bda6-012f-492f-930c-41db1013898a","system_id":"levelo_inurba_marseille","lat":43.29203,"lon":5.35882,"is_reserved":false,"is_disabled":false,"rental_uris":{"android":"levelo://app?vid=6881bda6-012f-492f-930c-41db1013898a","ios":"levelo://app?vid=6881bda6-012f-492f-930c-41db1013898a"},"vehicle_type_id":"4","last_reported":1742991528,"current_range_meters":11200,"station_id":"ce4bhb92rcd13ifvqen0","pricing_plan_id":"cebpf4jnsgd1na2vs0mg"},{"bike_id":"6618517b-c5cf-42e3-9188-476eb0a6cf4b","system_id":"levelo_inurba_marseille","lat":43.2885,"lon":5.35849,"is_reserved":false,"is_disabled":false,"rental_uris":{"android":"levelo://app?vid=6618517b-c5cf-42e3-9188-476eb0a6cf4b","ios":"levelo://app?vid=6618517b-c5cf-42e3-9188-476eb0a6cf4b"},"vehicle_type_id":"4","last_reported":1742991528,"current_range_meters":11200,"station_id":"ce4bhb12rcd13ifvqem0","pricing_plan_id":"cebpf4jnsgd1na2vs0mg"},{"bike_id":"a3581d99-7175-4d7f-ae46-7197148d1b7a","system_id":"levelo_inurba_marseille","lat":43.28424,"lon":5.34985,"is_reserved":false,"is_disabled":false,"rental_uris":{"android":"levelo://app?vid=a3581d99-7175-4d7f-ae46-7197148d1b7a","ios":"levelo://app?vid=a3581d99-7175-4d7f-ae46-7197148d1b7a"},"vehicle_type_id":"4","last_reported":1742991528,"current_range_meters":11200,"station_id":"ce4bhbh2rcd13ifvqepg","pricing_plan_id":"cebpf4jnsgd1na2vs0mg"},{"bike_id":"41a3dd54-69c8-4a8c-8cb4-82f3648e8acc","system_id":"levelo_inurba_marseille","lat":43.273666,"lon":5.362482,"is_reserved":false,"is_disabled":false,"rental_uris":{"android":"levelo://app?vid=41a3dd54-69c8-4a8c-8cb4-82f3648e8acc","ios":"levelo://app?vid=41a3dd54-69c8-4a8c-8cb4-82f3648e8acc"},"vehicle_type_id":"4","last_reported":1742991528,"current_range_meters":11200,"station_id":"ce4bhbh2rcd13ifvqeo0","pricing_plan_id":"cebpf4jnsgd1na2vs0mg"},{"bike_id":"42c46e69-8825-4881-b438-a13867fb15c8","system_id":"levelo_inurba_marseille","lat":43.28003,"lon":5.40003,"is_reserved":false,"is_disabled":false,"rental_uris":{"android":"levelo://app?vid=42c46e69-8825-4881-b438-a13867fb15c8","ios":"levelo://app?vid=42c46e69-8825-4881-b438-a13867fb15c8"},"vehicle_type_id":"4","last_reported":1742991528,"current_range_meters":11200,"station_id":"ce4bho92rcd13ifvqh4g","pricing_plan_id":"cebpf4jnsgd1na2vs0mg"},{"bike_id":"e253976d-96c1-43f6-87f8-23de98cf19f1","system_id":"levelo_inurba_marseille","lat":43.30457,"lon":5.37905,"is_reserved":false,"is_disabled":false,"rental_uris":{"android":"levelo://app?vid=e253976d-96c1-43f6-87f8-23de98cf19f1","ios":"levelo://app?vid=e253976d-96c1-43f6-87f8-23de98cf19f1"},"vehicle_type_id":"4","last_reported":1742991528,"current_range_meters":11600,"station_id":"ce4bgup2rcd13ifvqcn0","pricing_plan_id":"cebpf4jnsgd1na2vs0mg"},{"bike_id":"ef76315d-6f75-41fa-adf4-789f5dc0bd50","system_id":"levelo_inurba_marseille","lat":43.23152,"lon":5.43724,"is_reserved":false,"is_disabled":false,"rental_uris":{"android":"levelo://app?vid=ef76315d-6f75-41fa-adf4-789f5dc0bd50","ios":"levelo://app?vid=ef76315d-6f75-41fa-adf4-789f5dc0bd50"},"vehicle_type_id":"4","last_reported":1742991528,"current_range_meters":11600,"station_id":"ce4bhmp2rcd13ifvqgog","pricing_plan_id":"cebpf4jnsgd1na2vs0mg"},{"bike_id":"d9cecafa-1f2a-4832-afe7-631fcc6f0a18","system_id":"levelo_inurba_marseille","lat":43.27807,"lon":5.40706,"is_reserved":false,"is_disabled":false,"rental_uris":{"android":"levelo://app?vid=d9cecafa-1f2a-4832-afe7-631fcc6f0a18","ios":"levelo://app?vid=d9cecafa-1f2a-4832-afe7-631fcc6f0a18"},"vehicle_type_id":"4","last_reported":1742991528,"current_range_meters":11200,"station_id":"ce4bhnh2rcd13ifvqgtg","pricing_plan_id":"cebpf4jnsgd1na2vs0mg"},{"bike_id":"c31d62d8-98e3-4257-bbfa-152eefb747f9","system_id":"levelo_inurba_marseille","lat":43.278072,"lon":5.407069,"is_reserved":false,"is_disabled":false,"rental_uris":{"android":"levelo://app?vid=c31d62d8-98e3-4257-bbfa-152eefb747f9","ios":"levelo://app?vid=c31d62d8-98e3-4257-bbfa-152eefb747f9"},"vehicle_type_id":"4","last_reported":1742991528,"current_range_meters":11600,"station_id":"ce4bhnh2rcd13ifvqgtg","pricing_plan_id":"cebpf4jnsgd1na2vs0mg"},{"bike_id":"5bbfe0fc-2b0e-46ed-9a77-d73da147497b","system_id":"levelo_inurba_marseille","lat":43.25578,"lon":5.38235,"is_reserved":false,"is_disabled":false,"rental_uris":{"android":"levelo://app?vid=5bbfe0fc-2b0e-46ed-9a77-d73da147497b","ios":"levelo://app?vid=5bbfe0fc-2b0e-46ed-9a77-d73da147497b"},"vehicle_type_id":"4","last_reported":1742991528,"current_range_meters":11600,"station_id":"ce4bhih2rcd13ifvqfs0","pricing_plan_id":"cebpf4jnsgd1na2vs0mg"},{"bike_id":"90eb7e27-4960-4325-80fc-ae2a1cce4035","system_id":"levelo_inurba_marseille","lat":43.28001,"lon":5.40011,"is_reserved":false,"is_disabled":false,"rental_uris":{"android":"levelo://app?vid=90eb7e27-4960-4325-80fc-ae2a1cce4035","ios":"levelo://app?vid=90eb7e27-4960-4325-80fc-ae2a1cce4035"},"vehicle_type_id":"4","last_reported":1742991528,"current_range_meters":11600,"station_id":"ce4bho92rcd13ifvqh4g","pricing_plan_id":"cebpf4jnsgd1na2vs0mg"},{"bike_id":"543a81a8-0b22-4d9b-9e1e-8bfaa6da2058","system_id":"levelo_inurba_marseille","lat":43.26558,"lon":5.37282,"is_reserved":false,"is_disabled":false,"rental_uris":{"android":"levelo://app?vid=543a81a8-0b22-4d9b-9e1e-8bfaa6da2058","ios":"levelo://app?vid=543a81a8-0b22-4d9b-9e1e-8bfaa6da2058"},"vehicle_type_id":"4","last_reported":1742991528,"current_range_meters":12000,"station_id":"ce4bhg12rcd13ifvqf70","pricing_plan_id":"cebpf4jnsgd1na2vs0mg"},{"bike_id":"ea94039c-6f66-4d54-81fc-f2e5b61102d0","system_id":"levelo_inurba_marseille","lat":43.290039,"lon":5.356074,"is_reserved":false,"is_disabled":false,"rental_uris":{"android":"levelo://app?vid=ea94039c-6f66-4d54-81fc-f2e5b61102d0","ios":"levelo://app?vid=ea94039c-6f66-4d54-81fc-f2e5b61102d0"},"vehicle_type_id":"4","last_reported":1742991528,"current_range_meters":12000,"station_id":"ce4bhb92rcd13ifvqen0","pricing_plan_id":"cebpf4jnsgd1na2vs0mg"},{"bike_id":"7e4b498a-163b-450a-94ab-936e7be9c83c","system_id":"levelo_inurba_marseille","lat":43.32369,"lon":5.36759,"is_reserved":false,"is_disabled":false,"rental_uris":{"android":"levelo://app?vid=7e4b498a-163b-450a-94ab-936e7be9c83c","ios":"levelo://app?vid=7e4b498a-163b-450a-94ab-936e7be9c83c"},"vehicle_type_id":"4","last_reported":1742991528,"current_range_meters":12000,"station_id":"ce4bhsh2rcd13ifvqi2g","pricing_plan_id":"cebpf4jnsgd1na2vs0mg"},{"bike_id":"ce6fb305-2ce9-42a2-a222-e7a3d9e1b14e","system_id":"levelo_inurba_marseille","lat":43.33041,"lon":5.39037,"is_reserved":false,"is_disabled":false,"rental_uris":{"android":"levelo://app?vid=ce6fb305-2ce9-42a2-a222-e7a3d9e1b14e","ios":"levelo://app?vid=ce6fb305-2ce9-42a2-a222-e7a3d9e1b14e"},"vehicle_type_id":"4","last_reported":1742991528,"current_range_meters":12000,"station_id":"ce4bhr92rcd13ifvqhrg","pricing_plan_id":"cebpf4jnsgd1na2vs0mg"},{"bike_id":"548e7988-9633-4ab3-b46f-3fc69b729b1f","system_id":"levelo_inurba_marseille","lat":43.31481,"lon":5.37315,"is_reserved":false,"is_disabled":false,"rental_uris":{"android":"levelo://app?vid=548e7988-9633-4ab3-b46f-3fc69b729b1f","ios":"levelo://app?vid=548e7988-9633-4ab3-b46f-3fc69b729b1f"},"vehicle_type_id":"4","last_reported":1742991528,"current_range_meters":11600,"station_id":"ce4bgt12rcd13ifvqcd0","pricing_plan_id":"cebpf4jnsgd1na2vs0mg"},{"bike_id":"0eea930f-64bd-4ad0-beda-4f500e092fa7","system_id":"levelo_inurba_marseille","lat":43.27815,"lon":5.40712,"is_reserved":false,"is_disabled":false,"rental_uris":{"android":"levelo://app?vid=0eea930f-64bd-4ad0-beda-4f500e092fa7","ios":"levelo://app?vid=0eea930f-64bd-4ad0-beda-4f500e092fa7"},"vehicle_type_id":"4","last_reported":1742991528,"current_range_meters":12000,"station_id":"ce4bhnh2rcd13ifvqgtg","pricing_plan_id":"cebpf4jnsgd1na2vs0mg"},{"bike_id":"376923d1-9fe3-4023-89f0-93b5c5d1a265","system_id":"levelo_inurba_marseille","lat":43.27993,"lon":5.40027,"is_reserved":false,"is_disabled":false,"rental_uris":{"android":"levelo://app?vid=376923d1-9fe3-4023-89f0-93b5c5d1a265","ios":"levelo://app?vid=376923d1-9fe3-4023-89f0-93b5c5d1a265"},"vehicle_type_id":"4","last_reported":1742991528,"current_range_meters":11600,"station_id":"ce4bho92rcd13ifvqh4g","pricing_plan_id":"cebpf4jnsgd1na2vs0mg"},{"bike_id":"ccdfac36-22da-4f2d-bd50-7bf147cc0fff","system_id":"levelo_inurba_marseille","lat":43.29902,"lon":5.43644,"is_reserved":false,"is_disabled":false,"rental_uris":{"android":"levelo://app?vid=ccdfac36-22da-4f2d-bd50-7bf147cc0fff","ios":"levelo://app?vid=ccdfac36-22da-4f2d-bd50-7bf147cc0fff"},"vehicle_type_id":"4","last_reported":1742991528,"current_range_meters":12400,"station_id":"ce4bhpp2rcd13ifvqhfg","pricing_plan_id":"cebpf4jnsgd1na2vs0mg"},{"bike_id":"b82427ec-0f7c-4c99-b2ac-04feed52e333","system_id":"levelo_inurba_marseille","lat":43.32724,"lon":5.3924,"is_reserved":false,"is_disabled":false,"rental_uris":{"android":"levelo://app?vid=b82427ec-0f7c-4c99-b2ac-04feed52e333","ios":"levelo://app?vid=b82427ec-0f7c-4c99-b2ac-04feed52e333"},"vehicle_type_id":"4","last_reported":1742991528,"current_range_meters":12400,"station_id":"","pricing_plan_id":"cebpf4jnsgd1na2vs0mg"},{"bike_id":"32801816-2201-4874-aadf-00bf1eb21f17","system_id":"levelo_inurba_marseille","lat":43.24655,"lon":5.381717,"is_reserved":false,"is_disabled":false,"rental_uris":{"android":"levelo://app?vid=32801816-2201-4874-aadf-00bf1eb21f17","ios":"levelo://app?vid=32801816-2201-4874-aadf-00bf1eb21f17"},"vehicle_type_id":"4","last_reported":1742991528,"current_range_meters":12400,"station_id":"ce4bhg12rcd13ifvqf60","pricing_plan_id":"cebpf4jnsgd1na2vs0mg"},{"bike_id":"1d386a8e-8d6c-4e60-ab59-c0e85c672baf","system_id":"levelo_inurba_marseille","lat":43.309016,"lon":5.368412,"is_reserved":false,"is_disabled":false,"rental_uris":{"android":"levelo://app?vid=1d386a8e-8d6c-4e60-ab59-c0e85c672baf","ios":"levelo://app?vid=1d386a8e-8d6c-4e60-ab59-c0e85c672baf"},"vehicle_type_id":"4","last_reported":1742991528,"current_range_meters":12400,"station_id":"ce4bgn92rcd13ifvqbvg","pricing_plan_id":"cebpf4jnsgd1na2vs0mg"},{"bike_id":"2623a753-dcde-4ffa-9bf1-3275e6037e7a","system_id":"levelo_inurba_marseille","lat":43.32493,"lon":5.36591,"is_reserved":false,"is_disabled":false,"rental_uris":{"android":"levelo://app?vid=2623a753-dcde-4ffa-9bf1-3275e6037e7a","ios":"levelo://app?vid=2623a753-dcde-4ffa-9bf1-3275e6037e7a"},"vehicle_type_id":"4","last_reported":1742991528,"current_range_meters":12400,"station_id":"ce4bhs12rcd13ifvqhvg","pricing_plan_id":"cebpf4jnsgd1na2vs0mg"},{"bike_id":"1d165c56-236e-4374-8632-8a15f8f79471","system_id":"levelo_inurba_marseille","lat":43.31235,"lon":5.3684,"is_reserved":false,"is_disabled":false,"rental_uris":{"android":"levelo://app?vid=1d165c56-236e-4374-8632-8a15f8f79471","ios":"levelo://app?vid=1d165c56-236e-4374-8632-8a15f8f79471"},"vehicle_type_id":"4","last_reported":1742991528,"current_range_meters":12400,"station_id":"ce4bgl92rcd13ifvqbq0","pricing_plan_id":"cebpf4jnsgd1na2vs0mg"},{"bike_id":"53342180-c148-436a-ad56-1c957642ec6a","system_id":"levelo_inurba_marseille","lat":43.23197,"lon":5.35549,"is_reserved":false,"is_disabled":false,"rental_uris":{"android":"levelo://app?vid=53342180-c148-436a-ad56-1c957642ec6a","ios":"levelo://app?vid=53342180-c148-436a-ad56-1c957642ec6a"},"vehicle_type_id":"4","last_reported":1742991528,"current_range_meters":12400,"station_id":"ce4bhu92rcd13ifvqi70","pricing_plan_id":"cebpf4jnsgd1na2vs0mg"},{"bike_id":"484928c8-8c60-48c3-a758-e3e274268153","system_id":"levelo_inurba_marseille","lat":43.24164,"lon":5.36393,"is_reserved":false,"is_disabled":false,"rental_uris":{"android":"levelo://app?vid=484928c8-8c60-48c3-a758-e3e274268153","ios":"levelo://app?vid=484928c8-8c60-48c3-a758-e3e274268153"},"vehicle_type_id":"4","last_reported":1742991528,"current_range_meters":12400,"station_id":"cpo36qri1sfpv3e86is0","pricing_plan_id":"cebpf4jnsgd1na2vs0mg"},{"bike_id":"d5c4270d-4def-48aa-99a1-67e19a2d11a6","system_id":"levelo_inurba_marseille","lat":43.24164,"lon":5.36399,"is_reserved":false,"is_disabled":false,"rental_uris":{"android":"levelo://app?vid=d5c4270d-4def-48aa-99a1-67e19a2d11a6","ios":"levelo://app?vid=d5c4270d-4def-48aa-99a1-67e19a2d11a6"},"vehicle_type_id":"4","last_reported":1742991528,"current_range_meters":12400,"station_id":"cpo36qri1sfpv3e86is0","pricing_plan_id":"cebpf4jnsgd1na2vs0mg"},{"bike_id":"775b9b74-5c63-4551-8743-c89a1a07df8e","system_id":"levelo_inurba_marseille","lat":43.3054,"lon":5.36725,"is_reserved":false,"is_disabled":false,"rental_uris":{"android":"levelo://app?vid=775b9b74-5c63-4551-8743-c89a1a07df8e","ios":"levelo://app?vid=775b9b74-5c63-4551-8743-c89a1a07df8e"},"vehicle_type_id":"4","last_reported":1742991528,"current_range_meters":12400,"station_id":"ce4bgrp2rcd13ifvqc9g","pricing_plan_id":"cebpf4jnsgd1na2vs0mg"},{"bike_id":"e1286bcb-31ee-4020-bfdf-b33e9a0bfa99","system_id":"levelo_inurba_marseille","lat":43.2467,"lon":5.38174,"is_reserved":false,"is_disabled":false,"rental_uris":{"android":"levelo://app?vid=e1286bcb-31ee-4020-bfdf-b33e9a0bfa99","ios":"levelo://app?vid=e1286bcb-31ee-4020-bfdf-b33e9a0bfa99"},"vehicle_type_id":"4","last_reported":1742991528,"current_range_meters":12400,"station_id":"ce4bhih2rcd13ifvqfr0","pricing_plan_id":"cebpf4jnsgd1na2vs0mg"},{"bike_id":"3d3320c0-48e3-4203-8444-1b84988b9048","system_id":"levelo_inurba_marseille","lat":43.23183,"lon":5.39947,"is_reserved":false,"is_disabled":false,"rental_uris":{"android":"levelo://app?vid=3d3320c0-48e3-4203-8444-1b84988b9048","ios":"levelo://app?vid=3d3320c0-48e3-4203-8444-1b84988b9048"},"vehicle_type_id":"4","last_reported":1742991528,"current_range_meters":12800,"station_id":"ce4bhn12rcd13ifvqgqg","pricing_plan_id":"cebpf4jnsgd1na2vs0mg"},{"bike_id":"9490ab3f-b563-4312-b2ed-009944c7886e","system_id":"levelo_inurba_marseille","lat":43.32473,"lon":5.36604,"is_reserved":false,"is_disabled":false,"rental_uris":{"android":"levelo://app?vid=9490ab3f-b563-4312-b2ed-009944c7886e","ios":"levelo://app?vid=9490ab3f-b563-4312-b2ed-009944c7886e"},"vehicle_type_id":"4","last_reported":1742991528,"current_range_meters":12800,"station_id":"ce4bhs12rcd13ifvqhvg","pricing_plan_id":"cebpf4jnsgd1na2vs0mg"},{"bike_id":"9e4dae27-4c9b-4b7d-bc96-eb2a33a07992","system_id":"levelo_inurba_marseille","lat":43.25931,"lon":5.40938,"is_reserved":false,"is_disabled":false,"rental_uris":{"android":"levelo://app?vid=9e4dae27-4c9b-4b7d-bc96-eb2a33a07992","ios":"levelo://app?vid=9e4dae27-4c9b-4b7d-bc96-eb2a33a07992"},"vehicle_type_id":"4","last_reported":1742991528,"current_range_meters":12800,"station_id":"ce4bhm92rcd13ifvqglg","pricing_plan_id":"cebpf4jnsgd1na2vs0mg"},{"bike_id":"68216cb1-ee47-4ac9-8c58-e7a376ff7071","system_id":"levelo_inurba_marseille","lat":43.23198,"lon":5.35542,"is_reserved":false,"is_disabled":false,"rental_uris":{"android":"levelo://app?vid=68216cb1-ee47-4ac9-8c58-e7a376ff7071","ios":"levelo://app?vid=68216cb1-ee47-4ac9-8c58-e7a376ff7071"},"vehicle_type_id":"4","last_reported":1742991528,"current_range_meters":12800,"station_id":"ce4bhu92rcd13ifvqi70","pricing_plan_id":"cebpf4jnsgd1na2vs0mg"},{"bike_id":"ddb80a09-7364-48e1-b291-527dbdfef5d0","system_id":"levelo_inurba_marseille","lat":43.26812,"lon":5.40249,"is_reserved":false,"is_disabled":false,"rental_uris":{"android":"levelo://app?vid=ddb80a09-7364-48e1-b291-527dbdfef5d0","ios":"levelo://app?vid=ddb80a09-7364-48e1-b291-527dbdfef5d0"},"vehicle_type_id":"4","last_reported":1742991528,"current_range_meters":12800,"station_id":"ce501612rcd8frsf0b60","pricing_plan_id":"cebpf4jnsgd1na2vs0mg"},{"bike_id":"feb02021-c91c-4994-8c83-a0f717e424da","system_id":"levelo_inurba_marseille","lat":43.25016,"lon":5.38914,"is_reserved":false,"is_disabled":false,"rental_uris":{"android":"levelo://app?vid=feb02021-c91c-4994-8c83-a0f717e424da","ios":"levelo://app?vid=feb02021-c91c-4994-8c83-a0f717e424da"},"vehicle_type_id":"4","last_reported":1742991528,"current_range_meters":12800,"station_id":"ce4bhgp2rcd13ifvqfd0","pricing_plan_id":"cebpf4jnsgd1na2vs0mg"},{"bike_id":"5b830359-30b8-45d9-a902-126192112277","system_id":"levelo_inurba_marseille","lat":43.231966,"lon":5.355461,"is_reserved":false,"is_disabled":false,"rental_uris":{"android":"levelo://app?vid=5b830359-30b8-45d9-a902-126192112277","ios":"levelo://app?vid=5b830359-30b8-45d9-a902-126192112277"},"vehicle_type_id":"4","last_reported":1742991528,"current_range_meters":13600,"station_id":"ce4bhu92rcd13ifvqi70","pricing_plan_id":"cebpf4jnsgd1na2vs0mg"},{"bike_id":"68b6e1ae-b980-43e0-a5ca-d57d7b135302","system_id":"levelo_inurba_marseille","lat":43.2721,"lon":5.39179,"is_reserved":false,"is_disabled":false,"rental_uris":{"android":"levelo://app?vid=68b6e1ae-b980-43e0-a5ca-d57d7b135302","ios":"levelo://app?vid=68b6e1ae-b980-43e0-a5ca-d57d7b135302"},"vehicle_type_id":"4","last_reported":1742991528,"current_range_meters":12400,"station_id":"ce4bhhp2rcd13ifvqfm0","pricing_plan_id":"cebpf4jnsgd1na2vs0mg"},{"bike_id":"715d9e74-e33e-4226-8d11-7185f86232f0","system_id":"levelo_inurba_marseille","lat":43.28843,"lon":5.35855,"is_reserved":false,"is_disabled":false,"rental_uris":{"android":"levelo://app?vid=715d9e74-e33e-4226-8d11-7185f86232f0","ios":"levelo://app?vid=715d9e74-e33e-4226-8d11-7185f86232f0"},"vehicle_type_id":"4","last_reported":1742991528,"current_range_meters":13600,"station_id":"ce4bhb12rcd13ifvqem0","pricing_plan_id":"cebpf4jnsgd1na2vs0mg"},{"bike_id":"f1414457-b578-4c46-b2bf-7e89a08e69ff","system_id":"levelo_inurba_marseille","lat":43.30532,"lon":5.36507,"is_reserved":false,"is_disabled":false,"rental_uris":{"android":"levelo://app?vid=f1414457-b578-4c46-b2bf-7e89a08e69ff","ios":"levelo://app?vid=f1414457-b578-4c46-b2bf-7e89a08e69ff"},"vehicle_type_id":"4","last_reported":1742991528,"current_range_meters":13600,"station_id":"","pricing_plan_id":"cebpf4jnsgd1na2vs0mg"},{"bike_id":"68d42813-4eb5-41fe-a58d-c64b32f2b935","system_id":"levelo_inurba_marseille","lat":43.32357,"lon":5.36764,"is_reserved":false,"is_disabled":false,"rental_uris":{"android":"levelo://app?vid=68d42813-4eb5-41fe-a58d-c64b32f2b935","ios":"levelo://app?vid=68d42813-4eb5-41fe-a58d-c64b32f2b935"},"vehicle_type_id":"4","last_reported":1742991528,"current_range_meters":13600,"station_id":"ce4bhsh2rcd13ifvqi2g","pricing_plan_id":"cebpf4jnsgd1na2vs0mg"},{"bike_id":"808e7f31-1906-4aea-870d-fae9bd5bfa99","system_id":"levelo_inurba_marseille","lat":43.2396,"lon":5.36631,"is_reserved":false,"is_disabled":false,"rental_uris":{"android":"levelo://app?vid=808e7f31-1906-4aea-870d-fae9bd5bfa99","ios":"levelo://app?vid=808e7f31-1906-4aea-870d-fae9bd5bfa99"},"vehicle_type_id":"4","last_reported":1742991528,"current_range_meters":13600,"station_id":"ce4bhi12rcd13ifvqfp0","pricing_plan_id":"cebpf4jnsgd1na2vs0mg"},{"bike_id":"bbab73b2-14c0-406e-91f3-e2fffb76c54a","system_id":"levelo_inurba_marseille","lat":43.32469,"lon":5.36578,"is_reserved":false,"is_disabled":false,"rental_uris":{"android":"levelo://app?vid=bbab73b2-14c0-406e-91f3-e2fffb76c54a","ios":"levelo://app?vid=bbab73b2-14c0-406e-91f3-e2fffb76c54a"},"vehicle_type_id":"4","last_reported":1742991528,"current_range_meters":13600,"station_id":"ce4bhs12rcd13ifvqhvg","pricing_plan_id":"cebpf4jnsgd1na2vs0mg"},{"bike_id":"168d376f-3168-4e0c-8648-582c0f4f574e","system_id":"levelo_inurba_marseille","lat":43.26557,"lon":5.37283,"is_reserved":false,"is_disabled":false,"rental_uris":{"android":"levelo://app?vid=168d376f-3168-4e0c-8648-582c0f4f574e","ios":"levelo://app?vid=168d376f-3168-4e0c-8648-582c0f4f574e"},"vehicle_type_id":"4","last_reported":1742991528,"current_range_meters":13600,"station_id":"ce4bhg12rcd13ifvqf70","pricing_plan_id":"cebpf4jnsgd1na2vs0mg"},{"bike_id":"a4e9e3fd-ebc7-468f-aaef-a21894efe6ce","system_id":"levelo_inurba_marseille","lat":43.28443,"lon":5.39193,"is_reserved":false,"is_disabled":false,"rental_uris":{"android":"levelo://app?vid=a4e9e3fd-ebc7-468f-aaef-a21894efe6ce","ios":"levelo://app?vid=a4e9e3fd-ebc7-468f-aaef-a21894efe6ce"},"vehicle_type_id":"4","last_reported":1742991528,"current_range_meters":13600,"station_id":"ce4bhoh2rcd13ifvqh5g","pricing_plan_id":"cebpf4jnsgd1na2vs0mg"},{"bike_id":"49749916-1602-4a67-bcc3-803f3f931eb7","system_id":"levelo_inurba_marseille","lat":43.303834,"lon":5.424759,"is_reserved":false,"is_disabled":false,"rental_uris":{"android":"levelo://app?vid=49749916-1602-4a67-bcc3-803f3f931eb7","ios":"levelo://app?vid=49749916-1602-4a67-bcc3-803f3f931eb7"},"vehicle_type_id":"4","last_reported":1742991528,"current_range_meters":13600,"station_id":"ce4bhoh2rcd13ifvqh6g","pricing_plan_id":"cebpf4jnsgd1na2vs0mg"},{"bike_id":"bb8ff4a1-5a05-47fa-9a94-c386558ed96a","system_id":"levelo_inurba_marseille","lat":43.31232,"lon":5.36808,"is_reserved":false,"is_disabled":false,"rental_uris":{"android":"levelo://app?vid=bb8ff4a1-5a05-47fa-9a94-c386558ed96a","ios":"levelo://app?vid=bb8ff4a1-5a05-47fa-9a94-c386558ed96a"},"vehicle_type_id":"4","last_reported":1742991528,"current_range_meters":14000,"station_id":"ce4bgl92rcd13ifvqbq0","pricing_plan_id":"cebpf4jnsgd1na2vs0mg"},{"bike_id":"57479579-45fc-4adc-a0e9-cb99c88a085e","system_id":"levelo_inurba_marseille","lat":43.31716,"lon":5.42395,"is_reserved":false,"is_disabled":false,"rental_uris":{"android":"levelo://app?vid=57479579-45fc-4adc-a0e9-cb99c88a085e","ios":"levelo://app?vid=57479579-45fc-4adc-a0e9-cb99c88a085e"},"vehicle_type_id":"4","last_reported":1742991528,"current_range_meters":13600,"station_id":"ce4bhp92rcd13ifvqhbg","pricing_plan_id":"cebpf4jnsgd1na2vs0mg"},{"bike_id":"a8de041a-b07d-473e-a717-9497baf953b6","system_id":"levelo_inurba_marseille","lat":43.28853,"lon":5.35847,"is_reserved":false,"is_disabled":false,"rental_uris":{"android":"levelo://app?vid=a8de041a-b07d-473e-a717-9497baf953b6","ios":"levelo://app?vid=a8de041a-b07d-473e-a717-9497baf953b6"},"vehicle_type_id":"4","last_reported":1742991528,"current_range_meters":14000,"station_id":"ce4bhb12rcd13ifvqem0","pricing_plan_id":"cebpf4jnsgd1na2vs0mg"},{"bike_id":"bc99cffa-bf90-451e-a705-a61ead69c88f","system_id":"levelo_inurba_marseille","lat":43.25719,"lon":5.4111,"is_reserved":false,"is_disabled":false,"rental_uris":{"android":"levelo://app?vid=bc99cffa-bf90-451e-a705-a61ead69c88f","ios":"levelo://app?vid=bc99cffa-bf90-451e-a705-a61ead69c88f"},"vehicle_type_id":"4","last_reported":1742991528,"current_range_meters":14000,"station_id":"ce4bhkp2rcd13ifvqgd0","pricing_plan_id":"cebpf4jnsgd1na2vs0mg"},{"bike_id":"18edd623-824d-4fcc-b007-cc6ef2982100","system_id":"levelo_inurba_marseille","lat":43.22932,"lon":5.35378,"is_reserved":false,"is_disabled":false,"rental_uris":{"android":"levelo://app?vid=18edd623-824d-4fcc-b007-cc6ef2982100","ios":"levelo://app?vid=18edd623-824d-4fcc-b007-cc6ef2982100"},"vehicle_type_id":"4","last_reported":1742991528,"current_range_meters":14000,"station_id":"cpo3532slgdg3j2ikp40","pricing_plan_id":"cebpf4jnsgd1na2vs0mg"},{"bike_id":"8a1d064b-8562-46a4-8539-94286ec64257","system_id":"levelo_inurba_marseille","lat":43.25878,"lon":5.399,"is_reserved":false,"is_disabled":false,"rental_uris":{"android":"levelo://app?vid=8a1d064b-8562-46a4-8539-94286ec64257","ios":"levelo://app?vid=8a1d064b-8562-46a4-8539-94286ec64257"},"vehicle_type_id":"4","last_reported":1742991528,"current_range_meters":14000,"station_id":"ce4bhl92rcd13ifvqghg","pricing_plan_id":"cebpf4jnsgd1na2vs0mg"},{"bike_id":"46bc7627-5963-437b-83ed-b3f9497370e8","system_id":"levelo_inurba_marseille","lat":43.29894,"lon":5.43684,"is_reserved":false,"is_disabled":false,"rental_uris":{"android":"levelo://app?vid=46bc7627-5963-437b-83ed-b3f9497370e8","ios":"levelo://app?vid=46bc7627-5963-437b-83ed-b3f9497370e8"},"vehicle_type_id":"4","last_reported":1742991528,"current_range_meters":14000,"station_id":"ce4bhpp2rcd13ifvqhfg","pricing_plan_id":"cebpf4jnsgd1na2vs0mg"},{"bike_id":"5bb70de2-ca5f-4a01-b98a-0a3f7c049291","system_id":"levelo_inurba_marseille","lat":43.31075,"lon":5.38354,"is_reserved":false,"is_disabled":false,"rental_uris":{"android":"levelo://app?vid=5bb70de2-ca5f-4a01-b98a-0a3f7c049291","ios":"levelo://app?vid=5bb70de2-ca5f-4a01-b98a-0a3f7c049291"},"vehicle_type_id":"4","last_reported":1742991528,"current_range_meters":14000,"station_id":"ce4bgv92rcd13ifvqcr0","pricing_plan_id":"cebpf4jnsgd1na2vs0mg"},{"bike_id":"d95225a2-b355-452f-853d-0866d9fdd7a8","system_id":"levelo_inurba_marseille","lat":43.3266,"lon":5.40994,"is_reserved":false,"is_disabled":false,"rental_uris":{"android":"levelo://app?vid=d95225a2-b355-452f-853d-0866d9fdd7a8","ios":"levelo://app?vid=d95225a2-b355-452f-853d-0866d9fdd7a8"},"vehicle_type_id":"4","last_reported":1742991528,"current_range_meters":14000,"station_id":"ce4bhpp2rcd13ifvqhgg","pricing_plan_id":"cebpf4jnsgd1na2vs0mg"},{"bike_id":"d72b2321-ec34-48cf-868e-8c5e65afe96e","system_id":"levelo_inurba_marseille","lat":43.27914,"lon":5.39583,"is_reserved":false,"is_disabled":false,"rental_uris":{"android":"levelo://app?vid=d72b2321-ec34-48cf-868e-8c5e65afe96e","ios":"levelo://app?vid=d72b2321-ec34-48cf-868e-8c5e65afe96e"},"vehicle_type_id":"4","last_reported":1742991528,"current_range_meters":14400,"station_id":"ce4bhf92rcd13ifvqf40","pricing_plan_id":"cebpf4jnsgd1na2vs0mg"},{"bike_id":"00a6566c-9629-4dce-b6c6-f9a859b388e2","system_id":"levelo_inurba_marseille","lat":43.28995,"lon":5.35611,"is_reserved":false,"is_disabled":false,"rental_uris":{"android":"levelo://app?vid=00a6566c-9629-4dce-b6c6-f9a859b388e2","ios":"levelo://app?vid=00a6566c-9629-4dce-b6c6-f9a859b388e2"},"vehicle_type_id":"4","last_reported":1742991528,"current_range_meters":14400,"station_id":"ce4bhb92rcd13ifvqen0","pricing_plan_id":"cebpf4jnsgd1na2vs0mg"},{"bike_id":"34fb61e1-a4bd-4842-807a-fceb2fc6f5f6","system_id":"levelo_inurba_marseille","lat":43.3078,"lon":5.376527,"is_reserved":false,"is_disabled":false,"rental_uris":{"android":"levelo://app?vid=34fb61e1-a4bd-4842-807a-fceb2fc6f5f6","ios":"levelo://app?vid=34fb61e1-a4bd-4842-807a-fceb2fc6f5f6"},"vehicle_type_id":"4","last_reported":1742991528,"current_range_meters":14000,"station_id":"ce4bhr92rcd13ifvqhsg","pricing_plan_id":"cebpf4jnsgd1na2vs0mg"},{"bike_id":"909e48db-2d13-4576-97dc-20d427749cf5","system_id":"levelo_inurba_marseille","lat":43.23188,"lon":5.39981,"is_reserved":false,"is_disabled":false,"rental_uris":{"android":"levelo://app?vid=909e48db-2d13-4576-97dc-20d427749cf5","ios":"levelo://app?vid=909e48db-2d13-4576-97dc-20d427749cf5"},"vehicle_type_id":"4","last_reported":1742991528,"current_range_meters":14400,"station_id":"ce4bhn12rcd13ifvqgqg","pricing_plan_id":"cebpf4jnsgd1na2vs0mg"},{"bike_id":"604d6841-6acf-4b59-8f0d-115c37e9aeff","system_id":"levelo_inurba_marseille","lat":43.24386,"lon":5.37058,"is_reserved":false,"is_disabled":false,"rental_uris":{"android":"levelo://app?vid=604d6841-6acf-4b59-8f0d-115c37e9aeff","ios":"levelo://app?vid=604d6841-6acf-4b59-8f0d-115c37e9aeff"},"vehicle_type_id":"4","last_reported":1742991528,"current_range_meters":14400,"station_id":"ce4bhhh2rcd13ifvqfk0","pricing_plan_id":"cebpf4jnsgd1na2vs0mg"},{"bike_id":"a446a54f-4fbf-40df-b247-11c1431d2281","system_id":"levelo_inurba_marseille","lat":43.31251,"lon":5.36892,"is_reserved":false,"is_disabled":false,"rental_uris":{"android":"levelo://app?vid=a446a54f-4fbf-40df-b247-11c1431d2281","ios":"levelo://app?vid=a446a54f-4fbf-40df-b247-11c1431d2281"},"vehicle_type_id":"4","last_reported":1742991528,"current_range_meters":14400,"station_id":"ce4bgl92rcd13ifvqbq0","pricing_plan_id":"cebpf4jnsgd1na2vs0mg"},{"bike_id":"4dd08fd1-a095-4ee6-82ab-2ea5f02cba74","system_id":"levelo_inurba_marseille","lat":43.301432,"lon":5.387776,"is_reserved":false,"is_disabled":false,"rental_uris":{"android":"levelo://app?vid=4dd08fd1-a095-4ee6-82ab-2ea5f02cba74","ios":"levelo://app?vid=4dd08fd1-a095-4ee6-82ab-2ea5f02cba74"},"vehicle_type_id":"4","last_reported":1742991528,"current_range_meters":14400,"station_id":"ce4bghh2rcd13ifvqb60","pricing_plan_id":"cebpf4jnsgd1na2vs0mg"},{"bike_id":"c6e3452b-f8d0-48b5-b208-01d642929070","system_id":"levelo_inurba_marseille","lat":43.30558,"lon":5.36687,"is_reserved":false,"is_disabled":false,"rental_uris":{"android":"levelo://app?vid=c6e3452b-f8d0-48b5-b208-01d642929070","ios":"levelo://app?vid=c6e3452b-f8d0-48b5-b208-01d642929070"},"vehicle_type_id":"4","last_reported":1742991528,"current_range_meters":14400,"station_id":"ce4bgrp2rcd13ifvqc9g","pricing_plan_id":"cebpf4jnsgd1na2vs0mg"},{"bike_id":"ab255577-419b-4b2c-b48f-5c6fb00afdfd","system_id":"levelo_inurba_marseille","lat":43.32375,"lon":5.36676,"is_reserved":false,"is_disabled":false,"rental_uris":{"android":"levelo://app?vid=ab255577-419b-4b2c-b48f-5c6fb00afdfd","ios":"levelo://app?vid=ab255577-419b-4b2c-b48f-5c6fb00afdfd"},"vehicle_type_id":"4","last_reported":1742991528,"current_range_meters":14800,"station_id":"ce4bhsh2rcd13ifvqi2g","pricing_plan_id":"cebpf4jnsgd1na2vs0mg"},{"bike_id":"0f6acde7-e713-4c5b-ade6-9ffb36cbf04b","system_id":"levelo_inurba_marseille","lat":43.28269,"lon":5.35081,"is_reserved":false,"is_disabled":false,"rental_uris":{"android":"levelo://app?vid=0f6acde7-e713-4c5b-ade6-9ffb36cbf04b","ios":"levelo://app?vid=0f6acde7-e713-4c5b-ade6-9ffb36cbf04b"},"vehicle_type_id":"4","last_reported":1742991528,"current_range_meters":14800,"station_id":"ce4bhbp2rcd13ifvqerg","pricing_plan_id":"cebpf4jnsgd1na2vs0mg"},{"bike_id":"94e79fc7-9367-4952-8689-794a28fc3d39","system_id":"levelo_inurba_marseille","lat":43.29894,"lon":5.43669,"is_reserved":false,"is_disabled":false,"rental_uris":{"android":"levelo://app?vid=94e79fc7-9367-4952-8689-794a28fc3d39","ios":"levelo://app?vid=94e79fc7-9367-4952-8689-794a28fc3d39"},"vehicle_type_id":"4","last_reported":1742991528,"current_range_meters":14800,"station_id":"ce4bhpp2rcd13ifvqhfg","pricing_plan_id":"cebpf4jnsgd1na2vs0mg"},{"bike_id":"d053dd27-d547-4fb2-912b-ae90933c464c","system_id":"levelo_inurba_marseille","lat":43.33173,"lon":5.38164,"is_reserved":false,"is_disabled":false,"rental_uris":{"android":"levelo://app?vid=d053dd27-d547-4fb2-912b-ae90933c464c","ios":"levelo://app?vid=d053dd27-d547-4fb2-912b-ae90933c464c"},"vehicle_type_id":"4","last_reported":1742991528,"current_range_meters":14800,"station_id":"","pricing_plan_id":"cebpf4jnsgd1na2vs0mg"},{"bike_id":"5a86a0ff-a812-42dc-84dd-dff8f4cf06da","system_id":"levelo_inurba_marseille","lat":43.28124,"lon":5.37832,"is_reserved":false,"is_disabled":false,"rental_uris":{"android":"levelo://app?vid=5a86a0ff-a812-42dc-84dd-dff8f4cf06da","ios":"levelo://app?vid=5a86a0ff-a812-42dc-84dd-dff8f4cf06da"},"vehicle_type_id":"4","last_reported":1742991528,"current_range_meters":14800,"station_id":"ce4bha12rcd13ifvqee0","pricing_plan_id":"cebpf4jnsgd1na2vs0mg"},{"bike_id":"a3ae93ad-53e5-4cc9-b231-7cabfe495b80","system_id":"levelo_inurba_marseille","lat":43.29872,"lon":5.36306,"is_reserved":false,"is_disabled":false,"rental_uris":{"android":"levelo://app?vid=a3ae93ad-53e5-4cc9-b231-7cabfe495b80","ios":"levelo://app?vid=a3ae93ad-53e5-4cc9-b231-7cabfe495b80"},"vehicle_type_id":"4","last_reported":1742991528,"current_range_meters":15200,"station_id":"ce4bgpp2rcd13ifvqc3g","pricing_plan_id":"cebpf4jnsgd1na2vs0mg"},{"bike_id":"379879bf-1f7f-45f5-9cac-b09d574b3620","system_id":"levelo_inurba_marseille","lat":43.27814,"lon":5.40704,"is_reserved":false,"is_disabled":false,"rental_uris":{"android":"levelo://app?vid=379879bf-1f7f-45f5-9cac-b09d574b3620","ios":"levelo://app?vid=379879bf-1f7f-45f5-9cac-b09d574b3620"},"vehicle_type_id":"4","last_reported":1742991528,"current_range_meters":15200,"station_id":"ce4bhnh2rcd13ifvqgtg","pricing_plan_id":"cebpf4jnsgd1na2vs0mg"},{"bike_id":"75c7187b-7cb5-4136-b180-795a32bcbe1d","system_id":"levelo_inurba_marseille","lat":43.27974,"lon":5.38589,"is_reserved":false,"is_disabled":true,"rental_uris":{"android":"levelo://app?vid=75c7187b-7cb5-4136-b180-795a32bcbe1d","ios":"levelo://app?vid=75c7187b-7cb5-4136-b180-795a32bcbe1d"},"vehicle_type_id":"4","last_reported":1742991528,"current_range_meters":15200,"station_id":"","pricing_plan_id":"cebpf4jnsgd1na2vs0mg"},{"bike_id":"9e733aa2-724c-4a21-aa61-1069fa27a58c","system_id":"levelo_inurba_marseille","lat":43.309084,"lon":5.368444,"is_reserved":false,"is_disabled":false,"rental_uris":{"android":"levelo://app?vid=9e733aa2-724c-4a21-aa61-1069fa27a58c","ios":"levelo://app?vid=9e733aa2-724c-4a21-aa61-1069fa27a58c"},"vehicle_type_id":"4","last_reported":1742991528,"current_range_meters":15200,"station_id":"ce4bgv12rcd13ifvqcp0","pricing_plan_id":"cebpf4jnsgd1na2vs0mg"},{"bike_id":"494bb9d0-768d-417c-a1ba-2a5eb9e3116f","system_id":"levelo_inurba_marseille","lat":43.31252,"lon":5.36882,"is_reserved":false,"is_disabled":false,"rental_uris":{"android":"levelo://app?vid=494bb9d0-768d-417c-a1ba-2a5eb9e3116f","ios":"levelo://app?vid=494bb9d0-768d-417c-a1ba-2a5eb9e3116f"},"vehicle_type_id":"4","last_reported":1742991528,"current_range_meters":16000,"station_id":"ce4bgl92rcd13ifvqbq0","pricing_plan_id":"cebpf4jnsgd1na2vs0mg"},{"bike_id":"7d85f884-7b26-4aa5-b72b-6ee5f5eb2f48","system_id":"levelo_inurba_marseille","lat":43.285774,"lon":5.394955,"is_reserved":false,"is_disabled":false,"rental_uris":{"android":"levelo://app?vid=7d85f884-7b26-4aa5-b72b-6ee5f5eb2f48","ios":"levelo://app?vid=7d85f884-7b26-4aa5-b72b-6ee5f5eb2f48"},"vehicle_type_id":"4","last_reported":1742991528,"current_range_meters":16000,"station_id":"ce4bhbh2rcd13ifvqeo0","pricing_plan_id":"cebpf4jnsgd1na2vs0mg"},{"bike_id":"0ac88cdf-dd3a-494f-aaa5-2b24d1ce393f","system_id":"levelo_inurba_marseille","lat":43.23203,"lon":5.35541,"is_reserved":false,"is_disabled":false,"rental_uris":{"android":"levelo://app?vid=0ac88cdf-dd3a-494f-aaa5-2b24d1ce393f","ios":"levelo://app?vid=0ac88cdf-dd3a-494f-aaa5-2b24d1ce393f"},"vehicle_type_id":"4","last_reported":1742991528,"current_range_meters":16000,"station_id":"ce4bhu92rcd13ifvqi70","pricing_plan_id":"cebpf4jnsgd1na2vs0mg"},{"bike_id":"45ea8b4b-bd66-4e8b-8fc1-7593f91f008f","system_id":"levelo_inurba_marseille","lat":43.31326,"lon":5.39695,"is_reserved":false,"is_disabled":false,"rental_uris":{"android":"levelo://app?vid=45ea8b4b-bd66-4e8b-8fc1-7593f91f008f","ios":"levelo://app?vid=45ea8b4b-bd66-4e8b-8fc1-7593f91f008f"},"vehicle_type_id":"4","last_reported":1742991528,"current_range_meters":15200,"station_id":"ce4bgvp2rcd13ifvqcu0","pricing_plan_id":"cebpf4jnsgd1na2vs0mg"},{"bike_id":"7f532646-0421-49d5-96f7-f295d19c3a47","system_id":"levelo_inurba_marseille","lat":43.28282,"lon":5.35085,"is_reserved":false,"is_disabled":false,"rental_uris":{"android":"levelo://app?vid=7f532646-0421-49d5-96f7-f295d19c3a47","ios":"levelo://app?vid=7f532646-0421-49d5-96f7-f295d19c3a47"},"vehicle_type_id":"4","last_reported":1742991528,"current_range_meters":16000,"station_id":"ce4bhbp2rcd13ifvqerg","pricing_plan_id":"cebpf4jnsgd1na2vs0mg"},{"bike_id":"c18155db-65c7-4d5a-8c5b-923eb75c675d","system_id":"levelo_inurba_marseille","lat":43.32113,"lon":5.36751,"is_reserved":false,"is_disabled":false,"rental_uris":{"android":"levelo://app?vid=c18155db-65c7-4d5a-8c5b-923eb75c675d","ios":"levelo://app?vid=c18155db-65c7-4d5a-8c5b-923eb75c675d"},"vehicle_type_id":"4","last_reported":1742991528,"current_range_meters":16000,"station_id":"ce4bhrh2rcd13ifvqhug","pricing_plan_id":"cebpf4jnsgd1na2vs0mg"},{"bike_id":"fc8e8371-f4e9-4721-bc19-563801e389dc","system_id":"levelo_inurba_marseille","lat":43.337444,"lon":5.374475,"is_reserved":false,"is_disabled":false,"rental_uris":{"android":"levelo://app?vid=fc8e8371-f4e9-4721-bc19-563801e389dc","ios":"levelo://app?vid=fc8e8371-f4e9-4721-bc19-563801e389dc"},"vehicle_type_id":"4","last_reported":1742991528,"current_range_meters":16000,"station_id":"","pricing_plan_id":"cebpf4jnsgd1na2vs0mg"},{"bike_id":"24a1248f-5e8a-4578-9a89-a7ea39a78ae1","system_id":"levelo_inurba_marseille","lat":43.27964,"lon":5.41029,"is_reserved":false,"is_disabled":true,"rental_uris":{"android":"levelo://app?vid=24a1248f-5e8a-4578-9a89-a7ea39a78ae1","ios":"levelo://app?vid=24a1248f-5e8a-4578-9a89-a7ea39a78ae1"},"vehicle_type_id":"4","last_reported":1742991528,"current_range_meters":16400,"station_id":"ce4bhnp2rcd13ifvqh0g","pricing_plan_id":"cebpf4jnsgd1na2vs0mg"},{"bike_id":"cf49d369-160d-4d19-b573-784f7d590aad","system_id":"levelo_inurba_marseille","lat":43.29583,"lon":5.4225,"is_reserved":false,"is_disabled":false,"rental_uris":{"android":"levelo://app?vid=cf49d369-160d-4d19-b573-784f7d590aad","ios":"levelo://app?vid=cf49d369-160d-4d19-b573-784f7d590aad"},"vehicle_type_id":"4","last_reported":1742991528,"current_range_meters":16000,"station_id":"ce4bhph2rcd13ifvqhdg","pricing_plan_id":"cebpf4jnsgd1na2vs0mg"},{"bike_id":"8418c990-e6d9-4a60-8ade-e0d4d0dd8692","system_id":"levelo_inurba_marseille","lat":43.29007,"lon":5.35631,"is_reserved":false,"is_disabled":false,"rental_uris":{"android":"levelo://app?vid=8418c990-e6d9-4a60-8ade-e0d4d0dd8692","ios":"levelo://app?vid=8418c990-e6d9-4a60-8ade-e0d4d0dd8692"},"vehicle_type_id":"4","last_reported":1742991528,"current_range_meters":16400,"station_id":"ce4bhb92rcd13ifvqen0","pricing_plan_id":"cebpf4jnsgd1na2vs0mg"},{"bike_id":"6e07d018-50e5-4e31-8953-63d80a69f9bd","system_id":"levelo_inurba_marseille","lat":43.30947,"lon":5.39027,"is_reserved":false,"is_disabled":false,"rental_uris":{"android":"levelo://app?vid=6e07d018-50e5-4e31-8953-63d80a69f9bd","ios":"levelo://app?vid=6e07d018-50e5-4e31-8953-63d80a69f9bd"},"vehicle_type_id":"4","last_reported":1742991528,"current_range_meters":16400,"station_id":"ce4bgup2rcd13ifvqco0","pricing_plan_id":"cebpf4jnsgd1na2vs0mg"},{"bike_id":"9e3dc434-d066-42cc-bc77-658211cbf847","system_id":"levelo_inurba_marseille","lat":43.29938,"lon":5.36537,"is_reserved":false,"is_disabled":false,"rental_uris":{"android":"levelo://app?vid=9e3dc434-d066-42cc-bc77-658211cbf847","ios":"levelo://app?vid=9e3dc434-d066-42cc-bc77-658211cbf847"},"vehicle_type_id":"4","last_reported":1742991528,"current_range_meters":16400,"station_id":"ce4bgm92rcd13ifvqbr0","pricing_plan_id":"cebpf4jnsgd1na2vs0mg"},{"bike_id":"9611cbf3-b199-4e0c-a4c2-f8a82ceabddc","system_id":"levelo_inurba_marseille","lat":43.32854,"lon":5.39174,"is_reserved":false,"is_disabled":false,"rental_uris":{"android":"levelo://app?vid=9611cbf3-b199-4e0c-a4c2-f8a82ceabddc","ios":"levelo://app?vid=9611cbf3-b199-4e0c-a4c2-f8a82ceabddc"},"vehicle_type_id":"4","last_reported":1742991528,"current_range_meters":16800,"station_id":"","pricing_plan_id":"cebpf4jnsgd1na2vs0mg"},{"bike_id":"64f0ea86-1180-4755-95e1-3cbc9c8d4cf5","system_id":"levelo_inurba_marseille","lat":43.33019,"lon":5.43848,"is_reserved":false,"is_disabled":true,"rental_uris":{"android":"levelo://app?vid=64f0ea86-1180-4755-95e1-3cbc9c8d4cf5","ios":"levelo://app?vid=64f0ea86-1180-4755-95e1-3cbc9c8d4cf5"},"vehicle_type_id":"4","last_reported":1742991528,"current_range_meters":16800,"station_id":"","pricing_plan_id":"cebpf4jnsgd1na2vs0mg"},{"bike_id":"a03834e5-fa97-4593-85e3-5e0409d08be7","system_id":"levelo_inurba_marseille","lat":43.30157,"lon":5.37402,"is_reserved":false,"is_disabled":false,"rental_uris":{"android":"levelo://app?vid=a03834e5-fa97-4593-85e3-5e0409d08be7","ios":"levelo://app?vid=a03834e5-fa97-4593-85e3-5e0409d08be7"},"vehicle_type_id":"4","last_reported":1742991528,"current_range_meters":16800,"station_id":"ce4bgs92rcd13ifvqcc0","pricing_plan_id":"cebpf4jnsgd1na2vs0mg"},{"bike_id":"5018a59b-b386-4e99-b26c-192a8f1ed783","system_id":"levelo_inurba_marseille","lat":43.33329,"lon":5.35913,"is_reserved":false,"is_disabled":false,"rental_uris":{"android":"levelo://app?vid=5018a59b-b386-4e99-b26c-192a8f1ed783","ios":"levelo://app?vid=5018a59b-b386-4e99-b26c-192a8f1ed783"},"vehicle_type_id":"4","last_reported":1742991528,"current_range_meters":16800,"station_id":"","pricing_plan_id":"cebpf4jnsgd1na2vs0mg"},{"bike_id":"02b33fd7-8121-462a-869c-d452f7d38878","system_id":"levelo_inurba_marseille","lat":43.24403,"lon":5.37055,"is_reserved":false,"is_disabled":false,"rental_uris":{"android":"levelo://app?vid=02b33fd7-8121-462a-869c-d452f7d38878","ios":"levelo://app?vid=02b33fd7-8121-462a-869c-d452f7d38878"},"vehicle_type_id":"4","last_reported":1742991528,"current_range_meters":16800,"station_id":"ce4bhhh2rcd13ifvqfk0","pricing_plan_id":"cebpf4jnsgd1na2vs0mg"},{"bike_id":"c896a30e-408f-4fdc-aa97-dd0a7c5586b6","system_id":"levelo_inurba_marseille","lat":43.23175,"lon":5.39995,"is_reserved":false,"is_disabled":false,"rental_uris":{"android":"levelo://app?vid=c896a30e-408f-4fdc-aa97-dd0a7c5586b6","ios":"levelo://app?vid=c896a30e-408f-4fdc-aa97-dd0a7c5586b6"},"vehicle_type_id":"4","last_reported":1742991528,"current_range_meters":16800,"station_id":"ce4bhn12rcd13ifvqgqg","pricing_plan_id":"cebpf4jnsgd1na2vs0mg"},{"bike_id":"1f349a48-5d3f-4158-95e1-3d91d393d783","system_id":"levelo_inurba_marseille","lat":43.23195,"lon":5.39967,"is_reserved":false,"is_disabled":false,"rental_uris":{"android":"levelo://app?vid=1f349a48-5d3f-4158-95e1-3d91d393d783","ios":"levelo://app?vid=1f349a48-5d3f-4158-95e1-3d91d393d783"},"vehicle_type_id":"4","last_reported":1742991528,"current_range_meters":16800,"station_id":"ce4bhn12rcd13ifvqgqg","pricing_plan_id":"cebpf4jnsgd1na2vs0mg"},{"bike_id":"338ef5ef-6ed0-4719-a7ea-82be458e61b4","system_id":"levelo_inurba_marseille","lat":43.24386,"lon":5.37073,"is_reserved":false,"is_disabled":false,"rental_uris":{"android":"levelo://app?vid=338ef5ef-6ed0-4719-a7ea-82be458e61b4","ios":"levelo://app?vid=338ef5ef-6ed0-4719-a7ea-82be458e61b4"},"vehicle_type_id":"4","last_reported":1742991528,"current_range_meters":17200,"station_id":"ce4bhhh2rcd13ifvqfk0","pricing_plan_id":"cebpf4jnsgd1na2vs0mg"},{"bike_id":"c46d23fa-7e8f-481f-843f-515daafa4883","system_id":"levelo_inurba_marseille","lat":43.24893,"lon":5.39389,"is_reserved":false,"is_disabled":false,"rental_uris":{"android":"levelo://app?vid=c46d23fa-7e8f-481f-843f-515daafa4883","ios":"levelo://app?vid=c46d23fa-7e8f-481f-843f-515daafa4883"},"vehicle_type_id":"4","last_reported":1742991528,"current_range_meters":17200,"station_id":"","pricing_plan_id":"cebpf4jnsgd1na2vs0mg"},{"bike_id":"4f8a7f91-9de8-496d-a6cf-dfabec3c670b","system_id":"levelo_inurba_marseille","lat":43.32542,"lon":5.41424,"is_reserved":false,"is_disabled":false,"rental_uris":{"android":"levelo://app?vid=4f8a7f91-9de8-496d-a6cf-dfabec3c670b","ios":"levelo://app?vid=4f8a7f91-9de8-496d-a6cf-dfabec3c670b"},"vehicle_type_id":"4","last_reported":1742991528,"current_range_meters":17200,"station_id":"ce4bhq12rcd13ifvqhhg","pricing_plan_id":"cebpf4jnsgd1na2vs0mg"},{"bike_id":"a8dbe682-e779-4aba-b12a-ac122b396be6","system_id":"levelo_inurba_marseille","lat":43.30543,"lon":5.36558,"is_reserved":false,"is_disabled":false,"rental_uris":{"android":"levelo://app?vid=a8dbe682-e779-4aba-b12a-ac122b396be6","ios":"levelo://app?vid=a8dbe682-e779-4aba-b12a-ac122b396be6"},"vehicle_type_id":"4","last_reported":1742991528,"current_range_meters":17200,"station_id":"ce4bgs12rcd13ifvqcag","pricing_plan_id":"cebpf4jnsgd1na2vs0mg"},{"bike_id":"30355ce8-b3f6-4c1a-8ecc-22738541e91d","system_id":"levelo_inurba_marseille","lat":43.231843,"lon":5.399821,"is_reserved":false,"is_disabled":false,"rental_uris":{"android":"levelo://app?vid=30355ce8-b3f6-4c1a-8ecc-22738541e91d","ios":"levelo://app?vid=30355ce8-b3f6-4c1a-8ecc-22738541e91d"},"vehicle_type_id":"4","last_reported":1742991528,"current_range_meters":17200,"station_id":"ce4bhn12rcd13ifvqgqg","pricing_plan_id":"cebpf4jnsgd1na2vs0mg"},{"bike_id":"8b225ce4-bc27-494d-8b83-a75a32f1b524","system_id":"levelo_inurba_marseille","lat":43.2987,"lon":5.36247,"is_reserved":false,"is_disabled":false,"rental_uris":{"android":"levelo://app?vid=8b225ce4-bc27-494d-8b83-a75a32f1b524","ios":"levelo://app?vid=8b225ce4-bc27-494d-8b83-a75a32f1b524"},"vehicle_type_id":"4","last_reported":1742991528,"current_range_meters":17200,"station_id":"ce4bgpp2rcd13ifvqc3g","pricing_plan_id":"cebpf4jnsgd1na2vs0mg"},{"bike_id":"2f65e33c-3400-401f-89f7-9a74eb2528d5","system_id":"levelo_inurba_marseille","lat":43.25582,"lon":5.3823,"is_reserved":false,"is_disabled":false,"rental_uris":{"android":"levelo://app?vid=2f65e33c-3400-401f-89f7-9a74eb2528d5","ios":"levelo://app?vid=2f65e33c-3400-401f-89f7-9a74eb2528d5"},"vehicle_type_id":"4","last_reported":1742991528,"current_range_meters":17200,"station_id":"ce4bhih2rcd13ifvqfs0","pricing_plan_id":"cebpf4jnsgd1na2vs0mg"},{"bike_id":"3de8532e-ac28-46ad-a8b0-c221d1179df0","system_id":"levelo_inurba_marseille","lat":43.27355,"lon":5.36258,"is_reserved":false,"is_disabled":false,"rental_uris":{"android":"levelo://app?vid=3de8532e-ac28-46ad-a8b0-c221d1179df0","ios":"levelo://app?vid=3de8532e-ac28-46ad-a8b0-c221d1179df0"},