{"last_updated":1728558504,"ttl":60,"version":"2.2","data":{"bikes":[{"bike_id":"13b23868-9cb5-4ab5-958f-46724bb44417","system_id":"levelo_inurba_marseille","lat":43.29102,"lon":5.38153,"is_reserved":false,"is_disabled":false,"rental_uris":{"android":"levelo://app?vid=13b23868-9cb5-4ab5-958f-46724bb44417","ios":"levelo://app?vid=13b23868-9cb5-4ab5-958f-46724bb44417"},"vehicle_type_id":"4","last_reported":1728558504,"current_range_meters":38800,"station_id":"ce4bh512rcd13ifvqe2g","pricing_plan_id":"cebpf4jnsgd1na2vs0mg"},{"bike_id":"9a93c5f4-c82c-4684-bce5-46f3d928cf65","system_id":"levelo_inurba_marseille","lat":43.26938,"lon":5.40259,"is_reserved":false,"is_disabled":false,"rental_uris":{"android":"levelo://app?vid=9a93c5f4-c82c-4684-bce5-46f3d928cf65","ios":"levelo://app?vid=9a93c5f4-c82c-4684-bce5-46f3d928cf65"},"vehicle_type_id":"4","last_reported":1728558504,"current_range_meters":30000,"station_id":"cjm6bp8fraef2m0cb0m0","pricing_plan_id":"cebpf4jnsgd1na2vs0mg"},{"bike_id":"ddb9679b-c37e-4bea-beb9-d80ba93eccb3","system_id":"levelo_inurba_marseille","lat":43.30184,"lon":5.36614,"is_reserved":false,"is_disabled":false,"rental_uris":{"android":"levelo://app?vid=ddb9679b-c37e-4bea-beb9-d80ba93eccb3","ios":"levelo://app?vid=ddb9679b-c37e-4bea-beb9-d80ba93eccb3"},"vehicle_type_id":"4","last_reported":1728558504,"current_range_meters":9600,"station_id":"ce4bgrh2rcd13ifvqc8g","pricing_plan_id":"cebpf4jnsgd1na2vs0mg"},{"bike_id":"a844b13d-b510-4a63-99eb-1b32722974a6","system_id":"levelo_inurba_marseille","lat":43.28615,"lon":5.35102,"is_reserved":false,"is_disabled":false,"rental_uris":{"android":"levelo://app?vid=a844b13d-b510-4a63-99eb-1b32722974a6","ios":"levelo://app?vid=a844b13d-b510-4a63-99eb-1b32722974a6"},"vehicle_type_id":"4","last_reported":1728558504,"current_range_meters":38800,"station_id":"ce4bhch2rcd13ifvqeug","pricing_plan_id":"cebpf4jnsgd1na2vs0mg"},{"bike_id":"ee334c57-a588-4370-9bc0-fe8b4a5c7de7","system_id":"levelo_inurba_marseille","lat":43.22931,"lon":5.35376,"is_reserved":false,"is_disabled":false,"rental_uris":{"android":"levelo://app?vid=ee334c57-a588-4370-9bc0-fe8b4a5c7de7","ios":"levelo://app?vid=ee334c57-a588-4370-9bc0-fe8b4a5c7de7"},"vehicle_type_id":"4","last_reported":1728558504,"current_range_meters":29600,"station_id":"cpo3532slgdg3j2ikp40","pricing_plan_id":"cebpf4jnsgd1na2vs0mg"},{"bike_id":"e71333af-3d95-40b1-befa-1ad7c590b6c3","system_id":"levelo_inurba_marseille","lat":43.31217,"lon":5.36852,"is_reserved":false,"is_disabled":false,"rental_uris":{"android":"levelo://app?vid=e71333af-3d95-40b1-befa-1ad7c590b6c3","ios":"levelo://app?vid=e71333af-3d95-40b1-befa-1ad7c590b6c3"},"vehicle_type_id":"4","last_reported":1728558504,"current_range_meters":18000,"station_id":"ce4bgl92rcd13ifvqbq0","pricing_plan_id":"cebpf4jnsgd1na2vs0mg"},{"bike_id":"69e77010-a535-4398-8159-24f48f4c7d15","system_id":"levelo_inurba_marseille","lat":43.23065,"lon":5.35489,"is_reserved":false,"is_disabled":false,"rental_uris":{"android":"levelo://app?vid=69e77010-a535-4398-8159-24f48f4c7d15","ios":"levelo://app?vid=69e77010-a535-4398-8159-24f48f4c7d15"},"vehicle_type_id":"4","last_reported":1728558504,"current_range_meters":3600,"station_id":"cpo3342slgdg3j2ifvpg","pricing_plan_id":"cebpf4jnsgd1na2vs0mg"},{"bike_id":"393998b5-e68b-4c34-86c5-4cedd10a4560","system_id":"levelo_inurba_marseille","lat":43.30597,"lon":5.37229,"is_reserved":false,"is_disabled":false,"rental_uris":{"android":"levelo://app?vid=393998b5-e68b-4c34-86c5-4cedd10a4560","ios":"levelo://app?vid=393998b5-e68b-4c34-86c5-4cedd10a4560"},"vehicle_type_id":"4","last_reported":1728558504,"current_range_meters":36400,"station_id":"ce4bgqh2rcd13ifvqc4g","pricing_plan_id":"cebpf4jnsgd1na2vs0mg"},{"bike_id":"c450f177-f1a9-4222-a407-0cd6acaa3389","system_id":"levelo_inurba_marseille","lat":43.2621,"lon":5.37447,"is_reserved":false,"is_disabled":false,"rental_uris":{"android":"levelo://app?vid=c450f177-f1a9-4222-a407-0cd6acaa3389","ios":"levelo://app?vid=c450f177-f1a9-4222-a407-0cd6acaa3389"},"vehicle_type_id":"4","last_reported":1728558504,"current_range_meters":19200,"station_id":"ce4bhgp2rcd13ifvqfc0","pricing_plan_id":"cebpf4jnsgd1na2vs0mg"},{"bike_id":"4c04c386-a306-4cd9-92d0-2e121dfec09b","system_id":"levelo_inurba_marseille","lat":43.2919,"lon":5.35806,"is_reserved":false,"is_disabled":false,"rental_uris":{"android":"levelo://app?vid=4c04c386-a306-4cd9-92d0-2e121dfec09b","ios":"levelo://app?vid=4c04c386-a306-4cd9-92d0-2e121dfec09b"},"vehicle_type_id":"4","last_reported":1728558504,"current_range_meters":36400,"station_id":"ce4bhb12rcd13ifvqel0","pricing_plan_id":"cebpf4jnsgd1na2vs0mg"},{"bike_id":"cc48e78b-0de2-48fc-bd8c-835ef145dac9","system_id":"levelo_inurba_marseille","lat":43.28154,"lon":5.42635,"is_reserved":false,"is_disabled":false,"rental_uris":{"android":"levelo://app?vid=cc48e78b-0de2-48fc-bd8c-835ef145dac9","ios":"levelo://app?vid=cc48e78b-0de2-48fc-bd8c-835ef145dac9"},"vehicle_type_id":"4","last_reported":1728558504,"current_range_meters":26000,"station_id":"ce4bhnh2rcd13ifvqgug","pricing_plan_id":"cebpf4jnsgd1na2vs0mg"},{"bike_id":"b6238d41-ee15-425a-90f4-5765634a5d7f","system_id":"levelo_inurba_marseille","lat":43.23151,"lon":5.43711,"is_reserved":false,"is_disabled":false,"rental_uris":{"android":"levelo://app?vid=b6238d41-ee15-425a-90f4-5765634a5d7f","ios":"levelo://app?vid=b6238d41-ee15-425a-90f4-5765634a5d7f"},"vehicle_type_id":"4","last_reported":1728558504,"current_range_meters":38800,"station_id":"ce4bhmp2rcd13ifvqgog","pricing_plan_id":"cebpf4jnsgd1na2vs0mg"},{"bike_id":"91f9ac4e-26b4-4a3e-8d1b-584047d9b6a3","system_id":"levelo_inurba_marseille","lat":43.23145,"lon":5.43728,"is_reserved":false,"is_disabled":false,"rental_uris":{"android":"levelo://app?vid=91f9ac4e-26b4-4a3e-8d1b-584047d9b6a3","ios":"levelo://app?vid=91f9ac4e-26b4-4a3e-8d1b-584047d9b6a3"},"vehicle_type_id":"4","last_reported":1728558504,"current_range_meters":18000,"station_id":"ce4bhmp2rcd13ifvqgog","pricing_plan_id":"cebpf4jnsgd1na2vs0mg"},{"bike_id":"296d1880-4a03-4d23-a9cc-51df04a4af16","system_id":"levelo_inurba_marseille","lat":43.26197,"lon":5.37448,"is_reserved":false,"is_disabled":false,"rental_uris":{"android":"levelo://app?vid=296d1880-4a03-4d23-a9cc-51df04a4af16","ios":"levelo://app?vid=296d1880-4a03-4d23-a9cc-51df04a4af16"},"vehicle_type_id":"4","last_reported":1728558504,"current_range_meters":36400,"station_id":"ce4bhgp2rcd13ifvqfc0","pricing_plan_id":"cebpf4jnsgd1na2vs0mg"},{"bike_id":"729d92a6-b5d4-421f-82bd-c3e31fbc602e","system_id":"levelo_inurba_marseille","lat":43.23146,"lon":5.43714,"is_reserved":false,"is_disabled":false,"rental_uris":{"android":"levelo://app?vid=729d92a6-b5d4-421f-82bd-c3e31fbc602e","ios":"levelo://app?vid=729d92a6-b5d4-421f-82bd-c3e31fbc602e"},"vehicle_type_id":"4","last_reported":1728558504,"current_range_meters":38800,"station_id":"ce4bhmp2rcd13ifvqgog","pricing_plan_id":"cebpf4jnsgd1na2vs0mg"},{"bike_id":"6cb2fd54-0aca-4f7d-aadb-bc057dc4fb59","system_id":"levelo_inurba_marseille","lat":43.23063,"lon":5.35492,"is_reserved":false,"is_disabled":false,"rental_uris":{"android":"levelo://app?vid=6cb2fd54-0aca-4f7d-aadb-bc057dc4fb59","ios":"levelo://app?vid=6cb2fd54-0aca-4f7d-aadb-bc057dc4fb59"},"vehicle_type_id":"4","last_reported":1728558504,"current_range_meters":33600,"station_id":"cpo3342slgdg3j2ifvpg","pricing_plan_id":"cebpf4jnsgd1na2vs0mg"},{"bike_id":"886aa239-0ce6-4cc7-a1be-709bc947b872","system_id":"levelo_inurba_marseille","lat":43.28151,"lon":5.42652,"is_reserved":false,"is_disabled":false,"rental_uris":{"android":"levelo://app?vid=886aa239-0ce6-4cc7-a1be-709bc947b872","ios":"levelo://app?vid=886aa239-0ce6-4cc7-a1be-709bc947b872"},"vehicle_type_id":"4","last_reported":1728558504,"current_range_meters":6800,"station_id":"ce4bhnh2rcd13ifvqgug","pricing_plan_id":"cebpf4jnsgd1na2vs0mg"},{"bike_id":"040e84d7-b151-4dc6-8e69-1a80b1f29b8c","system_id":"levelo_inurba_marseille","lat":43.24078,"lon":5.37757,"is_reserved":false,"is_disabled":false,"rental_uris":{"android":"levelo://app?vid=040e84d7-b151-4dc6-8e69-1a80b1f29b8c","ios":"levelo://app?vid=040e84d7-b151-4dc6-8e69-1a80b1f29b8c"},"vehicle_type_id":"4","last_reported":1728558504,"current_range_meters":32400,"station_id":"ce4bhnp2rcd13ifvqgvg","pricing_plan_id":"cebpf4jnsgd1na2vs0mg"},{"bike_id":"27e0d1ea-7aaa-45bc-8eec-90fc98089214","system_id":"levelo_inurba_marseille","lat":43.30096,"lon":5.39077,"is_reserved":false,"is_disabled":false,"rental_uris":{"android":"levelo://app?vid=27e0d1ea-7aaa-45bc-8eec-90fc98089214","ios":"levelo://app?vid=27e0d1ea-7aaa-45bc-8eec-90fc98089214"},"vehicle_type_id":"4","last_reported":1728558504,"current_range_meters":22000,"station_id":"ce4bh192rcd13ifvqdb0","pricing_plan_id":"cebpf4jnsgd1na2vs0mg"},{"bike_id":"fe1386ee-6194-4218-a1fa-d1785afff62e","system_id":"levelo_inurba_marseille","lat":43.26804,"lon":5.40272,"is_reserved":false,"is_disabled":false,"rental_uris":{"android":"levelo://app?vid=fe1386ee-6194-4218-a1fa-d1785afff62e","ios":"levelo://app?vid=fe1386ee-6194-4218-a1fa-d1785afff62e"},"vehicle_type_id":"4","last_reported":1728558504,"current_range_meters":20800,"station_id":"ce501612rcd8frsf0b60","pricing_plan_id":"cebpf4jnsgd1na2vs0mg"},{"bike_id":"8f831b42-9c84-41c2-a331-3c5e765e4e87","system_id":"levelo_inurba_marseille","lat":43.24081,"lon":5.37755,"is_reserved":false,"is_disabled":false,"rental_uris":{"android":"levelo://app?vid=8f831b42-9c84-41c2-a331-3c5e765e4e87","ios":"levelo://app?vid=8f831b42-9c84-41c2-a331-3c5e765e4e87"},"vehicle_type_id":"4","last_reported":1728558504,"current_range_meters":30000,"station_id":"ce4bhnp2rcd13ifvqgvg","pricing_plan_id":"cebpf4jnsgd1na2vs0mg"},{"bike_id":"4ddd974a-014e-4da6-9be0-cb62fde16d6d","system_id":"levelo_inurba_marseille","lat":43.29845,"lon":5.36281,"is_reserved":false,"is_disabled":false,"rental_uris":{"android":"levelo://app?vid=4ddd974a-014e-4da6-9be0-cb62fde16d6d","ios":"levelo://app?vid=4ddd974a-014e-4da6-9be0-cb62fde16d6d"},"vehicle_type_id":"4","last_reported":1728558504,"current_range_meters":19600,"station_id":"ce4bgpp2rcd13ifvqc3g","pricing_plan_id":"cebpf4jnsgd1na2vs0mg"},{"bike_id":"5e3904f1-fd1a-4881-8dca-7864ae8040d4","system_id":"levelo_inurba_marseille","lat":43.270514,"lon":5.402842,"is_reserved":false,"is_disabled":false,"rental_uris":{"android":"levelo://app?vid=5e3904f1-fd1a-4881-8dca-7864ae8040d4","ios":"levelo://app?vid=5e3904f1-fd1a-4881-8dca-7864ae8040d4"},"vehicle_type_id":"4","last_reported":1728558504,"current_range_meters":26800,"station_id":"ce4bhk92rcd13ifvqgc0","pricing_plan_id":"cebpf4jnsgd1na2vs0mg"},{"bike_id":"acc50a4a-d3f8-492a-8ea9-3192ea6e43a1","system_id":"levelo_inurba_marseille","lat":43.30535,"lon":5.38429,"is_reserved":false,"is_disabled":false,"rental_uris":{"android":"levelo://app?vid=acc50a4a-d3f8-492a-8ea9-3192ea6e43a1","ios":"levelo://app?vid=acc50a4a-d3f8-492a-8ea9-3192ea6e43a1"},"vehicle_type_id":"4","last_reported":1728558504,"current_range_meters":28000,"station_id":"ce4bgg92rcd13ifvqb30","pricing_plan_id":"cebpf4jnsgd1na2vs0mg"},{"bike_id":"e872fc30-3c57-4a83-b46e-c9748d4c279a","system_id":"levelo_inurba_marseille","lat":43.33726,"lon":5.39188,"is_reserved":false,"is_disabled":false,"rental_uris":{"android":"levelo://app?vid=e872fc30-3c57-4a83-b46e-c9748d4c279a","ios":"levelo://app?vid=e872fc30-3c57-4a83-b46e-c9748d4c279a"},"vehicle_type_id":"4","last_reported":1728558504,"current_range_meters":26000,"station_id":"ce4bhr92rcd13ifvqhsg","pricing_plan_id":"cebpf4jnsgd1na2vs0mg"},{"bike_id":"b8f48256-1e92-46c4-b43e-9b7c46245edd","system_id":"levelo_inurba_marseille","lat":43.26208,"lon":5.37447,"is_reserved":false,"is_disabled":false,"rental_uris":{"android":"levelo://app?vid=b8f48256-1e92-46c4-b43e-9b7c46245edd","ios":"levelo://app?vid=b8f48256-1e92-46c4-b43e-9b7c46245edd"},"vehicle_type_id":"4","last_reported":1728558504,"current_range_meters":25600,"station_id":"ce4bhgp2rcd13ifvqfc0","pricing_plan_id":"cebpf4jnsgd1na2vs0mg"},{"bike_id":"af28d066-a466-4ed7-bf62-08efa15ec1ce","system_id":"levelo_inurba_marseille","lat":43.24182,"lon":5.39716,"is_reserved":false,"is_disabled":false,"rental_uris":{"android":"levelo://app?vid=af28d066-a466-4ed7-bf62-08efa15ec1ce","ios":"levelo://app?vid=af28d066-a466-4ed7-bf62-08efa15ec1ce"},"vehicle_type_id":"4","last_reported":1728558504,"current_range_meters":36400,"station_id":"ce4bhn12rcd13ifvqgpg","pricing_plan_id":"cebpf4jnsgd1na2vs0mg"},{"bike_id":"f270a049-f8dc-4d99-96c1-0f2a267e34d5","system_id":"levelo_inurba_marseille","lat":43.27057,"lon":5.40257,"is_reserved":false,"is_disabled":false,"rental_uris":{"android":"levelo://app?vid=f270a049-f8dc-4d99-96c1-0f2a267e34d5","ios":"levelo://app?vid=f270a049-f8dc-4d99-96c1-0f2a267e34d5"},"vehicle_type_id":"4","last_reported":1728558504,"current_range_meters":18800,"station_id":"ce4bhk92rcd13ifvqgc0","pricing_plan_id":"cebpf4jnsgd1na2vs0mg"},{"bike_id":"608cac91-46ad-44b9-b9d0-f2c3d0b6ae87","system_id":"levelo_inurba_marseille","lat":43.25334,"lon":5.39327,"is_reserved":false,"is_disabled":false,"rental_uris":{"android":"levelo://app?vid=608cac91-46ad-44b9-b9d0-f2c3d0b6ae87","ios":"levelo://app?vid=608cac91-46ad-44b9-b9d0-f2c3d0b6ae87"},"vehicle_type_id":"4","last_reported":1728558504,"current_range_meters":29600,"station_id":"","pricing_plan_id":"cebpf4jnsgd1na2vs0mg"},{"bike_id":"7c830a7a-88a3-47c3-beae-d7986b2e3594","system_id":"levelo_inurba_marseille","lat":43.337576,"lon":5.374671,"is_reserved":false,"is_disabled":false,"rental_uris":{"android":"levelo://app?vid=7c830a7a-88a3-47c3-beae-d7986b2e3594","ios":"levelo://app?vid=7c830a7a-88a3-47c3-beae-d7986b2e3594"},"vehicle_type_id":"4","last_reported":1728558504,"current_range_meters":9200,"station_id":"ce4rr2p2rcd13i802rgg","pricing_plan_id":"cebpf4jnsgd1na2vs0mg"},{"bike_id":"a842c4ec-494b-4d9c-acb2-d6bff969f6aa","system_id":"levelo_inurba_marseille","lat":43.33775,"lon":5.37446,"is_reserved":false,"is_disabled":false,"rental_uris":{"android":"levelo://app?vid=a842c4ec-494b-4d9c-acb2-d6bff969f6aa","ios":"levelo://app?vid=a842c4ec-494b-4d9c-acb2-d6bff969f6aa"},"vehicle_type_id":"4","last_reported":1728558504,"current_range_meters":36800,"station_id":"","pricing_plan_id":"cebpf4jnsgd1na2vs0mg"},{"bike_id":"1724a986-206e-44c4-acc6-99c3f365633c","system_id":"levelo_inurba_marseille","lat":43.23197,"lon":5.35562,"is_reserved":false,"is_disabled":false,"rental_uris":{"android":"levelo://app?vid=1724a986-206e-44c4-acc6-99c3f365633c","ios":"levelo://app?vid=1724a986-206e-44c4-acc6-99c3f365633c"},"vehicle_type_id":"4","last_reported":1728558504,"current_range_meters":19200,"station_id":"ce4bhu92rcd13ifvqi70","pricing_plan_id":"cebpf4jnsgd1na2vs0mg"},{"bike_id":"c9f14e7e-cd41-4306-8cc0-0536ea78d422","system_id":"levelo_inurba_marseille","lat":43.33749,"lon":5.37456,"is_reserved":false,"is_disabled":false,"rental_uris":{"android":"levelo://app?vid=c9f14e7e-cd41-4306-8cc0-0536ea78d422","ios":"levelo://app?vid=c9f14e7e-cd41-4306-8cc0-0536ea78d422"},"vehicle_type_id":"4","last_reported":1728558504,"current_range_meters":36000,"station_id":"","pricing_plan_id":"cebpf4jnsgd1na2vs0mg"},{"bike_id":"a76ce426-c15e-429e-a703-154566c40993","system_id":"levelo_inurba_marseille","lat":43.34135,"lon":5.40899,"is_reserved":false,"is_disabled":false,"rental_uris":{"android":"levelo://app?vid=a76ce426-c15e-429e-a703-154566c40993","ios":"levelo://app?vid=a76ce426-c15e-429e-a703-154566c40993"},"vehicle_type_id":"4","last_reported":1728558504,"current_range_meters":25200,"station_id":"ce4bhqh2rcd13ifvqhlg","pricing_plan_id":"cebpf4jnsgd1na2vs0mg"},{"bike_id":"4dbb3b7a-0455-4b32-b274-a26e632ee998","system_id":"levelo_inurba_marseille","lat":43.28366,"lon":5.38107,"is_reserved":false,"is_disabled":false,"rental_uris":{"android":"levelo://app?vid=4dbb3b7a-0455-4b32-b274-a26e632ee998","ios":"levelo://app?vid=4dbb3b7a-0455-4b32-b274-a26e632ee998"},"vehicle_type_id":"4","last_reported":1728558504,"current_range_meters":8400,"station_id":"ce4bh412rcd13ifvqdr0","pricing_plan_id":"cebpf4jnsgd1na2vs0mg"},{"bike_id":"134ad89e-35dc-4ea2-af93-32abe6a60317","system_id":"levelo_inurba_marseille","lat":43.3414,"lon":5.40904,"is_reserved":false,"is_disabled":false,"rental_uris":{"android":"levelo://app?vid=134ad89e-35dc-4ea2-af93-32abe6a60317","ios":"levelo://app?vid=134ad89e-35dc-4ea2-af93-32abe6a60317"},"vehicle_type_id":"4","last_reported":1728558504,"current_range_meters":12000,"station_id":"ce4bhqh2rcd13ifvqhlg","pricing_plan_id":"cebpf4jnsgd1na2vs0mg"},{"bike_id":"ff98fd80-540f-4f68-8483-3e3d7a1b7c84","system_id":"levelo_inurba_marseille","lat":43.29167,"lon":5.37158,"is_reserved":false,"is_disabled":false,"rental_uris":{"android":"levelo://app?vid=ff98fd80-540f-4f68-8483-3e3d7a1b7c84","ios":"levelo://app?vid=ff98fd80-540f-4f68-8483-3e3d7a1b7c84"},"vehicle_type_id":"4","last_reported":1728558504,"current_range_meters":23200,"station_id":"ce4bha92rcd13ifvqeh0","pricing_plan_id":"cebpf4jnsgd1na2vs0mg"},{"bike_id":"a283cbf4-3a4c-46de-ac3d-4d7c731b36e3","system_id":"levelo_inurba_marseille","lat":43.33606,"lon":5.41031,"is_reserved":false,"is_disabled":false,"rental_uris":{"android":"levelo://app?vid=a283cbf4-3a4c-46de-ac3d-4d7c731b36e3","ios":"levelo://app?vid=a283cbf4-3a4c-46de-ac3d-4d7c731b36e3"},"vehicle_type_id":"4","last_reported":1728558504,"current_range_meters":38800,"station_id":"ce4bhqh2rcd13ifvqhmg","pricing_plan_id":"cebpf4jnsgd1na2vs0mg"},{"bike_id":"c3200e60-97cc-480a-8414-5ba0ea1fd823","system_id":"levelo_inurba_marseille","lat":43.337703,"lon":5.374692,"is_reserved":false,"is_disabled":false,"rental_uris":{"android":"levelo://app?vid=c3200e60-97cc-480a-8414-5ba0ea1fd823","ios":"levelo://app?vid=c3200e60-97cc-480a-8414-5ba0ea1fd823"},"vehicle_type_id":"4","last_reported":1728558504,"current_range_meters":8800,"station_id":"ce4rr2p2rcd13i802rgg","pricing_plan_id":"cebpf4jnsgd1na2vs0mg"},{"bike_id":"47599fab-79da-461f-89fd-43d1d10b8a6d","system_id":"levelo_inurba_marseille","lat":43.23156,"lon":5.4371,"is_reserved":false,"is_disabled":false,"rental_uris":{"android":"levelo://app?vid=47599fab-79da-461f-89fd-43d1d10b8a6d","ios":"levelo://app?vid=47599fab-79da-461f-89fd-43d1d10b8a6d"},"vehicle_type_id":"4","last_reported":1728558504,"current_range_meters":39200,"station_id":"ce4bhmp2rcd13ifvqgog","pricing_plan_id":"cebpf4jnsgd1na2vs0mg"},{"bike_id":"cffce793-1dbe-4d0b-8799-7d818b935ff1","system_id":"levelo_inurba_marseille","lat":43.29583,"lon":5.36737,"is_reserved":false,"is_disabled":false,"rental_uris":{"android":"levelo://app?vid=cffce793-1dbe-4d0b-8799-7d818b935ff1","ios":"levelo://app?vid=cffce793-1dbe-4d0b-8799-7d818b935ff1"},"vehicle_type_id":"4","last_reported":1728558504,"current_range_meters":27200,"station_id":"ce4bgph2rcd13ifvqc2g","pricing_plan_id":"cebpf4jnsgd1na2vs0mg"},{"bike_id":"c2709d8c-182c-4c66-9678-32143d413767","system_id":"levelo_inurba_marseille","lat":43.22936,"lon":5.35378,"is_reserved":false,"is_disabled":false,"rental_uris":{"android":"levelo://app?vid=c2709d8c-182c-4c66-9678-32143d413767","ios":"levelo://app?vid=c2709d8c-182c-4c66-9678-32143d413767"},"vehicle_type_id":"4","last_reported":1728558504,"current_range_meters":36800,"station_id":"cpo3532slgdg3j2ikp40","pricing_plan_id":"cebpf4jnsgd1na2vs0mg"},{"bike_id":"f61b5083-d349-4f40-8a99-50ab2c02f07d","system_id":"levelo_inurba_marseille","lat":43.29005,"lon":5.35613,"is_reserved":false,"is_disabled":false,"rental_uris":{"android":"levelo://app?vid=f61b5083-d349-4f40-8a99-50ab2c02f07d","ios":"levelo://app?vid=f61b5083-d349-4f40-8a99-50ab2c02f07d"},"vehicle_type_id":"4","last_reported":1728558504,"current_range_meters":12000,"station_id":"ce4bhb92rcd13ifvqen0","pricing_plan_id":"cebpf4jnsgd1na2vs0mg"},{"bike_id":"c909d09a-ba9d-494d-99ae-367ad5ef8d1c","system_id":"levelo_inurba_marseille","lat":43.30551,"lon":5.36709,"is_reserved":false,"is_disabled":false,"rental_uris":{"android":"levelo://app?vid=c909d09a-ba9d-494d-99ae-367ad5ef8d1c","ios":"levelo://app?vid=c909d09a-ba9d-494d-99ae-367ad5ef8d1c"},"vehicle_type_id":"4","last_reported":1728558504,"current_range_meters":29600,"station_id":"ce4bgrp2rcd13ifvqc9g","pricing_plan_id":"cebpf4jnsgd1na2vs0mg"},{"bike_id":"1eb820e8-d4f3-44f7-a4be-5abccb990447","system_id":"levelo_inurba_marseille","lat":43.24664,"lon":5.38158,"is_reserved":false,"is_disabled":false,"rental_uris":{"android":"levelo://app?vid=1eb820e8-d4f3-44f7-a4be-5abccb990447","ios":"levelo://app?vid=1eb820e8-d4f3-44f7-a4be-5abccb990447"},"vehicle_type_id":"4","last_reported":1728558504,"current_range_meters":28000,"station_id":"ce4bhih2rcd13ifvqfr0","pricing_plan_id":"cebpf4jnsgd1na2vs0mg"},{"bike_id":"0b9f802c-4cb0-483e-aeb1-e4602b864e27","system_id":"levelo_inurba_marseille","lat":43.29099,"lon":5.38129,"is_reserved":false,"is_disabled":false,"rental_uris":{"android":"levelo://app?vid=0b9f802c-4cb0-483e-aeb1-e4602b864e27","ios":"levelo://app?vid=0b9f802c-4cb0-483e-aeb1-e4602b864e27"},"vehicle_type_id":"4","last_reported":1728558504,"current_range_meters":27200,"station_id":"ce4bh512rcd13ifvqe2g","pricing_plan_id":"cebpf4jnsgd1na2vs0mg"},{"bike_id":"469eda9c-277c-40dc-ae18-2c95f36d8deb","system_id":"levelo_inurba_marseille","lat":43.27054,"lon":5.4025,"is_reserved":false,"is_disabled":false,"rental_uris":{"android":"levelo://app?vid=469eda9c-277c-40dc-ae18-2c95f36d8deb","ios":"levelo://app?vid=469eda9c-277c-40dc-ae18-2c95f36d8deb"},"vehicle_type_id":"4","last_reported":1728558504,"current_range_meters":28400,"station_id":"ce4bhk92rcd13ifvqgc0","pricing_plan_id":"cebpf4jnsgd1na2vs0mg"},{"bike_id":"3501af47-24c1-4105-83b6-2d8f680d8207","system_id":"levelo_inurba_marseille","lat":43.28615,"lon":5.35533,"is_reserved":false,"is_disabled":false,"rental_uris":{"android":"levelo://app?vid=3501af47-24c1-4105-83b6-2d8f680d8207","ios":"levelo://app?vid=3501af47-24c1-4105-83b6-2d8f680d8207"},"vehicle_type_id":"4","last_reported":1728558504,"current_range_meters":30000,"station_id":"ce4bhah2rcd13ifvqei0","pricing_plan_id":"cebpf4jnsgd1na2vs0mg"},{"bike_id":"1bb1ced1-6b75-4861-b685-a301f8770369","system_id":"levelo_inurba_marseille","lat":43.301233,"lon":5.39183,"is_reserved":false,"is_disabled":false,"rental_uris":{"android":"levelo://app?vid=1bb1ced1-6b75-4861-b685-a301f8770369","ios":"levelo://app?vid=1bb1ced1-6b75-4861-b685-a301f8770369"},"vehicle_type_id":"4","last_reported":1728558504,"current_range_meters":12400,"station_id":"","pricing_plan_id":"cebpf4jnsgd1na2vs0mg"},{"bike_id":"f4d16d74-9f5d-4324-bee1-48b07e6d7978","system_id":"levelo_inurba_marseille","lat":43.32654,"lon":5.40998,"is_reserved":false,"is_disabled":false,"rental_uris":{"android":"levelo://app?vid=f4d16d74-9f5d-4324-bee1-48b07e6d7978","ios":"levelo://app?vid=f4d16d74-9f5d-4324-bee1-48b07e6d7978"},"vehicle_type_id":"4","last_reported":1728558504,"current_range_meters":36800,"station_id":"ce4bhpp2rcd13ifvqhgg","pricing_plan_id":"cebpf4jnsgd1na2vs0mg"},{"bike_id":"191f894c-5ec4-4bb3-adfc-c821a49bd142","system_id":"levelo_inurba_marseille","lat":43.32478,"lon":5.36564,"is_reserved":false,"is_disabled":false,"rental_uris":{"android":"levelo://app?vid=191f894c-5ec4-4bb3-adfc-c821a49bd142","ios":"levelo://app?vid=191f894c-5ec4-4bb3-adfc-c821a49bd142"},"vehicle_type_id":"4","last_reported":1728558504,"current_range_meters":30400,"station_id":"ce4bhs12rcd13ifvqhvg","pricing_plan_id":"cebpf4jnsgd1na2vs0mg"},{"bike_id":"f92a9fb8-9f73-4cf9-bc9b-2bdf5b520248","system_id":"levelo_inurba_marseille","lat":43.32549,"lon":5.41436,"is_reserved":false,"is_disabled":false,"rental_uris":{"android":"levelo://app?vid=f92a9fb8-9f73-4cf9-bc9b-2bdf5b520248","ios":"levelo://app?vid=f92a9fb8-9f73-4cf9-bc9b-2bdf5b520248"},"vehicle_type_id":"4","last_reported":1728558504,"current_range_meters":38800,"station_id":"ce4bhq12rcd13ifvqhhg","pricing_plan_id":"cebpf4jnsgd1na2vs0mg"},{"bike_id":"4c57c060-1d66-4150-a400-d403f0d4484f","system_id":"levelo_inurba_marseille","lat":43.3266,"lon":5.40984,"is_reserved":false,"is_disabled":false,"rental_uris":{"android":"levelo://app?vid=4c57c060-1d66-4150-a400-d403f0d4484f","ios":"levelo://app?vid=4c57c060-1d66-4150-a400-d403f0d4484f"},"vehicle_type_id":"4","last_reported":1728558504,"current_range_meters":4000,"station_id":"ce4bhpp2rcd13ifvqhgg","pricing_plan_id":"cebpf4jnsgd1na2vs0mg"},{"bike_id":"252fdafd-d8bd-4445-933f-8c7cfafc9fac","system_id":"levelo_inurba_marseille","lat":43.24806,"lon":5.37456,"is_reserved":false,"is_disabled":false,"rental_uris":{"android":"levelo://app?vid=252fdafd-d8bd-4445-933f-8c7cfafc9fac","ios":"levelo://app?vid=252fdafd-d8bd-4445-933f-8c7cfafc9fac"},"vehicle_type_id":"4","last_reported":1728558504,"current_range_meters":38000,"station_id":"ce4bhgh2rcd13ifvqfb0","pricing_plan_id":"cebpf4jnsgd1na2vs0mg"},{"bike_id":"a611f1c4-1974-426a-b0ee-5a55788d8fd7","system_id":"levelo_inurba_marseille","lat":43.27998,"lon":5.40006,"is_reserved":false,"is_disabled":false,"rental_uris":{"android":"levelo://app?vid=a611f1c4-1974-426a-b0ee-5a55788d8fd7","ios":"levelo://app?vid=a611f1c4-1974-426a-b0ee-5a55788d8fd7"},"vehicle_type_id":"4","last_reported":1728558504,"current_range_meters":30000,"station_id":"ce4bho92rcd13ifvqh4g","pricing_plan_id":"cebpf4jnsgd1na2vs0mg"},{"bike_id":"fc7c8d91-b1a0-4ad9-a4df-f62029c13000","system_id":"levelo_inurba_marseille","lat":43.31218,"lon":5.36851,"is_reserved":false,"is_disabled":false,"rental_uris":{"android":"levelo://app?vid=fc7c8d91-b1a0-4ad9-a4df-f62029c13000","ios":"levelo://app?vid=fc7c8d91-b1a0-4ad9-a4df-f62029c13000"},"vehicle_type_id":"4","last_reported":1728558504,"current_range_meters":38800,"station_id":"ce4bgl92rcd13ifvqbq0","pricing_plan_id":"cebpf4jnsgd1na2vs0mg"},{"bike_id":"b73a0bcf-4f76-4b46-a014-56ec3a215452","system_id":"levelo_inurba_marseille","lat":43.24074,"lon":5.37761,"is_reserved":false,"is_disabled":false,"rental_uris":{"android":"levelo://app?vid=b73a0bcf-4f76-4b46-a014-56ec3a215452","ios":"levelo://app?vid=b73a0bcf-4f76-4b46-a014-56ec3a215452"},"vehicle_type_id":"4","last_reported":1728558504,"current_range_meters":18000,"station_id":"ce4bhnp2rcd13ifvqgvg","pricing_plan_id":"cebpf4jnsgd1na2vs0mg"},{"bike_id":"50aa4af7-94b4-48c9-959d-eeec3eaec001","system_id":"levelo_inurba_marseille","lat":43.2319,"lon":5.35535,"is_reserved":false,"is_disabled":false,"rental_uris":{"android":"levelo://app?vid=50aa4af7-94b4-48c9-959d-eeec3eaec001","ios":"levelo://app?vid=50aa4af7-94b4-48c9-959d-eeec3eaec001"},"vehicle_type_id":"4","last_reported":1728558504,"current_range_meters":8000,"station_id":"ce4bhu92rcd13ifvqi70","pricing_plan_id":"cebpf4jnsgd1na2vs0mg"},{"bike_id":"ce2e03b5-e959-4236-9292-21457c2dd4ca","system_id":"levelo_inurba_marseille","lat":43.26952,"lon":5.40285,"is_reserved":false,"is_disabled":false,"rental_uris":{"android":"levelo://app?vid=ce2e03b5-e959-4236-9292-21457c2dd4ca","ios":"levelo://app?vid=ce2e03b5-e959-4236-9292-21457c2dd4ca"},"vehicle_type_id":"4","last_reported":1728558504,"current_range_meters":27200,"station_id":"ce4bhnh2rcd13ifvqgtg","pricing_plan_id":"cebpf4jnsgd1na2vs0mg"},{"bike_id":"f54b7f36-3dfb-4655-a95c-8a2412555a1f","system_id":"levelo_inurba_marseille","lat":43.24811,"lon":5.37458,"is_reserved":false,"is_disabled":false,"rental_uris":{"android":"levelo://app?vid=f54b7f36-3dfb-4655-a95c-8a2412555a1f","ios":"levelo://app?vid=f54b7f36-3dfb-4655-a95c-8a2412555a1f"},"vehicle_type_id":"4","last_reported":1728558504,"current_range_meters":2000,"station_id":"ce4bhgh2rcd13ifvqfb0","pricing_plan_id":"cebpf4jnsgd1na2vs0mg"},{"bike_id":"48eacddf-68c2-479d-95fb-5ac38df97c75","system_id":"levelo_inurba_marseille","lat":43.29579,"lon":5.36747,"is_reserved":false,"is_disabled":false,"rental_uris":{"android":"levelo://app?vid=48eacddf-68c2-479d-95fb-5ac38df97c75","ios":"levelo://app?vid=48eacddf-68c2-479d-95fb-5ac38df97c75"},"vehicle_type_id":"4","last_reported":1728558504,"current_range_meters":39200,"station_id":"ce4bgph2rcd13ifvqc2g","pricing_plan_id":"cebpf4jnsgd1na2vs0mg"},{"bike_id":"5fcb97b9-d425-4a7f-9ed0-6de30a7d55a1","system_id":"levelo_inurba_marseille","lat":43.24804,"lon":5.37461,"is_reserved":false,"is_disabled":false,"rental_uris":{"android":"levelo://app?vid=5fcb97b9-d425-4a7f-9ed0-6de30a7d55a1","ios":"levelo://app?vid=5fcb97b9-d425-4a7f-9ed0-6de30a7d55a1"},"vehicle_type_id":"4","last_reported":1728558504,"current_range_meters":38800,"station_id":"ce4bhgh2rcd13ifvqfb0","pricing_plan_id":"cebpf4jnsgd1na2vs0mg"},{"bike_id":"dc000d54-25f9-415f-8941-9cc043b64296","system_id":"levelo_inurba_marseille","lat":43.28039,"lon":5.36945,"is_reserved":false,"is_disabled":false,"rental_uris":{"android":"levelo://app?vid=dc000d54-25f9-415f-8941-9cc043b64296","ios":"levelo://app?vid=dc000d54-25f9-415f-8941-9cc043b64296"},"vehicle_type_id":"4","last_reported":1728558504,"current_range_meters":19200,"station_id":"ce4bha12rcd13ifvqef0","pricing_plan_id":"cebpf4jnsgd1na2vs0mg"},{"bike_id":"aef72e73-4a6a-4a03-9d6a-8b952f9ab283","system_id":"levelo_inurba_marseille","lat":43.29913,"lon":5.37473,"is_reserved":false,"is_disabled":false,"rental_uris":{"android":"levelo://app?vid=aef72e73-4a6a-4a03-9d6a-8b952f9ab283","ios":"levelo://app?vid=aef72e73-4a6a-4a03-9d6a-8b952f9ab283"},"vehicle_type_id":"4","last_reported":1728558504,"current_range_meters":18800,"station_id":"ce4bgjh2rcd13ifvqbg0","pricing_plan_id":"cebpf4jnsgd1na2vs0mg"},{"bike_id":"5580a8b1-a0be-46b0-8834-40cda6c58598","system_id":"levelo_inurba_marseille","lat":43.29715,"lon":5.37684,"is_reserved":false,"is_disabled":false,"rental_uris":{"android":"levelo://app?vid=5580a8b1-a0be-46b0-8834-40cda6c58598","ios":"levelo://app?vid=5580a8b1-a0be-46b0-8834-40cda6c58598"},"vehicle_type_id":"4","last_reported":1728558504,"current_range_meters":33600,"station_id":"ce4bgkh2rcd13ifvqbl0","pricing_plan_id":"cebpf4jnsgd1na2vs0mg"},{"bike_id":"f15b86cb-1258-4604-9a88-119449d2c109","system_id":"levelo_inurba_marseille","lat":43.30595,"lon":5.39361,"is_reserved":false,"is_disabled":false,"rental_uris":{"android":"levelo://app?vid=f15b86cb-1258-4604-9a88-119449d2c109","ios":"levelo://app?vid=f15b86cb-1258-4604-9a88-119449d2c109"},"vehicle_type_id":"4","last_reported":1728558504,"current_range_meters":28000,"station_id":"ce4bh0p2rcd13ifvqd80","pricing_plan_id":"cebpf4jnsgd1na2vs0mg"},{"bike_id":"784e7055-ff9b-4fda-8638-1011cc1a1f84","system_id":"levelo_inurba_marseille","lat":43.27805,"lon":5.40707,"is_reserved":false,"is_disabled":false,"rental_uris":{"android":"levelo://app?vid=784e7055-ff9b-4fda-8638-1011cc1a1f84","ios":"levelo://app?vid=784e7055-ff9b-4fda-8638-1011cc1a1f84"},"vehicle_type_id":"4","last_reported":1728558504,"current_range_meters":24800,"station_id":"ce4bhnh2rcd13ifvqgtg","pricing_plan_id":"cebpf4jnsgd1na2vs0mg"},{"bike_id":"ff68b789-7173-415f-860f-fb58c1b9d01d","system_id":"levelo_inurba_marseille","lat":43.22928,"lon":5.35376,"is_reserved":false,"is_disabled":false,"rental_uris":{"android":"levelo://app?vid=ff68b789-7173-415f-860f-fb58c1b9d01d","ios":"levelo://app?vid=ff68b789-7173-415f-860f-fb58c1b9d01d"},"vehicle_type_id":"4","last_reported":1728558504,"current_range_meters":36800,"station_id":"cpo3532slgdg3j2ikp40","pricing_plan_id":"cebpf4jnsgd1na2vs0mg"},{"bike_id":"567ea70e-4e3e-4de3-8c98-ac409dc6caa0","system_id":"levelo_inurba_marseille","lat":43.27056,"lon":5.40261,"is_reserved":false,"is_disabled":false,"rental_uris":{"android":"levelo://app?vid=567ea70e-4e3e-4de3-8c98-ac409dc6caa0","ios":"levelo://app?vid=567ea70e-4e3e-4de3-8c98-ac409dc6caa0"},"vehicle_type_id":"4","last_reported":1728558504,"current_range_meters":23200,"station_id":"ce4bhk92rcd13ifvqgc0","pricing_plan_id":"cebpf4jnsgd1na2vs0mg"},{"bike_id":"69d8b390-41b0-463f-9bc1-a7cad808c550","system_id":"levelo_inurba_marseille","lat":43.31348,"lon":5.38497,"is_reserved":false,"is_disabled":false,"rental_uris":{"android":"levelo://app?vid=69d8b390-41b0-463f-9bc1-a7cad808c550","ios":"levelo://app?vid=69d8b390-41b0-463f-9bc1-a7cad808c550"},"vehicle_type_id":"4","last_reported":1728558504,"current_range_meters":26000,"station_id":"ce4bgt92rcd13ifvqcf0","pricing_plan_id":"cebpf4jnsgd1na2vs0mg"},{"bike_id":"fc34a4c2-5dda-43dc-8c76-0302a62a6427","system_id":"levelo_inurba_marseille","lat":43.23191,"lon":5.35558,"is_reserved":false,"is_disabled":false,"rental_uris":{"android":"levelo://app?vid=fc34a4c2-5dda-43dc-8c76-0302a62a6427","ios":"levelo://app?vid=fc34a4c2-5dda-43dc-8c76-0302a62a6427"},"vehicle_type_id":"4","last_reported":1728558504,"current_range_meters":36400,"station_id":"ce4bhu92rcd13ifvqi70","pricing_plan_id":"cebpf4jnsgd1na2vs0mg"},{"bike_id":"19cbba8e-cd80-4a99-baae-5a47360258d7","system_id":"levelo_inurba_marseille","lat":43.30209,"lon":5.39473,"is_reserved":false,"is_disabled":false,"rental_uris":{"android":"levelo://app?vid=19cbba8e-cd80-4a99-baae-5a47360258d7","ios":"levelo://app?vid=19cbba8e-cd80-4a99-baae-5a47360258d7"},"vehicle_type_id":"4","last_reported":1728558504,"current_range_meters":39200,"station_id":"ce4bh0p2rcd13ifvqd70","pricing_plan_id":"cebpf4jnsgd1na2vs0mg"},{"bike_id":"e69e17e0-0ca8-4a95-b8f4-81597f014eb7","system_id":"levelo_inurba_marseille","lat":43.30161,"lon":5.38083,"is_reserved":false,"is_disabled":false,"rental_uris":{"android":"levelo://app?vid=e69e17e0-0ca8-4a95-b8f4-81597f014eb7","ios":"levelo://app?vid=e69e17e0-0ca8-4a95-b8f4-81597f014eb7"},"vehicle_type_id":"4","last_reported":1728558504,"current_range_meters":30400,"station_id":"ce4bgjp2rcd13ifvqbh0","pricing_plan_id":"cebpf4jnsgd1na2vs0mg"},{"bike_id":"ac4b62b7-c90c-42d6-85f3-44bed0875e4c","system_id":"levelo_inurba_marseille","lat":43.28966,"lon":5.398,"is_reserved":false,"is_disabled":false,"rental_uris":{"android":"levelo://app?vid=ac4b62b7-c90c-42d6-85f3-44bed0875e4c","ios":"levelo://app?vid=ac4b62b7-c90c-42d6-85f3-44bed0875e4c"},"vehicle_type_id":"4","last_reported":1728558504,"current_range_meters":30000,"station_id":"ce4bh3h2rcd13ifvqdn0","pricing_plan_id":"cebpf4jnsgd1na2vs0mg"},{"bike_id":"31bf74f1-0803-417f-8678-811e6eefab3b","system_id":"levelo_inurba_marseille","lat":43.293756,"lon":5.402212,"is_reserved":false,"is_disabled":false,"rental_uris":{"android":"levelo://app?vid=31bf74f1-0803-417f-8678-811e6eefab3b","ios":"levelo://app?vid=31bf74f1-0803-417f-8678-811e6eefab3b"},"vehicle_type_id":"4","last_reported":1728558504,"current_range_meters":22800,"station_id":"ce4bh0h2rcd13ifvqd40","pricing_plan_id":"cebpf4jnsgd1na2vs0mg"},{"bike_id":"aac82c6a-b419-4c4c-b135-9733db48b825","system_id":"levelo_inurba_marseille","lat":43.2508,"lon":5.39514,"is_reserved":false,"is_disabled":false,"rental_uris":{"android":"levelo://app?vid=aac82c6a-b419-4c4c-b135-9733db48b825","ios":"levelo://app?vid=aac82c6a-b419-4c4c-b135-9733db48b825"},"vehicle_type_id":"4","last_reported":1728558504,"current_range_meters":27600,"station_id":"ce4bhm12rcd13ifvqgkg","pricing_plan_id":"cebpf4jnsgd1na2vs0mg"},{"bike_id":"2740e2b0-85bf-4760-a284-4aa5ea5dd6a5","system_id":"levelo_inurba_marseille","lat":43.25818,"lon":5.39442,"is_reserved":false,"is_disabled":false,"rental_uris":{"android":"levelo://app?vid=2740e2b0-85bf-4760-a284-4aa5ea5dd6a5","ios":"levelo://app?vid=2740e2b0-85bf-4760-a284-4aa5ea5dd6a5"},"vehicle_type_id":"4","last_reported":1728558504,"current_range_meters":4000,"station_id":"ce4bhip2rcd13ifvqft0","pricing_plan_id":"cebpf4jnsgd1na2vs0mg"},{"bike_id":"4e4e7083-89bd-4f48-a4f6-01f4a7d2fcc0","system_id":"levelo_inurba_marseille","lat":43.3415,"lon":5.40908,"is_reserved":false,"is_disabled":false,"rental_uris":{"android":"levelo://app?vid=4e4e7083-89bd-4f48-a4f6-01f4a7d2fcc0","ios":"levelo://app?vid=4e4e7083-89bd-4f48-a4f6-01f4a7d2fcc0"},"vehicle_type_id":"4","last_reported":1728558504,"current_range_meters":38000,"station_id":"ce4bhqh2rcd13ifvqhlg","pricing_plan_id":"cebpf4jnsgd1na2vs0mg"},{"bike_id":"423b2a18-8acf-40c1-8b87-a7ec182cc06e","system_id":"levelo_inurba_marseille","lat":43.28099,"lon":5.37831,"is_reserved":false,"is_disabled":false,"rental_uris":{"android":"levelo://app?vid=423b2a18-8acf-40c1-8b87-a7ec182cc06e","ios":"levelo://app?vid=423b2a18-8acf-40c1-8b87-a7ec182cc06e"},"vehicle_type_id":"4","last_reported":1728558504,"current_range_meters":20000,"station_id":"ce4bha12rcd13ifvqee0","pricing_plan_id":"cebpf4jnsgd1na2vs0mg"},{"bike_id":"a794ebf7-427a-458c-bf85-3010dcd8f1a5","system_id":"levelo_inurba_marseille","lat":43.299362,"lon":5.365626,"is_reserved":false,"is_disabled":false,"rental_uris":{"android":"levelo://app?vid=a794ebf7-427a-458c-bf85-3010dcd8f1a5","ios":"levelo://app?vid=a794ebf7-427a-458c-bf85-3010dcd8f1a5"},"vehicle_type_id":"4","last_reported":1728558504,"current_range_meters":38800,"station_id":"ce4bgm92rcd13ifvqbr0","pricing_plan_id":"cebpf4jnsgd1na2vs0mg"},{"bike_id":"abf57027-e53f-481a-b863-4f91ec3ad1d9","system_id":"levelo_inurba_marseille","lat":43.27947,"lon":5.41048,"is_reserved":false,"is_disabled":false,"rental_uris":{"android":"levelo://app?vid=abf57027-e53f-481a-b863-4f91ec3ad1d9","ios":"levelo://app?vid=abf57027-e53f-481a-b863-4f91ec3ad1d9"},"vehicle_type_id":"4","last_reported":1728558504,"current_range_meters":3600,"station_id":"ce4bhnp2rcd13ifvqh0g","pricing_plan_id":"cebpf4jnsgd1na2vs0mg"},{"bike_id":"352e4443-afb8-43ec-940b-b60880d6f14e","system_id":"levelo_inurba_marseille","lat":43.31236,"lon":5.36861,"is_reserved":false,"is_disabled":false,"rental_uris":{"android":"levelo://app?vid=352e4443-afb8-43ec-940b-b60880d6f14e","ios":"levelo://app?vid=352e4443-afb8-43ec-940b-b60880d6f14e"},"vehicle_type_id":"4","last_reported":1728558504,"current_range_meters":22800,"station_id":"ce4bgl92rcd13ifvqbq0","pricing_plan_id":"cebpf4jnsgd1na2vs0mg"},{"bike_id":"46f3565b-c947-41b1-ac9c-41f46878b5bc","system_id":"levelo_inurba_marseille","lat":43.29852,"lon":5.36284,"is_reserved":false,"is_disabled":false,"rental_uris":{"android":"levelo://app?vid=46f3565b-c947-41b1-ac9c-41f46878b5bc","ios":"levelo://app?vid=46f3565b-c947-41b1-ac9c-41f46878b5bc"},"vehicle_type_id":"4","last_reported":1728558504,"current_range_meters":30400,"station_id":"ce4bgpp2rcd13ifvqc3g","pricing_plan_id":"cebpf4jnsgd1na2vs0mg"},{"bike_id":"02893b5b-0a93-438a-9734-9eff91df5c62","system_id":"levelo_inurba_marseille","lat":43.24391,"lon":5.37062,"is_reserved":false,"is_disabled":false,"rental_uris":{"android":"levelo://app?vid=02893b5b-0a93-438a-9734-9eff91df5c62","ios":"levelo://app?vid=02893b5b-0a93-438a-9734-9eff91df5c62"},"vehicle_type_id":"4","last_reported":1728558504,"current_range_meters":28400,"station_id":"ce4bhhh2rcd13ifvqfk0","pricing_plan_id":"cebpf4jnsgd1na2vs0mg"},{"bike_id":"f90ca49f-87e5-4ffa-83bf-89fbe4726d17","system_id":"levelo_inurba_marseille","lat":43.23194,"lon":5.35541,"is_reserved":false,"is_disabled":false,"rental_uris":{"android":"levelo://app?vid=f90ca49f-87e5-4ffa-83bf-89fbe4726d17","ios":"levelo://app?vid=f90ca49f-87e5-4ffa-83bf-89fbe4726d17"},"vehicle_type_id":"4","last_reported":1728558504,"current_range_meters":36000,"station_id":"ce4bhu92rcd13ifvqi70","pricing_plan_id":"cebpf4jnsgd1na2vs0mg"},{"bike_id":"ad04c1a5-c229-47ec-8622-0656453fe0d0","system_id":"levelo_inurba_marseille","lat":43.33021,"lon":5.39048,"is_reserved":false,"is_disabled":false,"rental_uris":{"android":"levelo://app?vid=ad04c1a5-c229-47ec-8622-0656453fe0d0","ios":"levelo://app?vid=ad04c1a5-c229-47ec-8622-0656453fe0d0"},"vehicle_type_id":"4","last_reported":1728558504,"current_range_meters":30400,"station_id":"ce4bhr92rcd13ifvqhrg","pricing_plan_id":"cebpf4jnsgd1na2vs0mg"},{"bike_id":"c31288d9-b173-4e41-8a50-ff2b42963e4d","system_id":"levelo_inurba_marseille","lat":43.33772,"lon":5.37446,"is_reserved":false,"is_disabled":false,"rental_uris":{"android":"levelo://app?vid=c31288d9-b173-4e41-8a50-ff2b42963e4d","ios":"levelo://app?vid=c31288d9-b173-4e41-8a50-ff2b42963e4d"},"vehicle_type_id":"4","last_reported":1728558504,"current_range_meters":38800,"station_id":"ce4rr2p2rcd13i802rgg","pricing_plan_id":"cebpf4jnsgd1na2vs0mg"},{"bike_id":"6ba0e1d2-346f-484e-9c2e-e8a4fef59470","system_id":"levelo_inurba_marseille","lat":43.28851,"lon":5.3931,"is_reserved":false,"is_disabled":false,"rental_uris":{"android":"levelo://app?vid=6ba0e1d2-346f-484e-9c2e-e8a4fef59470","ios":"levelo://app?vid=6ba0e1d2-346f-484e-9c2e-e8a4fef59470"},"vehicle_type_id":"4","last_reported":1728558504,"current_range_meters":38000,"station_id":"ce4bh2p2rcd13ifvqdi0","pricing_plan_id":"cebpf4jnsgd1na2vs0mg"},{"bike_id":"0cd9dedc-0f32-4e19-b369-b1b909bc579a","system_id":"levelo_inurba_marseille","lat":43.28939,"lon":5.36637,"is_reserved":false,"is_disabled":false,"rental_uris":{"android":"levelo://app?vid=0cd9dedc-0f32-4e19-b369-b1b909bc579a","ios":"levelo://app?vid=0cd9dedc-0f32-4e19-b369-b1b909bc579a"},"vehicle_type_id":"4","last_reported":1728558504,"current_range_meters":15200,"station_id":"ce4bhap2rcd13ifvqek0","pricing_plan_id":"cebpf4jnsgd1na2vs0mg"},{"bike_id":"15be9eb4-5111-4db0-b718-2d14f3803b48","system_id":"levelo_inurba_marseille","lat":43.29043,"lon":5.35908,"is_reserved":false,"is_disabled":false,"rental_uris":{"android":"levelo://app?vid=15be9eb4-5111-4db0-b718-2d14f3803b48","ios":"levelo://app?vid=15be9eb4-5111-4db0-b718-2d14f3803b48"},"vehicle_type_id":"4","last_reported":1728558504,"current_range_meters":24000,"station_id":"ce4bha92rcd13ifvqeg0","pricing_plan_id":"cebpf4jnsgd1na2vs0mg"},{"bike_id":"cae9a4d0-4c01-4d57-a44a-d9a73d03efc5","system_id":"levelo_inurba_marseille","lat":43.279887,"lon":5.4166,"is_reserved":false,"is_disabled":false,"rental_uris":{"android":"levelo://app?vid=cae9a4d0-4c01-4d57-a44a-d9a73d03efc5","ios":"levelo://app?vid=cae9a4d0-4c01-4d57-a44a-d9a73d03efc5"},"vehicle_type_id":"4","last_reported":1728558504,"current_range_meters":32000,"station_id":"ce4bho12rcd13ifvqh1g","pricing_plan_id":"cebpf4jnsgd1na2vs0mg"},{"bike_id":"13088437-0029-4815-918c-d06b87d678db","system_id":"levelo_inurba_marseille","lat":43.27065,"lon":5.40268,"is_reserved":false,"is_disabled":false,"rental_uris":{"android":"levelo://app?vid=13088437-0029-4815-918c-d06b87d678db","ios":"levelo://app?vid=13088437-0029-4815-918c-d06b87d678db"},"vehicle_type_id":"4","last_reported":1728558504,"current_range_meters":38000,"station_id":"ce4bhk92rcd13ifvqgc0","pricing_plan_id":"cebpf4jnsgd1na2vs0mg"},{"bike_id":"9a94293a-aa52-4ec6-a8a4-32eac06d4cf0","system_id":"levelo_inurba_marseille","lat":43.27904,"lon":5.38016,"is_reserved":false,"is_disabled":false,"rental_uris":{"android":"levelo://app?vid=9a94293a-aa52-4ec6-a8a4-32eac06d4cf0","ios":"levelo://app?vid=9a94293a-aa52-4ec6-a8a4-32eac06d4cf0"},"vehicle_type_id":"4","last_reported":1728558504,"current_range_meters":9200,"station_id":"ce4bhf92rcd13ifvqf50","pricing_plan_id":"cebpf4jnsgd1na2vs0mg"},{"bike_id":"6c177a40-4704-434a-9cda-37a59fc669e7","system_id":"levelo_inurba_marseille","lat":43.23157,"lon":5.43708,"is_reserved":false,"is_disabled":false,"rental_uris":{"android":"levelo://app?vid=6c177a40-4704-434a-9cda-37a59fc669e7","ios":"levelo://app?vid=6c177a40-4704-434a-9cda-37a59fc669e7"},"vehicle_type_id":"4","last_reported":1728558504,"current_range_meters":33200,"station_id":"ce4bhmp2rcd13ifvqgog","pricing_plan_id":"cebpf4jnsgd1na2vs0mg"},{"bike_id":"12d262fc-5a1f-4924-bc0a-6bd5e23ab1ed","system_id":"levelo_inurba_marseille","lat":43.32055,"lon":5.41551,"is_reserved":false,"is_disabled":false,"rental_uris":{"android":"levelo://app?vid=12d262fc-5a1f-4924-bc0a-6bd5e23ab1ed","ios":"levelo://app?vid=12d262fc-5a1f-4924-bc0a-6bd5e23ab1ed"},"vehicle_type_id":"4","last_reported":1728558504,"current_range_meters":34000,"station_id":"ce4bhq92rcd13ifvqhkg","pricing_plan_id":"cebpf4jnsgd1na2vs0mg"},{"bike_id":"795eaa47-92f3-4c79-8851-832378372b2f","system_id":"levelo_inurba_marseille","lat":43.29037,"lon":5.3591,"is_reserved":false,"is_disabled":false,"rental_uris":{"android":"levelo://app?vid=795eaa47-92f3-4c79-8851-832378372b2f","ios":"levelo://app?vid=795eaa47-92f3-4c79-8851-832378372b2f"},"vehicle_type_id":"4","last_reported":1728558504,"current_range_meters":10000,"station_id":"ce4bha92rcd13ifvqeg0","pricing_plan_id":"cebpf4jnsgd1na2vs0mg"},{"bike_id":"6621e1af-9ca0-463c-a3ad-f651030b0dd3","system_id":"levelo_inurba_marseille","lat":43.23193,"lon":5.35549,"is_reserved":false,"is_disabled":false,"rental_uris":{"android":"levelo://app?vid=6621e1af-9ca0-463c-a3ad-f651030b0dd3","ios":"levelo://app?vid=6621e1af-9ca0-463c-a3ad-f651030b0dd3"},"vehicle_type_id":"4","last_reported":1728558504,"current_range_meters":36400,"station_id":"ce4bhu92rcd13ifvqi70","pricing_plan_id":"cebpf4jnsgd1na2vs0mg"},{"bike_id":"b9f94efe-59eb-4ab1-b691-d922614f9a76","system_id":"levelo_inurba_marseille","lat":43.32359,"lon":5.38888,"is_reserved":false,"is_disabled":false,"rental_uris":{"android":"levelo://app?vid=b9f94efe-59eb-4ab1-b691-d922614f9a76","ios":"levelo://app?vid=b9f94efe-59eb-4ab1-b691-d922614f9a76"},"vehicle_type_id":"4","last_reported":1728558504,"current_range_meters":21600,"station_id":"ce4bhqp2rcd13ifvqhog","pricing_plan_id":"cebpf4jnsgd1na2vs0mg"},{"bike_id":"08b7c071-d3b1-458b-95c7-4c04a933f747","system_id":"levelo_inurba_marseille","lat":43.32538,"lon":5.41424,"is_reserved":false,"is_disabled":false,"rental_uris":{"android":"levelo://app?vid=08b7c071-d3b1-458b-95c7-4c04a933f747","ios":"levelo://app?vid=08b7c071-d3b1-458b-95c7-4c04a933f747"},"vehicle_type_id":"4","last_reported":1728558504,"current_range_meters":8000,"station_id":"ce4bhq12rcd13ifvqhhg","pricing_plan_id":"cebpf4jnsgd1na2vs0mg"},{"bike_id":"ed1d8355-185d-4ad1-805d-58c5469e4588","system_id":"levelo_inurba_marseille","lat":43.29197,"lon":5.39333,"is_reserved":false,"is_disabled":false,"rental_uris":{"android":"levelo://app?vid=ed1d8355-185d-4ad1-805d-58c5469e4588","ios":"levelo://app?vid=ed1d8355-185d-4ad1-805d-58c5469e4588"},"vehicle_type_id":"4","last_reported":1728558504,"current_range_meters":39200,"station_id":"ce4bh192rcd13ifvqdd0","pricing_plan_id":"cebpf4jnsgd1na2vs0mg"},{"bike_id":"7cd4f076-c387-4bde-8419-ce4b9347edcc","system_id":"levelo_inurba_marseille","lat":43.31769,"lon":5.39012,"is_reserved":false,"is_disabled":false,"rental_uris":{"android":"levelo://app?vid=7cd4f076-c387-4bde-8419-ce4b9347edcc","ios":"levelo://app?vid=7cd4f076-c387-4bde-8419-ce4b9347edcc"},"vehicle_type_id":"4","last_reported":1728558504,"current_range_meters":19600,"station_id":"ce4bhqp2rcd13ifvqhng","pricing_plan_id":"cebpf4jnsgd1na2vs0mg"},{"bike_id":"e5e6ef75-ea42-447b-ad4d-89959cbb3aa0","system_id":"levelo_inurba_marseille","lat":43.29622,"lon":5.37171,"is_reserved":false,"is_disabled":false,"rental_uris":{"android":"levelo://app?vid=e5e6ef75-ea42-447b-ad4d-89959cbb3aa0","ios":"levelo://app?vid=e5e6ef75-ea42-447b-ad4d-89959cbb3aa0"},"vehicle_type_id":"4","last_reported":1728558504,"current_range_meters":36400,"station_id":"ce4bgnh2rcd13ifvqc0g","pricing_plan_id":"cebpf4jnsgd1na2vs0mg"},{"bike_id":"1f20d9ad-7ff3-464a-a58a-61f70831c43b","system_id":"levelo_inurba_marseille","lat":43.25498,"lon":5.3766,"is_reserved":false,"is_disabled":false,"rental_uris":{"android":"levelo://app?vid=1f20d9ad-7ff3-464a-a58a-61f70831c43b","ios":"levelo://app?vid=1f20d9ad-7ff3-464a-a58a-61f70831c43b"},"vehicle_type_id":"4","last_reported":1728558504,"current_range_meters":36400,"station_id":"ce4bhgh2rcd13ifvqfa0","pricing_plan_id":"cebpf4jnsgd1na2vs0mg"},{"bike_id":"c8de048a-298d-44d4-bcbc-9563b0a2c65c","system_id":"levelo_inurba_marseille","lat":43.32658,"lon":5.40989,"is_reserved":false,"is_disabled":false,"rental_uris":{"android":"levelo://app?vid=c8de048a-298d-44d4-bcbc-9563b0a2c65c","ios":"levelo://app?vid=c8de048a-298d-44d4-bcbc-9563b0a2c65c"},"vehicle_type_id":"4","last_reported":1728558504,"current_range_meters":10000,"station_id":"ce4bhpp2rcd13ifvqhgg","pricing_plan_id":"cebpf4jnsgd1na2vs0mg"},{"bike_id":"2d7cc823-02c5-4309-bccd-4d3974794a48","system_id":"levelo_inurba_marseille","lat":43.32534,"lon":5.4143,"is_reserved":false,"is_disabled":false,"rental_uris":{"android":"levelo://app?vid=2d7cc823-02c5-4309-bccd-4d3974794a48","ios":"levelo://app?vid=2d7cc823-02c5-4309-bccd-4d3974794a48"},"vehicle_type_id":"4","last_reported":1728558504,"current_range_meters":32400,"station_id":"ce4bhq12rcd13ifvqhhg","pricing_plan_id":"cebpf4jnsgd1na2vs0mg"},{"bike_id":"fbff50ef-7d66-4844-b57d-ba6ad65cebb1","system_id":"levelo_inurba_marseille","lat":43.24072,"lon":5.37761,"is_reserved":false,"is_disabled":false,"rental_uris":{"android":"levelo://app?vid=fbff50ef-7d66-4844-b57d-ba6ad65cebb1","ios":"levelo://app?vid=fbff50ef-7d66-4844-b57d-ba6ad65cebb1"},"vehicle_type_id":"4","last_reported":1728558504,"current_range_meters":25600,"station_id":"ce4bhnp2rcd13ifvqgvg","pricing_plan_id":"cebpf4jnsgd1na2vs0mg"},{"bike_id":"17e3d79c-7b73-49c5-82cd-f33337a81071","system_id":"levelo_inurba_marseille","lat":43.2988,"lon":5.38903,"is_reserved":false,"is_disabled":false,"rental_uris":{"android":"levelo://app?vid=17e3d79c-7b73-49c5-82cd-f33337a81071","ios":"levelo://app?vid=17e3d79c-7b73-49c5-82cd-f33337a81071"},"vehicle_type_id":"4","last_reported":1728558504,"current_range_meters":27600,"station_id":"ce4bh392rcd13ifvqdl0","pricing_plan_id":"cebpf4jnsgd1na2vs0mg"},{"bike_id":"4e52f094-35e5-497c-b6a3-5866f375345b","system_id":"levelo_inurba_marseille","lat":43.24545,"lon":5.39525,"is_reserved":false,"is_disabled":false,"rental_uris":{"android":"levelo://app?vid=4e52f094-35e5-497c-b6a3-5866f375345b","ios":"levelo://app?vid=4e52f094-35e5-497c-b6a3-5866f375345b"},"vehicle_type_id":"4","last_reported":1728558504,"current_range_meters":39200,"station_id":"ce4bhlp2rcd13ifvqgjg","pricing_plan_id":"cebpf4jnsgd1na2vs0mg"},{"bike_id":"d162f702-3406-4aac-976e-fe94a310571a","system_id":"levelo_inurba_marseille","lat":43.28577,"lon":5.39496,"is_reserved":false,"is_disabled":false,"rental_uris":{"android":"levelo://app?vid=d162f702-3406-4aac-976e-fe94a310571a","ios":"levelo://app?vid=d162f702-3406-4aac-976e-fe94a310571a"},"vehicle_type_id":"4","last_reported":1728558504,"current_range_meters":14800,"station_id":"ce4bh292rcd13ifvqdg0","pricing_plan_id":"cebpf4jnsgd1na2vs0mg"},{"bike_id":"6cd7d39b-2087-4d21-86bb-e2284a62aeb5","system_id":"levelo_inurba_marseille","lat":43.23189,"lon":5.35555,"is_reserved":false,"is_disabled":false,"rental_uris":{"android":"levelo://app?vid=6cd7d39b-2087-4d21-86bb-e2284a62aeb5","ios":"levelo://app?vid=6cd7d39b-2087-4d21-86bb-e2284a62aeb5"},"vehicle_type_id":"4","last_reported":1728558504,"current_range_meters":2800,"station_id":"ce4bhu92rcd13ifvqi70","pricing_plan_id":"cebpf4jnsgd1na2vs0mg"},{"bike_id":"b1618404-83f5-4227-b91e-9409d4cfcaae","system_id":"levelo_inurba_marseille","lat":43.31066,"lon":5.3836,"is_reserved":false,"is_disabled":false,"rental_uris":{"android":"levelo://app?vid=b1618404-83f5-4227-b91e-9409d4cfcaae","ios":"levelo://app?vid=b1618404-83f5-4227-b91e-9409d4cfcaae"},"vehicle_type_id":"4","last_reported":1728558504,"current_range_meters":4400,"station_id":"ce4bgv92rcd13ifvqcr0","pricing_plan_id":"cebpf4jnsgd1na2vs0mg"},{"bike_id":"8034954c-a6c8-46de-8165-a51114fd0886","system_id":"levelo_inurba_marseille","lat":43.29849,"lon":5.36293,"is_reserved":false,"is_disabled":false,"rental_uris":{"android":"levelo://app?vid=8034954c-a6c8-46de-8165-a51114fd0886","ios":"levelo://app?vid=8034954c-a6c8-46de-8165-a51114fd0886"},"vehicle_type_id":"4","last_reported":1728558504,"current_range_meters":20400,"station_id":"ce4bgpp2rcd13ifvqc3g","pricing_plan_id":"cebpf4jnsgd1na2vs0mg"},{"bike_id":"0a914b9b-1fcc-4758-a91b-1f2a11f6cf7a","system_id":"levelo_inurba_marseille","lat":43.27183,"lon":5.40995,"is_reserved":false,"is_disabled":false,"rental_uris":{"android":"levelo://app?vid=0a914b9b-1fcc-4758-a91b-1f2a11f6cf7a","ios":"levelo://app?vid=0a914b9b-1fcc-4758-a91b-1f2a11f6cf7a"},"vehicle_type_id":"4","last_reported":1728558504,"current_range_meters":17200,"station_id":"ce4bhl12rcd13ifvqgf0","pricing_plan_id":"cebpf4jnsgd1na2vs0mg"},{"bike_id":"8665fe75-7b1c-4b25-955b-a02aa16eff4b","system_id":"levelo_inurba_marseille","lat":43.28798,"lon":5.36356,"is_reserved":false,"is_disabled":false,"rental_uris":{"android":"levelo://app?vid=8665fe75-7b1c-4b25-955b-a02aa16eff4b","ios":"levelo://app?vid=8665fe75-7b1c-4b25-955b-a02aa16eff4b"},"vehicle_type_id":"4","last_reported":1728558504,"current_range_meters":17600,"station_id":"","pricing_plan_id":"cebpf4jnsgd1na2vs0mg"},{"bike_id":"b474e2cc-bb0e-4c5a-a472-0b6a94930de8","system_id":"levelo_inurba_marseille","lat":43.28105,"lon":5.37845,"is_reserved":false,"is_disabled":false,"rental_uris":{"android":"levelo://app?vid=b474e2cc-bb0e-4c5a-a472-0b6a94930de8","ios":"levelo://app?vid=b474e2cc-bb0e-4c5a-a472-0b6a94930de8"},"vehicle_type_id":"4","last_reported":1728558504,"current_range_meters":16000,"station_id":"ce4bha12rcd13ifvqee0","pricing_plan_id":"cebpf4jnsgd1na2vs0mg"},{"bike_id":"48158b6e-aa15-46fa-b108-be5bdb7a3a31","system_id":"levelo_inurba_marseille","lat":43.33764,"lon":5.37475,"is_reserved":false,"is_disabled":false,"rental_uris":{"android":"levelo://app?vid=48158b6e-aa15-46fa-b108-be5bdb7a3a31","ios":"levelo://app?vid=48158b6e-aa15-46fa-b108-be5bdb7a3a31"},"vehicle_type_id":"4","last_reported":1728558504,"current_range_meters":28400,"station_id":"ce4rr2p2rcd13i802rgg","pricing_plan_id":"cebpf4jnsgd1na2vs0mg"},{"bike_id":"f07619f9-813d-4c44-b59e-98b7b95afeb5","system_id":"levelo_inurba_marseille","lat":43.25585,"lon":5.38231,"is_reserved":false,"is_disabled":false,"rental_uris":{"android":"levelo://app?vid=f07619f9-813d-4c44-b59e-98b7b95afeb5","ios":"levelo://app?vid=f07619f9-813d-4c44-b59e-98b7b95afeb5"},"vehicle_type_id":"4","last_reported":1728558504,"current_range_meters":22800,"station_id":"ce4bhih2rcd13ifvqfs0","pricing_plan_id":"cebpf4jnsgd1na2vs0mg"},{"bike_id":"e2dedf1c-7e55-45e6-8fb6-1039ae9ab85a","system_id":"levelo_inurba_marseille","lat":43.24394,"lon":5.37058,"is_reserved":false,"is_disabled":false,"rental_uris":{"android":"levelo://app?vid=e2dedf1c-7e55-45e6-8fb6-1039ae9ab85a","ios":"levelo://app?vid=e2dedf1c-7e55-45e6-8fb6-1039ae9ab85a"},"vehicle_type_id":"4","last_reported":1728558504,"current_range_meters":34800,"station_id":"ce4bhhh2rcd13ifvqfk0","pricing_plan_id":"cebpf4jnsgd1na2vs0mg"},{"bike_id":"86696e7a-c73b-4dd8-9ac1-97921c6f346e","system_id":"levelo_inurba_marseille","lat":43.30911,"lon":5.36854,"is_reserved":false,"is_disabled":false,"rental_uris":{"android":"levelo://app?vid=86696e7a-c73b-4dd8-9ac1-97921c6f346e","ios":"levelo://app?vid=86696e7a-c73b-4dd8-9ac1-97921c6f346e"},"vehicle_type_id":"4","last_reported":1728558504,"current_range_meters":6800,"station_id":"ce4bgn92rcd13ifvqbvg","pricing_plan_id":"cebpf4jnsgd1na2vs0mg"},{"bike_id":"cff9df36-1f67-4a24-8aa8-b00133f0fd7d","system_id":"levelo_inurba_marseille","lat":43.2957,"lon":5.37527,"is_reserved":false,"is_disabled":false,"rental_uris":{"android":"levelo://app?vid=cff9df36-1f67-4a24-8aa8-b00133f0fd7d","ios":"levelo://app?vid=cff9df36-1f67-4a24-8aa8-b00133f0fd7d"},"vehicle_type_id":"4","last_reported":1728558504,"current_range_meters":24800,"station_id":"ce4bgh92rcd13ifvqb50","pricing_plan_id":"cebpf4jnsgd1na2vs0mg"},{"bike_id":"0b1c0409-a884-43e8-8355-ea7338adeb90","system_id":"levelo_inurba_marseille","lat":43.32545,"lon":5.41441,"is_reserved":false,"is_disabled":false,"rental_uris":{"android":"levelo://app?vid=0b1c0409-a884-43e8-8355-ea7338adeb90","ios":"levelo://app?vid=0b1c0409-a884-43e8-8355-ea7338adeb90"},"vehicle_type_id":"4","last_reported":1728558504,"current_range_meters":32000,"station_id":"ce4bhq12rcd13ifvqhhg","pricing_plan_id":"cebpf4jnsgd1na2vs0mg"},{"bike_id":"eb6e32f7-c3f4-42b6-b9eb-735b9fbd1a29","system_id":"levelo_inurba_marseille","lat":43.25933,"lon":5.4091,"is_reserved":false,"is_disabled":false,"rental_uris":{"android":"levelo://app?vid=eb6e32f7-c3f4-42b6-b9eb-735b9fbd1a29","ios":"levelo://app?vid=eb6e32f7-c3f4-42b6-b9eb-735b9fbd1a29"},"vehicle_type_id":"4","last_reported":1728558504,"current_range_meters":14400,"station_id":"ce4bhm92rcd13ifvqglg","pricing_plan_id":"cebpf4jnsgd1na2vs0mg"},{"bike_id":"af83b8a4-7919-41bc-a335-b84b85c44c0b","system_id":"levelo_inurba_marseille","lat":43.29206,"lon":5.39314,"is_reserved":false,"is_disabled":false,"rental_uris":{"android":"levelo://app?vid=af83b8a4-7919-41bc-a335-b84b85c44c0b","ios":"levelo://app?vid=af83b8a4-7919-41bc-a335-b84b85c44c0b"},"vehicle_type_id":"4","last_reported":1728558504,"current_range_meters":29600,"station_id":"ce4bh192rcd13ifvqdd0","pricing_plan_id":"cebpf4jnsgd1na2vs0mg"},{"bike_id":"6731ea1f-a12c-4e84-8e6d-bb0622a06df1","system_id":"levelo_inurba_marseille","lat":43.29784,"lon":5.371,"is_reserved":false,"is_disabled":false,"rental_uris":{"android":"levelo://app?vid=6731ea1f-a12c-4e84-8e6d-bb0622a06df1","ios":"levelo://app?vid=6731ea1f-a12c-4e84-8e6d-bb0622a06df1"},"vehicle_type_id":"4","last_reported":1728558504,"current_range_meters":17600,"station_id":"ce4bgop2rcd13ifvqc1g","pricing_plan_id":"cebpf4jnsgd1na2vs0mg"},{"bike_id":"c2f32003-23fb-45a7-a2ae-e38e21f9c7f1","system_id":"levelo_inurba_marseille","lat":43.2407,"lon":5.37763,"is_reserved":false,"is_disabled":false,"rental_uris":{"android":"levelo://app?vid=c2f32003-23fb-45a7-a2ae-e38e21f9c7f1","ios":"levelo://app?vid=c2f32003-23fb-45a7-a2ae-e38e21f9c7f1"},"vehicle_type_id":"4","last_reported":1728558504,"current_range_meters":9200,"station_id":"ce4bhnp2rcd13ifvqgvg","pricing_plan_id":"cebpf4jnsgd1na2vs0mg"},{"bike_id":"62ccfddd-1382-446c-9bf2-416c2cb7471b","system_id":"levelo_inurba_marseille","lat":43.30551,"lon":5.36529,"is_reserved":false,"is_disabled":false,"rental_uris":{"android":"levelo://app?vid=62ccfddd-1382-446c-9bf2-416c2cb7471b","ios":"levelo://app?vid=62ccfddd-1382-446c-9bf2-416c2cb7471b"},"vehicle_type_id":"4","last_reported":1728558504,"current_range_meters":34000,"station_id":"ce4bgs12rcd13ifvqcag","pricing_plan_id":"cebpf4jnsgd1na2vs0mg"},{"bike_id":"fc3f0547-89f3-45ed-b216-20a87ce42cb7","system_id":"levelo_inurba_marseille","lat":43.2315,"lon":5.43725,"is_reserved":false,"is_disabled":false,"rental_uris":{"android":"levelo://app?vid=fc3f0547-89f3-45ed-b216-20a87ce42cb7","ios":"levelo://app?vid=fc3f0547-89f3-45ed-b216-20a87ce42cb7"},"vehicle_type_id":"4","last_reported":1728558504,"current_range_meters":24800,"station_id":"ce4bhmp2rcd13ifvqgog","pricing_plan_id":"cebpf4jnsgd1na2vs0mg"},{"bike_id":"05352706-ffde-4c5f-832c-cbd3c2593f5f","system_id":"levelo_inurba_marseille","lat":43.31712,"lon":5.43712,"is_reserved":false,"is_disabled":false,"rental_uris":{"android":"levelo://app?vid=05352706-ffde-4c5f-832c-cbd3c2593f5f","ios":"levelo://app?vid=05352706-ffde-4c5f-832c-cbd3c2593f5f"},"vehicle_type_id":"4","last_reported":1728558504,"current_range_meters":8000,"station_id":"ce4bhp92rcd13ifvqhcg","pricing_plan_id":"cebpf4jnsgd1na2vs0mg"},{"bike_id":"aa75c41c-1391-4d5a-b0ad-fb29c317877d","system_id":"levelo_inurba_marseille","lat":43.23063,"lon":5.35498,"is_reserved":false,"is_disabled":false,"rental_uris":{"android":"levelo://app?vid=aa75c41c-1391-4d5a-b0ad-fb29c317877d","ios":"levelo://app?vid=aa75c41c-1391-4d5a-b0ad-fb29c317877d"},"vehicle_type_id":"4","last_reported":1728558504,"current_range_meters":12000,"station_id":"cpo3342slgdg3j2ifvpg","pricing_plan_id":"cebpf4jnsgd1na2vs0mg"},{"bike_id":"02c2e790-1df7-4c13-8f74-01a585b06eb8","system_id":"levelo_inurba_marseille","lat":43.33748,"lon":5.37462,"is_reserved":false,"is_disabled":false,"rental_uris":{"android":"levelo://app?vid=02c2e790-1df7-4c13-8f74-01a585b06eb8","ios":"levelo://app?vid=02c2e790-1df7-4c13-8f74-01a585b06eb8"},"vehicle_type_id":"4","last_reported":1728558504,"current_range_meters":26800,"station_id":"ce4rr2p2rcd13i802rgg","pricing_plan_id":"cebpf4jnsgd1na2vs0mg"},{"bike_id":"3815e933-e20e-4440-bbdd-11c9132eb606","system_id":"levelo_inurba_marseille","lat":43.33601,"lon":5.41025,"is_reserved":false,"is_disabled":false,"rental_uris":{"android":"levelo://app?vid=3815e933-e20e-4440-bbdd-11c9132eb606","ios":"levelo://app?vid=3815e933-e20e-4440-bbdd-11c9132eb606"},"vehicle_type_id":"4","last_reported":1728558504,"current_range_meters":38800,"station_id":"ce4bhqh2rcd13ifvqhmg","pricing_plan_id":"cebpf4jnsgd1na2vs0mg"},{"bike_id":"c16cf7f6-f1d1-4c55-99ff-06b0ddaf0455","system_id":"levelo_inurba_marseille","lat":43.24082,"lon":5.3774,"is_reserved":false,"is_disabled":false,"rental_uris":{"android":"levelo://app?vid=c16cf7f6-f1d1-4c55-99ff-06b0ddaf0455","ios":"levelo://app?vid=c16cf7f6-f1d1-4c55-99ff-06b0ddaf0455"},"vehicle_type_id":"4","last_reported":1728558504,"current_range_meters":28400,"station_id":"ce4bhnp2rcd13ifvqgvg","pricing_plan_id":"cebpf4jnsgd1na2vs0mg"},{"bike_id":"b7507c69-0bc0-4e9e-9023-7bda0a81f93b","system_id":"levelo_inurba_marseille","lat":43.30552,"lon":5.36535,"is_reserved":false,"is_disabled":false,"rental_uris":{"android":"levelo://app?vid=b7507c69-0bc0-4e9e-9023-7bda0a81f93b","ios":"levelo://app?vid=b7507c69-0bc0-4e9e-9023-7bda0a81f93b"},"vehicle_type_id":"4","last_reported":1728558504,"current_range_meters":39200,"station_id":"ce4bgs12rcd13ifvqcag","pricing_plan_id":"cebpf4jnsgd1na2vs0mg"},{"bike_id":"b3fbb7a4-58dd-4801-8cf1-92414f8ce594","system_id":"levelo_inurba_marseille","lat":43.2799,"lon":5.41653,"is_reserved":false,"is_disabled":false,"rental_uris":{"android":"levelo://app?vid=b3fbb7a4-58dd-4801-8cf1-92414f8ce594","ios":"levelo://app?vid=b3fbb7a4-58dd-4801-8cf1-92414f8ce594"},"vehicle_type_id":"4","last_reported":1728558504,"current_range_meters":25200,"station_id":"ce4bho12rcd13ifvqh1g","pricing_plan_id":"cebpf4jnsgd1na2vs0mg"},{"bike_id":"3833489f-8786-441e-a7ea-596360500d66","system_id":"levelo_inurba_marseille","lat":43.29874,"lon":5.3891,"is_reserved":false,"is_disabled":false,"rental_uris":{"android":"levelo://app?vid=3833489f-8786-441e-a7ea-596360500d66","ios":"levelo://app?vid=3833489f-8786-441e-a7ea-596360500d66"},"vehicle_type_id":"4","last_reported":1728558504,"current_range_meters":24800,"station_id":"ce4bh392rcd13ifvqdl0","pricing_plan_id":"cebpf4jnsgd1na2vs0mg"},{"bike_id":"1d487432-ceb5-4276-a7b0-11e8c70ce1c1","system_id":"levelo_inurba_marseille","lat":43.30597,"lon":5.39361,"is_reserved":false,"is_disabled":false,"rental_uris":{"android":"levelo://app?vid=1d487432-ceb5-4276-a7b0-11e8c70ce1c1","ios":"levelo://app?vid=1d487432-ceb5-4276-a7b0-11e8c70ce1c1"},"vehicle_type_id":"4","last_reported":1728558504,"current_range_meters":9600,"station_id":"ce4bh0p2rcd13ifvqd80","pricing_plan_id":"cebpf4jnsgd1na2vs0mg"},{"bike_id":"101d89f9-c6c1-46de-b9db-b649498f27b4","system_id":"levelo_inurba_marseille","lat":43.32535,"lon":5.41441,"is_reserved":false,"is_disabled":false,"rental_uris":{"android":"levelo://app?vid=101d89f9-c6c1-46de-b9db-b649498f27b4","ios":"levelo://app?vid=101d89f9-c6c1-46de-b9db-b649498f27b4"},"vehicle_type_id":"4","last_reported":1728558504,"current_range_meters":8400,"station_id":"ce4bhq12rcd13ifvqhhg","pricing_plan_id":"cebpf4jnsgd1na2vs0mg"},{"bike_id":"4c3d1fbb-078e-4ec9-920d-8b149e6a78f0","system_id":"levelo_inurba_marseille","lat":43.32049,"lon":5.41572,"is_reserved":false,"is_disabled":false,"rental_uris":{"android":"levelo://app?vid=4c3d1fbb-078e-4ec9-920d-8b149e6a78f0","ios":"levelo://app?vid=4c3d1fbb-078e-4ec9-920d-8b149e6a78f0"},"vehicle_type_id":"4","last_reported":1728558504,"current_range_meters":26800,"station_id":"ce4bhq92rcd13ifvqhkg","pricing_plan_id":"cebpf4jnsgd1na2vs0mg"},{"bike_id":"b23acee4-5720-4575-91af-11c4e23edb2d","system_id":"levelo_inurba_marseille","lat":43.337444,"lon":5.374475,"is_reserved":false,"is_disabled":false,"rental_uris":{"android":"levelo://app?vid=b23acee4-5720-4575-91af-11c4e23edb2d","ios":"levelo://app?vid=b23acee4-5720-4575-91af-11c4e23edb2d"},"vehicle_type_id":"4","last_reported":1728558504,"current_range_meters":38400,"station_id":"ce4bhbh2rcd13ifvqepg","pricing_plan_id":"cebpf4jnsgd1na2vs0mg"},{"bike_id":"204d1ba1-bce7-4445-939d-ac9c79360922","system_id":"levelo_inurba_marseille","lat":43.30101,"lon":5.39074,"is_reserved":false,"is_disabled":false,"rental_uris":{"android":"levelo://app?vid=204d1ba1-bce7-4445-939d-ac9c79360922","ios":"levelo://app?vid=204d1ba1-bce7-4445-939d-ac9c79360922"},"vehicle_type_id":"4","last_reported":1728558504,"current_range_meters":39200,"station_id":"ce4bh192rcd13ifvqdb0","pricing_plan_id":"cebpf4jnsgd1na2vs0mg"},{"bike_id":"30a59826-f69c-4813-b1a3-e1526ded3814","system_id":"levelo_inurba_marseille","lat":43.29007,"lon":5.35612,"is_reserved":false,"is_disabled":false,"rental_uris":{"android":"levelo://app?vid=30a59826-f69c-4813-b1a3-e1526ded3814","ios":"levelo://app?vid=30a59826-f69c-4813-b1a3-e1526ded3814"},"vehicle_type_id":"4","last_reported":1728558504,"current_range_meters":35600,"station_id":"ce4bhb92rcd13ifvqen0","pricing_plan_id":"cebpf4jnsgd1na2vs0mg"},{"bike_id":"62f352ec-e233-4d7f-8753-6a5615214777","system_id":"levelo_inurba_marseille","lat":43.32296,"lon":5.38246,"is_reserved":false,"is_disabled":false,"rental_uris":{"android":"levelo://app?vid=62f352ec-e233-4d7f-8753-6a5615214777","ios":"levelo://app?vid=62f352ec-e233-4d7f-8753-6a5615214777"},"vehicle_type_id":"4","last_reported":1728558504,"current_range_meters":38800,"station_id":"ce4bhr12rcd13ifvqhqg","pricing_plan_id":"cebpf4jnsgd1na2vs0mg"},{"bike_id":"ba2076b1-d5d3-4e9e-b275-11ed45f70b9d","system_id":"levelo_inurba_marseille","lat":43.29199,"lon":5.35812,"is_reserved":false,"is_disabled":false,"rental_uris":{"android":"levelo://app?vid=ba2076b1-d5d3-4e9e-b275-11ed45f70b9d","ios":"levelo://app?vid=ba2076b1-d5d3-4e9e-b275-11ed45f70b9d"},"vehicle_type_id":"4","last_reported":1728558504,"current_range_meters":28800,"station_id":"ce4bhb12rcd13ifvqel0","pricing_plan_id":"cebpf4jnsgd1na2vs0mg"},{"bike_id":"4ccb046f-2614-4044-8238-6e23561f19a6","system_id":"levelo_inurba_marseille","lat":43.30192,"lon":5.36602,"is_reserved":false,"is_disabled":false,"rental_uris":{"android":"levelo://app?vid=4ccb046f-2614-4044-8238-6e23561f19a6","ios":"levelo://app?vid=4ccb046f-2614-4044-8238-6e23561f19a6"},"vehicle_type_id":"4","last_reported":1728558504,"current_range_meters":18000,"station_id":"ce4bgrh2rcd13ifvqc8g","pricing_plan_id":"cebpf4jnsgd1na2vs0mg"},{"bike_id":"b3604698-9bcb-4140-82c0-513aa7c56e54","system_id":"levelo_inurba_marseille","lat":43.28464,"lon":5.35891,"is_reserved":false,"is_disabled":false,"rental_uris":{"android":"levelo://app?vid=b3604698-9bcb-4140-82c0-513aa7c56e54","ios":"levelo://app?vid=b3604698-9bcb-4140-82c0-513aa7c56e54"},"vehicle_type_id":"4","last_reported":1728558504,"current_range_meters":11600,"station_id":"ce4bhah2rcd13ifvqei0","pricing_plan_id":"cebpf4jnsgd1na2vs0mg"},{"bike_id":"0e6f81c8-5b21-42d0-9d6b-b539dcb92fb9","system_id":"levelo_inurba_marseille","lat":43.33763,"lon":5.3748,"is_reserved":false,"is_disabled":false,"rental_uris":{"android":"levelo://app?vid=0e6f81c8-5b21-42d0-9d6b-b539dcb92fb9","ios":"levelo://app?vid=0e6f81c8-5b21-42d0-9d6b-b539dcb92fb9"},"vehicle_type_id":"4","last_reported":1728558504,"current_range_meters":28000,"station_id":"ce4rr2p2rcd13i802rgg","pricing_plan_id":"cebpf4jnsgd1na2vs0mg"},{"bike_id":"59905b1a-0a40-4965-b8c6-5f1b4948e925","system_id":"levelo_inurba_marseille","lat":43.31477,"lon":5.37281,"is_reserved":false,"is_disabled":false,"rental_uris":{"android":"levelo://app?vid=59905b1a-0a40-4965-b8c6-5f1b4948e925","ios":"levelo://app?vid=59905b1a-0a40-4965-b8c6-5f1b4948e925"},"vehicle_type_id":"4","last_reported":1728558504,"current_range_meters":36800,"station_id":"ce4bgt12rcd13ifvqcd0","pricing_plan_id":"cebpf4jnsgd1na2vs0mg"},{"bike_id":"07388eee-6a70-4743-b88c-d399daa44ea5","system_id":"levelo_inurba_marseille","lat":43.30144,"lon":5.38077,"is_reserved":false,"is_disabled":false,"rental_uris":{"android":"levelo://app?vid=07388eee-6a70-4743-b88c-d399daa44ea5","ios":"levelo://app?vid=07388eee-6a70-4743-b88c-d399daa44ea5"},"vehicle_type_id":"4","last_reported":1728558504,"current_range_meters":31200,"station_id":"ce4bgjp2rcd13ifvqbh0","pricing_plan_id":"cebpf4jnsgd1na2vs0mg"},{"bike_id":"5fd6b245-0b53-4654-9f31-a1ec63d6dd59","system_id":"levelo_inurba_marseille","lat":43.24074,"lon":5.3776,"is_reserved":false,"is_disabled":false,"rental_uris":{"android":"levelo://app?vid=5fd6b245-0b53-4654-9f31-a1ec63d6dd59","ios":"levelo://app?vid=5fd6b245-0b53-4654-9f31-a1ec63d6dd59"},"vehicle_type_id":"4","last_reported":1728558504,"current_range_meters":4000,"station_id":"ce4bhnp2rcd13ifvqgvg","pricing_plan_id":"cebpf4jnsgd1na2vs0mg"},{"bike_id":"33e2f907-5142-4f41-bc71-b7504bf47a2a","system_id":"levelo_inurba_marseille","lat":43.278094,"lon":5.407143,"is_reserved":false,"is_disabled":false,"rental_uris":{"android":"levelo://app?vid=33e2f907-5142-4f41-bc71-b7504bf47a2a","ios":"levelo://app?vid=33e2f907-5142-4f41-bc71-b7504bf47a2a"},"vehicle_type_id":"4","last_reported":1728558504,"current_range_meters":20800,"station_id":"ce4bhhp2rcd13ifvqfm0","pricing_plan_id":"cebpf4jnsgd1na2vs0mg"},{"bike_id":"2dc1d4f2-bffe-419c-b07d-2f2347a2e109","system_id":"levelo_inurba_marseille","lat":43.23157,"lon":5.43704,"is_reserved":false,"is_disabled":false,"rental_uris":{"android":"levelo://app?vid=2dc1d4f2-bffe-419c-b07d-2f2347a2e109","ios":"levelo://app?vid=2dc1d4f2-bffe-419c-b07d-2f2347a2e109"},"vehicle_type_id":"4","last_reported":1728558504,"current_range_meters":19200,"station_id":"ce4bhmp2rcd13ifvqgog","pricing_plan_id":"cebpf4jnsgd1na2vs0mg"},{"bike_id":"28f14564-5a47-4bc5-a509-d99bcaace2f7","system_id":"levelo_inurba_marseille","lat":43.23157,"lon":5.43704,"is_reserved":false,"is_disabled":false,"rental_uris":{"android":"levelo://app?vid=28f14564-5a47-4bc5-a509-d99bcaace2f7","ios":"levelo://app?vid=28f14564-5a47-4bc5-a509-d99bcaace2f7"},"vehicle_type_id":"4","last_reported":1728558504,"current_range_meters":12000,"station_id":"ce4bhmp2rcd13ifvqgog","pricing_plan_id":"cebpf4jnsgd1na2vs0mg"},{"bike_id":"2959adcb-eb5c-489c-b1d4-e001dbc3e8c4","system_id":"levelo_inurba_marseille","lat":43.24391,"lon":5.37057,"is_reserved":false,"is_disabled":false,"rental_uris":{"android":"levelo://app?vid=2959adcb-eb5c-489c-b1d4-e001dbc3e8c4","ios":"levelo://app?vid=2959adcb-eb5c-489c-b1d4-e001dbc3e8c4"},"vehicle_type_id":"4","last_reported":1728558504,"current_range_meters":38800,"station_id":"ce4bhhh2rcd13ifvqfk0","pricing_plan_id":"cebpf4jnsgd1na2vs0mg"},{"bike_id":"5ea8d378-7378-4eb9-a086-ab7a41d69b7b","system_id":"levelo_inurba_marseille","lat":43.26938,"lon":5.40249,"is_reserved":false,"is_disabled":false,"rental_uris":{"android":"levelo://app?vid=5ea8d378-7378-4eb9-a086-ab7a41d69b7b","ios":"levelo://app?vid=5ea8d378-7378-4eb9-a086-ab7a41d69b7b"},"vehicle_type_id":"4","last_reported":1728558504,"current_range_meters":39200,"station_id":"cjm6bp8fraef2m0cb0m0","pricing_plan_id":"cebpf4jnsgd1na2vs0mg"},{"bike_id":"63ab1eaf-0517-4493-89e9-04df94c8d74b","system_id":"levelo_inurba_marseille","lat":43.29579,"lon":5.36739,"is_reserved":false,"is_disabled":false,"rental_uris":{"android":"levelo://app?vid=63ab1eaf-0517-4493-89e9-04df94c8d74b","ios":"levelo://app?vid=63ab1eaf-0517-4493-89e9-04df94c8d74b"},"vehicle_type_id":"4","last_reported":1728558504,"current_range_meters":38000,"station_id":"ce4bgph2rcd13ifvqc2g","pricing_plan_id":"cebpf4jnsgd1na2vs0mg"},{"bike_id":"245e2fbc-fb74-44f3-8492-de838b39abf0","system_id":"levelo_inurba_marseille","lat":43.25931,"lon":5.40916,"is_reserved":false,"is_disabled":false,"rental_uris":{"android":"levelo://app?vid=245e2fbc-fb74-44f3-8492-de838b39abf0","ios":"levelo://app?vid=245e2fbc-fb74-44f3-8492-de838b39abf0"},"vehicle_type_id":"4","last_reported":1728558504,"current_range_meters":16400,"station_id":"ce4bhm92rcd13ifvqglg","pricing_plan_id":"cebpf4jnsgd1na2vs0mg"},{"bike_id":"f21c3d8f-e68d-4c36-b1e0-109b81f3d106","system_id":"levelo_inurba_marseille","lat":43.29174,"lon":5.37157,"is_reserved":false,"is_disabled":false,"rental_uris":{"android":"levelo://app?vid=f21c3d8f-e68d-4c36-b1e0-109b81f3d106","ios":"levelo://app?vid=f21c3d8f-e68d-4c36-b1e0-109b81f3d106"},"vehicle_type_id":"4","last_reported":1728558504,"current_range_meters":31200,"station_id":"ce4bha92rcd13ifvqeh0","pricing_plan_id":"cebpf4jnsgd1na2vs0mg"},{"bike_id":"8ae8bbf4-7502-4e26-9a9b-508af29fc57f","system_id":"levelo_inurba_marseille","lat":43.3016,"lon":5.38084,"is_reserved":false,"is_disabled":false,"rental_uris":{"android":"levelo://app?vid=8ae8bbf4-7502-4e26-9a9b-508af29fc57f","ios":"levelo://app?vid=8ae8bbf4-7502-4e26-9a9b-508af29fc57f"},"vehicle_type_id":"4","last_reported":1728558504,"current_range_meters":28800,"station_id":"ce4bgjp2rcd13ifvqbh0","pricing_plan_id":"cebpf4jnsgd1na2vs0mg"},{"bike_id":"1088100d-a07b-4ee3-a17c-18fe0b705f46","system_id":"levelo_inurba_marseille","lat":43.29016,"lon":5.38626,"is_reserved":false,"is_disabled":false,"rental_uris":{"android":"levelo://app?vid=1088100d-a07b-4ee3-a17c-18fe0b705f46","ios":"levelo://app?vid=1088100d-a07b-4ee3-a17c-18fe0b705f46"},"vehicle_type_id":"4","last_reported":1728558504,"current_range_meters":2800,"station_id":"ce4bh4p2rcd13ifvqe0g","pricing_plan_id":"cebpf4jnsgd1na2vs0mg"},{"bike_id":"ed1572ba-6b07-4be6-bf65-a07a2cf31738","system_id":"levelo_inurba_marseille","lat":43.24806,"lon":5.37457,"is_reserved":false,"is_disabled":false,"rental_uris":{"android":"levelo://app?vid=ed1572ba-6b07-4be6-bf65-a07a2cf31738","ios":"levelo://app?vid=ed1572ba-6b07-4be6-bf65-a07a2cf31738"},"vehicle_type_id":"4","last_reported":1728558504,"current_range_meters":38800,"station_id":"ce4bhgh2rcd13ifvqfb0","pricing_plan_id":"cebpf4jnsgd1na2vs0mg"},{"bike_id":"14dfe57f-ca34-4a27-9f83-4c52a1d19a15","system_id":"levelo_inurba_marseille","lat":43.30601,"lon":5.39361,"is_reserved":false,"is_disabled":false,"rental_uris":{"android":"levelo://app?vid=14dfe57f-ca34-4a27-9f83-4c52a1d19a15","ios":"levelo://app?vid=14dfe57f-ca34-4a27-9f83-4c52a1d19a15"},"vehicle_type_id":"4","last_reported":1728558504,"current_range_meters":11200,"station_id":"ce4bh0p2rcd13ifvqd80","pricing_plan_id":"cebpf4jnsgd1na2vs0mg"},{"bike_id":"5fff4625-c2d9-49fb-adf0-5aa25b41ee3c","system_id":"levelo_inurba_marseille","lat":43.29117,"lon":5.39267,"is_reserved":false,"is_disabled":false,"rental_uris":{"android":"levelo://app?vid=5fff4625-c2d9-49fb-adf0-5aa25b41ee3c","ios":"levelo://app?vid=5fff4625-c2d9-49fb-adf0-5aa25b41ee3c"},"vehicle_type_id":"4","last_reported":1728558504,"current_range_meters":9200,"station_id":"ce4bh192rcd13ifvqdd0","pricing_plan_id":"cebpf4jnsgd1na2vs0mg"},{"bike_id":"3e3b876b-106d-4aca-ba61-984e9236bafe","system_id":"levelo_inurba_marseille","lat":43.28939,"lon":5.36642,"is_reserved":false,"is_disabled":false,"rental_uris":{"android":"levelo://app?vid=3e3b876b-106d-4aca-ba61-984e9236bafe","ios":"levelo://app?vid=3e3b876b-106d-4aca-ba61-984e9236bafe"},"vehicle_type_id":"4","last_reported":1728558504,"current_range_meters":17600,"station_id":"ce4bhap2rcd13ifvqek0","pricing_plan_id":"cebpf4jnsgd1na2vs0mg"},{"bike_id":"99d66301-10cb-48d7-8f69-dbf04f54b39e","system_id":"levelo_inurba_marseille","lat":43.23065,"lon":5.35493,"is_reserved":false,"is_disabled":false,"rental_uris":{"android":"levelo://app?vid=99d66301-10cb-48d7-8f69-dbf04f54b39e","ios":"levelo://app?vid=99d66301-10cb-48d7-8f69-dbf04f54b39e"},"vehicle_type_id":"4","last_reported":1728558504,"current_range_meters":25600,"station_id":"cpo3342slgdg3j2ifvpg","pricing_plan_id":"cebpf4jnsgd1na2vs0mg"},{"bike_id":"625f172c-9389-49cb-ba12-3231563527bc","system_id":"levelo_inurba_marseille","lat":43.33751,"lon":5.37457,"is_reserved":false,"is_disabled":false,"rental_uris":{"android":"levelo://app?vid=625f172c-9389-49cb-ba12-3231563527bc","ios":"levelo://app?vid=625f172c-9389-49cb-ba12-3231563527bc"},"vehicle_type_id":"4","last_reported":1728558504,"current_range_meters":24800,"station_id":"ce4rr2p2rcd13i802rgg","pricing_plan_id":"cebpf4jnsgd1na2vs0mg"},{"bike_id":"030f919c-4c25-4d8a-9126-2951e33661ba","system_id":"levelo_inurba_marseille","lat":43.30555,"lon":5.36541,"is_reserved":false,"is_disabled":false,"rental_uris":{"android":"levelo://app?vid=030f919c-4c25-4d8a-9126-2951e33661ba","ios":"levelo://app?vid=030f919c-4c25-4d8a-9126-2951e33661ba"},"vehicle_type_id":"4","last_reported":1728558504,"current_range_meters":36400,"station_id":"ce4bgs12rcd13ifvqcag","pricing_plan_id":"cebpf4jnsgd1na2vs0mg"},{"bike_id":"73df52f1-7d0e-47ba-9e04-fdc2dca676a5","system_id":"levelo_inurba_marseille","lat":43.29523,"lon":5.37502,"is_reserved":false,"is_disabled":false,"rental_uris":{"android":"levelo://app?vid=73df52f1-7d0e-47ba-9e04-fdc2dca676a5","ios":"levelo://app?vid=73df52f1-7d0e-47ba-9e04-fdc2dca676a5"},"vehicle_type_id":"4","last_reported":1728558504,"current_range_meters":14800,"station_id":"ce4bgkp2rcd13ifvqbmg","pricing_plan_id":"cebpf4jnsgd1na2vs0mg"},{"bike_id":"0ffbdbd8-5971-4b7e-9c40-3f2a96416cf9","system_id":"levelo_inurba_marseille","lat":43.31225,"lon":5.3686,"is_reserved":false,"is_disabled":false,"rental_uris":{"android":"levelo://app?vid=0ffbdbd8-5971-4b7e-9c40-3f2a96416cf9","ios":"levelo://app?vid=0ffbdbd8-5971-4b7e-9c40-3f2a96416cf9"},"vehicle_type_id":"4","last_reported":1728558504,"current_range_meters":38800,"station_id":"ce4bgl92rcd13ifvqbq0","pricing_plan_id":"cebpf4jnsgd1na2vs0mg"},{"bike_id":"4b2f4fea-06b2-477f-9883-12a546ad6d80","system_id":"levelo_inurba_marseille","lat":43.33598,"lon":5.41021,"is_reserved":false,"is_disabled":false,"rental_uris":{"android":"levelo://app?vid=4b2f4fea-06b2-477f-9883-12a546ad6d80","ios":"levelo://app?vid=4b2f4fea-06b2-477f-9883-12a546ad6d80"},"vehicle_type_id":"4","last_reported":1728558504,"current_range_meters":29600,"station_id":"ce4bhqh2rcd13ifvqhmg","pricing_plan_id":"cebpf4jnsgd1na2vs0mg"},{"bike_id":"0d616978-f5e6-49ce-94a5-19c6c56a53ac","system_id":"levelo_inurba_marseille","lat":43.34147,"lon":5.40906,"is_reserved":false,"is_disabled":false,"rental_uris":{"android":"levelo://app?vid=0d616978-f5e6-49ce-94a5-19c6c56a53ac","ios":"levelo://app?vid=0d616978-f5e6-49ce-94a5-19c6c56a53ac"},"vehicle_type_id":"4","last_reported":1728558504,"current_range_meters":8800,"station_id":"ce4bhqh2rcd13ifvqhlg","pricing_plan_id":"cebpf4jnsgd1na2vs0mg"},{"bike_id":"40f53754-0678-4638-a2d1-adb745c7e3ed","system_id":"levelo_inurba_marseille","lat":43.293,"lon":5.37461,"is_reserved":false,"is_disabled":false,"rental_uris":{"android":"levelo://app?vid=40f53754-0678-4638-a2d1-adb745c7e3ed","ios":"levelo://app?vid=40f53754-0678-4638-a2d1-adb745c7e3ed"},"vehicle_type_id":"4","last_reported":1728558504,"current_range_meters":6400,"station_id":"ce4bgi12rcd13ifvqb70","pricing_plan_id":"cebpf4jnsgd1na2vs0mg"},{"bike_id":"e22b7398-4eb2-427e-aa93-9e383f59ff12","system_id":"levelo_inurba_marseille","lat":43.2842,"lon":5.3499,"is_reserved":false,"is_disabled":false,"rental_uris":{"android":"levelo://app?vid=e22b7398-4eb2-427e-aa93-9e383f59ff12","ios":"levelo://app?vid=e22b7398-4eb2-427e-aa93-9e383f59ff12"},"vehicle_type_id":"4","last_reported":1728558504,"current_range_meters":17600,"station_id":"ce4bhbh2rcd13ifvqepg","pricing_plan_id":"cebpf4jnsgd1na2vs0mg"},{"bike_id":"7a335578-5573-461a-941f-7b06be180346","system_id":"levelo_inurba_marseille","lat":43.3015,"lon":5.38082,"is_reserved":false,"is_disabled":false,"rental_uris":{"android":"levelo://app?vid=7a335578-5573-461a-941f-7b06be180346","ios":"levelo://app?vid=7a335578-5573-461a-941f-7b06be180346"},"vehicle_type_id":"4","last_reported":1728558504,"current_range_meters":17600,"station_id":"ce4bgjp2rcd13ifvqbh0","pricing_plan_id":"cebpf4jnsgd1na2vs0mg"},{"bike_id":"28859396-acf0-4362-9ee1-274f3ecbdd4d","system_id":"levelo_inurba_marseille","lat":43.3248,"lon":5.36556,"is_reserved":false,"is_disabled":false,"rental_uris":{"android":"levelo://app?vid=28859396-acf0-4362-9ee1-274f3ecbdd4d","ios":"levelo://app?vid=28859396-acf0-4362-9ee1-274f3ecbdd4d"},"vehicle_type_id":"4","last_reported":1728558504,"current_range_meters":32800,"station_id":"ce4bhs12rcd13ifvqhvg","pricing_plan_id":"cebpf4jnsgd1na2vs0mg"},{"bike_id":"20dab75d-2e6a-4c11-980c-54c451fa1ed2","system_id":"levelo_inurba_marseille","lat":43.31065,"lon":5.38344,"is_reserved":false,"is_disabled":false,"rental_uris":{"android":"levelo://app?vid=20dab75d-2e6a-4c11-980c-54c451fa1ed2","ios":"levelo://app?vid=20dab75d-2e6a-4c11-980c-54c451fa1ed2"},"vehicle_type_id":"4","last_reported":1728558504,"current_range_meters":9600,"station_id":"ce4bgv92rcd13ifvqcr0","pricing_plan_id":"cebpf4jnsgd1na2vs0mg"},{"bike_id":"3e0239ec-8641-4cba-9a37-136cdc5e1907","system_id":"levelo_inurba_marseille","lat":43.27167,"lon":5.40985,"is_reserved":false,"is_disabled":false,"rental_uris":{"android":"levelo://app?vid=3e0239ec-8641-4cba-9a37-136cdc5e1907","ios":"levelo://app?vid=3e0239ec-8641-4cba-9a37-136cdc5e1907"},"vehicle_type_id":"4","last_reported":1728558504,"current_range_meters":38000,"station_id":"ce4bhl12rcd13ifvqgf0","pricing_plan_id":"cebpf4jnsgd1na2vs0mg"},{"bike_id":"befbc766-8bff-4945-b5de-aacee66a0dbc","system_id":"levelo_inurba_marseille","lat":43.337703,"lon":5.374692,"is_reserved":false,"is_disabled":false,"rental_uris":{"android":"levelo://app?vid=befbc766-8bff-4945-b5de-aacee66a0dbc","ios":"levelo://app?vid=befbc766-8bff-4945-b5de-aacee66a0dbc"},"vehicle_type_id":"4","last_reported":1728558504,"current_range_meters":36800,"station_id":"ce4rr2p2rcd13i802rgg","pricing_plan_id":"cebpf4jnsgd1na2vs0mg"},{"bike_id":"5015c4f9-59cd-4059-91ee-4723506ef1b1","system_id":"levelo_inurba_marseille","lat":43.29594,"lon":5.38098,"is_reserved":false,"is_disabled":false,"rental_uris":{"android":"levelo://app?vid=5015c4f9-59cd-4059-91ee-4723506ef1b1","ios":"levelo://app?vid=5015c4f9-59cd-4059-91ee-4723506ef1b1"},"vehicle_type_id":"4","last_reported":1728558504,"current_range_meters":35200,"station_id":"ce4bgl12rcd13ifvqbo0","pricing_plan_id":"cebpf4jnsgd1na2vs0mg"},{"bike_id":"3b1f9623-1129-4ada-9f1c-7dd0f98ff646","system_id":"levelo_inurba_marseille","lat":43.29611,"lon":5.37718,"is_reserved":false,"is_disabled":false,"rental_uris":{"android":"levelo://app?vid=3b1f9623-1129-4ada-9f1c-7dd0f98ff646","ios":"levelo://app?vid=3b1f9623-1129-4ada-9f1c-7dd0f98ff646"},"vehicle_type_id":"4","last_reported":1728558504,"current_range_meters":36800,"station_id":"ce4bgi92rcd13ifvqb90","pricing_plan_id":"cebpf4jnsgd1na2vs0mg"},{"bike_id":"85dad328-0ede-4b43-b07e-ee98e0e84411","system_id":"levelo_inurba_marseille","lat":43.30544,"lon":5.36488,"is_reserved":false,"is_disabled":false,"rental_uris":{"android":"levelo://app?vid=85dad328-0ede-4b43-b07e-ee98e0e84411","ios":"levelo://app?vid=85dad328-0ede-4b43-b07e-ee98e0e84411"},"vehicle_type_id":"4","last_reported":1728558504,"current_range_meters":7200,"station_id":"ce4bgs12rcd13ifvqcag","pricing_plan_id":"cebpf4jnsgd1na2vs0mg"},{"bike_id":"9d32010d-2215-42fd-bdda-47e1e1afd1ea","system_id":"levelo_inurba_marseille","lat":43.26937,"lon":5.40242,"is_reserved":false,"is_disabled":false,"rental_uris":{"android":"levelo://app?vid=9d32010d-2215-42fd-bdda-47e1e1afd1ea","ios":"levelo://app?vid=9d32010d-2215-42fd-bdda-47e1e1afd1ea"},"vehicle_type_id":"4","last_reported":1728558504,"current_range_meters":35200,"station_id":"cjm6bp8fraef2m0cb0m0","pricing_plan_id":"cebpf4jnsgd1na2vs0mg"},{"bike_id":"677d7c65-d527-4a9d-bebf-6686e9a9f0ac","system_id":"levelo_inurba_marseille","lat":43.27055,"lon":5.40258,"is_reserved":false,"is_disabled":false,"rental_uris":{"android":"levelo://app?vid=677d7c65-d527-4a9d-bebf-6686e9a9f0ac","ios":"levelo://app?vid=677d7c65-d527-4a9d-bebf-6686e9a9f0ac"},"vehicle_type_id":"4","last_reported":1728558504,"current_range_meters":22800,"station_id":"ce4bhk92rcd13ifvqgc0","pricing_plan_id":"cebpf4jnsgd1na2vs0mg"},{"bike_id":"51e7cfb2-d01a-444c-8957-5f8116f15978","system_id":"levelo_inurba_marseille","lat":43.29422,"lon":5.38625,"is_reserved":false,"is_disabled":false,"rental_uris":{"android":"levelo://app?vid=51e7cfb2-d01a-444c-8957-5f8116f15978","ios":"levelo://app?vid=51e7cfb2-d01a-444c-8957-5f8116f15978"},"vehicle_type_id":"4","last_reported":1728558504,"current_range_meters":19200,"station_id":"ce4bh2h2rcd13ifvqdh0","pricing_plan_id":"cebpf4jnsgd1na2vs0mg"},{"bike_id":"c7c56f7a-5102-4e1a-8633-faac677ed3c6","system_id":"levelo_inurba_marseille","lat":43.23196,"lon":5.35552,"is_reserved":false,"is_disabled":false,"rental_uris":{"android":"levelo://app?vid=c7c56f7a-5102-4e1a-8633-faac677ed3c6","ios":"levelo://app?vid=c7c56f7a-5102-4e1a-8633-faac677ed3c6"},"vehicle_type_id":"4","last_reported":1728558504,"current_range_meters":25600,"station_id":"ce4bhu92rcd13ifvqi70","pricing_plan_id":"cebpf4jnsgd1na2vs0mg"},{"bike_id":"a6951866-dd34-4812-8a24-4a7c121cfa8d","system_id":"levelo_inurba_marseille","lat":43.32287,"lon":5.38263,"is_reserved":false,"is_disabled":false,"rental_uris":{"android":"levelo://app?vid=a6951866-dd34-4812-8a24-4a7c121cfa8d","ios":"levelo://app?vid=a6951866-dd34-4812-8a24-4a7c121cfa8d"},"vehicle_type_id":"4","last_reported":1728558504,"current_range_meters":38800,"station_id":"ce4bhr12rcd13ifvqhqg","pricing_plan_id":"cebpf4jnsgd1na2vs0mg"},{"bike_id":"332b49c8-ec04-4852-ad01-0bea644587c3","system_id":"levelo_inurba_marseille","lat":43.28109,"lon":5.37842,"is_reserved":false,"is_disabled":false,"rental_uris":{"android":"levelo://app?vid=332b49c8-ec04-4852-ad01-0bea644587c3","ios":"levelo://app?vid=332b49c8-ec04-4852-ad01-0bea644587c3"},"vehicle_type_id":"4","last_reported":1728558504,"current_range_meters":6400,"station_id":"ce4bha12rcd13ifvqee0","pricing_plan_id":"cebpf4jnsgd1na2vs0mg"},{"bike_id":"b7e47179-f012-46b0-a9ba-6f071c014416","system_id":"levelo_inurba_marseille","lat":43.32025,"lon":5.4158,"is_reserved":false,"is_disabled":false,"rental_uris":{"android":"levelo://app?vid=b7e47179-f012-46b0-a9ba-6f071c014416","ios":"levelo://app?vid=b7e47179-f012-46b0-a9ba-6f071c014416"},"vehicle_type_id":"4","last_reported":1728558504,"current_range_meters":17600,"station_id":"ce4bhq92rcd13ifvqhkg","pricing_plan_id":"cebpf4jnsgd1na2vs0mg"},{"bike_id":"897230b2-822b-4fd2-8959-35c9d5e353ce","system_id":"levelo_inurba_marseille","lat":43.31225,"lon":5.36858,"is_reserved":false,"is_disabled":false,"rental_uris":{"android":"levelo://app?vid=897230b2-822b-4fd2-8959-35c9d5e353ce","ios":"levelo://app?vid=897230b2-822b-4fd2-8959-35c9d5e353ce"},"vehicle_type_id":"4","last_reported":1728558504,"current_range_meters":14000,"station_id":"ce4bgl92rcd13ifvqbq0","pricing_plan_id":"cebpf4jnsgd1na2vs0mg"},{"bike_id":"e996615f-bbe0-41ea-8b2e-3051a4ea2094","system_id":"levelo_inurba_marseille","lat":43.29684,"lon":5.37291,"is_reserved":false,"is_disabled":false,"rental_uris":{"android":"levelo://app?vid=e996615f-bbe0-41ea-8b2e-3051a4ea2094","ios":"levelo://app?vid=e996615f-bbe0-41ea-8b2e-3051a4ea2094"},"vehicle_type_id":"4","last_reported":1728558504,"current_range_meters":36800,"station_id":"ce4bgk12rcd13ifvqbj0","pricing_plan_id":"cebpf4jnsgd1na2vs0mg"},{"bike_id":"97d8f593-527e-4ea9-8867-0b1c6b22a635","system_id":"levelo_inurba_marseille","lat":43.30639,"lon":5.40078,"is_reserved":false,"is_disabled":false,"rental_uris":{"android":"levelo://app?vid=97d8f593-527e-4ea9-8867-0b1c6b22a635","ios":"levelo://app?vid=97d8f593-527e-4ea9-8867-0b1c6b22a635"},"vehicle_type_id":"4","last_reported":1728558504,"current_range_meters":12000,"station_id":"ce4bh112rcd13ifvqda0","pricing_plan_id":"cebpf4jnsgd1na2vs0mg"},{"bike_id":"ba00cb3c-280c-4a3b-96ca-3b042ddde12d","system_id":"levelo_inurba_marseille","lat":43.24651,"lon":5.38891,"is_reserved":false,"is_disabled":false,"rental_uris":{"android":"levelo://app?vid=ba00cb3c-280c-4a3b-96ca-3b042ddde12d","ios":"levelo://app?vid=ba00cb3c-280c-4a3b-96ca-3b042ddde12d"},"vehicle_type_id":"4","last_reported":1728558504,"current_range_meters":39200,"station_id":"ce4bhg12rcd13ifvqf60","pricing_plan_id":"cebpf4jnsgd1na2vs0mg"},{"bike_id":"d71fdbf3-86ef-4e9e-8511-a61b0b456ead","system_id":"levelo_inurba_marseille","lat":43.32047,"lon":5.41567,"is_reserved":false,"is_disabled":false,"rental_uris":{"android":"levelo://app?vid=d71fdbf3-86ef-4e9e-8511-a61b0b456ead","ios":"levelo://app?vid=d71fdbf3-86ef-4e9e-8511-a61b0b456ead"},"vehicle_type_id":"4","last_reported":1728558504,"current_range_meters":9200,"station_id":"ce4bhq92rcd13ifvqhkg","pricing_plan_id":"cebpf4jnsgd1na2vs0mg"},{"bike_id":"7cb8005b-9d0a-40ae-8213-edba1724ad6c","system_id":"levelo_inurba_marseille","lat":43.27059,"lon":5.40263,"is_reserved":false,"is_disabled":false,"rental_uris":{"android":"levelo://app?vid=7cb8005b-9d0a-40ae-8213-edba1724ad6c","ios":"levelo://app?vid=7cb8005b-9d0a-40ae-8213-edba1724ad6c"},"vehicle_type_id":"4","last_reported":1728558504,"current_range_meters":20000,"station_id":"ce4bhk92rcd13ifvqgc0","pricing_plan_id":"cebpf4jnsgd1na2vs0mg"},{"bike_id":"1d556b13-f330-4041-9740-331d1e5f1b14","system_id":"levelo_inurba_marseille","lat":43.28716,"lon":5.37942,"is_reserved":false,"is_disabled":false,"rental_uris":{"android":"levelo://app?vid=1d556b13-f330-4041-9740-331d1e5f1b14","ios":"levelo://app?vid=1d556b13-f330-4041-9740-331d1e5f1b14"},"vehicle_type_id":"4","last_reported":1728558504,"current_range_meters":5600,"station_id":"ce4bh9p2rcd13ifvqec0","pricing_plan_id":"cebpf4jnsgd1na2vs0mg"},{"bike_id":"c5d01ffe-6890-4aa1-859f-c4c28adaea10","system_id":"levelo_inurba_marseille","lat":43.24082,"lon":5.37745,"is_reserved":false,"is_disabled":false,"rental_uris":{"android":"levelo://app?vid=c5d01ffe-6890-4aa1-859f-c4c28adaea10","ios":"levelo://app?vid=c5d01ffe-6890-4aa1-859f-c4c28adaea10"},"vehicle_type_id":"4","last_reported":1728558504,"current_range_meters":30800,"station_id":"ce4bhnp2rcd13ifvqgvg","pricing_plan_id":"cebpf4jnsgd1na2vs0mg"},{"bike_id":"26c46669-88f7-4608-8f2f-64a6636b5ce5","system_id":"levelo_inurba_marseille","lat":43.24802,"lon":5.37459,"is_reserved":false,"is_disabled":false,"rental_uris":{"android":"levelo://app?vid=26c46669-88f7-4608-8f2f-64a6636b5ce5","ios":"levelo://app?vid=26c46669-88f7-4608-8f2f-64a6636b5ce5"},"vehicle_type_id":"4","last_reported":1728558504,"current_range_meters":28400,"station_id":"ce4bhgh2rcd13ifvqfb0","pricing_plan_id":"cebpf4jnsgd1na2vs0mg"},{"bike_id":"9cf3db70-1431-4372-b452-2d0770d0c15d","system_id":"levelo_inurba_marseille","lat":43.23194,"lon":5.35553,"is_reserved":false,"is_disabled":false,"rental_uris":{"android":"levelo://app?vid=9cf3db70-1431-4372-b452-2d0770d0c15d","ios":"levelo://app?vid=9cf3db70-1431-4372-b452-2d0770d0c15d"},"vehicle_type_id":"4","last_reported":1728558504,"current_range_meters":36400,"station_id":"ce4bhu92rcd13ifvqi70","pricing_plan_id":"cebpf4jnsgd1na2vs0mg"},{"bike_id":"7586c469-6376-4394-9d8d-51948154adb5","system_id":"levelo_inurba_marseille","lat":43.30316,"lon":5.36896,"is_reserved":false,"is_disabled":false,"rental_uris":{"android":"levelo://app?vid=7586c469-6376-4394-9d8d-51948154adb5","ios":"levelo://app?vid=7586c469-6376-4394-9d8d-51948154adb5"},"vehicle_type_id":"4","last_reported":1728558504,"current_range_meters":25200,"station_id":"ce4bgqh2rcd13ifvqc5g","pricing_plan_id":"cebpf4jnsgd1na2vs0mg"},{"bike_id":"1aea5dc5-2991-4a9e-9b89-918e13429d79","system_id":"levelo_inurba_marseille","lat":43.27058,"lon":5.40254,"is_reserved":false,"is_disabled":false,"rental_uris":{"android":"levelo://app?vid=1aea5dc5-2991-4a9e-9b89-918e13429d79","ios":"levelo://app?vid=1aea5dc5-2991-4a9e-9b89-918e13429d79"},"vehicle_type_id":"4","last_reported":1728558504,"current_range_meters":10800,"station_id":"ce4bhk92rcd13ifvqgc0","pricing_plan_id":"cebpf4jnsgd1na2vs0mg"},{"bike_id":"02dd3e9c-b1c5-459a-8b24-2cd9ad3dfbfa","system_id":"levelo_inurba_marseille","lat":43.294328,"lon":5.397559,"is_reserved":false,"is_disabled":false,"rental_uris":{"android":"levelo://app?vid=02dd3e9c-b1c5-459a-8b24-2cd9ad3dfbfa","ios":"levelo://app?vid=02dd3e9c-b1c5-459a-8b24-2cd9ad3dfbfa"},"vehicle_type_id":"4","last_reported":1728558504,"current_range_meters":18800,"station_id":"ce4bh3h2rcd13ifvqdo0","pricing_plan_id":"cebpf4jnsgd1na2vs0mg"},{"bike_id":"00bf5dab-ed14-4d1e-bf7e-23dcd55a8924","system_id":"levelo_inurba_marseille","lat":43.33748,"lon":5.3746,"is_reserved":false,"is_disabled":false,"rental_uris":{"android":"levelo://app?vid=00bf5dab-ed14-4d1e-bf7e-23dcd55a8924","ios":"levelo://app?vid=00bf5dab-ed14-4d1e-bf7e-23dcd55a8924"},"vehicle_type_id":"4","last_reported":1728558504,"current_range_meters":12000,"station_id":"ce4rr2p2rcd13i802rgg","pricing_plan_id":"cebpf4jnsgd1na2vs0mg"},{"bike_id":"800704c5-22ff-4987-bcce-5fb01ce1f78c","system_id":"levelo_inurba_marseille","lat":43.284193,"lon":5.349863,"is_reserved":false,"is_disabled":false,"rental_uris":{"android":"levelo://app?vid=800704c5-22ff-4987-bcce-5fb01ce1f78c","ios":"levelo://app?vid=800704c5-22ff-4987-bcce-5fb01ce1f78c"},"vehicle_type_id":"4","last_reported":1728558504,"current_range_meters":38800,"station_id":"ce4bhbh2rcd13ifvqepg","pricing_plan_id":"cebpf4jnsgd1na2vs0mg"},{"bike_id":"76d8c9e6-cd34-4c13-bd17-a22d8e326c29","system_id":"levelo_inurba_marseille","lat":43.270566,"lon":5.402654,"is_reserved":false,"is_disabled":false,"rental_uris":{"android":"levelo://app?vid=76d8c9e6-cd34-4c13-bd17-a22d8e326c29","ios":"levelo://app?vid=76d8c9e6-cd34-4c13-bd17-a22d8e326c29"},"vehicle_type_id":"4","last_reported":1728558504,"current_range_meters":26800,"station_id":"ce4bhk92rcd13ifvqgc0","pricing_plan_id":"cebpf4jnsgd1na2vs0mg"},{"bike_id":"3c25dded-f8d5-4193-a336-9fad641c4aac","system_id":"levelo_inurba_marseille","lat":43.33785,"lon":5.37441,"is_reserved":false,"is_disabled":false,"rental_uris":{"android":"levelo://app?vid=3c25dded-f8d5-4193-a336-9fad641c4aac","ios":"levelo://app?vid=3c25dded-f8d5-4193-a336-9fad641c4aac"},"vehicle_type_id":"4","last_reported":1728558504,"current_range_meters":18800,"station_id":"","pricing_plan_id":"cebpf4jnsgd1na2vs0mg"},{"bike_id":"c45c4812-ee99-4f30-8c10-331993c489db","system_id":"levelo_inurba_marseille","lat":43.24167,"lon":5.36389,"is_reserved":false,"is_disabled":false,"rental_uris":{"android":"levelo://app?vid=c45c4812-ee99-4f30-8c10-331993c489db","ios":"levelo://app?vid=c45c4812-ee99-4f30-8c10-331993c489db"},"vehicle_type_id":"4","last_reported":1728558504,"current_range_meters":10800,"station_id":"cpo36qri1sfpv3e86is0","pricing_plan_id":"cebpf4jnsgd1na2vs0mg"},{"bike_id":"9079b268-4532-4938-9d2d-abdc5ca906dd","system_id":"levelo_inurba_marseille","lat":43.29841,"lon":5.3628,"is_reserved":false,"is_disabled":false,"rental_uris":{"android":"levelo://app?vid=9079b268-4532-4938-9d2d-abdc5ca906dd","ios":"levelo://app?vid=9079b268-4532-4938-9d2d-abdc5ca906dd"},"vehicle_type_id":"4","last_reported":1728558504,"current_range_meters":28800,"station_id":"ce4bgpp2rcd13ifvqc3g","pricing_plan_id":"cebpf4jnsgd1na2vs0mg"},{"bike_id":"a7d6c8ab-f0e9-4d16-b0ec-4401746801ff","system_id":"levelo_inurba_marseille","lat":43.29095,"lon":5.38139,"is_reserved":false,"is_disabled":false,"rental_uris":{"android":"levelo://app?vid=a7d6c8ab-f0e9-4d16-b0ec-4401746801ff","ios":"levelo://app?vid=a7d6c8ab-f0e9-4d16-b0ec-4401746801ff"},"vehicle_type_id":"4","last_reported":1728558504,"current_range_meters":38400,"station_id":"ce4bh512rcd13ifvqe2g","pricing_plan_id":"cebpf4jnsgd1na2vs0mg"},{"bike_id":"a83f475b-e17b-4184-bba8-57fef80e4123","system_id":"levelo_inurba_marseille","lat":43.30352,"lon":5.41874,"is_reserved":false,"is_disabled":false,"rental_uris":{"android":"levelo://app?vid=a83f475b-e17b-4184-bba8-57fef80e4123","ios":"levelo://app?vid=a83f475b-e17b-4184-bba8-57fef80e4123"},"vehicle_type_id":"4","last_reported":1728558504,"current_range_meters":26000,"station_id":"ce4bhop2rcd13ifvqh7g","pricing_plan_id":"cebpf4jnsgd1na2vs0mg"},{"bike_id":"7975faaf-f260-41c7-87cd-147b9a3b3ebf","system_id":"levelo_inurba_marseille","lat":43.23057,"lon":5.3549,"is_reserved":false,"is_disabled":false,"rental_uris":{"android":"levelo://app?vid=7975faaf-f260-41c7-87cd-147b9a3b3ebf","ios":"levelo://app?vid=7975faaf-f260-41c7-87cd-147b9a3b3ebf"},"vehicle_type_id":"4","last_reported":1728558504,"current_range_meters":20400,"station_id":"cpo3342slgdg3j2ifvpg","pricing_plan_id":"cebpf4jnsgd1na2vs0mg"},{"bike_id":"3cd746a7-fc71-468d-9efb-a789e7b84875","system_id":"levelo_inurba_marseille","lat":43.25938,"lon":5.40898,"is_reserved":false,"is_disabled":false,"rental_uris":{"android":"levelo://app?vid=3cd746a7-fc71-468d-9efb-a789e7b84875","ios":"levelo://app?vid=3cd746a7-fc71-468d-9efb-a789e7b84875"},"vehicle_type_id":"4","last_reported":1728558504,"current_range_meters":31200,"station_id":"ce4bhm92rcd13ifvqglg","pricing_plan_id":"cebpf4jnsgd1na2vs0mg"},{"bike_id":"703d5faf-e8f5-42e8-a15c-36acb1ae64d2","system_id":"levelo_inurba_marseille","lat":43.22932,"lon":5.35382,"is_reserved":false,"is_disabled":false,"rental_uris":{"android":"levelo://app?vid=703d5faf-e8f5-42e8-a15c-36acb1ae64d2","ios":"levelo://app?vid=703d5faf-e8f5-42e8-a15c-36acb1ae64d2"},"vehicle_type_id":"4","last_reported":1728558504,"current_range_meters":9200,"station_id":"cpo3532slgdg3j2ikp40","pricing_plan_id":"cebpf4jnsgd1na2vs0mg"},{"bike_id":"ae64d97f-b114-49e9-85cb-03e76db158ba","system_id":"levelo_inurba_marseille","lat":43.30677,"lon":5.39981,"is_reserved":false,"is_disabled":false,"rental_uris":{"android":"levelo://app?vid=ae64d97f-b114-49e9-85cb-03e76db158ba","ios":"levelo://app?vid=ae64d97f-b114-49e9-85cb-03e76db158ba"},"vehicle_type_id":"4","last_reported":1728558504,"current_range_meters":5600,"station_id":"ce4bgvp2rcd13ifvqct0","pricing_plan_id":"cebpf4jnsgd1na2vs0mg"},{"bike_id":"588f0f49-5346-49d6-ad44-d9635a10be15","system_id":"levelo_inurba_marseille","lat":43.32664,"lon":5.40981,"is_reserved":false,"is_disabled":false,"rental_uris":{"android":"levelo://app?vid=588f0f49-5346-49d6-ad44-d9635a10be15","ios":"levelo://app?vid=588f0f49-5346-49d6-ad44-d9635a10be15"},"vehicle_type_id":"4","last_reported":1728558504,"current_range_meters":5600,"station_id":"ce4bhpp2rcd13ifvqhgg","pricing_plan_id":"cebpf4jnsgd1na2vs0mg"},{"bike_id":"9dfcaf32-a350-49f2-bff7-177a8c9a1797","system_id":"levelo_inurba_marseille","lat":43.2894,"lon":5.3664,"is_reserved":false,"is_disabled":false,"rental_uris":{"android":"levelo://app?vid=9dfcaf32-a350-49f2-bff7-177a8c9a1797","ios":"levelo://app?vid=9dfcaf32-a350-49f2-bff7-177a8c9a1797"},"vehicle_type_id":"4","last_reported":1728558504,"current_range_meters":36000,"station_id":"ce4bhap2rcd13ifvqek0","pricing_plan_id":"cebpf4jnsgd1na2vs0mg"},{"bike_id":"e2bb9133-05e6-45b3-9cdf-adab19c67cfe","system_id":"levelo_inurba_marseille","lat":43.2984,"lon":5.36276,"is_reserved":false,"is_disabled":false,"rental_uris":{"android":"levelo://app?vid=e2bb9133-05e6-45b3-9cdf-adab19c67cfe","ios":"levelo://app?vid=e2bb9133-05e6-45b3-9cdf-adab19c67cfe"},"vehicle_type_id":"4","last_reported":1728558504,"current_range_meters":30800,"station_id":"ce4bgpp2rcd13ifvqc3g","pricing_plan_id":"cebpf4jnsgd1na2vs0mg"},{"bike_id":"04c2909b-f22b-44ec-9233-a4a71ce66699","system_id":"levelo_inurba_marseille","lat":43.33752,"lon":5.37476,"is_reserved":false,"is_disabled":false,"rental_uris":{"android":"levelo://app?vid=04c2909b-f22b-44ec-9233-a4a71ce66699","ios":"levelo://app?vid=04c2909b-f22b-44ec-9233-a4a71ce66699"},"vehicle_type_id":"4","last_reported":1728558504,"current_range_meters":25200,"station_id":"","pricing_plan_id":"cebpf4jnsgd1na2vs0mg"},{"bike_id":"20d9bc14-8372-4274-8376-806cd06737a0","system_id":"levelo_inurba_marseille","lat":43.2315,"lon":5.43699,"is_reserved":false,"is_disabled":false,"rental_uris":{"android":"levelo://app?vid=20d9bc14-8372-4274-8376-806cd06737a0","ios":"levelo://app?vid=20d9bc14-8372-4274-8376-806cd06737a0"},"vehicle_type_id":"4","last_reported":1728558504,"current_range_meters":17600,"station_id":"ce4bhmp2rcd13ifvqgog","pricing_plan_id":"cebpf4jnsgd1na2vs0mg"},{"bike_id":"ce23221c-2368-43f1-bbe4-ee005633ff4f","system_id":"levelo_inurba_marseille","lat":43.2408,"lon":5.37762,"is_reserved":false,"is_disabled":false,"rental_uris":{"android":"levelo://app?vid=ce23221c-2368-43f1-bbe4-ee005633ff4f","ios":"levelo://app?vid=ce23221c-2368-43f1-bbe4-ee005633ff4f"},"vehicle_type_id":"4","last_reported":1728558504,"current_range_meters":6400,"station_id":"ce4bhnp2rcd13ifvqgvg","pricing_plan_id":"cebpf4jnsgd1na2vs0mg"},{"bike_id":"d09c7af6-d684-4ca1-af39-6ffce2db8f2b","system_id":"levelo_inurba_marseille","lat":43.29711,"lon":5.37699,"is_reserved":false,"is_disabled":false,"rental_uris":{"android":"levelo://app?vid=d09c7af6-d684-4ca1-af39-6ffce2db8f2b","ios":"levelo://app?vid=d09c7af6-d684-4ca1-af39-6ffce2db8f2b"},"vehicle_type_id":"4","last_reported":1728558504,"current_range_meters":8400,"station_id":"ce4bgkh2rcd13ifvqbl0","pricing_plan_id":"cebpf4jnsgd1na2vs0mg"},