{"last_updated":1716577588,"ttl":30,"version":"2.2","data":{"bikes":[{"bike_id":"abd0a2ed-dc55-421d-9597-916254f5b428","system_id":"levelo_inurba_marseille","lat":43.312239,"lon":5.368562,"is_reserved":false,"is_disabled":false,"rental_uris":{"android":"levelo://app?vid=abd0a2ed-dc55-421d-9597-916254f5b428","ios":"levelo://app?vid=abd0a2ed-dc55-421d-9597-916254f5b428"},"vehicle_type_id":"4","last_reported":1716577588,"current_range_meters":4400,"station_id":"ce4bgl92rcd13ifvqbq0","pricing_plan_id":"cebpf4jnsgd1na2vs0mg"},{"bike_id":"c5e3799a-e37e-4b45-888e-058773ae443f","system_id":"levelo_inurba_marseille","lat":43.312239,"lon":5.368562,"is_reserved":false,"is_disabled":false,"rental_uris":{"android":"levelo://app?vid=c5e3799a-e37e-4b45-888e-058773ae443f","ios":"levelo://app?vid=c5e3799a-e37e-4b45-888e-058773ae443f"},"vehicle_type_id":"4","last_reported":1716577588,"current_range_meters":3200,"station_id":"ce4bgl92rcd13ifvqbq0","pricing_plan_id":"cebpf4jnsgd1na2vs0mg"},{"bike_id":"87fe14ef-b0f3-4ba2-b051-cf4be6e7dc0a","system_id":"levelo_inurba_marseille","lat":43.312239,"lon":5.368562,"is_reserved":false,"is_disabled":false,"rental_uris":{"android":"levelo://app?vid=87fe14ef-b0f3-4ba2-b051-cf4be6e7dc0a","ios":"levelo://app?vid=87fe14ef-b0f3-4ba2-b051-cf4be6e7dc0a"},"vehicle_type_id":"4","last_reported":1716577588,"current_range_meters":0,"station_id":"ce4bgl92rcd13ifvqbq0","pricing_plan_id":"cebpf4jnsgd1na2vs0mg"},{"bike_id":"f2afdebb-1e02-404c-be9b-ccbf569bd622","system_id":"levelo_inurba_marseille","lat":43.312239,"lon":5.368562,"is_reserved":false,"is_disabled":false,"rental_uris":{"android":"levelo://app?vid=f2afdebb-1e02-404c-be9b-ccbf569bd622","ios":"levelo://app?vid=f2afdebb-1e02-404c-be9b-ccbf569bd622"},"vehicle_type_id":"4","last_reported":1716577588,"current_range_meters":16400,"station_id":"ce4bgl92rcd13ifvqbq0","pricing_plan_id":"cebpf4jnsgd1na2vs0mg"},{"bike_id":"72b1d7b5-c80b-428b-9f25-2cbebcfff9bd","system_id":"levelo_inurba_marseille","lat":43.312239,"lon":5.368562,"is_reserved":false,"is_disabled":false,"rental_uris":{"android":"levelo://app?vid=72b1d7b5-c80b-428b-9f25-2cbebcfff9bd","ios":"levelo://app?vid=72b1d7b5-c80b-428b-9f25-2cbebcfff9bd"},"vehicle_type_id":"4","last_reported":1716577588,"current_range_meters":22400,"station_id":"ce4bgl92rcd13ifvqbq0","pricing_plan_id":"cebpf4jnsgd1na2vs0mg"},{"bike_id":"b44e8c54-648a-465f-a8d9-26d2fe9189d8","system_id":"levelo_inurba_marseille","lat":43.309076,"lon":5.368465,"is_reserved":false,"is_disabled":false,"rental_uris":{"android":"levelo://app?vid=b44e8c54-648a-465f-a8d9-26d2fe9189d8","ios":"levelo://app?vid=b44e8c54-648a-465f-a8d9-26d2fe9189d8"},"vehicle_type_id":"4","last_reported":1716577588,"current_range_meters":17200,"station_id":"ce4bgn92rcd13ifvqbvg","pricing_plan_id":"cebpf4jnsgd1na2vs0mg"},{"bike_id":"5b13ed66-d650-4dfc-baf8-7abedf6dbea1","system_id":"levelo_inurba_marseille","lat":43.309076,"lon":5.368465,"is_reserved":false,"is_disabled":false,"rental_uris":{"android":"levelo://app?vid=5b13ed66-d650-4dfc-baf8-7abedf6dbea1","ios":"levelo://app?vid=5b13ed66-d650-4dfc-baf8-7abedf6dbea1"},"vehicle_type_id":"4","last_reported":1716577588,"current_range_meters":4000,"station_id":"ce4bgn92rcd13ifvqbvg","pricing_plan_id":"cebpf4jnsgd1na2vs0mg"},{"bike_id":"61b02e56-2d76-4059-9da3-98471ff4dfbf","system_id":"levelo_inurba_marseille","lat":43.309076,"lon":5.368465,"is_reserved":false,"is_disabled":false,"rental_uris":{"android":"levelo://app?vid=61b02e56-2d76-4059-9da3-98471ff4dfbf","ios":"levelo://app?vid=61b02e56-2d76-4059-9da3-98471ff4dfbf"},"vehicle_type_id":"4","last_reported":1716577588,"current_range_meters":5600,"station_id":"ce4bgn92rcd13ifvqbvg","pricing_plan_id":"cebpf4jnsgd1na2vs0mg"},{"bike_id":"40cfe30b-bc8a-48a0-9a1a-6271973f5961","system_id":"levelo_inurba_marseille","lat":43.309076,"lon":5.368465,"is_reserved":false,"is_disabled":false,"rental_uris":{"android":"levelo://app?vid=40cfe30b-bc8a-48a0-9a1a-6271973f5961","ios":"levelo://app?vid=40cfe30b-bc8a-48a0-9a1a-6271973f5961"},"vehicle_type_id":"4","last_reported":1716577588,"current_range_meters":4400,"station_id":"ce4bgn92rcd13ifvqbvg","pricing_plan_id":"cebpf4jnsgd1na2vs0mg"},{"bike_id":"73d4ccd6-64d8-42d0-90ab-2b7e71d26448","system_id":"levelo_inurba_marseille","lat":43.308896,"lon":5.368305,"is_reserved":false,"is_disabled":false,"rental_uris":{"android":"levelo://app?vid=73d4ccd6-64d8-42d0-90ab-2b7e71d26448","ios":"levelo://app?vid=73d4ccd6-64d8-42d0-90ab-2b7e71d26448"},"vehicle_type_id":"4","last_reported":1716577588,"current_range_meters":3200,"station_id":"ce4bgn92rcd13ifvqbvg","pricing_plan_id":"cebpf4jnsgd1na2vs0mg"},{"bike_id":"52d05091-9542-4ef2-858e-fc4dbfaacc47","system_id":"levelo_inurba_marseille","lat":43.286595,"lon":5.386795,"is_reserved":false,"is_disabled":false,"rental_uris":{"android":"levelo://app?vid=52d05091-9542-4ef2-858e-fc4dbfaacc47","ios":"levelo://app?vid=52d05091-9542-4ef2-858e-fc4dbfaacc47"},"vehicle_type_id":"4","last_reported":1716577588,"current_range_meters":10000,"station_id":"ce4bh492rcd13ifvqdug","pricing_plan_id":"cebpf4jnsgd1na2vs0mg"},{"bike_id":"28603607-f3fe-428d-9a3e-537f4e3c0863","system_id":"levelo_inurba_marseille","lat":43.31494,"lon":5.37307,"is_reserved":false,"is_disabled":false,"rental_uris":{"android":"levelo://app?vid=28603607-f3fe-428d-9a3e-537f4e3c0863","ios":"levelo://app?vid=28603607-f3fe-428d-9a3e-537f4e3c0863"},"vehicle_type_id":"4","last_reported":1716577588,"current_range_meters":9200,"station_id":"ce4bgt12rcd13ifvqcd0","pricing_plan_id":"cebpf4jnsgd1na2vs0mg"},{"bike_id":"680accf6-ed3b-4787-af41-1076d02d7782","system_id":"levelo_inurba_marseille","lat":43.31494,"lon":5.37307,"is_reserved":false,"is_disabled":false,"rental_uris":{"android":"levelo://app?vid=680accf6-ed3b-4787-af41-1076d02d7782","ios":"levelo://app?vid=680accf6-ed3b-4787-af41-1076d02d7782"},"vehicle_type_id":"4","last_reported":1716577588,"current_range_meters":0,"station_id":"ce4bgt12rcd13ifvqcd0","pricing_plan_id":"cebpf4jnsgd1na2vs0mg"},{"bike_id":"fba9cc46-ce05-46e5-8f76-968c506b99b0","system_id":"levelo_inurba_marseille","lat":43.315027,"lon":5.373107,"is_reserved":false,"is_disabled":false,"rental_uris":{"android":"levelo://app?vid=fba9cc46-ce05-46e5-8f76-968c506b99b0","ios":"levelo://app?vid=fba9cc46-ce05-46e5-8f76-968c506b99b0"},"vehicle_type_id":"4","last_reported":1716577588,"current_range_meters":20000,"station_id":"ce4bgt12rcd13ifvqcd0","pricing_plan_id":"cebpf4jnsgd1na2vs0mg"},{"bike_id":"98ddedb7-60f5-41b6-849f-dadbf0906332","system_id":"levelo_inurba_marseille","lat":43.309039,"lon":5.371797,"is_reserved":false,"is_disabled":false,"rental_uris":{"android":"levelo://app?vid=98ddedb7-60f5-41b6-849f-dadbf0906332","ios":"levelo://app?vid=98ddedb7-60f5-41b6-849f-dadbf0906332"},"vehicle_type_id":"4","last_reported":1716577588,"current_range_meters":9600,"station_id":"ce4bguh2rcd13ifvqckg","pricing_plan_id":"cebpf4jnsgd1na2vs0mg"},{"bike_id":"044affa5-186b-4683-9856-2c21baea491f","system_id":"levelo_inurba_marseille","lat":43.30885,"lon":5.37184,"is_reserved":false,"is_disabled":false,"rental_uris":{"android":"levelo://app?vid=044affa5-186b-4683-9856-2c21baea491f","ios":"levelo://app?vid=044affa5-186b-4683-9856-2c21baea491f"},"vehicle_type_id":"4","last_reported":1716577588,"current_range_meters":24000,"station_id":"ce4bguh2rcd13ifvqckg","pricing_plan_id":"cebpf4jnsgd1na2vs0mg"},{"bike_id":"71162875-595f-4de0-b015-d472c29aad20","system_id":"levelo_inurba_marseille","lat":43.309034,"lon":5.371783,"is_reserved":false,"is_disabled":false,"rental_uris":{"android":"levelo://app?vid=71162875-595f-4de0-b015-d472c29aad20","ios":"levelo://app?vid=71162875-595f-4de0-b015-d472c29aad20"},"vehicle_type_id":"4","last_reported":1716577588,"current_range_meters":12000,"station_id":"ce4bguh2rcd13ifvqckg","pricing_plan_id":"cebpf4jnsgd1na2vs0mg"},{"bike_id":"f607a2d9-dea8-4867-a264-a375240e5b9a","system_id":"levelo_inurba_marseille","lat":43.31672,"lon":5.3722,"is_reserved":false,"is_disabled":false,"rental_uris":{"android":"levelo://app?vid=f607a2d9-dea8-4867-a264-a375240e5b9a","ios":"levelo://app?vid=f607a2d9-dea8-4867-a264-a375240e5b9a"},"vehicle_type_id":"4","last_reported":1716577588,"current_range_meters":2400,"station_id":"","pricing_plan_id":"cebpf4jnsgd1na2vs0mg"},{"bike_id":"ba722d6d-ebab-4015-a5d4-ad8a0518ff59","system_id":"levelo_inurba_marseille","lat":43.305714,"lon":5.365633,"is_reserved":false,"is_disabled":false,"rental_uris":{"android":"levelo://app?vid=ba722d6d-ebab-4015-a5d4-ad8a0518ff59","ios":"levelo://app?vid=ba722d6d-ebab-4015-a5d4-ad8a0518ff59"},"vehicle_type_id":"4","last_reported":1716577588,"current_range_meters":4400,"station_id":"ce4bgs12rcd13ifvqcag","pricing_plan_id":"cebpf4jnsgd1na2vs0mg"},{"bike_id":"8462f578-4a8d-405b-a08e-6627ecc61b81","system_id":"levelo_inurba_marseille","lat":43.305475,"lon":5.365406,"is_reserved":false,"is_disabled":false,"rental_uris":{"android":"levelo://app?vid=8462f578-4a8d-405b-a08e-6627ecc61b81","ios":"levelo://app?vid=8462f578-4a8d-405b-a08e-6627ecc61b81"},"vehicle_type_id":"4","last_reported":1716577588,"current_range_meters":31200,"station_id":"ce4bgs12rcd13ifvqcag","pricing_plan_id":"cebpf4jnsgd1na2vs0mg"},{"bike_id":"70ebc7e7-67e2-4b9a-9666-16654e46f0aa","system_id":"levelo_inurba_marseille","lat":43.305706,"lon":5.365654,"is_reserved":false,"is_disabled":false,"rental_uris":{"android":"levelo://app?vid=70ebc7e7-67e2-4b9a-9666-16654e46f0aa","ios":"levelo://app?vid=70ebc7e7-67e2-4b9a-9666-16654e46f0aa"},"vehicle_type_id":"4","last_reported":1716577588,"current_range_meters":7200,"station_id":"ce4bgs12rcd13ifvqcag","pricing_plan_id":"cebpf4jnsgd1na2vs0mg"},{"bike_id":"0b37f147-b9c5-43b5-b97c-52e55625554a","system_id":"levelo_inurba_marseille","lat":43.305706,"lon":5.365654,"is_reserved":false,"is_disabled":false,"rental_uris":{"android":"levelo://app?vid=0b37f147-b9c5-43b5-b97c-52e55625554a","ios":"levelo://app?vid=0b37f147-b9c5-43b5-b97c-52e55625554a"},"vehicle_type_id":"4","last_reported":1716577588,"current_range_meters":9600,"station_id":"ce4bgs12rcd13ifvqcag","pricing_plan_id":"cebpf4jnsgd1na2vs0mg"},{"bike_id":"7ff34282-3918-4d04-8fe0-e2191fb185e0","system_id":"levelo_inurba_marseille","lat":43.305706,"lon":5.365654,"is_reserved":false,"is_disabled":false,"rental_uris":{"android":"levelo://app?vid=7ff34282-3918-4d04-8fe0-e2191fb185e0","ios":"levelo://app?vid=7ff34282-3918-4d04-8fe0-e2191fb185e0"},"vehicle_type_id":"4","last_reported":1716577588,"current_range_meters":30000,"station_id":"ce4bgs12rcd13ifvqcag","pricing_plan_id":"cebpf4jnsgd1na2vs0mg"},{"bike_id":"9f25c0c8-45f7-4f39-b097-6722a0610a04","system_id":"levelo_inurba_marseille","lat":43.305714,"lon":5.365633,"is_reserved":false,"is_disabled":false,"rental_uris":{"android":"levelo://app?vid=9f25c0c8-45f7-4f39-b097-6722a0610a04","ios":"levelo://app?vid=9f25c0c8-45f7-4f39-b097-6722a0610a04"},"vehicle_type_id":"4","last_reported":1716577588,"current_range_meters":11600,"station_id":"ce4bgs12rcd13ifvqcag","pricing_plan_id":"cebpf4jnsgd1na2vs0mg"},{"bike_id":"f8189e51-19a8-4d89-8f2c-c7d73567b2ad","system_id":"levelo_inurba_marseille","lat":43.305368,"lon":5.367343,"is_reserved":false,"is_disabled":false,"rental_uris":{"android":"levelo://app?vid=f8189e51-19a8-4d89-8f2c-c7d73567b2ad","ios":"levelo://app?vid=f8189e51-19a8-4d89-8f2c-c7d73567b2ad"},"vehicle_type_id":"4","last_reported":1716577588,"current_range_meters":0,"station_id":"ce4bgrp2rcd13ifvqc9g","pricing_plan_id":"cebpf4jnsgd1na2vs0mg"},{"bike_id":"7f16e208-a196-475f-ac1b-f66dcfc734ce","system_id":"levelo_inurba_marseille","lat":43.305989,"lon":5.37225,"is_reserved":false,"is_disabled":false,"rental_uris":{"android":"levelo://app?vid=7f16e208-a196-475f-ac1b-f66dcfc734ce","ios":"levelo://app?vid=7f16e208-a196-475f-ac1b-f66dcfc734ce"},"vehicle_type_id":"4","last_reported":1716577588,"current_range_meters":0,"station_id":"ce4bgqh2rcd13ifvqc4g","pricing_plan_id":"cebpf4jnsgd1na2vs0mg"},{"bike_id":"085f8808-1d82-4a31-a42a-8e58df7e3717","system_id":"levelo_inurba_marseille","lat":43.305989,"lon":5.37225,"is_reserved":false,"is_disabled":false,"rental_uris":{"android":"levelo://app?vid=085f8808-1d82-4a31-a42a-8e58df7e3717","ios":"levelo://app?vid=085f8808-1d82-4a31-a42a-8e58df7e3717"},"vehicle_type_id":"4","last_reported":1716577588,"current_range_meters":31600,"station_id":"ce4bgqh2rcd13ifvqc4g","pricing_plan_id":"cebpf4jnsgd1na2vs0mg"},{"bike_id":"338bf953-dfd5-48b0-8af4-f4453feada1e","system_id":"levelo_inurba_marseille","lat":43.305989,"lon":5.37225,"is_reserved":false,"is_disabled":false,"rental_uris":{"android":"levelo://app?vid=338bf953-dfd5-48b0-8af4-f4453feada1e","ios":"levelo://app?vid=338bf953-dfd5-48b0-8af4-f4453feada1e"},"vehicle_type_id":"4","last_reported":1716577588,"current_range_meters":2000,"station_id":"ce4bgqh2rcd13ifvqc4g","pricing_plan_id":"cebpf4jnsgd1na2vs0mg"},{"bike_id":"626eef56-ef42-4e06-887d-5d1421d6394e","system_id":"levelo_inurba_marseille","lat":43.31156,"lon":5.3785,"is_reserved":false,"is_disabled":false,"rental_uris":{"android":"levelo://app?vid=626eef56-ef42-4e06-887d-5d1421d6394e","ios":"levelo://app?vid=626eef56-ef42-4e06-887d-5d1421d6394e"},"vehicle_type_id":"4","last_reported":1716577588,"current_range_meters":20000,"station_id":"","pricing_plan_id":"cebpf4jnsgd1na2vs0mg"},{"bike_id":"302fb0ff-6240-4b78-9626-0075efc3bf9a","system_id":"levelo_inurba_marseille","lat":43.307945,"lon":5.376487,"is_reserved":false,"is_disabled":false,"rental_uris":{"android":"levelo://app?vid=302fb0ff-6240-4b78-9626-0075efc3bf9a","ios":"levelo://app?vid=302fb0ff-6240-4b78-9626-0075efc3bf9a"},"vehicle_type_id":"4","last_reported":1716577588,"current_range_meters":6000,"station_id":"ce4bgv92rcd13ifvqcq0","pricing_plan_id":"cebpf4jnsgd1na2vs0mg"},{"bike_id":"f73273d6-14cd-4694-923c-feb9ff006f76","system_id":"levelo_inurba_marseille","lat":43.317075,"lon":5.377367,"is_reserved":false,"is_disabled":false,"rental_uris":{"android":"levelo://app?vid=f73273d6-14cd-4694-923c-feb9ff006f76","ios":"levelo://app?vid=f73273d6-14cd-4694-923c-feb9ff006f76"},"vehicle_type_id":"4","last_reported":1716577588,"current_range_meters":4800,"station_id":"ce4bgth2rcd13ifvqch0","pricing_plan_id":"cebpf4jnsgd1na2vs0mg"},{"bike_id":"15c4e31b-acc6-467e-8e0e-43f24a21bbd0","system_id":"levelo_inurba_marseille","lat":43.315293,"lon":5.380349,"is_reserved":false,"is_disabled":false,"rental_uris":{"android":"levelo://app?vid=15c4e31b-acc6-467e-8e0e-43f24a21bbd0","ios":"levelo://app?vid=15c4e31b-acc6-467e-8e0e-43f24a21bbd0"},"vehicle_type_id":"4","last_reported":1716577588,"current_range_meters":28400,"station_id":"ce4bhsp2rcd13ifvqi50","pricing_plan_id":"cebpf4jnsgd1na2vs0mg"},{"bike_id":"b57f94ea-ac09-4f40-afab-e2508999d37a","system_id":"levelo_inurba_marseille","lat":43.301939,"lon":5.366286,"is_reserved":false,"is_disabled":false,"rental_uris":{"android":"levelo://app?vid=b57f94ea-ac09-4f40-afab-e2508999d37a","ios":"levelo://app?vid=b57f94ea-ac09-4f40-afab-e2508999d37a"},"vehicle_type_id":"4","last_reported":1716577588,"current_range_meters":8400,"station_id":"ce4bgrh2rcd13ifvqc8g","pricing_plan_id":"cebpf4jnsgd1na2vs0mg"},{"bike_id":"6fc99fd3-d6ca-414e-884d-25a7ef9d3d9e","system_id":"levelo_inurba_marseille","lat":43.324771,"lon":5.36557,"is_reserved":false,"is_disabled":false,"rental_uris":{"android":"levelo://app?vid=6fc99fd3-d6ca-414e-884d-25a7ef9d3d9e","ios":"levelo://app?vid=6fc99fd3-d6ca-414e-884d-25a7ef9d3d9e"},"vehicle_type_id":"4","last_reported":1716577588,"current_range_meters":5200,"station_id":"ce4bhs12rcd13ifvqhvg","pricing_plan_id":"cebpf4jnsgd1na2vs0mg"},{"bike_id":"93493a72-68e8-4882-9261-f912887fa50f","system_id":"levelo_inurba_marseille","lat":43.308012,"lon":5.381511,"is_reserved":false,"is_disabled":false,"rental_uris":{"android":"levelo://app?vid=93493a72-68e8-4882-9261-f912887fa50f","ios":"levelo://app?vid=93493a72-68e8-4882-9261-f912887fa50f"},"vehicle_type_id":"4","last_reported":1716577588,"current_range_meters":18800,"station_id":"ce4bgt12rcd13ifvqce0","pricing_plan_id":"cebpf4jnsgd1na2vs0mg"},{"bike_id":"acaa202b-e418-4030-bfbf-a238329e4e31","system_id":"levelo_inurba_marseille","lat":43.304606,"lon":5.379026,"is_reserved":false,"is_disabled":false,"rental_uris":{"android":"levelo://app?vid=acaa202b-e418-4030-bfbf-a238329e4e31","ios":"levelo://app?vid=acaa202b-e418-4030-bfbf-a238329e4e31"},"vehicle_type_id":"4","last_reported":1716577588,"current_range_meters":16800,"station_id":"ce4bgup2rcd13ifvqcn0","pricing_plan_id":"cebpf4jnsgd1na2vs0mg"},{"bike_id":"48b78921-e077-4530-a502-cbd90152ed03","system_id":"levelo_inurba_marseille","lat":43.304606,"lon":5.379026,"is_reserved":false,"is_disabled":false,"rental_uris":{"android":"levelo://app?vid=48b78921-e077-4530-a502-cbd90152ed03","ios":"levelo://app?vid=48b78921-e077-4530-a502-cbd90152ed03"},"vehicle_type_id":"4","last_reported":1716577588,"current_range_meters":7200,"station_id":"ce4bgup2rcd13ifvqcn0","pricing_plan_id":"cebpf4jnsgd1na2vs0mg"},{"bike_id":"077fd208-e0eb-458b-86f9-bf63798e8702","system_id":"levelo_inurba_marseille","lat":43.304606,"lon":5.379026,"is_reserved":false,"is_disabled":false,"rental_uris":{"android":"levelo://app?vid=077fd208-e0eb-458b-86f9-bf63798e8702","ios":"levelo://app?vid=077fd208-e0eb-458b-86f9-bf63798e8702"},"vehicle_type_id":"4","last_reported":1716577588,"current_range_meters":1600,"station_id":"ce4bgup2rcd13ifvqcn0","pricing_plan_id":"cebpf4jnsgd1na2vs0mg"},{"bike_id":"03b2d0ac-4855-463a-a2f0-be21041dc802","system_id":"levelo_inurba_marseille","lat":43.304606,"lon":5.379026,"is_reserved":false,"is_disabled":false,"rental_uris":{"android":"levelo://app?vid=03b2d0ac-4855-463a-a2f0-be21041dc802","ios":"levelo://app?vid=03b2d0ac-4855-463a-a2f0-be21041dc802"},"vehicle_type_id":"4","last_reported":1716577588,"current_range_meters":31600,"station_id":"ce4bgup2rcd13ifvqcn0","pricing_plan_id":"cebpf4jnsgd1na2vs0mg"},{"bike_id":"16a06ed8-703e-4278-a699-b2724d031bcd","system_id":"levelo_inurba_marseille","lat":43.324771,"lon":5.36557,"is_reserved":false,"is_disabled":false,"rental_uris":{"android":"levelo://app?vid=16a06ed8-703e-4278-a699-b2724d031bcd","ios":"levelo://app?vid=16a06ed8-703e-4278-a699-b2724d031bcd"},"vehicle_type_id":"4","last_reported":1716577588,"current_range_meters":0,"station_id":"ce4bhs12rcd13ifvqhvg","pricing_plan_id":"cebpf4jnsgd1na2vs0mg"},{"bike_id":"97aa767d-4a7c-4d81-b244-c5d3efb49efc","system_id":"levelo_inurba_marseille","lat":43.324771,"lon":5.36557,"is_reserved":false,"is_disabled":false,"rental_uris":{"android":"levelo://app?vid=97aa767d-4a7c-4d81-b244-c5d3efb49efc","ios":"levelo://app?vid=97aa767d-4a7c-4d81-b244-c5d3efb49efc"},"vehicle_type_id":"4","last_reported":1716577588,"current_range_meters":25200,"station_id":"ce4bhs12rcd13ifvqhvg","pricing_plan_id":"cebpf4jnsgd1na2vs0mg"},{"bike_id":"b4583480-f08b-4ddb-bef4-503a9e403271","system_id":"levelo_inurba_marseille","lat":43.310804,"lon":5.38359,"is_reserved":false,"is_disabled":false,"rental_uris":{"android":"levelo://app?vid=b4583480-f08b-4ddb-bef4-503a9e403271","ios":"levelo://app?vid=b4583480-f08b-4ddb-bef4-503a9e403271"},"vehicle_type_id":"4","last_reported":1716577588,"current_range_meters":16400,"station_id":"ce4bgv92rcd13ifvqcr0","pricing_plan_id":"cebpf4jnsgd1na2vs0mg"},{"bike_id":"a8cf95ee-6e67-4aed-b1f4-e2098149a3d5","system_id":"levelo_inurba_marseille","lat":43.324771,"lon":5.36557,"is_reserved":false,"is_disabled":false,"rental_uris":{"android":"levelo://app?vid=a8cf95ee-6e67-4aed-b1f4-e2098149a3d5","ios":"levelo://app?vid=a8cf95ee-6e67-4aed-b1f4-e2098149a3d5"},"vehicle_type_id":"4","last_reported":1716577588,"current_range_meters":3600,"station_id":"ce4bhs12rcd13ifvqhvg","pricing_plan_id":"cebpf4jnsgd1na2vs0mg"},{"bike_id":"5dde7c7e-b78a-40e4-85af-933cd19e89d9","system_id":"levelo_inurba_marseille","lat":43.310804,"lon":5.38359,"is_reserved":false,"is_disabled":false,"rental_uris":{"android":"levelo://app?vid=5dde7c7e-b78a-40e4-85af-933cd19e89d9","ios":"levelo://app?vid=5dde7c7e-b78a-40e4-85af-933cd19e89d9"},"vehicle_type_id":"4","last_reported":1716577588,"current_range_meters":25600,"station_id":"ce4bgv92rcd13ifvqcr0","pricing_plan_id":"cebpf4jnsgd1na2vs0mg"},{"bike_id":"5526f99e-ce5b-4832-b293-0afb424949db","system_id":"levelo_inurba_marseille","lat":43.310727,"lon":5.383653,"is_reserved":false,"is_disabled":false,"rental_uris":{"android":"levelo://app?vid=5526f99e-ce5b-4832-b293-0afb424949db","ios":"levelo://app?vid=5526f99e-ce5b-4832-b293-0afb424949db"},"vehicle_type_id":"4","last_reported":1716577588,"current_range_meters":0,"station_id":"ce4bgv92rcd13ifvqcr0","pricing_plan_id":"cebpf4jnsgd1na2vs0mg"},{"bike_id":"7dcbb485-8da0-40d1-8aa0-c2b853805002","system_id":"levelo_inurba_marseille","lat":43.310804,"lon":5.38359,"is_reserved":false,"is_disabled":false,"rental_uris":{"android":"levelo://app?vid=7dcbb485-8da0-40d1-8aa0-c2b853805002","ios":"levelo://app?vid=7dcbb485-8da0-40d1-8aa0-c2b853805002"},"vehicle_type_id":"4","last_reported":1716577588,"current_range_meters":8800,"station_id":"ce4bgv92rcd13ifvqcr0","pricing_plan_id":"cebpf4jnsgd1na2vs0mg"},{"bike_id":"659b5f1e-1b58-48d0-8b18-0f8309fdf1c3","system_id":"levelo_inurba_marseille","lat":43.319935,"lon":5.381699,"is_reserved":false,"is_disabled":false,"rental_uris":{"android":"levelo://app?vid=659b5f1e-1b58-48d0-8b18-0f8309fdf1c3","ios":"levelo://app?vid=659b5f1e-1b58-48d0-8b18-0f8309fdf1c3"},"vehicle_type_id":"4","last_reported":1716577588,"current_range_meters":2400,"station_id":"ce4bhr12rcd13ifvqhpg","pricing_plan_id":"cebpf4jnsgd1na2vs0mg"},{"bike_id":"71369abf-e394-4940-97da-986f25abee8b","system_id":"levelo_inurba_marseille","lat":43.319935,"lon":5.381699,"is_reserved":false,"is_disabled":false,"rental_uris":{"android":"levelo://app?vid=71369abf-e394-4940-97da-986f25abee8b","ios":"levelo://app?vid=71369abf-e394-4940-97da-986f25abee8b"},"vehicle_type_id":"4","last_reported":1716577588,"current_range_meters":21600,"station_id":"ce4bhr12rcd13ifvqhpg","pricing_plan_id":"cebpf4jnsgd1na2vs0mg"},{"bike_id":"7217e5c8-6503-4cd6-8114-794c23bbe059","system_id":"levelo_inurba_marseille","lat":43.319961,"lon":5.381474,"is_reserved":false,"is_disabled":false,"rental_uris":{"android":"levelo://app?vid=7217e5c8-6503-4cd6-8114-794c23bbe059","ios":"levelo://app?vid=7217e5c8-6503-4cd6-8114-794c23bbe059"},"vehicle_type_id":"4","last_reported":1716577588,"current_range_meters":2800,"station_id":"ce4bhr12rcd13ifvqhpg","pricing_plan_id":"cebpf4jnsgd1na2vs0mg"},{"bike_id":"0fbe5198-f394-4686-a086-9ac196b8caea","system_id":"levelo_inurba_marseille","lat":43.319935,"lon":5.381699,"is_reserved":false,"is_disabled":false,"rental_uris":{"android":"levelo://app?vid=0fbe5198-f394-4686-a086-9ac196b8caea","ios":"levelo://app?vid=0fbe5198-f394-4686-a086-9ac196b8caea"},"vehicle_type_id":"4","last_reported":1716577588,"current_range_meters":22000,"station_id":"ce4bhr12rcd13ifvqhpg","pricing_plan_id":"cebpf4jnsgd1na2vs0mg"},{"bike_id":"f17462eb-9d0d-4948-85db-37f9fcb89ac8","system_id":"levelo_inurba_marseille","lat":43.31995,"lon":5.3816,"is_reserved":false,"is_disabled":false,"rental_uris":{"android":"levelo://app?vid=f17462eb-9d0d-4948-85db-37f9fcb89ac8","ios":"levelo://app?vid=f17462eb-9d0d-4948-85db-37f9fcb89ac8"},"vehicle_type_id":"4","last_reported":1716577588,"current_range_meters":8400,"station_id":"ce4bhr12rcd13ifvqhpg","pricing_plan_id":"cebpf4jnsgd1na2vs0mg"},{"bike_id":"4beb7a99-9b4d-4a34-9b85-2c7ccc43f787","system_id":"levelo_inurba_marseille","lat":43.313571,"lon":5.384829,"is_reserved":false,"is_disabled":false,"rental_uris":{"android":"levelo://app?vid=4beb7a99-9b4d-4a34-9b85-2c7ccc43f787","ios":"levelo://app?vid=4beb7a99-9b4d-4a34-9b85-2c7ccc43f787"},"vehicle_type_id":"4","last_reported":1716577588,"current_range_meters":15200,"station_id":"ce4bgt92rcd13ifvqcf0","pricing_plan_id":"cebpf4jnsgd1na2vs0mg"},{"bike_id":"381ec375-3caa-42dc-997b-7dc7d007044e","system_id":"levelo_inurba_marseille","lat":43.31358,"lon":5.38473,"is_reserved":false,"is_disabled":false,"rental_uris":{"android":"levelo://app?vid=381ec375-3caa-42dc-997b-7dc7d007044e","ios":"levelo://app?vid=381ec375-3caa-42dc-997b-7dc7d007044e"},"vehicle_type_id":"4","last_reported":1716577588,"current_range_meters":8400,"station_id":"ce4bgt92rcd13ifvqcf0","pricing_plan_id":"cebpf4jnsgd1na2vs0mg"},{"bike_id":"d93ac5de-d7ea-43b9-8dee-9b888662be6e","system_id":"levelo_inurba_marseille","lat":43.313571,"lon":5.384829,"is_reserved":false,"is_disabled":false,"rental_uris":{"android":"levelo://app?vid=d93ac5de-d7ea-43b9-8dee-9b888662be6e","ios":"levelo://app?vid=d93ac5de-d7ea-43b9-8dee-9b888662be6e"},"vehicle_type_id":"4","last_reported":1716577588,"current_range_meters":3600,"station_id":"ce4bgt92rcd13ifvqcf0","pricing_plan_id":"cebpf4jnsgd1na2vs0mg"},{"bike_id":"49ec53b7-a0f0-4944-b342-cbf57e83d861","system_id":"levelo_inurba_marseille","lat":43.312609,"lon":5.401662,"is_reserved":false,"is_disabled":false,"rental_uris":{"android":"levelo://app?vid=49ec53b7-a0f0-4944-b342-cbf57e83d861","ios":"levelo://app?vid=49ec53b7-a0f0-4944-b342-cbf57e83d861"},"vehicle_type_id":"4","last_reported":1716577588,"current_range_meters":22000,"station_id":"ce4bh092rcd13ifvqd30","pricing_plan_id":"cebpf4jnsgd1na2vs0mg"},{"bike_id":"a6f5d4e7-5e25-4db1-ba97-b0d2e1eec117","system_id":"levelo_inurba_marseille","lat":43.313571,"lon":5.384829,"is_reserved":false,"is_disabled":false,"rental_uris":{"android":"levelo://app?vid=a6f5d4e7-5e25-4db1-ba97-b0d2e1eec117","ios":"levelo://app?vid=a6f5d4e7-5e25-4db1-ba97-b0d2e1eec117"},"vehicle_type_id":"4","last_reported":1716577588,"current_range_meters":13600,"station_id":"ce4bgt92rcd13ifvqcf0","pricing_plan_id":"cebpf4jnsgd1na2vs0mg"},{"bike_id":"891776f2-05bf-4f4f-ac0a-7c4a02f3a6e3","system_id":"levelo_inurba_marseille","lat":43.313571,"lon":5.384829,"is_reserved":false,"is_disabled":false,"rental_uris":{"android":"levelo://app?vid=891776f2-05bf-4f4f-ac0a-7c4a02f3a6e3","ios":"levelo://app?vid=891776f2-05bf-4f4f-ac0a-7c4a02f3a6e3"},"vehicle_type_id":"4","last_reported":1716577588,"current_range_meters":800,"station_id":"ce4bgt92rcd13ifvqcf0","pricing_plan_id":"cebpf4jnsgd1na2vs0mg"},{"bike_id":"7f76cf40-75b0-41ff-b81a-896c8277afaf","system_id":"levelo_inurba_marseille","lat":43.299222,"lon":5.365554,"is_reserved":false,"is_disabled":false,"rental_uris":{"android":"levelo://app?vid=7f76cf40-75b0-41ff-b81a-896c8277afaf","ios":"levelo://app?vid=7f76cf40-75b0-41ff-b81a-896c8277afaf"},"vehicle_type_id":"4","last_reported":1716577588,"current_range_meters":19600,"station_id":"ce4bgm92rcd13ifvqbr0","pricing_plan_id":"cebpf4jnsgd1na2vs0mg"},{"bike_id":"d151cb71-8aa9-4b89-b4e8-3ed37c5b9bf3","system_id":"levelo_inurba_marseille","lat":43.299724,"lon":5.371829,"is_reserved":false,"is_disabled":false,"rental_uris":{"android":"levelo://app?vid=d151cb71-8aa9-4b89-b4e8-3ed37c5b9bf3","ios":"levelo://app?vid=d151cb71-8aa9-4b89-b4e8-3ed37c5b9bf3"},"vehicle_type_id":"4","last_reported":1716577588,"current_range_meters":31200,"station_id":"ce4bgr92rcd13ifvqc7g","pricing_plan_id":"cebpf4jnsgd1na2vs0mg"},{"bike_id":"cc318f70-771e-4b7e-a7b3-5e18c1529b41","system_id":"levelo_inurba_marseille","lat":43.299222,"lon":5.365554,"is_reserved":false,"is_disabled":false,"rental_uris":{"android":"levelo://app?vid=cc318f70-771e-4b7e-a7b3-5e18c1529b41","ios":"levelo://app?vid=cc318f70-771e-4b7e-a7b3-5e18c1529b41"},"vehicle_type_id":"4","last_reported":1716577588,"current_range_meters":16400,"station_id":"ce4bgm92rcd13ifvqbr0","pricing_plan_id":"cebpf4jnsgd1na2vs0mg"},{"bike_id":"6b800fc5-09e6-40c0-922e-2e12a935110d","system_id":"levelo_inurba_marseille","lat":43.299724,"lon":5.371829,"is_reserved":false,"is_disabled":false,"rental_uris":{"android":"levelo://app?vid=6b800fc5-09e6-40c0-922e-2e12a935110d","ios":"levelo://app?vid=6b800fc5-09e6-40c0-922e-2e12a935110d"},"vehicle_type_id":"4","last_reported":1716577588,"current_range_meters":1200,"station_id":"ce4bgr92rcd13ifvqc7g","pricing_plan_id":"cebpf4jnsgd1na2vs0mg"},{"bike_id":"15585c9b-ed96-4b29-b5ff-a108a35e3aeb","system_id":"levelo_inurba_marseille","lat":43.313571,"lon":5.384829,"is_reserved":false,"is_disabled":false,"rental_uris":{"android":"levelo://app?vid=15585c9b-ed96-4b29-b5ff-a108a35e3aeb","ios":"levelo://app?vid=15585c9b-ed96-4b29-b5ff-a108a35e3aeb"},"vehicle_type_id":"4","last_reported":1716577588,"current_range_meters":4400,"station_id":"ce4bgt92rcd13ifvqcf0","pricing_plan_id":"cebpf4jnsgd1na2vs0mg"},{"bike_id":"79e6001b-3d3d-48b4-842f-24305dbf61f9","system_id":"levelo_inurba_marseille","lat":43.299724,"lon":5.371829,"is_reserved":false,"is_disabled":false,"rental_uris":{"android":"levelo://app?vid=79e6001b-3d3d-48b4-842f-24305dbf61f9","ios":"levelo://app?vid=79e6001b-3d3d-48b4-842f-24305dbf61f9"},"vehicle_type_id":"4","last_reported":1716577588,"current_range_meters":2400,"station_id":"ce4bgr92rcd13ifvqc7g","pricing_plan_id":"cebpf4jnsgd1na2vs0mg"},{"bike_id":"9295ef1d-180b-4a9f-ad3e-679e7812b0c2","system_id":"levelo_inurba_marseille","lat":43.299724,"lon":5.371829,"is_reserved":false,"is_disabled":false,"rental_uris":{"android":"levelo://app?vid=9295ef1d-180b-4a9f-ad3e-679e7812b0c2","ios":"levelo://app?vid=9295ef1d-180b-4a9f-ad3e-679e7812b0c2"},"vehicle_type_id":"4","last_reported":1716577588,"current_range_meters":3600,"station_id":"ce4bgr92rcd13ifvqc7g","pricing_plan_id":"cebpf4jnsgd1na2vs0mg"},{"bike_id":"f0d9c018-6868-4da8-8a51-b7a3fc98eb19","system_id":"levelo_inurba_marseille","lat":43.299724,"lon":5.371829,"is_reserved":false,"is_disabled":false,"rental_uris":{"android":"levelo://app?vid=f0d9c018-6868-4da8-8a51-b7a3fc98eb19","ios":"levelo://app?vid=f0d9c018-6868-4da8-8a51-b7a3fc98eb19"},"vehicle_type_id":"4","last_reported":1716577588,"current_range_meters":0,"station_id":"ce4bgr92rcd13ifvqc7g","pricing_plan_id":"cebpf4jnsgd1na2vs0mg"},{"bike_id":"8e12b4c9-f820-42d9-a113-37a501f7b438","system_id":"levelo_inurba_marseille","lat":43.299724,"lon":5.371829,"is_reserved":false,"is_disabled":false,"rental_uris":{"android":"levelo://app?vid=8e12b4c9-f820-42d9-a113-37a501f7b438","ios":"levelo://app?vid=8e12b4c9-f820-42d9-a113-37a501f7b438"},"vehicle_type_id":"4","last_reported":1716577588,"current_range_meters":7600,"station_id":"ce4bgr92rcd13ifvqc7g","pricing_plan_id":"cebpf4jnsgd1na2vs0mg"},{"bike_id":"e44c6878-d743-46b9-b079-e68420159406","system_id":"levelo_inurba_marseille","lat":43.298433,"lon":5.362774,"is_reserved":false,"is_disabled":false,"rental_uris":{"android":"levelo://app?vid=e44c6878-d743-46b9-b079-e68420159406","ios":"levelo://app?vid=e44c6878-d743-46b9-b079-e68420159406"},"vehicle_type_id":"4","last_reported":1716577588,"current_range_meters":31200,"station_id":"ce4bgpp2rcd13ifvqc3g","pricing_plan_id":"cebpf4jnsgd1na2vs0mg"},{"bike_id":"9f46337f-077b-4212-9126-6b020a840b9d","system_id":"levelo_inurba_marseille","lat":43.311722,"lon":5.387247,"is_reserved":false,"is_disabled":false,"rental_uris":{"android":"levelo://app?vid=9f46337f-077b-4212-9126-6b020a840b9d","ios":"levelo://app?vid=9f46337f-077b-4212-9126-6b020a840b9d"},"vehicle_type_id":"4","last_reported":1716577588,"current_range_meters":5200,"station_id":"ce4bgv12rcd13ifvqcp0","pricing_plan_id":"cebpf4jnsgd1na2vs0mg"},{"bike_id":"64452681-480b-4040-886a-2b98dbe1a98a","system_id":"levelo_inurba_marseille","lat":43.298037,"lon":5.381066,"is_reserved":false,"is_disabled":false,"rental_uris":{"android":"levelo://app?vid=64452681-480b-4040-886a-2b98dbe1a98a","ios":"levelo://app?vid=64452681-480b-4040-886a-2b98dbe1a98a"},"vehicle_type_id":"4","last_reported":1716577588,"current_range_meters":800,"station_id":"ce4bgip2rcd13ifvqbb0","pricing_plan_id":"cebpf4jnsgd1na2vs0mg"},{"bike_id":"7dcfc0cb-63c5-4223-949c-3dc47be13f3b","system_id":"levelo_inurba_marseille","lat":43.311722,"lon":5.387247,"is_reserved":false,"is_disabled":false,"rental_uris":{"android":"levelo://app?vid=7dcfc0cb-63c5-4223-949c-3dc47be13f3b","ios":"levelo://app?vid=7dcfc0cb-63c5-4223-949c-3dc47be13f3b"},"vehicle_type_id":"4","last_reported":1716577588,"current_range_meters":5600,"station_id":"ce4bgv12rcd13ifvqcp0","pricing_plan_id":"cebpf4jnsgd1na2vs0mg"},{"bike_id":"ec1d0f23-331a-4c2a-8f67-de9c255dde28","system_id":"levelo_inurba_marseille","lat":43.311722,"lon":5.387247,"is_reserved":false,"is_disabled":false,"rental_uris":{"android":"levelo://app?vid=ec1d0f23-331a-4c2a-8f67-de9c255dde28","ios":"levelo://app?vid=ec1d0f23-331a-4c2a-8f67-de9c255dde28"},"vehicle_type_id":"4","last_reported":1716577588,"current_range_meters":9600,"station_id":"ce4bgv12rcd13ifvqcp0","pricing_plan_id":"cebpf4jnsgd1na2vs0mg"},{"bike_id":"453f0504-fad6-4ee3-862b-e5ef0cb8cc6b","system_id":"levelo_inurba_marseille","lat":43.311722,"lon":5.387247,"is_reserved":false,"is_disabled":false,"rental_uris":{"android":"levelo://app?vid=453f0504-fad6-4ee3-862b-e5ef0cb8cc6b","ios":"levelo://app?vid=453f0504-fad6-4ee3-862b-e5ef0cb8cc6b"},"vehicle_type_id":"4","last_reported":1716577588,"current_range_meters":18800,"station_id":"ce4bgv12rcd13ifvqcp0","pricing_plan_id":"cebpf4jnsgd1na2vs0mg"},{"bike_id":"ed2b4506-d314-4f1c-b1bf-cb0360b6b9e6","system_id":"levelo_inurba_marseille","lat":43.311722,"lon":5.387247,"is_reserved":false,"is_disabled":false,"rental_uris":{"android":"levelo://app?vid=ed2b4506-d314-4f1c-b1bf-cb0360b6b9e6","ios":"levelo://app?vid=ed2b4506-d314-4f1c-b1bf-cb0360b6b9e6"},"vehicle_type_id":"4","last_reported":1716577588,"current_range_meters":1200,"station_id":"ce4bgv12rcd13ifvqcp0","pricing_plan_id":"cebpf4jnsgd1na2vs0mg"},{"bike_id":"b01b0f33-64eb-4c28-a544-6fbf84679076","system_id":"levelo_inurba_marseille","lat":43.311722,"lon":5.387247,"is_reserved":false,"is_disabled":false,"rental_uris":{"android":"levelo://app?vid=b01b0f33-64eb-4c28-a544-6fbf84679076","ios":"levelo://app?vid=b01b0f33-64eb-4c28-a544-6fbf84679076"},"vehicle_type_id":"4","last_reported":1716577588,"current_range_meters":5600,"station_id":"ce4bgv12rcd13ifvqcp0","pricing_plan_id":"cebpf4jnsgd1na2vs0mg"},{"bike_id":"3752419d-ef55-4733-b0c9-264fb4329ffa","system_id":"levelo_inurba_marseille","lat":43.311722,"lon":5.387247,"is_reserved":false,"is_disabled":false,"rental_uris":{"android":"levelo://app?vid=3752419d-ef55-4733-b0c9-264fb4329ffa","ios":"levelo://app?vid=3752419d-ef55-4733-b0c9-264fb4329ffa"},"vehicle_type_id":"4","last_reported":1716577588,"current_range_meters":3200,"station_id":"ce4bgv12rcd13ifvqcp0","pricing_plan_id":"cebpf4jnsgd1na2vs0mg"},{"bike_id":"0228f498-c670-43d4-a791-626f84e3a192","system_id":"levelo_inurba_marseille","lat":43.311722,"lon":5.387247,"is_reserved":false,"is_disabled":false,"rental_uris":{"android":"levelo://app?vid=0228f498-c670-43d4-a791-626f84e3a192","ios":"levelo://app?vid=0228f498-c670-43d4-a791-626f84e3a192"},"vehicle_type_id":"4","last_reported":1716577588,"current_range_meters":2800,"station_id":"ce4bgv12rcd13ifvqcp0","pricing_plan_id":"cebpf4jnsgd1na2vs0mg"},{"bike_id":"3d1f0805-1441-4ce2-9547-445308ba7eb3","system_id":"levelo_inurba_marseille","lat":43.311722,"lon":5.387247,"is_reserved":false,"is_disabled":false,"rental_uris":{"android":"levelo://app?vid=3d1f0805-1441-4ce2-9547-445308ba7eb3","ios":"levelo://app?vid=3d1f0805-1441-4ce2-9547-445308ba7eb3"},"vehicle_type_id":"4","last_reported":1716577588,"current_range_meters":2400,"station_id":"ce4bgv12rcd13ifvqcp0","pricing_plan_id":"cebpf4jnsgd1na2vs0mg"},{"bike_id":"ed492a4e-944e-43b3-bd26-4581a8e6f7a8","system_id":"levelo_inurba_marseille","lat":43.297794,"lon":5.370888,"is_reserved":false,"is_disabled":false,"rental_uris":{"android":"levelo://app?vid=ed492a4e-944e-43b3-bd26-4581a8e6f7a8","ios":"levelo://app?vid=ed492a4e-944e-43b3-bd26-4581a8e6f7a8"},"vehicle_type_id":"4","last_reported":1716577588,"current_range_meters":30000,"station_id":"ce4bgop2rcd13ifvqc1g","pricing_plan_id":"cebpf4jnsgd1na2vs0mg"},{"bike_id":"ef52bceb-1dd4-4665-be5a-b50c8efabba1","system_id":"levelo_inurba_marseille","lat":43.297774,"lon":5.370875,"is_reserved":false,"is_disabled":false,"rental_uris":{"android":"levelo://app?vid=ef52bceb-1dd4-4665-be5a-b50c8efabba1","ios":"levelo://app?vid=ef52bceb-1dd4-4665-be5a-b50c8efabba1"},"vehicle_type_id":"4","last_reported":1716577588,"current_range_meters":11600,"station_id":"ce4bgop2rcd13ifvqc1g","pricing_plan_id":"cebpf4jnsgd1na2vs0mg"},{"bike_id":"0d26ce8d-7dad-448e-8a04-fad3aa451936","system_id":"levelo_inurba_marseille","lat":43.322872,"lon":5.382756,"is_reserved":false,"is_disabled":false,"rental_uris":{"android":"levelo://app?vid=0d26ce8d-7dad-448e-8a04-fad3aa451936","ios":"levelo://app?vid=0d26ce8d-7dad-448e-8a04-fad3aa451936"},"vehicle_type_id":"4","last_reported":1716577588,"current_range_meters":10800,"station_id":"ce4bhr12rcd13ifvqhqg","pricing_plan_id":"cebpf4jnsgd1na2vs0mg"},{"bike_id":"9c0de641-53c1-4e9a-8b10-df4717ef8f20","system_id":"levelo_inurba_marseille","lat":43.322869,"lon":5.382676,"is_reserved":false,"is_disabled":false,"rental_uris":{"android":"levelo://app?vid=9c0de641-53c1-4e9a-8b10-df4717ef8f20","ios":"levelo://app?vid=9c0de641-53c1-4e9a-8b10-df4717ef8f20"},"vehicle_type_id":"4","last_reported":1716577588,"current_range_meters":21600,"station_id":"ce4bhr12rcd13ifvqhqg","pricing_plan_id":"cebpf4jnsgd1na2vs0mg"},{"bike_id":"a9c38c7c-2f1a-4bff-a9ae-be2146643247","system_id":"levelo_inurba_marseille","lat":43.322872,"lon":5.382756,"is_reserved":false,"is_disabled":false,"rental_uris":{"android":"levelo://app?vid=a9c38c7c-2f1a-4bff-a9ae-be2146643247","ios":"levelo://app?vid=a9c38c7c-2f1a-4bff-a9ae-be2146643247"},"vehicle_type_id":"4","last_reported":1716577588,"current_range_meters":23200,"station_id":"ce4bhr12rcd13ifvqhqg","pricing_plan_id":"cebpf4jnsgd1na2vs0mg"},{"bike_id":"79f33001-a651-4b0f-b82e-f19ee71b8d0f","system_id":"levelo_inurba_marseille","lat":43.322872,"lon":5.382756,"is_reserved":false,"is_disabled":false,"rental_uris":{"android":"levelo://app?vid=79f33001-a651-4b0f-b82e-f19ee71b8d0f","ios":"levelo://app?vid=79f33001-a651-4b0f-b82e-f19ee71b8d0f"},"vehicle_type_id":"4","last_reported":1716577588,"current_range_meters":28000,"station_id":"ce4bhr12rcd13ifvqhqg","pricing_plan_id":"cebpf4jnsgd1na2vs0mg"},{"bike_id":"a281f011-7cc0-4b1c-9d34-3a0e8e58659c","system_id":"levelo_inurba_marseille","lat":43.322872,"lon":5.382756,"is_reserved":false,"is_disabled":false,"rental_uris":{"android":"levelo://app?vid=a281f011-7cc0-4b1c-9d34-3a0e8e58659c","ios":"levelo://app?vid=a281f011-7cc0-4b1c-9d34-3a0e8e58659c"},"vehicle_type_id":"4","last_reported":1716577588,"current_range_meters":31600,"station_id":"ce4bhr12rcd13ifvqhqg","pricing_plan_id":"cebpf4jnsgd1na2vs0mg"},{"bike_id":"becaa431-a8d9-410b-b743-73dc8dc17993","system_id":"levelo_inurba_marseille","lat":43.322872,"lon":5.382756,"is_reserved":false,"is_disabled":false,"rental_uris":{"android":"levelo://app?vid=becaa431-a8d9-410b-b743-73dc8dc17993","ios":"levelo://app?vid=becaa431-a8d9-410b-b743-73dc8dc17993"},"vehicle_type_id":"4","last_reported":1716577588,"current_range_meters":21600,"station_id":"ce4bhr12rcd13ifvqhqg","pricing_plan_id":"cebpf4jnsgd1na2vs0mg"},{"bike_id":"e39f77da-b2ef-4df0-8c27-f669a9096c13","system_id":"levelo_inurba_marseille","lat":43.322872,"lon":5.382756,"is_reserved":false,"is_disabled":false,"rental_uris":{"android":"levelo://app?vid=e39f77da-b2ef-4df0-8c27-f669a9096c13","ios":"levelo://app?vid=e39f77da-b2ef-4df0-8c27-f669a9096c13"},"vehicle_type_id":"4","last_reported":1716577588,"current_range_meters":6000,"station_id":"ce4bhr12rcd13ifvqhqg","pricing_plan_id":"cebpf4jnsgd1na2vs0mg"},{"bike_id":"66425d78-e730-4e03-8806-befd97dd7ae9","system_id":"levelo_inurba_marseille","lat":43.322872,"lon":5.382756,"is_reserved":false,"is_disabled":false,"rental_uris":{"android":"levelo://app?vid=66425d78-e730-4e03-8806-befd97dd7ae9","ios":"levelo://app?vid=66425d78-e730-4e03-8806-befd97dd7ae9"},"vehicle_type_id":"4","last_reported":1716577588,"current_range_meters":22400,"station_id":"ce4bhr12rcd13ifvqhqg","pricing_plan_id":"cebpf4jnsgd1na2vs0mg"},{"bike_id":"48d10151-47c7-4d75-864d-30f9b21ff931","system_id":"levelo_inurba_marseille","lat":43.322872,"lon":5.382756,"is_reserved":false,"is_disabled":false,"rental_uris":{"android":"levelo://app?vid=48d10151-47c7-4d75-864d-30f9b21ff931","ios":"levelo://app?vid=48d10151-47c7-4d75-864d-30f9b21ff931"},"vehicle_type_id":"4","last_reported":1716577588,"current_range_meters":8000,"station_id":"ce4bhr12rcd13ifvqhqg","pricing_plan_id":"cebpf4jnsgd1na2vs0mg"},{"bike_id":"023fd50e-0e64-4a44-bb5f-522d4d1226e8","system_id":"levelo_inurba_marseille","lat":43.322872,"lon":5.382756,"is_reserved":false,"is_disabled":false,"rental_uris":{"android":"levelo://app?vid=023fd50e-0e64-4a44-bb5f-522d4d1226e8","ios":"levelo://app?vid=023fd50e-0e64-4a44-bb5f-522d4d1226e8"},"vehicle_type_id":"4","last_reported":1716577588,"current_range_meters":9200,"station_id":"ce4bhr12rcd13ifvqhqg","pricing_plan_id":"cebpf4jnsgd1na2vs0mg"},{"bike_id":"3a4266a6-e3f5-4d81-8f16-fc6d23726105","system_id":"levelo_inurba_marseille","lat":43.32292,"lon":5.382794,"is_reserved":false,"is_disabled":false,"rental_uris":{"android":"levelo://app?vid=3a4266a6-e3f5-4d81-8f16-fc6d23726105","ios":"levelo://app?vid=3a4266a6-e3f5-4d81-8f16-fc6d23726105"},"vehicle_type_id":"4","last_reported":1716577588,"current_range_meters":13600,"station_id":"ce4bhr12rcd13ifvqhqg","pricing_plan_id":"cebpf4jnsgd1na2vs0mg"},{"bike_id":"ff2c9325-2710-4158-a459-0a59e7eafe1b","system_id":"levelo_inurba_marseille","lat":43.322872,"lon":5.382756,"is_reserved":false,"is_disabled":false,"rental_uris":{"android":"levelo://app?vid=ff2c9325-2710-4158-a459-0a59e7eafe1b","ios":"levelo://app?vid=ff2c9325-2710-4158-a459-0a59e7eafe1b"},"vehicle_type_id":"4","last_reported":1716577588,"current_range_meters":10800,"station_id":"ce4bhr12rcd13ifvqhqg","pricing_plan_id":"cebpf4jnsgd1na2vs0mg"},{"bike_id":"fef19b85-e841-42d1-9cad-a8ea3c9523a5","system_id":"levelo_inurba_marseille","lat":43.29851,"lon":5.37698,"is_reserved":false,"is_disabled":false,"rental_uris":{"android":"levelo://app?vid=fef19b85-e841-42d1-9cad-a8ea3c9523a5","ios":"levelo://app?vid=fef19b85-e841-42d1-9cad-a8ea3c9523a5"},"vehicle_type_id":"4","last_reported":1716577588,"current_range_meters":10400,"station_id":"","pricing_plan_id":"cebpf4jnsgd1na2vs0mg"},{"bike_id":"b0181dbd-d16d-4347-9382-b450da867146","system_id":"levelo_inurba_marseille","lat":43.29657,"lon":5.36162,"is_reserved":false,"is_disabled":false,"rental_uris":{"android":"levelo://app?vid=b0181dbd-d16d-4347-9382-b450da867146","ios":"levelo://app?vid=b0181dbd-d16d-4347-9382-b450da867146"},"vehicle_type_id":"4","last_reported":1716577588,"current_range_meters":11600,"station_id":"","pricing_plan_id":"cebpf4jnsgd1na2vs0mg"},{"bike_id":"102b144a-248d-4b26-8eb8-065d8980069b","system_id":"levelo_inurba_marseille","lat":43.296131,"lon":5.370791,"is_reserved":false,"is_disabled":false,"rental_uris":{"android":"levelo://app?vid=102b144a-248d-4b26-8eb8-065d8980069b","ios":"levelo://app?vid=102b144a-248d-4b26-8eb8-065d8980069b"},"vehicle_type_id":"4","last_reported":1716577588,"current_range_meters":5600,"station_id":"ce4bgnh2rcd13ifvqc0g","pricing_plan_id":"cebpf4jnsgd1na2vs0mg"},{"bike_id":"ca6a8264-42e3-4b84-bc95-ee9a7723c8c9","system_id":"levelo_inurba_marseille","lat":43.322872,"lon":5.382756,"is_reserved":false,"is_disabled":false,"rental_uris":{"android":"levelo://app?vid=ca6a8264-42e3-4b84-bc95-ee9a7723c8c9","ios":"levelo://app?vid=ca6a8264-42e3-4b84-bc95-ee9a7723c8c9"},"vehicle_type_id":"4","last_reported":1716577588,"current_range_meters":13600,"station_id":"ce4bhr12rcd13ifvqhqg","pricing_plan_id":"cebpf4jnsgd1na2vs0mg"},{"bike_id":"87e8a60d-0f5f-4c7b-b46b-102ea80fffe7","system_id":"levelo_inurba_marseille","lat":43.296131,"lon":5.370791,"is_reserved":false,"is_disabled":false,"rental_uris":{"android":"levelo://app?vid=87e8a60d-0f5f-4c7b-b46b-102ea80fffe7","ios":"levelo://app?vid=87e8a60d-0f5f-4c7b-b46b-102ea80fffe7"},"vehicle_type_id":"4","last_reported":1716577588,"current_range_meters":14800,"station_id":"ce4bgnh2rcd13ifvqc0g","pricing_plan_id":"cebpf4jnsgd1na2vs0mg"},{"bike_id":"ac59e799-5844-4be0-ac6f-d85648773bf3","system_id":"levelo_inurba_marseille","lat":43.296131,"lon":5.370791,"is_reserved":false,"is_disabled":false,"rental_uris":{"android":"levelo://app?vid=ac59e799-5844-4be0-ac6f-d85648773bf3","ios":"levelo://app?vid=ac59e799-5844-4be0-ac6f-d85648773bf3"},"vehicle_type_id":"4","last_reported":1716577588,"current_range_meters":16400,"station_id":"ce4bgnh2rcd13ifvqc0g","pricing_plan_id":"cebpf4jnsgd1na2vs0mg"},{"bike_id":"eb1efca5-917b-4c95-a0fe-6365e87dac1a","system_id":"levelo_inurba_marseille","lat":43.29575,"lon":5.36735,"is_reserved":false,"is_disabled":false,"rental_uris":{"android":"levelo://app?vid=eb1efca5-917b-4c95-a0fe-6365e87dac1a","ios":"levelo://app?vid=eb1efca5-917b-4c95-a0fe-6365e87dac1a"},"vehicle_type_id":"4","last_reported":1716577588,"current_range_meters":0,"station_id":"ce4bgph2rcd13ifvqc2g","pricing_plan_id":"cebpf4jnsgd1na2vs0mg"},{"bike_id":"49149888-40a9-4e62-bfaa-ac80b868f316","system_id":"levelo_inurba_marseille","lat":43.299028,"lon":5.381509,"is_reserved":false,"is_disabled":false,"rental_uris":{"android":"levelo://app?vid=49149888-40a9-4e62-bfaa-ac80b868f316","ios":"levelo://app?vid=49149888-40a9-4e62-bfaa-ac80b868f316"},"vehicle_type_id":"4","last_reported":1716577588,"current_range_meters":2000,"station_id":"ce4bgj12rcd13ifvqbc0","pricing_plan_id":"cebpf4jnsgd1na2vs0mg"},{"bike_id":"ba7f6a4a-05ee-482c-b7c8-00b8c46518b6","system_id":"levelo_inurba_marseille","lat":43.29898,"lon":5.38135,"is_reserved":false,"is_disabled":false,"rental_uris":{"android":"levelo://app?vid=ba7f6a4a-05ee-482c-b7c8-00b8c46518b6","ios":"levelo://app?vid=ba7f6a4a-05ee-482c-b7c8-00b8c46518b6"},"vehicle_type_id":"4","last_reported":1716577588,"current_range_meters":3200,"station_id":"ce4bgj12rcd13ifvqbc0","pricing_plan_id":"cebpf4jnsgd1na2vs0mg"},{"bike_id":"f8a7b319-9e93-4ac0-b09b-5d8264f93565","system_id":"levelo_inurba_marseille","lat":43.309589,"lon":5.390258,"is_reserved":false,"is_disabled":false,"rental_uris":{"android":"levelo://app?vid=f8a7b319-9e93-4ac0-b09b-5d8264f93565","ios":"levelo://app?vid=f8a7b319-9e93-4ac0-b09b-5d8264f93565"},"vehicle_type_id":"4","last_reported":1716577588,"current_range_meters":25600,"station_id":"ce4bgup2rcd13ifvqco0","pricing_plan_id":"cebpf4jnsgd1na2vs0mg"},{"bike_id":"715783de-84db-410e-8ce5-a6d9c09c8769","system_id":"levelo_inurba_marseille","lat":43.317557,"lon":5.390173,"is_reserved":false,"is_disabled":false,"rental_uris":{"android":"levelo://app?vid=715783de-84db-410e-8ce5-a6d9c09c8769","ios":"levelo://app?vid=715783de-84db-410e-8ce5-a6d9c09c8769"},"vehicle_type_id":"4","last_reported":1716577588,"current_range_meters":31200,"station_id":"ce4bhqp2rcd13ifvqhng","pricing_plan_id":"cebpf4jnsgd1na2vs0mg"},{"bike_id":"51251a30-e430-4146-8aa3-ee74824ad32f","system_id":"levelo_inurba_marseille","lat":43.309589,"lon":5.390258,"is_reserved":false,"is_disabled":false,"rental_uris":{"android":"levelo://app?vid=51251a30-e430-4146-8aa3-ee74824ad32f","ios":"levelo://app?vid=51251a30-e430-4146-8aa3-ee74824ad32f"},"vehicle_type_id":"4","last_reported":1716577588,"current_range_meters":0,"station_id":"ce4bgup2rcd13ifvqco0","pricing_plan_id":"cebpf4jnsgd1na2vs0mg"},{"bike_id":"c21f97e3-423d-4dc6-9401-ef2a7b2d0a3f","system_id":"levelo_inurba_marseille","lat":43.3042,"lon":5.38839,"is_reserved":false,"is_disabled":false,"rental_uris":{"android":"levelo://app?vid=c21f97e3-423d-4dc6-9401-ef2a7b2d0a3f","ios":"levelo://app?vid=c21f97e3-423d-4dc6-9401-ef2a7b2d0a3f"},"vehicle_type_id":"4","last_reported":1716577588,"current_range_meters":24000,"station_id":"ce4bgk12rcd13ifvqbi0","pricing_plan_id":"cebpf4jnsgd1na2vs0mg"},{"bike_id":"3505bbc3-12c0-4c99-9a58-42a1d4fb85e2","system_id":"levelo_inurba_marseille","lat":43.298037,"lon":5.381066,"is_reserved":false,"is_disabled":false,"rental_uris":{"android":"levelo://app?vid=3505bbc3-12c0-4c99-9a58-42a1d4fb85e2","ios":"levelo://app?vid=3505bbc3-12c0-4c99-9a58-42a1d4fb85e2"},"vehicle_type_id":"4","last_reported":1716577588,"current_range_meters":14800,"station_id":"ce4bgip2rcd13ifvqbb0","pricing_plan_id":"cebpf4jnsgd1na2vs0mg"},{"bike_id":"700dcf51-e71d-4d11-8f2f-a3b201f4f107","system_id":"levelo_inurba_marseille","lat":43.317557,"lon":5.390173,"is_reserved":false,"is_disabled":false,"rental_uris":{"android":"levelo://app?vid=700dcf51-e71d-4d11-8f2f-a3b201f4f107","ios":"levelo://app?vid=700dcf51-e71d-4d11-8f2f-a3b201f4f107"},"vehicle_type_id":"4","last_reported":1716577588,"current_range_meters":21200,"station_id":"ce4bhqp2rcd13ifvqhng","pricing_plan_id":"cebpf4jnsgd1na2vs0mg"},{"bike_id":"509c88f2-38c0-4ea2-9c6e-02cc13095311","system_id":"levelo_inurba_marseille","lat":43.29571,"lon":5.37497,"is_reserved":false,"is_disabled":false,"rental_uris":{"android":"levelo://app?vid=509c88f2-38c0-4ea2-9c6e-02cc13095311","ios":"levelo://app?vid=509c88f2-38c0-4ea2-9c6e-02cc13095311"},"vehicle_type_id":"4","last_reported":1716577588,"current_range_meters":25200,"station_id":"ce4bgh92rcd13ifvqb50","pricing_plan_id":"cebpf4jnsgd1na2vs0mg"},{"bike_id":"b7dddb18-77f7-4567-9d84-a41bf02a2a8c","system_id":"levelo_inurba_marseille","lat":43.304274,"lon":5.388873,"is_reserved":false,"is_disabled":false,"rental_uris":{"android":"levelo://app?vid=b7dddb18-77f7-4567-9d84-a41bf02a2a8c","ios":"levelo://app?vid=b7dddb18-77f7-4567-9d84-a41bf02a2a8c"},"vehicle_type_id":"4","last_reported":1716577588,"current_range_meters":16000,"station_id":"ce4bgk12rcd13ifvqbi0","pricing_plan_id":"cebpf4jnsgd1na2vs0mg"},{"bike_id":"49572838-d13e-48ee-9cf4-ef56b7c4b4bc","system_id":"levelo_inurba_marseille","lat":43.298037,"lon":5.381066,"is_reserved":false,"is_disabled":false,"rental_uris":{"android":"levelo://app?vid=49572838-d13e-48ee-9cf4-ef56b7c4b4bc","ios":"levelo://app?vid=49572838-d13e-48ee-9cf4-ef56b7c4b4bc"},"vehicle_type_id":"4","last_reported":1716577588,"current_range_meters":13200,"station_id":"ce4bgip2rcd13ifvqbb0","pricing_plan_id":"cebpf4jnsgd1na2vs0mg"},{"bike_id":"15cf01a5-88c4-4c1e-a15c-df0bb763e89b","system_id":"levelo_inurba_marseille","lat":43.298037,"lon":5.381066,"is_reserved":false,"is_disabled":false,"rental_uris":{"android":"levelo://app?vid=15cf01a5-88c4-4c1e-a15c-df0bb763e89b","ios":"levelo://app?vid=15cf01a5-88c4-4c1e-a15c-df0bb763e89b"},"vehicle_type_id":"4","last_reported":1716577588,"current_range_meters":800,"station_id":"ce4bgip2rcd13ifvqbb0","pricing_plan_id":"cebpf4jnsgd1na2vs0mg"},{"bike_id":"363d7c32-1b5a-4036-bf6c-d8a79f0012e1","system_id":"levelo_inurba_marseille","lat":43.296277,"lon":5.377108,"is_reserved":false,"is_disabled":false,"rental_uris":{"android":"levelo://app?vid=363d7c32-1b5a-4036-bf6c-d8a79f0012e1","ios":"levelo://app?vid=363d7c32-1b5a-4036-bf6c-d8a79f0012e1"},"vehicle_type_id":"4","last_reported":1716577588,"current_range_meters":5200,"station_id":"ce4bgi92rcd13ifvqb90","pricing_plan_id":"cebpf4jnsgd1na2vs0mg"},{"bike_id":"b05ab289-8df5-47fc-a7fb-392f2a5048c0","system_id":"levelo_inurba_marseille","lat":43.296263,"lon":5.377094,"is_reserved":false,"is_disabled":false,"rental_uris":{"android":"levelo://app?vid=b05ab289-8df5-47fc-a7fb-392f2a5048c0","ios":"levelo://app?vid=b05ab289-8df5-47fc-a7fb-392f2a5048c0"},"vehicle_type_id":"4","last_reported":1716577588,"current_range_meters":19200,"station_id":"ce4bgi92rcd13ifvqb90","pricing_plan_id":"cebpf4jnsgd1na2vs0mg"},{"bike_id":"29f9570b-7785-4fb9-a773-421233f3f6b1","system_id":"levelo_inurba_marseille","lat":43.295676,"lon":5.375327,"is_reserved":false,"is_disabled":false,"rental_uris":{"android":"levelo://app?vid=29f9570b-7785-4fb9-a773-421233f3f6b1","ios":"levelo://app?vid=29f9570b-7785-4fb9-a773-421233f3f6b1"},"vehicle_type_id":"4","last_reported":1716577588,"current_range_meters":0,"station_id":"ce4bgh92rcd13ifvqb50","pricing_plan_id":"cebpf4jnsgd1na2vs0mg"},{"bike_id":"162e3b56-3dfd-4158-a52f-74624d0702f7","system_id":"levelo_inurba_marseille","lat":43.298037,"lon":5.381066,"is_reserved":false,"is_disabled":false,"rental_uris":{"android":"levelo://app?vid=162e3b56-3dfd-4158-a52f-74624d0702f7","ios":"levelo://app?vid=162e3b56-3dfd-4158-a52f-74624d0702f7"},"vehicle_type_id":"4","last_reported":1716577588,"current_range_meters":0,"station_id":"ce4bgip2rcd13ifvqbb0","pricing_plan_id":"cebpf4jnsgd1na2vs0mg"},{"bike_id":"2de67958-adcb-4f65-bc76-fa63c9d361c2","system_id":"levelo_inurba_marseille","lat":43.304274,"lon":5.388873,"is_reserved":false,"is_disabled":false,"rental_uris":{"android":"levelo://app?vid=2de67958-adcb-4f65-bc76-fa63c9d361c2","ios":"levelo://app?vid=2de67958-adcb-4f65-bc76-fa63c9d361c2"},"vehicle_type_id":"4","last_reported":1716577588,"current_range_meters":12000,"station_id":"ce4bgk12rcd13ifvqbi0","pricing_plan_id":"cebpf4jnsgd1na2vs0mg"},{"bike_id":"c0998cf4-2f4a-49bb-9484-5b5d699fbf2e","system_id":"levelo_inurba_marseille","lat":43.298037,"lon":5.381066,"is_reserved":false,"is_disabled":false,"rental_uris":{"android":"levelo://app?vid=c0998cf4-2f4a-49bb-9484-5b5d699fbf2e","ios":"levelo://app?vid=c0998cf4-2f4a-49bb-9484-5b5d699fbf2e"},"vehicle_type_id":"4","last_reported":1716577588,"current_range_meters":29600,"station_id":"ce4bgip2rcd13ifvqbb0","pricing_plan_id":"cebpf4jnsgd1na2vs0mg"},{"bike_id":"dd7b0079-c55c-4214-a3c4-f2790afb7f19","system_id":"levelo_inurba_marseille","lat":43.292749,"lon":5.368402,"is_reserved":false,"is_disabled":false,"rental_uris":{"android":"levelo://app?vid=dd7b0079-c55c-4214-a3c4-f2790afb7f19","ios":"levelo://app?vid=dd7b0079-c55c-4214-a3c4-f2790afb7f19"},"vehicle_type_id":"4","last_reported":1716577588,"current_range_meters":0,"station_id":"ce4bhbp2rcd13ifvqesg","pricing_plan_id":"cebpf4jnsgd1na2vs0mg"},{"bike_id":"0ad00707-2a84-4995-820c-cf5a2ab4369e","system_id":"levelo_inurba_marseille","lat":43.299738,"lon":5.384766,"is_reserved":false,"is_disabled":false,"rental_uris":{"android":"levelo://app?vid=0ad00707-2a84-4995-820c-cf5a2ab4369e","ios":"levelo://app?vid=0ad00707-2a84-4995-820c-cf5a2ab4369e"},"vehicle_type_id":"4","last_reported":1716577588,"current_range_meters":31200,"station_id":"ce4bh4p2rcd13ifvqe0g","pricing_plan_id":"cebpf4jnsgd1na2vs0mg"},{"bike_id":"efa2a2dd-7bf2-40ce-b4d8-c75b4303d793","system_id":"levelo_inurba_marseille","lat":43.299707,"lon":5.384859,"is_reserved":false,"is_disabled":false,"rental_uris":{"android":"levelo://app?vid=efa2a2dd-7bf2-40ce-b4d8-c75b4303d793","ios":"levelo://app?vid=efa2a2dd-7bf2-40ce-b4d8-c75b4303d793"},"vehicle_type_id":"4","last_reported":1716577588,"current_range_meters":8400,"station_id":"ce4bgj92rcd13ifvqbd0","pricing_plan_id":"cebpf4jnsgd1na2vs0mg"},{"bike_id":"dff3b0db-e217-4d44-81ef-58efc5e67d30","system_id":"levelo_inurba_marseille","lat":43.299717,"lon":5.384845,"is_reserved":false,"is_disabled":false,"rental_uris":{"android":"levelo://app?vid=dff3b0db-e217-4d44-81ef-58efc5e67d30","ios":"levelo://app?vid=dff3b0db-e217-4d44-81ef-58efc5e67d30"},"vehicle_type_id":"4","last_reported":1716577588,"current_range_meters":26800,"station_id":"ce4bgj92rcd13ifvqbd0","pricing_plan_id":"cebpf4jnsgd1na2vs0mg"},{"bike_id":"ea5c8d42-c861-4802-a2ac-9f57d3bd183f","system_id":"levelo_inurba_marseille","lat":43.299707,"lon":5.384859,"is_reserved":false,"is_disabled":false,"rental_uris":{"android":"levelo://app?vid=ea5c8d42-c861-4802-a2ac-9f57d3bd183f","ios":"levelo://app?vid=ea5c8d42-c861-4802-a2ac-9f57d3bd183f"},"vehicle_type_id":"4","last_reported":1716577588,"current_range_meters":30000,"station_id":"ce4bgj92rcd13ifvqbd0","pricing_plan_id":"cebpf4jnsgd1na2vs0mg"},{"bike_id":"4050b5d7-289d-4db8-964c-7017cad4b554","system_id":"levelo_inurba_marseille","lat":43.299724,"lon":5.384848,"is_reserved":false,"is_disabled":false,"rental_uris":{"android":"levelo://app?vid=4050b5d7-289d-4db8-964c-7017cad4b554","ios":"levelo://app?vid=4050b5d7-289d-4db8-964c-7017cad4b554"},"vehicle_type_id":"4","last_reported":1716577588,"current_range_meters":29200,"station_id":"ce4bgj92rcd13ifvqbd0","pricing_plan_id":"cebpf4jnsgd1na2vs0mg"},{"bike_id":"d014cf3e-048b-41f0-8f75-4b7171a47831","system_id":"levelo_inurba_marseille","lat":43.299717,"lon":5.384845,"is_reserved":false,"is_disabled":false,"rental_uris":{"android":"levelo://app?vid=d014cf3e-048b-41f0-8f75-4b7171a47831","ios":"levelo://app?vid=d014cf3e-048b-41f0-8f75-4b7171a47831"},"vehicle_type_id":"4","last_reported":1716577588,"current_range_meters":32000,"station_id":"ce4bgj92rcd13ifvqbd0","pricing_plan_id":"cebpf4jnsgd1na2vs0mg"},{"bike_id":"cc673440-2f5d-420a-b08d-8d601746c5bc","system_id":"levelo_inurba_marseille","lat":43.299707,"lon":5.384859,"is_reserved":false,"is_disabled":false,"rental_uris":{"android":"levelo://app?vid=cc673440-2f5d-420a-b08d-8d601746c5bc","ios":"levelo://app?vid=cc673440-2f5d-420a-b08d-8d601746c5bc"},"vehicle_type_id":"4","last_reported":1716577588,"current_range_meters":31200,"station_id":"ce4bgj92rcd13ifvqbd0","pricing_plan_id":"cebpf4jnsgd1na2vs0mg"},{"bike_id":"dd310aab-5b3d-4767-a361-8031aa3ab6e8","system_id":"levelo_inurba_marseille","lat":43.299717,"lon":5.384845,"is_reserved":false,"is_disabled":false,"rental_uris":{"android":"levelo://app?vid=dd310aab-5b3d-4767-a361-8031aa3ab6e8","ios":"levelo://app?vid=dd310aab-5b3d-4767-a361-8031aa3ab6e8"},"vehicle_type_id":"4","last_reported":1716577588,"current_range_meters":12400,"station_id":"ce4bgj92rcd13ifvqbd0","pricing_plan_id":"cebpf4jnsgd1na2vs0mg"},{"bike_id":"30e7163e-5676-43fc-8524-ae0ff917dd8c","system_id":"levelo_inurba_marseille","lat":43.299724,"lon":5.384848,"is_reserved":false,"is_disabled":false,"rental_uris":{"android":"levelo://app?vid=30e7163e-5676-43fc-8524-ae0ff917dd8c","ios":"levelo://app?vid=30e7163e-5676-43fc-8524-ae0ff917dd8c"},"vehicle_type_id":"4","last_reported":1716577588,"current_range_meters":30400,"station_id":"ce4bgj92rcd13ifvqbd0","pricing_plan_id":"cebpf4jnsgd1na2vs0mg"},{"bike_id":"f775d9ed-cc74-4dd5-8055-f52bccdfc80b","system_id":"levelo_inurba_marseille","lat":43.299724,"lon":5.384848,"is_reserved":false,"is_disabled":false,"rental_uris":{"android":"levelo://app?vid=f775d9ed-cc74-4dd5-8055-f52bccdfc80b","ios":"levelo://app?vid=f775d9ed-cc74-4dd5-8055-f52bccdfc80b"},"vehicle_type_id":"4","last_reported":1716577588,"current_range_meters":3200,"station_id":"ce4bgj92rcd13ifvqbd0","pricing_plan_id":"cebpf4jnsgd1na2vs0mg"},{"bike_id":"c692fd75-9972-42e1-92a8-4ac7cce47a41","system_id":"levelo_inurba_marseille","lat":43.299243,"lon":5.37481,"is_reserved":false,"is_disabled":false,"rental_uris":{"android":"levelo://app?vid=c692fd75-9972-42e1-92a8-4ac7cce47a41","ios":"levelo://app?vid=c692fd75-9972-42e1-92a8-4ac7cce47a41"},"vehicle_type_id":"4","last_reported":1716577588,"current_range_meters":14800,"station_id":"ce4bgjh2rcd13ifvqbg0","pricing_plan_id":"cebpf4jnsgd1na2vs0mg"},{"bike_id":"78252e3e-8eff-4ccb-a142-6526e4cc39f4","system_id":"levelo_inurba_marseille","lat":43.30089,"lon":5.38729,"is_reserved":false,"is_disabled":false,"rental_uris":{"android":"levelo://app?vid=78252e3e-8eff-4ccb-a142-6526e4cc39f4","ios":"levelo://app?vid=78252e3e-8eff-4ccb-a142-6526e4cc39f4"},"vehicle_type_id":"4","last_reported":1716577588,"current_range_meters":3600,"station_id":"","pricing_plan_id":"cebpf4jnsgd1na2vs0mg"},{"bike_id":"139c5498-0da1-4931-854b-e2961b1becf6","system_id":"levelo_inurba_marseille","lat":43.304278,"lon":5.388868,"is_reserved":false,"is_disabled":false,"rental_uris":{"android":"levelo://app?vid=139c5498-0da1-4931-854b-e2961b1becf6","ios":"levelo://app?vid=139c5498-0da1-4931-854b-e2961b1becf6"},"vehicle_type_id":"4","last_reported":1716577588,"current_range_meters":16400,"station_id":"ce4bgk12rcd13ifvqbi0","pricing_plan_id":"cebpf4jnsgd1na2vs0mg"},{"bike_id":"eef2fc75-37f2-4919-a57c-ff6516d63899","system_id":"levelo_inurba_marseille","lat":43.323668,"lon":5.3888,"is_reserved":false,"is_disabled":false,"rental_uris":{"android":"levelo://app?vid=eef2fc75-37f2-4919-a57c-ff6516d63899","ios":"levelo://app?vid=eef2fc75-37f2-4919-a57c-ff6516d63899"},"vehicle_type_id":"4","last_reported":1716577588,"current_range_meters":0,"station_id":"ce4bhqp2rcd13ifvqhog","pricing_plan_id":"cebpf4jnsgd1na2vs0mg"},{"bike_id":"108e92f4-e385-42a2-b503-84b1d279a416","system_id":"levelo_inurba_marseille","lat":43.29603,"lon":5.38091,"is_reserved":false,"is_disabled":false,"rental_uris":{"android":"levelo://app?vid=108e92f4-e385-42a2-b503-84b1d279a416","ios":"levelo://app?vid=108e92f4-e385-42a2-b503-84b1d279a416"},"vehicle_type_id":"4","last_reported":1716577588,"current_range_meters":0,"station_id":"ce4bgl12rcd13ifvqbo0","pricing_plan_id":"cebpf4jnsgd1na2vs0mg"},{"bike_id":"22066327-cecf-4967-bd37-53191e34345d","system_id":"levelo_inurba_marseille","lat":43.29598,"lon":5.381,"is_reserved":false,"is_disabled":false,"rental_uris":{"android":"levelo://app?vid=22066327-cecf-4967-bd37-53191e34345d","ios":"levelo://app?vid=22066327-cecf-4967-bd37-53191e34345d"},"vehicle_type_id":"4","last_reported":1716577588,"current_range_meters":12800,"station_id":"ce4bgl12rcd13ifvqbo0","pricing_plan_id":"cebpf4jnsgd1na2vs0mg"},{"bike_id":"e1adc1de-beba-43e4-8313-c07e26912ad2","system_id":"levelo_inurba_marseille","lat":43.2959,"lon":5.38092,"is_reserved":false,"is_disabled":false,"rental_uris":{"android":"levelo://app?vid=e1adc1de-beba-43e4-8313-c07e26912ad2","ios":"levelo://app?vid=e1adc1de-beba-43e4-8313-c07e26912ad2"},"vehicle_type_id":"4","last_reported":1716577588,"current_range_meters":18800,"station_id":"ce4bgl12rcd13ifvqbo0","pricing_plan_id":"cebpf4jnsgd1na2vs0mg"},{"bike_id":"6a4ae92e-fe7d-4306-a153-adb08dbc9854","system_id":"levelo_inurba_marseille","lat":43.32367,"lon":5.388836,"is_reserved":false,"is_disabled":false,"rental_uris":{"android":"levelo://app?vid=6a4ae92e-fe7d-4306-a153-adb08dbc9854","ios":"levelo://app?vid=6a4ae92e-fe7d-4306-a153-adb08dbc9854"},"vehicle_type_id":"4","last_reported":1716577588,"current_range_meters":10000,"station_id":"ce4bhqp2rcd13ifvqhog","pricing_plan_id":"cebpf4jnsgd1na2vs0mg"},{"bike_id":"468755de-5a10-46b7-a431-fd1d15d1e67d","system_id":"levelo_inurba_marseille","lat":43.32367,"lon":5.388836,"is_reserved":false,"is_disabled":false,"rental_uris":{"android":"levelo://app?vid=468755de-5a10-46b7-a431-fd1d15d1e67d","ios":"levelo://app?vid=468755de-5a10-46b7-a431-fd1d15d1e67d"},"vehicle_type_id":"4","last_reported":1716577588,"current_range_meters":10400,"station_id":"ce4bhqp2rcd13ifvqhog","pricing_plan_id":"cebpf4jnsgd1na2vs0mg"},{"bike_id":"f4eba26b-8d74-4353-8852-02a5d0057220","system_id":"levelo_inurba_marseille","lat":43.293071,"lon":5.371671,"is_reserved":false,"is_disabled":false,"rental_uris":{"android":"levelo://app?vid=f4eba26b-8d74-4353-8852-02a5d0057220","ios":"levelo://app?vid=f4eba26b-8d74-4353-8852-02a5d0057220"},"vehicle_type_id":"4","last_reported":1716577588,"current_range_meters":0,"station_id":"ce4bgh92rcd13ifvqb40","pricing_plan_id":"cebpf4jnsgd1na2vs0mg"},{"bike_id":"5f35d5c7-76ed-4ce2-ab49-cbc28f093e1a","system_id":"levelo_inurba_marseille","lat":43.292749,"lon":5.368398,"is_reserved":false,"is_disabled":false,"rental_uris":{"android":"levelo://app?vid=5f35d5c7-76ed-4ce2-ab49-cbc28f093e1a","ios":"levelo://app?vid=5f35d5c7-76ed-4ce2-ab49-cbc28f093e1a"},"vehicle_type_id":"4","last_reported":1716577588,"current_range_meters":13200,"station_id":"ce4bhbp2rcd13ifvqesg","pricing_plan_id":"cebpf4jnsgd1na2vs0mg"},{"bike_id":"828360e7-38b6-4cfd-a8b2-cf11fffdd184","system_id":"levelo_inurba_marseille","lat":43.292749,"lon":5.368398,"is_reserved":false,"is_disabled":false,"rental_uris":{"android":"levelo://app?vid=828360e7-38b6-4cfd-a8b2-cf11fffdd184","ios":"levelo://app?vid=828360e7-38b6-4cfd-a8b2-cf11fffdd184"},"vehicle_type_id":"4","last_reported":1716577588,"current_range_meters":0,"station_id":"ce4bhbp2rcd13ifvqesg","pricing_plan_id":"cebpf4jnsgd1na2vs0mg"},{"bike_id":"b2f1b5e1-b2ed-4c40-962e-76af76e74f1e","system_id":"levelo_inurba_marseille","lat":43.29294,"lon":5.37451,"is_reserved":false,"is_disabled":false,"rental_uris":{"android":"levelo://app?vid=b2f1b5e1-b2ed-4c40-962e-76af76e74f1e","ios":"levelo://app?vid=b2f1b5e1-b2ed-4c40-962e-76af76e74f1e"},"vehicle_type_id":"4","last_reported":1716577588,"current_range_meters":19600,"station_id":"ce4bgi12rcd13ifvqb70","pricing_plan_id":"cebpf4jnsgd1na2vs0mg"},{"bike_id":"22b8f6c0-b900-4265-8dad-c5c6c7551f6b","system_id":"levelo_inurba_marseille","lat":43.301939,"lon":5.366286,"is_reserved":false,"is_disabled":false,"rental_uris":{"android":"levelo://app?vid=22b8f6c0-b900-4265-8dad-c5c6c7551f6b","ios":"levelo://app?vid=22b8f6c0-b900-4265-8dad-c5c6c7551f6b"},"vehicle_type_id":"4","last_reported":1716577588,"current_range_meters":8000,"station_id":"ce4bgrh2rcd13ifvqc8g","pricing_plan_id":"cebpf4jnsgd1na2vs0mg"},{"bike_id":"e65e7e96-2286-462a-af3d-732f71b314d1","system_id":"levelo_inurba_marseille","lat":43.293009,"lon":5.374584,"is_reserved":false,"is_disabled":false,"rental_uris":{"android":"levelo://app?vid=e65e7e96-2286-462a-af3d-732f71b314d1","ios":"levelo://app?vid=e65e7e96-2286-462a-af3d-732f71b314d1"},"vehicle_type_id":"4","last_reported":1716577588,"current_range_meters":0,"station_id":"ce4bgi12rcd13ifvqb70","pricing_plan_id":"cebpf4jnsgd1na2vs0mg"},{"bike_id":"64a7ec62-0e07-4bb6-b84c-cf2fc670e25b","system_id":"levelo_inurba_marseille","lat":43.293009,"lon":5.374584,"is_reserved":false,"is_disabled":false,"rental_uris":{"android":"levelo://app?vid=64a7ec62-0e07-4bb6-b84c-cf2fc670e25b","ios":"levelo://app?vid=64a7ec62-0e07-4bb6-b84c-cf2fc670e25b"},"vehicle_type_id":"4","last_reported":1716577588,"current_range_meters":0,"station_id":"ce4bgi12rcd13ifvqb70","pricing_plan_id":"cebpf4jnsgd1na2vs0mg"},{"bike_id":"1e155589-6d88-4c73-a0cc-e4a991d8b3f0","system_id":"levelo_inurba_marseille","lat":43.303002,"lon":5.392142,"is_reserved":false,"is_disabled":false,"rental_uris":{"android":"levelo://app?vid=1e155589-6d88-4c73-a0cc-e4a991d8b3f0","ios":"levelo://app?vid=1e155589-6d88-4c73-a0cc-e4a991d8b3f0"},"vehicle_type_id":"4","last_reported":1716577588,"current_range_meters":0,"station_id":"ce4bgkh2rcd13ifvqbk0","pricing_plan_id":"cebpf4jnsgd1na2vs0mg"},{"bike_id":"dcd521c4-7a0c-45dc-b7ae-23dc967fd898","system_id":"levelo_inurba_marseille","lat":43.302992,"lon":5.392136,"is_reserved":false,"is_disabled":false,"rental_uris":{"android":"levelo://app?vid=dcd521c4-7a0c-45dc-b7ae-23dc967fd898","ios":"levelo://app?vid=dcd521c4-7a0c-45dc-b7ae-23dc967fd898"},"vehicle_type_id":"4","last_reported":1716577588,"current_range_meters":6000,"station_id":"ce4bgkh2rcd13ifvqbk0","pricing_plan_id":"cebpf4jnsgd1na2vs0mg"},{"bike_id":"26410f60-be3f-44ca-8473-a14be05ebc53","system_id":"levelo_inurba_marseille","lat":43.302992,"lon":5.392136,"is_reserved":false,"is_disabled":false,"rental_uris":{"android":"levelo://app?vid=26410f60-be3f-44ca-8473-a14be05ebc53","ios":"levelo://app?vid=26410f60-be3f-44ca-8473-a14be05ebc53"},"vehicle_type_id":"4","last_reported":1716577588,"current_range_meters":11200,"station_id":"ce4bgkh2rcd13ifvqbk0","pricing_plan_id":"cebpf4jnsgd1na2vs0mg"},{"bike_id":"544aa61d-b0e9-4bd1-ba41-a6592ec7a637","system_id":"levelo_inurba_marseille","lat":43.302992,"lon":5.392136,"is_reserved":false,"is_disabled":false,"rental_uris":{"android":"levelo://app?vid=544aa61d-b0e9-4bd1-ba41-a6592ec7a637","ios":"levelo://app?vid=544aa61d-b0e9-4bd1-ba41-a6592ec7a637"},"vehicle_type_id":"4","last_reported":1716577588,"current_range_meters":0,"station_id":"ce4bgkh2rcd13ifvqbk0","pricing_plan_id":"cebpf4jnsgd1na2vs0mg"},{"bike_id":"a816ea04-f105-4eb1-b56a-496ceb044a6f","system_id":"levelo_inurba_marseille","lat":43.303,"lon":5.39213,"is_reserved":false,"is_disabled":false,"rental_uris":{"android":"levelo://app?vid=a816ea04-f105-4eb1-b56a-496ceb044a6f","ios":"levelo://app?vid=a816ea04-f105-4eb1-b56a-496ceb044a6f"},"vehicle_type_id":"4","last_reported":1716577588,"current_range_meters":16800,"station_id":"ce4bgkh2rcd13ifvqbk0","pricing_plan_id":"cebpf4jnsgd1na2vs0mg"},{"bike_id":"a6350e46-36ad-4a4b-88ee-19dc3d4a425b","system_id":"levelo_inurba_marseille","lat":43.302992,"lon":5.392136,"is_reserved":false,"is_disabled":false,"rental_uris":{"android":"levelo://app?vid=a6350e46-36ad-4a4b-88ee-19dc3d4a425b","ios":"levelo://app?vid=a6350e46-36ad-4a4b-88ee-19dc3d4a425b"},"vehicle_type_id":"4","last_reported":1716577588,"current_range_meters":0,"station_id":"ce4bgkh2rcd13ifvqbk0","pricing_plan_id":"cebpf4jnsgd1na2vs0mg"},{"bike_id":"3cad41db-295a-4909-a190-8b962db135ab","system_id":"levelo_inurba_marseille","lat":43.302992,"lon":5.392136,"is_reserved":false,"is_disabled":false,"rental_uris":{"android":"levelo://app?vid=3cad41db-295a-4909-a190-8b962db135ab","ios":"levelo://app?vid=3cad41db-295a-4909-a190-8b962db135ab"},"vehicle_type_id":"4","last_reported":1716577588,"current_range_meters":3600,"station_id":"ce4bgkh2rcd13ifvqbk0","pricing_plan_id":"cebpf4jnsgd1na2vs0mg"},{"bike_id":"c340909e-6099-447a-bc15-47d6579ae0ff","system_id":"levelo_inurba_marseille","lat":43.303,"lon":5.39222,"is_reserved":false,"is_disabled":false,"rental_uris":{"android":"levelo://app?vid=c340909e-6099-447a-bc15-47d6579ae0ff","ios":"levelo://app?vid=c340909e-6099-447a-bc15-47d6579ae0ff"},"vehicle_type_id":"4","last_reported":1716577588,"current_range_meters":26400,"station_id":"ce4bgkh2rcd13ifvqbk0","pricing_plan_id":"cebpf4jnsgd1na2vs0mg"},{"bike_id":"5ddae70d-af17-4b95-9213-b278e5a0539a","system_id":"levelo_inurba_marseille","lat":43.2936,"lon":5.37835,"is_reserved":false,"is_disabled":false,"rental_uris":{"android":"levelo://app?vid=5ddae70d-af17-4b95-9213-b278e5a0539a","ios":"levelo://app?vid=5ddae70d-af17-4b95-9213-b278e5a0539a"},"vehicle_type_id":"4","last_reported":1716577588,"current_range_meters":13600,"station_id":"ce4bgjh2rcd13ifvqbf0","pricing_plan_id":"cebpf4jnsgd1na2vs0mg"},{"bike_id":"d7037f5a-939a-4ca4-ba3a-afeb03da689c","system_id":"levelo_inurba_marseille","lat":43.2936,"lon":5.37835,"is_reserved":false,"is_disabled":false,"rental_uris":{"android":"levelo://app?vid=d7037f5a-939a-4ca4-ba3a-afeb03da689c","ios":"levelo://app?vid=d7037f5a-939a-4ca4-ba3a-afeb03da689c"},"vehicle_type_id":"4","last_reported":1716577588,"current_range_meters":24800,"station_id":"ce4bgjh2rcd13ifvqbf0","pricing_plan_id":"cebpf4jnsgd1na2vs0mg"},{"bike_id":"1a8a6af3-961b-40f8-9e94-414f9373b333","system_id":"levelo_inurba_marseille","lat":43.2936,"lon":5.37835,"is_reserved":false,"is_disabled":false,"rental_uris":{"android":"levelo://app?vid=1a8a6af3-961b-40f8-9e94-414f9373b333","ios":"levelo://app?vid=1a8a6af3-961b-40f8-9e94-414f9373b333"},"vehicle_type_id":"4","last_reported":1716577588,"current_range_meters":11600,"station_id":"ce4bgjh2rcd13ifvqbf0","pricing_plan_id":"cebpf4jnsgd1na2vs0mg"},{"bike_id":"4b01c79b-b1eb-474b-90ea-b0f75cbba146","system_id":"levelo_inurba_marseille","lat":43.30085,"lon":5.390856,"is_reserved":false,"is_disabled":false,"rental_uris":{"android":"levelo://app?vid=4b01c79b-b1eb-474b-90ea-b0f75cbba146","ios":"levelo://app?vid=4b01c79b-b1eb-474b-90ea-b0f75cbba146"},"vehicle_type_id":"4","last_reported":1716577588,"current_range_meters":0,"station_id":"ce4bh192rcd13ifvqdb0","pricing_plan_id":"cebpf4jnsgd1na2vs0mg"},{"bike_id":"5341379e-9f1b-46dd-9b0b-d61d681f1495","system_id":"levelo_inurba_marseille","lat":43.30085,"lon":5.390856,"is_reserved":false,"is_disabled":false,"rental_uris":{"android":"levelo://app?vid=5341379e-9f1b-46dd-9b0b-d61d681f1495","ios":"levelo://app?vid=5341379e-9f1b-46dd-9b0b-d61d681f1495"},"vehicle_type_id":"4","last_reported":1716577588,"current_range_meters":21600,"station_id":"ce4bh192rcd13ifvqdb0","pricing_plan_id":"cebpf4jnsgd1na2vs0mg"},{"bike_id":"b3ad04c2-b811-4e99-b3ef-9284b212c6ae","system_id":"levelo_inurba_marseille","lat":43.2936,"lon":5.37835,"is_reserved":false,"is_disabled":false,"rental_uris":{"android":"levelo://app?vid=b3ad04c2-b811-4e99-b3ef-9284b212c6ae","ios":"levelo://app?vid=b3ad04c2-b811-4e99-b3ef-9284b212c6ae"},"vehicle_type_id":"4","last_reported":1716577588,"current_range_meters":12800,"station_id":"ce4bgjh2rcd13ifvqbf0","pricing_plan_id":"cebpf4jnsgd1na2vs0mg"},{"bike_id":"9d413226-65a3-48a9-ae64-125a1e89161e","system_id":"levelo_inurba_marseille","lat":43.2936,"lon":5.37835,"is_reserved":false,"is_disabled":false,"rental_uris":{"android":"levelo://app?vid=9d413226-65a3-48a9-ae64-125a1e89161e","ios":"levelo://app?vid=9d413226-65a3-48a9-ae64-125a1e89161e"},"vehicle_type_id":"4","last_reported":1716577588,"current_range_meters":400,"station_id":"ce4bgjh2rcd13ifvqbf0","pricing_plan_id":"cebpf4jnsgd1na2vs0mg"},{"bike_id":"fd21c9a6-23fd-436d-aa64-54001ad1b769","system_id":"levelo_inurba_marseille","lat":43.292311,"lon":5.360731,"is_reserved":false,"is_disabled":false,"rental_uris":{"android":"levelo://app?vid=fd21c9a6-23fd-436d-aa64-54001ad1b769","ios":"levelo://app?vid=fd21c9a6-23fd-436d-aa64-54001ad1b769"},"vehicle_type_id":"4","last_reported":1716577588,"current_range_meters":31200,"station_id":"ce4bhbh2rcd13ifvqeqg","pricing_plan_id":"cebpf4jnsgd1na2vs0mg"},{"bike_id":"55eb4f50-ab98-42c2-876a-8a5e810fb60d","system_id":"levelo_inurba_marseille","lat":43.2936,"lon":5.37835,"is_reserved":false,"is_disabled":false,"rental_uris":{"android":"levelo://app?vid=55eb4f50-ab98-42c2-876a-8a5e810fb60d","ios":"levelo://app?vid=55eb4f50-ab98-42c2-876a-8a5e810fb60d"},"vehicle_type_id":"4","last_reported":1716577588,"current_range_meters":5200,"station_id":"ce4bgjh2rcd13ifvqbf0","pricing_plan_id":"cebpf4jnsgd1na2vs0mg"},{"bike_id":"455dde78-7f37-4f78-a6c8-efe3a9dae4eb","system_id":"levelo_inurba_marseille","lat":43.29221,"lon":5.360596,"is_reserved":false,"is_disabled":false,"rental_uris":{"android":"levelo://app?vid=455dde78-7f37-4f78-a6c8-efe3a9dae4eb","ios":"levelo://app?vid=455dde78-7f37-4f78-a6c8-efe3a9dae4eb"},"vehicle_type_id":"4","last_reported":1716577588,"current_range_meters":19600,"station_id":"ce4bhbh2rcd13ifvqeqg","pricing_plan_id":"cebpf4jnsgd1na2vs0mg"},{"bike_id":"46acbcbd-3d61-445b-90e6-8e1200baccf5","system_id":"levelo_inurba_marseille","lat":43.292311,"lon":5.360731,"is_reserved":false,"is_disabled":false,"rental_uris":{"android":"levelo://app?vid=46acbcbd-3d61-445b-90e6-8e1200baccf5","ios":"levelo://app?vid=46acbcbd-3d61-445b-90e6-8e1200baccf5"},"vehicle_type_id":"4","last_reported":1716577588,"current_range_meters":20000,"station_id":"ce4bhbh2rcd13ifvqeqg","pricing_plan_id":"cebpf4jnsgd1na2vs0mg"},{"bike_id":"174ccd49-996d-4286-8bfe-b7cf86da6ab9","system_id":"levelo_inurba_marseille","lat":43.30085,"lon":5.390856,"is_reserved":false,"is_disabled":false,"rental_uris":{"android":"levelo://app?vid=174ccd49-996d-4286-8bfe-b7cf86da6ab9","ios":"levelo://app?vid=174ccd49-996d-4286-8bfe-b7cf86da6ab9"},"vehicle_type_id":"4","last_reported":1716577588,"current_range_meters":20400,"station_id":"ce4bh192rcd13ifvqdb0","pricing_plan_id":"cebpf4jnsgd1na2vs0mg"},{"bike_id":"23f79f2d-e349-413b-ae78-c3b7f633e079","system_id":"levelo_inurba_marseille","lat":43.3008,"lon":5.39097,"is_reserved":false,"is_disabled":false,"rental_uris":{"android":"levelo://app?vid=23f79f2d-e349-413b-ae78-c3b7f633e079","ios":"levelo://app?vid=23f79f2d-e349-413b-ae78-c3b7f633e079"},"vehicle_type_id":"4","last_reported":1716577588,"current_range_meters":17600,"station_id":"ce4bh192rcd13ifvqdb0","pricing_plan_id":"cebpf4jnsgd1na2vs0mg"},{"bike_id":"399dea46-b55f-4d9a-8683-11abba3a29fa","system_id":"levelo_inurba_marseille","lat":43.30355,"lon":5.393204,"is_reserved":false,"is_disabled":false,"rental_uris":{"android":"levelo://app?vid=399dea46-b55f-4d9a-8683-11abba3a29fa","ios":"levelo://app?vid=399dea46-b55f-4d9a-8683-11abba3a29fa"},"vehicle_type_id":"4","last_reported":1716577588,"current_range_meters":0,"station_id":"ce4bgkh2rcd13ifvqbk0","pricing_plan_id":"cebpf4jnsgd1na2vs0mg"},{"bike_id":"6fcc24bf-3945-494a-b96b-9bb70234c803","system_id":"levelo_inurba_marseille","lat":43.291671,"lon":5.371575,"is_reserved":false,"is_disabled":false,"rental_uris":{"android":"levelo://app?vid=6fcc24bf-3945-494a-b96b-9bb70234c803","ios":"levelo://app?vid=6fcc24bf-3945-494a-b96b-9bb70234c803"},"vehicle_type_id":"4","last_reported":1716577588,"current_range_meters":11200,"station_id":"ce4bha92rcd13ifvqeh0","pricing_plan_id":"cebpf4jnsgd1na2vs0mg"},{"bike_id":"7f6316b6-4d73-49dc-9961-0f8c08235572","system_id":"levelo_inurba_marseille","lat":43.286593,"lon":5.363346,"is_reserved":false,"is_disabled":false,"rental_uris":{"android":"levelo://app?vid=7f6316b6-4d73-49dc-9961-0f8c08235572","ios":"levelo://app?vid=7f6316b6-4d73-49dc-9961-0f8c08235572"},"vehicle_type_id":"4","last_reported":1716577588,"current_range_meters":12000,"station_id":"ce4bhah2rcd13ifvqej0","pricing_plan_id":"cebpf4jnsgd1na2vs0mg"},{"bike_id":"c8aa69dd-ed00-4014-abd1-0b0bf97d0725","system_id":"levelo_inurba_marseille","lat":43.30125,"lon":5.39171,"is_reserved":false,"is_disabled":false,"rental_uris":{"android":"levelo://app?vid=c8aa69dd-ed00-4014-abd1-0b0bf97d0725","ios":"levelo://app?vid=c8aa69dd-ed00-4014-abd1-0b0bf97d0725"},"vehicle_type_id":"4","last_reported":1716577588,"current_range_meters":0,"station_id":"","pricing_plan_id":"cebpf4jnsgd1na2vs0mg"},{"bike_id":"f5d42651-2145-4bed-baef-9d747b82f6b0","system_id":"levelo_inurba_marseille","lat":43.291671,"lon":5.371575,"is_reserved":false,"is_disabled":false,"rental_uris":{"android":"levelo://app?vid=f5d42651-2145-4bed-baef-9d747b82f6b0","ios":"levelo://app?vid=f5d42651-2145-4bed-baef-9d747b82f6b0"},"vehicle_type_id":"4","last_reported":1716577588,"current_range_meters":10000,"station_id":"ce4bha92rcd13ifvqeh0","pricing_plan_id":"cebpf4jnsgd1na2vs0mg"},{"bike_id":"c2be492d-9e65-4bb9-9469-9ba98a4888ff","system_id":"levelo_inurba_marseille","lat":43.291671,"lon":5.371575,"is_reserved":false,"is_disabled":false,"rental_uris":{"android":"levelo://app?vid=c2be492d-9e65-4bb9-9469-9ba98a4888ff","ios":"levelo://app?vid=c2be492d-9e65-4bb9-9469-9ba98a4888ff"},"vehicle_type_id":"4","last_reported":1716577588,"current_range_meters":6000,"station_id":"ce4bha92rcd13ifvqeh0","pricing_plan_id":"cebpf4jnsgd1na2vs0mg"},{"bike_id":"1a26dcce-eeb7-4f4f-b862-5a62b00bfd35","system_id":"levelo_inurba_marseille","lat":43.313291,"lon":5.396838,"is_reserved":false,"is_disabled":false,"rental_uris":{"android":"levelo://app?vid=1a26dcce-eeb7-4f4f-b862-5a62b00bfd35","ios":"levelo://app?vid=1a26dcce-eeb7-4f4f-b862-5a62b00bfd35"},"vehicle_type_id":"4","last_reported":1716577588,"current_range_meters":22000,"station_id":"ce4bgvp2rcd13ifvqcu0","pricing_plan_id":"cebpf4jnsgd1na2vs0mg"},{"bike_id":"7cae6a09-72d3-4652-8b73-d48a5600486e","system_id":"levelo_inurba_marseille","lat":43.313154,"lon":5.396848,"is_reserved":false,"is_disabled":false,"rental_uris":{"android":"levelo://app?vid=7cae6a09-72d3-4652-8b73-d48a5600486e","ios":"levelo://app?vid=7cae6a09-72d3-4652-8b73-d48a5600486e"},"vehicle_type_id":"4","last_reported":1716577588,"current_range_meters":0,"station_id":"ce4bgvp2rcd13ifvqcu0","pricing_plan_id":"cebpf4jnsgd1na2vs0mg"},{"bike_id":"e88141e7-b1c4-422e-96af-c55d037f00b8","system_id":"levelo_inurba_marseille","lat":43.313291,"lon":5.396838,"is_reserved":false,"is_disabled":false,"rental_uris":{"android":"levelo://app?vid=e88141e7-b1c4-422e-96af-c55d037f00b8","ios":"levelo://app?vid=e88141e7-b1c4-422e-96af-c55d037f00b8"},"vehicle_type_id":"4","last_reported":1716577588,"current_range_meters":22000,"station_id":"ce4bgvp2rcd13ifvqcu0","pricing_plan_id":"cebpf4jnsgd1na2vs0mg"},{"bike_id":"e4cc3986-b423-4b1a-aebb-3163deb32fe3","system_id":"levelo_inurba_marseille","lat":43.313291,"lon":5.396838,"is_reserved":false,"is_disabled":false,"rental_uris":{"android":"levelo://app?vid=e4cc3986-b423-4b1a-aebb-3163deb32fe3","ios":"levelo://app?vid=e4cc3986-b423-4b1a-aebb-3163deb32fe3"},"vehicle_type_id":"4","last_reported":1716577588,"current_range_meters":4000,"station_id":"ce4bgvp2rcd13ifvqcu0","pricing_plan_id":"cebpf4jnsgd1na2vs0mg"},{"bike_id":"812a4be2-bd29-4303-a8fe-42df9db058c6","system_id":"levelo_inurba_marseille","lat":43.309038,"lon":5.396546,"is_reserved":false,"is_disabled":false,"rental_uris":{"android":"levelo://app?vid=812a4be2-bd29-4303-a8fe-42df9db058c6","ios":"levelo://app?vid=812a4be2-bd29-4303-a8fe-42df9db058c6"},"vehicle_type_id":"4","last_reported":1716577588,"current_range_meters":0,"station_id":"ce4bh012rcd13ifvqcv0","pricing_plan_id":"cebpf4jnsgd1na2vs0mg"},{"bike_id":"c1d3fea4-f5d5-4e24-adf0-2293cd75aae1","system_id":"levelo_inurba_marseille","lat":43.309047,"lon":5.396551,"is_reserved":false,"is_disabled":false,"rental_uris":{"android":"levelo://app?vid=c1d3fea4-f5d5-4e24-adf0-2293cd75aae1","ios":"levelo://app?vid=c1d3fea4-f5d5-4e24-adf0-2293cd75aae1"},"vehicle_type_id":"4","last_reported":1716577588,"current_range_meters":5600,"station_id":"ce4bh012rcd13ifvqcv0","pricing_plan_id":"cebpf4jnsgd1na2vs0mg"},{"bike_id":"e357b7d1-79be-4dd6-837c-37db48bfcc05","system_id":"levelo_inurba_marseille","lat":43.309038,"lon":5.396546,"is_reserved":false,"is_disabled":false,"rental_uris":{"android":"levelo://app?vid=e357b7d1-79be-4dd6-837c-37db48bfcc05","ios":"levelo://app?vid=e357b7d1-79be-4dd6-837c-37db48bfcc05"},"vehicle_type_id":"4","last_reported":1716577588,"current_range_meters":3200,"station_id":"ce4bh012rcd13ifvqcv0","pricing_plan_id":"cebpf4jnsgd1na2vs0mg"},{"bike_id":"dc1e90e0-3d0b-4f23-8526-3ed70a24c86a","system_id":"levelo_inurba_marseille","lat":43.295289,"lon":5.385365,"is_reserved":false,"is_disabled":false,"rental_uris":{"android":"levelo://app?vid=dc1e90e0-3d0b-4f23-8526-3ed70a24c86a","ios":"levelo://app?vid=dc1e90e0-3d0b-4f23-8526-3ed70a24c86a"},"vehicle_type_id":"4","last_reported":1716577588,"current_range_meters":0,"station_id":"ce4bgih2rcd13ifvqba0","pricing_plan_id":"cebpf4jnsgd1na2vs0mg"},{"bike_id":"afcfd659-a9ea-4910-be2c-b119e456975f","system_id":"levelo_inurba_marseille","lat":43.29535,"lon":5.38552,"is_reserved":false,"is_disabled":false,"rental_uris":{"android":"levelo://app?vid=afcfd659-a9ea-4910-be2c-b119e456975f","ios":"levelo://app?vid=afcfd659-a9ea-4910-be2c-b119e456975f"},"vehicle_type_id":"4","last_reported":1716577588,"current_range_meters":0,"station_id":"ce4bgih2rcd13ifvqba0","pricing_plan_id":"cebpf4jnsgd1na2vs0mg"},{"bike_id":"0217235d-7f56-4502-bd8a-ae8f2199e8a4","system_id":"levelo_inurba_marseille","lat":43.29529,"lon":5.385581,"is_reserved":false,"is_disabled":false,"rental_uris":{"android":"levelo://app?vid=0217235d-7f56-4502-bd8a-ae8f2199e8a4","ios":"levelo://app?vid=0217235d-7f56-4502-bd8a-ae8f2199e8a4"},"vehicle_type_id":"4","last_reported":1716577588,"current_range_meters":8400,"station_id":"ce4bgih2rcd13ifvqba0","pricing_plan_id":"cebpf4jnsgd1na2vs0mg"},{"bike_id":"62b49cd4-a60d-4125-8ea4-56b78bcf0e87","system_id":"levelo_inurba_marseille","lat":43.28727,"lon":5.36078,"is_reserved":false,"is_disabled":false,"rental_uris":{"android":"levelo://app?vid=62b49cd4-a60d-4125-8ea4-56b78bcf0e87","ios":"levelo://app?vid=62b49cd4-a60d-4125-8ea4-56b78bcf0e87"},"vehicle_type_id":"4","last_reported":1716577588,"current_range_meters":22800,"station_id":"cki0cbj6b192h4jlfktg","pricing_plan_id":"cebpf4jnsgd1na2vs0mg"},{"bike_id":"0bcbb61a-1df0-4d85-bade-e8de218045b8","system_id":"levelo_inurba_marseille","lat":43.29529,"lon":5.385581,"is_reserved":false,"is_disabled":false,"rental_uris":{"android":"levelo://app?vid=0bcbb61a-1df0-4d85-bade-e8de218045b8","ios":"levelo://app?vid=0bcbb61a-1df0-4d85-bade-e8de218045b8"},"vehicle_type_id":"4","last_reported":1716577588,"current_range_meters":2800,"station_id":"ce4bgih2rcd13ifvqba0","pricing_plan_id":"cebpf4jnsgd1na2vs0mg"},{"bike_id":"646d260b-c375-42de-a785-a4df7b7a1afa","system_id":"levelo_inurba_marseille","lat":43.298631,"lon":5.390384,"is_reserved":false,"is_disabled":false,"rental_uris":{"android":"levelo://app?vid=646d260b-c375-42de-a785-a4df7b7a1afa","ios":"levelo://app?vid=646d260b-c375-42de-a785-a4df7b7a1afa"},"vehicle_type_id":"4","last_reported":1716577588,"current_range_meters":4000,"station_id":"ce4bh2h2rcd13ifvqdh0","pricing_plan_id":"cebpf4jnsgd1na2vs0mg"},{"bike_id":"ef949120-0f63-432a-95e3-9a63ae70b4e7","system_id":"levelo_inurba_marseille","lat":43.290779,"lon":5.371482,"is_reserved":false,"is_disabled":false,"rental_uris":{"android":"levelo://app?vid=ef949120-0f63-432a-95e3-9a63ae70b4e7","ios":"levelo://app?vid=ef949120-0f63-432a-95e3-9a63ae70b4e7"},"vehicle_type_id":"4","last_reported":1716577588,"current_range_meters":7600,"station_id":"ce4bh5p2rcd13ifvqe4g","pricing_plan_id":"cebpf4jnsgd1na2vs0mg"},{"bike_id":"665ba392-2ecb-4ee6-a8ec-b8ec381ca35b","system_id":"levelo_inurba_marseille","lat":43.290779,"lon":5.371482,"is_reserved":false,"is_disabled":false,"rental_uris":{"android":"levelo://app?vid=665ba392-2ecb-4ee6-a8ec-b8ec381ca35b","ios":"levelo://app?vid=665ba392-2ecb-4ee6-a8ec-b8ec381ca35b"},"vehicle_type_id":"4","last_reported":1716577588,"current_range_meters":12000,"station_id":"ce4bh5p2rcd13ifvqe4g","pricing_plan_id":"cebpf4jnsgd1na2vs0mg"},{"bike_id":"42875bbc-b0be-4681-9fb4-5ca291cff835","system_id":"levelo_inurba_marseille","lat":43.290599,"lon":5.37153,"is_reserved":false,"is_disabled":false,"rental_uris":{"android":"levelo://app?vid=42875bbc-b0be-4681-9fb4-5ca291cff835","ios":"levelo://app?vid=42875bbc-b0be-4681-9fb4-5ca291cff835"},"vehicle_type_id":"4","last_reported":1716577588,"current_range_meters":0,"station_id":"ce4bh5p2rcd13ifvqe4g","pricing_plan_id":"cebpf4jnsgd1na2vs0mg"},{"bike_id":"8eabd9d9-5fd4-47fa-8e1c-d2a8d62e8880","system_id":"levelo_inurba_marseille","lat":43.302008,"lon":5.394694,"is_reserved":false,"is_disabled":false,"rental_uris":{"android":"levelo://app?vid=8eabd9d9-5fd4-47fa-8e1c-d2a8d62e8880","ios":"levelo://app?vid=8eabd9d9-5fd4-47fa-8e1c-d2a8d62e8880"},"vehicle_type_id":"4","last_reported":1716577588,"current_range_meters":18000,"station_id":"ce4bh0p2rcd13ifvqd70","pricing_plan_id":"cebpf4jnsgd1na2vs0mg"},{"bike_id":"974e8fcb-6a22-4d58-aa35-78d478fb50b8","system_id":"levelo_inurba_marseille","lat":43.302008,"lon":5.394694,"is_reserved":false,"is_disabled":false,"rental_uris":{"android":"levelo://app?vid=974e8fcb-6a22-4d58-aa35-78d478fb50b8","ios":"levelo://app?vid=974e8fcb-6a22-4d58-aa35-78d478fb50b8"},"vehicle_type_id":"4","last_reported":1716577588,"current_range_meters":0,"station_id":"ce4bh0p2rcd13ifvqd70","pricing_plan_id":"cebpf4jnsgd1na2vs0mg"},{"bike_id":"7b08cd57-4db7-4e13-bd55-5f5bea409358","system_id":"levelo_inurba_marseille","lat":43.302008,"lon":5.394694,"is_reserved":false,"is_disabled":false,"rental_uris":{"android":"levelo://app?vid=7b08cd57-4db7-4e13-bd55-5f5bea409358","ios":"levelo://app?vid=7b08cd57-4db7-4e13-bd55-5f5bea409358"},"vehicle_type_id":"4","last_reported":1716577588,"current_range_meters":0,"station_id":"ce4bh0p2rcd13ifvqd70","pricing_plan_id":"cebpf4jnsgd1na2vs0mg"},{"bike_id":"c44d0315-c856-4874-ac98-df178054caf2","system_id":"levelo_inurba_marseille","lat":43.302008,"lon":5.394694,"is_reserved":false,"is_disabled":false,"rental_uris":{"android":"levelo://app?vid=c44d0315-c856-4874-ac98-df178054caf2","ios":"levelo://app?vid=c44d0315-c856-4874-ac98-df178054caf2"},"vehicle_type_id":"4","last_reported":1716577588,"current_range_meters":13200,"station_id":"ce4bh0p2rcd13ifvqd70","pricing_plan_id":"cebpf4jnsgd1na2vs0mg"},{"bike_id":"f27cc5c7-e8f5-473d-ba1c-cfa0c1f50217","system_id":"levelo_inurba_marseille","lat":43.302008,"lon":5.394694,"is_reserved":false,"is_disabled":false,"rental_uris":{"android":"levelo://app?vid=f27cc5c7-e8f5-473d-ba1c-cfa0c1f50217","ios":"levelo://app?vid=f27cc5c7-e8f5-473d-ba1c-cfa0c1f50217"},"vehicle_type_id":"4","last_reported":1716577588,"current_range_meters":7600,"station_id":"ce4bh0p2rcd13ifvqd70","pricing_plan_id":"cebpf4jnsgd1na2vs0mg"},{"bike_id":"f3e846e9-6bd8-4be3-bec8-c826b1ed6e7a","system_id":"levelo_inurba_marseille","lat":43.30211,"lon":5.3947,"is_reserved":false,"is_disabled":false,"rental_uris":{"android":"levelo://app?vid=f3e846e9-6bd8-4be3-bec8-c826b1ed6e7a","ios":"levelo://app?vid=f3e846e9-6bd8-4be3-bec8-c826b1ed6e7a"},"vehicle_type_id":"4","last_reported":1716577588,"current_range_meters":0,"station_id":"ce4bh0p2rcd13ifvqd70","pricing_plan_id":"cebpf4jnsgd1na2vs0mg"},{"bike_id":"aabc096c-58dc-4ff0-80c5-a8dae0a18971","system_id":"levelo_inurba_marseille","lat":43.292642,"lon":5.384254,"is_reserved":false,"is_disabled":false,"rental_uris":{"android":"levelo://app?vid=aabc096c-58dc-4ff0-80c5-a8dae0a18971","ios":"levelo://app?vid=aabc096c-58dc-4ff0-80c5-a8dae0a18971"},"vehicle_type_id":"4","last_reported":1716577588,"current_range_meters":1200,"station_id":"ce4bh692rcd13ifvqea0","pricing_plan_id":"cebpf4jnsgd1na2vs0mg"},{"bike_id":"45a9ba71-0a05-4bce-a771-eb20f7b758b5","system_id":"levelo_inurba_marseille","lat":43.290631,"lon":5.359244,"is_reserved":false,"is_disabled":false,"rental_uris":{"android":"levelo://app?vid=45a9ba71-0a05-4bce-a771-eb20f7b758b5","ios":"levelo://app?vid=45a9ba71-0a05-4bce-a771-eb20f7b758b5"},"vehicle_type_id":"4","last_reported":1716577588,"current_range_meters":31600,"station_id":"ce4bha92rcd13ifvqeg0","pricing_plan_id":"cebpf4jnsgd1na2vs0mg"},{"bike_id":"1f17c418-213d-4318-9407-3a00a62caac4","system_id":"levelo_inurba_marseille","lat":43.29031,"lon":5.35926,"is_reserved":false,"is_disabled":false,"rental_uris":{"android":"levelo://app?vid=1f17c418-213d-4318-9407-3a00a62caac4","ios":"levelo://app?vid=1f17c418-213d-4318-9407-3a00a62caac4"},"vehicle_type_id":"4","last_reported":1716577588,"current_range_meters":26400,"station_id":"ce4bha92rcd13ifvqeg0","pricing_plan_id":"cebpf4jnsgd1na2vs0mg"},{"bike_id":"aa786ba7-9f6e-4229-802d-bb85383c00db","system_id":"levelo_inurba_marseille","lat":43.294153,"lon":5.386305,"is_reserved":false,"is_disabled":false,"rental_uris":{"android":"levelo://app?vid=aa786ba7-9f6e-4229-802d-bb85383c00db","ios":"levelo://app?vid=aa786ba7-9f6e-4229-802d-bb85383c00db"},"vehicle_type_id":"4","last_reported":1716577588,"current_range_meters":400,"station_id":"ce4bh2h2rcd13ifvqdh0","pricing_plan_id":"cebpf4jnsgd1na2vs0mg"},{"bike_id":"bcfc2bc1-d30b-494b-8eda-eb6d61cf7855","system_id":"levelo_inurba_marseille","lat":43.290327,"lon":5.375711,"is_reserved":false,"is_disabled":false,"rental_uris":{"android":"levelo://app?vid=bcfc2bc1-d30b-494b-8eda-eb6d61cf7855","ios":"levelo://app?vid=bcfc2bc1-d30b-494b-8eda-eb6d61cf7855"},"vehicle_type_id":"4","last_reported":1716577588,"current_range_meters":0,"station_id":"ce4bh692rcd13ifvqe90","pricing_plan_id":"cebpf4jnsgd1na2vs0mg"},{"bike_id":"b1616e61-4464-43fc-807e-1eabf9914fe1","system_id":"levelo_inurba_marseille","lat":43.294153,"lon":5.386305,"is_reserved":false,"is_disabled":false,"rental_uris":{"android":"levelo://app?vid=b1616e61-4464-43fc-807e-1eabf9914fe1","ios":"levelo://app?vid=b1616e61-4464-43fc-807e-1eabf9914fe1"},"vehicle_type_id":"4","last_reported":1716577588,"current_range_meters":2000,"station_id":"ce4bh2h2rcd13ifvqdh0","pricing_plan_id":"cebpf4jnsgd1na2vs0mg"},{"bike_id":"f74de545-6b58-4132-b54d-69749e778838","system_id":"levelo_inurba_marseille","lat":43.290327,"lon":5.375711,"is_reserved":false,"is_disabled":false,"rental_uris":{"android":"levelo://app?vid=f74de545-6b58-4132-b54d-69749e778838","ios":"levelo://app?vid=f74de545-6b58-4132-b54d-69749e778838"},"vehicle_type_id":"4","last_reported":1716577588,"current_range_meters":0,"station_id":"ce4bh692rcd13ifvqe90","pricing_plan_id":"cebpf4jnsgd1na2vs0mg"},{"bike_id":"a7d1d769-808d-4737-8555-828312372381","system_id":"levelo_inurba_marseille","lat":43.294153,"lon":5.386305,"is_reserved":false,"is_disabled":false,"rental_uris":{"android":"levelo://app?vid=a7d1d769-808d-4737-8555-828312372381","ios":"levelo://app?vid=a7d1d769-808d-4737-8555-828312372381"},"vehicle_type_id":"4","last_reported":1716577588,"current_range_meters":8400,"station_id":"ce4bh2h2rcd13ifvqdh0","pricing_plan_id":"cebpf4jnsgd1na2vs0mg"},{"bike_id":"dcdd7e52-f092-47b5-aedf-e1ec60264f42","system_id":"levelo_inurba_marseille","lat":43.289184,"lon":5.366408,"is_reserved":false,"is_disabled":false,"rental_uris":{"android":"levelo://app?vid=dcdd7e52-f092-47b5-aedf-e1ec60264f42","ios":"levelo://app?vid=dcdd7e52-f092-47b5-aedf-e1ec60264f42"},"vehicle_type_id":"4","last_reported":1716577588,"current_range_meters":26800,"station_id":"ce4bhap2rcd13ifvqek0","pricing_plan_id":"cebpf4jnsgd1na2vs0mg"},{"bike_id":"2c6660cc-79ee-42cc-93d4-70fa1c49f04e","system_id":"levelo_inurba_marseille","lat":43.290327,"lon":5.375711,"is_reserved":false,"is_disabled":false,"rental_uris":{"android":"levelo://app?vid=2c6660cc-79ee-42cc-93d4-70fa1c49f04e","ios":"levelo://app?vid=2c6660cc-79ee-42cc-93d4-70fa1c49f04e"},"vehicle_type_id":"4","last_reported":1716577588,"current_range_meters":25600,"station_id":"ce4bh692rcd13ifvqe90","pricing_plan_id":"cebpf4jnsgd1na2vs0mg"},{"bike_id":"866e32c8-9c31-4367-9bc7-3f43d7c4b152","system_id":"levelo_inurba_marseille","lat":43.29412,"lon":5.3862,"is_reserved":false,"is_disabled":false,"rental_uris":{"android":"levelo://app?vid=866e32c8-9c31-4367-9bc7-3f43d7c4b152","ios":"levelo://app?vid=866e32c8-9c31-4367-9bc7-3f43d7c4b152"},"vehicle_type_id":"4","last_reported":1716577588,"current_range_meters":0,"station_id":"ce4bh2h2rcd13ifvqdh0","pricing_plan_id":"cebpf4jnsgd1na2vs0mg"},{"bike_id":"9f5b1952-464f-40bc-9d2f-0598335863de","system_id":"levelo_inurba_marseille","lat":43.290319,"lon":5.375732,"is_reserved":false,"is_disabled":false,"rental_uris":{"android":"levelo://app?vid=9f5b1952-464f-40bc-9d2f-0598335863de","ios":"levelo://app?vid=9f5b1952-464f-40bc-9d2f-0598335863de"},"vehicle_type_id":"4","last_reported":1716577588,"current_range_meters":0,"station_id":"ce4bh692rcd13ifvqe90","pricing_plan_id":"cebpf4jnsgd1na2vs0mg"},{"bike_id":"00d01e3e-bea6-4666-84a6-e12e39bf6f88","system_id":"levelo_inurba_marseille","lat":43.294115,"lon":5.386229,"is_reserved":false,"is_disabled":false,"rental_uris":{"android":"levelo://app?vid=00d01e3e-bea6-4666-84a6-e12e39bf6f88","ios":"levelo://app?vid=00d01e3e-bea6-4666-84a6-e12e39bf6f88"},"vehicle_type_id":"4","last_reported":1716577588,"current_range_meters":6000,"station_id":"ce4bh2h2rcd13ifvqdh0","pricing_plan_id":"cebpf4jnsgd1na2vs0mg"},{"bike_id":"1c1446bb-287a-4460-80e4-4623786a19f1","system_id":"levelo_inurba_marseille","lat":43.289184,"lon":5.366408,"is_reserved":false,"is_disabled":false,"rental_uris":{"android":"levelo://app?vid=1c1446bb-287a-4460-80e4-4623786a19f1","ios":"levelo://app?vid=1c1446bb-287a-4460-80e4-4623786a19f1"},"vehicle_type_id":"4","last_reported":1716577588,"current_range_meters":12000,"station_id":"ce4bhap2rcd13ifvqek0","pricing_plan_id":"cebpf4jnsgd1na2vs0mg"},{"bike_id":"fb1b40b6-69ef-4e28-8863-682a18a2ade7","system_id":"levelo_inurba_marseille","lat":43.289184,"lon":5.366408,"is_reserved":false,"is_disabled":false,"rental_uris":{"android":"levelo://app?vid=fb1b40b6-69ef-4e28-8863-682a18a2ade7","ios":"levelo://app?vid=fb1b40b6-69ef-4e28-8863-682a18a2ade7"},"vehicle_type_id":"4","last_reported":1716577588,"current_range_meters":31200,"station_id":"ce4bhap2rcd13ifvqek0","pricing_plan_id":"cebpf4jnsgd1na2vs0mg"},{"bike_id":"fee66173-dfa0-4f12-bdb3-173c49e4c61f","system_id":"levelo_inurba_marseille","lat":43.289184,"lon":5.366408,"is_reserved":false,"is_disabled":false,"rental_uris":{"android":"levelo://app?vid=fee66173-dfa0-4f12-bdb3-173c49e4c61f","ios":"levelo://app?vid=fee66173-dfa0-4f12-bdb3-173c49e4c61f"},"vehicle_type_id":"4","last_reported":1716577588,"current_range_meters":27200,"station_id":"ce4bhap2rcd13ifvqek0","pricing_plan_id":"cebpf4jnsgd1na2vs0mg"},{"bike_id":"12ee54bf-544c-44d4-a400-722186bec817","system_id":"levelo_inurba_marseille","lat":43.289346,"lon":5.366465,"is_reserved":false,"is_disabled":false,"rental_uris":{"android":"levelo://app?vid=12ee54bf-544c-44d4-a400-722186bec817","ios":"levelo://app?vid=12ee54bf-544c-44d4-a400-722186bec817"},"vehicle_type_id":"4","last_reported":1716577588,"current_range_meters":25200,"station_id":"ce4bhap2rcd13ifvqek0","pricing_plan_id":"cebpf4jnsgd1na2vs0mg"},{"bike_id":"cfef0728-377c-41e0-b1ec-718c44406961","system_id":"levelo_inurba_marseille","lat":43.28932,"lon":5.36637,"is_reserved":false,"is_disabled":false,"rental_uris":{"android":"levelo://app?vid=cfef0728-377c-41e0-b1ec-718c44406961","ios":"levelo://app?vid=cfef0728-377c-41e0-b1ec-718c44406961"},"vehicle_type_id":"4","last_reported":1716577588,"current_range_meters":18800,"station_id":"ce4bhap2rcd13ifvqek0","pricing_plan_id":"cebpf4jnsgd1na2vs0mg"},{"bike_id":"98205779-4257-4765-882a-1dfd4d75ffad","system_id":"levelo_inurba_marseille","lat":43.2893,"lon":5.36628,"is_reserved":false,"is_disabled":false,"rental_uris":{"android":"levelo://app?vid=98205779-4257-4765-882a-1dfd4d75ffad","ios":"levelo://app?vid=98205779-4257-4765-882a-1dfd4d75ffad"},"vehicle_type_id":"4","last_reported":1716577588,"current_range_meters":28800,"station_id":"ce4bhap2rcd13ifvqek0","pricing_plan_id":"cebpf4jnsgd1na2vs0mg"},{"bike_id":"44dd060f-b2e3-4c80-a526-285a041d03af","system_id":"levelo_inurba_marseille","lat":43.290327,"lon":5.375711,"is_reserved":false,"is_disabled":false,"rental_uris":{"android":"levelo://app?vid=44dd060f-b2e3-4c80-a526-285a041d03af","ios":"levelo://app?vid=44dd060f-b2e3-4c80-a526-285a041d03af"},"vehicle_type_id":"4","last_reported":1716577588,"current_range_meters":1200,"station_id":"ce4bh692rcd13ifvqe90","pricing_plan_id":"cebpf4jnsgd1na2vs0mg"},{"bike_id":"4eac7b2b-82d2-45de-8def-8ba75b26abc3","system_id":"levelo_inurba_marseille","lat":43.289468,"lon":5.363719,"is_reserved":false,"is_disabled":false,"rental_uris":{"android":"levelo://app?vid=4eac7b2b-82d2-45de-8def-8ba75b26abc3","ios":"levelo://app?vid=4eac7b2b-82d2-45de-8def-8ba75b26abc3"},"vehicle_type_id":"4","last_reported":1716577588,"current_range_meters":28800,"station_id":"ce4bhc92rcd13ifvqetg","pricing_plan_id":"cebpf4jnsgd1na2vs0mg"},{"bike_id":"065d96fb-fb0a-4974-9ce9-338d78bcf913","system_id":"levelo_inurba_marseille","lat":43.292642,"lon":5.384254,"is_reserved":false,"is_disabled":false,"rental_uris":{"android":"levelo://app?vid=065d96fb-fb0a-4974-9ce9-338d78bcf913","ios":"levelo://app?vid=065d96fb-fb0a-4974-9ce9-338d78bcf913"},"vehicle_type_id":"4","last_reported":1716577588,"current_range_meters":5200,"station_id":"ce4bh692rcd13ifvqea0","pricing_plan_id":"cebpf4jnsgd1na2vs0mg"},{"bike_id":"28eb9128-a63e-4ea4-877b-8e195efc4031","system_id":"levelo_inurba_marseille","lat":43.304296,"lon":5.397513,"is_reserved":false,"is_disabled":false,"rental_uris":{"android":"levelo://app?vid=28eb9128-a63e-4ea4-877b-8e195efc4031","ios":"levelo://app?vid=28eb9128-a63e-4ea4-877b-8e195efc4031"},"vehicle_type_id":"4","last_reported":1716577588,"current_range_meters":0,"station_id":"ce4bh092rcd13ifvqd20","pricing_plan_id":"cebpf4jnsgd1na2vs0mg"},{"bike_id":"ff7d8298-d523-421f-80a6-ed2019cfbc10","system_id":"levelo_inurba_marseille","lat":43.292642,"lon":5.384254,"is_reserved":false,"is_disabled":false,"rental_uris":{"android":"levelo://app?vid=ff7d8298-d523-421f-80a6-ed2019cfbc10","ios":"levelo://app?vid=ff7d8298-d523-421f-80a6-ed2019cfbc10"},"vehicle_type_id":"4","last_reported":1716577588,"current_range_meters":400,"station_id":"ce4bh692rcd13ifvqea0","pricing_plan_id":"cebpf4jnsgd1na2vs0mg"},{"bike_id":"116c5a9b-c8e0-4783-a143-bc6b82bccb78","system_id":"levelo_inurba_marseille","lat":43.292644,"lon":5.384257,"is_reserved":false,"is_disabled":false,"rental_uris":{"android":"levelo://app?vid=116c5a9b-c8e0-4783-a143-bc6b82bccb78","ios":"levelo://app?vid=116c5a9b-c8e0-4783-a143-bc6b82bccb78"},"vehicle_type_id":"4","last_reported":1716577588,"current_range_meters":6000,"station_id":"ce4bh692rcd13ifvqea0","pricing_plan_id":"cebpf4jnsgd1na2vs0mg"},{"bike_id":"8566264e-a0cf-422a-bbe4-1792226da1bb","system_id":"levelo_inurba_marseille","lat":43.292644,"lon":5.384257,"is_reserved":false,"is_disabled":false,"rental_uris":{"android":"levelo://app?vid=8566264e-a0cf-422a-bbe4-1792226da1bb","ios":"levelo://app?vid=8566264e-a0cf-422a-bbe4-1792226da1bb"},"vehicle_type_id":"4","last_reported":1716577588,"current_range_meters":2000,"station_id":"ce4bh692rcd13ifvqea0","pricing_plan_id":"cebpf4jnsgd1na2vs0mg"},{"bike_id":"21b951f4-0f71-4be2-8f26-a800bd7ed9ee","system_id":"levelo_inurba_marseille","lat":43.292644,"lon":5.384257,"is_reserved":false,"is_disabled":false,"rental_uris":{"android":"levelo://app?vid=21b951f4-0f71-4be2-8f26-a800bd7ed9ee","ios":"levelo://app?vid=21b951f4-0f71-4be2-8f26-a800bd7ed9ee"},