{"last_updated":1741604780,"ttl":60,"version":"2.2","data":{"bikes":[{"bike_id":"a211b98c-b7f0-4d6f-bc6c-ee758252639d","system_id":"levelo_inurba_marseille","lat":43.27942,"lon":5.38713,"is_reserved":false,"is_disabled":false,"rental_uris":{"android":"levelo://app?vid=a211b98c-b7f0-4d6f-bc6c-ee758252639d","ios":"levelo://app?vid=a211b98c-b7f0-4d6f-bc6c-ee758252639d"},"vehicle_type_id":"4","last_reported":1741604780,"current_range_meters":2800,"station_id":"ce4bhg12rcd13ifvqf80","pricing_plan_id":"cebpf4jnsgd1na2vs0mg"},{"bike_id":"8ee6dbdc-5ebf-4d7f-b75f-4dfc9836837a","system_id":"levelo_inurba_marseille","lat":43.29051,"lon":5.39999,"is_reserved":false,"is_disabled":true,"rental_uris":{"android":"levelo://app?vid=8ee6dbdc-5ebf-4d7f-b75f-4dfc9836837a","ios":"levelo://app?vid=8ee6dbdc-5ebf-4d7f-b75f-4dfc9836837a"},"vehicle_type_id":"4","last_reported":1741604780,"current_range_meters":2800,"station_id":"ce4bh392rcd13ifvqdm0","pricing_plan_id":"cebpf4jnsgd1na2vs0mg"},{"bike_id":"d3ad9bdf-d0e5-45c5-bf0b-f6c0b6c8e4da","system_id":"levelo_inurba_marseille","lat":43.26499,"lon":5.39552,"is_reserved":false,"is_disabled":false,"rental_uris":{"android":"levelo://app?vid=d3ad9bdf-d0e5-45c5-bf0b-f6c0b6c8e4da","ios":"levelo://app?vid=d3ad9bdf-d0e5-45c5-bf0b-f6c0b6c8e4da"},"vehicle_type_id":"4","last_reported":1741604780,"current_range_meters":2800,"station_id":"ce4bhi12rcd13ifvqfq0","pricing_plan_id":"cebpf4jnsgd1na2vs0mg"},{"bike_id":"805d5218-d2ca-47da-b0fa-129c982234db","system_id":"levelo_inurba_marseille","lat":43.26223,"lon":5.40445,"is_reserved":false,"is_disabled":false,"rental_uris":{"android":"levelo://app?vid=805d5218-d2ca-47da-b0fa-129c982234db","ios":"levelo://app?vid=805d5218-d2ca-47da-b0fa-129c982234db"},"vehicle_type_id":"4","last_reported":1741604780,"current_range_meters":2800,"station_id":"ce4bhmh2rcd13ifvqgmg","pricing_plan_id":"cebpf4jnsgd1na2vs0mg"},{"bike_id":"bb6112d2-cb75-4006-8dc0-0d4a940d59d3","system_id":"levelo_inurba_marseille","lat":43.31226,"lon":5.36837,"is_reserved":false,"is_disabled":false,"rental_uris":{"android":"levelo://app?vid=bb6112d2-cb75-4006-8dc0-0d4a940d59d3","ios":"levelo://app?vid=bb6112d2-cb75-4006-8dc0-0d4a940d59d3"},"vehicle_type_id":"4","last_reported":1741604780,"current_range_meters":3200,"station_id":"ce4bgl92rcd13ifvqbq0","pricing_plan_id":"cebpf4jnsgd1na2vs0mg"},{"bike_id":"803f2b82-4bc0-4ae7-b369-d8002e96387a","system_id":"levelo_inurba_marseille","lat":43.32505,"lon":5.36582,"is_reserved":false,"is_disabled":false,"rental_uris":{"android":"levelo://app?vid=803f2b82-4bc0-4ae7-b369-d8002e96387a","ios":"levelo://app?vid=803f2b82-4bc0-4ae7-b369-d8002e96387a"},"vehicle_type_id":"4","last_reported":1741604780,"current_range_meters":3200,"station_id":"ce4bhs12rcd13ifvqhvg","pricing_plan_id":"cebpf4jnsgd1na2vs0mg"},{"bike_id":"13c36727-e788-46e6-9198-717f81ca24ba","system_id":"levelo_inurba_marseille","lat":43.2905,"lon":5.37568,"is_reserved":false,"is_disabled":false,"rental_uris":{"android":"levelo://app?vid=13c36727-e788-46e6-9198-717f81ca24ba","ios":"levelo://app?vid=13c36727-e788-46e6-9198-717f81ca24ba"},"vehicle_type_id":"4","last_reported":1741604780,"current_range_meters":3600,"station_id":"ce4bh692rcd13ifvqe90","pricing_plan_id":"cebpf4jnsgd1na2vs0mg"},{"bike_id":"a4b61123-b49a-4a75-a440-d8c5b0081b36","system_id":"levelo_inurba_marseille","lat":43.23174,"lon":5.43697,"is_reserved":false,"is_disabled":false,"rental_uris":{"android":"levelo://app?vid=a4b61123-b49a-4a75-a440-d8c5b0081b36","ios":"levelo://app?vid=a4b61123-b49a-4a75-a440-d8c5b0081b36"},"vehicle_type_id":"4","last_reported":1741604780,"current_range_meters":3600,"station_id":"ce4bhmp2rcd13ifvqgog","pricing_plan_id":"cebpf4jnsgd1na2vs0mg"},{"bike_id":"e7712f3f-f4e4-4f18-a076-50ce2ab80efa","system_id":"levelo_inurba_marseille","lat":43.26228,"lon":5.40466,"is_reserved":false,"is_disabled":false,"rental_uris":{"android":"levelo://app?vid=e7712f3f-f4e4-4f18-a076-50ce2ab80efa","ios":"levelo://app?vid=e7712f3f-f4e4-4f18-a076-50ce2ab80efa"},"vehicle_type_id":"4","last_reported":1741604780,"current_range_meters":4400,"station_id":"ce4bhmh2rcd13ifvqgmg","pricing_plan_id":"cebpf4jnsgd1na2vs0mg"},{"bike_id":"c8f6b61c-c94c-4eee-b333-f6c8bac348d7","system_id":"levelo_inurba_marseille","lat":43.25924,"lon":5.40902,"is_reserved":false,"is_disabled":false,"rental_uris":{"android":"levelo://app?vid=c8f6b61c-c94c-4eee-b333-f6c8bac348d7","ios":"levelo://app?vid=c8f6b61c-c94c-4eee-b333-f6c8bac348d7"},"vehicle_type_id":"4","last_reported":1741604780,"current_range_meters":4400,"station_id":"ce4bhm92rcd13ifvqglg","pricing_plan_id":"cebpf4jnsgd1na2vs0mg"},{"bike_id":"267cfc75-8e61-4ebf-9c5b-a1dbc7e223b1","system_id":"levelo_inurba_marseille","lat":43.297699,"lon":5.373367,"is_reserved":false,"is_disabled":false,"rental_uris":{"android":"levelo://app?vid=267cfc75-8e61-4ebf-9c5b-a1dbc7e223b1","ios":"levelo://app?vid=267cfc75-8e61-4ebf-9c5b-a1dbc7e223b1"},"vehicle_type_id":"4","last_reported":1741604780,"current_range_meters":4400,"station_id":"ce4bho92rcd13ifvqh3g","pricing_plan_id":"cebpf4jnsgd1na2vs0mg"},{"bike_id":"e5e118b0-32a8-4ef3-b6d1-b7487133ba19","system_id":"levelo_inurba_marseille","lat":43.28147,"lon":5.42615,"is_reserved":false,"is_disabled":false,"rental_uris":{"android":"levelo://app?vid=e5e118b0-32a8-4ef3-b6d1-b7487133ba19","ios":"levelo://app?vid=e5e118b0-32a8-4ef3-b6d1-b7487133ba19"},"vehicle_type_id":"4","last_reported":1741604780,"current_range_meters":4800,"station_id":"ce4bhnh2rcd13ifvqgug","pricing_plan_id":"cebpf4jnsgd1na2vs0mg"},{"bike_id":"96afa76d-1aa4-4e4c-b378-75ffb71058dc","system_id":"levelo_inurba_marseille","lat":43.2418,"lon":5.39724,"is_reserved":false,"is_disabled":false,"rental_uris":{"android":"levelo://app?vid=96afa76d-1aa4-4e4c-b378-75ffb71058dc","ios":"levelo://app?vid=96afa76d-1aa4-4e4c-b378-75ffb71058dc"},"vehicle_type_id":"4","last_reported":1741604780,"current_range_meters":4800,"station_id":"ce4bhn12rcd13ifvqgpg","pricing_plan_id":"cebpf4jnsgd1na2vs0mg"},{"bike_id":"6ccbb947-cc7d-42df-b0dd-4bd59fc7e4ac","system_id":"levelo_inurba_marseille","lat":43.27992,"lon":5.4002,"is_reserved":false,"is_disabled":false,"rental_uris":{"android":"levelo://app?vid=6ccbb947-cc7d-42df-b0dd-4bd59fc7e4ac","ios":"levelo://app?vid=6ccbb947-cc7d-42df-b0dd-4bd59fc7e4ac"},"vehicle_type_id":"4","last_reported":1741604780,"current_range_meters":4800,"station_id":"ce4bho92rcd13ifvqh4g","pricing_plan_id":"cebpf4jnsgd1na2vs0mg"},{"bike_id":"8810679a-e7c9-4297-97b3-dd7d0bfc4864","system_id":"levelo_inurba_marseille","lat":43.25018,"lon":5.38917,"is_reserved":false,"is_disabled":false,"rental_uris":{"android":"levelo://app?vid=8810679a-e7c9-4297-97b3-dd7d0bfc4864","ios":"levelo://app?vid=8810679a-e7c9-4297-97b3-dd7d0bfc4864"},"vehicle_type_id":"4","last_reported":1741604780,"current_range_meters":4800,"station_id":"ce4bhgp2rcd13ifvqfd0","pricing_plan_id":"cebpf4jnsgd1na2vs0mg"},{"bike_id":"93b65028-e8a4-4c8f-876a-ae246ea8ac90","system_id":"levelo_inurba_marseille","lat":43.31372,"lon":5.38512,"is_reserved":false,"is_disabled":true,"rental_uris":{"android":"levelo://app?vid=93b65028-e8a4-4c8f-876a-ae246ea8ac90","ios":"levelo://app?vid=93b65028-e8a4-4c8f-876a-ae246ea8ac90"},"vehicle_type_id":"4","last_reported":1741604780,"current_range_meters":5600,"station_id":"ce4bgt92rcd13ifvqcf0","pricing_plan_id":"cebpf4jnsgd1na2vs0mg"},{"bike_id":"30ca0a12-56c0-4feb-9059-10680035a6ae","system_id":"levelo_inurba_marseille","lat":43.28706,"lon":5.37391,"is_reserved":false,"is_disabled":true,"rental_uris":{"android":"levelo://app?vid=30ca0a12-56c0-4feb-9059-10680035a6ae","ios":"levelo://app?vid=30ca0a12-56c0-4feb-9059-10680035a6ae"},"vehicle_type_id":"4","last_reported":1741604780,"current_range_meters":5600,"station_id":"ce4bh3p2rcd13ifvqdq0","pricing_plan_id":"cebpf4jnsgd1na2vs0mg"},{"bike_id":"2fb3fa58-588f-4ada-916f-17fc0e1cb829","system_id":"levelo_inurba_marseille","lat":43.30136,"lon":5.38772,"is_reserved":false,"is_disabled":false,"rental_uris":{"android":"levelo://app?vid=2fb3fa58-588f-4ada-916f-17fc0e1cb829","ios":"levelo://app?vid=2fb3fa58-588f-4ada-916f-17fc0e1cb829"},"vehicle_type_id":"4","last_reported":1741604780,"current_range_meters":5600,"station_id":"ce4bghh2rcd13ifvqb60","pricing_plan_id":"cebpf4jnsgd1na2vs0mg"},{"bike_id":"61d695c8-dd6b-42df-8d4e-06b3d0839aed","system_id":"levelo_inurba_marseille","lat":43.300049,"lon":5.370817,"is_reserved":false,"is_disabled":false,"rental_uris":{"android":"levelo://app?vid=61d695c8-dd6b-42df-8d4e-06b3d0839aed","ios":"levelo://app?vid=61d695c8-dd6b-42df-8d4e-06b3d0839aed"},"vehicle_type_id":"4","last_reported":1741604780,"current_range_meters":5600,"station_id":"ce4bgip2rcd13ifvqbb0","pricing_plan_id":"cebpf4jnsgd1na2vs0mg"},{"bike_id":"7390ebbf-3d0c-487b-a5cc-ed1df7c7f0dc","system_id":"levelo_inurba_marseille","lat":43.24164,"lon":5.39726,"is_reserved":false,"is_disabled":false,"rental_uris":{"android":"levelo://app?vid=7390ebbf-3d0c-487b-a5cc-ed1df7c7f0dc","ios":"levelo://app?vid=7390ebbf-3d0c-487b-a5cc-ed1df7c7f0dc"},"vehicle_type_id":"4","last_reported":1741604780,"current_range_meters":5600,"station_id":"ce4bhn12rcd13ifvqgpg","pricing_plan_id":"cebpf4jnsgd1na2vs0mg"},{"bike_id":"19bbe8da-d7df-496e-a677-cbaab925cf5e","system_id":"levelo_inurba_marseille","lat":43.24873,"lon":5.42533,"is_reserved":false,"is_disabled":false,"rental_uris":{"android":"levelo://app?vid=19bbe8da-d7df-496e-a677-cbaab925cf5e","ios":"levelo://app?vid=19bbe8da-d7df-496e-a677-cbaab925cf5e"},"vehicle_type_id":"4","last_reported":1741604780,"current_range_meters":6000,"station_id":"","pricing_plan_id":"cebpf4jnsgd1na2vs0mg"},{"bike_id":"ce090f12-c0e8-4601-8e24-88472425a3e5","system_id":"levelo_inurba_marseille","lat":43.25112,"lon":5.40326,"is_reserved":false,"is_disabled":false,"rental_uris":{"android":"levelo://app?vid=ce090f12-c0e8-4601-8e24-88472425a3e5","ios":"levelo://app?vid=ce090f12-c0e8-4601-8e24-88472425a3e5"},"vehicle_type_id":"4","last_reported":1741604780,"current_range_meters":6000,"station_id":"ce4bhlh2rcd13ifvqgig","pricing_plan_id":"cebpf4jnsgd1na2vs0mg"},{"bike_id":"0fb818e1-b0b3-4883-8925-5246737d8a77","system_id":"levelo_inurba_marseille","lat":43.3359,"lon":5.40996,"is_reserved":false,"is_disabled":false,"rental_uris":{"android":"levelo://app?vid=0fb818e1-b0b3-4883-8925-5246737d8a77","ios":"levelo://app?vid=0fb818e1-b0b3-4883-8925-5246737d8a77"},"vehicle_type_id":"4","last_reported":1741604780,"current_range_meters":6000,"station_id":"ce4bhqh2rcd13ifvqhmg","pricing_plan_id":"cebpf4jnsgd1na2vs0mg"},{"bike_id":"a4822dc0-a91f-4328-9845-7b0ef8691171","system_id":"levelo_inurba_marseille","lat":43.25944,"lon":5.40938,"is_reserved":false,"is_disabled":false,"rental_uris":{"android":"levelo://app?vid=a4822dc0-a91f-4328-9845-7b0ef8691171","ios":"levelo://app?vid=a4822dc0-a91f-4328-9845-7b0ef8691171"},"vehicle_type_id":"4","last_reported":1741604780,"current_range_meters":6000,"station_id":"ce4bhm92rcd13ifvqglg","pricing_plan_id":"cebpf4jnsgd1na2vs0mg"},{"bike_id":"7f40a273-be71-4d7a-b882-662b6cfb029d","system_id":"levelo_inurba_marseille","lat":43.2795,"lon":5.41049,"is_reserved":false,"is_disabled":false,"rental_uris":{"android":"levelo://app?vid=7f40a273-be71-4d7a-b882-662b6cfb029d","ios":"levelo://app?vid=7f40a273-be71-4d7a-b882-662b6cfb029d"},"vehicle_type_id":"4","last_reported":1741604780,"current_range_meters":6000,"station_id":"ce4bhnp2rcd13ifvqh0g","pricing_plan_id":"cebpf4jnsgd1na2vs0mg"},{"bike_id":"2a3a8222-0824-4130-a051-e3506a3fb94c","system_id":"levelo_inurba_marseille","lat":43.24074,"lon":5.37758,"is_reserved":false,"is_disabled":false,"rental_uris":{"android":"levelo://app?vid=2a3a8222-0824-4130-a051-e3506a3fb94c","ios":"levelo://app?vid=2a3a8222-0824-4130-a051-e3506a3fb94c"},"vehicle_type_id":"4","last_reported":1741604780,"current_range_meters":6400,"station_id":"ce4bhnp2rcd13ifvqgvg","pricing_plan_id":"cebpf4jnsgd1na2vs0mg"},{"bike_id":"61f98514-f2d4-4967-8974-9a87419de726","system_id":"levelo_inurba_marseille","lat":43.24661,"lon":5.38158,"is_reserved":false,"is_disabled":false,"rental_uris":{"android":"levelo://app?vid=61f98514-f2d4-4967-8974-9a87419de726","ios":"levelo://app?vid=61f98514-f2d4-4967-8974-9a87419de726"},"vehicle_type_id":"4","last_reported":1741604780,"current_range_meters":6400,"station_id":"ce4bhih2rcd13ifvqfr0","pricing_plan_id":"cebpf4jnsgd1na2vs0mg"},{"bike_id":"50530689-b3a7-45ef-b5a5-30326b2d0b5c","system_id":"levelo_inurba_marseille","lat":43.25087,"lon":5.39515,"is_reserved":false,"is_disabled":false,"rental_uris":{"android":"levelo://app?vid=50530689-b3a7-45ef-b5a5-30326b2d0b5c","ios":"levelo://app?vid=50530689-b3a7-45ef-b5a5-30326b2d0b5c"},"vehicle_type_id":"4","last_reported":1741604780,"current_range_meters":6400,"station_id":"ce4bhm12rcd13ifvqgkg","pricing_plan_id":"cebpf4jnsgd1na2vs0mg"},{"bike_id":"ac2efbb8-87f5-4e67-91b6-6982ed970754","system_id":"levelo_inurba_marseille","lat":43.25106,"lon":5.40321,"is_reserved":false,"is_disabled":false,"rental_uris":{"android":"levelo://app?vid=ac2efbb8-87f5-4e67-91b6-6982ed970754","ios":"levelo://app?vid=ac2efbb8-87f5-4e67-91b6-6982ed970754"},"vehicle_type_id":"4","last_reported":1741604780,"current_range_meters":6400,"station_id":"ce4bhlh2rcd13ifvqgig","pricing_plan_id":"cebpf4jnsgd1na2vs0mg"},{"bike_id":"5d3de634-4f2e-4dc3-92c9-c713336471ee","system_id":"levelo_inurba_marseille","lat":43.24075,"lon":5.37774,"is_reserved":false,"is_disabled":false,"rental_uris":{"android":"levelo://app?vid=5d3de634-4f2e-4dc3-92c9-c713336471ee","ios":"levelo://app?vid=5d3de634-4f2e-4dc3-92c9-c713336471ee"},"vehicle_type_id":"4","last_reported":1741604780,"current_range_meters":6800,"station_id":"ce4bhnp2rcd13ifvqgvg","pricing_plan_id":"cebpf4jnsgd1na2vs0mg"},{"bike_id":"55fc6b10-f388-48db-a281-045fb494a3fc","system_id":"levelo_inurba_marseille","lat":43.24082,"lon":5.37752,"is_reserved":false,"is_disabled":false,"rental_uris":{"android":"levelo://app?vid=55fc6b10-f388-48db-a281-045fb494a3fc","ios":"levelo://app?vid=55fc6b10-f388-48db-a281-045fb494a3fc"},"vehicle_type_id":"4","last_reported":1741604780,"current_range_meters":6800,"station_id":"ce4bhnp2rcd13ifvqgvg","pricing_plan_id":"cebpf4jnsgd1na2vs0mg"},{"bike_id":"262bc7cf-b185-4bbb-bec3-cddfd1c51233","system_id":"levelo_inurba_marseille","lat":43.25819,"lon":5.394313,"is_reserved":false,"is_disabled":false,"rental_uris":{"android":"levelo://app?vid=262bc7cf-b185-4bbb-bec3-cddfd1c51233","ios":"levelo://app?vid=262bc7cf-b185-4bbb-bec3-cddfd1c51233"},"vehicle_type_id":"4","last_reported":1741604780,"current_range_meters":6800,"station_id":"ce4bhip2rcd13ifvqft0","pricing_plan_id":"cebpf4jnsgd1na2vs0mg"},{"bike_id":"29b82548-d416-4900-9874-14422b78b248","system_id":"levelo_inurba_marseille","lat":43.33609,"lon":5.41015,"is_reserved":false,"is_disabled":false,"rental_uris":{"android":"levelo://app?vid=29b82548-d416-4900-9874-14422b78b248","ios":"levelo://app?vid=29b82548-d416-4900-9874-14422b78b248"},"vehicle_type_id":"4","last_reported":1741604780,"current_range_meters":7200,"station_id":"ce4bhqh2rcd13ifvqhmg","pricing_plan_id":"cebpf4jnsgd1na2vs0mg"},{"bike_id":"91a2fc2e-9db1-479d-ba3a-5f6e5cc2368e","system_id":"levelo_inurba_marseille","lat":43.29556,"lon":5.42291,"is_reserved":false,"is_disabled":false,"rental_uris":{"android":"levelo://app?vid=91a2fc2e-9db1-479d-ba3a-5f6e5cc2368e","ios":"levelo://app?vid=91a2fc2e-9db1-479d-ba3a-5f6e5cc2368e"},"vehicle_type_id":"4","last_reported":1741604780,"current_range_meters":7200,"station_id":"ce4bhph2rcd13ifvqhdg","pricing_plan_id":"cebpf4jnsgd1na2vs0mg"},{"bike_id":"4711a0d3-184b-4ba2-86aa-fea8964a4a5c","system_id":"levelo_inurba_marseille","lat":43.31079,"lon":5.4244,"is_reserved":false,"is_disabled":false,"rental_uris":{"android":"levelo://app?vid=4711a0d3-184b-4ba2-86aa-fea8964a4a5c","ios":"levelo://app?vid=4711a0d3-184b-4ba2-86aa-fea8964a4a5c"},"vehicle_type_id":"4","last_reported":1741604780,"current_range_meters":7200,"station_id":"ce4bhp92rcd13ifvqhag","pricing_plan_id":"cebpf4jnsgd1na2vs0mg"},{"bike_id":"ede4f5a4-eaae-41e2-9eaf-7c45875ce067","system_id":"levelo_inurba_marseille","lat":43.27948,"lon":5.4105,"is_reserved":false,"is_disabled":false,"rental_uris":{"android":"levelo://app?vid=ede4f5a4-eaae-41e2-9eaf-7c45875ce067","ios":"levelo://app?vid=ede4f5a4-eaae-41e2-9eaf-7c45875ce067"},"vehicle_type_id":"4","last_reported":1741604780,"current_range_meters":8000,"station_id":"ce4bhnp2rcd13ifvqh0g","pricing_plan_id":"cebpf4jnsgd1na2vs0mg"},{"bike_id":"67fc845a-4e54-4c1c-8b59-aae9c41867a4","system_id":"levelo_inurba_marseille","lat":43.27076,"lon":5.422756,"is_reserved":false,"is_disabled":false,"rental_uris":{"android":"levelo://app?vid=67fc845a-4e54-4c1c-8b59-aae9c41867a4","ios":"levelo://app?vid=67fc845a-4e54-4c1c-8b59-aae9c41867a4"},"vehicle_type_id":"4","last_reported":1741604780,"current_range_meters":8000,"station_id":"ce4bhk92rcd13ifvqgb0","pricing_plan_id":"cebpf4jnsgd1na2vs0mg"},{"bike_id":"bd5812cf-eeab-4a40-add3-ef56d6c691f9","system_id":"levelo_inurba_marseille","lat":43.32542,"lon":5.41456,"is_reserved":false,"is_disabled":false,"rental_uris":{"android":"levelo://app?vid=bd5812cf-eeab-4a40-add3-ef56d6c691f9","ios":"levelo://app?vid=bd5812cf-eeab-4a40-add3-ef56d6c691f9"},"vehicle_type_id":"4","last_reported":1741604780,"current_range_meters":8000,"station_id":"ce4bhq12rcd13ifvqhhg","pricing_plan_id":"cebpf4jnsgd1na2vs0mg"},{"bike_id":"9c568637-6711-44fd-8669-128cb4bcaec3","system_id":"levelo_inurba_marseille","lat":43.29213,"lon":5.36083,"is_reserved":false,"is_disabled":false,"rental_uris":{"android":"levelo://app?vid=9c568637-6711-44fd-8669-128cb4bcaec3","ios":"levelo://app?vid=9c568637-6711-44fd-8669-128cb4bcaec3"},"vehicle_type_id":"4","last_reported":1741604780,"current_range_meters":8000,"station_id":"ce4bhbh2rcd13ifvqeqg","pricing_plan_id":"cebpf4jnsgd1na2vs0mg"},{"bike_id":"f5d27d01-effc-4a0c-b4ac-2b42b750aca5","system_id":"levelo_inurba_marseille","lat":43.24564,"lon":5.39524,"is_reserved":false,"is_disabled":false,"rental_uris":{"android":"levelo://app?vid=f5d27d01-effc-4a0c-b4ac-2b42b750aca5","ios":"levelo://app?vid=f5d27d01-effc-4a0c-b4ac-2b42b750aca5"},"vehicle_type_id":"4","last_reported":1741604780,"current_range_meters":8000,"station_id":"ce4bhlp2rcd13ifvqgjg","pricing_plan_id":"cebpf4jnsgd1na2vs0mg"},{"bike_id":"04b2500a-4882-4fae-8908-dff012340e2d","system_id":"levelo_inurba_marseille","lat":43.26928,"lon":5.3893,"is_reserved":false,"is_disabled":false,"rental_uris":{"android":"levelo://app?vid=04b2500a-4882-4fae-8908-dff012340e2d","ios":"levelo://app?vid=04b2500a-4882-4fae-8908-dff012340e2d"},"vehicle_type_id":"4","last_reported":1741604780,"current_range_meters":8400,"station_id":"ce4bhhh2rcd13ifvqfl0","pricing_plan_id":"cebpf4jnsgd1na2vs0mg"},{"bike_id":"527aa410-ea26-42cd-a1e2-d495bc4b19d0","system_id":"levelo_inurba_marseille","lat":43.3138,"lon":5.36689,"is_reserved":false,"is_disabled":true,"rental_uris":{"android":"levelo://app?vid=527aa410-ea26-42cd-a1e2-d495bc4b19d0","ios":"levelo://app?vid=527aa410-ea26-42cd-a1e2-d495bc4b19d0"},"vehicle_type_id":"4","last_reported":1741604780,"current_range_meters":8400,"station_id":"ce4bgr92rcd13ifvqc6g","pricing_plan_id":"cebpf4jnsgd1na2vs0mg"},{"bike_id":"7d50c954-d44b-41f1-914f-3d7b7aef675e","system_id":"levelo_inurba_marseille","lat":43.26226,"lon":5.40447,"is_reserved":false,"is_disabled":false,"rental_uris":{"android":"levelo://app?vid=7d50c954-d44b-41f1-914f-3d7b7aef675e","ios":"levelo://app?vid=7d50c954-d44b-41f1-914f-3d7b7aef675e"},"vehicle_type_id":"4","last_reported":1741604780,"current_range_meters":8400,"station_id":"ce4bhmh2rcd13ifvqgmg","pricing_plan_id":"cebpf4jnsgd1na2vs0mg"},{"bike_id":"6d30fa00-fa73-4a2d-aac6-368b08cd61f0","system_id":"levelo_inurba_marseille","lat":43.31192,"lon":5.37922,"is_reserved":false,"is_disabled":false,"rental_uris":{"android":"levelo://app?vid=6d30fa00-fa73-4a2d-aac6-368b08cd61f0","ios":"levelo://app?vid=6d30fa00-fa73-4a2d-aac6-368b08cd61f0"},"vehicle_type_id":"4","last_reported":1741604780,"current_range_meters":8400,"station_id":"","pricing_plan_id":"cebpf4jnsgd1na2vs0mg"},{"bike_id":"d92923ce-f50f-4a2f-8f7f-be2036a39392","system_id":"levelo_inurba_marseille","lat":43.30895,"lon":5.39645,"is_reserved":false,"is_disabled":false,"rental_uris":{"android":"levelo://app?vid=d92923ce-f50f-4a2f-8f7f-be2036a39392","ios":"levelo://app?vid=d92923ce-f50f-4a2f-8f7f-be2036a39392"},"vehicle_type_id":"4","last_reported":1741604780,"current_range_meters":8800,"station_id":"ce4bh012rcd13ifvqcv0","pricing_plan_id":"cebpf4jnsgd1na2vs0mg"},{"bike_id":"365263c5-5707-4d0b-99e3-506f6a4cceb7","system_id":"levelo_inurba_marseille","lat":43.24035,"lon":5.37712,"is_reserved":false,"is_disabled":true,"rental_uris":{"android":"levelo://app?vid=365263c5-5707-4d0b-99e3-506f6a4cceb7","ios":"levelo://app?vid=365263c5-5707-4d0b-99e3-506f6a4cceb7"},"vehicle_type_id":"4","last_reported":1741604780,"current_range_meters":8800,"station_id":"ce4bhnp2rcd13ifvqgvg","pricing_plan_id":"cebpf4jnsgd1na2vs0mg"},{"bike_id":"7f08542c-3622-4bee-8852-d0974c0ec085","system_id":"levelo_inurba_marseille","lat":43.24148,"lon":5.36365,"is_reserved":false,"is_disabled":false,"rental_uris":{"android":"levelo://app?vid=7f08542c-3622-4bee-8852-d0974c0ec085","ios":"levelo://app?vid=7f08542c-3622-4bee-8852-d0974c0ec085"},"vehicle_type_id":"4","last_reported":1741604780,"current_range_meters":8800,"station_id":"cpo36qri1sfpv3e86is0","pricing_plan_id":"cebpf4jnsgd1na2vs0mg"},{"bike_id":"cd66a824-60af-4ec7-b2c0-3f1b8ee5c4e6","system_id":"levelo_inurba_marseille","lat":43.239464,"lon":5.366171,"is_reserved":false,"is_disabled":false,"rental_uris":{"android":"levelo://app?vid=cd66a824-60af-4ec7-b2c0-3f1b8ee5c4e6","ios":"levelo://app?vid=cd66a824-60af-4ec7-b2c0-3f1b8ee5c4e6"},"vehicle_type_id":"4","last_reported":1741604780,"current_range_meters":8800,"station_id":"ce4bhi12rcd13ifvqfp0","pricing_plan_id":"cebpf4jnsgd1na2vs0mg"},{"bike_id":"87a47d6c-848c-4d62-92e6-90386b100ddd","system_id":"levelo_inurba_marseille","lat":43.271112,"lon":5.389409,"is_reserved":false,"is_disabled":false,"rental_uris":{"android":"levelo://app?vid=87a47d6c-848c-4d62-92e6-90386b100ddd","ios":"levelo://app?vid=87a47d6c-848c-4d62-92e6-90386b100ddd"},"vehicle_type_id":"4","last_reported":1741604780,"current_range_meters":8800,"station_id":"ce4bhhp2rcd13ifvqfm0","pricing_plan_id":"cebpf4jnsgd1na2vs0mg"},{"bike_id":"ebb2d58b-982f-41cd-b65c-668035c69ec1","system_id":"levelo_inurba_marseille","lat":43.30491,"lon":5.37159,"is_reserved":false,"is_disabled":false,"rental_uris":{"android":"levelo://app?vid=ebb2d58b-982f-41cd-b65c-668035c69ec1","ios":"levelo://app?vid=ebb2d58b-982f-41cd-b65c-668035c69ec1"},"vehicle_type_id":"4","last_reported":1741604780,"current_range_meters":8800,"station_id":"","pricing_plan_id":"cebpf4jnsgd1na2vs0mg"},{"bike_id":"61193e8a-8e60-4220-8577-846bbeba5e58","system_id":"levelo_inurba_marseille","lat":43.3142,"lon":5.38412,"is_reserved":false,"is_disabled":false,"rental_uris":{"android":"levelo://app?vid=61193e8a-8e60-4220-8577-846bbeba5e58","ios":"levelo://app?vid=61193e8a-8e60-4220-8577-846bbeba5e58"},"vehicle_type_id":"4","last_reported":1741604780,"current_range_meters":8800,"station_id":"","pricing_plan_id":"cebpf4jnsgd1na2vs0mg"},{"bike_id":"92ba0c90-66bb-40dc-b6e2-b9e697677dee","system_id":"levelo_inurba_marseille","lat":43.26955,"lon":5.38635,"is_reserved":false,"is_disabled":false,"rental_uris":{"android":"levelo://app?vid=92ba0c90-66bb-40dc-b6e2-b9e697677dee","ios":"levelo://app?vid=92ba0c90-66bb-40dc-b6e2-b9e697677dee"},"vehicle_type_id":"4","last_reported":1741604780,"current_range_meters":9200,"station_id":"ce4bhh92rcd13ifvqfh0","pricing_plan_id":"cebpf4jnsgd1na2vs0mg"},{"bike_id":"11f35fc8-bf5a-42db-8ee3-67d16f82ad59","system_id":"levelo_inurba_marseille","lat":43.24072,"lon":5.3773,"is_reserved":false,"is_disabled":false,"rental_uris":{"android":"levelo://app?vid=11f35fc8-bf5a-42db-8ee3-67d16f82ad59","ios":"levelo://app?vid=11f35fc8-bf5a-42db-8ee3-67d16f82ad59"},"vehicle_type_id":"4","last_reported":1741604780,"current_range_meters":9200,"station_id":"ce4bhnp2rcd13ifvqgvg","pricing_plan_id":"cebpf4jnsgd1na2vs0mg"},{"bike_id":"435bfe2a-0139-4e21-ab4f-977998275987","system_id":"levelo_inurba_marseille","lat":43.25951,"lon":5.40897,"is_reserved":false,"is_disabled":false,"rental_uris":{"android":"levelo://app?vid=435bfe2a-0139-4e21-ab4f-977998275987","ios":"levelo://app?vid=435bfe2a-0139-4e21-ab4f-977998275987"},"vehicle_type_id":"4","last_reported":1741604780,"current_range_meters":9200,"station_id":"ce4bhm92rcd13ifvqglg","pricing_plan_id":"cebpf4jnsgd1na2vs0mg"},{"bike_id":"089fa96c-06f0-4a31-aa59-e3a83d994d6c","system_id":"levelo_inurba_marseille","lat":43.28166,"lon":5.42656,"is_reserved":false,"is_disabled":true,"rental_uris":{"android":"levelo://app?vid=089fa96c-06f0-4a31-aa59-e3a83d994d6c","ios":"levelo://app?vid=089fa96c-06f0-4a31-aa59-e3a83d994d6c"},"vehicle_type_id":"4","last_reported":1741604780,"current_range_meters":9200,"station_id":"ce4bhnh2rcd13ifvqgug","pricing_plan_id":"cebpf4jnsgd1na2vs0mg"},{"bike_id":"60f4da96-da64-488c-98f7-c9a61709620a","system_id":"levelo_inurba_marseille","lat":43.25583,"lon":5.38243,"is_reserved":false,"is_disabled":false,"rental_uris":{"android":"levelo://app?vid=60f4da96-da64-488c-98f7-c9a61709620a","ios":"levelo://app?vid=60f4da96-da64-488c-98f7-c9a61709620a"},"vehicle_type_id":"4","last_reported":1741604780,"current_range_meters":9200,"station_id":"ce4bhih2rcd13ifvqfs0","pricing_plan_id":"cebpf4jnsgd1na2vs0mg"},{"bike_id":"26ef64d5-1028-4e11-9762-f813409ca640","system_id":"levelo_inurba_marseille","lat":43.25668,"lon":5.41136,"is_reserved":false,"is_disabled":true,"rental_uris":{"android":"levelo://app?vid=26ef64d5-1028-4e11-9762-f813409ca640","ios":"levelo://app?vid=26ef64d5-1028-4e11-9762-f813409ca640"},"vehicle_type_id":"4","last_reported":1741604780,"current_range_meters":9200,"station_id":"","pricing_plan_id":"cebpf4jnsgd1na2vs0mg"},{"bike_id":"91f0b97b-efcf-46d9-8bbf-c1ba93008778","system_id":"levelo_inurba_marseille","lat":43.27309,"lon":5.39084,"is_reserved":false,"is_disabled":false,"rental_uris":{"android":"levelo://app?vid=91f0b97b-efcf-46d9-8bbf-c1ba93008778","ios":"levelo://app?vid=91f0b97b-efcf-46d9-8bbf-c1ba93008778"},"vehicle_type_id":"4","last_reported":1741604780,"current_range_meters":9200,"station_id":"ce4bhgp2rcd13ifvqfe0","pricing_plan_id":"cebpf4jnsgd1na2vs0mg"},{"bike_id":"c528ac76-1f15-4207-8438-1a21104a978d","system_id":"levelo_inurba_marseille","lat":43.25006,"lon":5.38949,"is_reserved":false,"is_disabled":false,"rental_uris":{"android":"levelo://app?vid=c528ac76-1f15-4207-8438-1a21104a978d","ios":"levelo://app?vid=c528ac76-1f15-4207-8438-1a21104a978d"},"vehicle_type_id":"4","last_reported":1741604780,"current_range_meters":9200,"station_id":"ce4bhgp2rcd13ifvqfd0","pricing_plan_id":"cebpf4jnsgd1na2vs0mg"},{"bike_id":"b56cf960-9c27-45f8-af0a-7c584f0dc22e","system_id":"levelo_inurba_marseille","lat":43.27992,"lon":5.41659,"is_reserved":false,"is_disabled":false,"rental_uris":{"android":"levelo://app?vid=b56cf960-9c27-45f8-af0a-7c584f0dc22e","ios":"levelo://app?vid=b56cf960-9c27-45f8-af0a-7c584f0dc22e"},"vehicle_type_id":"4","last_reported":1741604780,"current_range_meters":9200,"station_id":"ce4bho12rcd13ifvqh1g","pricing_plan_id":"cebpf4jnsgd1na2vs0mg"},{"bike_id":"9e9f5901-1b24-4e5d-b434-fa6bced1daea","system_id":"levelo_inurba_marseille","lat":43.27961,"lon":5.41052,"is_reserved":false,"is_disabled":false,"rental_uris":{"android":"levelo://app?vid=9e9f5901-1b24-4e5d-b434-fa6bced1daea","ios":"levelo://app?vid=9e9f5901-1b24-4e5d-b434-fa6bced1daea"},"vehicle_type_id":"4","last_reported":1741604780,"current_range_meters":9200,"station_id":"ce4bhnp2rcd13ifvqh0g","pricing_plan_id":"cebpf4jnsgd1na2vs0mg"},{"bike_id":"f37e3c0b-d30c-4aa8-93b4-7f3f396e8df9","system_id":"levelo_inurba_marseille","lat":43.290153,"lon":5.381315,"is_reserved":false,"is_disabled":false,"rental_uris":{"android":"levelo://app?vid=f37e3c0b-d30c-4aa8-93b4-7f3f396e8df9","ios":"levelo://app?vid=f37e3c0b-d30c-4aa8-93b4-7f3f396e8df9"},"vehicle_type_id":"4","last_reported":1741604780,"current_range_meters":9200,"station_id":"ce4bhh12rcd13ifvqff0","pricing_plan_id":"cebpf4jnsgd1na2vs0mg"},{"bike_id":"dff46c56-4d93-41bc-8468-a48e8097d9cb","system_id":"levelo_inurba_marseille","lat":43.24177,"lon":5.39727,"is_reserved":false,"is_disabled":false,"rental_uris":{"android":"levelo://app?vid=dff46c56-4d93-41bc-8468-a48e8097d9cb","ios":"levelo://app?vid=dff46c56-4d93-41bc-8468-a48e8097d9cb"},"vehicle_type_id":"4","last_reported":1741604780,"current_range_meters":9600,"station_id":"ce4bhn12rcd13ifvqgpg","pricing_plan_id":"cebpf4jnsgd1na2vs0mg"},{"bike_id":"1f72adc6-3d1a-4fad-a905-cb9dcd596e26","system_id":"levelo_inurba_marseille","lat":43.23856,"lon":5.43567,"is_reserved":false,"is_disabled":false,"rental_uris":{"android":"levelo://app?vid=1f72adc6-3d1a-4fad-a905-cb9dcd596e26","ios":"levelo://app?vid=1f72adc6-3d1a-4fad-a905-cb9dcd596e26"},"vehicle_type_id":"4","last_reported":1741604780,"current_range_meters":9200,"station_id":"","pricing_plan_id":"cebpf4jnsgd1na2vs0mg"},{"bike_id":"917397a0-166a-47c3-83dd-f57048a6dd18","system_id":"levelo_inurba_marseille","lat":43.31112,"lon":5.37763,"is_reserved":false,"is_disabled":false,"rental_uris":{"android":"levelo://app?vid=917397a0-166a-47c3-83dd-f57048a6dd18","ios":"levelo://app?vid=917397a0-166a-47c3-83dd-f57048a6dd18"},"vehicle_type_id":"4","last_reported":1741604780,"current_range_meters":9600,"station_id":"ce4bgt92rcd13ifvqcg0","pricing_plan_id":"cebpf4jnsgd1na2vs0mg"},{"bike_id":"ef6303de-f84a-4b1f-9060-2a8d28e015bb","system_id":"levelo_inurba_marseille","lat":43.24075,"lon":5.37713,"is_reserved":false,"is_disabled":false,"rental_uris":{"android":"levelo://app?vid=ef6303de-f84a-4b1f-9060-2a8d28e015bb","ios":"levelo://app?vid=ef6303de-f84a-4b1f-9060-2a8d28e015bb"},"vehicle_type_id":"4","last_reported":1741604780,"current_range_meters":9600,"station_id":"ce4bhnp2rcd13ifvqgvg","pricing_plan_id":"cebpf4jnsgd1na2vs0mg"},{"bike_id":"bb06a9b7-db6a-4e36-aa90-ecce79fcf121","system_id":"levelo_inurba_marseille","lat":43.23145,"lon":5.43709,"is_reserved":false,"is_disabled":false,"rental_uris":{"android":"levelo://app?vid=bb06a9b7-db6a-4e36-aa90-ecce79fcf121","ios":"levelo://app?vid=bb06a9b7-db6a-4e36-aa90-ecce79fcf121"},"vehicle_type_id":"4","last_reported":1741604780,"current_range_meters":9600,"station_id":"ce4bhmp2rcd13ifvqgog","pricing_plan_id":"cebpf4jnsgd1na2vs0mg"},{"bike_id":"ee0cdd72-5196-4ccc-9ded-fe3798c46ce2","system_id":"levelo_inurba_marseille","lat":43.25834,"lon":5.39419,"is_reserved":false,"is_disabled":false,"rental_uris":{"android":"levelo://app?vid=ee0cdd72-5196-4ccc-9ded-fe3798c46ce2","ios":"levelo://app?vid=ee0cdd72-5196-4ccc-9ded-fe3798c46ce2"},"vehicle_type_id":"4","last_reported":1741604780,"current_range_meters":9200,"station_id":"ce4bhip2rcd13ifvqft0","pricing_plan_id":"cebpf4jnsgd1na2vs0mg"},{"bike_id":"38098bdb-4e5d-4784-a7f5-cb533339c85c","system_id":"levelo_inurba_marseille","lat":43.29602,"lon":5.38087,"is_reserved":false,"is_disabled":true,"rental_uris":{"android":"levelo://app?vid=38098bdb-4e5d-4784-a7f5-cb533339c85c","ios":"levelo://app?vid=38098bdb-4e5d-4784-a7f5-cb533339c85c"},"vehicle_type_id":"4","last_reported":1741604780,"current_range_meters":9600,"station_id":"ce4bgl12rcd13ifvqbo0","pricing_plan_id":"cebpf4jnsgd1na2vs0mg"},{"bike_id":"565245af-1098-4207-83d1-fdf36ab786b5","system_id":"levelo_inurba_marseille","lat":43.28084,"lon":5.44172,"is_reserved":false,"is_disabled":false,"rental_uris":{"android":"levelo://app?vid=565245af-1098-4207-83d1-fdf36ab786b5","ios":"levelo://app?vid=565245af-1098-4207-83d1-fdf36ab786b5"},"vehicle_type_id":"4","last_reported":1741604780,"current_range_meters":9600,"station_id":"","pricing_plan_id":"cebpf4jnsgd1na2vs0mg"},{"bike_id":"3ed0c8ba-c7f7-40d8-9403-a3f96d6af6b9","system_id":"levelo_inurba_marseille","lat":43.3236,"lon":5.36749,"is_reserved":false,"is_disabled":false,"rental_uris":{"android":"levelo://app?vid=3ed0c8ba-c7f7-40d8-9403-a3f96d6af6b9","ios":"levelo://app?vid=3ed0c8ba-c7f7-40d8-9403-a3f96d6af6b9"},"vehicle_type_id":"4","last_reported":1741604780,"current_range_meters":9600,"station_id":"ce4bhsh2rcd13ifvqi2g","pricing_plan_id":"cebpf4jnsgd1na2vs0mg"},{"bike_id":"98de571b-b137-41e1-a957-f1f43c068d6a","system_id":"levelo_inurba_marseille","lat":43.32478,"lon":5.36579,"is_reserved":false,"is_disabled":false,"rental_uris":{"android":"levelo://app?vid=98de571b-b137-41e1-a957-f1f43c068d6a","ios":"levelo://app?vid=98de571b-b137-41e1-a957-f1f43c068d6a"},"vehicle_type_id":"4","last_reported":1741604780,"current_range_meters":10000,"station_id":"ce4bhs12rcd13ifvqhvg","pricing_plan_id":"cebpf4jnsgd1na2vs0mg"},{"bike_id":"199cb7b2-857a-4db4-b08b-30cc2dc0c4f3","system_id":"levelo_inurba_marseille","lat":43.31713,"lon":5.43708,"is_reserved":false,"is_disabled":false,"rental_uris":{"android":"levelo://app?vid=199cb7b2-857a-4db4-b08b-30cc2dc0c4f3","ios":"levelo://app?vid=199cb7b2-857a-4db4-b08b-30cc2dc0c4f3"},"vehicle_type_id":"4","last_reported":1741604780,"current_range_meters":10000,"station_id":"ce4bhp92rcd13ifvqhcg","pricing_plan_id":"cebpf4jnsgd1na2vs0mg"},{"bike_id":"b96ca0c2-faba-4f85-b26f-dde568b5a685","system_id":"levelo_inurba_marseille","lat":43.24081,"lon":5.37748,"is_reserved":false,"is_disabled":false,"rental_uris":{"android":"levelo://app?vid=b96ca0c2-faba-4f85-b26f-dde568b5a685","ios":"levelo://app?vid=b96ca0c2-faba-4f85-b26f-dde568b5a685"},"vehicle_type_id":"4","last_reported":1741604780,"current_range_meters":10000,"station_id":"ce4bhnp2rcd13ifvqgvg","pricing_plan_id":"cebpf4jnsgd1na2vs0mg"},{"bike_id":"17e71706-a905-44b0-b56a-9b68d9a70c1b","system_id":"levelo_inurba_marseille","lat":43.25921,"lon":5.40871,"is_reserved":false,"is_disabled":false,"rental_uris":{"android":"levelo://app?vid=17e71706-a905-44b0-b56a-9b68d9a70c1b","ios":"levelo://app?vid=17e71706-a905-44b0-b56a-9b68d9a70c1b"},"vehicle_type_id":"4","last_reported":1741604780,"current_range_meters":10000,"station_id":"ce4bhm92rcd13ifvqglg","pricing_plan_id":"cebpf4jnsgd1na2vs0mg"},{"bike_id":"a249eb15-8351-4e17-b802-b3b06f8f2d64","system_id":"levelo_inurba_marseille","lat":43.32465,"lon":5.36569,"is_reserved":false,"is_disabled":false,"rental_uris":{"android":"levelo://app?vid=a249eb15-8351-4e17-b802-b3b06f8f2d64","ios":"levelo://app?vid=a249eb15-8351-4e17-b802-b3b06f8f2d64"},"vehicle_type_id":"4","last_reported":1741604780,"current_range_meters":10000,"station_id":"ce4bhs12rcd13ifvqhvg","pricing_plan_id":"cebpf4jnsgd1na2vs0mg"},{"bike_id":"a37d42aa-085d-4a56-8e08-eaf93bfe5e2b","system_id":"levelo_inurba_marseille","lat":43.31178,"lon":5.38701,"is_reserved":false,"is_disabled":true,"rental_uris":{"android":"levelo://app?vid=a37d42aa-085d-4a56-8e08-eaf93bfe5e2b","ios":"levelo://app?vid=a37d42aa-085d-4a56-8e08-eaf93bfe5e2b"},"vehicle_type_id":"4","last_reported":1741604780,"current_range_meters":10000,"station_id":"ce4bgv12rcd13ifvqcp0","pricing_plan_id":"cebpf4jnsgd1na2vs0mg"},{"bike_id":"ba9f0782-0311-4017-9857-73556b7dcb72","system_id":"levelo_inurba_marseille","lat":43.29858,"lon":5.36284,"is_reserved":false,"is_disabled":false,"rental_uris":{"android":"levelo://app?vid=ba9f0782-0311-4017-9857-73556b7dcb72","ios":"levelo://app?vid=ba9f0782-0311-4017-9857-73556b7dcb72"},"vehicle_type_id":"4","last_reported":1741604780,"current_range_meters":10800,"station_id":"ce4bgpp2rcd13ifvqc3g","pricing_plan_id":"cebpf4jnsgd1na2vs0mg"},{"bike_id":"4249d749-dc2d-4cdb-ab1b-850a9979641c","system_id":"levelo_inurba_marseille","lat":43.26566,"lon":5.39002,"is_reserved":false,"is_disabled":true,"rental_uris":{"android":"levelo://app?vid=4249d749-dc2d-4cdb-ab1b-850a9979641c","ios":"levelo://app?vid=4249d749-dc2d-4cdb-ab1b-850a9979641c"},"vehicle_type_id":"4","last_reported":1741604780,"current_range_meters":10800,"station_id":"ce4bhe12rcd13ifvqf30","pricing_plan_id":"cebpf4jnsgd1na2vs0mg"},{"bike_id":"81bc8ec7-203d-452b-a4e8-595b7bbc2677","system_id":"levelo_inurba_marseille","lat":43.289995,"lon":5.356108,"is_reserved":false,"is_disabled":false,"rental_uris":{"android":"levelo://app?vid=81bc8ec7-203d-452b-a4e8-595b7bbc2677","ios":"levelo://app?vid=81bc8ec7-203d-452b-a4e8-595b7bbc2677"},"vehicle_type_id":"4","last_reported":1741604780,"current_range_meters":10800,"station_id":"ce4bhb92rcd13ifvqen0","pricing_plan_id":"cebpf4jnsgd1na2vs0mg"},{"bike_id":"65ebf940-f6f1-4ba2-8b75-2b2127dd3199","system_id":"levelo_inurba_marseille","lat":43.24997,"lon":5.38916,"is_reserved":false,"is_disabled":false,"rental_uris":{"android":"levelo://app?vid=65ebf940-f6f1-4ba2-8b75-2b2127dd3199","ios":"levelo://app?vid=65ebf940-f6f1-4ba2-8b75-2b2127dd3199"},"vehicle_type_id":"4","last_reported":1741604780,"current_range_meters":10800,"station_id":"ce4bhgp2rcd13ifvqfd0","pricing_plan_id":"cebpf4jnsgd1na2vs0mg"},{"bike_id":"d723d96e-6d61-47b3-af69-3008291d1459","system_id":"levelo_inurba_marseille","lat":43.26702,"lon":5.38234,"is_reserved":false,"is_disabled":false,"rental_uris":{"android":"levelo://app?vid=d723d96e-6d61-47b3-af69-3008291d1459","ios":"levelo://app?vid=d723d96e-6d61-47b3-af69-3008291d1459"},"vehicle_type_id":"4","last_reported":1741604780,"current_range_meters":10800,"station_id":"ce4bhg92rcd13ifvqf90","pricing_plan_id":"cebpf4jnsgd1na2vs0mg"},{"bike_id":"9f924323-5878-434d-90ab-1ce7dacff86e","system_id":"levelo_inurba_marseille","lat":43.30281,"lon":5.37703,"is_reserved":false,"is_disabled":false,"rental_uris":{"android":"levelo://app?vid=9f924323-5878-434d-90ab-1ce7dacff86e","ios":"levelo://app?vid=9f924323-5878-434d-90ab-1ce7dacff86e"},"vehicle_type_id":"4","last_reported":1741604780,"current_range_meters":11200,"station_id":"ce4bguh2rcd13ifvqcj0","pricing_plan_id":"cebpf4jnsgd1na2vs0mg"},{"bike_id":"355fc3de-5789-452e-9280-7fd270c5b2c7","system_id":"levelo_inurba_marseille","lat":43.29792,"lon":5.40408,"is_reserved":false,"is_disabled":false,"rental_uris":{"android":"levelo://app?vid=355fc3de-5789-452e-9280-7fd270c5b2c7","ios":"levelo://app?vid=355fc3de-5789-452e-9280-7fd270c5b2c7"},"vehicle_type_id":"4","last_reported":1741604780,"current_range_meters":10800,"station_id":"ce4bh112rcd13ifvqd90","pricing_plan_id":"cebpf4jnsgd1na2vs0mg"},{"bike_id":"4a66d5ab-a3d0-4d45-8a39-31771982349e","system_id":"levelo_inurba_marseille","lat":43.26232,"lon":5.40445,"is_reserved":false,"is_disabled":false,"rental_uris":{"android":"levelo://app?vid=4a66d5ab-a3d0-4d45-8a39-31771982349e","ios":"levelo://app?vid=4a66d5ab-a3d0-4d45-8a39-31771982349e"},"vehicle_type_id":"4","last_reported":1741604780,"current_range_meters":11200,"station_id":"ce4bhmh2rcd13ifvqgmg","pricing_plan_id":"cebpf4jnsgd1na2vs0mg"},{"bike_id":"5bf1fd3d-106c-4b23-b455-ae5552f33fa7","system_id":"levelo_inurba_marseille","lat":43.25082,"lon":5.39501,"is_reserved":false,"is_disabled":false,"rental_uris":{"android":"levelo://app?vid=5bf1fd3d-106c-4b23-b455-ae5552f33fa7","ios":"levelo://app?vid=5bf1fd3d-106c-4b23-b455-ae5552f33fa7"},"vehicle_type_id":"4","last_reported":1741604780,"current_range_meters":11200,"station_id":"ce4bhm12rcd13ifvqgkg","pricing_plan_id":"cebpf4jnsgd1na2vs0mg"},{"bike_id":"4ec5d479-c92c-4224-8409-3cb864eeca2a","system_id":"levelo_inurba_marseille","lat":43.28175,"lon":5.40464,"is_reserved":false,"is_disabled":false,"rental_uris":{"android":"levelo://app?vid=4ec5d479-c92c-4224-8409-3cb864eeca2a","ios":"levelo://app?vid=4ec5d479-c92c-4224-8409-3cb864eeca2a"},"vehicle_type_id":"4","last_reported":1741604780,"current_range_meters":11200,"station_id":"","pricing_plan_id":"cebpf4jnsgd1na2vs0mg"},{"bike_id":"8f346100-a64e-462b-8fed-e4a49dc78d50","system_id":"levelo_inurba_marseille","lat":43.24061,"lon":5.37701,"is_reserved":false,"is_disabled":false,"rental_uris":{"android":"levelo://app?vid=8f346100-a64e-462b-8fed-e4a49dc78d50","ios":"levelo://app?vid=8f346100-a64e-462b-8fed-e4a49dc78d50"},"vehicle_type_id":"4","last_reported":1741604780,"current_range_meters":11200,"station_id":"ce4bhnp2rcd13ifvqgvg","pricing_plan_id":"cebpf4jnsgd1na2vs0mg"},{"bike_id":"a5c5ade0-6f33-45a7-beaf-3545d30425b1","system_id":"levelo_inurba_marseille","lat":43.2406,"lon":5.37724,"is_reserved":false,"is_disabled":false,"rental_uris":{"android":"levelo://app?vid=a5c5ade0-6f33-45a7-beaf-3545d30425b1","ios":"levelo://app?vid=a5c5ade0-6f33-45a7-beaf-3545d30425b1"},"vehicle_type_id":"4","last_reported":1741604780,"current_range_meters":11200,"station_id":"ce4bhnp2rcd13ifvqgvg","pricing_plan_id":"cebpf4jnsgd1na2vs0mg"},{"bike_id":"075be894-d272-4532-a157-af4f02ee78bd","system_id":"levelo_inurba_marseille","lat":43.24088,"lon":5.37784,"is_reserved":false,"is_disabled":false,"rental_uris":{"android":"levelo://app?vid=075be894-d272-4532-a157-af4f02ee78bd","ios":"levelo://app?vid=075be894-d272-4532-a157-af4f02ee78bd"},"vehicle_type_id":"4","last_reported":1741604780,"current_range_meters":11600,"station_id":"ce4bhnp2rcd13ifvqgvg","pricing_plan_id":"cebpf4jnsgd1na2vs0mg"},{"bike_id":"906c6e5a-4ec6-4885-afda-48adb50c51d3","system_id":"levelo_inurba_marseille","lat":43.2439,"lon":5.37051,"is_reserved":false,"is_disabled":false,"rental_uris":{"android":"levelo://app?vid=906c6e5a-4ec6-4885-afda-48adb50c51d3","ios":"levelo://app?vid=906c6e5a-4ec6-4885-afda-48adb50c51d3"},"vehicle_type_id":"4","last_reported":1741604780,"current_range_meters":11600,"station_id":"ce4bhhh2rcd13ifvqfk0","pricing_plan_id":"cebpf4jnsgd1na2vs0mg"},{"bike_id":"82b90cf3-ee5f-4f27-840b-552d52b67d5b","system_id":"levelo_inurba_marseille","lat":43.293008,"lon":5.37466,"is_reserved":false,"is_disabled":false,"rental_uris":{"android":"levelo://app?vid=82b90cf3-ee5f-4f27-840b-552d52b67d5b","ios":"levelo://app?vid=82b90cf3-ee5f-4f27-840b-552d52b67d5b"},"vehicle_type_id":"4","last_reported":1741604780,"current_range_meters":11600,"station_id":"ce4bgi12rcd13ifvqb70","pricing_plan_id":"cebpf4jnsgd1na2vs0mg"},{"bike_id":"c1c80c13-20cb-44f5-aa30-5c8aedb294e8","system_id":"levelo_inurba_marseille","lat":43.32094,"lon":5.36781,"is_reserved":false,"is_disabled":false,"rental_uris":{"android":"levelo://app?vid=c1c80c13-20cb-44f5-aa30-5c8aedb294e8","ios":"levelo://app?vid=c1c80c13-20cb-44f5-aa30-5c8aedb294e8"},"vehicle_type_id":"4","last_reported":1741604780,"current_range_meters":11600,"station_id":"ce4bhrh2rcd13ifvqhug","pricing_plan_id":"cebpf4jnsgd1na2vs0mg"},{"bike_id":"c218afb3-a92d-4e79-b012-1f0739379522","system_id":"levelo_inurba_marseille","lat":43.23193,"lon":5.35554,"is_reserved":false,"is_disabled":false,"rental_uris":{"android":"levelo://app?vid=c218afb3-a92d-4e79-b012-1f0739379522","ios":"levelo://app?vid=c218afb3-a92d-4e79-b012-1f0739379522"},"vehicle_type_id":"4","last_reported":1741604780,"current_range_meters":11600,"station_id":"ce4bhu92rcd13ifvqi70","pricing_plan_id":"cebpf4jnsgd1na2vs0mg"},{"bike_id":"ae4913d3-c7b3-4e3b-8b0e-9eedefc8bcf1","system_id":"levelo_inurba_marseille","lat":43.31335,"lon":5.38841,"is_reserved":false,"is_disabled":false,"rental_uris":{"android":"levelo://app?vid=ae4913d3-c7b3-4e3b-8b0e-9eedefc8bcf1","ios":"levelo://app?vid=ae4913d3-c7b3-4e3b-8b0e-9eedefc8bcf1"},"vehicle_type_id":"4","last_reported":1741604780,"current_range_meters":12000,"station_id":"","pricing_plan_id":"cebpf4jnsgd1na2vs0mg"},{"bike_id":"f69b7152-3937-413e-a7e7-a1fcd79986be","system_id":"levelo_inurba_marseille","lat":43.32098,"lon":5.36787,"is_reserved":false,"is_disabled":false,"rental_uris":{"android":"levelo://app?vid=f69b7152-3937-413e-a7e7-a1fcd79986be","ios":"levelo://app?vid=f69b7152-3937-413e-a7e7-a1fcd79986be"},"vehicle_type_id":"4","last_reported":1741604780,"current_range_meters":12000,"station_id":"ce4bhrh2rcd13ifvqhug","pricing_plan_id":"cebpf4jnsgd1na2vs0mg"},{"bike_id":"eaf8bb79-b1d4-4d7f-b353-87eb0b4402dc","system_id":"levelo_inurba_marseille","lat":43.292,"lon":5.35811,"is_reserved":false,"is_disabled":false,"rental_uris":{"android":"levelo://app?vid=eaf8bb79-b1d4-4d7f-b353-87eb0b4402dc","ios":"levelo://app?vid=eaf8bb79-b1d4-4d7f-b353-87eb0b4402dc"},"vehicle_type_id":"4","last_reported":1741604780,"current_range_meters":12000,"station_id":"ce4bhb12rcd13ifvqel0","pricing_plan_id":"cebpf4jnsgd1na2vs0mg"},{"bike_id":"eb47db7d-a126-4436-9aad-27bc82558fc2","system_id":"levelo_inurba_marseille","lat":43.24077,"lon":5.37757,"is_reserved":false,"is_disabled":false,"rental_uris":{"android":"levelo://app?vid=eb47db7d-a126-4436-9aad-27bc82558fc2","ios":"levelo://app?vid=eb47db7d-a126-4436-9aad-27bc82558fc2"},"vehicle_type_id":"4","last_reported":1741604780,"current_range_meters":12000,"station_id":"ce4bhnp2rcd13ifvqgvg","pricing_plan_id":"cebpf4jnsgd1na2vs0mg"},{"bike_id":"e1464fd1-88dd-4217-9b48-8798f8d7a4bc","system_id":"levelo_inurba_marseille","lat":43.243892,"lon":5.370574,"is_reserved":false,"is_disabled":false,"rental_uris":{"android":"levelo://app?vid=e1464fd1-88dd-4217-9b48-8798f8d7a4bc","ios":"levelo://app?vid=e1464fd1-88dd-4217-9b48-8798f8d7a4bc"},"vehicle_type_id":"4","last_reported":1741604780,"current_range_meters":12000,"station_id":"ce4bhhh2rcd13ifvqfk0","pricing_plan_id":"cebpf4jnsgd1na2vs0mg"},{"bike_id":"4491a1e2-eb06-49d1-bf0c-ffab94d6b1ae","system_id":"levelo_inurba_marseille","lat":43.24171,"lon":5.39723,"is_reserved":false,"is_disabled":true,"rental_uris":{"android":"levelo://app?vid=4491a1e2-eb06-49d1-bf0c-ffab94d6b1ae","ios":"levelo://app?vid=4491a1e2-eb06-49d1-bf0c-ffab94d6b1ae"},"vehicle_type_id":"4","last_reported":1741604780,"current_range_meters":12400,"station_id":"ce4bhn12rcd13ifvqgpg","pricing_plan_id":"cebpf4jnsgd1na2vs0mg"},{"bike_id":"546628a2-a28e-4907-83a1-71e9aa739480","system_id":"levelo_inurba_marseille","lat":43.3079,"lon":5.37658,"is_reserved":false,"is_disabled":true,"rental_uris":{"android":"levelo://app?vid=546628a2-a28e-4907-83a1-71e9aa739480","ios":"levelo://app?vid=546628a2-a28e-4907-83a1-71e9aa739480"},"vehicle_type_id":"4","last_reported":1741604780,"current_range_meters":12400,"station_id":"ce4bgv92rcd13ifvqcq0","pricing_plan_id":"cebpf4jnsgd1na2vs0mg"},{"bike_id":"22e6b03a-4ede-440e-a1aa-6617e4288f96","system_id":"levelo_inurba_marseille","lat":43.25923,"lon":5.40902,"is_reserved":false,"is_disabled":false,"rental_uris":{"android":"levelo://app?vid=22e6b03a-4ede-440e-a1aa-6617e4288f96","ios":"levelo://app?vid=22e6b03a-4ede-440e-a1aa-6617e4288f96"},"vehicle_type_id":"4","last_reported":1741604780,"current_range_meters":12400,"station_id":"ce4bhm92rcd13ifvqglg","pricing_plan_id":"cebpf4jnsgd1na2vs0mg"},{"bike_id":"22c7c0df-2c7b-4f24-b11d-161b2b67a83f","system_id":"levelo_inurba_marseille","lat":43.25023,"lon":5.38934,"is_reserved":false,"is_disabled":false,"rental_uris":{"android":"levelo://app?vid=22c7c0df-2c7b-4f24-b11d-161b2b67a83f","ios":"levelo://app?vid=22c7c0df-2c7b-4f24-b11d-161b2b67a83f"},"vehicle_type_id":"4","last_reported":1741604780,"current_range_meters":12400,"station_id":"ce4bhgp2rcd13ifvqfd0","pricing_plan_id":"cebpf4jnsgd1na2vs0mg"},{"bike_id":"5168a913-5224-4ddf-8293-e2c5484c5bf7","system_id":"levelo_inurba_marseille","lat":43.2559,"lon":5.38241,"is_reserved":false,"is_disabled":false,"rental_uris":{"android":"levelo://app?vid=5168a913-5224-4ddf-8293-e2c5484c5bf7","ios":"levelo://app?vid=5168a913-5224-4ddf-8293-e2c5484c5bf7"},"vehicle_type_id":"4","last_reported":1741604780,"current_range_meters":12400,"station_id":"ce4bhih2rcd13ifvqfs0","pricing_plan_id":"cebpf4jnsgd1na2vs0mg"},{"bike_id":"5698e0d2-f454-4a4a-b63e-d168e01b0d47","system_id":"levelo_inurba_marseille","lat":43.24695,"lon":5.38162,"is_reserved":false,"is_disabled":false,"rental_uris":{"android":"levelo://app?vid=5698e0d2-f454-4a4a-b63e-d168e01b0d47","ios":"levelo://app?vid=5698e0d2-f454-4a4a-b63e-d168e01b0d47"},"vehicle_type_id":"4","last_reported":1741604780,"current_range_meters":12400,"station_id":"ce4bhih2rcd13ifvqfr0","pricing_plan_id":"cebpf4jnsgd1na2vs0mg"},{"bike_id":"863fe8dd-e693-4f8e-84ce-2fd09c5d38bc","system_id":"levelo_inurba_marseille","lat":43.24983,"lon":5.38912,"is_reserved":false,"is_disabled":false,"rental_uris":{"android":"levelo://app?vid=863fe8dd-e693-4f8e-84ce-2fd09c5d38bc","ios":"levelo://app?vid=863fe8dd-e693-4f8e-84ce-2fd09c5d38bc"},"vehicle_type_id":"4","last_reported":1741604780,"current_range_meters":12800,"station_id":"ce4bhgp2rcd13ifvqfd0","pricing_plan_id":"cebpf4jnsgd1na2vs0mg"},{"bike_id":"787941c7-68e4-4a9e-b1f1-d3bf469258e1","system_id":"levelo_inurba_marseille","lat":43.2418,"lon":5.39731,"is_reserved":false,"is_disabled":false,"rental_uris":{"android":"levelo://app?vid=787941c7-68e4-4a9e-b1f1-d3bf469258e1","ios":"levelo://app?vid=787941c7-68e4-4a9e-b1f1-d3bf469258e1"},"vehicle_type_id":"4","last_reported":1741604780,"current_range_meters":12800,"station_id":"ce4bhn12rcd13ifvqgpg","pricing_plan_id":"cebpf4jnsgd1na2vs0mg"},{"bike_id":"26efa438-47f1-437c-a262-70d3b8dce7fa","system_id":"levelo_inurba_marseille","lat":43.28421,"lon":5.34979,"is_reserved":false,"is_disabled":true,"rental_uris":{"android":"levelo://app?vid=26efa438-47f1-437c-a262-70d3b8dce7fa","ios":"levelo://app?vid=26efa438-47f1-437c-a262-70d3b8dce7fa"},"vehicle_type_id":"4","last_reported":1741604780,"current_range_meters":12800,"station_id":"ce4bhbh2rcd13ifvqepg","pricing_plan_id":"cebpf4jnsgd1na2vs0mg"},{"bike_id":"4333d477-da3f-4e97-bed1-a0b96932fe53","system_id":"levelo_inurba_marseille","lat":43.23153,"lon":5.43708,"is_reserved":false,"is_disabled":false,"rental_uris":{"android":"levelo://app?vid=4333d477-da3f-4e97-bed1-a0b96932fe53","ios":"levelo://app?vid=4333d477-da3f-4e97-bed1-a0b96932fe53"},"vehicle_type_id":"4","last_reported":1741604780,"current_range_meters":12800,"station_id":"ce4bhmp2rcd13ifvqgog","pricing_plan_id":"cebpf4jnsgd1na2vs0mg"},{"bike_id":"80771939-f406-42f7-81c5-33180fd8a338","system_id":"levelo_inurba_marseille","lat":43.232,"lon":5.35551,"is_reserved":false,"is_disabled":false,"rental_uris":{"android":"levelo://app?vid=80771939-f406-42f7-81c5-33180fd8a338","ios":"levelo://app?vid=80771939-f406-42f7-81c5-33180fd8a338"},"vehicle_type_id":"4","last_reported":1741604780,"current_range_meters":12800,"station_id":"ce4bhu92rcd13ifvqi70","pricing_plan_id":"cebpf4jnsgd1na2vs0mg"},{"bike_id":"caeb1ed2-b70b-481f-b341-ccaa84ec7ae8","system_id":"levelo_inurba_marseille","lat":43.246771,"lon":5.381676,"is_reserved":false,"is_disabled":false,"rental_uris":{"android":"levelo://app?vid=caeb1ed2-b70b-481f-b341-ccaa84ec7ae8","ios":"levelo://app?vid=caeb1ed2-b70b-481f-b341-ccaa84ec7ae8"},"vehicle_type_id":"4","last_reported":1741604780,"current_range_meters":12800,"station_id":"ce4bhih2rcd13ifvqfr0","pricing_plan_id":"cebpf4jnsgd1na2vs0mg"},{"bike_id":"c41e3247-520d-4edc-8030-5306b79badd5","system_id":"levelo_inurba_marseille","lat":43.24643,"lon":5.38898,"is_reserved":false,"is_disabled":false,"rental_uris":{"android":"levelo://app?vid=c41e3247-520d-4edc-8030-5306b79badd5","ios":"levelo://app?vid=c41e3247-520d-4edc-8030-5306b79badd5"},"vehicle_type_id":"4","last_reported":1741604780,"current_range_meters":13600,"station_id":"ce4bhg12rcd13ifvqf60","pricing_plan_id":"cebpf4jnsgd1na2vs0mg"},{"bike_id":"8dc2c2dc-de0f-4fd2-b739-faf253fff5e5","system_id":"levelo_inurba_marseille","lat":43.23167,"lon":5.43697,"is_reserved":false,"is_disabled":false,"rental_uris":{"android":"levelo://app?vid=8dc2c2dc-de0f-4fd2-b739-faf253fff5e5","ios":"levelo://app?vid=8dc2c2dc-de0f-4fd2-b739-faf253fff5e5"},"vehicle_type_id":"4","last_reported":1741604780,"current_range_meters":13600,"station_id":"ce4bhmp2rcd13ifvqgog","pricing_plan_id":"cebpf4jnsgd1na2vs0mg"},{"bike_id":"b387fe29-c7ca-4dae-8be9-61b94b4c6c47","system_id":"levelo_inurba_marseille","lat":43.30178,"lon":5.37413,"is_reserved":false,"is_disabled":false,"rental_uris":{"android":"levelo://app?vid=b387fe29-c7ca-4dae-8be9-61b94b4c6c47","ios":"levelo://app?vid=b387fe29-c7ca-4dae-8be9-61b94b4c6c47"},"vehicle_type_id":"4","last_reported":1741604780,"current_range_meters":13600,"station_id":"ce4bgs92rcd13ifvqcc0","pricing_plan_id":"cebpf4jnsgd1na2vs0mg"},{"bike_id":"244e24ec-5230-4970-a424-40a2cfa035f7","system_id":"levelo_inurba_marseille","lat":43.24046,"lon":5.37761,"is_reserved":false,"is_disabled":true,"rental_uris":{"android":"levelo://app?vid=244e24ec-5230-4970-a424-40a2cfa035f7","ios":"levelo://app?vid=244e24ec-5230-4970-a424-40a2cfa035f7"},"vehicle_type_id":"4","last_reported":1741604780,"current_range_meters":13600,"station_id":"ce4bhnp2rcd13ifvqgvg","pricing_plan_id":"cebpf4jnsgd1na2vs0mg"},{"bike_id":"ac118e0e-33e0-470c-969a-57b2ab25be5e","system_id":"levelo_inurba_marseille","lat":43.32338,"lon":5.40622,"is_reserved":false,"is_disabled":false,"rental_uris":{"android":"levelo://app?vid=ac118e0e-33e0-470c-969a-57b2ab25be5e","ios":"levelo://app?vid=ac118e0e-33e0-470c-969a-57b2ab25be5e"},"vehicle_type_id":"4","last_reported":1741604780,"current_range_meters":13600,"station_id":"ce4bhq92rcd13ifvqhjg","pricing_plan_id":"cebpf4jnsgd1na2vs0mg"},{"bike_id":"c426bc72-6764-4b6c-af01-e2dc0850e0cf","system_id":"levelo_inurba_marseille","lat":43.26964,"lon":5.38608,"is_reserved":false,"is_disabled":false,"rental_uris":{"android":"levelo://app?vid=c426bc72-6764-4b6c-af01-e2dc0850e0cf","ios":"levelo://app?vid=c426bc72-6764-4b6c-af01-e2dc0850e0cf"},"vehicle_type_id":"4","last_reported":1741604780,"current_range_meters":13600,"station_id":"ce4bhh92rcd13ifvqfh0","pricing_plan_id":"cebpf4jnsgd1na2vs0mg"},{"bike_id":"09bbb690-af86-458c-bbad-70d10e2033ee","system_id":"levelo_inurba_marseille","lat":43.23078,"lon":5.35498,"is_reserved":false,"is_disabled":false,"rental_uris":{"android":"levelo://app?vid=09bbb690-af86-458c-bbad-70d10e2033ee","ios":"levelo://app?vid=09bbb690-af86-458c-bbad-70d10e2033ee"},"vehicle_type_id":"4","last_reported":1741604780,"current_range_meters":13600,"station_id":"cpo3342slgdg3j2ifvpg","pricing_plan_id":"cebpf4jnsgd1na2vs0mg"},{"bike_id":"39a544a4-9cda-43e2-be22-212a764912e7","system_id":"levelo_inurba_marseille","lat":43.24074,"lon":5.3772,"is_reserved":false,"is_disabled":false,"rental_uris":{"android":"levelo://app?vid=39a544a4-9cda-43e2-be22-212a764912e7","ios":"levelo://app?vid=39a544a4-9cda-43e2-be22-212a764912e7"},"vehicle_type_id":"4","last_reported":1741604780,"current_range_meters":13600,"station_id":"ce4bhnp2rcd13ifvqgvg","pricing_plan_id":"cebpf4jnsgd1na2vs0mg"},{"bike_id":"51772d6c-c0b3-48d9-81cb-ae5466e6f822","system_id":"levelo_inurba_marseille","lat":43.23158,"lon":5.43731,"is_reserved":false,"is_disabled":false,"rental_uris":{"android":"levelo://app?vid=51772d6c-c0b3-48d9-81cb-ae5466e6f822","ios":"levelo://app?vid=51772d6c-c0b3-48d9-81cb-ae5466e6f822"},"vehicle_type_id":"4","last_reported":1741604780,"current_range_meters":13600,"station_id":"ce4bhmp2rcd13ifvqgog","pricing_plan_id":"cebpf4jnsgd1na2vs0mg"},{"bike_id":"faf5fc49-d87d-4443-8a27-1ea2d9bf5a5a","system_id":"levelo_inurba_marseille","lat":43.264984,"lon":5.395477,"is_reserved":false,"is_disabled":false,"rental_uris":{"android":"levelo://app?vid=faf5fc49-d87d-4443-8a27-1ea2d9bf5a5a","ios":"levelo://app?vid=faf5fc49-d87d-4443-8a27-1ea2d9bf5a5a"},"vehicle_type_id":"4","last_reported":1741604780,"current_range_meters":12000,"station_id":"ce4bhi12rcd13ifvqfq0","pricing_plan_id":"cebpf4jnsgd1na2vs0mg"},{"bike_id":"d62d41ac-6566-49eb-a16c-2c8700827e11","system_id":"levelo_inurba_marseille","lat":43.23168,"lon":5.43713,"is_reserved":false,"is_disabled":false,"rental_uris":{"android":"levelo://app?vid=d62d41ac-6566-49eb-a16c-2c8700827e11","ios":"levelo://app?vid=d62d41ac-6566-49eb-a16c-2c8700827e11"},"vehicle_type_id":"4","last_reported":1741604780,"current_range_meters":14000,"station_id":"ce4bhmp2rcd13ifvqgog","pricing_plan_id":"cebpf4jnsgd1na2vs0mg"},{"bike_id":"85199a05-8552-4fc5-9254-d2a2276e5176","system_id":"levelo_inurba_marseille","lat":43.269587,"lon":5.386284,"is_reserved":false,"is_disabled":false,"rental_uris":{"android":"levelo://app?vid=85199a05-8552-4fc5-9254-d2a2276e5176","ios":"levelo://app?vid=85199a05-8552-4fc5-9254-d2a2276e5176"},"vehicle_type_id":"4","last_reported":1741604780,"current_range_meters":14000,"station_id":"ce4bhh92rcd13ifvqfh0","pricing_plan_id":"cebpf4jnsgd1na2vs0mg"},{"bike_id":"2338626f-0565-48b6-9fa4-dab8eb33618f","system_id":"levelo_inurba_marseille","lat":43.25731,"lon":5.41103,"is_reserved":false,"is_disabled":false,"rental_uris":{"android":"levelo://app?vid=2338626f-0565-48b6-9fa4-dab8eb33618f","ios":"levelo://app?vid=2338626f-0565-48b6-9fa4-dab8eb33618f"},"vehicle_type_id":"4","last_reported":1741604780,"current_range_meters":14000,"station_id":"ce4bhkp2rcd13ifvqgd0","pricing_plan_id":"cebpf4jnsgd1na2vs0mg"},{"bike_id":"291dc1f1-4cea-4238-923f-480757897dfe","system_id":"levelo_inurba_marseille","lat":43.28486,"lon":5.38425,"is_reserved":false,"is_disabled":false,"rental_uris":{"android":"levelo://app?vid=291dc1f1-4cea-4238-923f-480757897dfe","ios":"levelo://app?vid=291dc1f1-4cea-4238-923f-480757897dfe"},"vehicle_type_id":"4","last_reported":1741604780,"current_range_meters":14000,"station_id":"ce4bh512rcd13ifvqe3g","pricing_plan_id":"cebpf4jnsgd1na2vs0mg"},{"bike_id":"e4230957-c6e9-44b6-a43d-4efb7b61d9ba","system_id":"levelo_inurba_marseille","lat":43.27679,"lon":5.38869,"is_reserved":false,"is_disabled":false,"rental_uris":{"android":"levelo://app?vid=e4230957-c6e9-44b6-a43d-4efb7b61d9ba","ios":"levelo://app?vid=e4230957-c6e9-44b6-a43d-4efb7b61d9ba"},"vehicle_type_id":"4","last_reported":1741604780,"current_range_meters":14000,"station_id":"ce4bhi12rcd13ifvqfo0","pricing_plan_id":"cebpf4jnsgd1na2vs0mg"},{"bike_id":"bc655e7d-e410-400e-bb53-123b70f25964","system_id":"levelo_inurba_marseille","lat":43.29371,"lon":5.37843,"is_reserved":false,"is_disabled":false,"rental_uris":{"android":"levelo://app?vid=bc655e7d-e410-400e-bb53-123b70f25964","ios":"levelo://app?vid=bc655e7d-e410-400e-bb53-123b70f25964"},"vehicle_type_id":"4","last_reported":1741604780,"current_range_meters":14000,"station_id":"ce4bgjh2rcd13ifvqbf0","pricing_plan_id":"cebpf4jnsgd1na2vs0mg"},{"bike_id":"c019d81a-8957-4a1f-99fd-87dc7d08d637","system_id":"levelo_inurba_marseille","lat":43.28485,"lon":5.38412,"is_reserved":false,"is_disabled":false,"rental_uris":{"android":"levelo://app?vid=c019d81a-8957-4a1f-99fd-87dc7d08d637","ios":"levelo://app?vid=c019d81a-8957-4a1f-99fd-87dc7d08d637"},"vehicle_type_id":"4","last_reported":1741604780,"current_range_meters":14000,"station_id":"ce4bh512rcd13ifvqe3g","pricing_plan_id":"cebpf4jnsgd1na2vs0mg"},{"bike_id":"a0ad8365-3c52-4bbc-ba67-7068b1dc7232","system_id":"levelo_inurba_marseille","lat":43.32051,"lon":5.4153,"is_reserved":false,"is_disabled":false,"rental_uris":{"android":"levelo://app?vid=a0ad8365-3c52-4bbc-ba67-7068b1dc7232","ios":"levelo://app?vid=a0ad8365-3c52-4bbc-ba67-7068b1dc7232"},"vehicle_type_id":"4","last_reported":1741604780,"current_range_meters":14000,"station_id":"ce4bhq92rcd13ifvqhkg","pricing_plan_id":"cebpf4jnsgd1na2vs0mg"},{"bike_id":"acc1658b-7ea3-44a5-a65b-40f1faa0438d","system_id":"levelo_inurba_marseille","lat":43.32547,"lon":5.41452,"is_reserved":false,"is_disabled":false,"rental_uris":{"android":"levelo://app?vid=acc1658b-7ea3-44a5-a65b-40f1faa0438d","ios":"levelo://app?vid=acc1658b-7ea3-44a5-a65b-40f1faa0438d"},"vehicle_type_id":"4","last_reported":1741604780,"current_range_meters":14400,"station_id":"ce4bhq12rcd13ifvqhhg","pricing_plan_id":"cebpf4jnsgd1na2vs0mg"},{"bike_id":"709d5816-5fb1-407c-9395-c2f95847c134","system_id":"levelo_inurba_marseille","lat":43.2409,"lon":5.3774,"is_reserved":false,"is_disabled":false,"rental_uris":{"android":"levelo://app?vid=709d5816-5fb1-407c-9395-c2f95847c134","ios":"levelo://app?vid=709d5816-5fb1-407c-9395-c2f95847c134"},"vehicle_type_id":"4","last_reported":1741604780,"current_range_meters":14400,"station_id":"ce4bhnp2rcd13ifvqgvg","pricing_plan_id":"cebpf4jnsgd1na2vs0mg"},{"bike_id":"b5f24760-138f-4676-b5a5-e1d99857a913","system_id":"levelo_inurba_marseille","lat":43.29257,"lon":5.37615,"is_reserved":false,"is_disabled":false,"rental_uris":{"android":"levelo://app?vid=b5f24760-138f-4676-b5a5-e1d99857a913","ios":"levelo://app?vid=b5f24760-138f-4676-b5a5-e1d99857a913"},"vehicle_type_id":"4","last_reported":1741604780,"current_range_meters":14400,"station_id":"ce4bgi12rcd13ifvqb80","pricing_plan_id":"cebpf4jnsgd1na2vs0mg"},{"bike_id":"6c925a33-922a-4f5d-a19e-2ae09dadacc9","system_id":"levelo_inurba_marseille","lat":43.31342,"lon":5.38446,"is_reserved":false,"is_disabled":false,"rental_uris":{"android":"levelo://app?vid=6c925a33-922a-4f5d-a19e-2ae09dadacc9","ios":"levelo://app?vid=6c925a33-922a-4f5d-a19e-2ae09dadacc9"},"vehicle_type_id":"4","last_reported":1741604780,"current_range_meters":14400,"station_id":"ce4bgt92rcd13ifvqcf0","pricing_plan_id":"cebpf4jnsgd1na2vs0mg"},{"bike_id":"9ec52ed9-9c0e-4e61-a378-5327e3711632","system_id":"levelo_inurba_marseille","lat":43.247328,"lon":5.411559,"is_reserved":false,"is_disabled":false,"rental_uris":{"android":"levelo://app?vid=9ec52ed9-9c0e-4e61-a378-5327e3711632","ios":"levelo://app?vid=9ec52ed9-9c0e-4e61-a378-5327e3711632"},"vehicle_type_id":"4","last_reported":1741604780,"current_range_meters":14400,"station_id":"","pricing_plan_id":"cebpf4jnsgd1na2vs0mg"},{"bike_id":"ccbf617d-c92c-4154-ad70-fcdbe832004f","system_id":"levelo_inurba_marseille","lat":43.28138,"lon":5.42647,"is_reserved":false,"is_disabled":false,"rental_uris":{"android":"levelo://app?vid=ccbf617d-c92c-4154-ad70-fcdbe832004f","ios":"levelo://app?vid=ccbf617d-c92c-4154-ad70-fcdbe832004f"},"vehicle_type_id":"4","last_reported":1741604780,"current_range_meters":14800,"station_id":"ce4bhnh2rcd13ifvqgug","pricing_plan_id":"cebpf4jnsgd1na2vs0mg"},{"bike_id":"1e61f1c2-f1b8-4841-8ffd-ffd9ba5d4378","system_id":"levelo_inurba_marseille","lat":43.30539,"lon":5.36529,"is_reserved":false,"is_disabled":false,"rental_uris":{"android":"levelo://app?vid=1e61f1c2-f1b8-4841-8ffd-ffd9ba5d4378","ios":"levelo://app?vid=1e61f1c2-f1b8-4841-8ffd-ffd9ba5d4378"},"vehicle_type_id":"4","last_reported":1741604780,"current_range_meters":15200,"station_id":"ce4bgs12rcd13ifvqcag","pricing_plan_id":"cebpf4jnsgd1na2vs0mg"},{"bike_id":"18e5f804-fd06-47ae-9730-65ae80ae2a2a","system_id":"levelo_inurba_marseille","lat":43.29848,"lon":5.36268,"is_reserved":false,"is_disabled":false,"rental_uris":{"android":"levelo://app?vid=18e5f804-fd06-47ae-9730-65ae80ae2a2a","ios":"levelo://app?vid=18e5f804-fd06-47ae-9730-65ae80ae2a2a"},"vehicle_type_id":"4","last_reported":1741604780,"current_range_meters":15200,"station_id":"ce4bgpp2rcd13ifvqc3g","pricing_plan_id":"cebpf4jnsgd1na2vs0mg"},{"bike_id":"a44b4ad2-e639-4c9a-8fb7-52bbbdc7ff12","system_id":"levelo_inurba_marseille","lat":43.25008,"lon":5.3893,"is_reserved":false,"is_disabled":false,"rental_uris":{"android":"levelo://app?vid=a44b4ad2-e639-4c9a-8fb7-52bbbdc7ff12","ios":"levelo://app?vid=a44b4ad2-e639-4c9a-8fb7-52bbbdc7ff12"},"vehicle_type_id":"4","last_reported":1741604780,"current_range_meters":15200,"station_id":"ce4bhgp2rcd13ifvqfd0","pricing_plan_id":"cebpf4jnsgd1na2vs0mg"},{"bike_id":"266eba6e-5b97-4c2b-95d9-b3a49da9bd25","system_id":"levelo_inurba_marseille","lat":43.27426,"lon":5.39421,"is_reserved":false,"is_disabled":false,"rental_uris":{"android":"levelo://app?vid=266eba6e-5b97-4c2b-95d9-b3a49da9bd25","ios":"levelo://app?vid=266eba6e-5b97-4c2b-95d9-b3a49da9bd25"},"vehicle_type_id":"4","last_reported":1741604780,"current_range_meters":15200,"station_id":"ce4bhdp2rcd13ifvqf20","pricing_plan_id":"cebpf4jnsgd1na2vs0mg"},{"bike_id":"27459785-4edf-4f27-b842-1984a62c6dde","system_id":"levelo_inurba_marseille","lat":43.25101,"lon":5.39482,"is_reserved":false,"is_disabled":false,"rental_uris":{"android":"levelo://app?vid=27459785-4edf-4f27-b842-1984a62c6dde","ios":"levelo://app?vid=27459785-4edf-4f27-b842-1984a62c6dde"},"vehicle_type_id":"4","last_reported":1741604780,"current_range_meters":15200,"station_id":"ce4bhm12rcd13ifvqgkg","pricing_plan_id":"cebpf4jnsgd1na2vs0mg"},{"bike_id":"48eb8005-78b7-4e64-97cd-c7801e2162f6","system_id":"levelo_inurba_marseille","lat":43.32057,"lon":5.41539,"is_reserved":false,"is_disabled":false,"rental_uris":{"android":"levelo://app?vid=48eb8005-78b7-4e64-97cd-c7801e2162f6","ios":"levelo://app?vid=48eb8005-78b7-4e64-97cd-c7801e2162f6"},"vehicle_type_id":"4","last_reported":1741604780,"current_range_meters":15200,"station_id":"ce4bhq92rcd13ifvqhkg","pricing_plan_id":"cebpf4jnsgd1na2vs0mg"},{"bike_id":"f381c9bd-14fa-41ab-b589-3ecebd6dfe48","system_id":"levelo_inurba_marseille","lat":43.32365,"lon":5.36763,"is_reserved":false,"is_disabled":false,"rental_uris":{"android":"levelo://app?vid=f381c9bd-14fa-41ab-b589-3ecebd6dfe48","ios":"levelo://app?vid=f381c9bd-14fa-41ab-b589-3ecebd6dfe48"},"vehicle_type_id":"4","last_reported":1741604780,"current_range_meters":15200,"station_id":"ce4bhsh2rcd13ifvqi2g","pricing_plan_id":"cebpf4jnsgd1na2vs0mg"},{"bike_id":"227c2861-781f-48b7-999d-81cd38dacd05","system_id":"levelo_inurba_marseille","lat":43.28439,"lon":5.39185,"is_reserved":false,"is_disabled":false,"rental_uris":{"android":"levelo://app?vid=227c2861-781f-48b7-999d-81cd38dacd05","ios":"levelo://app?vid=227c2861-781f-48b7-999d-81cd38dacd05"},"vehicle_type_id":"4","last_reported":1741604780,"current_range_meters":15200,"station_id":"ce4bhoh2rcd13ifvqh5g","pricing_plan_id":"cebpf4jnsgd1na2vs0mg"},{"bike_id":"08b68eba-53e3-4dc9-b600-bf554c1ed500","system_id":"levelo_inurba_marseille","lat":43.29261,"lon":5.37622,"is_reserved":false,"is_disabled":false,"rental_uris":{"android":"levelo://app?vid=08b68eba-53e3-4dc9-b600-bf554c1ed500","ios":"levelo://app?vid=08b68eba-53e3-4dc9-b600-bf554c1ed500"},"vehicle_type_id":"4","last_reported":1741604780,"current_range_meters":16000,"station_id":"ce4bgi12rcd13ifvqb80","pricing_plan_id":"cebpf4jnsgd1na2vs0mg"},{"bike_id":"ec158045-a82c-4f94-a9fe-4ee57996b1b4","system_id":"levelo_inurba_marseille","lat":43.25105,"lon":5.40329,"is_reserved":false,"is_disabled":false,"rental_uris":{"android":"levelo://app?vid=ec158045-a82c-4f94-a9fe-4ee57996b1b4","ios":"levelo://app?vid=ec158045-a82c-4f94-a9fe-4ee57996b1b4"},"vehicle_type_id":"4","last_reported":1741604780,"current_range_meters":16000,"station_id":"ce4bhlh2rcd13ifvqgig","pricing_plan_id":"cebpf4jnsgd1na2vs0mg"},{"bike_id":"72ecfd75-4877-4c4b-a7f9-6597d1b3a6f1","system_id":"levelo_inurba_marseille","lat":43.274949,"lon":5.424505,"is_reserved":false,"is_disabled":false,"rental_uris":{"android":"levelo://app?vid=72ecfd75-4877-4c4b-a7f9-6597d1b3a6f1","ios":"levelo://app?vid=72ecfd75-4877-4c4b-a7f9-6597d1b3a6f1"},"vehicle_type_id":"4","last_reported":1741604780,"current_range_meters":16000,"station_id":"ce4bhn92rcd13ifvqgrg","pricing_plan_id":"cebpf4jnsgd1na2vs0mg"},{"bike_id":"58d1b5b3-d322-4418-97d0-3066ec3d9afc","system_id":"levelo_inurba_marseille","lat":43.2319,"lon":5.35542,"is_reserved":false,"is_disabled":false,"rental_uris":{"android":"levelo://app?vid=58d1b5b3-d322-4418-97d0-3066ec3d9afc","ios":"levelo://app?vid=58d1b5b3-d322-4418-97d0-3066ec3d9afc"},"vehicle_type_id":"4","last_reported":1741604780,"current_range_meters":16000,"station_id":"ce4bhu92rcd13ifvqi70","pricing_plan_id":"cebpf4jnsgd1na2vs0mg"},{"bike_id":"714996a6-64f6-41af-a68f-e639f119975d","system_id":"levelo_inurba_marseille","lat":43.25087,"lon":5.39514,"is_reserved":false,"is_disabled":true,"rental_uris":{"android":"levelo://app?vid=714996a6-64f6-41af-a68f-e639f119975d","ios":"levelo://app?vid=714996a6-64f6-41af-a68f-e639f119975d"},"vehicle_type_id":"4","last_reported":1741604780,"current_range_meters":16400,"station_id":"ce4bhm12rcd13ifvqgkg","pricing_plan_id":"cebpf4jnsgd1na2vs0mg"},{"bike_id":"0f520d00-ebca-4721-9b5a-856107a487e4","system_id":"levelo_inurba_marseille","lat":43.312265,"lon":5.368418,"is_reserved":false,"is_disabled":false,"rental_uris":{"android":"levelo://app?vid=0f520d00-ebca-4721-9b5a-856107a487e4","ios":"levelo://app?vid=0f520d00-ebca-4721-9b5a-856107a487e4"},"vehicle_type_id":"4","last_reported":1741604780,"current_range_meters":16800,"station_id":"ce4bgl92rcd13ifvqbq0","pricing_plan_id":"cebpf4jnsgd1na2vs0mg"},{"bike_id":"14a64e50-67e4-4ccc-8dd3-b69f798262a6","system_id":"levelo_inurba_marseille","lat":43.25111,"lon":5.40297,"is_reserved":false,"is_disabled":false,"rental_uris":{"android":"levelo://app?vid=14a64e50-67e4-4ccc-8dd3-b69f798262a6","ios":"levelo://app?vid=14a64e50-67e4-4ccc-8dd3-b69f798262a6"},"vehicle_type_id":"4","last_reported":1741604780,"current_range_meters":16400,"station_id":"ce4bhlh2rcd13ifvqgig","pricing_plan_id":"cebpf4jnsgd1na2vs0mg"},{"bike_id":"caed4545-182d-42df-8230-6bdcdcfdf765","system_id":"levelo_inurba_marseille","lat":43.31205,"lon":5.36794,"is_reserved":false,"is_disabled":false,"rental_uris":{"android":"levelo://app?vid=caed4545-182d-42df-8230-6bdcdcfdf765","ios":"levelo://app?vid=caed4545-182d-42df-8230-6bdcdcfdf765"},"vehicle_type_id":"4","last_reported":1741604780,"current_range_meters":16400,"station_id":"","pricing_plan_id":"cebpf4jnsgd1na2vs0mg"},{"bike_id":"bb10d030-8066-40f7-81f0-52482d3555ff","system_id":"levelo_inurba_marseille","lat":43.2756,"lon":5.38413,"is_reserved":false,"is_disabled":false,"rental_uris":{"android":"levelo://app?vid=bb10d030-8066-40f7-81f0-52482d3555ff","ios":"levelo://app?vid=bb10d030-8066-40f7-81f0-52482d3555ff"},"vehicle_type_id":"4","last_reported":1741604780,"current_range_meters":16400,"station_id":"ce4bhh92rcd13ifvqfi0","pricing_plan_id":"cebpf4jnsgd1na2vs0mg"},{"bike_id":"17a29aca-516a-4ab6-96da-f2e154fa659d","system_id":"levelo_inurba_marseille","lat":43.30158,"lon":5.38085,"is_reserved":false,"is_disabled":false,"rental_uris":{"android":"levelo://app?vid=17a29aca-516a-4ab6-96da-f2e154fa659d","ios":"levelo://app?vid=17a29aca-516a-4ab6-96da-f2e154fa659d"},"vehicle_type_id":"4","last_reported":1741604780,"current_range_meters":16400,"station_id":"ce4bgjp2rcd13ifvqbh0","pricing_plan_id":"cebpf4jnsgd1na2vs0mg"},{"bike_id":"71689dd3-eb96-4d37-a920-02f80091c727","system_id":"levelo_inurba_marseille","lat":43.30188,"lon":5.38078,"is_reserved":false,"is_disabled":false,"rental_uris":{"android":"levelo://app?vid=71689dd3-eb96-4d37-a920-02f80091c727","ios":"levelo://app?vid=71689dd3-eb96-4d37-a920-02f80091c727"},"vehicle_type_id":"4","last_reported":1741604780,"current_range_meters":16400,"station_id":"","pricing_plan_id":"cebpf4jnsgd1na2vs0mg"},{"bike_id":"bf49a0fd-bfe2-4bbb-8d6a-0540c7d91d25","system_id":"levelo_inurba_marseille","lat":43.32368,"lon":5.36764,"is_reserved":false,"is_disabled":false,"rental_uris":{"android":"levelo://app?vid=bf49a0fd-bfe2-4bbb-8d6a-0540c7d91d25","ios":"levelo://app?vid=bf49a0fd-bfe2-4bbb-8d6a-0540c7d91d25"},"vehicle_type_id":"4","last_reported":1741604780,"current_range_meters":16400,"station_id":"ce4bhsh2rcd13ifvqi2g","pricing_plan_id":"cebpf4jnsgd1na2vs0mg"},{"bike_id":"d995a2a5-556e-4dea-8f66-e833a2d45f93","system_id":"levelo_inurba_marseille","lat":43.25863,"lon":5.39901,"is_reserved":false,"is_disabled":false,"rental_uris":{"android":"levelo://app?vid=d995a2a5-556e-4dea-8f66-e833a2d45f93","ios":"levelo://app?vid=d995a2a5-556e-4dea-8f66-e833a2d45f93"},"vehicle_type_id":"4","last_reported":1741604780,"current_range_meters":16400,"station_id":"ce4bhl92rcd13ifvqghg","pricing_plan_id":"cebpf4jnsgd1na2vs0mg"},{"bike_id":"7e1cae4b-6a51-40e2-9ca6-81b0268ef969","system_id":"levelo_inurba_marseille","lat":43.24684,"lon":5.38149,"is_reserved":false,"is_disabled":false,"rental_uris":{"android":"levelo://app?vid=7e1cae4b-6a51-40e2-9ca6-81b0268ef969","ios":"levelo://app?vid=7e1cae4b-6a51-40e2-9ca6-81b0268ef969"},"vehicle_type_id":"4","last_reported":1741604780,"current_range_meters":16400,"station_id":"ce4bhih2rcd13ifvqfr0","pricing_plan_id":"cebpf4jnsgd1na2vs0mg"},{"bike_id":"844894c7-065d-427a-9941-8626b05204ed","system_id":"levelo_inurba_marseille","lat":43.32603,"lon":5.41451,"is_reserved":false,"is_disabled":false,"rental_uris":{"android":"levelo://app?vid=844894c7-065d-427a-9941-8626b05204ed","ios":"levelo://app?vid=844894c7-065d-427a-9941-8626b05204ed"},"vehicle_type_id":"4","last_reported":1741604780,"current_range_meters":16400,"station_id":"","pricing_plan_id":"cebpf4jnsgd1na2vs0mg"},{"bike_id":"c6f5ece6-bccd-49d2-939a-6b91ba51ef88","system_id":"levelo_inurba_marseille","lat":43.30544,"lon":5.36701,"is_reserved":false,"is_disabled":false,"rental_uris":{"android":"levelo://app?vid=c6f5ece6-bccd-49d2-939a-6b91ba51ef88","ios":"levelo://app?vid=c6f5ece6-bccd-49d2-939a-6b91ba51ef88"},"vehicle_type_id":"4","last_reported":1741604780,"current_range_meters":16400,"station_id":"ce4bgrp2rcd13ifvqc9g","pricing_plan_id":"cebpf4jnsgd1na2vs0mg"},{"bike_id":"ae7924a2-da9e-4d9f-8ca3-2718ec535902","system_id":"levelo_inurba_marseille","lat":43.29869,"lon":5.38911,"is_reserved":false,"is_disabled":false,"rental_uris":{"android":"levelo://app?vid=ae7924a2-da9e-4d9f-8ca3-2718ec535902","ios":"levelo://app?vid=ae7924a2-da9e-4d9f-8ca3-2718ec535902"},"vehicle_type_id":"4","last_reported":1741604780,"current_range_meters":16400,"station_id":"ce4bh392rcd13ifvqdl0","pricing_plan_id":"cebpf4jnsgd1na2vs0mg"},{"bike_id":"ddb8d0b6-1af5-4be9-bc22-c93df9570e91","system_id":"levelo_inurba_marseille","lat":43.30151,"lon":5.38079,"is_reserved":false,"is_disabled":false,"rental_uris":{"android":"levelo://app?vid=ddb8d0b6-1af5-4be9-bc22-c93df9570e91","ios":"levelo://app?vid=ddb8d0b6-1af5-4be9-bc22-c93df9570e91"},"vehicle_type_id":"4","last_reported":1741604780,"current_range_meters":16400,"station_id":"ce4bgjp2rcd13ifvqbh0","pricing_plan_id":"cebpf4jnsgd1na2vs0mg"},{"bike_id":"24ea9c03-0afd-4100-ad62-62865e3edce9","system_id":"levelo_inurba_marseille","lat":43.23146,"lon":5.43722,"is_reserved":false,"is_disabled":false,"rental_uris":{"android":"levelo://app?vid=24ea9c03-0afd-4100-ad62-62865e3edce9","ios":"levelo://app?vid=24ea9c03-0afd-4100-ad62-62865e3edce9"},"vehicle_type_id":"4","last_reported":1741604780,"current_range_meters":16400,"station_id":"ce4bhmp2rcd13ifvqgog","pricing_plan_id":"cebpf4jnsgd1na2vs0mg"},{"bike_id":"3e19dab8-46fe-40ac-bdf3-26b4f9e3cbe2","system_id":"levelo_inurba_marseille","lat":43.30565,"lon":5.36677,"is_reserved":false,"is_disabled":false,"rental_uris":{"android":"levelo://app?vid=3e19dab8-46fe-40ac-bdf3-26b4f9e3cbe2","ios":"levelo://app?vid=3e19dab8-46fe-40ac-bdf3-26b4f9e3cbe2"},"vehicle_type_id":"4","last_reported":1741604780,"current_range_meters":16800,"station_id":"ce4bgrp2rcd13ifvqc9g","pricing_plan_id":"cebpf4jnsgd1na2vs0mg"},{"bike_id":"07187ccf-3486-4591-bfa0-8f92f125c67e","system_id":"levelo_inurba_marseille","lat":43.32104,"lon":5.36786,"is_reserved":false,"is_disabled":false,"rental_uris":{"android":"levelo://app?vid=07187ccf-3486-4591-bfa0-8f92f125c67e","ios":"levelo://app?vid=07187ccf-3486-4591-bfa0-8f92f125c67e"},"vehicle_type_id":"4","last_reported":1741604780,"current_range_meters":16800,"station_id":"ce4bhrh2rcd13ifvqhug","pricing_plan_id":"cebpf4jnsgd1na2vs0mg"},{"bike_id":"63829e98-5491-4aaf-8868-cfa8c984e570","system_id":"levelo_inurba_marseille","lat":43.29839,"lon":5.36256,"is_reserved":false,"is_disabled":false,"rental_uris":{"android":"levelo://app?vid=63829e98-5491-4aaf-8868-cfa8c984e570","ios":"levelo://app?vid=63829e98-5491-4aaf-8868-cfa8c984e570"},"vehicle_type_id":"4","last_reported":1741604780,"current_range_meters":16800,"station_id":"ce4bgpp2rcd13ifvqc3g","pricing_plan_id":"cebpf4jnsgd1na2vs0mg"},{"bike_id":"ca57d901-cb2c-48c2-91cf-ac2cee86a3a4","system_id":"levelo_inurba_marseille","lat":43.2316,"lon":5.43718,"is_reserved":false,"is_disabled":false,"rental_uris":{"android":"levelo://app?vid=ca57d901-cb2c-48c2-91cf-ac2cee86a3a4","ios":"levelo://app?vid=ca57d901-cb2c-48c2-91cf-ac2cee86a3a4"},"vehicle_type_id":"4","last_reported":1741604780,"current_range_meters":16800,"station_id":"ce4bhmp2rcd13ifvqgog","pricing_plan_id":"cebpf4jnsgd1na2vs0mg"},{"bike_id":"085730ac-3dab-471d-a96e-4a7cc1c91387","system_id":"levelo_inurba_marseille","lat":43.280171,"lon":5.351517,"is_reserved":false,"is_disabled":false,"rental_uris":{"android":"levelo://app?vid=085730ac-3dab-471d-a96e-4a7cc1c91387","ios":"levelo://app?vid=085730ac-3dab-471d-a96e-4a7cc1c91387"},"vehicle_type_id":"4","last_reported":1741604780,"current_range_meters":16800,"station_id":"ce4bhg12rcd13ifvqf70","pricing_plan_id":"cebpf4jnsgd1na2vs0mg"},{"bike_id":"3d9dab85-6347-4e12-9dc3-59dcd5915ece","system_id":"levelo_inurba_marseille","lat":43.24669,"lon":5.38166,"is_reserved":false,"is_disabled":false,"rental_uris":{"android":"levelo://app?vid=3d9dab85-6347-4e12-9dc3-59dcd5915ece","ios":"levelo://app?vid=3d9dab85-6347-4e12-9dc3-59dcd5915ece"},"vehicle_type_id":"4","last_reported":1741604780,"current_range_meters":16800,"station_id":"ce4bhih2rcd13ifvqfr0","pricing_plan_id":"cebpf4jnsgd1na2vs0mg"},{"bike_id":"9e773309-4560-4282-9b1f-dc3a0717cca0","system_id":"levelo_inurba_marseille","lat":43.28353,"lon":5.38106,"is_reserved":false,"is_disabled":false,"rental_uris":{"android":"levelo://app?vid=9e773309-4560-4282-9b1f-dc3a0717cca0","ios":"levelo://app?vid=9e773309-4560-4282-9b1f-dc3a0717cca0"},"vehicle_type_id":"4","last_reported":1741604780,"current_range_meters":16800,"station_id":"ce4bh412rcd13ifvqdr0","pricing_plan_id":"cebpf4jnsgd1na2vs0mg"},{"bike_id":"5c4469da-4264-472b-a0c7-d28eb24db0a2","system_id":"levelo_inurba_marseille","lat":43.30888,"lon":5.37194,"is_reserved":false,"is_disabled":false,"rental_uris":{"android":"levelo://app?vid=5c4469da-4264-472b-a0c7-d28eb24db0a2","ios":"levelo://app?vid=5c4469da-4264-472b-a0c7-d28eb24db0a2"},"vehicle_type_id":"4","last_reported":1741604780,"current_range_meters":17200,"station_id":"ce4bguh2rcd13ifvqckg","pricing_plan_id":"cebpf4jnsgd1na2vs0mg"},{"bike_id":"415e7a31-245d-4ead-9f33-dad092a04302","system_id":"levelo_inurba_marseille","lat":43.23058,"lon":5.355,"is_reserved":false,"is_disabled":false,"rental_uris":{"android":"levelo://app?vid=415e7a31-245d-4ead-9f33-dad092a04302","ios":"levelo://app?vid=415e7a31-245d-4ead-9f33-dad092a04302"},"vehicle_type_id":"4","last_reported":1741604780,"current_range_meters":17200,"station_id":"cpo3342slgdg3j2ifvpg","pricing_plan_id":"cebpf4jnsgd1na2vs0mg"},{"bike_id":"259dde30-071d-4e72-9e93-2afe0e28cbba","system_id":"levelo_inurba_marseille","lat":43.306469,"lon":5.373327,"is_reserved":false,"is_disabled":false,"rental_uris":{"android":"levelo://app?vid=259dde30-071d-4e72-9e93-2afe0e28cbba","ios":"levelo://app?vid=259dde30-071d-4e72-9e93-2afe0e28cbba"},"vehicle_type_id":"4","last_reported":1741604780,"current_range_meters":17200,"station_id":"","pricing_plan_id":"cebpf4jnsgd1na2vs0mg"},{"bike_id":"7b66e0d2-60fc-4baa-b134-64c6a900f5e4","system_id":"levelo_inurba_marseille","lat":43.24175,"lon":5.39718,"is_reserved":false,"is_disabled":false,"rental_uris":{"android":"levelo://app?vid=7b66e0d2-60fc-4baa-b134-64c6a900f5e4","ios":"levelo://app?vid=7b66e0d2-60fc-4baa-b134-64c6a900f5e4"},"vehicle_type_id":"4","last_reported":1741604780,"current_range_meters":17200,"station_id":"ce4bhn12rcd13ifvqgpg","pricing_plan_id":"cebpf4jnsgd1na2vs0mg"},{"bike_id":"51898cac-4958-4964-88c4-b8d9855d6101","system_id":"levelo_inurba_marseille","lat":43.29981,"lon":5.37172,"is_reserved":false,"is_disabled":false,"rental_uris":{"android":"levelo://app?vid=51898cac-4958-4964-88c4-b8d9855d6101","ios":"levelo://app?vid=51898cac-4958-4964-88c4-b8d9855d6101"},"vehicle_type_id":"4","last_reported":1741604780,"current_range_meters":17200,"station_id":"ce4bgr92rcd13ifvqc7g","pricing_plan_id":"cebpf4jnsgd1na2vs0mg"},{"bike_id":"5eb013d6-71a0-40c2-81ea-538226936e0d","system_id":"levelo_inurba_marseille","lat":43.23158,"lon":5.43718,"is_reserved":false,"is_disabled":false,"rental_uris":{"android":"levelo://app?vid=5eb013d6-71a0-40c2-81ea-538226936e0d","ios":"levelo://app?vid=5eb013d6-71a0-40c2-81ea-538226936e0d"},"vehicle_type_id":"4","last_reported":1741604780,"current_range_meters":17200,"station_id":"ce4bhmp2rcd13ifvqgog","pricing_plan_id":"cebpf4jnsgd1na2vs0mg"},{"bike_id":"11d8e867-88f8-4e72-81aa-2b0f7e036b0c","system_id":"levelo_inurba_marseille","lat":43.305,"lon":5.37287,"is_reserved":false,"is_disabled":false,"rental_uris":{"android":"levelo://app?vid=11d8e867-88f8-4e72-81aa-2b0f7e036b0c","ios":"levelo://app?vid=11d8e867-88f8-4e72-81aa-2b0f7e036b0c"},"vehicle_type_id":"4","last_reported":1741604780,"current_range_meters":17200,"station_id":"","pricing_plan_id":"cebpf4jnsgd1na2vs0mg"},{"bike_id":"38f64721-7795-4ec9-98ec-dbc5400c1619","system_id":"levelo_inurba_marseille","lat":43.30144,"lon":5.37412,"is_reserved":false,"is_disabled":false,"rental_uris":{"android":"levelo://app?vid=38f64721-7795-4ec9-98ec-dbc5400c1619","ios":"levelo://app?vid=38f64721-7795-4ec9-98ec-dbc5400c1619"},"vehicle_type_id":"4","last_reported":1741604780,"current_range_meters":17200,"station_id":"ce4bgs92rcd13ifvqcc0","pricing_plan_id":"cebpf4jnsgd1na2vs0mg"},{"bike_id":"e4f61b86-04a4-4652-a877-15de8ddf1997","system_id":"levelo_inurba_marseille","lat":43.31193,"lon":5.36856,"is_reserved":false,"is_disabled":false,"rental_uris":{"android":"levelo://app?vid=e4f61b86-04a4-4652-a877-15de8ddf1997","ios":"levelo://app?vid=e4f61b86-04a4-4652-a877-15de8ddf1997"},"vehicle_type_id":"4","last_reported":1741604780,"current_range_meters":17200,"station_id":"ce4bgl92rcd13ifvqbq0","pricing_plan_id":"cebpf4jnsgd1na2vs0mg"},{"bike_id":"1a26001d-d49a-47a3-a711-f7ff22c1c811","system_id":"levelo_inurba_marseille","lat":43.28895,"lon":5.37151,"is_reserved":false,"is_disabled":false,"rental_uris":{"android":"levelo://app?vid=1a26001d-d49a-47a3-a711-f7ff22c1c811","ios":"levelo://app?vid=1a26001d-d49a-47a3-a711-f7ff22c1c811"},"vehicle_type_id":"4","last_reported":1741604780,"current_range_meters":17200,"station_id":"","pricing_plan_id":"cebpf4jnsgd1na2vs0mg"},{"bike_id":"2cb24ce2-2532-4c7a-9111-02f8271f9925","system_id":"levelo_inurba_marseille","lat":43.309465,"lon":5.390401,"is_reserved":false,"is_disabled":false,"rental_uris":{"android":"levelo://app?vid=2cb24ce2-2532-4c7a-9111-02f8271f9925","ios":"levelo://app?vid=2cb24ce2-2532-4c7a-9111-02f8271f9925"},"vehicle_type_id":"4","last_reported":1741604780,"current_range_meters":17200,"station_id":"","pricing_plan_id":"cebpf4jnsgd1na2vs0mg"},{"bike_id":"a3d8580a-1e25-4809-bd9d-11c60058ede4","system_id":"levelo_inurba_marseille","lat":43.25933,"lon":5.40874,"is_reserved":false,"is_disabled":false,"rental_uris":{"android":"levelo://app?vid=a3d8580a-1e25-4809-bd9d-11c60058ede4","ios":"levelo://app?vid=a3d8580a-1e25-4809-bd9d-11c60058ede4"},"vehicle_type_id":"4","last_reported":1741604780,"current_range_meters":17200,"station_id":"ce4bhm92rcd13ifvqglg","pricing_plan_id":"cebpf4jnsgd1na2vs0mg"},{"bike_id":"faa86153-1dfd-4426-961a-7387c3784c70","system_id":"levelo_inurba_marseille","lat":43.30532,"lon":5.36696,"is_reserved":false,"is_disabled":false,"rental_uris":{"android":"levelo://app?vid=faa86153-1dfd-4426-961a-7387c3784c70","ios":"levelo://app?vid=faa86153-1dfd-4426-961a-7387c3784c70"},"vehicle_type_id":"4","last_reported":1741604780,"current_range_meters":17600,"station_id":"ce4bgrp2rcd13ifvqc9g","pricing_plan_id":"cebpf4jnsgd1na2vs0mg"},{"bike_id":"42556de5-7fac-475f-9de9-63339d51f6c3","system_id":"levelo_inurba_marseille","lat":43.30557,"lon":5.36541,"is_reserved":false,"is_disabled":false,"rental_uris":{"android":"levelo://app?vid=42556de5-7fac-475f-9de9-63339d51f6c3","ios":"levelo://app?vid=42556de5-7fac-475f-9de9-63339d51f6c3"},"vehicle_type_id":"4","last_reported":1741604780,"current_range_meters":17600,"station_id":"ce4bgs12rcd13ifvqcag","pricing_plan_id":"cebpf4jnsgd1na2vs0mg"},{"bike_id":"95c234b9-ed14-468e-aeb0-d070ce0ac1ec","system_id":"levelo_inurba_marseille","lat":43.25136,"lon":5.40377,"is_reserved":false,"is_disabled":false,"rental_uris":{"android":"levelo://app?vid=95c234b9-ed14-468e-aeb0-d070ce0ac1ec","ios":"levelo://app?vid=95c234b9-ed14-468e-aeb0-d070ce0ac1ec"},"vehicle_type_id":"4","last_reported":1741604780,"current_range_meters":17200,"station_id":"ce4bhlh2rcd13ifvqgig","pricing_plan_id":"cebpf4jnsgd1na2vs0mg"},{"bike_id":"d4dabdf2-c0ff-4ab2-8a2d-b278f0d35446","system_id":"levelo_inurba_marseille","lat":43.28278,"lon":5.35067,"is_reserved":false,"is_disabled":false,"rental_uris":{"android":"levelo://app?vid=d4dabdf2-c0ff-4ab2-8a2d-b278f0d35446","ios":"levelo://app?vid=d4dabdf2-c0ff-4ab2-8a2d-b278f0d35446"},"vehicle_type_id":"4","last_reported":1741604780,"current_range_meters":17600,"station_id":"ce4bhbp2rcd13ifvqerg","pricing_plan_id":"cebpf4jnsgd1na2vs0mg"},{"bike_id":"e59567f6-dc79-4e89-b886-508089119a97","system_id":"levelo_inurba_marseille","lat":43.24178,"lon":5.3973,"is_reserved":false,"is_disabled":false,"rental_uris":{"android":"levelo://app?vid=e59567f6-dc79-4e89-b886-508089119a97","ios":"levelo://app?vid=e59567f6-dc79-4e89-b886-508089119a97"},"vehicle_type_id":"4","last_reported":1741604780,"current_range_meters":17600,"station_id":"ce4bhn12rcd13ifvqgpg","pricing_plan_id":"cebpf4jnsgd1na2vs0mg"},{"bike_id":"2c300ed3-ce8f-4136-bb9c-f443a0876d97","system_id":"levelo_inurba_marseille","lat":43.27504,"lon":5.42448,"is_reserved":false,"is_disabled":false,"rental_uris":{"android":"levelo://app?vid=2c300ed3-ce8f-4136-bb9c-f443a0876d97","ios":"levelo://app?vid=2c300ed3-ce8f-4136-bb9c-f443a0876d97"},"vehicle_type_id":"4","last_reported":1741604780,"current_range_meters":17600,"station_id":"ce4bhn92rcd13ifvqgrg","pricing_plan_id":"cebpf4jnsgd1na2vs0mg"},{"bike_id":"ac8e6b48-e483-4aef-bede-c5576834d55a","system_id":"levelo_inurba_marseille","lat":43.29865,"lon":5.36298,"is_reserved":false,"is_disabled":false,"rental_uris":{"android":"levelo://app?vid=ac8e6b48-e483-4aef-bede-c5576834d55a","ios":"levelo://app?vid=ac8e6b48-e483-4aef-bede-c5576834d55a"},"vehicle_type_id":"4","last_reported":1741604780,"current_range_meters":17600,"station_id":"ce4bgpp2rcd13ifvqc3g","pricing_plan_id":"cebpf4jnsgd1na2vs0mg"},{"bike_id":"a1af23de-eb8d-4bbf-ade2-db5475d07d47","system_id":"levelo_inurba_marseille","lat":43.29229,"lon":5.36079,"is_reserved":false,"is_disabled":false,"rental_uris":{"android":"levelo://app?vid=a1af23de-eb8d-4bbf-ade2-db5475d07d47","ios":"levelo://app?vid=a1af23de-eb8d-4bbf-ade2-db5475d07d47"},"vehicle_type_id":"4","last_reported":1741604780,"current_range_meters":17600,"station_id":"ce4bhbh2rcd13ifvqeqg","pricing_plan_id":"cebpf4jnsgd1na2vs0mg"},{"bike_id":"0d93538d-fb95-4861-846d-76f7d355ab4f","system_id":"levelo_inurba_marseille","lat":43.28505,"lon":5.38569,"is_reserved":false,"is_disabled":false,"rental_uris":{"android":"levelo://app?vid=0d93538d-fb95-4861-846d-76f7d355ab4f","ios":"levelo://app?vid=0d93538d-fb95-4861-846d-76f7d355ab4f"},"vehicle_type_id":"4","last_reported":1741604780,"current_range_meters":17600,"station_id":"ce4bh8p2rcd13ifvqeb0","pricing_plan_id":"cebpf4jnsgd1na2vs0mg"},{"bike_id":"d0852a77-0c39-4073-b89d-15b85c3aa5e5","system_id":"levelo_inurba_marseille","lat":43.30155,"lon":5.37413,"is_reserved":false,"is_disabled":false,"rental_uris":{"android":"levelo://app?vid=d0852a77-0c39-4073-b89d-15b85c3aa5e5","ios":"levelo://app?vid=d0852a77-0c39-4073-b89d-15b85c3aa5e5"},"vehicle_type_id":"4","last_reported":1741604780,"current_range_meters":18000,"station_id":"ce4bgs92rcd13ifvqcc0","pricing_plan_id":"cebpf4jnsgd1na2vs0mg"},{"bike_id":"e1d39aeb-ba63-4132-825a-3990942a5640","system_id":"levelo_inurba_marseille","lat":43.31073,"lon":5.38356,"is_reserved":false,"is_disabled":false,"rental_uris":{"android":"levelo://app?vid=e1d39aeb-ba63-4132-825a-3990942a5640","ios":"levelo://app?vid=e1d39aeb-ba63-4132-825a-3990942a5640"},"vehicle_type_id":"4","last_reported":1741604780,"current_range_meters":18000,"station_id":"ce4bgv92rcd13ifvqcr0","pricing_plan_id":"cebpf4jnsgd1na2vs0mg"},{"bike_id":"3a1fd8e7-0767-490e-bc54-ed150b1f02d1","system_id":"levelo_inurba_marseille","lat":43.306449,"lon":5.401072,"is_reserved":false,"is_disabled":false,"rental_uris":{"android":"levelo://app?vid=3a1fd8e7-0767-490e-bc54-ed150b1f02d1","ios":"levelo://app?vid=3a1fd8e7-0767-490e-bc54-ed150b1f02d1"},"vehicle_type_id":"4","last_reported":1741604780,"current_range_meters":18000,"station_id":"ce4bh112rcd13ifvqda0","pricing_plan_id":"cebpf4jnsgd1na2vs0mg"},{"bike_id":"f6dc7e9d-be33-4c3d-b28e-234510ea7980","system_id":"levelo_inurba_marseille","lat":43.29081,"lon":5.38095,"is_reserved":false,"is_disabled":false,"rental_uris":{"android":"levelo://app?vid=f6dc7e9d-be33-4c3d-b28e-234510ea7980","ios":"levelo://app?vid=f6dc7e9d-be33-4c3d-b28e-234510ea7980"},"vehicle_type_id":"4","last_reported":1741604780,"current_range_meters":18000,"station_id":"ce4bh512rcd13ifvqe2g","pricing_plan_id":"cebpf4jnsgd1na2vs0mg"},{"bike_id":"1617cee3-cdfd-4818-b8d5-0b6b5b838d97","system_id":"levelo_inurba_marseille","lat":43.24084,"lon":5.37757,"is_reserved":false,"is_disabled":false,"rental_uris":{"android":"levelo://app?vid=1617cee3-cdfd-4818-b8d5-0b6b5b838d97","ios":"levelo://app?vid=1617cee3-cdfd-4818-b8d5-0b6b5b838d97"},"vehicle_type_id":"4","last_reported":1741604780,"current_range_meters":18000,"station_id":"ce4bhnp2rcd13ifvqgvg","pricing_plan_id":"cebpf4jnsgd1na2vs0mg"},{"bike_id":"303473d0-c71d-4532-867e-1af4d571971a","system_id":"levelo_inurba_marseille","lat":43.31091,"lon":5.42439,"is_reserved":false,"is_disabled":false,"rental_uris":{"android":"levelo://app?vid=303473d0-c71d-4532-867e-1af4d571971a","ios":"levelo://app?vid=303473d0-c71d-4532-867e-1af4d571971a"},"vehicle_type_id":"4","last_reported":1741604780,"current_range_meters":18000,"station_id":"ce4bhp92rcd13ifvqhag","pricing_plan_id":"cebpf4jnsgd1na2vs0mg"},{"bike_id":"5a86cf8d-68d1-45dd-8ef4-19f3766a28ac","system_id":"levelo_inurba_marseille","lat":43.27592,"lon":5.38406,"is_reserved":false,"is_disabled":true,"rental_uris":{"android":"levelo://app?vid=5a86cf8d-68d1-45dd-8ef4-19f3766a28ac","ios":"levelo://app?vid=5a86cf8d-68d1-45dd-8ef4-19f3766a28ac"},"vehicle_type_id":"4","last_reported":1741604780,"current_range_meters":18000,"station_id":"ce4bhh92rcd13ifvqfi0","pricing_plan_id":"cebpf4jnsgd1na2vs0mg"},{"bike_id":"7d34c987-73ce-4ca4-a4f8-fc2f3288cfda","system_id":"levelo_inurba_marseille","lat":43.2418,"lon":5.39719,"is_reserved":false,"is_disabled":false,"rental_uris":{"android":"levelo://app?vid=7d34c987-73ce-4ca4-a4f8-fc2f3288cfda","ios":"levelo://app?vid=7d34c987-73ce-4ca4-a4f8-fc2f3288cfda"},"vehicle_type_id":"4","last_reported":1741604780,"current_range_meters":18000,"station_id":"ce4bhn12rcd13ifvqgpg","pricing_plan_id":"cebpf4jnsgd1na2vs0mg"},{"bike_id":"9b823a3e-402f-4b01-86ec-bff5db2889c0","system_id":"levelo_inurba_marseille","lat":43.24079,"lon":5.37741,"is_reserved":false,"is_disabled":false,"rental_uris":{"android":"levelo://app?vid=9b823a3e-402f-4b01-86ec-bff5db2889c0","ios":"levelo://app?vid=9b823a3e-402f-4b01-86ec-bff5db2889c0"},"vehicle_type_id":"4","last_reported":1741604780,"current_range_meters":18000,"station_id":"ce4bhnp2rcd13ifvqgvg","pricing_plan_id":"cebpf4jnsgd1na2vs0mg"},{"bike_id":"3e37f03c-e5a4-4e97-951f-7786bb1c3928","system_id":"levelo_inurba_marseille","lat":43.23157,"lon":5.43723,"is_reserved":false,"is_disabled":false,"rental_uris":{"android":"levelo://app?vid=3e37f03c-e5a4-4e97-951f-7786bb1c3928","ios":"levelo://app?vid=3e37f03c-e5a4-4e97-951f-7786bb1c3928"},"vehicle_type_id":"4","last_reported":1741604780,"current_range_meters":18000,"station_id":"ce4bhmp2rcd13ifvqgog","pricing_plan_id":"cebpf4jnsgd1na2vs0mg"},{"bike_id":"df661ef6-2ccd-416a-95d1-2f0c080557f5","system_id":"levelo_inurba_marseille","lat":43.25934,"lon":5.4091,"is_reserved":false,"is_disabled":false,"rental_uris":{"android":"levelo://app?vid=df661ef6-2ccd-416a-95d1-2f0c080557f5","ios":"levelo://app?vid=df661ef6-2ccd-416a-95d1-2f0c080557f5"},"vehicle_type_id":"4","last_reported":1741604780,"current_range_meters":18000,"station_id":"ce4bhm92rcd13ifvqglg","pricing_plan_id":"cebpf4jnsgd1na2vs0mg"},{"bike_id":"b0fcf30e-2208-4a92-850c-d75ec9da78f7","system_id":"levelo_inurba_marseille","lat":43.26215,"lon":5.40453,"is_reserved":false,"is_disabled":false,"rental_uris":{"android":"levelo://app?vid=b0fcf30e-2208-4a92-850c-d75ec9da78f7","ios":"levelo://app?vid=b0fcf30e-2208-4a92-850c-d75ec9da78f7"},"vehicle_type_id":"4","last_reported":1741604780,"current_range_meters":18000,"station_id":"ce4bhmh2rcd13ifvqgmg","pricing_plan_id":"cebpf4jnsgd1na2vs0mg"},{"bike_id":"5540180e-55d0-4c4d-8e95-598bebdc1ae2","system_id":"levelo_inurba_marseille","lat":43.32483,"lon":5.36573,"is_reserved":false,"is_disabled":false,"rental_uris":{"android":"levelo://app?vid=5540180e-55d0-4c4d-8e95-598bebdc1ae2","ios":"levelo://app?vid=5540180e-55d0-4c4d-8e95-598bebdc1ae2"},"vehicle_type_id":"4","last_reported":1741604780,"current_range_meters":18800,"station_id":"ce4bhs12rcd13ifvqhvg","pricing_plan_id":"cebpf4jnsgd1na2vs0mg"},{"bike_id":"2cdec81d-2593-4153-a426-2f527f1b29e2","system_id":"levelo_inurba_marseille","lat":43.23595,"lon":5.391,"is_reserved":false,"is_disabled":false,"rental_uris":{"android":"levelo://app?vid=2cdec81d-2593-4153-a426-2f527f1b29e2","ios":"levelo://app?vid=2cdec81d-2593-4153-a426-2f527f1b29e2"},"vehicle_type_id":"4","last_reported":1741604780,"current_range_meters":18800,"station_id":"","pricing_plan_id":"cebpf4jnsgd1na2vs0mg"},{"bike_id":"4b68f17e-a3e7-4bbe-b390-31970db5b0a6","system_id":"levelo_inurba_marseille","lat":43.31288,"lon":5.40166,"is_reserved":false,"is_disabled":false,"rental_uris":{"android":"levelo://app?vid=4b68f17e-a3e7-4bbe-b390-31970db5b0a6","ios":"levelo://app?vid=4b68f17e-a3e7-4bbe-b390-31970db5b0a6"},"vehicle_type_id":"4","last_reported":1741604780,"current_range_meters":18800,"station_id":"ce4bh092rcd13ifvqd30","pricing_plan_id":"cebpf4jnsgd1na2vs0mg"},{"bike_id":"565febc3-3424-4d4c-95ca-5705a262f891","system_id":"levelo_inurba_marseille","lat":43.28159,"lon":5.42648,"is_reserved":false,"is_disabled":false,"rental_uris":{"android":"levelo://app?vid=565febc3-3424-4d4c-95ca-5705a262f891","ios":"levelo://app?vid=565febc3-3424-4d4c-95ca-5705a262f891"},"vehicle_type_id":"4","last_reported":1741604780,"current_range_meters":18800,"station_id":"ce4bhnh2rcd13ifvqgug","pricing_plan_id":"cebpf4jnsgd1na2vs0mg"},{"bike_id":"fbe1c375-f34b-494e-9371-52a0657fca0e","system_id":"levelo_inurba_marseille","lat":43.29023,"lon":5.35594,"is_reserved":false,"is_disabled":false,"rental_uris":{"android":"levelo://app?vid=fbe1c375-f34b-494e-9371-52a0657fca0e","ios":"levelo://app?vid=fbe1c375-f34b-494e-9371-52a0657fca0e"},"vehicle_type_id":"4","last_reported":1741604780,"current_range_meters":18800,"station_id":"ce4bhb92rcd13ifvqen0","pricing_plan_id":"cebpf4jnsgd1na2vs0mg"},{"bike_id":"a26a52ca-313c-493d-b845-400de1383f29","system_id":"levelo_inurba_marseille","lat":43.23076,"lon":5.35497,"is_reserved":false,"is_disabled":false,"rental_uris":{"android":"levelo://app?vid=a26a52ca-313c-493d-b845-400de1383f29","ios":"levelo://app?vid=a26a52ca-313c-493d-b845-400de1383f29"},"vehicle_type_id":"4","last_reported":1741604780,"current_range_meters":18800,"station_id":"cpo3342slgdg3j2ifvpg","pricing_plan_id":"cebpf4jnsgd1na2vs0mg"},{"bike_id":"3cd6abca-ec5e-49aa-8a45-048017f8ac97","system_id":"levelo_inurba_marseille","lat":43.29225,"lon":5.40113,"is_reserved":false,"is_disabled":false,"rental_uris":{"android":"levelo://app?vid=3cd6abca-ec5e-49aa-8a45-048017f8ac97","ios":"levelo://app?vid=3cd6abca-ec5e-49aa-8a45-048017f8ac97"},"vehicle_type_id":"4","last_reported":1741604780,"current_range_meters":19200,"station_id":"ce4bh312rcd13ifvqdk0","pricing_plan_id":"cebpf4jnsgd1na2vs0mg"},{"bike_id":"5bdb40ba-3e54-4990-89fd-56ecb836491e","system_id":"levelo_inurba_marseille","lat":43.23154,"lon":5.43743,"is_reserved":false,"is_disabled":false,"rental_uris":{"android":"levelo://app?vid=5bdb40ba-3e54-4990-89fd-56ecb836491e","ios":"levelo://app?vid=5bdb40ba-3e54-4990-89fd-56ecb836491e"},"vehicle_type_id":"4","last_reported":1741604780,"current_range_meters":19200,"station_id":"ce4bhmp2rcd13ifvqgog","pricing_plan_id":"cebpf4jnsgd1na2vs0mg"},{"bike_id":"fdaa1059-b581-419b-ac4d-269c36f9ab41","system_id":"levelo_inurba_marseille","lat":43.32117,"lon":5.36759,"is_reserved":false,"is_disabled":false,"rental_uris":{"android":"levelo://app?vid=fdaa1059-b581-419b-ac4d-269c36f9ab41","ios":"levelo://app?vid=fdaa1059-b581-419b-ac4d-269c36f9ab41"},"vehicle_type_id":"4","last_reported":1741604780,"current_range_meters":19200,"station_id":"ce4bhrh2rcd13ifvqhug","pricing_plan_id":"cebpf4jnsgd1na2vs0mg"},{"bike_id":"e9f0ddf6-c638-4a12-8ca0-d2f9784b891b","system_id":"levelo_inurba_marseille","lat":43.27812,"lon":5.40719,"is_reserved":false,"is_disabled":false,"rental_uris":{"android":"levelo://app?vid=e9f0ddf6-c638-4a12-8ca0-d2f9784b891b","ios":"levelo://app?vid=e9f0ddf6-c638-4a12-8ca0-d2f9784b891b"},"vehicle_type_id":"4","last_reported":1741604780,"current_range_meters":19200,"station_id":"ce4bhnh2rcd13ifvqgtg","pricing_plan_id":"cebpf4jnsgd1na2vs0mg"},{"bike_id":"978ce186-7a25-4469-af1a-582f0c03715a","system_id":"levelo_inurba_marseille","lat":43.29934,"lon":5.36553,"is_reserved":false,"is_disabled":false,"rental_uris":{"android":"levelo://app?vid=978ce186-7a25-4469-af1a-582f0c03715a","ios":"levelo://app?vid=978ce186-7a25-4469-af1a-582f0c03715a"},"vehicle_type_id":"4","last_reported":1741604780,"current_range_meters":19200,"station_id":"ce4bgm92rcd13ifvqbr0","pricing_plan_id":"cebpf4jnsgd1na2vs0mg"},{"bike_id":"82de8b79-4351-4849-8f91-e11ec13889c5","system_id":"levelo_inurba_marseille","lat":43.23208,"lon":5.35549,"is_reserved":false,"is_disabled":false,"rental_uris":{"android":"levelo://app?vid=82de8b79-4351-4849-8f91-e11ec13889c5","ios":"levelo://app?vid=82de8b79-4351-4849-8f91-e11ec13889c5"},"vehicle_type_id":"4","last_reported":1741604780,"current_range_meters":19200,"station_id":"ce4bhu92rcd13ifvqi70","pricing_plan_id":"cebpf4jnsgd1na2vs0mg"},{"bike_id":"78549cf8-b0cc-41c9-ae90-189226d24ef8","system_id":"levelo_inurba_marseille","lat":43.29857,"lon":5.3629,"is_reserved":false,"is_disabled":false,"rental_uris":{"android":"levelo://app?vid=78549cf8-b0cc-41c9-ae90-189226d24ef8","ios":"levelo://app?vid=78549cf8-b0cc-41c9-ae90-189226d24ef8"},"vehicle_type_id":"4","last_reported":1741604780,"current_range_meters":19200,"station_id":"ce4bgpp2rcd13ifvqc3g","pricing_plan_id":"cebpf4jnsgd1na2vs0mg"},{"bike_id":"f0b5f6b7-161e-4c72-8f30-8d8e8d5c374f","system_id":"levelo_inurba_marseille","lat":43.24585,"lon":5.40482,"is_reserved":false,"is_disabled":false,"rental_uris":{"android":"levelo://app?vid=f0b5f6b7-161e-4c72-8f30-8d8e8d5c374f","ios":"levelo://app?vid=f0b5f6b7-161e-4c72-8f30-8d8e8d5c374f"},"vehicle_type_id":"4","last_reported":1741604780,"current_range_meters":19200,"station_id":"","pricing_plan_id":"cebpf4jnsgd1na2vs0mg"},{"bike_id":"0f2b1978-cc4e-4480-88c1-a8c2e71c3bb7","system_id":"levelo_inurba_marseille","lat":43.29804,"lon":5.38094,"is_reserved":false,"is_disabled":false,"rental_uris":{"android":"levelo://app?vid=0f2b1978-cc4e-4480-88c1-a8c2e71c3bb7","ios":"levelo://app?vid=0f2b1978-cc4e-4480-88c1-a8c2e71c3bb7"},"vehicle_type_id":"4","last_reported":1741604780,"current_range_meters":19600,"station_id":"ce4bgip2rcd13ifvqbb0","pricing_plan_id":"cebpf4jnsgd1na2vs0mg"},{"bike_id":"d08fd04c-4992-4359-8fbc-444e5048f328","system_id":"levelo_inurba_marseille","lat":43.295288,"lon":5.385625,"is_reserved":false,"is_disabled":false,"rental_uris":{"android":"levelo://app?vid=d08fd04c-4992-4359-8fbc-444e5048f328","ios":"levelo://app?vid=d08fd04c-4992-4359-8fbc-444e5048f328"},"vehicle_type_id":"4","last_reported":1741604780,"current_range_meters":19200,"station_id":"ce4bgqh2rcd13ifvqc4g","pricing_plan_id":"cebpf4jnsgd1na2vs0mg"},{"bike_id":"93a5fbcb-12a5-4565-bc7a-073682b2e36d","system_id":"levelo_inurba_marseille","lat":43.28516,"lon":5.38565,"is_reserved":false,"is_disabled":false,"rental_uris":{"android":"levelo://app?vid=93a5fbcb-12a5-4565-bc7a-073682b2e36d","ios":"levelo://app?vid=93a5fbcb-12a5-4565-bc7a-073682b2e36d"},"vehicle_type_id":"4","last_reported":1741604780,"current_range_meters":19600,"station_id":"ce4bh8p2rcd13ifvqeb0","pricing_plan_id":"cebpf4jnsgd1na2vs0mg"},{"bike_id":"9e3ddfc1-b0f3-4510-bd67-612744e970bf","system_id":"levelo_inurba_marseille","lat":43.24075,"lon":5.37761,"is_reserved":false,"is_disabled":false,"rental_uris":{"android":"levelo://app?vid=9e3ddfc1-b0f3-4510-bd67-612744e970bf","ios":"levelo://app?vid=9e3ddfc1-b0f3-4510-bd67-612744e970bf"},