{"last_updated":1746011316,"ttl":60,"version":"2.2","data":{"bikes":[{"bike_id":"e0265468-299b-472b-b647-c07eeb75cf01","system_id":"levelo_inurba_marseille","lat":43.32653,"lon":5.40956,"is_reserved":false,"is_disabled":true,"rental_uris":{"android":"levelo://app?vid=e0265468-299b-472b-b647-c07eeb75cf01","ios":"levelo://app?vid=e0265468-299b-472b-b647-c07eeb75cf01"},"vehicle_type_id":"4","last_reported":1746011316,"current_range_meters":2800,"station_id":"ce4bhpp2rcd13ifvqhgg","pricing_plan_id":"cebpf4jnsgd1na2vs0mg"},{"bike_id":"50b60c19-e877-48fa-aff5-30dd279c1eae","system_id":"levelo_inurba_marseille","lat":43.284964,"lon":5.385595,"is_reserved":false,"is_disabled":false,"rental_uris":{"android":"levelo://app?vid=50b60c19-e877-48fa-aff5-30dd279c1eae","ios":"levelo://app?vid=50b60c19-e877-48fa-aff5-30dd279c1eae"},"vehicle_type_id":"4","last_reported":1746011316,"current_range_meters":3600,"station_id":"ce4bh8p2rcd13ifvqeb0","pricing_plan_id":"cebpf4jnsgd1na2vs0mg"},{"bike_id":"e5b4b90d-e268-4de2-98f4-f6d0513f8801","system_id":"levelo_inurba_marseille","lat":43.26537,"lon":5.4222,"is_reserved":false,"is_disabled":false,"rental_uris":{"android":"levelo://app?vid=e5b4b90d-e268-4de2-98f4-f6d0513f8801","ios":"levelo://app?vid=e5b4b90d-e268-4de2-98f4-f6d0513f8801"},"vehicle_type_id":"4","last_reported":1746011316,"current_range_meters":3600,"station_id":"","pricing_plan_id":"cebpf4jnsgd1na2vs0mg"},{"bike_id":"ffa0285d-5baa-4325-94c3-07da0c2810f9","system_id":"levelo_inurba_marseille","lat":43.28409,"lon":5.37503,"is_reserved":false,"is_disabled":true,"rental_uris":{"android":"levelo://app?vid=ffa0285d-5baa-4325-94c3-07da0c2810f9","ios":"levelo://app?vid=ffa0285d-5baa-4325-94c3-07da0c2810f9"},"vehicle_type_id":"4","last_reported":1746011316,"current_range_meters":4000,"station_id":"ce4bh412rcd13ifvqds0","pricing_plan_id":"cebpf4jnsgd1na2vs0mg"},{"bike_id":"48631a05-02ee-4b50-bdbf-9d5fd3bac36a","system_id":"levelo_inurba_marseille","lat":43.25492,"lon":5.37646,"is_reserved":false,"is_disabled":false,"rental_uris":{"android":"levelo://app?vid=48631a05-02ee-4b50-bdbf-9d5fd3bac36a","ios":"levelo://app?vid=48631a05-02ee-4b50-bdbf-9d5fd3bac36a"},"vehicle_type_id":"4","last_reported":1746011316,"current_range_meters":4000,"station_id":"ce4bhh12rcd13ifvqff0","pricing_plan_id":"cebpf4jnsgd1na2vs0mg"},{"bike_id":"6c9f0a67-fa10-48d1-a43a-9346ba369043","system_id":"levelo_inurba_marseille","lat":43.2816,"lon":5.42639,"is_reserved":false,"is_disabled":false,"rental_uris":{"android":"levelo://app?vid=6c9f0a67-fa10-48d1-a43a-9346ba369043","ios":"levelo://app?vid=6c9f0a67-fa10-48d1-a43a-9346ba369043"},"vehicle_type_id":"4","last_reported":1746011316,"current_range_meters":3600,"station_id":"ce4bhnh2rcd13ifvqgug","pricing_plan_id":"cebpf4jnsgd1na2vs0mg"},{"bike_id":"8c622d2c-639e-4c77-8491-f574ed04c7d0","system_id":"levelo_inurba_marseille","lat":43.30134,"lon":5.38768,"is_reserved":false,"is_disabled":false,"rental_uris":{"android":"levelo://app?vid=8c622d2c-639e-4c77-8491-f574ed04c7d0","ios":"levelo://app?vid=8c622d2c-639e-4c77-8491-f574ed04c7d0"},"vehicle_type_id":"4","last_reported":1746011316,"current_range_meters":4000,"station_id":"ce4bghh2rcd13ifvqb60","pricing_plan_id":"cebpf4jnsgd1na2vs0mg"},{"bike_id":"574ef15f-1b02-40f1-8644-3793270999b1","system_id":"levelo_inurba_marseille","lat":43.29167,"lon":5.37165,"is_reserved":false,"is_disabled":false,"rental_uris":{"android":"levelo://app?vid=574ef15f-1b02-40f1-8644-3793270999b1","ios":"levelo://app?vid=574ef15f-1b02-40f1-8644-3793270999b1"},"vehicle_type_id":"4","last_reported":1746011316,"current_range_meters":4000,"station_id":"ce4bha92rcd13ifvqeh0","pricing_plan_id":"cebpf4jnsgd1na2vs0mg"},{"bike_id":"cbbf73c3-4b57-44da-91cd-1c4449344f4e","system_id":"levelo_inurba_marseille","lat":43.257447,"lon":5.410761,"is_reserved":false,"is_disabled":false,"rental_uris":{"android":"levelo://app?vid=cbbf73c3-4b57-44da-91cd-1c4449344f4e","ios":"levelo://app?vid=cbbf73c3-4b57-44da-91cd-1c4449344f4e"},"vehicle_type_id":"4","last_reported":1746011316,"current_range_meters":4000,"station_id":"ce4bhkp2rcd13ifvqgd0","pricing_plan_id":"cebpf4jnsgd1na2vs0mg"},{"bike_id":"33a8ee99-a44c-40bc-9f6f-ff856006369e","system_id":"levelo_inurba_marseille","lat":43.2415,"lon":5.36449,"is_reserved":false,"is_disabled":false,"rental_uris":{"android":"levelo://app?vid=33a8ee99-a44c-40bc-9f6f-ff856006369e","ios":"levelo://app?vid=33a8ee99-a44c-40bc-9f6f-ff856006369e"},"vehicle_type_id":"4","last_reported":1746011316,"current_range_meters":4400,"station_id":"cpo36qri1sfpv3e86is0","pricing_plan_id":"cebpf4jnsgd1na2vs0mg"},{"bike_id":"f1e3c12a-02a3-4893-b9e1-1aacd74f3f49","system_id":"levelo_inurba_marseille","lat":43.32132,"lon":5.36772,"is_reserved":false,"is_disabled":false,"rental_uris":{"android":"levelo://app?vid=f1e3c12a-02a3-4893-b9e1-1aacd74f3f49","ios":"levelo://app?vid=f1e3c12a-02a3-4893-b9e1-1aacd74f3f49"},"vehicle_type_id":"4","last_reported":1746011316,"current_range_meters":4400,"station_id":"ce4bhrh2rcd13ifvqhug","pricing_plan_id":"cebpf4jnsgd1na2vs0mg"},{"bike_id":"15051555-92fd-4be2-8eaf-a1b65fae7910","system_id":"levelo_inurba_marseille","lat":43.28726,"lon":5.37942,"is_reserved":false,"is_disabled":false,"rental_uris":{"android":"levelo://app?vid=15051555-92fd-4be2-8eaf-a1b65fae7910","ios":"levelo://app?vid=15051555-92fd-4be2-8eaf-a1b65fae7910"},"vehicle_type_id":"4","last_reported":1746011316,"current_range_meters":4400,"station_id":"ce4bh9p2rcd13ifvqec0","pricing_plan_id":"cebpf4jnsgd1na2vs0mg"},{"bike_id":"1d007868-125b-4a28-9120-80cf8c996b1f","system_id":"levelo_inurba_marseille","lat":43.24392,"lon":5.37064,"is_reserved":false,"is_disabled":false,"rental_uris":{"android":"levelo://app?vid=1d007868-125b-4a28-9120-80cf8c996b1f","ios":"levelo://app?vid=1d007868-125b-4a28-9120-80cf8c996b1f"},"vehicle_type_id":"4","last_reported":1746011316,"current_range_meters":4400,"station_id":"ce4bhhh2rcd13ifvqfk0","pricing_plan_id":"cebpf4jnsgd1na2vs0mg"},{"bike_id":"3dc8c8bd-5c5f-42f1-8280-e9150339f845","system_id":"levelo_inurba_marseille","lat":43.21194,"lon":5.35071,"is_reserved":false,"is_disabled":false,"rental_uris":{"android":"levelo://app?vid=3dc8c8bd-5c5f-42f1-8280-e9150339f845","ios":"levelo://app?vid=3dc8c8bd-5c5f-42f1-8280-e9150339f845"},"vehicle_type_id":"4","last_reported":1746011316,"current_range_meters":4400,"station_id":"st_cvj6sg6p6f1abm77japg","pricing_plan_id":"cebpf4jnsgd1na2vs0mg"},{"bike_id":"60ead36c-2e2f-4001-a1cf-1bb10dd3622c","system_id":"levelo_inurba_marseille","lat":43.25505,"lon":5.37651,"is_reserved":false,"is_disabled":false,"rental_uris":{"android":"levelo://app?vid=60ead36c-2e2f-4001-a1cf-1bb10dd3622c","ios":"levelo://app?vid=60ead36c-2e2f-4001-a1cf-1bb10dd3622c"},"vehicle_type_id":"4","last_reported":1746011316,"current_range_meters":4800,"station_id":"ce4bhh12rcd13ifvqff0","pricing_plan_id":"cebpf4jnsgd1na2vs0mg"},{"bike_id":"672a6a9b-16c0-4898-8964-08b2766bfb0e","system_id":"levelo_inurba_marseille","lat":43.25079,"lon":5.39512,"is_reserved":false,"is_disabled":false,"rental_uris":{"android":"levelo://app?vid=672a6a9b-16c0-4898-8964-08b2766bfb0e","ios":"levelo://app?vid=672a6a9b-16c0-4898-8964-08b2766bfb0e"},"vehicle_type_id":"4","last_reported":1746011316,"current_range_meters":5600,"station_id":"ce4bhm12rcd13ifvqgkg","pricing_plan_id":"cebpf4jnsgd1na2vs0mg"},{"bike_id":"8e779821-5b1f-45f3-b40f-6a0e653c7333","system_id":"levelo_inurba_marseille","lat":43.33769,"lon":5.374746,"is_reserved":false,"is_disabled":false,"rental_uris":{"android":"levelo://app?vid=8e779821-5b1f-45f3-b40f-6a0e653c7333","ios":"levelo://app?vid=8e779821-5b1f-45f3-b40f-6a0e653c7333"},"vehicle_type_id":"4","last_reported":1746011316,"current_range_meters":4800,"station_id":"","pricing_plan_id":"cebpf4jnsgd1na2vs0mg"},{"bike_id":"429c39f9-3167-44b4-b932-14428adf6236","system_id":"levelo_inurba_marseille","lat":43.29572,"lon":5.39977,"is_reserved":false,"is_disabled":false,"rental_uris":{"android":"levelo://app?vid=429c39f9-3167-44b4-b932-14428adf6236","ios":"levelo://app?vid=429c39f9-3167-44b4-b932-14428adf6236"},"vehicle_type_id":"4","last_reported":1746011316,"current_range_meters":3600,"station_id":"ce4bh312rcd13ifvqdj0","pricing_plan_id":"cebpf4jnsgd1na2vs0mg"},{"bike_id":"26a4a2da-5375-463e-8439-44e429383af1","system_id":"levelo_inurba_marseille","lat":43.23151,"lon":5.43725,"is_reserved":false,"is_disabled":false,"rental_uris":{"android":"levelo://app?vid=26a4a2da-5375-463e-8439-44e429383af1","ios":"levelo://app?vid=26a4a2da-5375-463e-8439-44e429383af1"},"vehicle_type_id":"4","last_reported":1746011316,"current_range_meters":5600,"station_id":"ce4bhmp2rcd13ifvqgog","pricing_plan_id":"cebpf4jnsgd1na2vs0mg"},{"bike_id":"d0cf46c5-c6ba-418b-bcfd-9fb790731d3f","system_id":"levelo_inurba_marseille","lat":43.21191,"lon":5.35069,"is_reserved":false,"is_disabled":false,"rental_uris":{"android":"levelo://app?vid=d0cf46c5-c6ba-418b-bcfd-9fb790731d3f","ios":"levelo://app?vid=d0cf46c5-c6ba-418b-bcfd-9fb790731d3f"},"vehicle_type_id":"4","last_reported":1746011316,"current_range_meters":5600,"station_id":"st_cvj6sg6p6f1abm77japg","pricing_plan_id":"cebpf4jnsgd1na2vs0mg"},{"bike_id":"cd443c96-76a4-4f04-b565-05a2e1128279","system_id":"levelo_inurba_marseille","lat":43.293076,"lon":5.374647,"is_reserved":false,"is_disabled":false,"rental_uris":{"android":"levelo://app?vid=cd443c96-76a4-4f04-b565-05a2e1128279","ios":"levelo://app?vid=cd443c96-76a4-4f04-b565-05a2e1128279"},"vehicle_type_id":"4","last_reported":1746011316,"current_range_meters":5600,"station_id":"ce4bgi12rcd13ifvqb70","pricing_plan_id":"cebpf4jnsgd1na2vs0mg"},{"bike_id":"aa59e8df-8a99-47ae-9982-92d8098176ba","system_id":"levelo_inurba_marseille","lat":43.26213,"lon":5.37438,"is_reserved":false,"is_disabled":false,"rental_uris":{"android":"levelo://app?vid=aa59e8df-8a99-47ae-9982-92d8098176ba","ios":"levelo://app?vid=aa59e8df-8a99-47ae-9982-92d8098176ba"},"vehicle_type_id":"4","last_reported":1746011316,"current_range_meters":6000,"station_id":"ce4bhgp2rcd13ifvqfc0","pricing_plan_id":"cebpf4jnsgd1na2vs0mg"},{"bike_id":"d522b531-12d4-4e57-9747-626ecb12c94d","system_id":"levelo_inurba_marseille","lat":43.28414,"lon":5.3497,"is_reserved":false,"is_disabled":false,"rental_uris":{"android":"levelo://app?vid=d522b531-12d4-4e57-9747-626ecb12c94d","ios":"levelo://app?vid=d522b531-12d4-4e57-9747-626ecb12c94d"},"vehicle_type_id":"4","last_reported":1746011316,"current_range_meters":6000,"station_id":"ce4bhbh2rcd13ifvqepg","pricing_plan_id":"cebpf4jnsgd1na2vs0mg"},{"bike_id":"7497e739-0c50-4aa1-9f39-dfb008e37b83","system_id":"levelo_inurba_marseille","lat":43.30964,"lon":5.37125,"is_reserved":false,"is_disabled":false,"rental_uris":{"android":"levelo://app?vid=7497e739-0c50-4aa1-9f39-dfb008e37b83","ios":"levelo://app?vid=7497e739-0c50-4aa1-9f39-dfb008e37b83"},"vehicle_type_id":"4","last_reported":1746011316,"current_range_meters":6000,"station_id":"","pricing_plan_id":"cebpf4jnsgd1na2vs0mg"},{"bike_id":"e953f802-32bc-471a-ab36-3f3299c66367","system_id":"levelo_inurba_marseille","lat":43.30797,"lon":5.38158,"is_reserved":false,"is_disabled":false,"rental_uris":{"android":"levelo://app?vid=e953f802-32bc-471a-ab36-3f3299c66367","ios":"levelo://app?vid=e953f802-32bc-471a-ab36-3f3299c66367"},"vehicle_type_id":"4","last_reported":1746011316,"current_range_meters":6400,"station_id":"ce4bgt12rcd13ifvqce0","pricing_plan_id":"cebpf4jnsgd1na2vs0mg"},{"bike_id":"1d335d07-8e5b-481a-b235-4b311afe1d37","system_id":"levelo_inurba_marseille","lat":43.25718,"lon":5.41126,"is_reserved":false,"is_disabled":false,"rental_uris":{"android":"levelo://app?vid=1d335d07-8e5b-481a-b235-4b311afe1d37","ios":"levelo://app?vid=1d335d07-8e5b-481a-b235-4b311afe1d37"},"vehicle_type_id":"4","last_reported":1746011316,"current_range_meters":6400,"station_id":"ce4bhkp2rcd13ifvqgd0","pricing_plan_id":"cebpf4jnsgd1na2vs0mg"},{"bike_id":"5a1610a5-2728-4fc9-91ba-82f66daa3100","system_id":"levelo_inurba_marseille","lat":43.2622,"lon":5.40453,"is_reserved":false,"is_disabled":false,"rental_uris":{"android":"levelo://app?vid=5a1610a5-2728-4fc9-91ba-82f66daa3100","ios":"levelo://app?vid=5a1610a5-2728-4fc9-91ba-82f66daa3100"},"vehicle_type_id":"4","last_reported":1746011316,"current_range_meters":6800,"station_id":"ce4bhmh2rcd13ifvqgmg","pricing_plan_id":"cebpf4jnsgd1na2vs0mg"},{"bike_id":"74d89113-a26b-48a4-b5f8-3809c413d663","system_id":"levelo_inurba_marseille","lat":43.29268,"lon":5.3843,"is_reserved":false,"is_disabled":false,"rental_uris":{"android":"levelo://app?vid=74d89113-a26b-48a4-b5f8-3809c413d663","ios":"levelo://app?vid=74d89113-a26b-48a4-b5f8-3809c413d663"},"vehicle_type_id":"4","last_reported":1746011316,"current_range_meters":6800,"station_id":"ce4bh692rcd13ifvqea0","pricing_plan_id":"cebpf4jnsgd1na2vs0mg"},{"bike_id":"386bae23-9935-4964-9e0f-37df8644c44b","system_id":"levelo_inurba_marseille","lat":43.23192,"lon":5.39991,"is_reserved":false,"is_disabled":false,"rental_uris":{"android":"levelo://app?vid=386bae23-9935-4964-9e0f-37df8644c44b","ios":"levelo://app?vid=386bae23-9935-4964-9e0f-37df8644c44b"},"vehicle_type_id":"4","last_reported":1746011316,"current_range_meters":6800,"station_id":"ce4bhn12rcd13ifvqgqg","pricing_plan_id":"cebpf4jnsgd1na2vs0mg"},{"bike_id":"35ad5e3f-1078-44e0-a440-ff93583a4754","system_id":"levelo_inurba_marseille","lat":43.30114,"lon":5.38059,"is_reserved":false,"is_disabled":false,"rental_uris":{"android":"levelo://app?vid=35ad5e3f-1078-44e0-a440-ff93583a4754","ios":"levelo://app?vid=35ad5e3f-1078-44e0-a440-ff93583a4754"},"vehicle_type_id":"4","last_reported":1746011316,"current_range_meters":6800,"station_id":"ce4bgjp2rcd13ifvqbh0","pricing_plan_id":"cebpf4jnsgd1na2vs0mg"},{"bike_id":"89e9553b-359a-4286-8dbe-b7ac879dcc90","system_id":"levelo_inurba_marseille","lat":43.32486,"lon":5.36564,"is_reserved":false,"is_disabled":false,"rental_uris":{"android":"levelo://app?vid=89e9553b-359a-4286-8dbe-b7ac879dcc90","ios":"levelo://app?vid=89e9553b-359a-4286-8dbe-b7ac879dcc90"},"vehicle_type_id":"4","last_reported":1746011316,"current_range_meters":6800,"station_id":"ce4bhs12rcd13ifvqhvg","pricing_plan_id":"cebpf4jnsgd1na2vs0mg"},{"bike_id":"1862fb6f-61c4-4c09-a828-864ab246ea11","system_id":"levelo_inurba_marseille","lat":43.235397,"lon":5.403267,"is_reserved":false,"is_disabled":false,"rental_uris":{"android":"levelo://app?vid=1862fb6f-61c4-4c09-a828-864ab246ea11","ios":"levelo://app?vid=1862fb6f-61c4-4c09-a828-864ab246ea11"},"vehicle_type_id":"4","last_reported":1746011316,"current_range_meters":7200,"station_id":"","pricing_plan_id":"cebpf4jnsgd1na2vs0mg"},{"bike_id":"4937227b-fb3e-42b0-b529-83a0cdd39a4c","system_id":"levelo_inurba_marseille","lat":43.28461,"lon":5.35887,"is_reserved":false,"is_disabled":false,"rental_uris":{"android":"levelo://app?vid=4937227b-fb3e-42b0-b529-83a0cdd39a4c","ios":"levelo://app?vid=4937227b-fb3e-42b0-b529-83a0cdd39a4c"},"vehicle_type_id":"4","last_reported":1746011316,"current_range_meters":8000,"station_id":"ce4bhah2rcd13ifvqei0","pricing_plan_id":"cebpf4jnsgd1na2vs0mg"},{"bike_id":"6f07af06-f680-42ca-ba89-7fe3cae145c6","system_id":"levelo_inurba_marseille","lat":43.21753,"lon":5.34597,"is_reserved":false,"is_disabled":false,"rental_uris":{"android":"levelo://app?vid=6f07af06-f680-42ca-ba89-7fe3cae145c6","ios":"levelo://app?vid=6f07af06-f680-42ca-ba89-7fe3cae145c6"},"vehicle_type_id":"4","last_reported":1746011316,"current_range_meters":8000,"station_id":"st_cvj6r9ubvosntc0bgbag","pricing_plan_id":"cebpf4jnsgd1na2vs0mg"},{"bike_id":"231564ed-c2d5-4771-9409-71d58e3ad9e3","system_id":"levelo_inurba_marseille","lat":43.21195,"lon":5.35069,"is_reserved":false,"is_disabled":false,"rental_uris":{"android":"levelo://app?vid=231564ed-c2d5-4771-9409-71d58e3ad9e3","ios":"levelo://app?vid=231564ed-c2d5-4771-9409-71d58e3ad9e3"},"vehicle_type_id":"4","last_reported":1746011316,"current_range_meters":8000,"station_id":"st_cvj6sg6p6f1abm77japg","pricing_plan_id":"cebpf4jnsgd1na2vs0mg"},{"bike_id":"8aecdc43-ad8b-4ae9-b4a7-b65b257f59a3","system_id":"levelo_inurba_marseille","lat":43.25494,"lon":5.37641,"is_reserved":false,"is_disabled":false,"rental_uris":{"android":"levelo://app?vid=8aecdc43-ad8b-4ae9-b4a7-b65b257f59a3","ios":"levelo://app?vid=8aecdc43-ad8b-4ae9-b4a7-b65b257f59a3"},"vehicle_type_id":"4","last_reported":1746011316,"current_range_meters":8000,"station_id":"ce4bhh12rcd13ifvqff0","pricing_plan_id":"cebpf4jnsgd1na2vs0mg"},{"bike_id":"ec2235e9-4990-4128-8f0f-918cf3420f32","system_id":"levelo_inurba_marseille","lat":43.23154,"lon":5.43711,"is_reserved":false,"is_disabled":false,"rental_uris":{"android":"levelo://app?vid=ec2235e9-4990-4128-8f0f-918cf3420f32","ios":"levelo://app?vid=ec2235e9-4990-4128-8f0f-918cf3420f32"},"vehicle_type_id":"4","last_reported":1746011316,"current_range_meters":8400,"station_id":"ce4bhmp2rcd13ifvqgog","pricing_plan_id":"cebpf4jnsgd1na2vs0mg"},{"bike_id":"7eab4cb0-2fb1-4bd6-8a5b-8fc0131ab374","system_id":"levelo_inurba_marseille","lat":43.27808,"lon":5.40717,"is_reserved":false,"is_disabled":false,"rental_uris":{"android":"levelo://app?vid=7eab4cb0-2fb1-4bd6-8a5b-8fc0131ab374","ios":"levelo://app?vid=7eab4cb0-2fb1-4bd6-8a5b-8fc0131ab374"},"vehicle_type_id":"4","last_reported":1746011316,"current_range_meters":8400,"station_id":"ce4bhnh2rcd13ifvqgtg","pricing_plan_id":"cebpf4jnsgd1na2vs0mg"},{"bike_id":"bd04e454-3ea7-45cc-8035-9396cf8e8c1c","system_id":"levelo_inurba_marseille","lat":43.2835,"lon":5.381,"is_reserved":false,"is_disabled":false,"rental_uris":{"android":"levelo://app?vid=bd04e454-3ea7-45cc-8035-9396cf8e8c1c","ios":"levelo://app?vid=bd04e454-3ea7-45cc-8035-9396cf8e8c1c"},"vehicle_type_id":"4","last_reported":1746011316,"current_range_meters":8400,"station_id":"ce4bh412rcd13ifvqdr0","pricing_plan_id":"cebpf4jnsgd1na2vs0mg"},{"bike_id":"c7d4ca92-020f-4c6f-815a-ddc6fdf77b1f","system_id":"levelo_inurba_marseille","lat":43.234672,"lon":5.380474,"is_reserved":false,"is_disabled":false,"rental_uris":{"android":"levelo://app?vid=c7d4ca92-020f-4c6f-815a-ddc6fdf77b1f","ios":"levelo://app?vid=c7d4ca92-020f-4c6f-815a-ddc6fdf77b1f"},"vehicle_type_id":"4","last_reported":1746011316,"current_range_meters":8400,"station_id":"","pricing_plan_id":"cebpf4jnsgd1na2vs0mg"},{"bike_id":"e967799e-82ad-4378-a71f-fbd58f89f7e6","system_id":"levelo_inurba_marseille","lat":43.25585,"lon":5.38229,"is_reserved":false,"is_disabled":false,"rental_uris":{"android":"levelo://app?vid=e967799e-82ad-4378-a71f-fbd58f89f7e6","ios":"levelo://app?vid=e967799e-82ad-4378-a71f-fbd58f89f7e6"},"vehicle_type_id":"4","last_reported":1746011316,"current_range_meters":8400,"station_id":"ce4bhih2rcd13ifvqfs0","pricing_plan_id":"cebpf4jnsgd1na2vs0mg"},{"bike_id":"91c533d0-e52e-4d85-bf53-16e672a56984","system_id":"levelo_inurba_marseille","lat":43.308874,"lon":5.371832,"is_reserved":false,"is_disabled":true,"rental_uris":{"android":"levelo://app?vid=91c533d0-e52e-4d85-bf53-16e672a56984","ios":"levelo://app?vid=91c533d0-e52e-4d85-bf53-16e672a56984"},"vehicle_type_id":"4","last_reported":1746011316,"current_range_meters":8800,"station_id":"ce4bguh2rcd13ifvqckg","pricing_plan_id":"cebpf4jnsgd1na2vs0mg"},{"bike_id":"b3398f43-0935-4e1d-a0f5-3ef2ffc757c9","system_id":"levelo_inurba_marseille","lat":43.27178,"lon":5.40998,"is_reserved":false,"is_disabled":false,"rental_uris":{"android":"levelo://app?vid=b3398f43-0935-4e1d-a0f5-3ef2ffc757c9","ios":"levelo://app?vid=b3398f43-0935-4e1d-a0f5-3ef2ffc757c9"},"vehicle_type_id":"4","last_reported":1746011316,"current_range_meters":8800,"station_id":"ce4bhl12rcd13ifvqgf0","pricing_plan_id":"cebpf4jnsgd1na2vs0mg"},{"bike_id":"f7d434d6-c94a-44aa-85df-690d8ef2922e","system_id":"levelo_inurba_marseille","lat":43.324755,"lon":5.365729,"is_reserved":false,"is_disabled":false,"rental_uris":{"android":"levelo://app?vid=f7d434d6-c94a-44aa-85df-690d8ef2922e","ios":"levelo://app?vid=f7d434d6-c94a-44aa-85df-690d8ef2922e"},"vehicle_type_id":"4","last_reported":1746011316,"current_range_meters":8800,"station_id":"ce4bhs12rcd13ifvqhvg","pricing_plan_id":"cebpf4jnsgd1na2vs0mg"},{"bike_id":"a0f4bd78-f5c4-42c9-acdf-e7276b835249","system_id":"levelo_inurba_marseille","lat":43.33162,"lon":5.38175,"is_reserved":false,"is_disabled":false,"rental_uris":{"android":"levelo://app?vid=a0f4bd78-f5c4-42c9-acdf-e7276b835249","ios":"levelo://app?vid=a0f4bd78-f5c4-42c9-acdf-e7276b835249"},"vehicle_type_id":"4","last_reported":1746011316,"current_range_meters":8800,"station_id":"","pricing_plan_id":"cebpf4jnsgd1na2vs0mg"},{"bike_id":"a549743d-d11e-4edc-a6dd-0c8d853d1a27","system_id":"levelo_inurba_marseille","lat":43.28851,"lon":5.35861,"is_reserved":false,"is_disabled":false,"rental_uris":{"android":"levelo://app?vid=a549743d-d11e-4edc-a6dd-0c8d853d1a27","ios":"levelo://app?vid=a549743d-d11e-4edc-a6dd-0c8d853d1a27"},"vehicle_type_id":"4","last_reported":1746011316,"current_range_meters":8800,"station_id":"ce4bhb12rcd13ifvqem0","pricing_plan_id":"cebpf4jnsgd1na2vs0mg"},{"bike_id":"63d677dd-43a2-4f8a-86ae-1f86b907f8df","system_id":"levelo_inurba_marseille","lat":43.28358,"lon":5.3865,"is_reserved":false,"is_disabled":false,"rental_uris":{"android":"levelo://app?vid=63d677dd-43a2-4f8a-86ae-1f86b907f8df","ios":"levelo://app?vid=63d677dd-43a2-4f8a-86ae-1f86b907f8df"},"vehicle_type_id":"4","last_reported":1746011316,"current_range_meters":8800,"station_id":"ce4bh492rcd13ifvqdvg","pricing_plan_id":"cebpf4jnsgd1na2vs0mg"},{"bike_id":"89eab37f-a9ed-45c4-b830-f2255730261a","system_id":"levelo_inurba_marseille","lat":43.26215,"lon":5.3744,"is_reserved":false,"is_disabled":false,"rental_uris":{"android":"levelo://app?vid=89eab37f-a9ed-45c4-b830-f2255730261a","ios":"levelo://app?vid=89eab37f-a9ed-45c4-b830-f2255730261a"},"vehicle_type_id":"4","last_reported":1746011316,"current_range_meters":8800,"station_id":"ce4bhgp2rcd13ifvqfc0","pricing_plan_id":"cebpf4jnsgd1na2vs0mg"},{"bike_id":"295d6fc7-eded-4f68-888a-cd7fea1139ce","system_id":"levelo_inurba_marseille","lat":43.29521,"lon":5.39409,"is_reserved":false,"is_disabled":false,"rental_uris":{"android":"levelo://app?vid=295d6fc7-eded-4f68-888a-cd7fea1139ce","ios":"levelo://app?vid=295d6fc7-eded-4f68-888a-cd7fea1139ce"},"vehicle_type_id":"4","last_reported":1746011316,"current_range_meters":9200,"station_id":"","pricing_plan_id":"cebpf4jnsgd1na2vs0mg"},{"bike_id":"7036e483-01b6-4940-96bb-9bb0224fb002","system_id":"levelo_inurba_marseille","lat":43.33026,"lon":5.39044,"is_reserved":false,"is_disabled":false,"rental_uris":{"android":"levelo://app?vid=7036e483-01b6-4940-96bb-9bb0224fb002","ios":"levelo://app?vid=7036e483-01b6-4940-96bb-9bb0224fb002"},"vehicle_type_id":"4","last_reported":1746011316,"current_range_meters":8800,"station_id":"ce4bhr92rcd13ifvqhrg","pricing_plan_id":"cebpf4jnsgd1na2vs0mg"},{"bike_id":"b6f07bbf-03b0-4906-91f2-97617dca3c4a","system_id":"levelo_inurba_marseille","lat":43.23965,"lon":5.3663,"is_reserved":false,"is_disabled":false,"rental_uris":{"android":"levelo://app?vid=b6f07bbf-03b0-4906-91f2-97617dca3c4a","ios":"levelo://app?vid=b6f07bbf-03b0-4906-91f2-97617dca3c4a"},"vehicle_type_id":"4","last_reported":1746011316,"current_range_meters":9200,"station_id":"ce4bhi12rcd13ifvqfp0","pricing_plan_id":"cebpf4jnsgd1na2vs0mg"},{"bike_id":"e2902587-386b-4039-9bd9-b12f418ef69d","system_id":"levelo_inurba_marseille","lat":43.25496,"lon":5.37649,"is_reserved":false,"is_disabled":false,"rental_uris":{"android":"levelo://app?vid=e2902587-386b-4039-9bd9-b12f418ef69d","ios":"levelo://app?vid=e2902587-386b-4039-9bd9-b12f418ef69d"},"vehicle_type_id":"4","last_reported":1746011316,"current_range_meters":9200,"station_id":"ce4bhh12rcd13ifvqff0","pricing_plan_id":"cebpf4jnsgd1na2vs0mg"},{"bike_id":"489415b8-9254-45c1-b00c-e7554d56755c","system_id":"levelo_inurba_marseille","lat":43.245193,"lon":5.412124,"is_reserved":false,"is_disabled":false,"rental_uris":{"android":"levelo://app?vid=489415b8-9254-45c1-b00c-e7554d56755c","ios":"levelo://app?vid=489415b8-9254-45c1-b00c-e7554d56755c"},"vehicle_type_id":"4","last_reported":1746011316,"current_range_meters":9600,"station_id":"","pricing_plan_id":"cebpf4jnsgd1na2vs0mg"},{"bike_id":"3bda83e3-70e7-45e0-905b-dbc87ef5eff4","system_id":"levelo_inurba_marseille","lat":43.31493,"lon":5.37312,"is_reserved":false,"is_disabled":false,"rental_uris":{"android":"levelo://app?vid=3bda83e3-70e7-45e0-905b-dbc87ef5eff4","ios":"levelo://app?vid=3bda83e3-70e7-45e0-905b-dbc87ef5eff4"},"vehicle_type_id":"4","last_reported":1746011316,"current_range_meters":9600,"station_id":"ce4bgt12rcd13ifvqcd0","pricing_plan_id":"cebpf4jnsgd1na2vs0mg"},{"bike_id":"f5c9e254-60b8-4db0-a08d-3560436a0634","system_id":"levelo_inurba_marseille","lat":43.23066,"lon":5.35486,"is_reserved":false,"is_disabled":false,"rental_uris":{"android":"levelo://app?vid=f5c9e254-60b8-4db0-a08d-3560436a0634","ios":"levelo://app?vid=f5c9e254-60b8-4db0-a08d-3560436a0634"},"vehicle_type_id":"4","last_reported":1746011316,"current_range_meters":9600,"station_id":"cpo3342slgdg3j2ifvpg","pricing_plan_id":"cebpf4jnsgd1na2vs0mg"},{"bike_id":"21844353-d408-4c35-a17e-327ef17b8bc3","system_id":"levelo_inurba_marseille","lat":43.29934,"lon":5.38164,"is_reserved":false,"is_disabled":false,"rental_uris":{"android":"levelo://app?vid=21844353-d408-4c35-a17e-327ef17b8bc3","ios":"levelo://app?vid=21844353-d408-4c35-a17e-327ef17b8bc3"},"vehicle_type_id":"4","last_reported":1746011316,"current_range_meters":10000,"station_id":"ce4bgj12rcd13ifvqbc0","pricing_plan_id":"cebpf4jnsgd1na2vs0mg"},{"bike_id":"dc82108c-9525-48bf-8a2c-9aab4803c159","system_id":"levelo_inurba_marseille","lat":43.30528,"lon":5.36544,"is_reserved":false,"is_disabled":false,"rental_uris":{"android":"levelo://app?vid=dc82108c-9525-48bf-8a2c-9aab4803c159","ios":"levelo://app?vid=dc82108c-9525-48bf-8a2c-9aab4803c159"},"vehicle_type_id":"4","last_reported":1746011316,"current_range_meters":10000,"station_id":"ce4bgs12rcd13ifvqcag","pricing_plan_id":"cebpf4jnsgd1na2vs0mg"},{"bike_id":"1b4cbc1d-a4f3-4f6c-98d1-60c40b27c3d0","system_id":"levelo_inurba_marseille","lat":43.29853,"lon":5.3625,"is_reserved":false,"is_disabled":false,"rental_uris":{"android":"levelo://app?vid=1b4cbc1d-a4f3-4f6c-98d1-60c40b27c3d0","ios":"levelo://app?vid=1b4cbc1d-a4f3-4f6c-98d1-60c40b27c3d0"},"vehicle_type_id":"4","last_reported":1746011316,"current_range_meters":10000,"station_id":"ce4bgpp2rcd13ifvqc3g","pricing_plan_id":"cebpf4jnsgd1na2vs0mg"},{"bike_id":"07edfd45-c3fa-4b57-b865-cf1bf9963264","system_id":"levelo_inurba_marseille","lat":43.23396,"lon":5.36429,"is_reserved":false,"is_disabled":false,"rental_uris":{"android":"levelo://app?vid=07edfd45-c3fa-4b57-b865-cf1bf9963264","ios":"levelo://app?vid=07edfd45-c3fa-4b57-b865-cf1bf9963264"},"vehicle_type_id":"4","last_reported":1746011316,"current_range_meters":10000,"station_id":"","pricing_plan_id":"cebpf4jnsgd1na2vs0mg"},{"bike_id":"3a9bd96a-1d84-454e-b55b-a4ef583e3749","system_id":"levelo_inurba_marseille","lat":43.26686,"lon":5.38269,"is_reserved":false,"is_disabled":false,"rental_uris":{"android":"levelo://app?vid=3a9bd96a-1d84-454e-b55b-a4ef583e3749","ios":"levelo://app?vid=3a9bd96a-1d84-454e-b55b-a4ef583e3749"},"vehicle_type_id":"4","last_reported":1746011316,"current_range_meters":10000,"station_id":"ce4bhg92rcd13ifvqf90","pricing_plan_id":"cebpf4jnsgd1na2vs0mg"},{"bike_id":"99835675-535a-4630-94f2-f44695c32098","system_id":"levelo_inurba_marseille","lat":43.2835,"lon":5.38102,"is_reserved":false,"is_disabled":false,"rental_uris":{"android":"levelo://app?vid=99835675-535a-4630-94f2-f44695c32098","ios":"levelo://app?vid=99835675-535a-4630-94f2-f44695c32098"},"vehicle_type_id":"4","last_reported":1746011316,"current_range_meters":12400,"station_id":"ce4bh412rcd13ifvqdr0","pricing_plan_id":"cebpf4jnsgd1na2vs0mg"},{"bike_id":"1f0434db-0ec0-4ac6-a593-74ce77d1d6d2","system_id":"levelo_inurba_marseille","lat":43.23159,"lon":5.4371,"is_reserved":false,"is_disabled":false,"rental_uris":{"android":"levelo://app?vid=1f0434db-0ec0-4ac6-a593-74ce77d1d6d2","ios":"levelo://app?vid=1f0434db-0ec0-4ac6-a593-74ce77d1d6d2"},"vehicle_type_id":"4","last_reported":1746011316,"current_range_meters":10800,"station_id":"ce4bhmp2rcd13ifvqgog","pricing_plan_id":"cebpf4jnsgd1na2vs0mg"},{"bike_id":"ac80e985-cfdf-4940-bf6d-bf2ebe2c2fd0","system_id":"levelo_inurba_marseille","lat":43.32126,"lon":5.36764,"is_reserved":false,"is_disabled":false,"rental_uris":{"android":"levelo://app?vid=ac80e985-cfdf-4940-bf6d-bf2ebe2c2fd0","ios":"levelo://app?vid=ac80e985-cfdf-4940-bf6d-bf2ebe2c2fd0"},"vehicle_type_id":"4","last_reported":1746011316,"current_range_meters":10800,"station_id":"ce4bhrh2rcd13ifvqhug","pricing_plan_id":"cebpf4jnsgd1na2vs0mg"},{"bike_id":"b23bfd97-cdc4-4353-bbaa-bb4a2ba8b27d","system_id":"levelo_inurba_marseille","lat":43.27164,"lon":5.40999,"is_reserved":false,"is_disabled":false,"rental_uris":{"android":"levelo://app?vid=b23bfd97-cdc4-4353-bbaa-bb4a2ba8b27d","ios":"levelo://app?vid=b23bfd97-cdc4-4353-bbaa-bb4a2ba8b27d"},"vehicle_type_id":"4","last_reported":1746011316,"current_range_meters":10800,"station_id":"ce4bhl12rcd13ifvqgf0","pricing_plan_id":"cebpf4jnsgd1na2vs0mg"},{"bike_id":"db7bb269-a1a6-4fbc-8f74-cbd29fc2931b","system_id":"levelo_inurba_marseille","lat":43.231497,"lon":5.43714,"is_reserved":false,"is_disabled":false,"rental_uris":{"android":"levelo://app?vid=db7bb269-a1a6-4fbc-8f74-cbd29fc2931b","ios":"levelo://app?vid=db7bb269-a1a6-4fbc-8f74-cbd29fc2931b"},"vehicle_type_id":"4","last_reported":1746011316,"current_range_meters":10800,"station_id":"ce4bhmp2rcd13ifvqgog","pricing_plan_id":"cebpf4jnsgd1na2vs0mg"},{"bike_id":"b1daff77-19c3-423c-9690-9dcada6d1819","system_id":"levelo_inurba_marseille","lat":43.22934,"lon":5.35376,"is_reserved":false,"is_disabled":false,"rental_uris":{"android":"levelo://app?vid=b1daff77-19c3-423c-9690-9dcada6d1819","ios":"levelo://app?vid=b1daff77-19c3-423c-9690-9dcada6d1819"},"vehicle_type_id":"4","last_reported":1746011316,"current_range_meters":10800,"station_id":"cpo3532slgdg3j2ikp40","pricing_plan_id":"cebpf4jnsgd1na2vs0mg"},{"bike_id":"1ecc8740-cbb3-4e7e-b2f3-011f095d2ac5","system_id":"levelo_inurba_marseille","lat":43.24171,"lon":5.36392,"is_reserved":false,"is_disabled":false,"rental_uris":{"android":"levelo://app?vid=1ecc8740-cbb3-4e7e-b2f3-011f095d2ac5","ios":"levelo://app?vid=1ecc8740-cbb3-4e7e-b2f3-011f095d2ac5"},"vehicle_type_id":"4","last_reported":1746011316,"current_range_meters":11200,"station_id":"cpo36qri1sfpv3e86is0","pricing_plan_id":"cebpf4jnsgd1na2vs0mg"},{"bike_id":"dcb0b990-89f9-495c-a9c1-10b17ae39667","system_id":"levelo_inurba_marseille","lat":43.23496,"lon":5.38057,"is_reserved":false,"is_disabled":false,"rental_uris":{"android":"levelo://app?vid=dcb0b990-89f9-495c-a9c1-10b17ae39667","ios":"levelo://app?vid=dcb0b990-89f9-495c-a9c1-10b17ae39667"},"vehicle_type_id":"4","last_reported":1746011316,"current_range_meters":11200,"station_id":"","pricing_plan_id":"cebpf4jnsgd1na2vs0mg"},{"bike_id":"f9d5357e-c88e-4fa9-8875-7fc2e3cfddd9","system_id":"levelo_inurba_marseille","lat":43.24616,"lon":5.38245,"is_reserved":false,"is_disabled":false,"rental_uris":{"android":"levelo://app?vid=f9d5357e-c88e-4fa9-8875-7fc2e3cfddd9","ios":"levelo://app?vid=f9d5357e-c88e-4fa9-8875-7fc2e3cfddd9"},"vehicle_type_id":"4","last_reported":1746011316,"current_range_meters":11200,"station_id":"","pricing_plan_id":"cebpf4jnsgd1na2vs0mg"},{"bike_id":"20e55f6b-97df-4450-a344-6088e41e8a6c","system_id":"levelo_inurba_marseille","lat":43.25479,"lon":5.37654,"is_reserved":false,"is_disabled":false,"rental_uris":{"android":"levelo://app?vid=20e55f6b-97df-4450-a344-6088e41e8a6c","ios":"levelo://app?vid=20e55f6b-97df-4450-a344-6088e41e8a6c"},"vehicle_type_id":"4","last_reported":1746011316,"current_range_meters":11200,"station_id":"ce4bhh12rcd13ifvqff0","pricing_plan_id":"cebpf4jnsgd1na2vs0mg"},{"bike_id":"cc65b385-e499-4a07-a567-9298f1c63028","system_id":"levelo_inurba_marseille","lat":43.317009,"lon":5.377415,"is_reserved":false,"is_disabled":false,"rental_uris":{"android":"levelo://app?vid=cc65b385-e499-4a07-a567-9298f1c63028","ios":"levelo://app?vid=cc65b385-e499-4a07-a567-9298f1c63028"},"vehicle_type_id":"4","last_reported":1746011316,"current_range_meters":11600,"station_id":"ce4bgth2rcd13ifvqch0","pricing_plan_id":"cebpf4jnsgd1na2vs0mg"},{"bike_id":"26372973-89d1-46ab-a3be-9f73a38b1be6","system_id":"levelo_inurba_marseille","lat":43.30808,"lon":5.43525,"is_reserved":false,"is_disabled":false,"rental_uris":{"android":"levelo://app?vid=26372973-89d1-46ab-a3be-9f73a38b1be6","ios":"levelo://app?vid=26372973-89d1-46ab-a3be-9f73a38b1be6"},"vehicle_type_id":"4","last_reported":1746011316,"current_range_meters":11600,"station_id":"ce4bhph2rcd13ifvqheg","pricing_plan_id":"cebpf4jnsgd1na2vs0mg"},{"bike_id":"dfac82c1-8788-431f-9e43-2fd18839552e","system_id":"levelo_inurba_marseille","lat":43.26679,"lon":5.382847,"is_reserved":false,"is_disabled":false,"rental_uris":{"android":"levelo://app?vid=dfac82c1-8788-431f-9e43-2fd18839552e","ios":"levelo://app?vid=dfac82c1-8788-431f-9e43-2fd18839552e"},"vehicle_type_id":"4","last_reported":1746011316,"current_range_meters":12000,"station_id":"ce4bhg92rcd13ifvqf90","pricing_plan_id":"cebpf4jnsgd1na2vs0mg"},{"bike_id":"f29f1621-0709-4a67-b1c8-51dd1051ce2b","system_id":"levelo_inurba_marseille","lat":43.28461,"lon":5.3588,"is_reserved":false,"is_disabled":false,"rental_uris":{"android":"levelo://app?vid=f29f1621-0709-4a67-b1c8-51dd1051ce2b","ios":"levelo://app?vid=f29f1621-0709-4a67-b1c8-51dd1051ce2b"},"vehicle_type_id":"4","last_reported":1746011316,"current_range_meters":12000,"station_id":"ce4bhah2rcd13ifvqei0","pricing_plan_id":"cebpf4jnsgd1na2vs0mg"},{"bike_id":"7f770ba9-2e48-47c9-8bb4-942855273bad","system_id":"levelo_inurba_marseille","lat":43.25319,"lon":5.42414,"is_reserved":false,"is_disabled":false,"rental_uris":{"android":"levelo://app?vid=7f770ba9-2e48-47c9-8bb4-942855273bad","ios":"levelo://app?vid=7f770ba9-2e48-47c9-8bb4-942855273bad"},"vehicle_type_id":"4","last_reported":1746011316,"current_range_meters":12000,"station_id":"","pricing_plan_id":"cebpf4jnsgd1na2vs0mg"},{"bike_id":"6c31a182-f628-481e-ad9a-d00c89637ddc","system_id":"levelo_inurba_marseille","lat":43.25,"lon":5.38941,"is_reserved":false,"is_disabled":false,"rental_uris":{"android":"levelo://app?vid=6c31a182-f628-481e-ad9a-d00c89637ddc","ios":"levelo://app?vid=6c31a182-f628-481e-ad9a-d00c89637ddc"},"vehicle_type_id":"4","last_reported":1746011316,"current_range_meters":12000,"station_id":"ce4bhgp2rcd13ifvqfd0","pricing_plan_id":"cebpf4jnsgd1na2vs0mg"},{"bike_id":"ebad8aba-0a00-4589-9ea8-cb7624d8060e","system_id":"levelo_inurba_marseille","lat":43.23183,"lon":5.39986,"is_reserved":false,"is_disabled":false,"rental_uris":{"android":"levelo://app?vid=ebad8aba-0a00-4589-9ea8-cb7624d8060e","ios":"levelo://app?vid=ebad8aba-0a00-4589-9ea8-cb7624d8060e"},"vehicle_type_id":"4","last_reported":1746011316,"current_range_meters":12400,"station_id":"ce4bhn12rcd13ifvqgqg","pricing_plan_id":"cebpf4jnsgd1na2vs0mg"},{"bike_id":"1967a044-cad7-49f2-9be5-61228107e201","system_id":"levelo_inurba_marseille","lat":43.27918,"lon":5.39583,"is_reserved":false,"is_disabled":false,"rental_uris":{"android":"levelo://app?vid=1967a044-cad7-49f2-9be5-61228107e201","ios":"levelo://app?vid=1967a044-cad7-49f2-9be5-61228107e201"},"vehicle_type_id":"4","last_reported":1746011316,"current_range_meters":12400,"station_id":"ce4bhf92rcd13ifvqf40","pricing_plan_id":"cebpf4jnsgd1na2vs0mg"},{"bike_id":"4c374ea0-759c-4ebb-a0bd-226c4c2b31fb","system_id":"levelo_inurba_marseille","lat":43.24897,"lon":5.39419,"is_reserved":false,"is_disabled":false,"rental_uris":{"android":"levelo://app?vid=4c374ea0-759c-4ebb-a0bd-226c4c2b31fb","ios":"levelo://app?vid=4c374ea0-759c-4ebb-a0bd-226c4c2b31fb"},"vehicle_type_id":"4","last_reported":1746011316,"current_range_meters":12400,"station_id":"","pricing_plan_id":"cebpf4jnsgd1na2vs0mg"},{"bike_id":"2a1208f0-9c2c-4c7b-9f3c-a0fbeda4c5cf","system_id":"levelo_inurba_marseille","lat":43.27068,"lon":5.42243,"is_reserved":false,"is_disabled":false,"rental_uris":{"android":"levelo://app?vid=2a1208f0-9c2c-4c7b-9f3c-a0fbeda4c5cf","ios":"levelo://app?vid=2a1208f0-9c2c-4c7b-9f3c-a0fbeda4c5cf"},"vehicle_type_id":"4","last_reported":1746011316,"current_range_meters":12400,"station_id":"ce4bhk92rcd13ifvqgb0","pricing_plan_id":"cebpf4jnsgd1na2vs0mg"},{"bike_id":"e1cb4991-ab5e-45b6-a2f7-dc71b375879f","system_id":"levelo_inurba_marseille","lat":43.27969,"lon":5.38727,"is_reserved":false,"is_disabled":false,"rental_uris":{"android":"levelo://app?vid=e1cb4991-ab5e-45b6-a2f7-dc71b375879f","ios":"levelo://app?vid=e1cb4991-ab5e-45b6-a2f7-dc71b375879f"},"vehicle_type_id":"4","last_reported":1746011316,"current_range_meters":12400,"station_id":"ce4bhg12rcd13ifvqf80","pricing_plan_id":"cebpf4jnsgd1na2vs0mg"},{"bike_id":"7066bf6e-1400-4942-9742-efc1607fc1cd","system_id":"levelo_inurba_marseille","lat":43.23964,"lon":5.366223,"is_reserved":false,"is_disabled":false,"rental_uris":{"android":"levelo://app?vid=7066bf6e-1400-4942-9742-efc1607fc1cd","ios":"levelo://app?vid=7066bf6e-1400-4942-9742-efc1607fc1cd"},"vehicle_type_id":"4","last_reported":1746011316,"current_range_meters":12800,"station_id":"ce4bhi12rcd13ifvqfp0","pricing_plan_id":"cebpf4jnsgd1na2vs0mg"},{"bike_id":"eeedf767-e67a-44ba-9162-0bc81783b668","system_id":"levelo_inurba_marseille","lat":43.23188,"lon":5.35547,"is_reserved":false,"is_disabled":false,"rental_uris":{"android":"levelo://app?vid=eeedf767-e67a-44ba-9162-0bc81783b668","ios":"levelo://app?vid=eeedf767-e67a-44ba-9162-0bc81783b668"},"vehicle_type_id":"4","last_reported":1746011316,"current_range_meters":12800,"station_id":"ce4bhu92rcd13ifvqi70","pricing_plan_id":"cebpf4jnsgd1na2vs0mg"},{"bike_id":"75cd51e2-8219-46d7-8e8d-a11a8d4b075d","system_id":"levelo_inurba_marseille","lat":43.28266,"lon":5.3506,"is_reserved":false,"is_disabled":false,"rental_uris":{"android":"levelo://app?vid=75cd51e2-8219-46d7-8e8d-a11a8d4b075d","ios":"levelo://app?vid=75cd51e2-8219-46d7-8e8d-a11a8d4b075d"},"vehicle_type_id":"4","last_reported":1746011316,"current_range_meters":12800,"station_id":"ce4bhbp2rcd13ifvqerg","pricing_plan_id":"cebpf4jnsgd1na2vs0mg"},{"bike_id":"bdd83edb-7736-45ab-8ddc-b4c4551a4865","system_id":"levelo_inurba_marseille","lat":43.23155,"lon":5.43714,"is_reserved":false,"is_disabled":false,"rental_uris":{"android":"levelo://app?vid=bdd83edb-7736-45ab-8ddc-b4c4551a4865","ios":"levelo://app?vid=bdd83edb-7736-45ab-8ddc-b4c4551a4865"},"vehicle_type_id":"4","last_reported":1746011316,"current_range_meters":12800,"station_id":"ce4bhmp2rcd13ifvqgog","pricing_plan_id":"cebpf4jnsgd1na2vs0mg"},{"bike_id":"849063f7-4ebc-4305-9d63-61df395abe91","system_id":"levelo_inurba_marseille","lat":43.30538,"lon":5.36694,"is_reserved":false,"is_disabled":false,"rental_uris":{"android":"levelo://app?vid=849063f7-4ebc-4305-9d63-61df395abe91","ios":"levelo://app?vid=849063f7-4ebc-4305-9d63-61df395abe91"},"vehicle_type_id":"4","last_reported":1746011316,"current_range_meters":12800,"station_id":"ce4bgrp2rcd13ifvqc9g","pricing_plan_id":"cebpf4jnsgd1na2vs0mg"},{"bike_id":"a089771c-7486-4ddd-9ab3-f0ed078127b9","system_id":"levelo_inurba_marseille","lat":43.28435,"lon":5.39194,"is_reserved":false,"is_disabled":false,"rental_uris":{"android":"levelo://app?vid=a089771c-7486-4ddd-9ab3-f0ed078127b9","ios":"levelo://app?vid=a089771c-7486-4ddd-9ab3-f0ed078127b9"},"vehicle_type_id":"4","last_reported":1746011316,"current_range_meters":12800,"station_id":"ce4bhoh2rcd13ifvqh5g","pricing_plan_id":"cebpf4jnsgd1na2vs0mg"},{"bike_id":"e7f40ba9-78ec-4aad-8a26-4e17ad160ccf","system_id":"levelo_inurba_marseille","lat":43.3092,"lon":5.36902,"is_reserved":false,"is_disabled":false,"rental_uris":{"android":"levelo://app?vid=e7f40ba9-78ec-4aad-8a26-4e17ad160ccf","ios":"levelo://app?vid=e7f40ba9-78ec-4aad-8a26-4e17ad160ccf"},"vehicle_type_id":"4","last_reported":1746011316,"current_range_meters":12800,"station_id":"ce4bgn92rcd13ifvqbvg","pricing_plan_id":"cebpf4jnsgd1na2vs0mg"},{"bike_id":"e5e92a64-e709-4b1a-a9b1-cbffe85789ca","system_id":"levelo_inurba_marseille","lat":43.25542,"lon":5.38139,"is_reserved":false,"is_disabled":false,"rental_uris":{"android":"levelo://app?vid=e5e92a64-e709-4b1a-a9b1-cbffe85789ca","ios":"levelo://app?vid=e5e92a64-e709-4b1a-a9b1-cbffe85789ca"},"vehicle_type_id":"4","last_reported":1746011316,"current_range_meters":12800,"station_id":"","pricing_plan_id":"cebpf4jnsgd1na2vs0mg"},{"bike_id":"1ec295d3-ad10-4906-82af-c2b51c243122","system_id":"levelo_inurba_marseille","lat":43.32486,"lon":5.3655,"is_reserved":false,"is_disabled":false,"rental_uris":{"android":"levelo://app?vid=1ec295d3-ad10-4906-82af-c2b51c243122","ios":"levelo://app?vid=1ec295d3-ad10-4906-82af-c2b51c243122"},"vehicle_type_id":"4","last_reported":1746011316,"current_range_meters":13600,"station_id":"ce4bhs12rcd13ifvqhvg","pricing_plan_id":"cebpf4jnsgd1na2vs0mg"},{"bike_id":"7ade195e-de36-4d64-82e4-dfd054564847","system_id":"levelo_inurba_marseille","lat":43.30591,"lon":5.36517,"is_reserved":false,"is_disabled":false,"rental_uris":{"android":"levelo://app?vid=7ade195e-de36-4d64-82e4-dfd054564847","ios":"levelo://app?vid=7ade195e-de36-4d64-82e4-dfd054564847"},"vehicle_type_id":"4","last_reported":1746011316,"current_range_meters":13600,"station_id":"ce4bgs12rcd13ifvqcag","pricing_plan_id":"cebpf4jnsgd1na2vs0mg"},{"bike_id":"fccf5617-bc5a-4bdf-84db-e17aa9f64749","system_id":"levelo_inurba_marseille","lat":43.23196,"lon":5.39998,"is_reserved":false,"is_disabled":false,"rental_uris":{"android":"levelo://app?vid=fccf5617-bc5a-4bdf-84db-e17aa9f64749","ios":"levelo://app?vid=fccf5617-bc5a-4bdf-84db-e17aa9f64749"},"vehicle_type_id":"4","last_reported":1746011316,"current_range_meters":13600,"station_id":"ce4bhn12rcd13ifvqgqg","pricing_plan_id":"cebpf4jnsgd1na2vs0mg"},{"bike_id":"a1bc4e40-acfa-40bd-9169-fa1e07ba5021","system_id":"levelo_inurba_marseille","lat":43.29362,"lon":5.37826,"is_reserved":false,"is_disabled":false,"rental_uris":{"android":"levelo://app?vid=a1bc4e40-acfa-40bd-9169-fa1e07ba5021","ios":"levelo://app?vid=a1bc4e40-acfa-40bd-9169-fa1e07ba5021"},"vehicle_type_id":"4","last_reported":1746011316,"current_range_meters":13600,"station_id":"ce4bgjh2rcd13ifvqbf0","pricing_plan_id":"cebpf4jnsgd1na2vs0mg"},{"bike_id":"fca9dc8b-9c20-4eab-83ff-17d0ce9a6922","system_id":"levelo_inurba_marseille","lat":43.26031,"lon":5.41738,"is_reserved":false,"is_disabled":false,"rental_uris":{"android":"levelo://app?vid=fca9dc8b-9c20-4eab-83ff-17d0ce9a6922","ios":"levelo://app?vid=fca9dc8b-9c20-4eab-83ff-17d0ce9a6922"},"vehicle_type_id":"4","last_reported":1746011316,"current_range_meters":14000,"station_id":"","pricing_plan_id":"cebpf4jnsgd1na2vs0mg"},{"bike_id":"8cf66344-01a6-4483-82ac-ee0eecc7155e","system_id":"levelo_inurba_marseille","lat":43.28697,"lon":5.38662,"is_reserved":false,"is_disabled":false,"rental_uris":{"android":"levelo://app?vid=8cf66344-01a6-4483-82ac-ee0eecc7155e","ios":"levelo://app?vid=8cf66344-01a6-4483-82ac-ee0eecc7155e"},"vehicle_type_id":"4","last_reported":1746011316,"current_range_meters":14000,"station_id":"ce4bh492rcd13ifvqdug","pricing_plan_id":"cebpf4jnsgd1na2vs0mg"},{"bike_id":"0687a6c0-1bef-460f-8c7e-5fe59c6518d2","system_id":"levelo_inurba_marseille","lat":43.25725,"lon":5.41105,"is_reserved":false,"is_disabled":false,"rental_uris":{"android":"levelo://app?vid=0687a6c0-1bef-460f-8c7e-5fe59c6518d2","ios":"levelo://app?vid=0687a6c0-1bef-460f-8c7e-5fe59c6518d2"},"vehicle_type_id":"4","last_reported":1746011316,"current_range_meters":14000,"station_id":"ce4bhkp2rcd13ifvqgd0","pricing_plan_id":"cebpf4jnsgd1na2vs0mg"},{"bike_id":"a3ce50fa-ccb2-4870-abaf-217471d1b164","system_id":"levelo_inurba_marseille","lat":43.29289,"lon":5.37411,"is_reserved":false,"is_disabled":false,"rental_uris":{"android":"levelo://app?vid=a3ce50fa-ccb2-4870-abaf-217471d1b164","ios":"levelo://app?vid=a3ce50fa-ccb2-4870-abaf-217471d1b164"},"vehicle_type_id":"4","last_reported":1746011316,"current_range_meters":14000,"station_id":"ce4bgi12rcd13ifvqb70","pricing_plan_id":"cebpf4jnsgd1na2vs0mg"},{"bike_id":"56973c62-c000-4091-9194-64142ba8c234","system_id":"levelo_inurba_marseille","lat":43.30535,"lon":5.3653,"is_reserved":false,"is_disabled":false,"rental_uris":{"android":"levelo://app?vid=56973c62-c000-4091-9194-64142ba8c234","ios":"levelo://app?vid=56973c62-c000-4091-9194-64142ba8c234"},"vehicle_type_id":"4","last_reported":1746011316,"current_range_meters":14000,"station_id":"ce4bgs12rcd13ifvqcag","pricing_plan_id":"cebpf4jnsgd1na2vs0mg"},{"bike_id":"d88f1c89-45c5-49a2-9923-ca805a5fb6a9","system_id":"levelo_inurba_marseille","lat":43.30534,"lon":5.36553,"is_reserved":false,"is_disabled":false,"rental_uris":{"android":"levelo://app?vid=d88f1c89-45c5-49a2-9923-ca805a5fb6a9","ios":"levelo://app?vid=d88f1c89-45c5-49a2-9923-ca805a5fb6a9"},"vehicle_type_id":"4","last_reported":1746011316,"current_range_meters":14400,"station_id":"ce4bgs12rcd13ifvqcag","pricing_plan_id":"cebpf4jnsgd1na2vs0mg"},{"bike_id":"79189cc1-270e-4291-a348-ae69d59e6918","system_id":"levelo_inurba_marseille","lat":43.33721,"lon":5.39185,"is_reserved":false,"is_disabled":false,"rental_uris":{"android":"levelo://app?vid=79189cc1-270e-4291-a348-ae69d59e6918","ios":"levelo://app?vid=79189cc1-270e-4291-a348-ae69d59e6918"},"vehicle_type_id":"4","last_reported":1746011316,"current_range_meters":14400,"station_id":"ce4bhr92rcd13ifvqhsg","pricing_plan_id":"cebpf4jnsgd1na2vs0mg"},{"bike_id":"4fda502e-8180-4eb2-97e5-6521d9824005","system_id":"levelo_inurba_marseille","lat":43.305042,"lon":5.380682,"is_reserved":false,"is_disabled":false,"rental_uris":{"android":"levelo://app?vid=4fda502e-8180-4eb2-97e5-6521d9824005","ios":"levelo://app?vid=4fda502e-8180-4eb2-97e5-6521d9824005"},"vehicle_type_id":"4","last_reported":1746011316,"current_range_meters":14400,"station_id":"","pricing_plan_id":"cebpf4jnsgd1na2vs0mg"},{"bike_id":"6c12ff60-ca47-4317-8fd9-41b438c555cc","system_id":"levelo_inurba_marseille","lat":43.2175,"lon":5.34602,"is_reserved":false,"is_disabled":false,"rental_uris":{"android":"levelo://app?vid=6c12ff60-ca47-4317-8fd9-41b438c555cc","ios":"levelo://app?vid=6c12ff60-ca47-4317-8fd9-41b438c555cc"},"vehicle_type_id":"4","last_reported":1746011316,"current_range_meters":14400,"station_id":"st_cvj6r9ubvosntc0bgbag","pricing_plan_id":"cebpf4jnsgd1na2vs0mg"},{"bike_id":"2cbe2fab-72a1-4bcd-8c44-98069ca26f60","system_id":"levelo_inurba_marseille","lat":43.309041,"lon":5.368482,"is_reserved":false,"is_disabled":false,"rental_uris":{"android":"levelo://app?vid=2cbe2fab-72a1-4bcd-8c44-98069ca26f60","ios":"levelo://app?vid=2cbe2fab-72a1-4bcd-8c44-98069ca26f60"},"vehicle_type_id":"4","last_reported":1746011316,"current_range_meters":14400,"station_id":"ce4bgn92rcd13ifvqbvg","pricing_plan_id":"cebpf4jnsgd1na2vs0mg"},{"bike_id":"72c2e087-2fe6-49d8-bd8e-ec18fd60a767","system_id":"levelo_inurba_marseille","lat":43.33604,"lon":5.41033,"is_reserved":false,"is_disabled":false,"rental_uris":{"android":"levelo://app?vid=72c2e087-2fe6-49d8-bd8e-ec18fd60a767","ios":"levelo://app?vid=72c2e087-2fe6-49d8-bd8e-ec18fd60a767"},"vehicle_type_id":"4","last_reported":1746011316,"current_range_meters":14000,"station_id":"ce4bhqh2rcd13ifvqhmg","pricing_plan_id":"cebpf4jnsgd1na2vs0mg"},{"bike_id":"c1cbc237-cfab-474a-aa26-81a87506105a","system_id":"levelo_inurba_marseille","lat":43.21767,"lon":5.3459,"is_reserved":false,"is_disabled":false,"rental_uris":{"android":"levelo://app?vid=c1cbc237-cfab-474a-aa26-81a87506105a","ios":"levelo://app?vid=c1cbc237-cfab-474a-aa26-81a87506105a"},"vehicle_type_id":"4","last_reported":1746011316,"current_range_meters":14400,"station_id":"st_cvj6r9ubvosntc0bgbag","pricing_plan_id":"cebpf4jnsgd1na2vs0mg"},{"bike_id":"ec1a7320-748a-4ff5-ba83-d5d3cd77ad53","system_id":"levelo_inurba_marseille","lat":43.27375,"lon":5.36265,"is_reserved":false,"is_disabled":false,"rental_uris":{"android":"levelo://app?vid=ec1a7320-748a-4ff5-ba83-d5d3cd77ad53","ios":"levelo://app?vid=ec1a7320-748a-4ff5-ba83-d5d3cd77ad53"},"vehicle_type_id":"4","last_reported":1746011316,"current_range_meters":14400,"station_id":"ce4bhbh2rcd13ifvqeo0","pricing_plan_id":"cebpf4jnsgd1na2vs0mg"},{"bike_id":"63ffea2d-5bec-4284-b7cd-2f13adf4713c","system_id":"levelo_inurba_marseille","lat":43.26213,"lon":5.37439,"is_reserved":false,"is_disabled":false,"rental_uris":{"android":"levelo://app?vid=63ffea2d-5bec-4284-b7cd-2f13adf4713c","ios":"levelo://app?vid=63ffea2d-5bec-4284-b7cd-2f13adf4713c"},"vehicle_type_id":"4","last_reported":1746011316,"current_range_meters":15200,"station_id":"ce4bhgp2rcd13ifvqfc0","pricing_plan_id":"cebpf4jnsgd1na2vs0mg"},{"bike_id":"b62de851-d44a-4287-8d8e-8005bf8d4990","system_id":"levelo_inurba_marseille","lat":43.31733,"lon":5.37739,"is_reserved":false,"is_disabled":false,"rental_uris":{"android":"levelo://app?vid=b62de851-d44a-4287-8d8e-8005bf8d4990","ios":"levelo://app?vid=b62de851-d44a-4287-8d8e-8005bf8d4990"},"vehicle_type_id":"4","last_reported":1746011316,"current_range_meters":14800,"station_id":"ce4bgth2rcd13ifvqch0","pricing_plan_id":"cebpf4jnsgd1na2vs0mg"},{"bike_id":"b9f3c451-2017-4946-b5dd-54867c341aea","system_id":"levelo_inurba_marseille","lat":43.279117,"lon":5.395767,"is_reserved":false,"is_disabled":false,"rental_uris":{"android":"levelo://app?vid=b9f3c451-2017-4946-b5dd-54867c341aea","ios":"levelo://app?vid=b9f3c451-2017-4946-b5dd-54867c341aea"},"vehicle_type_id":"4","last_reported":1746011316,"current_range_meters":15200,"station_id":"ce4bhf92rcd13ifvqf40","pricing_plan_id":"cebpf4jnsgd1na2vs0mg"},{"bike_id":"00ece231-89d5-4cef-8905-3e8a81f45124","system_id":"levelo_inurba_marseille","lat":43.28617,"lon":5.35103,"is_reserved":false,"is_disabled":false,"rental_uris":{"android":"levelo://app?vid=00ece231-89d5-4cef-8905-3e8a81f45124","ios":"levelo://app?vid=00ece231-89d5-4cef-8905-3e8a81f45124"},"vehicle_type_id":"4","last_reported":1746011316,"current_range_meters":15200,"station_id":"ce4bhch2rcd13ifvqeug","pricing_plan_id":"cebpf4jnsgd1na2vs0mg"},{"bike_id":"dc3ba869-8718-4888-999b-efcfb464e5c7","system_id":"levelo_inurba_marseille","lat":43.28421,"lon":5.35001,"is_reserved":false,"is_disabled":false,"rental_uris":{"android":"levelo://app?vid=dc3ba869-8718-4888-999b-efcfb464e5c7","ios":"levelo://app?vid=dc3ba869-8718-4888-999b-efcfb464e5c7"},"vehicle_type_id":"4","last_reported":1746011316,"current_range_meters":16000,"station_id":"ce4bhbh2rcd13ifvqepg","pricing_plan_id":"cebpf4jnsgd1na2vs0mg"},{"bike_id":"f4fb444b-1070-459d-9d4b-526508392f1a","system_id":"levelo_inurba_marseille","lat":43.21752,"lon":5.34599,"is_reserved":false,"is_disabled":false,"rental_uris":{"android":"levelo://app?vid=f4fb444b-1070-459d-9d4b-526508392f1a","ios":"levelo://app?vid=f4fb444b-1070-459d-9d4b-526508392f1a"},"vehicle_type_id":"4","last_reported":1746011316,"current_range_meters":16000,"station_id":"st_cvj6r9ubvosntc0bgbag","pricing_plan_id":"cebpf4jnsgd1na2vs0mg"},{"bike_id":"9530ff69-7ad5-4a7a-a053-8ae4478c3178","system_id":"levelo_inurba_marseille","lat":43.28418,"lon":5.34976,"is_reserved":false,"is_disabled":false,"rental_uris":{"android":"levelo://app?vid=9530ff69-7ad5-4a7a-a053-8ae4478c3178","ios":"levelo://app?vid=9530ff69-7ad5-4a7a-a053-8ae4478c3178"},"vehicle_type_id":"4","last_reported":1746011316,"current_range_meters":16000,"station_id":"ce4bhbh2rcd13ifvqepg","pricing_plan_id":"cebpf4jnsgd1na2vs0mg"},{"bike_id":"ab58ef01-9b59-4bb4-b47e-06cba4b8445e","system_id":"levelo_inurba_marseille","lat":43.29227,"lon":5.36056,"is_reserved":false,"is_disabled":false,"rental_uris":{"android":"levelo://app?vid=ab58ef01-9b59-4bb4-b47e-06cba4b8445e","ios":"levelo://app?vid=ab58ef01-9b59-4bb4-b47e-06cba4b8445e"},"vehicle_type_id":"4","last_reported":1746011316,"current_range_meters":16000,"station_id":"ce4bhbh2rcd13ifvqeqg","pricing_plan_id":"cebpf4jnsgd1na2vs0mg"},{"bike_id":"38d1a69f-36a8-4077-8431-ac34e189a003","system_id":"levelo_inurba_marseille","lat":43.31756,"lon":5.39018,"is_reserved":false,"is_disabled":false,"rental_uris":{"android":"levelo://app?vid=38d1a69f-36a8-4077-8431-ac34e189a003","ios":"levelo://app?vid=38d1a69f-36a8-4077-8431-ac34e189a003"},"vehicle_type_id":"4","last_reported":1746011316,"current_range_meters":16000,"station_id":"ce4bhqp2rcd13ifvqhng","pricing_plan_id":"cebpf4jnsgd1na2vs0mg"},{"bike_id":"9298a141-31d4-4d41-a3e5-3ba088285155","system_id":"levelo_inurba_marseille","lat":43.30145,"lon":5.37405,"is_reserved":false,"is_disabled":false,"rental_uris":{"android":"levelo://app?vid=9298a141-31d4-4d41-a3e5-3ba088285155","ios":"levelo://app?vid=9298a141-31d4-4d41-a3e5-3ba088285155"},"vehicle_type_id":"4","last_reported":1746011316,"current_range_meters":16000,"station_id":"ce4bgs92rcd13ifvqcc0","pricing_plan_id":"cebpf4jnsgd1na2vs0mg"},{"bike_id":"b12db72c-3dea-4fb6-a379-03afa6d20383","system_id":"levelo_inurba_marseille","lat":43.28412,"lon":5.3498,"is_reserved":false,"is_disabled":false,"rental_uris":{"android":"levelo://app?vid=b12db72c-3dea-4fb6-a379-03afa6d20383","ios":"levelo://app?vid=b12db72c-3dea-4fb6-a379-03afa6d20383"},"vehicle_type_id":"4","last_reported":1746011316,"current_range_meters":16000,"station_id":"ce4bhbh2rcd13ifvqepg","pricing_plan_id":"cebpf4jnsgd1na2vs0mg"},{"bike_id":"536eb4af-6603-467c-a76b-98f5a843ca10","system_id":"levelo_inurba_marseille","lat":43.24165,"lon":5.36406,"is_reserved":false,"is_disabled":false,"rental_uris":{"android":"levelo://app?vid=536eb4af-6603-467c-a76b-98f5a843ca10","ios":"levelo://app?vid=536eb4af-6603-467c-a76b-98f5a843ca10"},"vehicle_type_id":"4","last_reported":1746011316,"current_range_meters":16000,"station_id":"cpo36qri1sfpv3e86is0","pricing_plan_id":"cebpf4jnsgd1na2vs0mg"},{"bike_id":"86c2979e-8cf6-48ed-bdb1-835ff11e3adc","system_id":"levelo_inurba_marseille","lat":43.25388,"lon":5.41828,"is_reserved":false,"is_disabled":false,"rental_uris":{"android":"levelo://app?vid=86c2979e-8cf6-48ed-bdb1-835ff11e3adc","ios":"levelo://app?vid=86c2979e-8cf6-48ed-bdb1-835ff11e3adc"},"vehicle_type_id":"4","last_reported":1746011316,"current_range_meters":16400,"station_id":"","pricing_plan_id":"cebpf4jnsgd1na2vs0mg"},{"bike_id":"19acb097-7cf6-4f58-a387-a1a11f89a37e","system_id":"levelo_inurba_marseille","lat":43.23179,"lon":5.43675,"is_reserved":false,"is_disabled":false,"rental_uris":{"android":"levelo://app?vid=19acb097-7cf6-4f58-a387-a1a11f89a37e","ios":"levelo://app?vid=19acb097-7cf6-4f58-a387-a1a11f89a37e"},"vehicle_type_id":"4","last_reported":1746011316,"current_range_meters":16400,"station_id":"ce4bhmp2rcd13ifvqgog","pricing_plan_id":"cebpf4jnsgd1na2vs0mg"},{"bike_id":"349090c4-33e1-42c3-87b1-4a64fbbe495f","system_id":"levelo_inurba_marseille","lat":43.2621,"lon":5.37441,"is_reserved":false,"is_disabled":false,"rental_uris":{"android":"levelo://app?vid=349090c4-33e1-42c3-87b1-4a64fbbe495f","ios":"levelo://app?vid=349090c4-33e1-42c3-87b1-4a64fbbe495f"},"vehicle_type_id":"4","last_reported":1746011316,"current_range_meters":16800,"station_id":"ce4bhgp2rcd13ifvqfc0","pricing_plan_id":"cebpf4jnsgd1na2vs0mg"},{"bike_id":"390029f3-7979-4119-a5f2-f4d437fd0cb4","system_id":"levelo_inurba_marseille","lat":43.24165,"lon":5.36389,"is_reserved":false,"is_disabled":false,"rental_uris":{"android":"levelo://app?vid=390029f3-7979-4119-a5f2-f4d437fd0cb4","ios":"levelo://app?vid=390029f3-7979-4119-a5f2-f4d437fd0cb4"},"vehicle_type_id":"4","last_reported":1746011316,"current_range_meters":16800,"station_id":"cpo36qri1sfpv3e86is0","pricing_plan_id":"cebpf4jnsgd1na2vs0mg"},{"bike_id":"e4ec6602-e34e-4b41-878e-f1a272edde17","system_id":"levelo_inurba_marseille","lat":43.28465,"lon":5.35886,"is_reserved":false,"is_disabled":false,"rental_uris":{"android":"levelo://app?vid=e4ec6602-e34e-4b41-878e-f1a272edde17","ios":"levelo://app?vid=e4ec6602-e34e-4b41-878e-f1a272edde17"},"vehicle_type_id":"4","last_reported":1746011316,"current_range_meters":17200,"station_id":"ce4bhah2rcd13ifvqei0","pricing_plan_id":"cebpf4jnsgd1na2vs0mg"},{"bike_id":"243dad39-384e-4630-bcf5-8b2102d42963","system_id":"levelo_inurba_marseille","lat":43.309,"lon":5.36851,"is_reserved":false,"is_disabled":false,"rental_uris":{"android":"levelo://app?vid=243dad39-384e-4630-bcf5-8b2102d42963","ios":"levelo://app?vid=243dad39-384e-4630-bcf5-8b2102d42963"},"vehicle_type_id":"4","last_reported":1746011316,"current_range_meters":17200,"station_id":"ce4bgn92rcd13ifvqbvg","pricing_plan_id":"cebpf4jnsgd1na2vs0mg"},{"bike_id":"7940bc1b-eaa7-4f49-a435-46dc9391f6a1","system_id":"levelo_inurba_marseille","lat":43.212046,"lon":5.350684,"is_reserved":false,"is_disabled":false,"rental_uris":{"android":"levelo://app?vid=7940bc1b-eaa7-4f49-a435-46dc9391f6a1","ios":"levelo://app?vid=7940bc1b-eaa7-4f49-a435-46dc9391f6a1"},"vehicle_type_id":"4","last_reported":1746011316,"current_range_meters":17200,"station_id":"st_cvj6sg6p6f1abm77japg","pricing_plan_id":"cebpf4jnsgd1na2vs0mg"},{"bike_id":"958f8f66-3193-421f-b1f5-cf667ada9663","system_id":"levelo_inurba_marseille","lat":43.32291,"lon":5.38273,"is_reserved":false,"is_disabled":false,"rental_uris":{"android":"levelo://app?vid=958f8f66-3193-421f-b1f5-cf667ada9663","ios":"levelo://app?vid=958f8f66-3193-421f-b1f5-cf667ada9663"},"vehicle_type_id":"4","last_reported":1746011316,"current_range_meters":17200,"station_id":"ce4bhr12rcd13ifvqhqg","pricing_plan_id":"cebpf4jnsgd1na2vs0mg"},{"bike_id":"34b484ab-c0f1-4e55-b51a-e2bafdafb63e","system_id":"levelo_inurba_marseille","lat":43.230628,"lon":5.354931,"is_reserved":false,"is_disabled":false,"rental_uris":{"android":"levelo://app?vid=34b484ab-c0f1-4e55-b51a-e2bafdafb63e","ios":"levelo://app?vid=34b484ab-c0f1-4e55-b51a-e2bafdafb63e"},"vehicle_type_id":"4","last_reported":1746011316,"current_range_meters":17200,"station_id":"cpo3342slgdg3j2ifvpg","pricing_plan_id":"cebpf4jnsgd1na2vs0mg"},{"bike_id":"53493dfa-2e8d-49fc-a446-0d5cbdcecb7f","system_id":"levelo_inurba_marseille","lat":43.30219,"lon":5.36627,"is_reserved":false,"is_disabled":false,"rental_uris":{"android":"levelo://app?vid=53493dfa-2e8d-49fc-a446-0d5cbdcecb7f","ios":"levelo://app?vid=53493dfa-2e8d-49fc-a446-0d5cbdcecb7f"},"vehicle_type_id":"4","last_reported":1746011316,"current_range_meters":17200,"station_id":"ce4bgrh2rcd13ifvqc8g","pricing_plan_id":"cebpf4jnsgd1na2vs0mg"},{"bike_id":"f193e987-a996-4daa-b87c-a4390e514fb4","system_id":"levelo_inurba_marseille","lat":43.23962,"lon":5.36627,"is_reserved":false,"is_disabled":false,"rental_uris":{"android":"levelo://app?vid=f193e987-a996-4daa-b87c-a4390e514fb4","ios":"levelo://app?vid=f193e987-a996-4daa-b87c-a4390e514fb4"},"vehicle_type_id":"4","last_reported":1746011316,"current_range_meters":17600,"station_id":"ce4bhi12rcd13ifvqfp0","pricing_plan_id":"cebpf4jnsgd1na2vs0mg"},{"bike_id":"f30f6f4c-378c-461f-b191-ae6d7f6fd0eb","system_id":"levelo_inurba_marseille","lat":43.23191,"lon":5.39983,"is_reserved":false,"is_disabled":false,"rental_uris":{"android":"levelo://app?vid=f30f6f4c-378c-461f-b191-ae6d7f6fd0eb","ios":"levelo://app?vid=f30f6f4c-378c-461f-b191-ae6d7f6fd0eb"},"vehicle_type_id":"4","last_reported":1746011316,"current_range_meters":17600,"station_id":"ce4bhn12rcd13ifvqgqg","pricing_plan_id":"cebpf4jnsgd1na2vs0mg"},{"bike_id":"dc1ed819-5907-4497-8368-8b16a59e64ca","system_id":"levelo_inurba_marseille","lat":43.31487,"lon":5.37306,"is_reserved":false,"is_disabled":false,"rental_uris":{"android":"levelo://app?vid=dc1ed819-5907-4497-8368-8b16a59e64ca","ios":"levelo://app?vid=dc1ed819-5907-4497-8368-8b16a59e64ca"},"vehicle_type_id":"4","last_reported":1746011316,"current_range_meters":17600,"station_id":"ce4bgt12rcd13ifvqcd0","pricing_plan_id":"cebpf4jnsgd1na2vs0mg"},{"bike_id":"6f22906b-94c9-4d7b-9ebc-9fe65ec0611d","system_id":"levelo_inurba_marseille","lat":43.321124,"lon":5.367751,"is_reserved":false,"is_disabled":false,"rental_uris":{"android":"levelo://app?vid=6f22906b-94c9-4d7b-9ebc-9fe65ec0611d","ios":"levelo://app?vid=6f22906b-94c9-4d7b-9ebc-9fe65ec0611d"},"vehicle_type_id":"4","last_reported":1746011316,"current_range_meters":18000,"station_id":"ce4bhrh2rcd13ifvqhug","pricing_plan_id":"cebpf4jnsgd1na2vs0mg"},{"bike_id":"bf9dcd53-f450-40fe-8296-3b96d009f0c9","system_id":"levelo_inurba_marseille","lat":43.27806,"lon":5.40719,"is_reserved":false,"is_disabled":false,"rental_uris":{"android":"levelo://app?vid=bf9dcd53-f450-40fe-8296-3b96d009f0c9","ios":"levelo://app?vid=bf9dcd53-f450-40fe-8296-3b96d009f0c9"},"vehicle_type_id":"4","last_reported":1746011316,"current_range_meters":18000,"station_id":"ce4bhnh2rcd13ifvqgtg","pricing_plan_id":"cebpf4jnsgd1na2vs0mg"},{"bike_id":"883b14b2-6924-4954-832c-ea60ef6ff402","system_id":"levelo_inurba_marseille","lat":43.28149,"lon":5.42648,"is_reserved":false,"is_disabled":false,"rental_uris":{"android":"levelo://app?vid=883b14b2-6924-4954-832c-ea60ef6ff402","ios":"levelo://app?vid=883b14b2-6924-4954-832c-ea60ef6ff402"},"vehicle_type_id":"4","last_reported":1746011316,"current_range_meters":18000,"station_id":"ce4bhnh2rcd13ifvqgug","pricing_plan_id":"cebpf4jnsgd1na2vs0mg"},{"bike_id":"351a10a2-c0d7-448b-acc4-bc96e28dd10d","system_id":"levelo_inurba_marseille","lat":43.30932,"lon":5.36845,"is_reserved":false,"is_disabled":false,"rental_uris":{"android":"levelo://app?vid=351a10a2-c0d7-448b-acc4-bc96e28dd10d","ios":"levelo://app?vid=351a10a2-c0d7-448b-acc4-bc96e28dd10d"},"vehicle_type_id":"4","last_reported":1746011316,"current_range_meters":18000,"station_id":"ce4bgn92rcd13ifvqbvg","pricing_plan_id":"cebpf4jnsgd1na2vs0mg"},{"bike_id":"3ed5c2c4-e9d1-406a-8758-470ad1a743a6","system_id":"levelo_inurba_marseille","lat":43.309196,"lon":5.368377,"is_reserved":false,"is_disabled":false,"rental_uris":{"android":"levelo://app?vid=3ed5c2c4-e9d1-406a-8758-470ad1a743a6","ios":"levelo://app?vid=3ed5c2c4-e9d1-406a-8758-470ad1a743a6"},"vehicle_type_id":"4","last_reported":1746011316,"current_range_meters":18800,"station_id":"ce4bgn92rcd13ifvqbvg","pricing_plan_id":"cebpf4jnsgd1na2vs0mg"},{"bike_id":"4a8fed40-48a5-4593-91ea-cd6f17c7fd49","system_id":"levelo_inurba_marseille","lat":43.27069,"lon":5.4025,"is_reserved":false,"is_disabled":false,"rental_uris":{"android":"levelo://app?vid=4a8fed40-48a5-4593-91ea-cd6f17c7fd49","ios":"levelo://app?vid=4a8fed40-48a5-4593-91ea-cd6f17c7fd49"},"vehicle_type_id":"4","last_reported":1746011316,"current_range_meters":18000,"station_id":"ce4bhk92rcd13ifvqgc0","pricing_plan_id":"cebpf4jnsgd1na2vs0mg"},{"bike_id":"6f17f032-a31c-416d-a272-43c4d4fdffef","system_id":"levelo_inurba_marseille","lat":43.310705,"lon":5.424245,"is_reserved":false,"is_disabled":false,"rental_uris":{"android":"levelo://app?vid=6f17f032-a31c-416d-a272-43c4d4fdffef","ios":"levelo://app?vid=6f17f032-a31c-416d-a272-43c4d4fdffef"},"vehicle_type_id":"4","last_reported":1746011316,"current_range_meters":17600,"station_id":"ce4bhp92rcd13ifvqhag","pricing_plan_id":"cebpf4jnsgd1na2vs0mg"},{"bike_id":"88b0e47a-d43f-44bb-bd7e-80d8fc6d69de","system_id":"levelo_inurba_marseille","lat":43.28128,"lon":5.4015,"is_reserved":false,"is_disabled":false,"rental_uris":{"android":"levelo://app?vid=88b0e47a-d43f-44bb-bd7e-80d8fc6d69de","ios":"levelo://app?vid=88b0e47a-d43f-44bb-bd7e-80d8fc6d69de"},"vehicle_type_id":"4","last_reported":1746011316,"current_range_meters":18800,"station_id":"","pricing_plan_id":"cebpf4jnsgd1na2vs0mg"},{"bike_id":"f4b73246-afac-4a27-884b-4e385d8fcdf4","system_id":"levelo_inurba_marseille","lat":43.25929,"lon":5.40903,"is_reserved":false,"is_disabled":false,"rental_uris":{"android":"levelo://app?vid=f4b73246-afac-4a27-884b-4e385d8fcdf4","ios":"levelo://app?vid=f4b73246-afac-4a27-884b-4e385d8fcdf4"},"vehicle_type_id":"4","last_reported":1746011316,"current_range_meters":18800,"station_id":"ce4bhm92rcd13ifvqglg","pricing_plan_id":"cebpf4jnsgd1na2vs0mg"},{"bike_id":"e2c80642-735d-4de4-80df-d16f26aec9d5","system_id":"levelo_inurba_marseille","lat":43.24675,"lon":5.38163,"is_reserved":false,"is_disabled":false,"rental_uris":{"android":"levelo://app?vid=e2c80642-735d-4de4-80df-d16f26aec9d5","ios":"levelo://app?vid=e2c80642-735d-4de4-80df-d16f26aec9d5"},"vehicle_type_id":"4","last_reported":1746011316,"current_range_meters":18800,"station_id":"ce4bhih2rcd13ifvqfr0","pricing_plan_id":"cebpf4jnsgd1na2vs0mg"},{"bike_id":"6d514e84-bd0b-4fee-95e8-26878678602a","system_id":"levelo_inurba_marseille","lat":43.21751,"lon":5.34605,"is_reserved":false,"is_disabled":false,"rental_uris":{"android":"levelo://app?vid=6d514e84-bd0b-4fee-95e8-26878678602a","ios":"levelo://app?vid=6d514e84-bd0b-4fee-95e8-26878678602a"},"vehicle_type_id":"4","last_reported":1746011316,"current_range_meters":18800,"station_id":"st_cvj6r9ubvosntc0bgbag","pricing_plan_id":"cebpf4jnsgd1na2vs0mg"},{"bike_id":"a50291ab-5e00-405f-a5e9-7d855b23ec40","system_id":"levelo_inurba_marseille","lat":43.24674,"lon":5.38159,"is_reserved":false,"is_disabled":false,"rental_uris":{"android":"levelo://app?vid=a50291ab-5e00-405f-a5e9-7d855b23ec40","ios":"levelo://app?vid=a50291ab-5e00-405f-a5e9-7d855b23ec40"},"vehicle_type_id":"4","last_reported":1746011316,"current_range_meters":18800,"station_id":"ce4bhih2rcd13ifvqfr0","pricing_plan_id":"cebpf4jnsgd1na2vs0mg"},{"bike_id":"3b023f2e-3000-4939-9907-c70df57343f9","system_id":"levelo_inurba_marseille","lat":43.30538,"lon":5.36554,"is_reserved":false,"is_disabled":false,"rental_uris":{"android":"levelo://app?vid=3b023f2e-3000-4939-9907-c70df57343f9","ios":"levelo://app?vid=3b023f2e-3000-4939-9907-c70df57343f9"},"vehicle_type_id":"4","last_reported":1746011316,"current_range_meters":18800,"station_id":"ce4bgs12rcd13ifvqcag","pricing_plan_id":"cebpf4jnsgd1na2vs0mg"},{"bike_id":"b58385b2-d1b2-4ecc-af75-eb7cf4772905","system_id":"levelo_inurba_marseille","lat":43.23077,"lon":5.35502,"is_reserved":false,"is_disabled":false,"rental_uris":{"android":"levelo://app?vid=b58385b2-d1b2-4ecc-af75-eb7cf4772905","ios":"levelo://app?vid=b58385b2-d1b2-4ecc-af75-eb7cf4772905"},"vehicle_type_id":"4","last_reported":1746011316,"current_range_meters":19200,"station_id":"cpo3342slgdg3j2ifvpg","pricing_plan_id":"cebpf4jnsgd1na2vs0mg"},{"bike_id":"cb8e1b19-8fba-4896-a258-382f21af406d","system_id":"levelo_inurba_marseille","lat":43.24167,"lon":5.36389,"is_reserved":false,"is_disabled":false,"rental_uris":{"android":"levelo://app?vid=cb8e1b19-8fba-4896-a258-382f21af406d","ios":"levelo://app?vid=cb8e1b19-8fba-4896-a258-382f21af406d"},"vehicle_type_id":"4","last_reported":1746011316,"current_range_meters":19200,"station_id":"cpo36qri1sfpv3e86is0","pricing_plan_id":"cebpf4jnsgd1na2vs0mg"},{"bike_id":"e6c0039f-b8bd-4260-b2cf-3c3c52c92d71","system_id":"levelo_inurba_marseille","lat":43.2732,"lon":5.39073,"is_reserved":false,"is_disabled":false,"rental_uris":{"android":"levelo://app?vid=e6c0039f-b8bd-4260-b2cf-3c3c52c92d71","ios":"levelo://app?vid=e6c0039f-b8bd-4260-b2cf-3c3c52c92d71"},"vehicle_type_id":"4","last_reported":1746011316,"current_range_meters":19200,"station_id":"ce4bhgp2rcd13ifvqfe0","pricing_plan_id":"cebpf4jnsgd1na2vs0mg"},{"bike_id":"91ecfa20-3c11-4cd6-8bbb-01594402545a","system_id":"levelo_inurba_marseille","lat":43.30887,"lon":5.39659,"is_reserved":false,"is_disabled":false,"rental_uris":{"android":"levelo://app?vid=91ecfa20-3c11-4cd6-8bbb-01594402545a","ios":"levelo://app?vid=91ecfa20-3c11-4cd6-8bbb-01594402545a"},"vehicle_type_id":"4","last_reported":1746011316,"current_range_meters":20000,"station_id":"ce4bh012rcd13ifvqcv0","pricing_plan_id":"cebpf4jnsgd1na2vs0mg"},{"bike_id":"0a5b25fa-2a04-452e-981a-fe8129fc3ad5","system_id":"levelo_inurba_marseille","lat":43.25,"lon":5.38928,"is_reserved":false,"is_disabled":false,"rental_uris":{"android":"levelo://app?vid=0a5b25fa-2a04-452e-981a-fe8129fc3ad5","ios":"levelo://app?vid=0a5b25fa-2a04-452e-981a-fe8129fc3ad5"},"vehicle_type_id":"4","last_reported":1746011316,"current_range_meters":19200,"station_id":"ce4bhgp2rcd13ifvqfd0","pricing_plan_id":"cebpf4jnsgd1na2vs0mg"},{"bike_id":"fe0cd858-9386-4e52-b032-ee57a9f1a6c0","system_id":"levelo_inurba_marseille","lat":43.30143,"lon":5.38056,"is_reserved":false,"is_disabled":false,"rental_uris":{"android":"levelo://app?vid=fe0cd858-9386-4e52-b032-ee57a9f1a6c0","ios":"levelo://app?vid=fe0cd858-9386-4e52-b032-ee57a9f1a6c0"},"vehicle_type_id":"4","last_reported":1746011316,"current_range_meters":19200,"station_id":"ce4bgjp2rcd13ifvqbh0","pricing_plan_id":"cebpf4jnsgd1na2vs0mg"},{"bike_id":"26f105fb-809d-4ea7-882f-06f3c08abd1d","system_id":"levelo_inurba_marseille","lat":43.25402,"lon":5.414971,"is_reserved":false,"is_disabled":false,"rental_uris":{"android":"levelo://app?vid=26f105fb-809d-4ea7-882f-06f3c08abd1d","ios":"levelo://app?vid=26f105fb-809d-4ea7-882f-06f3c08abd1d"},"vehicle_type_id":"4","last_reported":1746011316,"current_range_meters":19200,"station_id":"","pricing_plan_id":"cebpf4jnsgd1na2vs0mg"},{"bike_id":"dd761f0b-a343-4069-8ed4-8566f51a6c87","system_id":"levelo_inurba_marseille","lat":43.267792,"lon":5.383597,"is_reserved":false,"is_disabled":true,"rental_uris":{"android":"levelo://app?vid=dd761f0b-a343-4069-8ed4-8566f51a6c87","ios":"levelo://app?vid=dd761f0b-a343-4069-8ed4-8566f51a6c87"},"vehicle_type_id":"4","last_reported":1746011316,"current_range_meters":19600,"station_id":"","pricing_plan_id":"cebpf4jnsgd1na2vs0mg"},{"bike_id":"2c8bc402-7067-4f2f-bcc6-008b71c08459","system_id":"levelo_inurba_marseille","lat":43.29259,"lon":5.40908,"is_reserved":false,"is_disabled":false,"rental_uris":{"android":"levelo://app?vid=2c8bc402-7067-4f2f-bcc6-008b71c08459","ios":"levelo://app?vid=2c8bc402-7067-4f2f-bcc6-008b71c08459"},"vehicle_type_id":"4","last_reported":1746011316,"current_range_meters":19600,"station_id":"ce4bh192rcd13ifvqdc0","pricing_plan_id":"cebpf4jnsgd1na2vs0mg"},{"bike_id":"fb8f5ab3-6254-4648-8532-b536beecb0cc","system_id":"levelo_inurba_marseille","lat":43.30908,"lon":5.36852,"is_reserved":false,"is_disabled":false,"rental_uris":{"android":"levelo://app?vid=fb8f5ab3-6254-4648-8532-b536beecb0cc","ios":"levelo://app?vid=fb8f5ab3-6254-4648-8532-b536beecb0cc"},"vehicle_type_id":"4","last_reported":1746011316,"current_range_meters":19600,"station_id":"ce4bgn92rcd13ifvqbvg","pricing_plan_id":"cebpf4jnsgd1na2vs0mg"},{"bike_id":"4766f552-56eb-4b95-95c9-6494039acb44","system_id":"levelo_inurba_marseille","lat":43.25719,"lon":5.41107,"is_reserved":false,"is_disabled":false,"rental_uris":{"android":"levelo://app?vid=4766f552-56eb-4b95-95c9-6494039acb44","ios":"levelo://app?vid=4766f552-56eb-4b95-95c9-6494039acb44"},"vehicle_type_id":"4","last_reported":1746011316,"current_range_meters":20000,"station_id":"ce4bhkp2rcd13ifvqgd0","pricing_plan_id":"cebpf4jnsgd1na2vs0mg"},{"bike_id":"874b4eff-e3f2-49c3-8abe-d8e186c76054","system_id":"levelo_inurba_marseille","lat":43.255019,"lon":5.376443,"is_reserved":false,"is_disabled":false,"rental_uris":{"android":"levelo://app?vid=874b4eff-e3f2-49c3-8abe-d8e186c76054","ios":"levelo://app?vid=874b4eff-e3f2-49c3-8abe-d8e186c76054"},"vehicle_type_id":"4","last_reported":1746011316,"current_range_meters":20000,"station_id":"ce4bhh12rcd13ifvqff0","pricing_plan_id":"cebpf4jnsgd1na2vs0mg"},{"bike_id":"2d90d92c-e010-4034-9c8a-92ec848e2a6f","system_id":"levelo_inurba_marseille","lat":43.30319,"lon":5.36911,"is_reserved":false,"is_disabled":false,"rental_uris":{"android":"levelo://app?vid=2d90d92c-e010-4034-9c8a-92ec848e2a6f","ios":"levelo://app?vid=2d90d92c-e010-4034-9c8a-92ec848e2a6f"},"vehicle_type_id":"4","last_reported":1746011316,"current_range_meters":20000,"station_id":"ce4bgqh2rcd13ifvqc5g","pricing_plan_id":"cebpf4jnsgd1na2vs0mg"},{"bike_id":"3a1c6b65-5f0e-4cf0-b640-52fefa98b0b8","system_id":"levelo_inurba_marseille","lat":43.320449,"lon":5.415821,"is_reserved":false,"is_disabled":false,"rental_uris":{"android":"levelo://app?vid=3a1c6b65-5f0e-4cf0-b640-52fefa98b0b8","ios":"levelo://app?vid=3a1c6b65-5f0e-4cf0-b640-52fefa98b0b8"},"vehicle_type_id":"4","last_reported":1746011316,"current_range_meters":20000,"station_id":"ce4bhq92rcd13ifvqhkg","pricing_plan_id":"cebpf4jnsgd1na2vs0mg"},{"bike_id":"cc72cace-c85b-480b-b8ff-980710dfe869","system_id":"levelo_inurba_marseille","lat":43.28432,"lon":5.34985,"is_reserved":false,"is_disabled":false,"rental_uris":{"android":"levelo://app?vid=cc72cace-c85b-480b-b8ff-980710dfe869","ios":"levelo://app?vid=cc72cace-c85b-480b-b8ff-980710dfe869"},"vehicle_type_id":"4","last_reported":1746011316,"current_range_meters":20000,"station_id":"ce4bhbh2rcd13ifvqepg","pricing_plan_id":"cebpf4jnsgd1na2vs0mg"},{"bike_id":"d63f2755-a3be-496e-9aa4-5eff9779b5be","system_id":"levelo_inurba_marseille","lat":43.28413,"lon":5.3752,"is_reserved":false,"is_disabled":false,"rental_uris":{"android":"levelo://app?vid=d63f2755-a3be-496e-9aa4-5eff9779b5be","ios":"levelo://app?vid=d63f2755-a3be-496e-9aa4-5eff9779b5be"},"vehicle_type_id":"4","last_reported":1746011316,"current_range_meters":20400,"station_id":"ce4bh412rcd13ifvqds0","pricing_plan_id":"cebpf4jnsgd1na2vs0mg"},{"bike_id":"48fe0a61-16d8-4c4d-8014-6583682528ed","system_id":"levelo_inurba_marseille","lat":43.21751,"lon":5.34589,"is_reserved":false,"is_disabled":false,"rental_uris":{"android":"levelo://app?vid=48fe0a61-16d8-4c4d-8014-6583682528ed","ios":"levelo://app?vid=48fe0a61-16d8-4c4d-8014-6583682528ed"},"vehicle_type_id":"4","last_reported":1746011316,"current_range_meters":20400,"station_id":"st_cvj6r9ubvosntc0bgbag","pricing_plan_id":"cebpf4jnsgd1na2vs0mg"},{"bike_id":"139073ff-9926-4639-bc8c-e58797f0df48","system_id":"levelo_inurba_marseille","lat":43.2796,"lon":5.38726,"is_reserved":false,"is_disabled":false,"rental_uris":{"android":"levelo://app?vid=139073ff-9926-4639-bc8c-e58797f0df48","ios":"levelo://app?vid=139073ff-9926-4639-bc8c-e58797f0df48"},"vehicle_type_id":"4","last_reported":1746011316,"current_range_meters":20400,"station_id":"ce4bhg12rcd13ifvqf80","pricing_plan_id":"cebpf4jnsgd1na2vs0mg"},{"bike_id":"008479d5-ab44-4eac-b6e9-a73e38fb045c","system_id":"levelo_inurba_marseille","lat":43.29778,"lon":5.37095,"is_reserved":false,"is_disabled":false,"rental_uris":{"android":"levelo://app?vid=008479d5-ab44-4eac-b6e9-a73e38fb045c","ios":"levelo://app?vid=008479d5-ab44-4eac-b6e9-a73e38fb045c"},"vehicle_type_id":"4","last_reported":1746011316,"current_range_meters":20800,"station_id":"ce4bgop2rcd13ifvqc1g","pricing_plan_id":"cebpf4jnsgd1na2vs0mg"},{"bike_id":"a5816e25-37f7-4e9b-a2bf-588cf2de3b95","system_id":"levelo_inurba_marseille","lat":43.30539,"lon":5.3655,"is_reserved":false,"is_disabled":false,"rental_uris":{"android":"levelo://app?vid=a5816e25-37f7-4e9b-a2bf-588cf2de3b95","ios":"levelo://app?vid=a5816e25-37f7-4e9b-a2bf-588cf2de3b95"},"vehicle_type_id":"4","last_reported":1746011316,"current_range_meters":20800,"station_id":"ce4bgs12rcd13ifvqcag","pricing_plan_id":"cebpf4jnsgd1na2vs0mg"},{"bike_id":"e2e61a8c-bdc6-4f5b-8077-037999f48fdc","system_id":"levelo_inurba_marseille","lat":43.28418,"lon":5.34976,"is_reserved":false,"is_disabled":false,"rental_uris":{"android":"levelo://app?vid=e2e61a8c-bdc6-4f5b-8077-037999f48fdc","ios":"levelo://app?vid=e2e61a8c-bdc6-4f5b-8077-037999f48fdc"},"vehicle_type_id":"4","last_reported":1746011316,"current_range_meters":20800,"station_id":"ce4bhbh2rcd13ifvqepg","pricing_plan_id":"cebpf4jnsgd1na2vs0mg"},{"bike_id":"e4583c0a-3c0e-48dc-aa65-699ccec50ba1","system_id":"levelo_inurba_marseille","lat":43.27072,"lon":5.42277,"is_reserved":false,"is_disabled":false,"rental_uris":{"android":"levelo://app?vid=e4583c0a-3c0e-48dc-aa65-699ccec50ba1","ios":"levelo://app?vid=e4583c0a-3c0e-48dc-aa65-699ccec50ba1"},"vehicle_type_id":"4","last_reported":1746011316,"current_range_meters":19600,"station_id":"ce4bhk92rcd13ifvqgb0","pricing_plan_id":"cebpf4jnsgd1na2vs0mg"},{"bike_id":"e632d54d-2cc0-4136-bc56-218258cfbafe","system_id":"levelo_inurba_marseille","lat":43.26209,"lon":5.37443,"is_reserved":false,"is_disabled":false,"rental_uris":{"android":"levelo://app?vid=e632d54d-2cc0-4136-bc56-218258cfbafe","ios":"levelo://app?vid=e632d54d-2cc0-4136-bc56-218258cfbafe"},"vehicle_type_id":"4","last_reported":1746011316,"current_range_meters":20800,"station_id":"ce4bhgp2rcd13ifvqfc0","pricing_plan_id":"cebpf4jnsgd1na2vs0mg"},{"bike_id":"767886c8-d480-4f10-a923-b38390078c7d","system_id":"levelo_inurba_marseille","lat":43.28616,"lon":5.351,"is_reserved":false,"is_disabled":false,"rental_uris":{"android":"levelo://app?vid=767886c8-d480-4f10-a923-b38390078c7d","ios":"levelo://app?vid=767886c8-d480-4f10-a923-b38390078c7d"},"vehicle_type_id":"4","last_reported":1746011316,"current_range_meters":21600,"station_id":"ce4bhch2rcd13ifvqeug","pricing_plan_id":"cebpf4jnsgd1na2vs0mg"},{"bike_id":"78bd6b36-168d-41d2-bcce-932b973e2e8d","system_id":"levelo_inurba_marseille","lat":43.281203,"lon":5.378083,"is_reserved":false,"is_disabled":false,"rental_uris":{"android":"levelo://app?vid=78bd6b36-168d-41d2-bcce-932b973e2e8d","ios":"levelo://app?vid=78bd6b36-168d-41d2-bcce-932b973e2e8d"},"vehicle_type_id":"4","last_reported":1746011316,"current_range_meters":21600,"station_id":"ce4bha12rcd13ifvqee0","pricing_plan_id":"cebpf4jnsgd1na2vs0mg"},{"bike_id":"cdcb50a2-3beb-4586-94ea-c6962ac3cbe5","system_id":"levelo_inurba_marseille","lat":43.24183,"lon":5.3971,"is_reserved":false,"is_disabled":false,"rental_uris":{"android":"levelo://app?vid=cdcb50a2-3beb-4586-94ea-c6962ac3cbe5","ios":"levelo://app?vid=cdcb50a2-3beb-4586-94ea-c6962ac3cbe5"},"vehicle_type_id":"4","last_reported":1746011316,"current_range_meters":21600,"station_id":"ce4bhn12rcd13ifvqgpg","pricing_plan_id":"cebpf4jnsgd1na2vs0mg"},{"bike_id":"a0b01763-5881-4aa6-b7ff-5cb4131f6c67","system_id":"levelo_inurba_marseille","lat":43.23974,"lon":5.36609,"is_reserved":false,"is_disabled":false,"rental_uris":{"android":"levelo://app?vid=a0b01763-5881-4aa6-b7ff-5cb4131f6c67","ios":"levelo://app?vid=a0b01763-5881-4aa6-b7ff-5cb4131f6c67"},"vehicle_type_id":"4","last_reported":1746011316,"current_range_meters":21600,"station_id":"ce4bhi12rcd13ifvqfp0","pricing_plan_id":"cebpf4jnsgd1na2vs0mg"},{"bike_id":"34a81ddf-5077-431d-ad33-054f354332a1","system_id":"levelo_inurba_marseille","lat":43.2795,"lon":5.41051,"is_reserved":false,"is_disabled":false,"rental_uris":{"android":"levelo://app?vid=34a81ddf-5077-431d-ad33-054f354332a1","ios":"levelo://app?vid=34a81ddf-5077-431d-ad33-054f354332a1"},"vehicle_type_id":"4","last_reported":1746011316,"current_range_meters":21600,"station_id":"ce4bhnp2rcd13ifvqh0g","pricing_plan_id":"cebpf4jnsgd1na2vs0mg"},{"bike_id":"a6898163-f13c-4594-b621-39641a9256db","system_id":"levelo_inurba_marseille","lat":43.2835,"lon":5.38099,"is_reserved":false,"is_disabled":false,"rental_uris":{"android":"levelo://app?vid=a6898163-f13c-4594-b621-39641a9256db","ios":"levelo://app?vid=a6898163-f13c-4594-b621-39641a9256db"},"vehicle_type_id":"4","last_reported":1746011316,"current_range_meters":20800,"station_id":"ce4bh412rcd13ifvqdr0","pricing_plan_id":"cebpf4jnsgd1na2vs0mg"},{"bike_id":"5b8df32b-6bd3-46c5-92f6-95932c59353e","system_id":"levelo_inurba_marseille","lat":43.32537,"lon":5.41472,"is_reserved":false,"is_disabled":false,"rental_uris":{"android":"levelo://app?vid=5b8df32b-6bd3-46c5-92f6-95932c59353e","ios":"levelo://app?vid=5b8df32b-6bd3-46c5-92f6-95932c59353e"},"vehicle_type_id":"4","last_reported":1746011316,"current_range_meters":22000,"station_id":"ce4bhq12rcd13ifvqhhg","pricing_plan_id":"cebpf4jnsgd1na2vs0mg"},{"bike_id":"c2e40ee7-7534-4092-9d51-670c399ef876","system_id":"levelo_inurba_marseille","lat":43.3408,"lon":5.39824,"is_reserved":false,"is_disabled":false,"rental_uris":{"android":"levelo://app?vid=c2e40ee7-7534-4092-9d51-670c399ef876","ios":"levelo://app?vid=c2e40ee7-7534-4092-9d51-670c399ef876"},"vehicle_type_id":"4","last_reported":1746011316,"current_range_meters":22000,"station_id":"","pricing_plan_id":"cebpf4jnsgd1na2vs0mg"},{"bike_id":"cde443bb-9a98-4dfc-a82f-cbb08d6f149e","system_id":"levelo_inurba_marseille","lat":43.24178,"lon":5.39704,"is_reserved":false,"is_disabled":false,"rental_uris":{"android":"levelo://app?vid=cde443bb-9a98-4dfc-a82f-cbb08d6f149e","ios":"levelo://app?vid=cde443bb-9a98-4dfc-a82f-cbb08d6f149e"},"vehicle_type_id":"4","last_reported":1746011316,"current_range_meters":22000,"station_id":"ce4bhn12rcd13ifvqgpg","pricing_plan_id":"cebpf4jnsgd1na2vs0mg"},{"bike_id":"ab448c66-0c24-4ffe-8187-660121762169","system_id":"levelo_inurba_marseille","lat":43.2551,"lon":5.37636,"is_reserved":false,"is_disabled":false,"rental_uris":{"android":"levelo://app?vid=ab448c66-0c24-4ffe-8187-660121762169","ios":"levelo://app?vid=ab448c66-0c24-4ffe-8187-660121762169"},"vehicle_type_id":"4","last_reported":1746011316,"current_range_meters":21600,"station_id":"ce4bhh12rcd13ifvqff0","pricing_plan_id":"cebpf4jnsgd1na2vs0mg"},{"bike_id":"3545cf9a-cdd6-49b7-b526-0849f1653eed","system_id":"levelo_inurba_marseille","lat":43.30955,"lon":5.39032,"is_reserved":false,"is_disabled":false,"rental_uris":{"android":"levelo://app?vid=3545cf9a-cdd6-49b7-b526-0849f1653eed","ios":"levelo://app?vid=3545cf9a-cdd6-49b7-b526-0849f1653eed"},"vehicle_type_id":"4","last_reported":1746011316,"current_range_meters":20400,"station_id":"ce4bgup2rcd13ifvqco0","pricing_plan_id":"cebpf4jnsgd1na2vs0mg"},{"bike_id":"c1d4b426-4d63-49ac-a2bc-11c2ab8c8742","system_id":"levelo_inurba_marseille","lat":43.28941,"lon":5.3963,"is_reserved":false,"is_disabled":false,"rental_uris":{"android":"levelo://app?vid=c1d4b426-4d63-49ac-a2bc-11c2ab8c8742","ios":"levelo://app?vid=c1d4b426-4d63-49ac-a2bc-11c2ab8c8742"},"vehicle_type_id":"4","last_reported":1746011316,"current_range_meters":22800,"station_id":"ce4bh3h2rcd13ifvqdn0","pricing_plan_id":"cebpf4jnsgd1na2vs0mg"},{"bike_id":"e07d62a1-8528-4e05-9e15-828a10ab3116","system_id":"levelo_inurba_marseille","lat":43.28266,"lon":5.35063,"is_reserved":false,"is_disabled":false,"rental_uris":{"android":"levelo://app?vid=e07d62a1-8528-4e05-9e15-828a10ab3116","ios":"levelo://app?vid=e07d62a1-8528-4e05-9e15-828a10ab3116"},"vehicle_type_id":"4","last_reported":1746011316,"current_range_meters":22000,"station_id":"ce4bhbp2rcd13ifvqerg","pricing_plan_id":"cebpf4jnsgd1na2vs0mg"},{"bike_id":"3af377a3-f55f-4f38-8172-79195f78e17d","system_id":"levelo_inurba_marseille","lat":43.29379,"lon":5.37861,"is_reserved":false,"is_disabled":false,"rental_uris":{"android":"levelo://app?vid=3af377a3-f55f-4f38-8172-79195f78e17d","ios":"levelo://app?vid=3af377a3-f55f-4f38-8172-79195f78e17d"},"vehicle_type_id":"4","last_reported":1746011316,"current_range_meters":22400,"station_id":"","pricing_plan_id":"cebpf4jnsgd1na2vs0mg"},{"bike_id":"e4947749-a381-4034-83b8-7d6da6e57910","system_id":"levelo_inurba_marseille","lat":43.24166,"lon":5.36393,"is_reserved":false,"is_disabled":false,"rental_uris":{"android":"levelo://app?vid=e4947749-a381-4034-83b8-7d6da6e57910","ios":"levelo://app?vid=e4947749-a381-4034-83b8-7d6da6e57910"},"vehicle_type_id":"4","last_reported":1746011316,"current_range_meters":22400,"station_id":"cpo36qri1sfpv3e86is0","pricing_plan_id":"cebpf4jnsgd1na2vs0mg"},{"bike_id":"d52801fb-9f6c-451f-8a4f-c4ac0505f8e9","system_id":"levelo_inurba_marseille","lat":43.27815,"lon":5.40705,"is_reserved":false,"is_disabled":false,"rental_uris":{"android":"levelo://app?vid=d52801fb-9f6c-451f-8a4f-c4ac0505f8e9","ios":"levelo://app?vid=d52801fb-9f6c-451f-8a4f-c4ac0505f8e9"},"vehicle_type_id":"4","last_reported":1746011316,"current_range_meters":22400,"station_id":"ce4bhnh2rcd13ifvqgtg","pricing_plan_id":"cebpf4jnsgd1na2vs0mg"},{"bike_id":"44d84577-6dee-42cc-a07b-aaa5f55827d9","system_id":"levelo_inurba_marseille","lat":43.243862,"lon":5.370583,"is_reserved":false,"is_disabled":false,"rental_uris":{"android":"levelo://app?vid=44d84577-6dee-42cc-a07b-aaa5f55827d9","ios":"levelo://app?vid=44d84577-6dee-42cc-a07b-aaa5f55827d9"},"vehicle_type_id":"4","last_reported":1746011316,"current_range_meters":22400,"station_id":"ce4bhhh2rcd13ifvqfk0","pricing_plan_id":"cebpf4jnsgd1na2vs0mg"},{"bike_id":"0f9d8c77-b530-41ef-b7bf-e0cc3b40b91e","system_id":"levelo_inurba_marseille","lat":43.30901,"lon":5.36861,"is_reserved":false,"is_disabled":false,"rental_uris":{"android":"levelo://app?vid=0f9d8c77-b530-41ef-b7bf-e0cc3b40b91e","ios":"levelo://app?vid=0f9d8c77-b530-41ef-b7bf-e0cc3b40b91e"},"vehicle_type_id":"4","last_reported":1746011316,"current_range_meters":22400,"station_id":"ce4bgn92rcd13ifvqbvg","pricing_plan_id":"cebpf4jnsgd1na2vs0mg"},{"bike_id":"d7ee6037-2b6c-4d9a-b419-67c436c25813","system_id":"levelo_inurba_marseille","lat":43.268029,"lon":5.402664,"is_reserved":false,"is_disabled":false,"rental_uris":{"android":"levelo://app?vid=d7ee6037-2b6c-4d9a-b419-67c436c25813","ios":"levelo://app?vid=d7ee6037-2b6c-4d9a-b419-67c436c25813"},"vehicle_type_id":"4","last_reported":1746011316,"current_range_meters":22800,"station_id":"ce501612rcd8frsf0b60","pricing_plan_id":"cebpf4jnsgd1na2vs0mg"},{"bike_id":"9a6d1a0d-0520-4c44-b0a9-74ddbe754418","system_id":"levelo_inurba_marseille","lat":43.25783,"lon":5.41024,"is_reserved":false,"is_disabled":false,"rental_uris":{"android":"levelo://app?vid=9a6d1a0d-0520-4c44-b0a9-74ddbe754418","ios":"levelo://app?vid=9a6d1a0d-0520-4c44-b0a9-74ddbe754418"},"vehicle_type_id":"4","last_reported":1746011316,"current_range_meters":22800,"station_id":"","pricing_plan_id":"cebpf4jnsgd1na2vs0mg"},{"bike_id":"06a8f51c-b305-4c74-b3e3-3b426a37ccee","system_id":"levelo_inurba_marseille","lat":43.295622,"lon":5.39598,"is_reserved":false,"is_disabled":false,"rental_uris":{"android":"levelo://app?vid=06a8f51c-b305-4c74-b3e3-3b426a37ccee","ios":"levelo://app?vid=06a8f51c-b305-4c74-b3e3-3b426a37ccee"},"vehicle_type_id":"4","last_reported":1746011316,"current_range_meters":22800,"station_id":"","pricing_plan_id":"cebpf4jnsgd1na2vs0mg"},{"bike_id":"eebe3d29-082a-4846-af93-100aa6fd91ba","system_id":"levelo_inurba_marseille","lat":43.285619,"lon":5.400601,"is_reserved":false,"is_disabled":false,"rental_uris":{"android":"levelo://app?vid=eebe3d29-082a-4846-af93-100aa6fd91ba","ios":"levelo://app?vid=eebe3d29-082a-4846-af93-100aa6fd91ba"},"vehicle_type_id":"4","last_reported":1746011316,"current_range_meters":22800,"station_id":"","pricing_plan_id":"cebpf4jnsgd1na2vs0mg"},{"bike_id":"b6c15373-755b-4963-8761-7f957cb7aeeb","system_id":"levelo_inurba_marseille","lat":43.23968,"lon":5.36633,"is_reserved":false,"is_disabled":false,"rental_uris":{"android":"levelo://app?vid=b6c15373-755b-4963-8761-7f957cb7aeeb","ios":"levelo://app?vid=b6c15373-755b-4963-8761-7f957cb7aeeb"},"vehicle_type_id":"4","last_reported":1746011316,"current_range_meters":23200,"station_id":"ce4bhi12rcd13ifvqfp0","pricing_plan_id":"cebpf4jnsgd1na2vs0mg"},{"bike_id":"213c67aa-3d58-4db7-be65-06448c186e16","system_id":"levelo_inurba_marseille","lat":43.31412,"lon":5.36624,"is_reserved":false,"is_disabled":false,"rental_uris":{"android":"levelo://app?vid=213c67aa-3d58-4db7-be65-06448c186e16","ios":"levelo://app?vid=213c67aa-3d58-4db7-be65-06448c186e16"},"vehicle_type_id":"4","last_reported":1746011316,"current_range_meters":23200,"station_id":"ce4bgr92rcd13ifvqc6g","pricing_plan_id":"cebpf4jnsgd1na2vs0mg"},{"bike_id":"f1d6f623-dc7e-452d-93e8-bcb8756ed483","system_id":"levelo_inurba_marseille","lat":43.30526,"lon":5.36539,"is_reserved":false,"is_disabled":false,"rental_uris":{"android":"levelo://app?vid=f1d6f623-dc7e-452d-93e8-bcb8756ed483","ios":"levelo://app?vid=f1d6f623-dc7e-452d-93e8-bcb8756ed483"},"vehicle_type_id":"4","last_reported":1746011316,"current_range_meters":23200,"station_id":"ce4bgs12rcd13ifvqcag","pricing_plan_id":"cebpf4jnsgd1na2vs0mg"},{"bike_id":"3aeb961f-88b6-47fd-986a-c7b2a855fefd","system_id":"levelo_inurba_marseille","lat":43.23071,"lon":5.35487,"is_reserved":false,"is_disabled":false,"rental_uris":{"android":"levelo://app?vid=3aeb961f-88b6-47fd-986a-c7b2a855fefd","ios":"levelo://app?vid=3aeb961f-88b6-47fd-986a-c7b2a855fefd"},"vehicle_type_id":"4","last_reported":1746011316,"current_range_meters":23200,"station_id":"cpo3342slgdg3j2ifvpg","pricing_plan_id":"cebpf4jnsgd1na2vs0mg"},{"bike_id":"b97ecd9c-1378-4bda-8304-c6d96928c448","system_id":"levelo_inurba_marseille","lat":43.3018,"lon":5.36614,"is_reserved":false,"is_disabled":false,"rental_uris":{"android":"levelo://app?vid=b97ecd9c-1378-4bda-8304-c6d96928c448","ios":"levelo://app?vid=b97ecd9c-1378-4bda-8304-c6d96928c448"},"vehicle_type_id":"4","last_reported":1746011316,"current_range_meters":23200,"station_id":"ce4bgrh2rcd13ifvqc8g","pricing_plan_id":"cebpf4jnsgd1na2vs0mg"},{"bike_id":"299e007d-e091-46a6-9209-9d3dda52cf24","system_id":"levelo_inurba_marseille","lat":43.25829,"lon":5.39434,"is_reserved":false,"is_disabled":false,"rental_uris":{"android":"levelo://app?vid=299e007d-e091-46a6-9209-9d3dda52cf24","ios":"levelo://app?vid=299e007d-e091-46a6-9209-9d3dda52cf24"},"vehicle_type_id":"4","last_reported":1746011316,"current_range_meters":23200,"station_id":"ce4bhip2rcd13ifvqft0","pricing_plan_id":"cebpf4jnsgd1na2vs0mg"},{"bike_id":"b0d0ff7e-fb74-4f4d-a383-b3a7e57681f3","system_id":"levelo_inurba_marseille","lat":43.315088,"lon":5.372815,"is_reserved":false,"is_disabled":false,"rental_uris":{"android":"levelo://app?vid=b0d0ff7e-fb74-4f4d-a383-b3a7e57681f3","ios":"levelo://app?vid=b0d0ff7e-fb74-4f4d-a383-b3a7e57681f3"},"vehicle_type_id":"4","last_reported":1746011316,"current_range_meters":23200,"station_id":"ce4bgt12rcd13ifvqcd0","pricing_plan_id":"cebpf4jnsgd1na2vs0mg"},{"bike_id":"49c76001-2c04-44ac-80b1-0aa317be0529","system_id":"levelo_inurba_marseille","lat":43.25933,"lon":5.40903,"is_reserved":false,"is_disabled":false,"rental_uris":{"android":"levelo://app?vid=49c76001-2c04-44ac-80b1-0aa317be0529","ios":"levelo://app?vid=49c76001-2c04-44ac-80b1-0aa317be0529"},"vehicle_type_id":"4","last_reported":1746011316,"current_range_meters":23200,"station_id":"ce4bhm92rcd13ifvqglg","pricing_plan_id":"cebpf4jnsgd1na2vs0mg"},{"bike_id":"8c99e473-816a-4da2-a507-eb8524b9f1ed","system_id":"levelo_inurba_marseille","lat":43.30916,"lon":5.36843,"is_reserved":false,"is_disabled":false,"rental_uris":{"android":"levelo://app?vid=8c99e473-816a-4da2-a507-eb8524b9f1ed","ios":"levelo://app?vid=8c99e473-816a-4da2-a507-eb8524b9f1ed"},"vehicle_type_id":"4","last_reported":1746011316,"current_range_meters":23200,"station_id":"ce4bgn92rcd13ifvqbvg","pricing_plan_id":"cebpf4jnsgd1na2vs0mg"},{"bike_id":"e2f878e6-2a07-46ad-9271-c0c2215faf97","system_id":"levelo_inurba_marseille","lat":43.26194,"lon":5.37451,"is_reserved":false,"is_disabled":false,"rental_uris":{"android":"levelo://app?vid=e2f878e6-2a07-46ad-9271-c0c2215faf97","ios":"levelo://app?vid=e2f878e6-2a07-46ad-9271-c0c2215faf97"},"vehicle_type_id":"4","last_reported":1746011316,"current_range_meters":24000,"station_id":"ce4bhgp2rcd13ifvqfc0","pricing_plan_id":"cebpf4jnsgd1na2vs0mg"},{"bike_id":"0c9ed2fc-fd06-4c36-a53b-988db87a737b","system_id":"levelo_inurba_marseille","lat":43.25929,"lon":5.409,"is_reserved":false,"is_disabled":false,"rental_uris":{"android":"levelo://app?vid=0c9ed2fc-fd06-4c36-a53b-988db87a737b","ios":"levelo://app?vid=0c9ed2fc-fd06-4c36-a53b-988db87a737b"},"vehicle_type_id":"4","last_reported":1746011316,"current_range_meters":24000,"station_id":"ce4bhm92rcd13ifvqglg","pricing_plan_id":"cebpf4jnsgd1na2vs0mg"},{"bike_id":"5313e2bb-2bea-404b-9821-d390e8429a8d","system_id":"levelo_inurba_marseille","lat":43.30803,"lon":5.38162,"is_reserved":false,"is_disabled":false,"rental_uris":{"android":"levelo://app?vid=5313e2bb-2bea-404b-9821-d390e8429a8d","ios":"levelo://app?vid=5313e2bb-2bea-404b-9821-d390e8429a8d"},"vehicle_type_id":"4","last_reported":1746011316,"current_range_meters":23200,"station_id":"ce4bgt12rcd13ifvqce0","pricing_plan_id":"cebpf4jnsgd1na2vs0mg"},{"bike_id":"8918510d-adef-4348-a657-b8d319950526","system_id":"levelo_inurba_marseille","lat":43.24996,"lon":5.38952,"is_reserved":false,"is_disabled":false,"rental_uris":{"android":"levelo://app?vid=8918510d-adef-4348-a657-b8d319950526","ios":"levelo://app?vid=8918510d-adef-4348-a657-b8d319950526"},"vehicle_type_id":"4","last_reported":1746011316,"current_range_meters":24000,"station_id":"ce4bhgp2rcd13ifvqfd0","pricing_plan_id":"cebpf4jnsgd1na2vs0mg"},{"bike_id":"ae316b10-ecfd-497c-9aa9-a4ebb8ec9a55","system_id":"levelo_inurba_marseille","lat":43.3195,"lon":5.39009,"is_reserved":false,"is_disabled":false,"rental_uris":{"android":"levelo://app?vid=ae316b10-ecfd-497c-9aa9-a4ebb8ec9a55","ios":"levelo://app?vid=ae316b10-ecfd-497c-9aa9-a4ebb8ec9a55"},"vehicle_type_id":"4","last_reported":1746011316,"current_range_meters":29600,"station_id":"","pricing_plan_id":"cebpf4jnsgd1na2vs0mg"},{"bike_id":"7052063c-160e-4b1e-84af-cea2ebaa4c3e","system_id":"levelo_inurba_marseille","lat":43.282639,"lon":5.350615,"is_reserved":false,"is_disabled":false,"rental_uris":{"android":"levelo://app?vid=7052063c-160e-4b1e-84af-cea2ebaa4c3e","ios":"levelo://app?vid=7052063c-160e-4b1e-84af-cea2ebaa4c3e"},"vehicle_type_id":"4","last_reported":1746011316,"current_range_meters":24000,"station_id":"ce4bhbp2rcd13ifvqerg","pricing_plan_id":"cebpf4jnsgd1na2vs0mg"},{"bike_id":"526f71b5-5ddd-4e53-8f5a-4c575cbd5e92","system_id":"levelo_inurba_marseille","lat":43.30547,"lon":5.36473,"is_reserved":false,"is_disabled":false,"rental_uris":{"android":"levelo://app?vid=526f71b5-5ddd-4e53-8f5a-4c575cbd5e92","ios":"levelo://app?vid=526f71b5-5ddd-4e53-8f5a-4c575cbd5e92"},"vehicle_type_id":"4","last_reported":1746011316,"current_range_meters":24000,"station_id":"ce4bgs12rcd13ifvqcag","pricing_plan_id":"cebpf4jnsgd1na2vs0mg"},{"bike_id":"480126cf-a0b0-4781-b654-ff4b2a358c73","system_id":"levelo_inurba_marseille","lat":43.28416,"lon":5.34999,"is_reserved":false,"is_disabled":false,"rental_uris":{"android":"levelo://app?vid=480126cf-a0b0-4781-b654-ff4b2a358c73","ios":"levelo://app?vid=480126cf-a0b0-4781-b654-ff4b2a358c73"},"vehicle_type_id":"4","last_reported":1746011316,"current_range_meters":24000,"station_id":"ce4bhbh2rcd13ifvqepg","pricing_plan_id":"cebpf4jnsgd1na2vs0mg"},{"bike_id":"6d900b86-198b-4353-95b5-8f723fc29152","system_id":"levelo_inurba_marseille","lat":43.33024,"lon":5.39039,"is_reserved":false,"is_disabled":false,"rental_uris":{"android":"levelo://app?vid=6d900b86-198b-4353-95b5-8f723fc29152","ios":"levelo://app?vid=6d900b86-198b-4353-95b5-8f723fc29152"},"vehicle_type_id":"4","last_reported":1746011316,"current_range_meters":24000,"station_id":"ce4bhr92rcd13ifvqhrg","pricing_plan_id":"cebpf4jnsgd1na2vs0mg"},{"bike_id":"5835fd0b-ee23-47ca-9dc4-2ad55b423268","system_id":"levelo_inurba_marseille","lat":43.3055,"lon":5.36555,"is_reserved":false,"is_disabled":true,"rental_uris":{"android":"levelo://app?vid=5835fd0b-ee23-47ca-9dc4-2ad55b423268","ios":"levelo://app?vid=5835fd0b-ee23-47ca-9dc4-2ad55b423268"},"vehicle_type_id":"4","last_reported":1746011316,"current_range_meters":24000,"station_id":"ce4bgs12rcd13ifvqcag","pricing_plan_id":"cebpf4jnsgd1na2vs0mg"},{"bike_id":"62d29488-f86b-4bab-8c38-0a516d55782c","system_id":"levelo_inurba_marseille","lat":43.29876,"lon":5.38909,"is_reserved":false,"is_disabled":false,"rental_uris":{"android":"levelo://app?vid=62d29488-f86b-4bab-8c38-0a516d55782c","ios":"levelo://app?vid=62d29488-f86b-4bab-8c38-0a516d55782c"},"vehicle_type_id":"4","last_reported":1746011316,"current_range_meters":24000,"station_id":"ce4bh392rcd13ifvqdl0","pricing_plan_id":"cebpf4jnsgd1na2vs0mg"},{"bike_id":"2164a75b-6db7-4847-a4fe-c0e2f9677ca6","system_id":"levelo_inurba_marseille","lat":43.29258,"lon":5.40902,"is_reserved":false,"is_disabled":false,"rental_uris":{"android":"levelo://app?vid=2164a75b-6db7-4847-a4fe-c0e2f9677ca6","ios":"levelo://app?vid=2164a75b-6db7-4847-a4fe-c0e2f9677ca6"},"vehicle_type_id":"4","last_reported":1746011316,"current_range_meters":24000,"station_id":"ce4bh192rcd13ifvqdc0","pricing_plan_id":"cebpf4jnsgd1na2vs0mg"},{"bike_id":"5d1f1b5d-dc0e-460e-a977-db8c0168b9d6","system_id":"levelo_inurba_marseille","lat":43.23146,"lon":5.43704,"is_reserved":false,"is_disabled":false,"rental_uris":{"android":"levelo://app?vid=5d1f1b5d-dc0e-460e-a977-db8c0168b9d6","ios":"levelo://app?vid=5d1f1b5d-dc0e-460e-a977-db8c0168b9d6"},"vehicle_type_id":"4","last_reported":1746011316,"current_range_meters":24000,"station_id":"ce4bhmp2rcd13ifvqgog","pricing_plan_id":"cebpf4jnsgd1na2vs0mg"},{"bike_id":"557de524-7984-4c6d-9e2f-79d38b21d155","system_id":"levelo_inurba_marseille","lat":43.262098,"lon":5.374434,"is_reserved":false,"is_disabled":false,"rental_uris":{"android":"levelo://app?vid=557de524-7984-4c6d-9e2f-79d38b21d155","ios":"levelo://app?vid=557de524-7984-4c6d-9e2f-79d38b21d155"},"vehicle_type_id":"4","last_reported":1746011316,"current_range_meters":24000,"station_id":"ce4bhgp2rcd13ifvqfc0","pricing_plan_id":"cebpf4jnsgd1na2vs0mg"},{"bike_id":"e583b4ef-8989-46d2-85b9-7e104a194422","system_id":"levelo_inurba_marseille","lat":43.30536,"lon":5.36687,"is_reserved":false,"is_disabled":false,"rental_uris":{"android":"levelo://app?vid=e583b4ef-8989-46d2-85b9-7e104a194422","ios":"levelo://app?vid=e583b4ef-8989-46d2-85b9-7e104a194422"},"vehicle_type_id":"4","last_reported":1746011316,"current_range_meters":24400,"station_id":"ce4bgrp2rcd13ifvqc9g","pricing_plan_id":"cebpf4jnsgd1na2vs0mg"},{"bike_id":"4f7996db-8813-461a-92cb-e905bb638a08","system_id":"levelo_inurba_marseille","lat":43.29797,"lon":5.40404,"is_reserved":false,"is_disabled":false,"rental_uris":{"android":"levelo://app?vid=4f7996db-8813-461a-92cb-e905bb638a08","ios":"levelo://app?vid=4f7996db-8813-461a-92cb-e905bb638a08"},"vehicle_type_id":"4","last_reported":1746011316,"current_range_meters":24400,"station_id":"ce4bh112rcd13ifvqd90","pricing_plan_id":"cebpf4jnsgd1na2vs0mg"},{"bike_id":"22d272bd-4ff3-40a0-a427-25598912466c","system_id":"levelo_inurba_marseille","lat":43.3015,"lon":5.3742,"is_reserved":false,"is_disabled":false,"rental_uris":{"android":"levelo://app?vid=22d272bd-4ff3-40a0-a427-25598912466c","ios":"levelo://app?vid=22d272bd-4ff3-40a0-a427-25598912466c"},"vehicle_type_id":"4","last_reported":1746011316,"current_range_meters":25200,"station_id":"ce4bgs92rcd13ifvqcc0","pricing_plan_id":"cebpf4jnsgd1na2vs0mg"},{"bike_id":"a9f97785-705a-4b01-bd2a-7256bdd21e6c","system_id":"levelo_inurba_marseille","lat":43.29875,"lon":5.38905,"is_reserved":false,"is_disabled":false,"rental_uris":{"android":"levelo://app?vid=a9f97785-705a-4b01-bd2a-7256bdd21e6c","ios":"levelo://app?vid=a9f97785-705a-4b01-bd2a-7256bdd21e6c"},"vehicle_type_id":"4","last_reported":1746011316,"current_range_meters":24400,"station_id":"ce4bh392rcd13ifvqdl0","pricing_plan_id":"cebpf4jnsgd1na2vs0mg"},{"bike_id":"c695bac2-0581-4a6a-b9c9-eb8e0d8673ed","system_id":"levelo_inurba_marseille","lat":43.33735,"lon":5.39193,"is_reserved":false,"is_disabled":false,"rental_uris":{"android":"levelo://app?vid=c695bac2-0581-4a6a-b9c9-eb8e0d8673ed","ios":"levelo://app?vid=c695bac2-0581-4a6a-b9c9-eb8e0d8673ed"},"vehicle_type_id":"4","last_reported":1746011316,"current_range_meters":24400,"station_id":"ce4bhr92rcd13ifvqhsg","pricing_plan_id":"cebpf4jnsgd1na2vs0mg"},{"bike_id":"6ffe19e1-b75b-4dad-85a4-251989a163f5","system_id":"levelo_inurba_marseille","lat":43.27432,"lon":5.39429,"is_reserved":false,"is_disabled":false,"rental_uris":{"android":"levelo://app?vid=6ffe19e1-b75b-4dad-85a4-251989a163f5","ios":"levelo://app?vid=6ffe19e1-b75b-4dad-85a4-251989a163f5"},"vehicle_type_id":"4","last_reported":1746011316,"current_range_meters":24400,"station_id":"ce4bhdp2rcd13ifvqf20","pricing_plan_id":"cebpf4jnsgd1na2vs0mg"},{"bike_id":"e3c11bd3-a74d-4278-b9f5-b84776aca4e8","system_id":"levelo_inurba_marseille","lat":43.29116,"lon":5.380777,"is_reserved":false,"is_disabled":false,"rental_uris":{"android":"levelo://app?vid=e3c11bd3-a74d-4278-b9f5-b84776aca4e8","ios":"levelo://app?vid=e3c11bd3-a74d-4278-b9f5-b84776aca4e8"},"vehicle_type_id":"4","last_reported":1746011316,"current_range_meters":24400,"station_id":"ce4bgn12rcd13ifvqbt0","pricing_plan_id":"cebpf4jnsgd1na2vs0mg"},{"bike_id":"258fdb78-ac6b-4b07-89b7-8eaddeb52494","system_id":"levelo_inurba_marseille","lat":43.28351,"lon":5.38102,"is_reserved":false,"is_disabled":false,"rental_uris":{"android":"levelo://app?vid=258fdb78-ac6b-4b07-89b7-8eaddeb52494","ios":"levelo://app?vid=258fdb78-ac6b-4b07-89b7-8eaddeb52494"},