{"last_updated":1752862522,"ttl":60,"version":"2.2","data":{"bikes":[{"bike_id":"53b742a7-31ae-4272-9bba-7740339e2a2f","system_id":"levelo_inurba_marseille","lat":43.33747,"lon":5.37463,"is_reserved":false,"is_disabled":false,"rental_uris":{"android":"levelo://app?vid=53b742a7-31ae-4272-9bba-7740339e2a2f","ios":"levelo://app?vid=53b742a7-31ae-4272-9bba-7740339e2a2f"},"vehicle_type_id":"1","last_reported":1752862522,"current_range_meters":19200,"station_id":"","pricing_plan_id":"cebpf4jnsgd1na2vs0mg"},{"bike_id":"4e9d2d21-b41a-461b-9713-e3790cb757a3","system_id":"levelo_inurba_marseille","lat":43.30948,"lon":5.39022,"is_reserved":false,"is_disabled":false,"rental_uris":{"android":"levelo://app?vid=4e9d2d21-b41a-461b-9713-e3790cb757a3","ios":"levelo://app?vid=4e9d2d21-b41a-461b-9713-e3790cb757a3"},"vehicle_type_id":"4","last_reported":1752862522,"current_range_meters":2800,"station_id":"ce4bgup2rcd13ifvqco0","pricing_plan_id":"cebpf4jnsgd1na2vs0mg"},{"bike_id":"6dda2eed-cf4f-4697-92f0-9882ed4aceb2","system_id":"levelo_inurba_marseille","lat":43.23189,"lon":5.35552,"is_reserved":false,"is_disabled":false,"rental_uris":{"android":"levelo://app?vid=6dda2eed-cf4f-4697-92f0-9882ed4aceb2","ios":"levelo://app?vid=6dda2eed-cf4f-4697-92f0-9882ed4aceb2"},"vehicle_type_id":"4","last_reported":1752862522,"current_range_meters":4800,"station_id":"ce4bhu92rcd13ifvqi70","pricing_plan_id":"cebpf4jnsgd1na2vs0mg"},{"bike_id":"6a3cc628-795d-41b6-8e29-e305d5bb2732","system_id":"levelo_inurba_marseille","lat":43.297101,"lon":5.366171,"is_reserved":false,"is_disabled":false,"rental_uris":{"android":"levelo://app?vid=6a3cc628-795d-41b6-8e29-e305d5bb2732","ios":"levelo://app?vid=6a3cc628-795d-41b6-8e29-e305d5bb2732"},"vehicle_type_id":"4","last_reported":1752862522,"current_range_meters":1600,"station_id":"ce4bgn12rcd13ifvqbt0","pricing_plan_id":"cebpf4jnsgd1na2vs0mg"},{"bike_id":"80a4bc34-4a9e-4c14-9cf9-4566cbd7f3dd","system_id":"levelo_inurba_marseille","lat":43.31173,"lon":5.38714,"is_reserved":false,"is_disabled":false,"rental_uris":{"android":"levelo://app?vid=80a4bc34-4a9e-4c14-9cf9-4566cbd7f3dd","ios":"levelo://app?vid=80a4bc34-4a9e-4c14-9cf9-4566cbd7f3dd"},"vehicle_type_id":"4","last_reported":1752862522,"current_range_meters":3200,"station_id":"ce4bgv12rcd13ifvqcp0","pricing_plan_id":"cebpf4jnsgd1na2vs0mg"},{"bike_id":"14aa5229-19fb-4ebc-b93c-9fcee3421a10","system_id":"levelo_inurba_marseille","lat":43.29541,"lon":5.374716,"is_reserved":false,"is_disabled":false,"rental_uris":{"android":"levelo://app?vid=14aa5229-19fb-4ebc-b93c-9fcee3421a10","ios":"levelo://app?vid=14aa5229-19fb-4ebc-b93c-9fcee3421a10"},"vehicle_type_id":"4","last_reported":1752862522,"current_range_meters":3600,"station_id":"ce4bhb12rcd13ifvqel0","pricing_plan_id":"cebpf4jnsgd1na2vs0mg"},{"bike_id":"8628b6c0-c847-4a48-957c-0a91e5109e2d","system_id":"levelo_inurba_marseille","lat":43.30321,"lon":5.4043,"is_reserved":false,"is_disabled":false,"rental_uris":{"android":"levelo://app?vid=8628b6c0-c847-4a48-957c-0a91e5109e2d","ios":"levelo://app?vid=8628b6c0-c847-4a48-957c-0a91e5109e2d"},"vehicle_type_id":"4","last_reported":1752862522,"current_range_meters":3600,"station_id":"ce4bh012rcd13ifvqd10","pricing_plan_id":"cebpf4jnsgd1na2vs0mg"},{"bike_id":"e4c88291-38b6-469c-9bde-7bc35003a124","system_id":"levelo_inurba_marseille","lat":43.29268,"lon":5.38447,"is_reserved":false,"is_disabled":false,"rental_uris":{"android":"levelo://app?vid=e4c88291-38b6-469c-9bde-7bc35003a124","ios":"levelo://app?vid=e4c88291-38b6-469c-9bde-7bc35003a124"},"vehicle_type_id":"4","last_reported":1752862522,"current_range_meters":4000,"station_id":"ce4bh692rcd13ifvqea0","pricing_plan_id":"cebpf4jnsgd1na2vs0mg"},{"bike_id":"d351542c-0184-46b4-b7b8-548e6e67a672","system_id":"levelo_inurba_marseille","lat":43.28266,"lon":5.35064,"is_reserved":false,"is_disabled":false,"rental_uris":{"android":"levelo://app?vid=d351542c-0184-46b4-b7b8-548e6e67a672","ios":"levelo://app?vid=d351542c-0184-46b4-b7b8-548e6e67a672"},"vehicle_type_id":"4","last_reported":1752862522,"current_range_meters":4000,"station_id":"ce4bhbp2rcd13ifvqerg","pricing_plan_id":"cebpf4jnsgd1na2vs0mg"},{"bike_id":"f8d06e64-04b1-4e2b-b083-2389dce2d802","system_id":"levelo_inurba_marseille","lat":43.30644,"lon":5.40086,"is_reserved":false,"is_disabled":false,"rental_uris":{"android":"levelo://app?vid=f8d06e64-04b1-4e2b-b083-2389dce2d802","ios":"levelo://app?vid=f8d06e64-04b1-4e2b-b083-2389dce2d802"},"vehicle_type_id":"4","last_reported":1752862522,"current_range_meters":3600,"station_id":"ce4bh112rcd13ifvqda0","pricing_plan_id":"cebpf4jnsgd1na2vs0mg"},{"bike_id":"6315b3cf-2a94-45cd-87ee-6aaa113136ed","system_id":"levelo_inurba_marseille","lat":43.25585,"lon":5.38225,"is_reserved":false,"is_disabled":false,"rental_uris":{"android":"levelo://app?vid=6315b3cf-2a94-45cd-87ee-6aaa113136ed","ios":"levelo://app?vid=6315b3cf-2a94-45cd-87ee-6aaa113136ed"},"vehicle_type_id":"4","last_reported":1752862522,"current_range_meters":4000,"station_id":"ce4bhih2rcd13ifvqfs0","pricing_plan_id":"cebpf4jnsgd1na2vs0mg"},{"bike_id":"d2b01c52-bcee-42f7-8eaa-5b4b7e0f12ae","system_id":"levelo_inurba_marseille","lat":43.29282,"lon":5.40114,"is_reserved":false,"is_disabled":false,"rental_uris":{"android":"levelo://app?vid=d2b01c52-bcee-42f7-8eaa-5b4b7e0f12ae","ios":"levelo://app?vid=d2b01c52-bcee-42f7-8eaa-5b4b7e0f12ae"},"vehicle_type_id":"4","last_reported":1752862522,"current_range_meters":3600,"station_id":"ce4bh312rcd13ifvqdk0","pricing_plan_id":"cebpf4jnsgd1na2vs0mg"},{"bike_id":"7ef7e706-c98d-4408-aeca-8ea856b9faa1","system_id":"levelo_inurba_marseille","lat":43.31492,"lon":5.37312,"is_reserved":false,"is_disabled":false,"rental_uris":{"android":"levelo://app?vid=7ef7e706-c98d-4408-aeca-8ea856b9faa1","ios":"levelo://app?vid=7ef7e706-c98d-4408-aeca-8ea856b9faa1"},"vehicle_type_id":"4","last_reported":1752862522,"current_range_meters":4400,"station_id":"ce4bgt12rcd13ifvqcd0","pricing_plan_id":"cebpf4jnsgd1na2vs0mg"},{"bike_id":"efcffd74-9dbe-4764-8c8d-54fb193cabb3","system_id":"levelo_inurba_marseille","lat":43.217518,"lon":5.346013,"is_reserved":false,"is_disabled":false,"rental_uris":{"android":"levelo://app?vid=efcffd74-9dbe-4764-8c8d-54fb193cabb3","ios":"levelo://app?vid=efcffd74-9dbe-4764-8c8d-54fb193cabb3"},"vehicle_type_id":"4","last_reported":1752862522,"current_range_meters":4400,"station_id":"st_cvj6r9ubvosntc0bgbag","pricing_plan_id":"cebpf4jnsgd1na2vs0mg"},{"bike_id":"9019c298-9ce0-4663-9ff8-b3d20776c4d9","system_id":"levelo_inurba_marseille","lat":43.24664,"lon":5.38161,"is_reserved":false,"is_disabled":false,"rental_uris":{"android":"levelo://app?vid=9019c298-9ce0-4663-9ff8-b3d20776c4d9","ios":"levelo://app?vid=9019c298-9ce0-4663-9ff8-b3d20776c4d9"},"vehicle_type_id":"4","last_reported":1752862522,"current_range_meters":4400,"station_id":"ce4bhih2rcd13ifvqfr0","pricing_plan_id":"cebpf4jnsgd1na2vs0mg"},{"bike_id":"02009c7e-fbc8-4fa2-bec8-783e22492cd6","system_id":"levelo_inurba_marseille","lat":43.31488,"lon":5.37308,"is_reserved":false,"is_disabled":false,"rental_uris":{"android":"levelo://app?vid=02009c7e-fbc8-4fa2-bec8-783e22492cd6","ios":"levelo://app?vid=02009c7e-fbc8-4fa2-bec8-783e22492cd6"},"vehicle_type_id":"4","last_reported":1752862522,"current_range_meters":4000,"station_id":"ce4bgt12rcd13ifvqcd0","pricing_plan_id":"cebpf4jnsgd1na2vs0mg"},{"bike_id":"0c73c34c-78c4-4bd8-83f7-4a6894eaf848","system_id":"levelo_inurba_marseille","lat":43.23183,"lon":5.39983,"is_reserved":false,"is_disabled":false,"rental_uris":{"android":"levelo://app?vid=0c73c34c-78c4-4bd8-83f7-4a6894eaf848","ios":"levelo://app?vid=0c73c34c-78c4-4bd8-83f7-4a6894eaf848"},"vehicle_type_id":"4","last_reported":1752862522,"current_range_meters":6800,"station_id":"ce4bhn12rcd13ifvqgqg","pricing_plan_id":"cebpf4jnsgd1na2vs0mg"},{"bike_id":"f57ea9d3-c8df-43c8-b75b-84411fc10456","system_id":"levelo_inurba_marseille","lat":43.254833,"lon":5.376365,"is_reserved":false,"is_disabled":false,"rental_uris":{"android":"levelo://app?vid=f57ea9d3-c8df-43c8-b75b-84411fc10456","ios":"levelo://app?vid=f57ea9d3-c8df-43c8-b75b-84411fc10456"},"vehicle_type_id":"4","last_reported":1752862522,"current_range_meters":4800,"station_id":"ce4bhh12rcd13ifvqff0","pricing_plan_id":"cebpf4jnsgd1na2vs0mg"},{"bike_id":"096b2c8d-b61a-4973-bab9-8ebc1d81ebe0","system_id":"levelo_inurba_marseille","lat":43.29449,"lon":5.38603,"is_reserved":false,"is_disabled":false,"rental_uris":{"android":"levelo://app?vid=096b2c8d-b61a-4973-bab9-8ebc1d81ebe0","ios":"levelo://app?vid=096b2c8d-b61a-4973-bab9-8ebc1d81ebe0"},"vehicle_type_id":"4","last_reported":1752862522,"current_range_meters":5600,"station_id":"","pricing_plan_id":"cebpf4jnsgd1na2vs0mg"},{"bike_id":"e64b1676-4499-4c52-b3d5-a20bd626fa92","system_id":"levelo_inurba_marseille","lat":43.32285,"lon":5.38263,"is_reserved":false,"is_disabled":false,"rental_uris":{"android":"levelo://app?vid=e64b1676-4499-4c52-b3d5-a20bd626fa92","ios":"levelo://app?vid=e64b1676-4499-4c52-b3d5-a20bd626fa92"},"vehicle_type_id":"4","last_reported":1752862522,"current_range_meters":4800,"station_id":"ce4bhr12rcd13ifvqhqg","pricing_plan_id":"cebpf4jnsgd1na2vs0mg"},{"bike_id":"b994259f-472c-4081-9d2f-90cbd1cc49f6","system_id":"levelo_inurba_marseille","lat":43.29264,"lon":5.38438,"is_reserved":false,"is_disabled":false,"rental_uris":{"android":"levelo://app?vid=b994259f-472c-4081-9d2f-90cbd1cc49f6","ios":"levelo://app?vid=b994259f-472c-4081-9d2f-90cbd1cc49f6"},"vehicle_type_id":"4","last_reported":1752862522,"current_range_meters":5600,"station_id":"ce4bh692rcd13ifvqea0","pricing_plan_id":"cebpf4jnsgd1na2vs0mg"},{"bike_id":"6928dacf-2e8f-4c40-8774-0d60fdfd8e6d","system_id":"levelo_inurba_marseille","lat":43.31069,"lon":5.40112,"is_reserved":false,"is_disabled":false,"rental_uris":{"android":"levelo://app?vid=6928dacf-2e8f-4c40-8774-0d60fdfd8e6d","ios":"levelo://app?vid=6928dacf-2e8f-4c40-8774-0d60fdfd8e6d"},"vehicle_type_id":"4","last_reported":1752862522,"current_range_meters":6000,"station_id":"","pricing_plan_id":"cebpf4jnsgd1na2vs0mg"},{"bike_id":"137677d1-4023-4569-b26f-01e6b5072a65","system_id":"levelo_inurba_marseille","lat":43.311229,"lon":5.388576,"is_reserved":false,"is_disabled":false,"rental_uris":{"android":"levelo://app?vid=137677d1-4023-4569-b26f-01e6b5072a65","ios":"levelo://app?vid=137677d1-4023-4569-b26f-01e6b5072a65"},"vehicle_type_id":"4","last_reported":1752862522,"current_range_meters":6000,"station_id":"ce4bgv12rcd13ifvqcp0","pricing_plan_id":"cebpf4jnsgd1na2vs0mg"},{"bike_id":"20e1cc30-ccbe-478e-bcb7-dc20e13576d1","system_id":"levelo_inurba_marseille","lat":43.28435,"lon":5.34976,"is_reserved":false,"is_disabled":true,"rental_uris":{"android":"levelo://app?vid=20e1cc30-ccbe-478e-bcb7-dc20e13576d1","ios":"levelo://app?vid=20e1cc30-ccbe-478e-bcb7-dc20e13576d1"},"vehicle_type_id":"4","last_reported":1752862522,"current_range_meters":6000,"station_id":"ce4bhbh2rcd13ifvqepg","pricing_plan_id":"cebpf4jnsgd1na2vs0mg"},{"bike_id":"21be736d-ad2b-4904-835e-d7f9d1098d63","system_id":"levelo_inurba_marseille","lat":43.29523,"lon":5.37502,"is_reserved":false,"is_disabled":false,"rental_uris":{"android":"levelo://app?vid=21be736d-ad2b-4904-835e-d7f9d1098d63","ios":"levelo://app?vid=21be736d-ad2b-4904-835e-d7f9d1098d63"},"vehicle_type_id":"4","last_reported":1752862522,"current_range_meters":6400,"station_id":"ce4bgkp2rcd13ifvqbmg","pricing_plan_id":"cebpf4jnsgd1na2vs0mg"},{"bike_id":"9042c2e5-b70c-470c-b250-ab450dc4048e","system_id":"levelo_inurba_marseille","lat":43.33758,"lon":5.37449,"is_reserved":false,"is_disabled":false,"rental_uris":{"android":"levelo://app?vid=9042c2e5-b70c-470c-b250-ab450dc4048e","ios":"levelo://app?vid=9042c2e5-b70c-470c-b250-ab450dc4048e"},"vehicle_type_id":"4","last_reported":1752862522,"current_range_meters":6000,"station_id":"ce4bhbp2rcd13ifvqesg","pricing_plan_id":"cebpf4jnsgd1na2vs0mg"},{"bike_id":"672e62be-08f7-4b44-a8c9-5f8d0b5b7450","system_id":"levelo_inurba_marseille","lat":43.225,"lon":5.34763,"is_reserved":false,"is_disabled":false,"rental_uris":{"android":"levelo://app?vid=672e62be-08f7-4b44-a8c9-5f8d0b5b7450","ios":"levelo://app?vid=672e62be-08f7-4b44-a8c9-5f8d0b5b7450"},"vehicle_type_id":"4","last_reported":1752862522,"current_range_meters":6400,"station_id":"st_cvj5dfep6f1abm77gieg","pricing_plan_id":"cebpf4jnsgd1na2vs0mg"},{"bike_id":"00200085-a7f8-4b07-9428-8d0e79ca8ddb","system_id":"levelo_inurba_marseille","lat":43.30952,"lon":5.39031,"is_reserved":false,"is_disabled":false,"rental_uris":{"android":"levelo://app?vid=00200085-a7f8-4b07-9428-8d0e79ca8ddb","ios":"levelo://app?vid=00200085-a7f8-4b07-9428-8d0e79ca8ddb"},"vehicle_type_id":"4","last_reported":1752862522,"current_range_meters":6800,"station_id":"ce4bgup2rcd13ifvqco0","pricing_plan_id":"cebpf4jnsgd1na2vs0mg"},{"bike_id":"34bbb9b0-e32f-49ca-a347-f7474dc6d983","system_id":"levelo_inurba_marseille","lat":43.28464,"lon":5.35883,"is_reserved":false,"is_disabled":false,"rental_uris":{"android":"levelo://app?vid=34bbb9b0-e32f-49ca-a347-f7474dc6d983","ios":"levelo://app?vid=34bbb9b0-e32f-49ca-a347-f7474dc6d983"},"vehicle_type_id":"4","last_reported":1752862522,"current_range_meters":6800,"station_id":"ce4bhah2rcd13ifvqei0","pricing_plan_id":"cebpf4jnsgd1na2vs0mg"},{"bike_id":"dc35918a-6a00-405c-9c38-f975eb93152c","system_id":"levelo_inurba_marseille","lat":43.29268,"lon":5.38435,"is_reserved":false,"is_disabled":false,"rental_uris":{"android":"levelo://app?vid=dc35918a-6a00-405c-9c38-f975eb93152c","ios":"levelo://app?vid=dc35918a-6a00-405c-9c38-f975eb93152c"},"vehicle_type_id":"4","last_reported":1752862522,"current_range_meters":8000,"station_id":"ce4bh692rcd13ifvqea0","pricing_plan_id":"cebpf4jnsgd1na2vs0mg"},{"bike_id":"3d654b54-8879-4ed5-b393-55f407206e7c","system_id":"levelo_inurba_marseille","lat":43.296783,"lon":5.372496,"is_reserved":false,"is_disabled":false,"rental_uris":{"android":"levelo://app?vid=3d654b54-8879-4ed5-b393-55f407206e7c","ios":"levelo://app?vid=3d654b54-8879-4ed5-b393-55f407206e7c"},"vehicle_type_id":"4","last_reported":1752862522,"current_range_meters":7200,"station_id":"ce4bgk12rcd13ifvqbj0","pricing_plan_id":"cebpf4jnsgd1na2vs0mg"},{"bike_id":"e95b1477-33a1-48a7-a021-3878a6895222","system_id":"levelo_inurba_marseille","lat":43.217551,"lon":5.345965,"is_reserved":false,"is_disabled":false,"rental_uris":{"android":"levelo://app?vid=e95b1477-33a1-48a7-a021-3878a6895222","ios":"levelo://app?vid=e95b1477-33a1-48a7-a021-3878a6895222"},"vehicle_type_id":"4","last_reported":1752862522,"current_range_meters":6800,"station_id":"st_cvj6r9ubvosntc0bgbag","pricing_plan_id":"cebpf4jnsgd1na2vs0mg"},{"bike_id":"09d1c453-ec5f-461f-9b23-6becc740074a","system_id":"levelo_inurba_marseille","lat":43.276187,"lon":5.361059,"is_reserved":false,"is_disabled":false,"rental_uris":{"android":"levelo://app?vid=09d1c453-ec5f-461f-9b23-6becc740074a","ios":"levelo://app?vid=09d1c453-ec5f-461f-9b23-6becc740074a"},"vehicle_type_id":"4","last_reported":1752862522,"current_range_meters":7200,"station_id":"","pricing_plan_id":"cebpf4jnsgd1na2vs0mg"},{"bike_id":"04d15a50-cb94-495c-969c-c09473f1fcda","system_id":"levelo_inurba_marseille","lat":43.296196,"lon":5.377039,"is_reserved":false,"is_disabled":true,"rental_uris":{"android":"levelo://app?vid=04d15a50-cb94-495c-969c-c09473f1fcda","ios":"levelo://app?vid=04d15a50-cb94-495c-969c-c09473f1fcda"},"vehicle_type_id":"4","last_reported":1752862522,"current_range_meters":7200,"station_id":"","pricing_plan_id":"cebpf4jnsgd1na2vs0mg"},{"bike_id":"015e2317-6c66-4d52-9650-fc42e795f182","system_id":"levelo_inurba_marseille","lat":43.30603,"lon":5.39361,"is_reserved":false,"is_disabled":true,"rental_uris":{"android":"levelo://app?vid=015e2317-6c66-4d52-9650-fc42e795f182","ios":"levelo://app?vid=015e2317-6c66-4d52-9650-fc42e795f182"},"vehicle_type_id":"4","last_reported":1752862522,"current_range_meters":7200,"station_id":"ce4bh0p2rcd13ifvqd80","pricing_plan_id":"cebpf4jnsgd1na2vs0mg"},{"bike_id":"e157e0e0-e0cc-41f9-aa7c-8de014cef7c7","system_id":"levelo_inurba_marseille","lat":43.294198,"lon":5.385885,"is_reserved":false,"is_disabled":false,"rental_uris":{"android":"levelo://app?vid=e157e0e0-e0cc-41f9-aa7c-8de014cef7c7","ios":"levelo://app?vid=e157e0e0-e0cc-41f9-aa7c-8de014cef7c7"},"vehicle_type_id":"4","last_reported":1752862522,"current_range_meters":7200,"station_id":"ce4bh2h2rcd13ifvqdh0","pricing_plan_id":"cebpf4jnsgd1na2vs0mg"},{"bike_id":"977b840f-6a43-46cd-8e21-1ff87c77fbc2","system_id":"levelo_inurba_marseille","lat":43.28271,"lon":5.35067,"is_reserved":false,"is_disabled":false,"rental_uris":{"android":"levelo://app?vid=977b840f-6a43-46cd-8e21-1ff87c77fbc2","ios":"levelo://app?vid=977b840f-6a43-46cd-8e21-1ff87c77fbc2"},"vehicle_type_id":"4","last_reported":1752862522,"current_range_meters":7200,"station_id":"ce4bhbp2rcd13ifvqerg","pricing_plan_id":"cebpf4jnsgd1na2vs0mg"},{"bike_id":"3444bdc6-514a-4ba6-9650-f9073305e33d","system_id":"levelo_inurba_marseille","lat":43.29682,"lon":5.3698,"is_reserved":false,"is_disabled":false,"rental_uris":{"android":"levelo://app?vid=3444bdc6-514a-4ba6-9650-f9073305e33d","ios":"levelo://app?vid=3444bdc6-514a-4ba6-9650-f9073305e33d"},"vehicle_type_id":"4","last_reported":1752862522,"current_range_meters":8000,"station_id":"","pricing_plan_id":"cebpf4jnsgd1na2vs0mg"},{"bike_id":"56d35fb4-c3fa-422a-a14b-9ed987a4f56f","system_id":"levelo_inurba_marseille","lat":43.248075,"lon":5.374593,"is_reserved":false,"is_disabled":false,"rental_uris":{"android":"levelo://app?vid=56d35fb4-c3fa-422a-a14b-9ed987a4f56f","ios":"levelo://app?vid=56d35fb4-c3fa-422a-a14b-9ed987a4f56f"},"vehicle_type_id":"4","last_reported":1752862522,"current_range_meters":8000,"station_id":"ce4bhgh2rcd13ifvqfb0","pricing_plan_id":"cebpf4jnsgd1na2vs0mg"},{"bike_id":"c2495178-f557-4b30-b46f-0341c51cce8c","system_id":"levelo_inurba_marseille","lat":43.3182,"lon":5.37356,"is_reserved":false,"is_disabled":false,"rental_uris":{"android":"levelo://app?vid=c2495178-f557-4b30-b46f-0341c51cce8c","ios":"levelo://app?vid=c2495178-f557-4b30-b46f-0341c51cce8c"},"vehicle_type_id":"4","last_reported":1752862522,"current_range_meters":8000,"station_id":"","pricing_plan_id":"cebpf4jnsgd1na2vs0mg"},{"bike_id":"fcb43646-13dd-4cea-b3e4-460cae3cbed7","system_id":"levelo_inurba_marseille","lat":43.225076,"lon":5.347818,"is_reserved":false,"is_disabled":false,"rental_uris":{"android":"levelo://app?vid=fcb43646-13dd-4cea-b3e4-460cae3cbed7","ios":"levelo://app?vid=fcb43646-13dd-4cea-b3e4-460cae3cbed7"},"vehicle_type_id":"4","last_reported":1752862522,"current_range_meters":8000,"station_id":"st_cvj5dfep6f1abm77gieg","pricing_plan_id":"cebpf4jnsgd1na2vs0mg"},{"bike_id":"555bc53e-5286-4fb6-9154-af42b3fd9792","system_id":"levelo_inurba_marseille","lat":43.30072,"lon":5.37259,"is_reserved":false,"is_disabled":false,"rental_uris":{"android":"levelo://app?vid=555bc53e-5286-4fb6-9154-af42b3fd9792","ios":"levelo://app?vid=555bc53e-5286-4fb6-9154-af42b3fd9792"},"vehicle_type_id":"4","last_reported":1752862522,"current_range_meters":8000,"station_id":"","pricing_plan_id":"cebpf4jnsgd1na2vs0mg"},{"bike_id":"c934d156-0d9c-4313-94b7-1e4a4df48bdb","system_id":"levelo_inurba_marseille","lat":43.29264,"lon":5.38433,"is_reserved":false,"is_disabled":false,"rental_uris":{"android":"levelo://app?vid=c934d156-0d9c-4313-94b7-1e4a4df48bdb","ios":"levelo://app?vid=c934d156-0d9c-4313-94b7-1e4a4df48bdb"},"vehicle_type_id":"4","last_reported":1752862522,"current_range_meters":8400,"station_id":"ce4bh692rcd13ifvqea0","pricing_plan_id":"cebpf4jnsgd1na2vs0mg"},{"bike_id":"d1b1ae6f-562f-42f0-a958-cbc912a1619d","system_id":"levelo_inurba_marseille","lat":43.27619,"lon":5.36086,"is_reserved":false,"is_disabled":true,"rental_uris":{"android":"levelo://app?vid=d1b1ae6f-562f-42f0-a958-cbc912a1619d","ios":"levelo://app?vid=d1b1ae6f-562f-42f0-a958-cbc912a1619d"},"vehicle_type_id":"4","last_reported":1752862522,"current_range_meters":8000,"station_id":"ce4bgj92rcd13ifvqbe0","pricing_plan_id":"cebpf4jnsgd1na2vs0mg"},{"bike_id":"447dca56-3914-4621-934f-c200f77f71da","system_id":"levelo_inurba_marseille","lat":43.31699,"lon":5.37747,"is_reserved":false,"is_disabled":false,"rental_uris":{"android":"levelo://app?vid=447dca56-3914-4621-934f-c200f77f71da","ios":"levelo://app?vid=447dca56-3914-4621-934f-c200f77f71da"},"vehicle_type_id":"4","last_reported":1752862522,"current_range_meters":7200,"station_id":"ce4bgth2rcd13ifvqch0","pricing_plan_id":"cebpf4jnsgd1na2vs0mg"},{"bike_id":"2de55ef6-e93a-4021-8d7e-cfd24caf3096","system_id":"levelo_inurba_marseille","lat":43.3021,"lon":5.39463,"is_reserved":false,"is_disabled":false,"rental_uris":{"android":"levelo://app?vid=2de55ef6-e93a-4021-8d7e-cfd24caf3096","ios":"levelo://app?vid=2de55ef6-e93a-4021-8d7e-cfd24caf3096"},"vehicle_type_id":"4","last_reported":1752862522,"current_range_meters":8000,"station_id":"ce4bh0p2rcd13ifvqd70","pricing_plan_id":"cebpf4jnsgd1na2vs0mg"},{"bike_id":"59147be7-fe43-4ddb-8179-891cc209d3d8","system_id":"levelo_inurba_marseille","lat":43.279052,"lon":5.395739,"is_reserved":false,"is_disabled":false,"rental_uris":{"android":"levelo://app?vid=59147be7-fe43-4ddb-8179-891cc209d3d8","ios":"levelo://app?vid=59147be7-fe43-4ddb-8179-891cc209d3d8"},"vehicle_type_id":"4","last_reported":1752862522,"current_range_meters":8400,"station_id":"ce4bhf92rcd13ifvqf40","pricing_plan_id":"cebpf4jnsgd1na2vs0mg"},{"bike_id":"9dc7d1a0-3f50-41cb-8c1c-afdb3cdb7c7e","system_id":"levelo_inurba_marseille","lat":43.248076,"lon":5.374606,"is_reserved":false,"is_disabled":false,"rental_uris":{"android":"levelo://app?vid=9dc7d1a0-3f50-41cb-8c1c-afdb3cdb7c7e","ios":"levelo://app?vid=9dc7d1a0-3f50-41cb-8c1c-afdb3cdb7c7e"},"vehicle_type_id":"4","last_reported":1752862522,"current_range_meters":8400,"station_id":"ce4bhgh2rcd13ifvqfb0","pricing_plan_id":"cebpf4jnsgd1na2vs0mg"},{"bike_id":"09c73347-5077-4395-8b92-ee94d41e0a24","system_id":"levelo_inurba_marseille","lat":43.28657,"lon":5.36344,"is_reserved":false,"is_disabled":true,"rental_uris":{"android":"levelo://app?vid=09c73347-5077-4395-8b92-ee94d41e0a24","ios":"levelo://app?vid=09c73347-5077-4395-8b92-ee94d41e0a24"},"vehicle_type_id":"4","last_reported":1752862522,"current_range_meters":8400,"station_id":"ce4bhah2rcd13ifvqej0","pricing_plan_id":"cebpf4jnsgd1na2vs0mg"},{"bike_id":"f23216d2-d51b-4f8b-91f2-65e6c4109933","system_id":"levelo_inurba_marseille","lat":43.28272,"lon":5.35054,"is_reserved":false,"is_disabled":false,"rental_uris":{"android":"levelo://app?vid=f23216d2-d51b-4f8b-91f2-65e6c4109933","ios":"levelo://app?vid=f23216d2-d51b-4f8b-91f2-65e6c4109933"},"vehicle_type_id":"4","last_reported":1752862522,"current_range_meters":8400,"station_id":"ce4bhbp2rcd13ifvqerg","pricing_plan_id":"cebpf4jnsgd1na2vs0mg"},{"bike_id":"28d27c17-e6ca-4cec-aec9-f1f6696b8a12","system_id":"levelo_inurba_marseille","lat":43.29923,"lon":5.43646,"is_reserved":false,"is_disabled":true,"rental_uris":{"android":"levelo://app?vid=28d27c17-e6ca-4cec-aec9-f1f6696b8a12","ios":"levelo://app?vid=28d27c17-e6ca-4cec-aec9-f1f6696b8a12"},"vehicle_type_id":"4","last_reported":1752862522,"current_range_meters":8400,"station_id":"","pricing_plan_id":"cebpf4jnsgd1na2vs0mg"},{"bike_id":"f897316b-05ba-46b0-b0d4-12469937bce4","system_id":"levelo_inurba_marseille","lat":43.33025,"lon":5.39043,"is_reserved":false,"is_disabled":false,"rental_uris":{"android":"levelo://app?vid=f897316b-05ba-46b0-b0d4-12469937bce4","ios":"levelo://app?vid=f897316b-05ba-46b0-b0d4-12469937bce4"},"vehicle_type_id":"4","last_reported":1752862522,"current_range_meters":8400,"station_id":"ce4bhr92rcd13ifvqhrg","pricing_plan_id":"cebpf4jnsgd1na2vs0mg"},{"bike_id":"b71cee07-660b-4ac6-b66c-770968d2ecb7","system_id":"levelo_inurba_marseille","lat":43.304452,"lon":5.389828,"is_reserved":false,"is_disabled":false,"rental_uris":{"android":"levelo://app?vid=b71cee07-660b-4ac6-b66c-770968d2ecb7","ios":"levelo://app?vid=b71cee07-660b-4ac6-b66c-770968d2ecb7"},"vehicle_type_id":"4","last_reported":1752862522,"current_range_meters":8400,"station_id":"ce4bgk12rcd13ifvqbi0","pricing_plan_id":"cebpf4jnsgd1na2vs0mg"},{"bike_id":"8388e8dc-9ab1-4131-bc75-e5d14d7d732e","system_id":"levelo_inurba_marseille","lat":43.320978,"lon":5.368148,"is_reserved":false,"is_disabled":false,"rental_uris":{"android":"levelo://app?vid=8388e8dc-9ab1-4131-bc75-e5d14d7d732e","ios":"levelo://app?vid=8388e8dc-9ab1-4131-bc75-e5d14d7d732e"},"vehicle_type_id":"4","last_reported":1752862522,"current_range_meters":8800,"station_id":"ce4bhrh2rcd13ifvqhug","pricing_plan_id":"cebpf4jnsgd1na2vs0mg"},{"bike_id":"b315058f-ef7a-41a0-b37b-bd541cf7a96e","system_id":"levelo_inurba_marseille","lat":43.21751,"lon":5.34607,"is_reserved":false,"is_disabled":false,"rental_uris":{"android":"levelo://app?vid=b315058f-ef7a-41a0-b37b-bd541cf7a96e","ios":"levelo://app?vid=b315058f-ef7a-41a0-b37b-bd541cf7a96e"},"vehicle_type_id":"4","last_reported":1752862522,"current_range_meters":8800,"station_id":"st_cvj6r9ubvosntc0bgbag","pricing_plan_id":"cebpf4jnsgd1na2vs0mg"},{"bike_id":"6a651715-5d26-43b5-8524-00cc23fa11e1","system_id":"levelo_inurba_marseille","lat":43.24805,"lon":5.374594,"is_reserved":false,"is_disabled":false,"rental_uris":{"android":"levelo://app?vid=6a651715-5d26-43b5-8524-00cc23fa11e1","ios":"levelo://app?vid=6a651715-5d26-43b5-8524-00cc23fa11e1"},"vehicle_type_id":"4","last_reported":1752862522,"current_range_meters":8800,"station_id":"ce4bhgh2rcd13ifvqfb0","pricing_plan_id":"cebpf4jnsgd1na2vs0mg"},{"bike_id":"ca559113-be7f-40e3-919b-60fe33d349c8","system_id":"levelo_inurba_marseille","lat":43.241678,"lon":5.363913,"is_reserved":false,"is_disabled":false,"rental_uris":{"android":"levelo://app?vid=ca559113-be7f-40e3-919b-60fe33d349c8","ios":"levelo://app?vid=ca559113-be7f-40e3-919b-60fe33d349c8"},"vehicle_type_id":"4","last_reported":1752862522,"current_range_meters":8800,"station_id":"cpo36qri1sfpv3e86is0","pricing_plan_id":"cebpf4jnsgd1na2vs0mg"},{"bike_id":"07f5ae19-0925-43ef-aab4-48ec58bc62b9","system_id":"levelo_inurba_marseille","lat":43.31451,"lon":5.3744,"is_reserved":false,"is_disabled":false,"rental_uris":{"android":"levelo://app?vid=07f5ae19-0925-43ef-aab4-48ec58bc62b9","ios":"levelo://app?vid=07f5ae19-0925-43ef-aab4-48ec58bc62b9"},"vehicle_type_id":"4","last_reported":1752862522,"current_range_meters":8800,"station_id":"","pricing_plan_id":"cebpf4jnsgd1na2vs0mg"},{"bike_id":"c5429ecc-e130-44af-ba37-5dae37052d7b","system_id":"levelo_inurba_marseille","lat":43.29004,"lon":5.35613,"is_reserved":false,"is_disabled":false,"rental_uris":{"android":"levelo://app?vid=c5429ecc-e130-44af-ba37-5dae37052d7b","ios":"levelo://app?vid=c5429ecc-e130-44af-ba37-5dae37052d7b"},"vehicle_type_id":"4","last_reported":1752862522,"current_range_meters":8800,"station_id":"ce4bhb92rcd13ifvqen0","pricing_plan_id":"cebpf4jnsgd1na2vs0mg"},{"bike_id":"7e3a270d-0a4b-455f-943f-313173dc8fa4","system_id":"levelo_inurba_marseille","lat":43.28259,"lon":5.35065,"is_reserved":false,"is_disabled":false,"rental_uris":{"android":"levelo://app?vid=7e3a270d-0a4b-455f-943f-313173dc8fa4","ios":"levelo://app?vid=7e3a270d-0a4b-455f-943f-313173dc8fa4"},"vehicle_type_id":"4","last_reported":1752862522,"current_range_meters":9200,"station_id":"ce4bhbp2rcd13ifvqerg","pricing_plan_id":"cebpf4jnsgd1na2vs0mg"},{"bike_id":"79e00cba-979b-4370-b320-7e4857db9893","system_id":"levelo_inurba_marseille","lat":43.33739,"lon":5.37443,"is_reserved":false,"is_disabled":false,"rental_uris":{"android":"levelo://app?vid=79e00cba-979b-4370-b320-7e4857db9893","ios":"levelo://app?vid=79e00cba-979b-4370-b320-7e4857db9893"},"vehicle_type_id":"4","last_reported":1752862522,"current_range_meters":9200,"station_id":"","pricing_plan_id":"cebpf4jnsgd1na2vs0mg"},{"bike_id":"5bbfed66-f069-4365-881f-fc6b8a6acebc","system_id":"levelo_inurba_marseille","lat":43.26031,"lon":5.37546,"is_reserved":false,"is_disabled":false,"rental_uris":{"android":"levelo://app?vid=5bbfed66-f069-4365-881f-fc6b8a6acebc","ios":"levelo://app?vid=5bbfed66-f069-4365-881f-fc6b8a6acebc"},"vehicle_type_id":"4","last_reported":1752862522,"current_range_meters":8800,"station_id":"ce4bhgh2rcd13ifvqfa0","pricing_plan_id":"cebpf4jnsgd1na2vs0mg"},{"bike_id":"eb95f9b9-6646-4b09-b1fa-498c356bc8f7","system_id":"levelo_inurba_marseille","lat":43.25108,"lon":5.40319,"is_reserved":false,"is_disabled":false,"rental_uris":{"android":"levelo://app?vid=eb95f9b9-6646-4b09-b1fa-498c356bc8f7","ios":"levelo://app?vid=eb95f9b9-6646-4b09-b1fa-498c356bc8f7"},"vehicle_type_id":"4","last_reported":1752862522,"current_range_meters":8800,"station_id":"ce4bhlh2rcd13ifvqgig","pricing_plan_id":"cebpf4jnsgd1na2vs0mg"},{"bike_id":"f3b7a7b2-db67-447c-b301-5ae96d8504a2","system_id":"levelo_inurba_marseille","lat":43.262025,"lon":5.379327,"is_reserved":false,"is_disabled":false,"rental_uris":{"android":"levelo://app?vid=f3b7a7b2-db67-447c-b301-5ae96d8504a2","ios":"levelo://app?vid=f3b7a7b2-db67-447c-b301-5ae96d8504a2"},"vehicle_type_id":"4","last_reported":1752862522,"current_range_meters":9200,"station_id":"ce4bhjp2rcd13ifvqg90","pricing_plan_id":"cebpf4jnsgd1na2vs0mg"},{"bike_id":"de0cc3d4-da9f-456c-8b49-773e86e20ec2","system_id":"levelo_inurba_marseille","lat":43.30889,"lon":5.39609,"is_reserved":false,"is_disabled":false,"rental_uris":{"android":"levelo://app?vid=de0cc3d4-da9f-456c-8b49-773e86e20ec2","ios":"levelo://app?vid=de0cc3d4-da9f-456c-8b49-773e86e20ec2"},"vehicle_type_id":"4","last_reported":1752862522,"current_range_meters":9200,"station_id":"ce4bh012rcd13ifvqcv0","pricing_plan_id":"cebpf4jnsgd1na2vs0mg"},{"bike_id":"9c61c4fa-6ae0-46cb-8c4c-e2c4da131aac","system_id":"levelo_inurba_marseille","lat":43.31168,"lon":5.3871,"is_reserved":false,"is_disabled":false,"rental_uris":{"android":"levelo://app?vid=9c61c4fa-6ae0-46cb-8c4c-e2c4da131aac","ios":"levelo://app?vid=9c61c4fa-6ae0-46cb-8c4c-e2c4da131aac"},"vehicle_type_id":"4","last_reported":1752862522,"current_range_meters":9200,"station_id":"ce4bgv12rcd13ifvqcp0","pricing_plan_id":"cebpf4jnsgd1na2vs0mg"},{"bike_id":"5a4e967b-0530-4685-9792-fdc61d201de4","system_id":"levelo_inurba_marseille","lat":43.28409,"lon":5.34984,"is_reserved":false,"is_disabled":false,"rental_uris":{"android":"levelo://app?vid=5a4e967b-0530-4685-9792-fdc61d201de4","ios":"levelo://app?vid=5a4e967b-0530-4685-9792-fdc61d201de4"},"vehicle_type_id":"4","last_reported":1752862522,"current_range_meters":9600,"station_id":"ce4bhbh2rcd13ifvqepg","pricing_plan_id":"cebpf4jnsgd1na2vs0mg"},{"bike_id":"3252d21e-eee6-4c35-8cbc-d710b501b1dc","system_id":"levelo_inurba_marseille","lat":43.29056,"lon":5.3992,"is_reserved":false,"is_disabled":false,"rental_uris":{"android":"levelo://app?vid=3252d21e-eee6-4c35-8cbc-d710b501b1dc","ios":"levelo://app?vid=3252d21e-eee6-4c35-8cbc-d710b501b1dc"},"vehicle_type_id":"4","last_reported":1752862522,"current_range_meters":9600,"station_id":"ce4bh392rcd13ifvqdm0","pricing_plan_id":"cebpf4jnsgd1na2vs0mg"},{"bike_id":"255f63b3-d391-461e-9168-7b692342f2c5","system_id":"levelo_inurba_marseille","lat":43.21185,"lon":5.35061,"is_reserved":false,"is_disabled":false,"rental_uris":{"android":"levelo://app?vid=255f63b3-d391-461e-9168-7b692342f2c5","ios":"levelo://app?vid=255f63b3-d391-461e-9168-7b692342f2c5"},"vehicle_type_id":"4","last_reported":1752862522,"current_range_meters":9600,"station_id":"st_cvj6sg6p6f1abm77japg","pricing_plan_id":"cebpf4jnsgd1na2vs0mg"},{"bike_id":"57c26f17-72cd-41d9-8c7c-8e1e8493809e","system_id":"levelo_inurba_marseille","lat":43.27904,"lon":5.38016,"is_reserved":false,"is_disabled":false,"rental_uris":{"android":"levelo://app?vid=57c26f17-72cd-41d9-8c7c-8e1e8493809e","ios":"levelo://app?vid=57c26f17-72cd-41d9-8c7c-8e1e8493809e"},"vehicle_type_id":"4","last_reported":1752862522,"current_range_meters":9200,"station_id":"ce4bhf92rcd13ifvqf50","pricing_plan_id":"cebpf4jnsgd1na2vs0mg"},{"bike_id":"812481d4-9e33-42f8-93be-0e96c46371ab","system_id":"levelo_inurba_marseille","lat":43.28262,"lon":5.35065,"is_reserved":false,"is_disabled":false,"rental_uris":{"android":"levelo://app?vid=812481d4-9e33-42f8-93be-0e96c46371ab","ios":"levelo://app?vid=812481d4-9e33-42f8-93be-0e96c46371ab"},"vehicle_type_id":"4","last_reported":1752862522,"current_range_meters":9600,"station_id":"ce4bhbp2rcd13ifvqerg","pricing_plan_id":"cebpf4jnsgd1na2vs0mg"},{"bike_id":"2ac93549-5c94-4228-8eea-782a21384d10","system_id":"levelo_inurba_marseille","lat":43.29634,"lon":5.37793,"is_reserved":false,"is_disabled":false,"rental_uris":{"android":"levelo://app?vid=2ac93549-5c94-4228-8eea-782a21384d10","ios":"levelo://app?vid=2ac93549-5c94-4228-8eea-782a21384d10"},"vehicle_type_id":"4","last_reported":1752862522,"current_range_meters":9600,"station_id":"","pricing_plan_id":"cebpf4jnsgd1na2vs0mg"},{"bike_id":"fc6f69c5-9fea-4029-91b6-256e7c7364b7","system_id":"levelo_inurba_marseille","lat":43.25118,"lon":5.40309,"is_reserved":false,"is_disabled":false,"rental_uris":{"android":"levelo://app?vid=fc6f69c5-9fea-4029-91b6-256e7c7364b7","ios":"levelo://app?vid=fc6f69c5-9fea-4029-91b6-256e7c7364b7"},"vehicle_type_id":"4","last_reported":1752862522,"current_range_meters":9200,"station_id":"ce4bhlh2rcd13ifvqgig","pricing_plan_id":"cebpf4jnsgd1na2vs0mg"},{"bike_id":"9fa20bb2-d98d-40e7-9259-759d24e78361","system_id":"levelo_inurba_marseille","lat":43.24665,"lon":5.38161,"is_reserved":false,"is_disabled":false,"rental_uris":{"android":"levelo://app?vid=9fa20bb2-d98d-40e7-9259-759d24e78361","ios":"levelo://app?vid=9fa20bb2-d98d-40e7-9259-759d24e78361"},"vehicle_type_id":"4","last_reported":1752862522,"current_range_meters":9600,"station_id":"ce4bhih2rcd13ifvqfr0","pricing_plan_id":"cebpf4jnsgd1na2vs0mg"},{"bike_id":"ecb79b01-e9b6-4a2c-92c8-b9142d4d7e1f","system_id":"levelo_inurba_marseille","lat":43.273773,"lon":5.362585,"is_reserved":false,"is_disabled":false,"rental_uris":{"android":"levelo://app?vid=ecb79b01-e9b6-4a2c-92c8-b9142d4d7e1f","ios":"levelo://app?vid=ecb79b01-e9b6-4a2c-92c8-b9142d4d7e1f"},"vehicle_type_id":"4","last_reported":1752862522,"current_range_meters":9600,"station_id":"","pricing_plan_id":"cebpf4jnsgd1na2vs0mg"},{"bike_id":"bc1fa6bc-fd3f-43dd-82cf-1c7858fa8950","system_id":"levelo_inurba_marseille","lat":43.29956,"lon":5.38667,"is_reserved":false,"is_disabled":false,"rental_uris":{"android":"levelo://app?vid=bc1fa6bc-fd3f-43dd-82cf-1c7858fa8950","ios":"levelo://app?vid=bc1fa6bc-fd3f-43dd-82cf-1c7858fa8950"},"vehicle_type_id":"4","last_reported":1752862522,"current_range_meters":10000,"station_id":"","pricing_plan_id":"cebpf4jnsgd1na2vs0mg"},{"bike_id":"da891840-0cec-4ccc-961c-48903736c6fa","system_id":"levelo_inurba_marseille","lat":43.31139,"lon":5.37692,"is_reserved":false,"is_disabled":false,"rental_uris":{"android":"levelo://app?vid=da891840-0cec-4ccc-961c-48903736c6fa","ios":"levelo://app?vid=da891840-0cec-4ccc-961c-48903736c6fa"},"vehicle_type_id":"4","last_reported":1752862522,"current_range_meters":10000,"station_id":"","pricing_plan_id":"cebpf4jnsgd1na2vs0mg"},{"bike_id":"e555b545-304c-4dce-8496-1643c0f2600e","system_id":"levelo_inurba_marseille","lat":43.337444,"lon":5.374475,"is_reserved":false,"is_disabled":false,"rental_uris":{"android":"levelo://app?vid=e555b545-304c-4dce-8496-1643c0f2600e","ios":"levelo://app?vid=e555b545-304c-4dce-8496-1643c0f2600e"},"vehicle_type_id":"4","last_reported":1752862522,"current_range_meters":10000,"station_id":"","pricing_plan_id":"cebpf4jnsgd1na2vs0mg"},{"bike_id":"23292b85-c5ea-407c-a719-3af2869d92ac","system_id":"levelo_inurba_marseille","lat":43.24162,"lon":5.36396,"is_reserved":false,"is_disabled":false,"rental_uris":{"android":"levelo://app?vid=23292b85-c5ea-407c-a719-3af2869d92ac","ios":"levelo://app?vid=23292b85-c5ea-407c-a719-3af2869d92ac"},"vehicle_type_id":"4","last_reported":1752862522,"current_range_meters":10800,"station_id":"cpo36qri1sfpv3e86is0","pricing_plan_id":"cebpf4jnsgd1na2vs0mg"},{"bike_id":"0af88599-6653-4379-a21b-d902e6c6ea7c","system_id":"levelo_inurba_marseille","lat":43.28418,"lon":5.34982,"is_reserved":false,"is_disabled":false,"rental_uris":{"android":"levelo://app?vid=0af88599-6653-4379-a21b-d902e6c6ea7c","ios":"levelo://app?vid=0af88599-6653-4379-a21b-d902e6c6ea7c"},"vehicle_type_id":"4","last_reported":1752862522,"current_range_meters":10800,"station_id":"ce4bhbh2rcd13ifvqepg","pricing_plan_id":"cebpf4jnsgd1na2vs0mg"},{"bike_id":"501c62ad-efda-4074-a75a-47e04606411b","system_id":"levelo_inurba_marseille","lat":43.28417,"lon":5.34969,"is_reserved":false,"is_disabled":false,"rental_uris":{"android":"levelo://app?vid=501c62ad-efda-4074-a75a-47e04606411b","ios":"levelo://app?vid=501c62ad-efda-4074-a75a-47e04606411b"},"vehicle_type_id":"4","last_reported":1752862522,"current_range_meters":10800,"station_id":"ce4bhbh2rcd13ifvqepg","pricing_plan_id":"cebpf4jnsgd1na2vs0mg"},{"bike_id":"56a56d2b-8ea7-4b2b-bda7-ee1f9b3279ef","system_id":"levelo_inurba_marseille","lat":43.28154,"lon":5.4264,"is_reserved":false,"is_disabled":false,"rental_uris":{"android":"levelo://app?vid=56a56d2b-8ea7-4b2b-bda7-ee1f9b3279ef","ios":"levelo://app?vid=56a56d2b-8ea7-4b2b-bda7-ee1f9b3279ef"},"vehicle_type_id":"4","last_reported":1752862522,"current_range_meters":10800,"station_id":"ce4bhnh2rcd13ifvqgug","pricing_plan_id":"cebpf4jnsgd1na2vs0mg"},{"bike_id":"531dca68-8617-41b0-a6cd-abffc94e1d45","system_id":"levelo_inurba_marseille","lat":43.31204,"lon":5.37306,"is_reserved":false,"is_disabled":false,"rental_uris":{"android":"levelo://app?vid=531dca68-8617-41b0-a6cd-abffc94e1d45","ios":"levelo://app?vid=531dca68-8617-41b0-a6cd-abffc94e1d45"},"vehicle_type_id":"4","last_reported":1752862522,"current_range_meters":10800,"station_id":"","pricing_plan_id":"cebpf4jnsgd1na2vs0mg"},{"bike_id":"7ee342dc-ee5a-4cca-bc1c-160a6291fbfc","system_id":"levelo_inurba_marseille","lat":43.303522,"lon":5.418685,"is_reserved":false,"is_disabled":false,"rental_uris":{"android":"levelo://app?vid=7ee342dc-ee5a-4cca-bc1c-160a6291fbfc","ios":"levelo://app?vid=7ee342dc-ee5a-4cca-bc1c-160a6291fbfc"},"vehicle_type_id":"4","last_reported":1752862522,"current_range_meters":10000,"station_id":"ce4bhop2rcd13ifvqh7g","pricing_plan_id":"cebpf4jnsgd1na2vs0mg"},{"bike_id":"df2ecb9e-c65d-4cfb-97a2-4fcbf03b2661","system_id":"levelo_inurba_marseille","lat":43.2838,"lon":5.38644,"is_reserved":false,"is_disabled":false,"rental_uris":{"android":"levelo://app?vid=df2ecb9e-c65d-4cfb-97a2-4fcbf03b2661","ios":"levelo://app?vid=df2ecb9e-c65d-4cfb-97a2-4fcbf03b2661"},"vehicle_type_id":"4","last_reported":1752862522,"current_range_meters":10800,"station_id":"ce4bh492rcd13ifvqdvg","pricing_plan_id":"cebpf4jnsgd1na2vs0mg"},{"bike_id":"c4482a79-5623-48c2-a8f8-5b58df29e6e7","system_id":"levelo_inurba_marseille","lat":43.30948,"lon":5.39035,"is_reserved":false,"is_disabled":false,"rental_uris":{"android":"levelo://app?vid=c4482a79-5623-48c2-a8f8-5b58df29e6e7","ios":"levelo://app?vid=c4482a79-5623-48c2-a8f8-5b58df29e6e7"},"vehicle_type_id":"4","last_reported":1752862522,"current_range_meters":10800,"station_id":"ce4bgup2rcd13ifvqco0","pricing_plan_id":"cebpf4jnsgd1na2vs0mg"},{"bike_id":"b6b7ac6f-b300-452d-bc35-2a3fe051fc6b","system_id":"levelo_inurba_marseille","lat":43.29096,"lon":5.38121,"is_reserved":false,"is_disabled":false,"rental_uris":{"android":"levelo://app?vid=b6b7ac6f-b300-452d-bc35-2a3fe051fc6b","ios":"levelo://app?vid=b6b7ac6f-b300-452d-bc35-2a3fe051fc6b"},"vehicle_type_id":"4","last_reported":1752862522,"current_range_meters":11200,"station_id":"ce4bh512rcd13ifvqe2g","pricing_plan_id":"cebpf4jnsgd1na2vs0mg"},{"bike_id":"462e2d15-34e9-4f9f-8546-f92bc9e0d5ed","system_id":"levelo_inurba_marseille","lat":43.297983,"lon":5.403993,"is_reserved":false,"is_disabled":false,"rental_uris":{"android":"levelo://app?vid=462e2d15-34e9-4f9f-8546-f92bc9e0d5ed","ios":"levelo://app?vid=462e2d15-34e9-4f9f-8546-f92bc9e0d5ed"},"vehicle_type_id":"4","last_reported":1752862522,"current_range_meters":16000,"station_id":"ce4bh112rcd13ifvqd90","pricing_plan_id":"cebpf4jnsgd1na2vs0mg"},{"bike_id":"c657eca0-7786-4d09-a568-d94b65f566c7","system_id":"levelo_inurba_marseille","lat":43.23962,"lon":5.36618,"is_reserved":false,"is_disabled":false,"rental_uris":{"android":"levelo://app?vid=c657eca0-7786-4d09-a568-d94b65f566c7","ios":"levelo://app?vid=c657eca0-7786-4d09-a568-d94b65f566c7"},"vehicle_type_id":"4","last_reported":1752862522,"current_range_meters":11200,"station_id":"ce4bhi12rcd13ifvqfp0","pricing_plan_id":"cebpf4jnsgd1na2vs0mg"},{"bike_id":"9f772b38-3864-4bba-8e9f-486b4cae4e82","system_id":"levelo_inurba_marseille","lat":43.31165,"lon":5.38717,"is_reserved":false,"is_disabled":false,"rental_uris":{"android":"levelo://app?vid=9f772b38-3864-4bba-8e9f-486b4cae4e82","ios":"levelo://app?vid=9f772b38-3864-4bba-8e9f-486b4cae4e82"},"vehicle_type_id":"4","last_reported":1752862522,"current_range_meters":11200,"station_id":"ce4bgv12rcd13ifvqcp0","pricing_plan_id":"cebpf4jnsgd1na2vs0mg"},{"bike_id":"f49d312b-67e5-480a-aee1-c0c990c76302","system_id":"levelo_inurba_marseille","lat":43.28421,"lon":5.34964,"is_reserved":false,"is_disabled":false,"rental_uris":{"android":"levelo://app?vid=f49d312b-67e5-480a-aee1-c0c990c76302","ios":"levelo://app?vid=f49d312b-67e5-480a-aee1-c0c990c76302"},"vehicle_type_id":"4","last_reported":1752862522,"current_range_meters":11600,"station_id":"ce4bhbh2rcd13ifvqepg","pricing_plan_id":"cebpf4jnsgd1na2vs0mg"},{"bike_id":"5784368b-49d9-44bc-bf03-54e76e2bff40","system_id":"levelo_inurba_marseille","lat":43.29966,"lon":5.38492,"is_reserved":false,"is_disabled":false,"rental_uris":{"android":"levelo://app?vid=5784368b-49d9-44bc-bf03-54e76e2bff40","ios":"levelo://app?vid=5784368b-49d9-44bc-bf03-54e76e2bff40"},"vehicle_type_id":"4","last_reported":1752862522,"current_range_meters":14400,"station_id":"ce4bgj92rcd13ifvqbd0","pricing_plan_id":"cebpf4jnsgd1na2vs0mg"},{"bike_id":"ca830025-215f-414c-8edc-96487caf324e","system_id":"levelo_inurba_marseille","lat":43.322853,"lon":5.382617,"is_reserved":false,"is_disabled":false,"rental_uris":{"android":"levelo://app?vid=ca830025-215f-414c-8edc-96487caf324e","ios":"levelo://app?vid=ca830025-215f-414c-8edc-96487caf324e"},"vehicle_type_id":"4","last_reported":1752862522,"current_range_meters":11600,"station_id":"ce4bhr12rcd13ifvqhqg","pricing_plan_id":"cebpf4jnsgd1na2vs0mg"},{"bike_id":"90437366-ee74-49a8-abc4-e285a8ba06f3","system_id":"levelo_inurba_marseille","lat":43.30954,"lon":5.39041,"is_reserved":false,"is_disabled":false,"rental_uris":{"android":"levelo://app?vid=90437366-ee74-49a8-abc4-e285a8ba06f3","ios":"levelo://app?vid=90437366-ee74-49a8-abc4-e285a8ba06f3"},"vehicle_type_id":"4","last_reported":1752862522,"current_range_meters":11600,"station_id":"ce4bgup2rcd13ifvqco0","pricing_plan_id":"cebpf4jnsgd1na2vs0mg"},{"bike_id":"e332125e-6159-42a4-a81f-9578929b9959","system_id":"levelo_inurba_marseille","lat":43.28416,"lon":5.34988,"is_reserved":false,"is_disabled":false,"rental_uris":{"android":"levelo://app?vid=e332125e-6159-42a4-a81f-9578929b9959","ios":"levelo://app?vid=e332125e-6159-42a4-a81f-9578929b9959"},"vehicle_type_id":"4","last_reported":1752862522,"current_range_meters":11600,"station_id":"ce4bhbh2rcd13ifvqepg","pricing_plan_id":"cebpf4jnsgd1na2vs0mg"},{"bike_id":"92e1d5b6-86da-42c2-95b9-b164a907ba3c","system_id":"levelo_inurba_marseille","lat":43.2951,"lon":5.37511,"is_reserved":false,"is_disabled":false,"rental_uris":{"android":"levelo://app?vid=92e1d5b6-86da-42c2-95b9-b164a907ba3c","ios":"levelo://app?vid=92e1d5b6-86da-42c2-95b9-b164a907ba3c"},"vehicle_type_id":"4","last_reported":1752862522,"current_range_meters":11200,"station_id":"ce4bgkp2rcd13ifvqbmg","pricing_plan_id":"cebpf4jnsgd1na2vs0mg"},{"bike_id":"3a0f1fe1-54c9-43f9-8fe1-1708ed7ae544","system_id":"levelo_inurba_marseille","lat":43.28238,"lon":5.37245,"is_reserved":false,"is_disabled":false,"rental_uris":{"android":"levelo://app?vid=3a0f1fe1-54c9-43f9-8fe1-1708ed7ae544","ios":"levelo://app?vid=3a0f1fe1-54c9-43f9-8fe1-1708ed7ae544"},"vehicle_type_id":"4","last_reported":1752862522,"current_range_meters":11600,"station_id":"","pricing_plan_id":"cebpf4jnsgd1na2vs0mg"},{"bike_id":"b18457b6-b744-4542-873e-ebb7266cf94f","system_id":"levelo_inurba_marseille","lat":43.28607,"lon":5.37065,"is_reserved":false,"is_disabled":false,"rental_uris":{"android":"levelo://app?vid=b18457b6-b744-4542-873e-ebb7266cf94f","ios":"levelo://app?vid=b18457b6-b744-4542-873e-ebb7266cf94f"},"vehicle_type_id":"4","last_reported":1752862522,"current_range_meters":11600,"station_id":"ce4bht12rcd13ifvqi60","pricing_plan_id":"cebpf4jnsgd1na2vs0mg"},{"bike_id":"ee5510ee-8e3d-4783-a4e9-9921b4c6b7c1","system_id":"levelo_inurba_marseille","lat":43.29584,"lon":5.37514,"is_reserved":false,"is_disabled":false,"rental_uris":{"android":"levelo://app?vid=ee5510ee-8e3d-4783-a4e9-9921b4c6b7c1","ios":"levelo://app?vid=ee5510ee-8e3d-4783-a4e9-9921b4c6b7c1"},"vehicle_type_id":"4","last_reported":1752862522,"current_range_meters":11600,"station_id":"ce4bgh92rcd13ifvqb50","pricing_plan_id":"cebpf4jnsgd1na2vs0mg"},{"bike_id":"f391913c-c99f-4023-9d1f-64fc63e9abdb","system_id":"levelo_inurba_marseille","lat":43.29577,"lon":5.37526,"is_reserved":false,"is_disabled":false,"rental_uris":{"android":"levelo://app?vid=f391913c-c99f-4023-9d1f-64fc63e9abdb","ios":"levelo://app?vid=f391913c-c99f-4023-9d1f-64fc63e9abdb"},"vehicle_type_id":"4","last_reported":1752862522,"current_range_meters":11600,"station_id":"ce4bgh92rcd13ifvqb50","pricing_plan_id":"cebpf4jnsgd1na2vs0mg"},{"bike_id":"11db31e9-8f20-4a31-b571-1c9936cd210d","system_id":"levelo_inurba_marseille","lat":43.28852,"lon":5.35854,"is_reserved":false,"is_disabled":false,"rental_uris":{"android":"levelo://app?vid=11db31e9-8f20-4a31-b571-1c9936cd210d","ios":"levelo://app?vid=11db31e9-8f20-4a31-b571-1c9936cd210d"},"vehicle_type_id":"4","last_reported":1752862522,"current_range_meters":11600,"station_id":"ce4bhb12rcd13ifvqem0","pricing_plan_id":"cebpf4jnsgd1na2vs0mg"},{"bike_id":"606336d0-68e7-4e01-acec-7dd8459cf1e7","system_id":"levelo_inurba_marseille","lat":43.27803,"lon":5.40719,"is_reserved":false,"is_disabled":false,"rental_uris":{"android":"levelo://app?vid=606336d0-68e7-4e01-acec-7dd8459cf1e7","ios":"levelo://app?vid=606336d0-68e7-4e01-acec-7dd8459cf1e7"},"vehicle_type_id":"4","last_reported":1752862522,"current_range_meters":11600,"station_id":"ce4bhnh2rcd13ifvqgtg","pricing_plan_id":"cebpf4jnsgd1na2vs0mg"},{"bike_id":"7f8102ff-c8d2-40bd-bd94-5cefc6b3580c","system_id":"levelo_inurba_marseille","lat":43.26027,"lon":5.37552,"is_reserved":false,"is_disabled":false,"rental_uris":{"android":"levelo://app?vid=7f8102ff-c8d2-40bd-bd94-5cefc6b3580c","ios":"levelo://app?vid=7f8102ff-c8d2-40bd-bd94-5cefc6b3580c"},"vehicle_type_id":"4","last_reported":1752862522,"current_range_meters":11600,"station_id":"ce4bhgh2rcd13ifvqfa0","pricing_plan_id":"cebpf4jnsgd1na2vs0mg"},{"bike_id":"12f41a5d-3880-4cc8-996e-8cc70ff8c53f","system_id":"levelo_inurba_marseille","lat":43.3089,"lon":5.3966,"is_reserved":false,"is_disabled":false,"rental_uris":{"android":"levelo://app?vid=12f41a5d-3880-4cc8-996e-8cc70ff8c53f","ios":"levelo://app?vid=12f41a5d-3880-4cc8-996e-8cc70ff8c53f"},"vehicle_type_id":"4","last_reported":1752862522,"current_range_meters":11600,"station_id":"ce4bh012rcd13ifvqcv0","pricing_plan_id":"cebpf4jnsgd1na2vs0mg"},{"bike_id":"f1cb3f7f-9685-4f63-8605-eaa5cb5e4015","system_id":"levelo_inurba_marseille","lat":43.280014,"lon":5.400144,"is_reserved":false,"is_disabled":false,"rental_uris":{"android":"levelo://app?vid=f1cb3f7f-9685-4f63-8605-eaa5cb5e4015","ios":"levelo://app?vid=f1cb3f7f-9685-4f63-8605-eaa5cb5e4015"},"vehicle_type_id":"4","last_reported":1752862522,"current_range_meters":4400,"station_id":"ce4bho92rcd13ifvqh4g","pricing_plan_id":"cebpf4jnsgd1na2vs0mg"},{"bike_id":"8cbf67ac-351a-483f-a8fe-dcc5448138a6","system_id":"levelo_inurba_marseille","lat":43.27297,"lon":5.39201,"is_reserved":false,"is_disabled":false,"rental_uris":{"android":"levelo://app?vid=8cbf67ac-351a-483f-a8fe-dcc5448138a6","ios":"levelo://app?vid=8cbf67ac-351a-483f-a8fe-dcc5448138a6"},"vehicle_type_id":"4","last_reported":1752862522,"current_range_meters":12000,"station_id":"","pricing_plan_id":"cebpf4jnsgd1na2vs0mg"},{"bike_id":"537df271-1e3d-4ffc-ad70-ada379266803","system_id":"levelo_inurba_marseille","lat":43.21752,"lon":5.34585,"is_reserved":false,"is_disabled":false,"rental_uris":{"android":"levelo://app?vid=537df271-1e3d-4ffc-ad70-ada379266803","ios":"levelo://app?vid=537df271-1e3d-4ffc-ad70-ada379266803"},"vehicle_type_id":"4","last_reported":1752862522,"current_range_meters":12000,"station_id":"st_cvj6r9ubvosntc0bgbag","pricing_plan_id":"cebpf4jnsgd1na2vs0mg"},{"bike_id":"d7c21938-e80d-4231-8255-ae477eef503b","system_id":"levelo_inurba_marseille","lat":43.24396,"lon":5.37054,"is_reserved":false,"is_disabled":false,"rental_uris":{"android":"levelo://app?vid=d7c21938-e80d-4231-8255-ae477eef503b","ios":"levelo://app?vid=d7c21938-e80d-4231-8255-ae477eef503b"},"vehicle_type_id":"4","last_reported":1752862522,"current_range_meters":11600,"station_id":"ce4bhhh2rcd13ifvqfk0","pricing_plan_id":"cebpf4jnsgd1na2vs0mg"},{"bike_id":"cd632b59-0e3a-4e0b-9999-f0250b7098b5","system_id":"levelo_inurba_marseille","lat":43.270705,"lon":5.422795,"is_reserved":false,"is_disabled":false,"rental_uris":{"android":"levelo://app?vid=cd632b59-0e3a-4e0b-9999-f0250b7098b5","ios":"levelo://app?vid=cd632b59-0e3a-4e0b-9999-f0250b7098b5"},"vehicle_type_id":"4","last_reported":1752862522,"current_range_meters":12000,"station_id":"ce4bhk92rcd13ifvqgb0","pricing_plan_id":"cebpf4jnsgd1na2vs0mg"},{"bike_id":"476de90a-32df-4754-92a4-40ad674d5a13","system_id":"levelo_inurba_marseille","lat":43.31074,"lon":5.38356,"is_reserved":false,"is_disabled":false,"rental_uris":{"android":"levelo://app?vid=476de90a-32df-4754-92a4-40ad674d5a13","ios":"levelo://app?vid=476de90a-32df-4754-92a4-40ad674d5a13"},"vehicle_type_id":"4","last_reported":1752862522,"current_range_meters":12000,"station_id":"ce4bgv92rcd13ifvqcr0","pricing_plan_id":"cebpf4jnsgd1na2vs0mg"},{"bike_id":"00ecada3-8577-4c51-98e2-f760bc2bb718","system_id":"levelo_inurba_marseille","lat":43.29435,"lon":5.43214,"is_reserved":false,"is_disabled":false,"rental_uris":{"android":"levelo://app?vid=00ecada3-8577-4c51-98e2-f760bc2bb718","ios":"levelo://app?vid=00ecada3-8577-4c51-98e2-f760bc2bb718"},"vehicle_type_id":"4","last_reported":1752862522,"current_range_meters":12000,"station_id":"","pricing_plan_id":"cebpf4jnsgd1na2vs0mg"},{"bike_id":"2ebd7cce-e0df-4e19-8b55-aebfb6d053f1","system_id":"levelo_inurba_marseille","lat":43.29429,"lon":5.3859,"is_reserved":false,"is_disabled":false,"rental_uris":{"android":"levelo://app?vid=2ebd7cce-e0df-4e19-8b55-aebfb6d053f1","ios":"levelo://app?vid=2ebd7cce-e0df-4e19-8b55-aebfb6d053f1"},"vehicle_type_id":"4","last_reported":1752862522,"current_range_meters":12400,"station_id":"ce4bh2h2rcd13ifvqdh0","pricing_plan_id":"cebpf4jnsgd1na2vs0mg"},{"bike_id":"28279007-0cad-4da0-95f8-c058a3457363","system_id":"levelo_inurba_marseille","lat":43.28419,"lon":5.34985,"is_reserved":false,"is_disabled":false,"rental_uris":{"android":"levelo://app?vid=28279007-0cad-4da0-95f8-c058a3457363","ios":"levelo://app?vid=28279007-0cad-4da0-95f8-c058a3457363"},"vehicle_type_id":"4","last_reported":1752862522,"current_range_meters":12400,"station_id":"ce4bhbh2rcd13ifvqepg","pricing_plan_id":"cebpf4jnsgd1na2vs0mg"},{"bike_id":"2d95b47d-d06f-40a4-bb6e-c13e954e3c8f","system_id":"levelo_inurba_marseille","lat":43.27718,"lon":5.41419,"is_reserved":false,"is_disabled":false,"rental_uris":{"android":"levelo://app?vid=2d95b47d-d06f-40a4-bb6e-c13e954e3c8f","ios":"levelo://app?vid=2d95b47d-d06f-40a4-bb6e-c13e954e3c8f"},"vehicle_type_id":"4","last_reported":1752862522,"current_range_meters":12400,"station_id":"","pricing_plan_id":"cebpf4jnsgd1na2vs0mg"},{"bike_id":"d045b52a-b4cb-44f3-9ab5-c5907043ce5f","system_id":"levelo_inurba_marseille","lat":43.2958,"lon":5.37525,"is_reserved":false,"is_disabled":false,"rental_uris":{"android":"levelo://app?vid=d045b52a-b4cb-44f3-9ab5-c5907043ce5f","ios":"levelo://app?vid=d045b52a-b4cb-44f3-9ab5-c5907043ce5f"},"vehicle_type_id":"4","last_reported":1752862522,"current_range_meters":12400,"station_id":"ce4bgh92rcd13ifvqb50","pricing_plan_id":"cebpf4jnsgd1na2vs0mg"},{"bike_id":"b004baab-db70-453e-84a5-9312df4bd1d6","system_id":"levelo_inurba_marseille","lat":43.225,"lon":5.34776,"is_reserved":false,"is_disabled":false,"rental_uris":{"android":"levelo://app?vid=b004baab-db70-453e-84a5-9312df4bd1d6","ios":"levelo://app?vid=b004baab-db70-453e-84a5-9312df4bd1d6"},"vehicle_type_id":"4","last_reported":1752862522,"current_range_meters":12400,"station_id":"st_cvj5dfep6f1abm77gieg","pricing_plan_id":"cebpf4jnsgd1na2vs0mg"},{"bike_id":"d6a716d6-742e-403e-9c78-02403911bb45","system_id":"levelo_inurba_marseille","lat":43.29532,"lon":5.37497,"is_reserved":false,"is_disabled":false,"rental_uris":{"android":"levelo://app?vid=d6a716d6-742e-403e-9c78-02403911bb45","ios":"levelo://app?vid=d6a716d6-742e-403e-9c78-02403911bb45"},"vehicle_type_id":"4","last_reported":1752862522,"current_range_meters":12400,"station_id":"ce4bgkp2rcd13ifvqbmg","pricing_plan_id":"cebpf4jnsgd1na2vs0mg"},{"bike_id":"7232ee08-5003-42ae-9f5f-daf96cb6b66e","system_id":"levelo_inurba_marseille","lat":43.24807,"lon":5.37455,"is_reserved":false,"is_disabled":false,"rental_uris":{"android":"levelo://app?vid=7232ee08-5003-42ae-9f5f-daf96cb6b66e","ios":"levelo://app?vid=7232ee08-5003-42ae-9f5f-daf96cb6b66e"},"vehicle_type_id":"4","last_reported":1752862522,"current_range_meters":12400,"station_id":"ce4bhgh2rcd13ifvqfb0","pricing_plan_id":"cebpf4jnsgd1na2vs0mg"},{"bike_id":"ce7bd25b-5213-4881-a28b-f582e6a1d712","system_id":"levelo_inurba_marseille","lat":43.31373,"lon":5.36734,"is_reserved":false,"is_disabled":true,"rental_uris":{"android":"levelo://app?vid=ce7bd25b-5213-4881-a28b-f582e6a1d712","ios":"levelo://app?vid=ce7bd25b-5213-4881-a28b-f582e6a1d712"},"vehicle_type_id":"4","last_reported":1752862522,"current_range_meters":12400,"station_id":"ce4bgr92rcd13ifvqc6g","pricing_plan_id":"cebpf4jnsgd1na2vs0mg"},{"bike_id":"7232080a-0ab9-449d-8847-765fcd2dad4f","system_id":"levelo_inurba_marseille","lat":43.31171,"lon":5.38712,"is_reserved":false,"is_disabled":false,"rental_uris":{"android":"levelo://app?vid=7232080a-0ab9-449d-8847-765fcd2dad4f","ios":"levelo://app?vid=7232080a-0ab9-449d-8847-765fcd2dad4f"},"vehicle_type_id":"4","last_reported":1752862522,"current_range_meters":12400,"station_id":"ce4bgv12rcd13ifvqcp0","pricing_plan_id":"cebpf4jnsgd1na2vs0mg"},{"bike_id":"5ac93e7c-286a-4c1e-b6c0-4e9963e5a9f8","system_id":"levelo_inurba_marseille","lat":43.21187,"lon":5.35072,"is_reserved":false,"is_disabled":false,"rental_uris":{"android":"levelo://app?vid=5ac93e7c-286a-4c1e-b6c0-4e9963e5a9f8","ios":"levelo://app?vid=5ac93e7c-286a-4c1e-b6c0-4e9963e5a9f8"},"vehicle_type_id":"4","last_reported":1752862522,"current_range_meters":12400,"station_id":"st_cvj6sg6p6f1abm77japg","pricing_plan_id":"cebpf4jnsgd1na2vs0mg"},{"bike_id":"c6db0f6a-96fe-4e1d-8ded-c2ef38c9bab4","system_id":"levelo_inurba_marseille","lat":43.304183,"lon":5.412838,"is_reserved":false,"is_disabled":true,"rental_uris":{"android":"levelo://app?vid=c6db0f6a-96fe-4e1d-8ded-c2ef38c9bab4","ios":"levelo://app?vid=c6db0f6a-96fe-4e1d-8ded-c2ef38c9bab4"},"vehicle_type_id":"4","last_reported":1752862522,"current_range_meters":12800,"station_id":"ce4bhop2rcd13ifvqh8g","pricing_plan_id":"cebpf4jnsgd1na2vs0mg"},{"bike_id":"21ab1d33-c92c-4394-89fa-8f74a2d6e468","system_id":"levelo_inurba_marseille","lat":43.30795,"lon":5.435263,"is_reserved":false,"is_disabled":false,"rental_uris":{"android":"levelo://app?vid=21ab1d33-c92c-4394-89fa-8f74a2d6e468","ios":"levelo://app?vid=21ab1d33-c92c-4394-89fa-8f74a2d6e468"},"vehicle_type_id":"4","last_reported":1752862522,"current_range_meters":12800,"station_id":"ce4bhph2rcd13ifvqheg","pricing_plan_id":"cebpf4jnsgd1na2vs0mg"},{"bike_id":"1573896d-68ec-4dda-a759-fdbb2ff55e81","system_id":"levelo_inurba_marseille","lat":43.27813,"lon":5.4071,"is_reserved":false,"is_disabled":false,"rental_uris":{"android":"levelo://app?vid=1573896d-68ec-4dda-a759-fdbb2ff55e81","ios":"levelo://app?vid=1573896d-68ec-4dda-a759-fdbb2ff55e81"},"vehicle_type_id":"4","last_reported":1752862522,"current_range_meters":12400,"station_id":"ce4bhnh2rcd13ifvqgtg","pricing_plan_id":"cebpf4jnsgd1na2vs0mg"},{"bike_id":"5b5cfc19-046b-4cb3-bf95-c40c8033ce9b","system_id":"levelo_inurba_marseille","lat":43.29578,"lon":5.37522,"is_reserved":false,"is_disabled":false,"rental_uris":{"android":"levelo://app?vid=5b5cfc19-046b-4cb3-bf95-c40c8033ce9b","ios":"levelo://app?vid=5b5cfc19-046b-4cb3-bf95-c40c8033ce9b"},"vehicle_type_id":"4","last_reported":1752862522,"current_range_meters":12800,"station_id":"ce4bgh92rcd13ifvqb50","pricing_plan_id":"cebpf4jnsgd1na2vs0mg"},{"bike_id":"b4a98468-1c4d-48b7-8148-71efc67381e9","system_id":"levelo_inurba_marseille","lat":43.284058,"lon":5.349791,"is_reserved":false,"is_disabled":false,"rental_uris":{"android":"levelo://app?vid=b4a98468-1c4d-48b7-8148-71efc67381e9","ios":"levelo://app?vid=b4a98468-1c4d-48b7-8148-71efc67381e9"},"vehicle_type_id":"4","last_reported":1752862522,"current_range_meters":12800,"station_id":"","pricing_plan_id":"cebpf4jnsgd1na2vs0mg"},{"bike_id":"25faa4a1-8a56-4120-92c6-a8ba7ad14181","system_id":"levelo_inurba_marseille","lat":43.28424,"lon":5.34981,"is_reserved":false,"is_disabled":false,"rental_uris":{"android":"levelo://app?vid=25faa4a1-8a56-4120-92c6-a8ba7ad14181","ios":"levelo://app?vid=25faa4a1-8a56-4120-92c6-a8ba7ad14181"},"vehicle_type_id":"4","last_reported":1752862522,"current_range_meters":12800,"station_id":"ce4bhbh2rcd13ifvqepg","pricing_plan_id":"cebpf4jnsgd1na2vs0mg"},{"bike_id":"4607398c-5481-406b-ba58-548c4b76f331","system_id":"levelo_inurba_marseille","lat":43.271854,"lon":5.362776,"is_reserved":false,"is_disabled":false,"rental_uris":{"android":"levelo://app?vid=4607398c-5481-406b-ba58-548c4b76f331","ios":"levelo://app?vid=4607398c-5481-406b-ba58-548c4b76f331"},"vehicle_type_id":"4","last_reported":1752862522,"current_range_meters":12800,"station_id":"","pricing_plan_id":"cebpf4jnsgd1na2vs0mg"},{"bike_id":"f2484167-4c38-4146-abfd-ae6dfd486cbc","system_id":"levelo_inurba_marseille","lat":43.284165,"lon":5.349885,"is_reserved":false,"is_disabled":false,"rental_uris":{"android":"levelo://app?vid=f2484167-4c38-4146-abfd-ae6dfd486cbc","ios":"levelo://app?vid=f2484167-4c38-4146-abfd-ae6dfd486cbc"},"vehicle_type_id":"4","last_reported":1752862522,"current_range_meters":12800,"station_id":"ce4bhbh2rcd13ifvqepg","pricing_plan_id":"cebpf4jnsgd1na2vs0mg"},{"bike_id":"9e46aa88-7b19-47c3-b789-71b8902b53cb","system_id":"levelo_inurba_marseille","lat":43.28154,"lon":5.42647,"is_reserved":false,"is_disabled":false,"rental_uris":{"android":"levelo://app?vid=9e46aa88-7b19-47c3-b789-71b8902b53cb","ios":"levelo://app?vid=9e46aa88-7b19-47c3-b789-71b8902b53cb"},"vehicle_type_id":"4","last_reported":1752862522,"current_range_meters":12800,"station_id":"ce4bhnh2rcd13ifvqgug","pricing_plan_id":"cebpf4jnsgd1na2vs0mg"},{"bike_id":"be60c88c-1453-4626-be80-200258f79626","system_id":"levelo_inurba_marseille","lat":43.23193,"lon":5.35545,"is_reserved":false,"is_disabled":false,"rental_uris":{"android":"levelo://app?vid=be60c88c-1453-4626-be80-200258f79626","ios":"levelo://app?vid=be60c88c-1453-4626-be80-200258f79626"},"vehicle_type_id":"4","last_reported":1752862522,"current_range_meters":12800,"station_id":"ce4bhu92rcd13ifvqi70","pricing_plan_id":"cebpf4jnsgd1na2vs0mg"},{"bike_id":"b7036cae-0371-4f43-8b12-b820f48b2f44","system_id":"levelo_inurba_marseille","lat":43.248093,"lon":5.374546,"is_reserved":false,"is_disabled":false,"rental_uris":{"android":"levelo://app?vid=b7036cae-0371-4f43-8b12-b820f48b2f44","ios":"levelo://app?vid=b7036cae-0371-4f43-8b12-b820f48b2f44"},"vehicle_type_id":"4","last_reported":1752862522,"current_range_meters":12800,"station_id":"ce4bhgh2rcd13ifvqfb0","pricing_plan_id":"cebpf4jnsgd1na2vs0mg"},{"bike_id":"e0b6237f-3445-470a-9251-6476ce1cc738","system_id":"levelo_inurba_marseille","lat":43.24548,"lon":5.39522,"is_reserved":false,"is_disabled":false,"rental_uris":{"android":"levelo://app?vid=e0b6237f-3445-470a-9251-6476ce1cc738","ios":"levelo://app?vid=e0b6237f-3445-470a-9251-6476ce1cc738"},"vehicle_type_id":"4","last_reported":1752862522,"current_range_meters":12800,"station_id":"ce4bhlp2rcd13ifvqgjg","pricing_plan_id":"cebpf4jnsgd1na2vs0mg"},{"bike_id":"45913c9f-4757-41d3-8c8c-c0c179ad6efb","system_id":"levelo_inurba_marseille","lat":43.24164,"lon":5.36394,"is_reserved":false,"is_disabled":false,"rental_uris":{"android":"levelo://app?vid=45913c9f-4757-41d3-8c8c-c0c179ad6efb","ios":"levelo://app?vid=45913c9f-4757-41d3-8c8c-c0c179ad6efb"},"vehicle_type_id":"4","last_reported":1752862522,"current_range_meters":13600,"station_id":"cpo36qri1sfpv3e86is0","pricing_plan_id":"cebpf4jnsgd1na2vs0mg"},{"bike_id":"0f50f91d-b1a4-4c34-9f38-624326b8c320","system_id":"levelo_inurba_marseille","lat":43.26211,"lon":5.37442,"is_reserved":false,"is_disabled":false,"rental_uris":{"android":"levelo://app?vid=0f50f91d-b1a4-4c34-9f38-624326b8c320","ios":"levelo://app?vid=0f50f91d-b1a4-4c34-9f38-624326b8c320"},"vehicle_type_id":"4","last_reported":1752862522,"current_range_meters":13600,"station_id":"ce4bhgp2rcd13ifvqfc0","pricing_plan_id":"cebpf4jnsgd1na2vs0mg"},{"bike_id":"35965273-4af4-457c-87a3-4f7523a4ce80","system_id":"levelo_inurba_marseille","lat":43.29019,"lon":5.35605,"is_reserved":false,"is_disabled":true,"rental_uris":{"android":"levelo://app?vid=35965273-4af4-457c-87a3-4f7523a4ce80","ios":"levelo://app?vid=35965273-4af4-457c-87a3-4f7523a4ce80"},"vehicle_type_id":"4","last_reported":1752862522,"current_range_meters":13600,"station_id":"ce4bhb92rcd13ifvqen0","pricing_plan_id":"cebpf4jnsgd1na2vs0mg"},{"bike_id":"fbf0b7f2-f884-4bd3-a5fa-255e32e8eeed","system_id":"levelo_inurba_marseille","lat":43.24167,"lon":5.36385,"is_reserved":false,"is_disabled":false,"rental_uris":{"android":"levelo://app?vid=fbf0b7f2-f884-4bd3-a5fa-255e32e8eeed","ios":"levelo://app?vid=fbf0b7f2-f884-4bd3-a5fa-255e32e8eeed"},"vehicle_type_id":"4","last_reported":1752862522,"current_range_meters":13600,"station_id":"cpo36qri1sfpv3e86is0","pricing_plan_id":"cebpf4jnsgd1na2vs0mg"},{"bike_id":"5c0132f9-4427-4648-b178-caf09d2eddca","system_id":"levelo_inurba_marseille","lat":43.29708,"lon":5.36607,"is_reserved":false,"is_disabled":false,"rental_uris":{"android":"levelo://app?vid=5c0132f9-4427-4648-b178-caf09d2eddca","ios":"levelo://app?vid=5c0132f9-4427-4648-b178-caf09d2eddca"},"vehicle_type_id":"4","last_reported":1752862522,"current_range_meters":13600,"station_id":"ce4bgn12rcd13ifvqbt0","pricing_plan_id":"cebpf4jnsgd1na2vs0mg"},{"bike_id":"925b96b6-c323-4917-a3b9-15aadd396dd7","system_id":"levelo_inurba_marseille","lat":43.31177,"lon":5.38697,"is_reserved":false,"is_disabled":false,"rental_uris":{"android":"levelo://app?vid=925b96b6-c323-4917-a3b9-15aadd396dd7","ios":"levelo://app?vid=925b96b6-c323-4917-a3b9-15aadd396dd7"},"vehicle_type_id":"4","last_reported":1752862522,"current_range_meters":13600,"station_id":"ce4bgv12rcd13ifvqcp0","pricing_plan_id":"cebpf4jnsgd1na2vs0mg"},{"bike_id":"5340329c-8bc5-4f60-a63c-3f485b4630ab","system_id":"levelo_inurba_marseille","lat":43.28437,"lon":5.34981,"is_reserved":false,"is_disabled":false,"rental_uris":{"android":"levelo://app?vid=5340329c-8bc5-4f60-a63c-3f485b4630ab","ios":"levelo://app?vid=5340329c-8bc5-4f60-a63c-3f485b4630ab"},"vehicle_type_id":"4","last_reported":1752862522,"current_range_meters":13600,"station_id":"ce4bhbh2rcd13ifvqepg","pricing_plan_id":"cebpf4jnsgd1na2vs0mg"},{"bike_id":"9ff1fd3c-c920-4dba-94c3-c5ca49db834d","system_id":"levelo_inurba_marseille","lat":43.25584,"lon":5.38222,"is_reserved":false,"is_disabled":false,"rental_uris":{"android":"levelo://app?vid=9ff1fd3c-c920-4dba-94c3-c5ca49db834d","ios":"levelo://app?vid=9ff1fd3c-c920-4dba-94c3-c5ca49db834d"},"vehicle_type_id":"4","last_reported":1752862522,"current_range_meters":13600,"station_id":"ce4bhih2rcd13ifvqfs0","pricing_plan_id":"cebpf4jnsgd1na2vs0mg"},{"bike_id":"a906020f-6941-4456-a738-f1271fd7c866","system_id":"levelo_inurba_marseille","lat":43.29595,"lon":5.37503,"is_reserved":false,"is_disabled":false,"rental_uris":{"android":"levelo://app?vid=a906020f-6941-4456-a738-f1271fd7c866","ios":"levelo://app?vid=a906020f-6941-4456-a738-f1271fd7c866"},"vehicle_type_id":"4","last_reported":1752862522,"current_range_meters":14000,"station_id":"ce4bgh92rcd13ifvqb50","pricing_plan_id":"cebpf4jnsgd1na2vs0mg"},{"bike_id":"b7ef6551-e9e8-4b47-95b8-a0b7133bb771","system_id":"levelo_inurba_marseille","lat":43.29034,"lon":5.39964,"is_reserved":false,"is_disabled":false,"rental_uris":{"android":"levelo://app?vid=b7ef6551-e9e8-4b47-95b8-a0b7133bb771","ios":"levelo://app?vid=b7ef6551-e9e8-4b47-95b8-a0b7133bb771"},"vehicle_type_id":"4","last_reported":1752862522,"current_range_meters":13600,"station_id":"ce4bh392rcd13ifvqdm0","pricing_plan_id":"cebpf4jnsgd1na2vs0mg"},{"bike_id":"39b0cdb7-e2df-4672-a4b0-89818c7a2b51","system_id":"levelo_inurba_marseille","lat":43.28271,"lon":5.35067,"is_reserved":false,"is_disabled":false,"rental_uris":{"android":"levelo://app?vid=39b0cdb7-e2df-4672-a4b0-89818c7a2b51","ios":"levelo://app?vid=39b0cdb7-e2df-4672-a4b0-89818c7a2b51"},"vehicle_type_id":"4","last_reported":1752862522,"current_range_meters":14000,"station_id":"ce4bhbp2rcd13ifvqerg","pricing_plan_id":"cebpf4jnsgd1na2vs0mg"},{"bike_id":"81b8982e-0de9-4985-b907-712e742b4afd","system_id":"levelo_inurba_marseille","lat":43.28804,"lon":5.39144,"is_reserved":false,"is_disabled":false,"rental_uris":{"android":"levelo://app?vid=81b8982e-0de9-4985-b907-712e742b4afd","ios":"levelo://app?vid=81b8982e-0de9-4985-b907-712e742b4afd"},"vehicle_type_id":"4","last_reported":1752862522,"current_range_meters":14000,"station_id":"","pricing_plan_id":"cebpf4jnsgd1na2vs0mg"},{"bike_id":"797e03c8-9856-46a2-bf76-6e379de6361f","system_id":"levelo_inurba_marseille","lat":43.24812,"lon":5.37459,"is_reserved":false,"is_disabled":true,"rental_uris":{"android":"levelo://app?vid=797e03c8-9856-46a2-bf76-6e379de6361f","ios":"levelo://app?vid=797e03c8-9856-46a2-bf76-6e379de6361f"},"vehicle_type_id":"4","last_reported":1752862522,"current_range_meters":14000,"station_id":"ce4bhgh2rcd13ifvqfb0","pricing_plan_id":"cebpf4jnsgd1na2vs0mg"},{"bike_id":"9ffb9a4e-9204-4c02-845b-b7934f9ddae9","system_id":"levelo_inurba_marseille","lat":43.28415,"lon":5.34988,"is_reserved":false,"is_disabled":false,"rental_uris":{"android":"levelo://app?vid=9ffb9a4e-9204-4c02-845b-b7934f9ddae9","ios":"levelo://app?vid=9ffb9a4e-9204-4c02-845b-b7934f9ddae9"},"vehicle_type_id":"4","last_reported":1752862522,"current_range_meters":14000,"station_id":"ce4bhbh2rcd13ifvqepg","pricing_plan_id":"cebpf4jnsgd1na2vs0mg"},{"bike_id":"952dfb01-3e5d-4162-b67f-73d679b80511","system_id":"levelo_inurba_marseille","lat":43.30743,"lon":5.395598,"is_reserved":false,"is_disabled":false,"rental_uris":{"android":"levelo://app?vid=952dfb01-3e5d-4162-b67f-73d679b80511","ios":"levelo://app?vid=952dfb01-3e5d-4162-b67f-73d679b80511"},"vehicle_type_id":"4","last_reported":1752862522,"current_range_meters":13600,"station_id":"ce4bh012rcd13ifvqcv0","pricing_plan_id":"cebpf4jnsgd1na2vs0mg"},{"bike_id":"378840fc-e2b4-4d7c-b570-d072ea1f35f1","system_id":"levelo_inurba_marseille","lat":43.29003,"lon":5.35599,"is_reserved":false,"is_disabled":false,"rental_uris":{"android":"levelo://app?vid=378840fc-e2b4-4d7c-b570-d072ea1f35f1","ios":"levelo://app?vid=378840fc-e2b4-4d7c-b570-d072ea1f35f1"},"vehicle_type_id":"4","last_reported":1752862522,"current_range_meters":14000,"station_id":"ce4bhb92rcd13ifvqen0","pricing_plan_id":"cebpf4jnsgd1na2vs0mg"},{"bike_id":"cfb52d04-9134-4c86-8269-771716b20f27","system_id":"levelo_inurba_marseille","lat":43.21193,"lon":5.35075,"is_reserved":false,"is_disabled":false,"rental_uris":{"android":"levelo://app?vid=cfb52d04-9134-4c86-8269-771716b20f27","ios":"levelo://app?vid=cfb52d04-9134-4c86-8269-771716b20f27"},"vehicle_type_id":"4","last_reported":1752862522,"current_range_meters":14000,"station_id":"st_cvj6sg6p6f1abm77japg","pricing_plan_id":"cebpf4jnsgd1na2vs0mg"},{"bike_id":"c3ac509c-e93b-452a-bc2a-82079aaa6a85","system_id":"levelo_inurba_marseille","lat":43.30594,"lon":5.4047,"is_reserved":false,"is_disabled":false,"rental_uris":{"android":"levelo://app?vid=c3ac509c-e93b-452a-bc2a-82079aaa6a85","ios":"levelo://app?vid=c3ac509c-e93b-452a-bc2a-82079aaa6a85"},"vehicle_type_id":"4","last_reported":1752862522,"current_range_meters":14400,"station_id":"","pricing_plan_id":"cebpf4jnsgd1na2vs0mg"},{"bike_id":"60e732d3-fd46-45db-9868-e3a11f982cd2","system_id":"levelo_inurba_marseille","lat":43.26737,"lon":5.39586,"is_reserved":false,"is_disabled":false,"rental_uris":{"android":"levelo://app?vid=60e732d3-fd46-45db-9868-e3a11f982cd2","ios":"levelo://app?vid=60e732d3-fd46-45db-9868-e3a11f982cd2"},"vehicle_type_id":"4","last_reported":1752862522,"current_range_meters":14400,"station_id":"ce4bhh12rcd13ifvqfg0","pricing_plan_id":"cebpf4jnsgd1na2vs0mg"},{"bike_id":"0b250332-c99a-4726-ac2a-74deb04ffed3","system_id":"levelo_inurba_marseille","lat":43.27921,"lon":5.39551,"is_reserved":false,"is_disabled":true,"rental_uris":{"android":"levelo://app?vid=0b250332-c99a-4726-ac2a-74deb04ffed3","ios":"levelo://app?vid=0b250332-c99a-4726-ac2a-74deb04ffed3"},"vehicle_type_id":"4","last_reported":1752862522,"current_range_meters":14400,"station_id":"ce4bhf92rcd13ifvqf40","pricing_plan_id":"cebpf4jnsgd1na2vs0mg"},{"bike_id":"62c491ba-b22a-42d7-a5e1-b94307cc1c48","system_id":"levelo_inurba_marseille","lat":43.29514,"lon":5.375,"is_reserved":false,"is_disabled":false,"rental_uris":{"android":"levelo://app?vid=62c491ba-b22a-42d7-a5e1-b94307cc1c48","ios":"levelo://app?vid=62c491ba-b22a-42d7-a5e1-b94307cc1c48"},"vehicle_type_id":"4","last_reported":1752862522,"current_range_meters":14400,"station_id":"ce4bgkp2rcd13ifvqbmg","pricing_plan_id":"cebpf4jnsgd1na2vs0mg"},{"bike_id":"a67156ae-789e-45f5-ab3f-ed7d95b24540","system_id":"levelo_inurba_marseille","lat":43.2119,"lon":5.35074,"is_reserved":false,"is_disabled":false,"rental_uris":{"android":"levelo://app?vid=a67156ae-789e-45f5-ab3f-ed7d95b24540","ios":"levelo://app?vid=a67156ae-789e-45f5-ab3f-ed7d95b24540"},"vehicle_type_id":"4","last_reported":1752862522,"current_range_meters":14400,"station_id":"st_cvj6sg6p6f1abm77japg","pricing_plan_id":"cebpf4jnsgd1na2vs0mg"},{"bike_id":"b7fe52dd-f025-4212-9e78-19e7f6f09593","system_id":"levelo_inurba_marseille","lat":43.2122,"lon":5.35027,"is_reserved":false,"is_disabled":false,"rental_uris":{"android":"levelo://app?vid=b7fe52dd-f025-4212-9e78-19e7f6f09593","ios":"levelo://app?vid=b7fe52dd-f025-4212-9e78-19e7f6f09593"},"vehicle_type_id":"4","last_reported":1752862522,"current_range_meters":14400,"station_id":"","pricing_plan_id":"cebpf4jnsgd1na2vs0mg"},{"bike_id":"5b0aeb4e-ed1e-4834-aca3-0ab8e1052a50","system_id":"levelo_inurba_marseille","lat":43.3009,"lon":5.39063,"is_reserved":false,"is_disabled":false,"rental_uris":{"android":"levelo://app?vid=5b0aeb4e-ed1e-4834-aca3-0ab8e1052a50","ios":"levelo://app?vid=5b0aeb4e-ed1e-4834-aca3-0ab8e1052a50"},"vehicle_type_id":"4","last_reported":1752862522,"current_range_meters":14400,"station_id":"ce4bh192rcd13ifvqdb0","pricing_plan_id":"cebpf4jnsgd1na2vs0mg"},{"bike_id":"70a3940c-c40a-4ef4-8e48-8b68d4968bc7","system_id":"levelo_inurba_marseille","lat":43.2397,"lon":5.36609,"is_reserved":false,"is_disabled":true,"rental_uris":{"android":"levelo://app?vid=70a3940c-c40a-4ef4-8e48-8b68d4968bc7","ios":"levelo://app?vid=70a3940c-c40a-4ef4-8e48-8b68d4968bc7"},"vehicle_type_id":"4","last_reported":1752862522,"current_range_meters":14800,"station_id":"ce4bhi12rcd13ifvqfp0","pricing_plan_id":"cebpf4jnsgd1na2vs0mg"},{"bike_id":"770c6835-33a1-4270-9d19-d0805bd54833","system_id":"levelo_inurba_marseille","lat":43.28263,"lon":5.35056,"is_reserved":false,"is_disabled":false,"rental_uris":{"android":"levelo://app?vid=770c6835-33a1-4270-9d19-d0805bd54833","ios":"levelo://app?vid=770c6835-33a1-4270-9d19-d0805bd54833"},"vehicle_type_id":"4","last_reported":1752862522,"current_range_meters":14800,"station_id":"ce4bhbp2rcd13ifvqerg","pricing_plan_id":"cebpf4jnsgd1na2vs0mg"},{"bike_id":"edd0079d-996b-4ae3-9a31-d781f3a059ec","system_id":"levelo_inurba_marseille","lat":43.33786,"lon":5.37426,"is_reserved":false,"is_disabled":false,"rental_uris":{"android":"levelo://app?vid=edd0079d-996b-4ae3-9a31-d781f3a059ec","ios":"levelo://app?vid=edd0079d-996b-4ae3-9a31-d781f3a059ec"},"vehicle_type_id":"4","last_reported":1752862522,"current_range_meters":14800,"station_id":"","pricing_plan_id":"cebpf4jnsgd1na2vs0mg"},{"bike_id":"9a062c18-1339-4369-bc49-a6216ea5caff","system_id":"levelo_inurba_marseille","lat":43.29191,"lon":5.35798,"is_reserved":false,"is_disabled":false,"rental_uris":{"android":"levelo://app?vid=9a062c18-1339-4369-bc49-a6216ea5caff","ios":"levelo://app?vid=9a062c18-1339-4369-bc49-a6216ea5caff"},"vehicle_type_id":"4","last_reported":1752862522,"current_range_meters":15200,"station_id":"ce4bhb12rcd13ifvqel0","pricing_plan_id":"cebpf4jnsgd1na2vs0mg"},{"bike_id":"ac0ed4be-466c-4caa-b855-3c6bbe5a11b5","system_id":"levelo_inurba_marseille","lat":43.26761,"lon":5.372,"is_reserved":false,"is_disabled":false,"rental_uris":{"android":"levelo://app?vid=ac0ed4be-466c-4caa-b855-3c6bbe5a11b5","ios":"levelo://app?vid=ac0ed4be-466c-4caa-b855-3c6bbe5a11b5"},"vehicle_type_id":"4","last_reported":1752862522,"current_range_meters":15200,"station_id":"","pricing_plan_id":"cebpf4jnsgd1na2vs0mg"},{"bike_id":"8ce9b80c-19c6-4985-81c6-50f285c26740","system_id":"levelo_inurba_marseille","lat":43.239609,"lon":5.366304,"is_reserved":false,"is_disabled":false,"rental_uris":{"android":"levelo://app?vid=8ce9b80c-19c6-4985-81c6-50f285c26740","ios":"levelo://app?vid=8ce9b80c-19c6-4985-81c6-50f285c26740"},"vehicle_type_id":"4","last_reported":1752862522,"current_range_meters":15200,"station_id":"ce4bhi12rcd13ifvqfp0","pricing_plan_id":"cebpf4jnsgd1na2vs0mg"},{"bike_id":"076a7b82-4934-4b2d-a63c-ec47e05fa63e","system_id":"levelo_inurba_marseille","lat":43.28413,"lon":5.3498,"is_reserved":false,"is_disabled":false,"rental_uris":{"android":"levelo://app?vid=076a7b82-4934-4b2d-a63c-ec47e05fa63e","ios":"levelo://app?vid=076a7b82-4934-4b2d-a63c-ec47e05fa63e"},"vehicle_type_id":"4","last_reported":1752862522,"current_range_meters":16000,"station_id":"ce4bhbh2rcd13ifvqepg","pricing_plan_id":"cebpf4jnsgd1na2vs0mg"},{"bike_id":"1ec5a8b9-6c71-4d1e-95be-e71a3adc55d2","system_id":"levelo_inurba_marseille","lat":43.21756,"lon":5.34592,"is_reserved":false,"is_disabled":false,"rental_uris":{"android":"levelo://app?vid=1ec5a8b9-6c71-4d1e-95be-e71a3adc55d2","ios":"levelo://app?vid=1ec5a8b9-6c71-4d1e-95be-e71a3adc55d2"},"vehicle_type_id":"4","last_reported":1752862522,"current_range_meters":16000,"station_id":"st_cvj6r9ubvosntc0bgbag","pricing_plan_id":"cebpf4jnsgd1na2vs0mg"},{"bike_id":"562b3f33-c49d-45c0-9e85-f443c9bc5ab0","system_id":"levelo_inurba_marseille","lat":43.24796,"lon":5.37442,"is_reserved":false,"is_disabled":false,"rental_uris":{"android":"levelo://app?vid=562b3f33-c49d-45c0-9e85-f443c9bc5ab0","ios":"levelo://app?vid=562b3f33-c49d-45c0-9e85-f443c9bc5ab0"},"vehicle_type_id":"4","last_reported":1752862522,"current_range_meters":16000,"station_id":"ce4bhgh2rcd13ifvqfb0","pricing_plan_id":"cebpf4jnsgd1na2vs0mg"},{"bike_id":"b4c63550-3947-41e1-ab2c-4df7865624ff","system_id":"levelo_inurba_marseille","lat":43.28417,"lon":5.34989,"is_reserved":false,"is_disabled":false,"rental_uris":{"android":"levelo://app?vid=b4c63550-3947-41e1-ab2c-4df7865624ff","ios":"levelo://app?vid=b4c63550-3947-41e1-ab2c-4df7865624ff"},"vehicle_type_id":"4","last_reported":1752862522,"current_range_meters":16000,"station_id":"ce4bhbh2rcd13ifvqepg","pricing_plan_id":"cebpf4jnsgd1na2vs0mg"},{"bike_id":"0ffec689-ea73-4886-a8a8-e9075fc0366f","system_id":"levelo_inurba_marseille","lat":43.3114,"lon":5.46695,"is_reserved":false,"is_disabled":true,"rental_uris":{"android":"levelo://app?vid=0ffec689-ea73-4886-a8a8-e9075fc0366f","ios":"levelo://app?vid=0ffec689-ea73-4886-a8a8-e9075fc0366f"},"vehicle_type_id":"4","last_reported":1752862522,"current_range_meters":16000,"station_id":"st_cvj6ca6bvosntc0bfgr0","pricing_plan_id":"cebpf4jnsgd1na2vs0mg"},{"bike_id":"8e79a85b-71cd-44e2-9769-4ad285ff7c49","system_id":"levelo_inurba_marseille","lat":43.2176,"lon":5.34586,"is_reserved":false,"is_disabled":false,"rental_uris":{"android":"levelo://app?vid=8e79a85b-71cd-44e2-9769-4ad285ff7c49","ios":"levelo://app?vid=8e79a85b-71cd-44e2-9769-4ad285ff7c49"},"vehicle_type_id":"4","last_reported":1752862522,"current_range_meters":16000,"station_id":"st_cvj6r9ubvosntc0bgbag","pricing_plan_id":"cebpf4jnsgd1na2vs0mg"},{"bike_id":"1417ce74-accc-485b-ac2a-bbef2a6f212a","system_id":"levelo_inurba_marseille","lat":43.28411,"lon":5.34978,"is_reserved":false,"is_disabled":false,"rental_uris":{"android":"levelo://app?vid=1417ce74-accc-485b-ac2a-bbef2a6f212a","ios":"levelo://app?vid=1417ce74-accc-485b-ac2a-bbef2a6f212a"},"vehicle_type_id":"4","last_reported":1752862522,"current_range_meters":16000,"station_id":"ce4bhbh2rcd13ifvqepg","pricing_plan_id":"cebpf4jnsgd1na2vs0mg"},{"bike_id":"5cbb6735-bc00-441e-90a6-4e380b24d1a9","system_id":"levelo_inurba_marseille","lat":43.317129,"lon":5.437086,"is_reserved":false,"is_disabled":false,"rental_uris":{"android":"levelo://app?vid=5cbb6735-bc00-441e-90a6-4e380b24d1a9","ios":"levelo://app?vid=5cbb6735-bc00-441e-90a6-4e380b24d1a9"},"vehicle_type_id":"4","last_reported":1752862522,"current_range_meters":16000,"station_id":"ce4bhp92rcd13ifvqhcg","pricing_plan_id":"cebpf4jnsgd1na2vs0mg"},{"bike_id":"ac1ea658-9774-4da4-9052-25364a334e5f","system_id":"levelo_inurba_marseille","lat":43.21741,"lon":5.34595,"is_reserved":false,"is_disabled":false,"rental_uris":{"android":"levelo://app?vid=ac1ea658-9774-4da4-9052-25364a334e5f","ios":"levelo://app?vid=ac1ea658-9774-4da4-9052-25364a334e5f"},"vehicle_type_id":"4","last_reported":1752862522,"current_range_meters":16400,"station_id":"st_cvj6r9ubvosntc0bgbag","pricing_plan_id":"cebpf4jnsgd1na2vs0mg"},{"bike_id":"5ed7e33c-75eb-4f80-9ced-f5eee5190af4","system_id":"levelo_inurba_marseille","lat":43.29565,"lon":5.42282,"is_reserved":false,"is_disabled":false,"rental_uris":{"android":"levelo://app?vid=5ed7e33c-75eb-4f80-9ced-f5eee5190af4","ios":"levelo://app?vid=5ed7e33c-75eb-4f80-9ced-f5eee5190af4"},"vehicle_type_id":"4","last_reported":1752862522,"current_range_meters":16400,"station_id":"ce4bhph2rcd13ifvqhdg","pricing_plan_id":"cebpf4jnsgd1na2vs0mg"},{"bike_id":"235fb0de-d944-4927-bf31-700e0303f1ba","system_id":"levelo_inurba_marseille","lat":43.28856,"lon":5.35843,"is_reserved":false,"is_disabled":false,"rental_uris":{"android":"levelo://app?vid=235fb0de-d944-4927-bf31-700e0303f1ba","ios":"levelo://app?vid=235fb0de-d944-4927-bf31-700e0303f1ba"},"vehicle_type_id":"4","last_reported":1752862522,"current_range_meters":16400,"station_id":"ce4bhb12rcd13ifvqem0","pricing_plan_id":"cebpf4jnsgd1na2vs0mg"},{"bike_id":"08a94e68-7279-4c26-9ca7-7cd2e2f2fe4c","system_id":"levelo_inurba_marseille","lat":43.24168,"lon":5.36395,"is_reserved":false,"is_disabled":true,"rental_uris":{"android":"levelo://app?vid=08a94e68-7279-4c26-9ca7-7cd2e2f2fe4c","ios":"levelo://app?vid=08a94e68-7279-4c26-9ca7-7cd2e2f2fe4c"},"vehicle_type_id":"4","last_reported":1752862522,"current_range_meters":16400,"station_id":"cpo36qri1sfpv3e86is0","pricing_plan_id":"cebpf4jnsgd1na2vs0mg"},{"bike_id":"262bba80-9a85-4074-97aa-225c3aedc3b7","system_id":"levelo_inurba_marseille","lat":43.306508,"lon":5.400898,"is_reserved":false,"is_disabled":true,"rental_uris":{"android":"levelo://app?vid=262bba80-9a85-4074-97aa-225c3aedc3b7","ios":"levelo://app?vid=262bba80-9a85-4074-97aa-225c3aedc3b7"},"vehicle_type_id":"4","last_reported":1752862522,"current_range_meters":16400,"station_id":"ce4bh112rcd13ifvqda0","pricing_plan_id":"cebpf4jnsgd1na2vs0mg"},{"bike_id":"1a794689-0399-4bd8-871c-778f85fe0438","system_id":"levelo_inurba_marseille","lat":43.27494,"lon":5.42464,"is_reserved":false,"is_disabled":false,"rental_uris":{"android":"levelo://app?vid=1a794689-0399-4bd8-871c-778f85fe0438","ios":"levelo://app?vid=1a794689-0399-4bd8-871c-778f85fe0438"},"vehicle_type_id":"4","last_reported":1752862522,"current_range_meters":16400,"station_id":"ce4bhn92rcd13ifvqgrg","pricing_plan_id":"cebpf4jnsgd1na2vs0mg"},{"bike_id":"dffc1f7b-a2be-471b-ac80-433cf699d6d4","system_id":"levelo_inurba_marseille","lat":43.2867,"lon":5.36353,"is_reserved":false,"is_disabled":false,"rental_uris":{"android":"levelo://app?vid=dffc1f7b-a2be-471b-ac80-433cf699d6d4","ios":"levelo://app?vid=dffc1f7b-a2be-471b-ac80-433cf699d6d4"},"vehicle_type_id":"4","last_reported":1752862522,"current_range_meters":16400,"station_id":"ce4bhah2rcd13ifvqej0","pricing_plan_id":"cebpf4jnsgd1na2vs0mg"},{"bike_id":"5e2a14e1-6dee-4baf-b82a-db4bd86ca624","system_id":"levelo_inurba_marseille","lat":43.26212,"lon":5.37447,"is_reserved":false,"is_disabled":false,"rental_uris":{"android":"levelo://app?vid=5e2a14e1-6dee-4baf-b82a-db4bd86ca624","ios":"levelo://app?vid=5e2a14e1-6dee-4baf-b82a-db4bd86ca624"},"vehicle_type_id":"4","last_reported":1752862522,"current_range_meters":16400,"station_id":"ce4bhgp2rcd13ifvqfc0","pricing_plan_id":"cebpf4jnsgd1na2vs0mg"},{"bike_id":"e06fa4c1-922e-498b-9f92-24041842835b","system_id":"levelo_inurba_marseille","lat":43.29263,"lon":5.38436,"is_reserved":false,"is_disabled":false,"rental_uris":{"android":"levelo://app?vid=e06fa4c1-922e-498b-9f92-24041842835b","ios":"levelo://app?vid=e06fa4c1-922e-498b-9f92-24041842835b"},"vehicle_type_id":"4","last_reported":1752862522,"current_range_meters":16400,"station_id":"ce4bh692rcd13ifvqea0","pricing_plan_id":"cebpf4jnsgd1na2vs0mg"},{"bike_id":"5722a078-64aa-4789-9f72-f571755e92fd","system_id":"levelo_inurba_marseille","lat":43.28426,"lon":5.34994,"is_reserved":false,"is_disabled":false,"rental_uris":{"android":"levelo://app?vid=5722a078-64aa-4789-9f72-f571755e92fd","ios":"levelo://app?vid=5722a078-64aa-4789-9f72-f571755e92fd"},"vehicle_type_id":"4","last_reported":1752862522,"current_range_meters":16400,"station_id":"ce4bhbh2rcd13ifvqepg","pricing_plan_id":"cebpf4jnsgd1na2vs0mg"},{"bike_id":"e6ed5a81-2a33-4c37-a36e-2bb390f1a720","system_id":"levelo_inurba_marseille","lat":43.276154,"lon":5.361022,"is_reserved":false,"is_disabled":false,"rental_uris":{"android":"levelo://app?vid=e6ed5a81-2a33-4c37-a36e-2bb390f1a720","ios":"levelo://app?vid=e6ed5a81-2a33-4c37-a36e-2bb390f1a720"},"vehicle_type_id":"4","last_reported":1752862522,"current_range_meters":16800,"station_id":"ce4bgj92rcd13ifvqbe0","pricing_plan_id":"cebpf4jnsgd1na2vs0mg"},{"bike_id":"7f02cd16-abf2-40a4-97c2-19dc0dd97d66","system_id":"levelo_inurba_marseille","lat":43.26226,"lon":5.40454,"is_reserved":false,"is_disabled":false,"rental_uris":{"android":"levelo://app?vid=7f02cd16-abf2-40a4-97c2-19dc0dd97d66","ios":"levelo://app?vid=7f02cd16-abf2-40a4-97c2-19dc0dd97d66"},"vehicle_type_id":"4","last_reported":1752862522,"current_range_meters":16400,"station_id":"ce4bhmh2rcd13ifvqgmg","pricing_plan_id":"cebpf4jnsgd1na2vs0mg"},{"bike_id":"90d48a4f-4f7d-483a-b508-5e50623270ed","system_id":"levelo_inurba_marseille","lat":43.30957,"lon":5.39029,"is_reserved":false,"is_disabled":false,"rental_uris":{"android":"levelo://app?vid=90d48a4f-4f7d-483a-b508-5e50623270ed","ios":"levelo://app?vid=90d48a4f-4f7d-483a-b508-5e50623270ed"},"vehicle_type_id":"4","last_reported":1752862522,"current_range_meters":16800,"station_id":"ce4bgup2rcd13ifvqco0","pricing_plan_id":"cebpf4jnsgd1na2vs0mg"},{"bike_id":"afc91c81-7042-4270-a28e-07e325ae83c9","system_id":"levelo_inurba_marseille","lat":43.21203,"lon":5.35067,"is_reserved":false,"is_disabled":false,"rental_uris":{"android":"levelo://app?vid=afc91c81-7042-4270-a28e-07e325ae83c9","ios":"levelo://app?vid=afc91c81-7042-4270-a28e-07e325ae83c9"},"vehicle_type_id":"4","last_reported":1752862522,"current_range_meters":16800,"station_id":"st_cvj6sg6p6f1abm77japg","pricing_plan_id":"cebpf4jnsgd1na2vs0mg"},{"bike_id":"7cdbdc4c-b89d-4059-8dd3-82886d9ba55a","system_id":"levelo_inurba_marseille","lat":43.29271,"lon":5.36135,"is_reserved":false,"is_disabled":false,"rental_uris":{"android":"levelo://app?vid=7cdbdc4c-b89d-4059-8dd3-82886d9ba55a","ios":"levelo://app?vid=7cdbdc4c-b89d-4059-8dd3-82886d9ba55a"},"vehicle_type_id":"4","last_reported":1752862522,"current_range_meters":16800,"station_id":"ce4bhbh2rcd13ifvqeqg","pricing_plan_id":"cebpf4jnsgd1na2vs0mg"},{"bike_id":"82d227aa-c1f3-4afb-bf57-2d584e24c2a4","system_id":"levelo_inurba_marseille","lat":43.2973,"lon":5.37695,"is_reserved":false,"is_disabled":false,"rental_uris":{"android":"levelo://app?vid=82d227aa-c1f3-4afb-bf57-2d584e24c2a4","ios":"levelo://app?vid=82d227aa-c1f3-4afb-bf57-2d584e24c2a4"},"vehicle_type_id":"4","last_reported":1752862522,"current_range_meters":16400,"station_id":"ce4bgkh2rcd13ifvqbl0","pricing_plan_id":"cebpf4jnsgd1na2vs0mg"},{"bike_id":"9346da80-d0b8-43fb-a02c-d547533828d3","system_id":"levelo_inurba_marseille","lat":43.28426,"lon":5.34967,"is_reserved":false,"is_disabled":false,"rental_uris":{"android":"levelo://app?vid=9346da80-d0b8-43fb-a02c-d547533828d3","ios":"levelo://app?vid=9346da80-d0b8-43fb-a02c-d547533828d3"},"vehicle_type_id":"4","last_reported":1752862522,"current_range_meters":16800,"station_id":"ce4bhbh2rcd13ifvqepg","pricing_plan_id":"cebpf4jnsgd1na2vs0mg"},{"bike_id":"06b46bd1-38ed-44f7-9ba1-67361d8158e7","system_id":"levelo_inurba_marseille","lat":43.284238,"lon":5.349893,"is_reserved":false,"is_disabled":false,"rental_uris":{"android":"levelo://app?vid=06b46bd1-38ed-44f7-9ba1-67361d8158e7","ios":"levelo://app?vid=06b46bd1-38ed-44f7-9ba1-67361d8158e7"},"vehicle_type_id":"4","last_reported":1752862522,"current_range_meters":16800,"station_id":"ce4bhbh2rcd13ifvqepg","pricing_plan_id":"cebpf4jnsgd1na2vs0mg"},{"bike_id":"0916292f-c60f-4ec2-a3c5-bb862cec8507","system_id":"levelo_inurba_marseille","lat":43.232,"lon":5.35528,"is_reserved":false,"is_disabled":false,"rental_uris":{"android":"levelo://app?vid=0916292f-c60f-4ec2-a3c5-bb862cec8507","ios":"levelo://app?vid=0916292f-c60f-4ec2-a3c5-bb862cec8507"},"vehicle_type_id":"4","last_reported":1752862522,"current_range_meters":16800,"station_id":"ce4bhu92rcd13ifvqi70","pricing_plan_id":"cebpf4jnsgd1na2vs0mg"},{"bike_id":"b6d9338b-2f4e-4350-82a3-207560bfbc16","system_id":"levelo_inurba_marseille","lat":43.29578,"lon":5.37512,"is_reserved":false,"is_disabled":false,"rental_uris":{"android":"levelo://app?vid=b6d9338b-2f4e-4350-82a3-207560bfbc16","ios":"levelo://app?vid=b6d9338b-2f4e-4350-82a3-207560bfbc16"},"vehicle_type_id":"4","last_reported":1752862522,"current_range_meters":16800,"station_id":"ce4bgh92rcd13ifvqb50","pricing_plan_id":"cebpf4jnsgd1na2vs0mg"},{"bike_id":"ebb1b69e-316c-4b31-b066-4233b16f8436","system_id":"levelo_inurba_marseille","lat":43.29266,"lon":5.38431,"is_reserved":false,"is_disabled":false,"rental_uris":{"android":"levelo://app?vid=ebb1b69e-316c-4b31-b066-4233b16f8436","ios":"levelo://app?vid=ebb1b69e-316c-4b31-b066-4233b16f8436"},"vehicle_type_id":"4","last_reported":1752862522,"current_range_meters":17200,"station_id":"ce4bh692rcd13ifvqea0","pricing_plan_id":"cebpf4jnsgd1na2vs0mg"},{"bike_id":"9ee2b021-bc47-4ada-a032-97d7b74ba526","system_id":"levelo_inurba_marseille","lat":43.24051,"lon":5.37722,"is_reserved":false,"is_disabled":false,"rental_uris":{"android":"levelo://app?vid=9ee2b021-bc47-4ada-a032-97d7b74ba526","ios":"levelo://app?vid=9ee2b021-bc47-4ada-a032-97d7b74ba526"},"vehicle_type_id":"4","last_reported":1752862522,"current_range_meters":16800,"station_id":"ce4bhnp2rcd13ifvqgvg","pricing_plan_id":"cebpf4jnsgd1na2vs0mg"},{"bike_id":"f6c97062-23b3-48e2-a347-34f6f8f3d30c","system_id":"levelo_inurba_marseille","lat":43.30424,"lon":5.41288,"is_reserved":false,"is_disabled":false,"rental_uris":{"android":"levelo://app?vid=f6c97062-23b3-48e2-a347-34f6f8f3d30c","ios":"levelo://app?vid=f6c97062-23b3-48e2-a347-34f6f8f3d30c"},"vehicle_type_id":"4","last_reported":1752862522,"current_range_meters":16800,"station_id":"ce4bhop2rcd13ifvqh8g","pricing_plan_id":"cebpf4jnsgd1na2vs0mg"},{"bike_id":"94c07cb2-0943-4d24-99f2-97bdab47aa3f","system_id":"levelo_inurba_marseille","lat":43.337444,"lon":5.374475,"is_reserved":false,"is_disabled":false,"rental_uris":{"android":"levelo://app?vid=94c07cb2-0943-4d24-99f2-97bdab47aa3f","ios":"levelo://app?vid=94c07cb2-0943-4d24-99f2-97bdab47aa3f"},"vehicle_type_id":"4","last_reported":1752862522,"current_range_meters":16800,"station_id":"","pricing_plan_id":"cebpf4jnsgd1na2vs0mg"},{"bike_id":"221a8f03-67cb-485b-8573-9abcf816d5d5","system_id":"levelo_inurba_marseille","lat":43.29868,"lon":5.39734,"is_reserved":false,"is_disabled":false,"rental_uris":{"android":"levelo://app?vid=221a8f03-67cb-485b-8573-9abcf816d5d5","ios":"levelo://app?vid=221a8f03-67cb-485b-8573-9abcf816d5d5"},"vehicle_type_id":"4","last_reported":1752862522,"current_range_meters":17200,"station_id":"","pricing_plan_id":"cebpf4jnsgd1na2vs0mg"},{"bike_id":"70932949-0810-4f53-a300-723f5bcb3ae5","system_id":"levelo_inurba_marseille","lat":43.22522,"lon":5.34767,"is_reserved":false,"is_disabled":false,"rental_uris":{"android":"levelo://app?vid=70932949-0810-4f53-a300-723f5bcb3ae5","ios":"levelo://app?vid=70932949-0810-4f53-a300-723f5bcb3ae5"},"vehicle_type_id":"4","last_reported":1752862522,"current_range_meters":17200,"station_id":"st_cvj5dfep6f1abm77gieg","pricing_plan_id":"cebpf4jnsgd1na2vs0mg"},{"bike_id":"b7f96c45-a300-4f35-b4a9-3c09c88cf0cd","system_id":"levelo_inurba_marseille","lat":43.29531,"lon":5.39063,"is_reserved":false,"is_disabled":false,"rental_uris":{"android":"levelo://app?vid=b7f96c45-a300-4f35-b4a9-3c09c88cf0cd","ios":"levelo://app?vid=b7f96c45-a300-4f35-b4a9-3c09c88cf0cd"},"vehicle_type_id":"4","last_reported":1752862522,"current_range_meters":17200,"station_id":"ce4bh3p2rcd13ifvqdp0","pricing_plan_id":"cebpf4jnsgd1na2vs0mg"},{"bike_id":"54e3972a-a5d5-40eb-a1ad-746722660001","system_id":"levelo_inurba_marseille","lat":43.284656,"lon":5.35888,"is_reserved":false,"is_disabled":false,"rental_uris":{"android":"levelo://app?vid=54e3972a-a5d5-40eb-a1ad-746722660001","ios":"levelo://app?vid=54e3972a-a5d5-40eb-a1ad-746722660001"},"vehicle_type_id":"4","last_reported":1752862522,"current_range_meters":17600,"station_id":"ce4bhah2rcd13ifvqei0","pricing_plan_id":"cebpf4jnsgd1na2vs0mg"},{"bike_id":"d5cf0ddb-4301-4e01-9253-a4393d968d0a","system_id":"levelo_inurba_marseille","lat":43.2251,"lon":5.34787,"is_reserved":false,"is_disabled":false,"rental_uris":{"android":"levelo://app?vid=d5cf0ddb-4301-4e01-9253-a4393d968d0a","ios":"levelo://app?vid=d5cf0ddb-4301-4e01-9253-a4393d968d0a"},"vehicle_type_id":"4","last_reported":1752862522,"current_range_meters":17600,"station_id":"st_cvj5dfep6f1abm77gieg","pricing_plan_id":"cebpf4jnsgd1na2vs0mg"},{"bike_id":"4315c1ae-330f-4b26-8e9d-adb789b34de4","system_id":"levelo_inurba_marseille","lat":43.31168,"lon":5.38714,"is_reserved":false,"is_disabled":false,"rental_uris":{"android":"levelo://app?vid=4315c1ae-330f-4b26-8e9d-adb789b34de4","ios":"levelo://app?vid=4315c1ae-330f-4b26-8e9d-adb789b34de4"},"vehicle_type_id":"4","last_reported":1752862522,"current_range_meters":17600,"station_id":"ce4bgv12rcd13ifvqcp0","pricing_plan_id":"cebpf4jnsgd1na2vs0mg"},{"bike_id":"0968f27e-c428-41d4-9f78-fcc43feabd44","system_id":"levelo_inurba_marseille","lat":43.232,"lon":5.35526,"is_reserved":false,"is_disabled":false,"rental_uris":{"android":"levelo://app?vid=0968f27e-c428-41d4-9f78-fcc43feabd44","ios":"levelo://app?vid=0968f27e-c428-41d4-9f78-fcc43feabd44"},"vehicle_type_id":"4","last_reported":1752862522,"current_range_meters":17600,"station_id":"ce4bhu92rcd13ifvqi70","pricing_plan_id":"cebpf4jnsgd1na2vs0mg"},{"bike_id":"3306c870-7690-4146-b57c-1146ba6f92ef","system_id":"levelo_inurba_marseille","lat":43.29513,"lon":5.3751,"is_reserved":false,"is_disabled":false,"rental_uris":{"android":"levelo://app?vid=3306c870-7690-4146-b57c-1146ba6f92ef","ios":"levelo://app?vid=3306c870-7690-4146-b57c-1146ba6f92ef"},"vehicle_type_id":"4","last_reported":1752862522,"current_range_meters":17200,"station_id":"ce4bgkp2rcd13ifvqbmg","pricing_plan_id":"cebpf4jnsgd1na2vs0mg"},{"bike_id":"4b1c50da-27ad-43fe-a7a0-5cc0d1644d2b","system_id":"levelo_inurba_marseille","lat":43.29848,"lon":5.36289,"is_reserved":false,"is_disabled":false,"rental_uris":{"android":"levelo://app?vid=4b1c50da-27ad-43fe-a7a0-5cc0d1644d2b","ios":"levelo://app?vid=4b1c50da-27ad-43fe-a7a0-5cc0d1644d2b"},"vehicle_type_id":"4","last_reported":1752862522,"current_range_meters":17600,"station_id":"ce4bgpp2rcd13ifvqc3g","pricing_plan_id":"cebpf4jnsgd1na2vs0mg"},{"bike_id":"15dbf7dd-b1ee-425a-918d-b01eaf722998","system_id":"levelo_inurba_marseille","lat":43.31178,"lon":5.38711,"is_reserved":false,"is_disabled":false,"rental_uris":{"android":"levelo://app?vid=15dbf7dd-b1ee-425a-918d-b01eaf722998","ios":"levelo://app?vid=15dbf7dd-b1ee-425a-918d-b01eaf722998"},"vehicle_type_id":"4","last_reported":1752862522,"current_range_meters":17600,"station_id":"ce4bgv12rcd13ifvqcp0","pricing_plan_id":"cebpf4jnsgd1na2vs0mg"},{"bike_id":"e109cd89-db7d-4327-b7bc-15b1bd0a9d04","system_id":"levelo_inurba_marseille","lat":43.28872,"lon":5.35853,"is_reserved":false,"is_disabled":false,"rental_uris":{"android":"levelo://app?vid=e109cd89-db7d-4327-b7bc-15b1bd0a9d04","ios":"levelo://app?vid=e109cd89-db7d-4327-b7bc-15b1bd0a9d04"},"vehicle_type_id":"4","last_reported":1752862522,"current_range_meters":17600,"station_id":"ce4bhb12rcd13ifvqem0","pricing_plan_id":"cebpf4jnsgd1na2vs0mg"},{"bike_id":"cd5a9591-6e46-4776-8003-ff3824872e9f","system_id":"levelo_inurba_marseille","lat":43.29006,"lon":5.35604,"is_reserved":false,"is_disabled":true,"rental_uris":{"android":"levelo://app?vid=cd5a9591-6e46-4776-8003-ff3824872e9f","ios":"levelo://app?vid=cd5a9591-6e46-4776-8003-ff3824872e9f"},"vehicle_type_id":"4","last_reported":1752862522,"current_range_meters":17600,"station_id":"ce4bhb92rcd13ifvqen0","pricing_plan_id":"cebpf4jnsgd1na2vs0mg"},{"bike_id":"f3281340-c0fa-463b-a532-8fe6d54ce761","system_id":"levelo_inurba_marseille","lat":43.2985,"lon":5.36287,"is_reserved":false,"is_disabled":false,"rental_uris":{"android":"levelo://app?vid=f3281340-c0fa-463b-a532-8fe6d54ce761","ios":"levelo://app?vid=f3281340-c0fa-463b-a532-8fe6d54ce761"},"vehicle_type_id":"4","last_reported":1752862522,"current_range_meters":17600,"station_id":"ce4bgpp2rcd13ifvqc3g","pricing_plan_id":"cebpf4jnsgd1na2vs0mg"},{"bike_id":"7360b2c1-827d-4a45-ba07-948ef7d2fc35","system_id":"levelo_inurba_marseille","lat":43.229295,"lon":5.353761,"is_reserved":false,"is_disabled":false,"rental_uris":{"android":"levelo://app?vid=7360b2c1-827d-4a45-ba07-948ef7d2fc35","ios":"levelo://app?vid=7360b2c1-827d-4a45-ba07-948ef7d2fc35"},"vehicle_type_id":"4","last_reported":1752862522,"current_range_meters":17600,"station_id":"","pricing_plan_id":"cebpf4jnsgd1na2vs0mg"},{"bike_id":"77d81370-19d2-42c6-a8b2-99abd85dbe97","system_id":"levelo_inurba_marseille","lat":43.29268,"lon":5.38436,"is_reserved":false,"is_disabled":false,"rental_uris":{"android":"levelo://app?vid=77d81370-19d2-42c6-a8b2-99abd85dbe97","ios":"levelo://app?vid=77d81370-19d2-42c6-a8b2-99abd85dbe97"},"vehicle_type_id":"4","last_reported":1752862522,"current_range_meters":17600,"station_id":"ce4bh692rcd13ifvqea0","pricing_plan_id":"cebpf4jnsgd1na2vs0mg"},{"bike_id":"96579d04-b9e9-484c-9b9a-af500e5e8552","system_id":"levelo_inurba_marseille","lat":43.326753,"lon":5.363887,"is_reserved":false,"is_disabled":false,"rental_uris":{"android":"levelo://app?vid=96579d04-b9e9-484c-9b9a-af500e5e8552","ios":"levelo://app?vid=96579d04-b9e9-484c-9b9a-af500e5e8552"},"vehicle_type_id":"4","last_reported":1752862522,"current_range_meters":17600,"station_id":"","pricing_plan_id":"cebpf4jnsgd1na2vs0mg"},{"bike_id":"624fc364-4ecb-4220-9f41-2be82bc1472a","system_id":"levelo_inurba_marseille","lat":43.248094,"lon":5.374623,"is_reserved":false,"is_disabled":false,"rental_uris":{"android":"levelo://app?vid=624fc364-4ecb-4220-9f41-2be82bc1472a","ios":"levelo://app?vid=624fc364-4ecb-4220-9f41-2be82bc1472a"},"vehicle_type_id":"4","last_reported":1752862522,"current_range_meters":18000,"station_id":"ce4bhgh2rcd13ifvqfb0","pricing_plan_id":"cebpf4jnsgd1na2vs0mg"},{"bike_id":"a1e191ac-2769-4944-b124-28ad905885d6","system_id":"levelo_inurba_marseille","lat":43.2826,"lon":5.35057,"is_reserved":false,"is_disabled":false,"rental_uris":{"android":"levelo://app?vid=a1e191ac-2769-4944-b124-28ad905885d6","ios":"levelo://app?vid=a1e191ac-2769-4944-b124-28ad905885d6"},"vehicle_type_id":"4","last_reported":1752862522,"current_range_meters":18000,"station_id":"ce4bhbp2rcd13ifvqerg","pricing_plan_id":"cebpf4jnsgd1na2vs0mg"},{"bike_id":"939fbb8b-d887-4514-ad59-6dd95ace33c6","system_id":"levelo_inurba_marseille","lat":43.30806,"lon":5.38141,"is_reserved":false,"is_disabled":false,"rental_uris":{"android":"levelo://app?vid=939fbb8b-d887-4514-ad59-6dd95ace33c6","ios":"levelo://app?vid=939fbb8b-d887-4514-ad59-6dd95ace33c6"},"vehicle_type_id":"4","last_reported":1752862522,"current_range_meters":18000,"station_id":"ce4bgt12rcd13ifvqce0","pricing_plan_id":"cebpf4jnsgd1na2vs0mg"},{"bike_id":"a548a6e7-6133-46c2-9dcf-0817245db4cf","system_id":"levelo_inurba_marseille","lat":43.2957,"lon":5.37526,"is_reserved":false,"is_disabled":false,"rental_uris":{"android":"levelo://app?vid=a548a6e7-6133-46c2-9dcf-0817245db4cf","ios":"levelo://app?vid=a548a6e7-6133-46c2-9dcf-0817245db4cf"},"vehicle_type_id":"4","last_reported":1752862522,"current_range_meters":18000,"station_id":"ce4bgh92rcd13ifvqb50","pricing_plan_id":"cebpf4jnsgd1na2vs0mg"},{"bike_id":"cb7b541b-4aa0-476b-ac1b-c83b6acaa65d","system_id":"levelo_inurba_marseille","lat":43.24181,"lon":5.36367,"is_reserved":false,"is_disabled":false,"rental_uris":{"android":"levelo://app?vid=cb7b541b-4aa0-476b-ac1b-c83b6acaa65d","ios":"levelo://app?vid=cb7b541b-4aa0-476b-ac1b-c83b6acaa65d"},"vehicle_type_id":"4","last_reported":1752862522,"current_range_meters":18000,"station_id":"cpo36qri1sfpv3e86is0","pricing_plan_id":"cebpf4jnsgd1na2vs0mg"},{"bike_id":"e6eb42d0-56d3-450f-b9ca-08ac9fb3dfc3","system_id":"levelo_inurba_marseille","lat":43.25583,"lon":5.38237,"is_reserved":false,"is_disabled":false,"rental_uris":{"android":"levelo://app?vid=e6eb42d0-56d3-450f-b9ca-08ac9fb3dfc3","ios":"levelo://app?vid=e6eb42d0-56d3-450f-b9ca-08ac9fb3dfc3"},"vehicle_type_id":"4","last_reported":1752862522,"current_range_meters":18000,"station_id":"ce4bhih2rcd13ifvqfs0","pricing_plan_id":"cebpf4jnsgd1na2vs0mg"},{"bike_id":"4dbf8998-fd1b-4a7b-b6bc-f31d8f5c16e2","system_id":"levelo_inurba_marseille","lat":43.29277,"lon":5.40112,"is_reserved":false,"is_disabled":false,"rental_uris":{"android":"levelo://app?vid=4dbf8998-fd1b-4a7b-b6bc-f31d8f5c16e2","ios":"levelo://app?vid=4dbf8998-fd1b-4a7b-b6bc-f31d8f5c16e2"},"vehicle_type_id":"4","last_reported":1752862522,"current_range_meters":18000,"station_id":"ce4bh312rcd13ifvqdk0","pricing_plan_id":"cebpf4jnsgd1na2vs0mg"},{"bike_id":"45c34bd9-1033-4622-84f7-fd435c86e1e3","system_id":"levelo_inurba_marseille","lat":43.24385,"lon":5.37062,"is_reserved":false,"is_disabled":false,"rental_uris":{"android":"levelo://app?vid=45c34bd9-1033-4622-84f7-fd435c86e1e3","ios":"levelo://app?vid=45c34bd9-1033-4622-84f7-fd435c86e1e3"},"vehicle_type_id":"4","last_reported":1752862522,"current_range_meters":17600,"station_id":"ce4bhhh2rcd13ifvqfk0","pricing_plan_id":"cebpf4jnsgd1na2vs0mg"},{"bike_id":"3075d92b-df90-40d8-adea-50495d745e2d","system_id":"levelo_inurba_marseille","lat":43.232158,"lon":5.35781,"is_reserved":false,"is_disabled":false,"rental_uris":{"android":"levelo://app?vid=3075d92b-df90-40d8-adea-50495d745e2d","ios":"levelo://app?vid=3075d92b-df90-40d8-adea-50495d745e2d"},"vehicle_type_id":"4","last_reported":1752862522,"current_range_meters":18000,"station_id":"cpo3532slgdg3j2ikp40","pricing_plan_id":"cebpf4jnsgd1na2vs0mg"},