{"last_updated":1774203698,"ttl":60,"version":"2.2","data":{"bikes":[{"bike_id":"ee8c0786-704b-4515-a31a-2e24ac80a01b","system_id":"levelo_inurba_marseille","lat":43.33607,"lon":5.37489,"is_reserved":false,"is_disabled":false,"rental_uris":{"android":"levelo://app?vid=ee8c0786-704b-4515-a31a-2e24ac80a01b","ios":"levelo://app?vid=ee8c0786-704b-4515-a31a-2e24ac80a01b"},"vehicle_type_id":"4","last_reported":1774203698,"current_range_meters":2800,"station_id":"","pricing_plan_id":"cebpf4jnsgd1na2vs0mg"},{"bike_id":"b75b0ef9-58e6-489e-a8cf-7c4c4208dccd","system_id":"levelo_inurba_marseille","lat":43.27969,"lon":5.41675,"is_reserved":false,"is_disabled":false,"rental_uris":{"android":"levelo://app?vid=b75b0ef9-58e6-489e-a8cf-7c4c4208dccd","ios":"levelo://app?vid=b75b0ef9-58e6-489e-a8cf-7c4c4208dccd"},"vehicle_type_id":"4","last_reported":1774203698,"current_range_meters":2800,"station_id":"ce4bho12rcd13ifvqh1g","pricing_plan_id":"cebpf4jnsgd1na2vs0mg"},{"bike_id":"37fd8b91-bebb-483f-9ede-850904204da2","system_id":"levelo_inurba_marseille","lat":43.3342,"lon":5.35701,"is_reserved":false,"is_disabled":false,"rental_uris":{"android":"levelo://app?vid=37fd8b91-bebb-483f-9ede-850904204da2","ios":"levelo://app?vid=37fd8b91-bebb-483f-9ede-850904204da2"},"vehicle_type_id":"4","last_reported":1774203698,"current_range_meters":2800,"station_id":"","pricing_plan_id":"cebpf4jnsgd1na2vs0mg"},{"bike_id":"c1132910-04b4-46e1-a0d5-c4ac5cbe805d","system_id":"levelo_inurba_marseille","lat":43.26937,"lon":5.403,"is_reserved":false,"is_disabled":false,"rental_uris":{"android":"levelo://app?vid=c1132910-04b4-46e1-a0d5-c4ac5cbe805d","ios":"levelo://app?vid=c1132910-04b4-46e1-a0d5-c4ac5cbe805d"},"vehicle_type_id":"4","last_reported":1774203698,"current_range_meters":3200,"station_id":"cjm6bp8fraef2m0cb0m0","pricing_plan_id":"cebpf4jnsgd1na2vs0mg"},{"bike_id":"5044398e-f060-4380-8f37-6dedb9853048","system_id":"levelo_inurba_marseille","lat":43.28004,"lon":5.38696,"is_reserved":false,"is_disabled":false,"rental_uris":{"android":"levelo://app?vid=5044398e-f060-4380-8f37-6dedb9853048","ios":"levelo://app?vid=5044398e-f060-4380-8f37-6dedb9853048"},"vehicle_type_id":"4","last_reported":1774203698,"current_range_meters":3200,"station_id":"","pricing_plan_id":"cebpf4jnsgd1na2vs0mg"},{"bike_id":"5c964224-b7a1-45e9-979d-0b588b3cc015","system_id":"levelo_inurba_marseille","lat":43.29101,"lon":5.38169,"is_reserved":false,"is_disabled":true,"rental_uris":{"android":"levelo://app?vid=5c964224-b7a1-45e9-979d-0b588b3cc015","ios":"levelo://app?vid=5c964224-b7a1-45e9-979d-0b588b3cc015"},"vehicle_type_id":"4","last_reported":1774203698,"current_range_meters":3200,"station_id":"ce4bh512rcd13ifvqe2g","pricing_plan_id":"cebpf4jnsgd1na2vs0mg"},{"bike_id":"5206b1c0-ea28-4288-9fb7-15de647e09fa","system_id":"levelo_inurba_marseille","lat":43.33572,"lon":5.37524,"is_reserved":false,"is_disabled":false,"rental_uris":{"android":"levelo://app?vid=5206b1c0-ea28-4288-9fb7-15de647e09fa","ios":"levelo://app?vid=5206b1c0-ea28-4288-9fb7-15de647e09fa"},"vehicle_type_id":"4","last_reported":1774203698,"current_range_meters":3200,"station_id":"","pricing_plan_id":"cebpf4jnsgd1na2vs0mg"},{"bike_id":"eec1e70a-7a70-4f35-82df-f3727eb58f06","system_id":"levelo_inurba_marseille","lat":43.29652,"lon":5.40187,"is_reserved":false,"is_disabled":false,"rental_uris":{"android":"levelo://app?vid=eec1e70a-7a70-4f35-82df-f3727eb58f06","ios":"levelo://app?vid=eec1e70a-7a70-4f35-82df-f3727eb58f06"},"vehicle_type_id":"4","last_reported":1774203698,"current_range_meters":3200,"station_id":"","pricing_plan_id":"cebpf4jnsgd1na2vs0mg"},{"bike_id":"881552ad-57ca-4484-9a05-f159c58f50d9","system_id":"levelo_inurba_marseille","lat":43.31709,"lon":5.38755,"is_reserved":false,"is_disabled":false,"rental_uris":{"android":"levelo://app?vid=881552ad-57ca-4484-9a05-f159c58f50d9","ios":"levelo://app?vid=881552ad-57ca-4484-9a05-f159c58f50d9"},"vehicle_type_id":"4","last_reported":1774203698,"current_range_meters":3200,"station_id":"","pricing_plan_id":"cebpf4jnsgd1na2vs0mg"},{"bike_id":"703efbe1-feef-417d-a9e3-0fca1a7eab74","system_id":"levelo_inurba_marseille","lat":43.34944,"lon":5.37929,"is_reserved":false,"is_disabled":false,"rental_uris":{"android":"levelo://app?vid=703efbe1-feef-417d-a9e3-0fca1a7eab74","ios":"levelo://app?vid=703efbe1-feef-417d-a9e3-0fca1a7eab74"},"vehicle_type_id":"4","last_reported":1774203698,"current_range_meters":3200,"station_id":"","pricing_plan_id":"cebpf4jnsgd1na2vs0mg"},{"bike_id":"b3c87133-a858-4c96-8034-1bf85dc082c3","system_id":"levelo_inurba_marseille","lat":43.29622,"lon":5.38101,"is_reserved":false,"is_disabled":true,"rental_uris":{"android":"levelo://app?vid=b3c87133-a858-4c96-8034-1bf85dc082c3","ios":"levelo://app?vid=b3c87133-a858-4c96-8034-1bf85dc082c3"},"vehicle_type_id":"4","last_reported":1774203698,"current_range_meters":3200,"station_id":"ce4bgl12rcd13ifvqbo0","pricing_plan_id":"cebpf4jnsgd1na2vs0mg"},{"bike_id":"0d715b3a-bf00-4b51-86f8-fa10dbeac6fa","system_id":"levelo_inurba_marseille","lat":43.25723,"lon":5.41959,"is_reserved":false,"is_disabled":false,"rental_uris":{"android":"levelo://app?vid=0d715b3a-bf00-4b51-86f8-fa10dbeac6fa","ios":"levelo://app?vid=0d715b3a-bf00-4b51-86f8-fa10dbeac6fa"},"vehicle_type_id":"4","last_reported":1774203698,"current_range_meters":3200,"station_id":"","pricing_plan_id":"cebpf4jnsgd1na2vs0mg"},{"bike_id":"1856b9ba-950d-4d20-8b8a-1dd2c2ab3f7d","system_id":"levelo_inurba_marseille","lat":43.26974,"lon":5.40271,"is_reserved":false,"is_disabled":false,"rental_uris":{"android":"levelo://app?vid=1856b9ba-950d-4d20-8b8a-1dd2c2ab3f7d","ios":"levelo://app?vid=1856b9ba-950d-4d20-8b8a-1dd2c2ab3f7d"},"vehicle_type_id":"4","last_reported":1774203698,"current_range_meters":3200,"station_id":"cjm6bp8fraef2m0cb0m0","pricing_plan_id":"cebpf4jnsgd1na2vs0mg"},{"bike_id":"684715c6-945f-4949-9133-64dec7838b4e","system_id":"levelo_inurba_marseille","lat":43.27217,"lon":5.39207,"is_reserved":false,"is_disabled":true,"rental_uris":{"android":"levelo://app?vid=684715c6-945f-4949-9133-64dec7838b4e","ios":"levelo://app?vid=684715c6-945f-4949-9133-64dec7838b4e"},"vehicle_type_id":"4","last_reported":1774203698,"current_range_meters":3600,"station_id":"ce4bhhp2rcd13ifvqfm0","pricing_plan_id":"cebpf4jnsgd1na2vs0mg"},{"bike_id":"b87ee8de-0dcf-46cf-b088-5ce18734bb4a","system_id":"levelo_inurba_marseille","lat":43.27223,"lon":5.39175,"is_reserved":false,"is_disabled":false,"rental_uris":{"android":"levelo://app?vid=b87ee8de-0dcf-46cf-b088-5ce18734bb4a","ios":"levelo://app?vid=b87ee8de-0dcf-46cf-b088-5ce18734bb4a"},"vehicle_type_id":"4","last_reported":1774203698,"current_range_meters":3600,"station_id":"ce4bhhp2rcd13ifvqfm0","pricing_plan_id":"cebpf4jnsgd1na2vs0mg"},{"bike_id":"53663f10-c972-4dad-83a0-96ec19d2a37e","system_id":"levelo_inurba_marseille","lat":43.25029,"lon":5.38927,"is_reserved":false,"is_disabled":true,"rental_uris":{"android":"levelo://app?vid=53663f10-c972-4dad-83a0-96ec19d2a37e","ios":"levelo://app?vid=53663f10-c972-4dad-83a0-96ec19d2a37e"},"vehicle_type_id":"4","last_reported":1774203698,"current_range_meters":3600,"station_id":"ce4bhgp2rcd13ifvqfd0","pricing_plan_id":"cebpf4jnsgd1na2vs0mg"},{"bike_id":"c7cc5081-8a90-4664-8378-0ac0db8d74fb","system_id":"levelo_inurba_marseille","lat":43.29838,"lon":5.36677,"is_reserved":false,"is_disabled":false,"rental_uris":{"android":"levelo://app?vid=c7cc5081-8a90-4664-8378-0ac0db8d74fb","ios":"levelo://app?vid=c7cc5081-8a90-4664-8378-0ac0db8d74fb"},"vehicle_type_id":"4","last_reported":1774203698,"current_range_meters":3600,"station_id":"","pricing_plan_id":"cebpf4jnsgd1na2vs0mg"},{"bike_id":"d65bd890-bd76-40b1-a464-add252f480e6","system_id":"levelo_inurba_marseille","lat":43.31736,"lon":5.38999,"is_reserved":false,"is_disabled":false,"rental_uris":{"android":"levelo://app?vid=d65bd890-bd76-40b1-a464-add252f480e6","ios":"levelo://app?vid=d65bd890-bd76-40b1-a464-add252f480e6"},"vehicle_type_id":"4","last_reported":1774203698,"current_range_meters":3600,"station_id":"ce4bhqp2rcd13ifvqhng","pricing_plan_id":"cebpf4jnsgd1na2vs0mg"},{"bike_id":"1bf523a3-5926-4a56-bcae-e377f2ed8117","system_id":"levelo_inurba_marseille","lat":43.27953,"lon":5.41055,"is_reserved":false,"is_disabled":false,"rental_uris":{"android":"levelo://app?vid=1bf523a3-5926-4a56-bcae-e377f2ed8117","ios":"levelo://app?vid=1bf523a3-5926-4a56-bcae-e377f2ed8117"},"vehicle_type_id":"4","last_reported":1774203698,"current_range_meters":3600,"station_id":"ce4bhnp2rcd13ifvqh0g","pricing_plan_id":"cebpf4jnsgd1na2vs0mg"},{"bike_id":"d9a2340f-4dc0-456b-89f0-454af4d93a65","system_id":"levelo_inurba_marseille","lat":43.28484,"lon":5.35128,"is_reserved":false,"is_disabled":false,"rental_uris":{"android":"levelo://app?vid=d9a2340f-4dc0-456b-89f0-454af4d93a65","ios":"levelo://app?vid=d9a2340f-4dc0-456b-89f0-454af4d93a65"},"vehicle_type_id":"4","last_reported":1774203698,"current_range_meters":3600,"station_id":"","pricing_plan_id":"cebpf4jnsgd1na2vs0mg"},{"bike_id":"e6475c08-c2b5-4384-9f5a-f76a9e6ed419","system_id":"levelo_inurba_marseille","lat":43.30137,"lon":5.39892,"is_reserved":false,"is_disabled":true,"rental_uris":{"android":"levelo://app?vid=e6475c08-c2b5-4384-9f5a-f76a9e6ed419","ios":"levelo://app?vid=e6475c08-c2b5-4384-9f5a-f76a9e6ed419"},"vehicle_type_id":"4","last_reported":1774203698,"current_range_meters":3600,"station_id":"ce4bh0h2rcd13ifvqd40","pricing_plan_id":"cebpf4jnsgd1na2vs0mg"},{"bike_id":"5c57b442-e44c-4217-ae47-6fe16361dbee","system_id":"levelo_inurba_marseille","lat":43.29769,"lon":5.42769,"is_reserved":false,"is_disabled":true,"rental_uris":{"android":"levelo://app?vid=5c57b442-e44c-4217-ae47-6fe16361dbee","ios":"levelo://app?vid=5c57b442-e44c-4217-ae47-6fe16361dbee"},"vehicle_type_id":"4","last_reported":1774203698,"current_range_meters":3600,"station_id":"st_d3md5207bmas73dh9klg","pricing_plan_id":"cebpf4jnsgd1na2vs0mg"},{"bike_id":"bb64248e-0e5d-4ee1-9d8f-d48a0dd77d66","system_id":"levelo_inurba_marseille","lat":43.21622,"lon":5.34474,"is_reserved":false,"is_disabled":false,"rental_uris":{"android":"levelo://app?vid=bb64248e-0e5d-4ee1-9d8f-d48a0dd77d66","ios":"levelo://app?vid=bb64248e-0e5d-4ee1-9d8f-d48a0dd77d66"},"vehicle_type_id":"4","last_reported":1774203698,"current_range_meters":3600,"station_id":"","pricing_plan_id":"cebpf4jnsgd1na2vs0mg"},{"bike_id":"fdc655d4-8c99-4d97-9c1e-46ec98ef8979","system_id":"levelo_inurba_marseille","lat":43.28638,"lon":5.35101,"is_reserved":false,"is_disabled":true,"rental_uris":{"android":"levelo://app?vid=fdc655d4-8c99-4d97-9c1e-46ec98ef8979","ios":"levelo://app?vid=fdc655d4-8c99-4d97-9c1e-46ec98ef8979"},"vehicle_type_id":"4","last_reported":1774203698,"current_range_meters":4000,"station_id":"ce4bhch2rcd13ifvqeug","pricing_plan_id":"cebpf4jnsgd1na2vs0mg"},{"bike_id":"df5ad533-8354-43dd-b4db-d4118becde63","system_id":"levelo_inurba_marseille","lat":43.28558,"lon":5.48334,"is_reserved":false,"is_disabled":false,"rental_uris":{"android":"levelo://app?vid=df5ad533-8354-43dd-b4db-d4118becde63","ios":"levelo://app?vid=df5ad533-8354-43dd-b4db-d4118becde63"},"vehicle_type_id":"4","last_reported":1774203698,"current_range_meters":4000,"station_id":"","pricing_plan_id":"cebpf4jnsgd1na2vs0mg"},{"bike_id":"2623926b-006b-4bc5-8015-1fb75878f346","system_id":"levelo_inurba_marseille","lat":43.24808,"lon":5.37468,"is_reserved":false,"is_disabled":false,"rental_uris":{"android":"levelo://app?vid=2623926b-006b-4bc5-8015-1fb75878f346","ios":"levelo://app?vid=2623926b-006b-4bc5-8015-1fb75878f346"},"vehicle_type_id":"4","last_reported":1774203698,"current_range_meters":4400,"station_id":"ce4bhgh2rcd13ifvqfb0","pricing_plan_id":"cebpf4jnsgd1na2vs0mg"},{"bike_id":"b6fffe2f-9423-41b9-a53f-4ddbccd10965","system_id":"levelo_inurba_marseille","lat":43.33547,"lon":5.37449,"is_reserved":false,"is_disabled":false,"rental_uris":{"android":"levelo://app?vid=b6fffe2f-9423-41b9-a53f-4ddbccd10965","ios":"levelo://app?vid=b6fffe2f-9423-41b9-a53f-4ddbccd10965"},"vehicle_type_id":"4","last_reported":1774203698,"current_range_meters":4400,"station_id":"st_d46tts09ee8s73dlu43g","pricing_plan_id":"cebpf4jnsgd1na2vs0mg"},{"bike_id":"3f12e940-de87-4cda-8d19-b5ddb45a8f36","system_id":"levelo_inurba_marseille","lat":43.23259,"lon":5.35642,"is_reserved":false,"is_disabled":false,"rental_uris":{"android":"levelo://app?vid=3f12e940-de87-4cda-8d19-b5ddb45a8f36","ios":"levelo://app?vid=3f12e940-de87-4cda-8d19-b5ddb45a8f36"},"vehicle_type_id":"4","last_reported":1774203698,"current_range_meters":4400,"station_id":"","pricing_plan_id":"cebpf4jnsgd1na2vs0mg"},{"bike_id":"280578b9-60d3-4d63-bb0d-4693a52f0b6d","system_id":"levelo_inurba_marseille","lat":43.29013,"lon":5.38123,"is_reserved":false,"is_disabled":true,"rental_uris":{"android":"levelo://app?vid=280578b9-60d3-4d63-bb0d-4693a52f0b6d","ios":"levelo://app?vid=280578b9-60d3-4d63-bb0d-4693a52f0b6d"},"vehicle_type_id":"4","last_reported":1774203698,"current_range_meters":4400,"station_id":"ce4bh4p2rcd13ifvqe1g","pricing_plan_id":"cebpf4jnsgd1na2vs0mg"},{"bike_id":"a634b56a-d67f-43ef-8c8f-dcb104f35630","system_id":"levelo_inurba_marseille","lat":43.29546,"lon":5.39389,"is_reserved":false,"is_disabled":false,"rental_uris":{"android":"levelo://app?vid=a634b56a-d67f-43ef-8c8f-dcb104f35630","ios":"levelo://app?vid=a634b56a-d67f-43ef-8c8f-dcb104f35630"},"vehicle_type_id":"4","last_reported":1774203698,"current_range_meters":4400,"station_id":"ce4bh292rcd13ifvqdf0","pricing_plan_id":"cebpf4jnsgd1na2vs0mg"},{"bike_id":"e649a921-f973-4d5d-be71-196f69a14e33","system_id":"levelo_inurba_marseille","lat":43.28675,"lon":5.38669,"is_reserved":false,"is_disabled":false,"rental_uris":{"android":"levelo://app?vid=e649a921-f973-4d5d-be71-196f69a14e33","ios":"levelo://app?vid=e649a921-f973-4d5d-be71-196f69a14e33"},"vehicle_type_id":"4","last_reported":1774203698,"current_range_meters":4400,"station_id":"ce4bh492rcd13ifvqdug","pricing_plan_id":"cebpf4jnsgd1na2vs0mg"},{"bike_id":"110e82fe-61f1-41a5-8603-789cab85d046","system_id":"levelo_inurba_marseille","lat":43.31275,"lon":5.40173,"is_reserved":false,"is_disabled":false,"rental_uris":{"android":"levelo://app?vid=110e82fe-61f1-41a5-8603-789cab85d046","ios":"levelo://app?vid=110e82fe-61f1-41a5-8603-789cab85d046"},"vehicle_type_id":"4","last_reported":1774203698,"current_range_meters":4400,"station_id":"ce4bh092rcd13ifvqd30","pricing_plan_id":"cebpf4jnsgd1na2vs0mg"},{"bike_id":"e4302fa6-8418-4e0f-a862-36b6e1448c79","system_id":"levelo_inurba_marseille","lat":43.25857,"lon":5.39899,"is_reserved":false,"is_disabled":false,"rental_uris":{"android":"levelo://app?vid=e4302fa6-8418-4e0f-a862-36b6e1448c79","ios":"levelo://app?vid=e4302fa6-8418-4e0f-a862-36b6e1448c79"},"vehicle_type_id":"4","last_reported":1774203698,"current_range_meters":4400,"station_id":"ce4bhl92rcd13ifvqghg","pricing_plan_id":"cebpf4jnsgd1na2vs0mg"},{"bike_id":"9428c957-f603-4346-9e68-4f9e4a780b24","system_id":"levelo_inurba_marseille","lat":43.21797,"lon":5.34562,"is_reserved":false,"is_disabled":true,"rental_uris":{"android":"levelo://app?vid=9428c957-f603-4346-9e68-4f9e4a780b24","ios":"levelo://app?vid=9428c957-f603-4346-9e68-4f9e4a780b24"},"vehicle_type_id":"4","last_reported":1774203698,"current_range_meters":4800,"station_id":"","pricing_plan_id":"cebpf4jnsgd1na2vs0mg"},{"bike_id":"34c091fc-8184-4773-bd2e-dd88d75d3a2c","system_id":"levelo_inurba_marseille","lat":43.25753,"lon":5.37647,"is_reserved":false,"is_disabled":false,"rental_uris":{"android":"levelo://app?vid=34c091fc-8184-4773-bd2e-dd88d75d3a2c","ios":"levelo://app?vid=34c091fc-8184-4773-bd2e-dd88d75d3a2c"},"vehicle_type_id":"4","last_reported":1774203698,"current_range_meters":4800,"station_id":"","pricing_plan_id":"cebpf4jnsgd1na2vs0mg"},{"bike_id":"589e256a-566c-48aa-ba2e-bb8bec131139","system_id":"levelo_inurba_marseille","lat":43.27387,"lon":5.36263,"is_reserved":false,"is_disabled":true,"rental_uris":{"android":"levelo://app?vid=589e256a-566c-48aa-ba2e-bb8bec131139","ios":"levelo://app?vid=589e256a-566c-48aa-ba2e-bb8bec131139"},"vehicle_type_id":"4","last_reported":1774203698,"current_range_meters":4800,"station_id":"ce4bhbh2rcd13ifvqeo0","pricing_plan_id":"cebpf4jnsgd1na2vs0mg"},{"bike_id":"08267143-7ad1-4bee-9c6e-58ba6b24aad5","system_id":"levelo_inurba_marseille","lat":43.26961,"lon":5.4026,"is_reserved":false,"is_disabled":false,"rental_uris":{"android":"levelo://app?vid=08267143-7ad1-4bee-9c6e-58ba6b24aad5","ios":"levelo://app?vid=08267143-7ad1-4bee-9c6e-58ba6b24aad5"},"vehicle_type_id":"4","last_reported":1774203698,"current_range_meters":4800,"station_id":"cjm6bp8fraef2m0cb0m0","pricing_plan_id":"cebpf4jnsgd1na2vs0mg"},{"bike_id":"cb63ad89-1bee-49b2-bee0-7c149749cde7","system_id":"levelo_inurba_marseille","lat":43.26937,"lon":5.40247,"is_reserved":false,"is_disabled":false,"rental_uris":{"android":"levelo://app?vid=cb63ad89-1bee-49b2-bee0-7c149749cde7","ios":"levelo://app?vid=cb63ad89-1bee-49b2-bee0-7c149749cde7"},"vehicle_type_id":"4","last_reported":1774203698,"current_range_meters":4800,"station_id":"cjm6bp8fraef2m0cb0m0","pricing_plan_id":"cebpf4jnsgd1na2vs0mg"},{"bike_id":"f84df946-1fe9-4d68-b54f-3a23cc20fde7","system_id":"levelo_inurba_marseille","lat":43.29875,"lon":5.42101,"is_reserved":false,"is_disabled":false,"rental_uris":{"android":"levelo://app?vid=f84df946-1fe9-4d68-b54f-3a23cc20fde7","ios":"levelo://app?vid=f84df946-1fe9-4d68-b54f-3a23cc20fde7"},"vehicle_type_id":"4","last_reported":1774203698,"current_range_meters":4800,"station_id":"st_d6tc004otcvc738tfe70","pricing_plan_id":"cebpf4jnsgd1na2vs0mg"},{"bike_id":"fe6ad66d-4db0-4e43-ac3c-323be5289286","system_id":"levelo_inurba_marseille","lat":43.29242,"lon":5.39339,"is_reserved":false,"is_disabled":false,"rental_uris":{"android":"levelo://app?vid=fe6ad66d-4db0-4e43-ac3c-323be5289286","ios":"levelo://app?vid=fe6ad66d-4db0-4e43-ac3c-323be5289286"},"vehicle_type_id":"4","last_reported":1774203698,"current_range_meters":4800,"station_id":"ce4bh192rcd13ifvqdd0","pricing_plan_id":"cebpf4jnsgd1na2vs0mg"},{"bike_id":"bb2bb087-057b-42f3-9513-f048d27083cc","system_id":"levelo_inurba_marseille","lat":43.28174,"lon":5.42808,"is_reserved":false,"is_disabled":false,"rental_uris":{"android":"levelo://app?vid=bb2bb087-057b-42f3-9513-f048d27083cc","ios":"levelo://app?vid=bb2bb087-057b-42f3-9513-f048d27083cc"},"vehicle_type_id":"4","last_reported":1774203698,"current_range_meters":4800,"station_id":"","pricing_plan_id":"cebpf4jnsgd1na2vs0mg"},{"bike_id":"b19a626a-93cd-41bf-8d4f-8b63d7aeec08","system_id":"levelo_inurba_marseille","lat":43.30123,"lon":5.43906,"is_reserved":false,"is_disabled":false,"rental_uris":{"android":"levelo://app?vid=b19a626a-93cd-41bf-8d4f-8b63d7aeec08","ios":"levelo://app?vid=b19a626a-93cd-41bf-8d4f-8b63d7aeec08"},"vehicle_type_id":"4","last_reported":1774203698,"current_range_meters":4800,"station_id":"","pricing_plan_id":"cebpf4jnsgd1na2vs0mg"},{"bike_id":"138900b0-58e1-4632-b373-f616494630d6","system_id":"levelo_inurba_marseille","lat":43.29305,"lon":5.37169,"is_reserved":false,"is_disabled":false,"rental_uris":{"android":"levelo://app?vid=138900b0-58e1-4632-b373-f616494630d6","ios":"levelo://app?vid=138900b0-58e1-4632-b373-f616494630d6"},"vehicle_type_id":"4","last_reported":1774203698,"current_range_meters":4800,"station_id":"ce4bgh92rcd13ifvqb40","pricing_plan_id":"cebpf4jnsgd1na2vs0mg"},{"bike_id":"5369d941-756a-4a39-ae59-10b7c47d2be3","system_id":"levelo_inurba_marseille","lat":43.31042,"lon":5.37166,"is_reserved":false,"is_disabled":false,"rental_uris":{"android":"levelo://app?vid=5369d941-756a-4a39-ae59-10b7c47d2be3","ios":"levelo://app?vid=5369d941-756a-4a39-ae59-10b7c47d2be3"},"vehicle_type_id":"4","last_reported":1774203698,"current_range_meters":4800,"station_id":"st_d4kl2rp97mjs73e7tdfg","pricing_plan_id":"cebpf4jnsgd1na2vs0mg"},{"bike_id":"24892758-e1c8-4866-9ace-f6379bc81fdc","system_id":"levelo_inurba_marseille","lat":43.26385,"lon":5.41083,"is_reserved":false,"is_disabled":false,"rental_uris":{"android":"levelo://app?vid=24892758-e1c8-4866-9ace-f6379bc81fdc","ios":"levelo://app?vid=24892758-e1c8-4866-9ace-f6379bc81fdc"},"vehicle_type_id":"4","last_reported":1774203698,"current_range_meters":4800,"station_id":"st_d4e5ca6na9uc73bfl5fg","pricing_plan_id":"cebpf4jnsgd1na2vs0mg"},{"bike_id":"183fd90c-0052-4b2b-a72d-89bd5fb0a1bb","system_id":"levelo_inurba_marseille","lat":43.30963,"lon":5.43884,"is_reserved":false,"is_disabled":false,"rental_uris":{"android":"levelo://app?vid=183fd90c-0052-4b2b-a72d-89bd5fb0a1bb","ios":"levelo://app?vid=183fd90c-0052-4b2b-a72d-89bd5fb0a1bb"},"vehicle_type_id":"4","last_reported":1774203698,"current_range_meters":5600,"station_id":"","pricing_plan_id":"cebpf4jnsgd1na2vs0mg"},{"bike_id":"037af263-c94a-46ee-b673-7aa7948320d5","system_id":"levelo_inurba_marseille","lat":43.29254,"lon":5.38434,"is_reserved":false,"is_disabled":true,"rental_uris":{"android":"levelo://app?vid=037af263-c94a-46ee-b673-7aa7948320d5","ios":"levelo://app?vid=037af263-c94a-46ee-b673-7aa7948320d5"},"vehicle_type_id":"4","last_reported":1774203698,"current_range_meters":5600,"station_id":"ce4bh692rcd13ifvqea0","pricing_plan_id":"cebpf4jnsgd1na2vs0mg"},{"bike_id":"f35f25a3-f6e2-49ab-a635-857e4cb91e6c","system_id":"levelo_inurba_marseille","lat":43.2956,"lon":5.37538,"is_reserved":false,"is_disabled":false,"rental_uris":{"android":"levelo://app?vid=f35f25a3-f6e2-49ab-a635-857e4cb91e6c","ios":"levelo://app?vid=f35f25a3-f6e2-49ab-a635-857e4cb91e6c"},"vehicle_type_id":"4","last_reported":1774203698,"current_range_meters":5600,"station_id":"ce4bgh92rcd13ifvqb50","pricing_plan_id":"cebpf4jnsgd1na2vs0mg"},{"bike_id":"069a31e1-8491-47f6-acb3-52f081dfc8d1","system_id":"levelo_inurba_marseille","lat":43.30302,"lon":5.36914,"is_reserved":false,"is_disabled":false,"rental_uris":{"android":"levelo://app?vid=069a31e1-8491-47f6-acb3-52f081dfc8d1","ios":"levelo://app?vid=069a31e1-8491-47f6-acb3-52f081dfc8d1"},"vehicle_type_id":"4","last_reported":1774203698,"current_range_meters":5600,"station_id":"ce4bgqh2rcd13ifvqc5g","pricing_plan_id":"cebpf4jnsgd1na2vs0mg"},{"bike_id":"1e50f1b9-e205-414f-9a7f-d356bf198753","system_id":"levelo_inurba_marseille","lat":43.24066,"lon":5.37754,"is_reserved":false,"is_disabled":false,"rental_uris":{"android":"levelo://app?vid=1e50f1b9-e205-414f-9a7f-d356bf198753","ios":"levelo://app?vid=1e50f1b9-e205-414f-9a7f-d356bf198753"},"vehicle_type_id":"4","last_reported":1774203698,"current_range_meters":5600,"station_id":"ce4bhnp2rcd13ifvqgvg","pricing_plan_id":"cebpf4jnsgd1na2vs0mg"},{"bike_id":"c740e20c-eca7-406c-92dd-2b448718a645","system_id":"levelo_inurba_marseille","lat":43.28471,"lon":5.48393,"is_reserved":false,"is_disabled":false,"rental_uris":{"android":"levelo://app?vid=c740e20c-eca7-406c-92dd-2b448718a645","ios":"levelo://app?vid=c740e20c-eca7-406c-92dd-2b448718a645"},"vehicle_type_id":"4","last_reported":1774203698,"current_range_meters":5600,"station_id":"","pricing_plan_id":"cebpf4jnsgd1na2vs0mg"},{"bike_id":"35939b35-432f-4730-9a4d-bca4477a51c8","system_id":"levelo_inurba_marseille","lat":43.32097,"lon":5.36794,"is_reserved":false,"is_disabled":false,"rental_uris":{"android":"levelo://app?vid=35939b35-432f-4730-9a4d-bca4477a51c8","ios":"levelo://app?vid=35939b35-432f-4730-9a4d-bca4477a51c8"},"vehicle_type_id":"4","last_reported":1774203698,"current_range_meters":5600,"station_id":"ce4bhrh2rcd13ifvqhug","pricing_plan_id":"cebpf4jnsgd1na2vs0mg"},{"bike_id":"6c1ac590-511b-4ef3-b19a-055f363bbc14","system_id":"levelo_inurba_marseille","lat":43.29942,"lon":5.43698,"is_reserved":false,"is_disabled":false,"rental_uris":{"android":"levelo://app?vid=6c1ac590-511b-4ef3-b19a-055f363bbc14","ios":"levelo://app?vid=6c1ac590-511b-4ef3-b19a-055f363bbc14"},"vehicle_type_id":"4","last_reported":1774203698,"current_range_meters":5600,"station_id":"ce4bhpp2rcd13ifvqhfg","pricing_plan_id":"cebpf4jnsgd1na2vs0mg"},{"bike_id":"f7d6c650-f32c-4f32-9970-3fed07f42d78","system_id":"levelo_inurba_marseille","lat":43.27059,"lon":5.38253,"is_reserved":false,"is_disabled":false,"rental_uris":{"android":"levelo://app?vid=f7d6c650-f32c-4f32-9970-3fed07f42d78","ios":"levelo://app?vid=f7d6c650-f32c-4f32-9970-3fed07f42d78"},"vehicle_type_id":"4","last_reported":1774203698,"current_range_meters":6000,"station_id":"","pricing_plan_id":"cebpf4jnsgd1na2vs0mg"},{"bike_id":"f8cc83d7-8cfc-43c5-a95c-950d60be7ca1","system_id":"levelo_inurba_marseille","lat":43.22931,"lon":5.35375,"is_reserved":false,"is_disabled":false,"rental_uris":{"android":"levelo://app?vid=f8cc83d7-8cfc-43c5-a95c-950d60be7ca1","ios":"levelo://app?vid=f8cc83d7-8cfc-43c5-a95c-950d60be7ca1"},"vehicle_type_id":"4","last_reported":1774203698,"current_range_meters":6000,"station_id":"cpo3532slgdg3j2ikp40","pricing_plan_id":"cebpf4jnsgd1na2vs0mg"},{"bike_id":"21de157a-5e00-4554-aa09-05d9fd4473d6","system_id":"levelo_inurba_marseille","lat":43.24197,"lon":5.39754,"is_reserved":false,"is_disabled":true,"rental_uris":{"android":"levelo://app?vid=21de157a-5e00-4554-aa09-05d9fd4473d6","ios":"levelo://app?vid=21de157a-5e00-4554-aa09-05d9fd4473d6"},"vehicle_type_id":"4","last_reported":1774203698,"current_range_meters":6000,"station_id":"ce4bhn12rcd13ifvqgpg","pricing_plan_id":"cebpf4jnsgd1na2vs0mg"},{"bike_id":"b48db811-f2cf-46ea-aa62-4aa4fcd788b4","system_id":"levelo_inurba_marseille","lat":43.29892,"lon":5.43676,"is_reserved":false,"is_disabled":false,"rental_uris":{"android":"levelo://app?vid=b48db811-f2cf-46ea-aa62-4aa4fcd788b4","ios":"levelo://app?vid=b48db811-f2cf-46ea-aa62-4aa4fcd788b4"},"vehicle_type_id":"4","last_reported":1774203698,"current_range_meters":6000,"station_id":"ce4bhpp2rcd13ifvqhfg","pricing_plan_id":"cebpf4jnsgd1na2vs0mg"},{"bike_id":"70c5a287-a70f-44bc-92f3-6b13c87893a7","system_id":"levelo_inurba_marseille","lat":43.265035,"lon":5.39535,"is_reserved":false,"is_disabled":false,"rental_uris":{"android":"levelo://app?vid=70c5a287-a70f-44bc-92f3-6b13c87893a7","ios":"levelo://app?vid=70c5a287-a70f-44bc-92f3-6b13c87893a7"},"vehicle_type_id":"4","last_reported":1774203698,"current_range_meters":6000,"station_id":"ce4bhi12rcd13ifvqfq0","pricing_plan_id":"cebpf4jnsgd1na2vs0mg"},{"bike_id":"c09e1bc7-aa7e-44da-a985-d803cb6b22e0","system_id":"levelo_inurba_marseille","lat":43.23165,"lon":5.43736,"is_reserved":false,"is_disabled":false,"rental_uris":{"android":"levelo://app?vid=c09e1bc7-aa7e-44da-a985-d803cb6b22e0","ios":"levelo://app?vid=c09e1bc7-aa7e-44da-a985-d803cb6b22e0"},"vehicle_type_id":"4","last_reported":1774203698,"current_range_meters":6000,"station_id":"ce4bhmp2rcd13ifvqgog","pricing_plan_id":"cebpf4jnsgd1na2vs0mg"},{"bike_id":"54493c86-a4ae-4109-bfc7-0b88e6e19cc7","system_id":"levelo_inurba_marseille","lat":43.27387,"lon":5.3626,"is_reserved":false,"is_disabled":true,"rental_uris":{"android":"levelo://app?vid=54493c86-a4ae-4109-bfc7-0b88e6e19cc7","ios":"levelo://app?vid=54493c86-a4ae-4109-bfc7-0b88e6e19cc7"},"vehicle_type_id":"4","last_reported":1774203698,"current_range_meters":6400,"station_id":"ce4bhbh2rcd13ifvqeo0","pricing_plan_id":"cebpf4jnsgd1na2vs0mg"},{"bike_id":"fa96f011-4018-42e8-98d7-f9ebe7a4e6a2","system_id":"levelo_inurba_marseille","lat":43.30512,"lon":5.36512,"is_reserved":false,"is_disabled":false,"rental_uris":{"android":"levelo://app?vid=fa96f011-4018-42e8-98d7-f9ebe7a4e6a2","ios":"levelo://app?vid=fa96f011-4018-42e8-98d7-f9ebe7a4e6a2"},"vehicle_type_id":"4","last_reported":1774203698,"current_range_meters":6400,"station_id":"ce4bgs12rcd13ifvqcag","pricing_plan_id":"cebpf4jnsgd1na2vs0mg"},{"bike_id":"c66abed4-a510-467b-9fe2-a140744c1f13","system_id":"levelo_inurba_marseille","lat":43.31533,"lon":5.38036,"is_reserved":false,"is_disabled":false,"rental_uris":{"android":"levelo://app?vid=c66abed4-a510-467b-9fe2-a140744c1f13","ios":"levelo://app?vid=c66abed4-a510-467b-9fe2-a140744c1f13"},"vehicle_type_id":"4","last_reported":1774203698,"current_range_meters":6400,"station_id":"ce4bhsp2rcd13ifvqi50","pricing_plan_id":"cebpf4jnsgd1na2vs0mg"},{"bike_id":"4c3f08d4-34c7-4e1b-9255-baed674c1087","system_id":"levelo_inurba_marseille","lat":43.24152,"lon":5.36822,"is_reserved":false,"is_disabled":false,"rental_uris":{"android":"levelo://app?vid=4c3f08d4-34c7-4e1b-9255-baed674c1087","ios":"levelo://app?vid=4c3f08d4-34c7-4e1b-9255-baed674c1087"},"vehicle_type_id":"4","last_reported":1774203698,"current_range_meters":6400,"station_id":"","pricing_plan_id":"cebpf4jnsgd1na2vs0mg"},{"bike_id":"8827da7c-4553-4e45-8b96-33f6c2699a52","system_id":"levelo_inurba_marseille","lat":43.21738,"lon":5.34629,"is_reserved":false,"is_disabled":true,"rental_uris":{"android":"levelo://app?vid=8827da7c-4553-4e45-8b96-33f6c2699a52","ios":"levelo://app?vid=8827da7c-4553-4e45-8b96-33f6c2699a52"},"vehicle_type_id":"4","last_reported":1774203698,"current_range_meters":6400,"station_id":"st_cvj6r9ubvosntc0bgbag","pricing_plan_id":"cebpf4jnsgd1na2vs0mg"},{"bike_id":"ef8cd562-295e-4308-aa28-51ee95bd4f8d","system_id":"levelo_inurba_marseille","lat":43.2815,"lon":5.42654,"is_reserved":false,"is_disabled":false,"rental_uris":{"android":"levelo://app?vid=ef8cd562-295e-4308-aa28-51ee95bd4f8d","ios":"levelo://app?vid=ef8cd562-295e-4308-aa28-51ee95bd4f8d"},"vehicle_type_id":"4","last_reported":1774203698,"current_range_meters":6800,"station_id":"ce4bhnh2rcd13ifvqgug","pricing_plan_id":"cebpf4jnsgd1na2vs0mg"},{"bike_id":"b6bd7335-6c6d-461c-80a2-97a8664a80f6","system_id":"levelo_inurba_marseille","lat":43.28394,"lon":5.37518,"is_reserved":false,"is_disabled":false,"rental_uris":{"android":"levelo://app?vid=b6bd7335-6c6d-461c-80a2-97a8664a80f6","ios":"levelo://app?vid=b6bd7335-6c6d-461c-80a2-97a8664a80f6"},"vehicle_type_id":"4","last_reported":1774203698,"current_range_meters":6800,"station_id":"ce4bh412rcd13ifvqds0","pricing_plan_id":"cebpf4jnsgd1na2vs0mg"},{"bike_id":"cc696a92-d35f-424c-9e4d-00cc096b60f0","system_id":"levelo_inurba_marseille","lat":43.24153,"lon":5.36431,"is_reserved":false,"is_disabled":false,"rental_uris":{"android":"levelo://app?vid=cc696a92-d35f-424c-9e4d-00cc096b60f0","ios":"levelo://app?vid=cc696a92-d35f-424c-9e4d-00cc096b60f0"},"vehicle_type_id":"4","last_reported":1774203698,"current_range_meters":6800,"station_id":"cpo36qri1sfpv3e86is0","pricing_plan_id":"cebpf4jnsgd1na2vs0mg"},{"bike_id":"3550e99e-f350-41a3-bade-20a326426d8b","system_id":"levelo_inurba_marseille","lat":43.2439,"lon":5.37078,"is_reserved":false,"is_disabled":false,"rental_uris":{"android":"levelo://app?vid=3550e99e-f350-41a3-bade-20a326426d8b","ios":"levelo://app?vid=3550e99e-f350-41a3-bade-20a326426d8b"},"vehicle_type_id":"4","last_reported":1774203698,"current_range_meters":6800,"station_id":"ce4bhhh2rcd13ifvqfk0","pricing_plan_id":"cebpf4jnsgd1na2vs0mg"},{"bike_id":"8401c78f-dd98-40d3-a78c-b44db4992f67","system_id":"levelo_inurba_marseille","lat":43.31198,"lon":5.37688,"is_reserved":false,"is_disabled":false,"rental_uris":{"android":"levelo://app?vid=8401c78f-dd98-40d3-a78c-b44db4992f67","ios":"levelo://app?vid=8401c78f-dd98-40d3-a78c-b44db4992f67"},"vehicle_type_id":"4","last_reported":1774203698,"current_range_meters":6800,"station_id":"","pricing_plan_id":"cebpf4jnsgd1na2vs0mg"},{"bike_id":"4be772b0-70fb-4565-a7a2-840a9845edba","system_id":"levelo_inurba_marseille","lat":43.32568,"lon":5.37473,"is_reserved":false,"is_disabled":false,"rental_uris":{"android":"levelo://app?vid=4be772b0-70fb-4565-a7a2-840a9845edba","ios":"levelo://app?vid=4be772b0-70fb-4565-a7a2-840a9845edba"},"vehicle_type_id":"4","last_reported":1774203698,"current_range_meters":6800,"station_id":"","pricing_plan_id":"cebpf4jnsgd1na2vs0mg"},{"bike_id":"fcfa3e4d-7cf3-4d27-bd73-136b9ec1b8ca","system_id":"levelo_inurba_marseille","lat":43.25001,"lon":5.38861,"is_reserved":false,"is_disabled":true,"rental_uris":{"android":"levelo://app?vid=fcfa3e4d-7cf3-4d27-bd73-136b9ec1b8ca","ios":"levelo://app?vid=fcfa3e4d-7cf3-4d27-bd73-136b9ec1b8ca"},"vehicle_type_id":"4","last_reported":1774203698,"current_range_meters":6800,"station_id":"ce4bhgp2rcd13ifvqfd0","pricing_plan_id":"cebpf4jnsgd1na2vs0mg"},{"bike_id":"c6b8c288-7f12-44f1-b184-782c8c64e9d9","system_id":"levelo_inurba_marseille","lat":43.30917,"lon":5.36841,"is_reserved":false,"is_disabled":false,"rental_uris":{"android":"levelo://app?vid=c6b8c288-7f12-44f1-b184-782c8c64e9d9","ios":"levelo://app?vid=c6b8c288-7f12-44f1-b184-782c8c64e9d9"},"vehicle_type_id":"4","last_reported":1774203698,"current_range_meters":6800,"station_id":"ce4bgn92rcd13ifvqbvg","pricing_plan_id":"cebpf4jnsgd1na2vs0mg"},{"bike_id":"c0e712b0-8e3d-4fec-a262-a832fe71beaa","system_id":"levelo_inurba_marseille","lat":43.25574,"lon":5.38233,"is_reserved":false,"is_disabled":false,"rental_uris":{"android":"levelo://app?vid=c0e712b0-8e3d-4fec-a262-a832fe71beaa","ios":"levelo://app?vid=c0e712b0-8e3d-4fec-a262-a832fe71beaa"},"vehicle_type_id":"4","last_reported":1774203698,"current_range_meters":6800,"station_id":"ce4bhih2rcd13ifvqfs0","pricing_plan_id":"cebpf4jnsgd1na2vs0mg"},{"bike_id":"8c1814e1-f0e1-4fcb-ac9d-4531a8839e86","system_id":"levelo_inurba_marseille","lat":43.28358,"lon":5.38635,"is_reserved":false,"is_disabled":false,"rental_uris":{"android":"levelo://app?vid=8c1814e1-f0e1-4fcb-ac9d-4531a8839e86","ios":"levelo://app?vid=8c1814e1-f0e1-4fcb-ac9d-4531a8839e86"},"vehicle_type_id":"4","last_reported":1774203698,"current_range_meters":6800,"station_id":"ce4bh492rcd13ifvqdvg","pricing_plan_id":"cebpf4jnsgd1na2vs0mg"},{"bike_id":"b41ba9fd-1286-49b2-bb79-3ecc772ffeae","system_id":"levelo_inurba_marseille","lat":43.3209,"lon":5.3676,"is_reserved":false,"is_disabled":false,"rental_uris":{"android":"levelo://app?vid=b41ba9fd-1286-49b2-bb79-3ecc772ffeae","ios":"levelo://app?vid=b41ba9fd-1286-49b2-bb79-3ecc772ffeae"},"vehicle_type_id":"4","last_reported":1774203698,"current_range_meters":6800,"station_id":"ce4bhrh2rcd13ifvqhug","pricing_plan_id":"cebpf4jnsgd1na2vs0mg"},{"bike_id":"4dbcbb21-40ca-4c05-9c4d-91c43c42066a","system_id":"levelo_inurba_marseille","lat":43.26923,"lon":5.42045,"is_reserved":false,"is_disabled":false,"rental_uris":{"android":"levelo://app?vid=4dbcbb21-40ca-4c05-9c4d-91c43c42066a","ios":"levelo://app?vid=4dbcbb21-40ca-4c05-9c4d-91c43c42066a"},"vehicle_type_id":"4","last_reported":1774203698,"current_range_meters":6800,"station_id":"","pricing_plan_id":"cebpf4jnsgd1na2vs0mg"},{"bike_id":"e3699109-3a59-4cd1-ab4b-39daca2be7bd","system_id":"levelo_inurba_marseille","lat":43.27037,"lon":5.40216,"is_reserved":false,"is_disabled":false,"rental_uris":{"android":"levelo://app?vid=e3699109-3a59-4cd1-ab4b-39daca2be7bd","ios":"levelo://app?vid=e3699109-3a59-4cd1-ab4b-39daca2be7bd"},"vehicle_type_id":"4","last_reported":1774203698,"current_range_meters":6800,"station_id":"ce4bhk92rcd13ifvqgc0","pricing_plan_id":"cebpf4jnsgd1na2vs0mg"},{"bike_id":"d40eaa64-a3b8-4e26-8b08-a6febafe1391","system_id":"levelo_inurba_marseille","lat":43.29769,"lon":5.37082,"is_reserved":false,"is_disabled":false,"rental_uris":{"android":"levelo://app?vid=d40eaa64-a3b8-4e26-8b08-a6febafe1391","ios":"levelo://app?vid=d40eaa64-a3b8-4e26-8b08-a6febafe1391"},"vehicle_type_id":"4","last_reported":1774203698,"current_range_meters":7200,"station_id":"ce4bgop2rcd13ifvqc1g","pricing_plan_id":"cebpf4jnsgd1na2vs0mg"},{"bike_id":"348b028b-7113-4df9-8c29-432c15b7b280","system_id":"levelo_inurba_marseille","lat":43.23966,"lon":5.36645,"is_reserved":false,"is_disabled":true,"rental_uris":{"android":"levelo://app?vid=348b028b-7113-4df9-8c29-432c15b7b280","ios":"levelo://app?vid=348b028b-7113-4df9-8c29-432c15b7b280"},"vehicle_type_id":"4","last_reported":1774203698,"current_range_meters":7200,"station_id":"ce4bhi12rcd13ifvqfp0","pricing_plan_id":"cebpf4jnsgd1na2vs0mg"},{"bike_id":"1182e6ca-0fa4-4bde-b010-4b71c852ea66","system_id":"levelo_inurba_marseille","lat":43.24164,"lon":5.36401,"is_reserved":false,"is_disabled":false,"rental_uris":{"android":"levelo://app?vid=1182e6ca-0fa4-4bde-b010-4b71c852ea66","ios":"levelo://app?vid=1182e6ca-0fa4-4bde-b010-4b71c852ea66"},"vehicle_type_id":"4","last_reported":1774203698,"current_range_meters":7200,"station_id":"cpo36qri1sfpv3e86is0","pricing_plan_id":"cebpf4jnsgd1na2vs0mg"},{"bike_id":"1251245c-8245-4039-a13b-eaa939230dc3","system_id":"levelo_inurba_marseille","lat":43.24987,"lon":5.38867,"is_reserved":false,"is_disabled":false,"rental_uris":{"android":"levelo://app?vid=1251245c-8245-4039-a13b-eaa939230dc3","ios":"levelo://app?vid=1251245c-8245-4039-a13b-eaa939230dc3"},"vehicle_type_id":"4","last_reported":1774203698,"current_range_meters":7200,"station_id":"ce4bhgp2rcd13ifvqfd0","pricing_plan_id":"cebpf4jnsgd1na2vs0mg"},{"bike_id":"97794810-20fe-43bd-9187-99d26a82b19b","system_id":"levelo_inurba_marseille","lat":43.30326,"lon":5.36912,"is_reserved":false,"is_disabled":false,"rental_uris":{"android":"levelo://app?vid=97794810-20fe-43bd-9187-99d26a82b19b","ios":"levelo://app?vid=97794810-20fe-43bd-9187-99d26a82b19b"},"vehicle_type_id":"4","last_reported":1774203698,"current_range_meters":7200,"station_id":"ce4bgqh2rcd13ifvqc5g","pricing_plan_id":"cebpf4jnsgd1na2vs0mg"},{"bike_id":"b8282293-9e5d-44c0-961a-c4ad312c5b39","system_id":"levelo_inurba_marseille","lat":43.28487,"lon":5.48389,"is_reserved":false,"is_disabled":false,"rental_uris":{"android":"levelo://app?vid=b8282293-9e5d-44c0-961a-c4ad312c5b39","ios":"levelo://app?vid=b8282293-9e5d-44c0-961a-c4ad312c5b39"},"vehicle_type_id":"4","last_reported":1774203698,"current_range_meters":7200,"station_id":"","pricing_plan_id":"cebpf4jnsgd1na2vs0mg"},{"bike_id":"200607fc-f11f-46dc-8b89-af52ca46c8ee","system_id":"levelo_inurba_marseille","lat":43.27334,"lon":5.39114,"is_reserved":false,"is_disabled":false,"rental_uris":{"android":"levelo://app?vid=200607fc-f11f-46dc-8b89-af52ca46c8ee","ios":"levelo://app?vid=200607fc-f11f-46dc-8b89-af52ca46c8ee"},"vehicle_type_id":"4","last_reported":1774203698,"current_range_meters":7200,"station_id":"ce4bhgp2rcd13ifvqfe0","pricing_plan_id":"cebpf4jnsgd1na2vs0mg"},{"bike_id":"8294aced-9d8f-401e-9e74-4555a1438aad","system_id":"levelo_inurba_marseille","lat":43.31579,"lon":5.44541,"is_reserved":false,"is_disabled":false,"rental_uris":{"android":"levelo://app?vid=8294aced-9d8f-401e-9e74-4555a1438aad","ios":"levelo://app?vid=8294aced-9d8f-401e-9e74-4555a1438aad"},"vehicle_type_id":"4","last_reported":1774203698,"current_range_meters":7200,"station_id":"","pricing_plan_id":"cebpf4jnsgd1na2vs0mg"},{"bike_id":"727a7cec-c0a4-42ee-b13e-1092ce84e6ac","system_id":"levelo_inurba_marseille","lat":43.25514,"lon":5.37652,"is_reserved":false,"is_disabled":true,"rental_uris":{"android":"levelo://app?vid=727a7cec-c0a4-42ee-b13e-1092ce84e6ac","ios":"levelo://app?vid=727a7cec-c0a4-42ee-b13e-1092ce84e6ac"},"vehicle_type_id":"4","last_reported":1774203698,"current_range_meters":7200,"station_id":"ce4bhh12rcd13ifvqff0","pricing_plan_id":"cebpf4jnsgd1na2vs0mg"},{"bike_id":"c2532941-191e-4086-9727-be0e60ffa4a0","system_id":"levelo_inurba_marseille","lat":43.29774,"lon":5.3854,"is_reserved":false,"is_disabled":false,"rental_uris":{"android":"levelo://app?vid=c2532941-191e-4086-9727-be0e60ffa4a0","ios":"levelo://app?vid=c2532941-191e-4086-9727-be0e60ffa4a0"},"vehicle_type_id":"4","last_reported":1774203698,"current_range_meters":7200,"station_id":"","pricing_plan_id":"cebpf4jnsgd1na2vs0mg"},{"bike_id":"f96bde85-a339-4230-82a2-c4ad2a4ce08a","system_id":"levelo_inurba_marseille","lat":43.29018,"lon":5.38646,"is_reserved":false,"is_disabled":false,"rental_uris":{"android":"levelo://app?vid=f96bde85-a339-4230-82a2-c4ad2a4ce08a","ios":"levelo://app?vid=f96bde85-a339-4230-82a2-c4ad2a4ce08a"},"vehicle_type_id":"4","last_reported":1774203698,"current_range_meters":7200,"station_id":"ce4bh4p2rcd13ifvqe0g","pricing_plan_id":"cebpf4jnsgd1na2vs0mg"},{"bike_id":"f26777d8-0f01-44de-9269-0f3ce35bb267","system_id":"levelo_inurba_marseille","lat":43.31313,"lon":5.36857,"is_reserved":false,"is_disabled":false,"rental_uris":{"android":"levelo://app?vid=f26777d8-0f01-44de-9269-0f3ce35bb267","ios":"levelo://app?vid=f26777d8-0f01-44de-9269-0f3ce35bb267"},"vehicle_type_id":"4","last_reported":1774203698,"current_range_meters":7200,"station_id":"","pricing_plan_id":"cebpf4jnsgd1na2vs0mg"},{"bike_id":"ecfaeba0-eb3e-4890-8290-078f45c79c6a","system_id":"levelo_inurba_marseille","lat":43.29725,"lon":5.36421,"is_reserved":false,"is_disabled":false,"rental_uris":{"android":"levelo://app?vid=ecfaeba0-eb3e-4890-8290-078f45c79c6a","ios":"levelo://app?vid=ecfaeba0-eb3e-4890-8290-078f45c79c6a"},"vehicle_type_id":"4","last_reported":1774203698,"current_range_meters":7200,"station_id":"","pricing_plan_id":"cebpf4jnsgd1na2vs0mg"},{"bike_id":"5a901877-c7bc-49e7-9cf1-458737e21c89","system_id":"levelo_inurba_marseille","lat":43.25091,"lon":5.41235,"is_reserved":false,"is_disabled":false,"rental_uris":{"android":"levelo://app?vid=5a901877-c7bc-49e7-9cf1-458737e21c89","ios":"levelo://app?vid=5a901877-c7bc-49e7-9cf1-458737e21c89"},"vehicle_type_id":"4","last_reported":1774203698,"current_range_meters":7200,"station_id":"","pricing_plan_id":"cebpf4jnsgd1na2vs0mg"},{"bike_id":"76e3202f-50fd-4567-8d90-9ecb0c2a894c","system_id":"levelo_inurba_marseille","lat":43.30136,"lon":5.43136,"is_reserved":false,"is_disabled":false,"rental_uris":{"android":"levelo://app?vid=76e3202f-50fd-4567-8d90-9ecb0c2a894c","ios":"levelo://app?vid=76e3202f-50fd-4567-8d90-9ecb0c2a894c"},"vehicle_type_id":"4","last_reported":1774203698,"current_range_meters":7200,"station_id":"st_d3js3co5814s73ftftug","pricing_plan_id":"cebpf4jnsgd1na2vs0mg"},{"bike_id":"2551d31a-32a0-4e34-9548-cb8a3c919e9e","system_id":"levelo_inurba_marseille","lat":43.29599,"lon":5.37514,"is_reserved":false,"is_disabled":false,"rental_uris":{"android":"levelo://app?vid=2551d31a-32a0-4e34-9548-cb8a3c919e9e","ios":"levelo://app?vid=2551d31a-32a0-4e34-9548-cb8a3c919e9e"},"vehicle_type_id":"4","last_reported":1774203698,"current_range_meters":8000,"station_id":"ce4bgh92rcd13ifvqb50","pricing_plan_id":"cebpf4jnsgd1na2vs0mg"},{"bike_id":"76b26924-278b-4413-bc71-94244ae001aa","system_id":"levelo_inurba_marseille","lat":43.31707,"lon":5.40475,"is_reserved":false,"is_disabled":false,"rental_uris":{"android":"levelo://app?vid=76b26924-278b-4413-bc71-94244ae001aa","ios":"levelo://app?vid=76b26924-278b-4413-bc71-94244ae001aa"},"vehicle_type_id":"4","last_reported":1774203698,"current_range_meters":8000,"station_id":"ce4bh012rcd13ifvqd00","pricing_plan_id":"cebpf4jnsgd1na2vs0mg"},{"bike_id":"91164465-ec9b-48c0-81c7-43b516f7e846","system_id":"levelo_inurba_marseille","lat":43.30406,"lon":5.3683,"is_reserved":false,"is_disabled":false,"rental_uris":{"android":"levelo://app?vid=91164465-ec9b-48c0-81c7-43b516f7e846","ios":"levelo://app?vid=91164465-ec9b-48c0-81c7-43b516f7e846"},"vehicle_type_id":"4","last_reported":1774203698,"current_range_meters":8000,"station_id":"","pricing_plan_id":"cebpf4jnsgd1na2vs0mg"},{"bike_id":"492ae306-1625-47fa-bc1f-db162bff558f","system_id":"levelo_inurba_marseille","lat":43.2456,"lon":5.39545,"is_reserved":false,"is_disabled":false,"rental_uris":{"android":"levelo://app?vid=492ae306-1625-47fa-bc1f-db162bff558f","ios":"levelo://app?vid=492ae306-1625-47fa-bc1f-db162bff558f"},"vehicle_type_id":"4","last_reported":1774203698,"current_range_meters":8000,"station_id":"ce4bhlp2rcd13ifvqgjg","pricing_plan_id":"cebpf4jnsgd1na2vs0mg"},{"bike_id":"cc777a7e-f3d4-4026-819d-66c6f1a5d2b6","system_id":"levelo_inurba_marseille","lat":43.28896,"lon":5.43344,"is_reserved":false,"is_disabled":false,"rental_uris":{"android":"levelo://app?vid=cc777a7e-f3d4-4026-819d-66c6f1a5d2b6","ios":"levelo://app?vid=cc777a7e-f3d4-4026-819d-66c6f1a5d2b6"},"vehicle_type_id":"4","last_reported":1774203698,"current_range_meters":8000,"station_id":"","pricing_plan_id":"cebpf4jnsgd1na2vs0mg"},{"bike_id":"f31af7da-bcce-4b34-9ba7-f01b9da1af25","system_id":"levelo_inurba_marseille","lat":43.24635,"lon":5.43496,"is_reserved":false,"is_disabled":true,"rental_uris":{"android":"levelo://app?vid=f31af7da-bcce-4b34-9ba7-f01b9da1af25","ios":"levelo://app?vid=f31af7da-bcce-4b34-9ba7-f01b9da1af25"},"vehicle_type_id":"4","last_reported":1774203698,"current_range_meters":8000,"station_id":"","pricing_plan_id":"cebpf4jnsgd1na2vs0mg"},{"bike_id":"bb014a77-b4dd-49b3-80b4-21c6e7b2c2fe","system_id":"levelo_inurba_marseille","lat":43.27323,"lon":5.39095,"is_reserved":false,"is_disabled":true,"rental_uris":{"android":"levelo://app?vid=bb014a77-b4dd-49b3-80b4-21c6e7b2c2fe","ios":"levelo://app?vid=bb014a77-b4dd-49b3-80b4-21c6e7b2c2fe"},"vehicle_type_id":"4","last_reported":1774203698,"current_range_meters":8000,"station_id":"ce4bhgp2rcd13ifvqfe0","pricing_plan_id":"cebpf4jnsgd1na2vs0mg"},{"bike_id":"a1614e97-0fde-4b88-a19f-d517decb1f27","system_id":"levelo_inurba_marseille","lat":43.32101,"lon":5.36796,"is_reserved":false,"is_disabled":false,"rental_uris":{"android":"levelo://app?vid=a1614e97-0fde-4b88-a19f-d517decb1f27","ios":"levelo://app?vid=a1614e97-0fde-4b88-a19f-d517decb1f27"},"vehicle_type_id":"4","last_reported":1774203698,"current_range_meters":8000,"station_id":"ce4bhrh2rcd13ifvqhug","pricing_plan_id":"cebpf4jnsgd1na2vs0mg"},{"bike_id":"b8410fca-d45e-4e86-9df3-76f4501bf0b4","system_id":"levelo_inurba_marseille","lat":43.2693,"lon":5.38926,"is_reserved":false,"is_disabled":false,"rental_uris":{"android":"levelo://app?vid=b8410fca-d45e-4e86-9df3-76f4501bf0b4","ios":"levelo://app?vid=b8410fca-d45e-4e86-9df3-76f4501bf0b4"},"vehicle_type_id":"4","last_reported":1774203698,"current_range_meters":8000,"station_id":"ce4bhhh2rcd13ifvqfl0","pricing_plan_id":"cebpf4jnsgd1na2vs0mg"},{"bike_id":"0273712f-17e9-48aa-9e69-0ac0ce214834","system_id":"levelo_inurba_marseille","lat":43.25337,"lon":5.42173,"is_reserved":false,"is_disabled":false,"rental_uris":{"android":"levelo://app?vid=0273712f-17e9-48aa-9e69-0ac0ce214834","ios":"levelo://app?vid=0273712f-17e9-48aa-9e69-0ac0ce214834"},"vehicle_type_id":"4","last_reported":1774203698,"current_range_meters":8000,"station_id":"st_d2m65c5bi1j21697t3ng","pricing_plan_id":"cebpf4jnsgd1na2vs0mg"},{"bike_id":"f26513af-706d-43cc-956c-9102569421f3","system_id":"levelo_inurba_marseille","lat":43.24646,"lon":5.39295,"is_reserved":false,"is_disabled":false,"rental_uris":{"android":"levelo://app?vid=f26513af-706d-43cc-956c-9102569421f3","ios":"levelo://app?vid=f26513af-706d-43cc-956c-9102569421f3"},"vehicle_type_id":"4","last_reported":1774203698,"current_range_meters":8000,"station_id":"","pricing_plan_id":"cebpf4jnsgd1na2vs0mg"},{"bike_id":"cf960eae-b383-41a4-a5f7-d4e246ad8ace","system_id":"levelo_inurba_marseille","lat":43.30602,"lon":5.37225,"is_reserved":false,"is_disabled":false,"rental_uris":{"android":"levelo://app?vid=cf960eae-b383-41a4-a5f7-d4e246ad8ace","ios":"levelo://app?vid=cf960eae-b383-41a4-a5f7-d4e246ad8ace"},"vehicle_type_id":"4","last_reported":1774203698,"current_range_meters":8000,"station_id":"ce4bgqh2rcd13ifvqc4g","pricing_plan_id":"cebpf4jnsgd1na2vs0mg"},{"bike_id":"c8bce134-97c4-4426-b939-85d1b3b365e4","system_id":"levelo_inurba_marseille","lat":43.29257,"lon":5.40907,"is_reserved":false,"is_disabled":false,"rental_uris":{"android":"levelo://app?vid=c8bce134-97c4-4426-b939-85d1b3b365e4","ios":"levelo://app?vid=c8bce134-97c4-4426-b939-85d1b3b365e4"},"vehicle_type_id":"4","last_reported":1774203698,"current_range_meters":8000,"station_id":"ce4bh192rcd13ifvqdc0","pricing_plan_id":"cebpf4jnsgd1na2vs0mg"},{"bike_id":"e29fa5ae-14c6-4a72-a28a-f5d7dff9bf28","system_id":"levelo_inurba_marseille","lat":43.32908,"lon":5.36718,"is_reserved":false,"is_disabled":false,"rental_uris":{"android":"levelo://app?vid=e29fa5ae-14c6-4a72-a28a-f5d7dff9bf28","ios":"levelo://app?vid=e29fa5ae-14c6-4a72-a28a-f5d7dff9bf28"},"vehicle_type_id":"4","last_reported":1774203698,"current_range_meters":8000,"station_id":"","pricing_plan_id":"cebpf4jnsgd1na2vs0mg"},{"bike_id":"73a3b26e-3a6d-4e68-b7f8-014d26b23e9a","system_id":"levelo_inurba_marseille","lat":43.31076,"lon":5.37947,"is_reserved":false,"is_disabled":false,"rental_uris":{"android":"levelo://app?vid=73a3b26e-3a6d-4e68-b7f8-014d26b23e9a","ios":"levelo://app?vid=73a3b26e-3a6d-4e68-b7f8-014d26b23e9a"},"vehicle_type_id":"4","last_reported":1774203698,"current_range_meters":8400,"station_id":"","pricing_plan_id":"cebpf4jnsgd1na2vs0mg"},{"bike_id":"59f675c7-3300-4b5c-9b6c-736612a162ac","system_id":"levelo_inurba_marseille","lat":43.31309,"lon":5.39591,"is_reserved":false,"is_disabled":false,"rental_uris":{"android":"levelo://app?vid=59f675c7-3300-4b5c-9b6c-736612a162ac","ios":"levelo://app?vid=59f675c7-3300-4b5c-9b6c-736612a162ac"},"vehicle_type_id":"4","last_reported":1774203698,"current_range_meters":8400,"station_id":"","pricing_plan_id":"cebpf4jnsgd1na2vs0mg"},{"bike_id":"5135b388-2c36-4537-be3f-d4aaec9eb489","system_id":"levelo_inurba_marseille","lat":43.3203,"lon":5.41552,"is_reserved":false,"is_disabled":true,"rental_uris":{"android":"levelo://app?vid=5135b388-2c36-4537-be3f-d4aaec9eb489","ios":"levelo://app?vid=5135b388-2c36-4537-be3f-d4aaec9eb489"},"vehicle_type_id":"4","last_reported":1774203698,"current_range_meters":8400,"station_id":"ce4bhq92rcd13ifvqhkg","pricing_plan_id":"cebpf4jnsgd1na2vs0mg"},{"bike_id":"d622df9c-0116-4dd6-8329-3f4c54268dbe","system_id":"levelo_inurba_marseille","lat":43.30126,"lon":5.37371,"is_reserved":false,"is_disabled":false,"rental_uris":{"android":"levelo://app?vid=d622df9c-0116-4dd6-8329-3f4c54268dbe","ios":"levelo://app?vid=d622df9c-0116-4dd6-8329-3f4c54268dbe"},"vehicle_type_id":"4","last_reported":1774203698,"current_range_meters":8400,"station_id":"ce4bgs92rcd13ifvqcc0","pricing_plan_id":"cebpf4jnsgd1na2vs0mg"},{"bike_id":"be27c081-d6c0-4feb-a587-965600a5f4f7","system_id":"levelo_inurba_marseille","lat":43.26371,"lon":5.41053,"is_reserved":false,"is_disabled":false,"rental_uris":{"android":"levelo://app?vid=be27c081-d6c0-4feb-a587-965600a5f4f7","ios":"levelo://app?vid=be27c081-d6c0-4feb-a587-965600a5f4f7"},"vehicle_type_id":"4","last_reported":1774203698,"current_range_meters":8400,"station_id":"st_d4e5ca6na9uc73bfl5fg","pricing_plan_id":"cebpf4jnsgd1na2vs0mg"},{"bike_id":"bf370da2-9793-4874-9a08-205575cb1266","system_id":"levelo_inurba_marseille","lat":43.29568,"lon":5.375,"is_reserved":false,"is_disabled":false,"rental_uris":{"android":"levelo://app?vid=bf370da2-9793-4874-9a08-205575cb1266","ios":"levelo://app?vid=bf370da2-9793-4874-9a08-205575cb1266"},"vehicle_type_id":"4","last_reported":1774203698,"current_range_meters":8400,"station_id":"ce4bgh92rcd13ifvqb50","pricing_plan_id":"cebpf4jnsgd1na2vs0mg"},{"bike_id":"4696be1a-03ad-459b-acfa-2ea1b934be2f","system_id":"levelo_inurba_marseille","lat":43.29277,"lon":5.40898,"is_reserved":false,"is_disabled":false,"rental_uris":{"android":"levelo://app?vid=4696be1a-03ad-459b-acfa-2ea1b934be2f","ios":"levelo://app?vid=4696be1a-03ad-459b-acfa-2ea1b934be2f"},"vehicle_type_id":"4","last_reported":1774203698,"current_range_meters":8400,"station_id":"ce4bh192rcd13ifvqdc0","pricing_plan_id":"cebpf4jnsgd1na2vs0mg"},{"bike_id":"85c514cb-454c-4c3c-919e-18f556ee4402","system_id":"levelo_inurba_marseille","lat":43.27324,"lon":5.39102,"is_reserved":false,"is_disabled":false,"rental_uris":{"android":"levelo://app?vid=85c514cb-454c-4c3c-919e-18f556ee4402","ios":"levelo://app?vid=85c514cb-454c-4c3c-919e-18f556ee4402"},"vehicle_type_id":"4","last_reported":1774203698,"current_range_meters":8400,"station_id":"ce4bhgp2rcd13ifvqfe0","pricing_plan_id":"cebpf4jnsgd1na2vs0mg"},{"bike_id":"f5b1bf37-a40a-4077-9517-d73ee9a0168a","system_id":"levelo_inurba_marseille","lat":43.29602,"lon":5.38084,"is_reserved":false,"is_disabled":false,"rental_uris":{"android":"levelo://app?vid=f5b1bf37-a40a-4077-9517-d73ee9a0168a","ios":"levelo://app?vid=f5b1bf37-a40a-4077-9517-d73ee9a0168a"},"vehicle_type_id":"4","last_reported":1774203698,"current_range_meters":8400,"station_id":"ce4bgl12rcd13ifvqbo0","pricing_plan_id":"cebpf4jnsgd1na2vs0mg"},{"bike_id":"0dc294e0-1f73-46fa-89e8-0f67671a83c2","system_id":"levelo_inurba_marseille","lat":43.29156,"lon":5.37168,"is_reserved":false,"is_disabled":true,"rental_uris":{"android":"levelo://app?vid=0dc294e0-1f73-46fa-89e8-0f67671a83c2","ios":"levelo://app?vid=0dc294e0-1f73-46fa-89e8-0f67671a83c2"},"vehicle_type_id":"4","last_reported":1774203698,"current_range_meters":8400,"station_id":"ce4bha92rcd13ifvqeh0","pricing_plan_id":"cebpf4jnsgd1na2vs0mg"},{"bike_id":"0d51ac66-90c2-4072-839e-168f5ef50c8f","system_id":"levelo_inurba_marseille","lat":43.305483,"lon":5.367317,"is_reserved":false,"is_disabled":false,"rental_uris":{"android":"levelo://app?vid=0d51ac66-90c2-4072-839e-168f5ef50c8f","ios":"levelo://app?vid=0d51ac66-90c2-4072-839e-168f5ef50c8f"},"vehicle_type_id":"4","last_reported":1774203698,"current_range_meters":8400,"station_id":"st_d4a7ka997mjs738ck50g","pricing_plan_id":"cebpf4jnsgd1na2vs0mg"},{"bike_id":"c03da482-e2ed-41d5-80c0-7a38ccc4b681","system_id":"levelo_inurba_marseille","lat":43.29547,"lon":5.38556,"is_reserved":false,"is_disabled":false,"rental_uris":{"android":"levelo://app?vid=c03da482-e2ed-41d5-80c0-7a38ccc4b681","ios":"levelo://app?vid=c03da482-e2ed-41d5-80c0-7a38ccc4b681"},"vehicle_type_id":"4","last_reported":1774203698,"current_range_meters":8800,"station_id":"ce4bgih2rcd13ifvqba0","pricing_plan_id":"cebpf4jnsgd1na2vs0mg"},{"bike_id":"1b90cb8f-5376-4467-8f30-7080f04519ef","system_id":"levelo_inurba_marseille","lat":43.23898,"lon":5.37543,"is_reserved":false,"is_disabled":true,"rental_uris":{"android":"levelo://app?vid=1b90cb8f-5376-4467-8f30-7080f04519ef","ios":"levelo://app?vid=1b90cb8f-5376-4467-8f30-7080f04519ef"},"vehicle_type_id":"4","last_reported":1774203698,"current_range_meters":8800,"station_id":"","pricing_plan_id":"cebpf4jnsgd1na2vs0mg"},{"bike_id":"d928d6a0-ac04-4448-bd38-9d352511fe30","system_id":"levelo_inurba_marseille","lat":43.25335,"lon":5.42166,"is_reserved":false,"is_disabled":false,"rental_uris":{"android":"levelo://app?vid=d928d6a0-ac04-4448-bd38-9d352511fe30","ios":"levelo://app?vid=d928d6a0-ac04-4448-bd38-9d352511fe30"},"vehicle_type_id":"4","last_reported":1774203698,"current_range_meters":8800,"station_id":"st_d2m65c5bi1j21697t3ng","pricing_plan_id":"cebpf4jnsgd1na2vs0mg"},{"bike_id":"61efe9a0-0d5c-4060-b440-e1c6f3374585","system_id":"levelo_inurba_marseille","lat":43.28482,"lon":5.48393,"is_reserved":false,"is_disabled":true,"rental_uris":{"android":"levelo://app?vid=61efe9a0-0d5c-4060-b440-e1c6f3374585","ios":"levelo://app?vid=61efe9a0-0d5c-4060-b440-e1c6f3374585"},"vehicle_type_id":"4","last_reported":1774203698,"current_range_meters":8800,"station_id":"","pricing_plan_id":"cebpf4jnsgd1na2vs0mg"},{"bike_id":"06a55998-6b84-44ec-8fec-256dcbc64b4e","system_id":"levelo_inurba_marseille","lat":43.26943,"lon":5.40287,"is_reserved":false,"is_disabled":false,"rental_uris":{"android":"levelo://app?vid=06a55998-6b84-44ec-8fec-256dcbc64b4e","ios":"levelo://app?vid=06a55998-6b84-44ec-8fec-256dcbc64b4e"},"vehicle_type_id":"4","last_reported":1774203698,"current_range_meters":8800,"station_id":"cjm6bp8fraef2m0cb0m0","pricing_plan_id":"cebpf4jnsgd1na2vs0mg"},{"bike_id":"8fe420e0-6dec-41b2-9eea-e30417641a3b","system_id":"levelo_inurba_marseille","lat":43.23398,"lon":5.41274,"is_reserved":false,"is_disabled":false,"rental_uris":{"android":"levelo://app?vid=8fe420e0-6dec-41b2-9eea-e30417641a3b","ios":"levelo://app?vid=8fe420e0-6dec-41b2-9eea-e30417641a3b"},"vehicle_type_id":"4","last_reported":1774203698,"current_range_meters":8800,"station_id":"","pricing_plan_id":"cebpf4jnsgd1na2vs0mg"},{"bike_id":"a7450a94-8cb4-41f0-9643-4a308178b762","system_id":"levelo_inurba_marseille","lat":43.313269,"lon":5.396816,"is_reserved":false,"is_disabled":false,"rental_uris":{"android":"levelo://app?vid=a7450a94-8cb4-41f0-9643-4a308178b762","ios":"levelo://app?vid=a7450a94-8cb4-41f0-9643-4a308178b762"},"vehicle_type_id":"4","last_reported":1774203698,"current_range_meters":8800,"station_id":"ce4bgvp2rcd13ifvqcu0","pricing_plan_id":"cebpf4jnsgd1na2vs0mg"},{"bike_id":"b3a01e08-d6e3-42c8-92ba-e15566b55c57","system_id":"levelo_inurba_marseille","lat":43.25898,"lon":5.40861,"is_reserved":false,"is_disabled":true,"rental_uris":{"android":"levelo://app?vid=b3a01e08-d6e3-42c8-92ba-e15566b55c57","ios":"levelo://app?vid=b3a01e08-d6e3-42c8-92ba-e15566b55c57"},"vehicle_type_id":"4","last_reported":1774203698,"current_range_meters":8800,"station_id":"ce4bhm92rcd13ifvqglg","pricing_plan_id":"cebpf4jnsgd1na2vs0mg"},{"bike_id":"ebde9368-c67c-463e-a604-75f89826b908","system_id":"levelo_inurba_marseille","lat":43.29666,"lon":5.39816,"is_reserved":false,"is_disabled":false,"rental_uris":{"android":"levelo://app?vid=ebde9368-c67c-463e-a604-75f89826b908","ios":"levelo://app?vid=ebde9368-c67c-463e-a604-75f89826b908"},"vehicle_type_id":"4","last_reported":1774203698,"current_range_meters":8800,"station_id":"","pricing_plan_id":"cebpf4jnsgd1na2vs0mg"},{"bike_id":"cf2b5c97-ce5a-429d-a47d-e52be80a15ff","system_id":"levelo_inurba_marseille","lat":43.24665,"lon":5.40083,"is_reserved":false,"is_disabled":false,"rental_uris":{"android":"levelo://app?vid=cf2b5c97-ce5a-429d-a47d-e52be80a15ff","ios":"levelo://app?vid=cf2b5c97-ce5a-429d-a47d-e52be80a15ff"},"vehicle_type_id":"4","last_reported":1774203698,"current_range_meters":8800,"station_id":"","pricing_plan_id":"cebpf4jnsgd1na2vs0mg"},{"bike_id":"92dd9d77-4896-43b1-971c-28499a0b045d","system_id":"levelo_inurba_marseille","lat":43.2817,"lon":5.40827,"is_reserved":false,"is_disabled":false,"rental_uris":{"android":"levelo://app?vid=92dd9d77-4896-43b1-971c-28499a0b045d","ios":"levelo://app?vid=92dd9d77-4896-43b1-971c-28499a0b045d"},"vehicle_type_id":"4","last_reported":1774203698,"current_range_meters":8800,"station_id":"","pricing_plan_id":"cebpf4jnsgd1na2vs0mg"},{"bike_id":"c13a6b3c-c14e-4ecc-9460-c79bd6a0f398","system_id":"levelo_inurba_marseille","lat":43.29974,"lon":5.4131,"is_reserved":false,"is_disabled":false,"rental_uris":{"android":"levelo://app?vid=c13a6b3c-c14e-4ecc-9460-c79bd6a0f398","ios":"levelo://app?vid=c13a6b3c-c14e-4ecc-9460-c79bd6a0f398"},"vehicle_type_id":"4","last_reported":1774203698,"current_range_meters":8800,"station_id":"ce4bhp12rcd13ifvqh9g","pricing_plan_id":"cebpf4jnsgd1na2vs0mg"},{"bike_id":"3a5ba4a4-1cd4-45b4-a774-5fec89f7240f","system_id":"levelo_inurba_marseille","lat":43.28482,"lon":5.48382,"is_reserved":false,"is_disabled":false,"rental_uris":{"android":"levelo://app?vid=3a5ba4a4-1cd4-45b4-a774-5fec89f7240f","ios":"levelo://app?vid=3a5ba4a4-1cd4-45b4-a774-5fec89f7240f"},"vehicle_type_id":"4","last_reported":1774203698,"current_range_meters":8800,"station_id":"st_d3svhcjqgbts73a3dn0g","pricing_plan_id":"cebpf4jnsgd1na2vs0mg"},{"bike_id":"5b5f1570-a668-411d-a2c3-c6754b5a14df","system_id":"levelo_inurba_marseille","lat":43.31698,"lon":5.43709,"is_reserved":false,"is_disabled":false,"rental_uris":{"android":"levelo://app?vid=5b5f1570-a668-411d-a2c3-c6754b5a14df","ios":"levelo://app?vid=5b5f1570-a668-411d-a2c3-c6754b5a14df"},"vehicle_type_id":"4","last_reported":1774203698,"current_range_meters":8800,"station_id":"ce4bhp92rcd13ifvqhcg","pricing_plan_id":"cebpf4jnsgd1na2vs0mg"},{"bike_id":"7fc84e7f-16e2-4d18-8d28-12bb10ae662a","system_id":"levelo_inurba_marseille","lat":43.31464,"lon":5.44557,"is_reserved":false,"is_disabled":false,"rental_uris":{"android":"levelo://app?vid=7fc84e7f-16e2-4d18-8d28-12bb10ae662a","ios":"levelo://app?vid=7fc84e7f-16e2-4d18-8d28-12bb10ae662a"},"vehicle_type_id":"4","last_reported":1774203698,"current_range_meters":9200,"station_id":"","pricing_plan_id":"cebpf4jnsgd1na2vs0mg"},{"bike_id":"41068ca7-3036-4528-9526-26d09af62506","system_id":"levelo_inurba_marseille","lat":43.32102,"lon":5.36796,"is_reserved":false,"is_disabled":false,"rental_uris":{"android":"levelo://app?vid=41068ca7-3036-4528-9526-26d09af62506","ios":"levelo://app?vid=41068ca7-3036-4528-9526-26d09af62506"},"vehicle_type_id":"4","last_reported":1774203698,"current_range_meters":9200,"station_id":"ce4bhrh2rcd13ifvqhug","pricing_plan_id":"cebpf4jnsgd1na2vs0mg"},{"bike_id":"43e48a2e-1eed-4183-b966-b1926781d60d","system_id":"levelo_inurba_marseille","lat":43.27958,"lon":5.38755,"is_reserved":false,"is_disabled":false,"rental_uris":{"android":"levelo://app?vid=43e48a2e-1eed-4183-b966-b1926781d60d","ios":"levelo://app?vid=43e48a2e-1eed-4183-b966-b1926781d60d"},"vehicle_type_id":"4","last_reported":1774203698,"current_range_meters":9200,"station_id":"ce4bhg12rcd13ifvqf80","pricing_plan_id":"cebpf4jnsgd1na2vs0mg"},{"bike_id":"3be498d0-b77d-41d8-b080-4b1cbeb602bd","system_id":"levelo_inurba_marseille","lat":43.30564,"lon":5.38462,"is_reserved":false,"is_disabled":false,"rental_uris":{"android":"levelo://app?vid=3be498d0-b77d-41d8-b080-4b1cbeb602bd","ios":"levelo://app?vid=3be498d0-b77d-41d8-b080-4b1cbeb602bd"},"vehicle_type_id":"4","last_reported":1774203698,"current_range_meters":9200,"station_id":"","pricing_plan_id":"cebpf4jnsgd1na2vs0mg"},{"bike_id":"3f14d548-9e51-4923-8a9f-7ffc65d9c85d","system_id":"levelo_inurba_marseille","lat":43.28927,"lon":5.38392,"is_reserved":false,"is_disabled":true,"rental_uris":{"android":"levelo://app?vid=3f14d548-9e51-4923-8a9f-7ffc65d9c85d","ios":"levelo://app?vid=3f14d548-9e51-4923-8a9f-7ffc65d9c85d"},"vehicle_type_id":"4","last_reported":1774203698,"current_range_meters":9200,"station_id":"ce4bh612rcd13ifvqe6g","pricing_plan_id":"cebpf4jnsgd1na2vs0mg"},{"bike_id":"d6a92379-a83b-4d16-bc9b-01277d622909","system_id":"levelo_inurba_marseille","lat":43.32091,"lon":5.36766,"is_reserved":false,"is_disabled":false,"rental_uris":{"android":"levelo://app?vid=d6a92379-a83b-4d16-bc9b-01277d622909","ios":"levelo://app?vid=d6a92379-a83b-4d16-bc9b-01277d622909"},"vehicle_type_id":"4","last_reported":1774203698,"current_range_meters":9200,"station_id":"ce4bhrh2rcd13ifvqhug","pricing_plan_id":"cebpf4jnsgd1na2vs0mg"},{"bike_id":"b0171302-9d19-42a8-b85d-b3c8cdec90a4","system_id":"levelo_inurba_marseille","lat":43.29602,"lon":5.36765,"is_reserved":false,"is_disabled":true,"rental_uris":{"android":"levelo://app?vid=b0171302-9d19-42a8-b85d-b3c8cdec90a4","ios":"levelo://app?vid=b0171302-9d19-42a8-b85d-b3c8cdec90a4"},"vehicle_type_id":"4","last_reported":1774203698,"current_range_meters":9200,"station_id":"ce4bgph2rcd13ifvqc2g","pricing_plan_id":"cebpf4jnsgd1na2vs0mg"},{"bike_id":"269d2d70-366c-4e00-8307-4303b7d6e591","system_id":"levelo_inurba_marseille","lat":43.24662,"lon":5.41668,"is_reserved":false,"is_disabled":false,"rental_uris":{"android":"levelo://app?vid=269d2d70-366c-4e00-8307-4303b7d6e591","ios":"levelo://app?vid=269d2d70-366c-4e00-8307-4303b7d6e591"},"vehicle_type_id":"4","last_reported":1774203698,"current_range_meters":9200,"station_id":"","pricing_plan_id":"cebpf4jnsgd1na2vs0mg"},{"bike_id":"6a116e03-27be-4007-95a9-3c707554e9e1","system_id":"levelo_inurba_marseille","lat":43.25336,"lon":5.4219,"is_reserved":false,"is_disabled":true,"rental_uris":{"android":"levelo://app?vid=6a116e03-27be-4007-95a9-3c707554e9e1","ios":"levelo://app?vid=6a116e03-27be-4007-95a9-3c707554e9e1"},"vehicle_type_id":"4","last_reported":1774203698,"current_range_meters":9200,"station_id":"st_d2m65c5bi1j21697t3ng","pricing_plan_id":"cebpf4jnsgd1na2vs0mg"},{"bike_id":"dac3590a-b4b5-445b-9d2d-113c17baa295","system_id":"levelo_inurba_marseille","lat":43.25091,"lon":5.3952,"is_reserved":false,"is_disabled":true,"rental_uris":{"android":"levelo://app?vid=dac3590a-b4b5-445b-9d2d-113c17baa295","ios":"levelo://app?vid=dac3590a-b4b5-445b-9d2d-113c17baa295"},"vehicle_type_id":"4","last_reported":1774203698,"current_range_meters":9200,"station_id":"ce4bhm12rcd13ifvqgkg","pricing_plan_id":"cebpf4jnsgd1na2vs0mg"},{"bike_id":"ecd95b02-b046-43f3-a7bb-62dec3d6d8d2","system_id":"levelo_inurba_marseille","lat":43.30937,"lon":5.39015,"is_reserved":false,"is_disabled":false,"rental_uris":{"android":"levelo://app?vid=ecd95b02-b046-43f3-a7bb-62dec3d6d8d2","ios":"levelo://app?vid=ecd95b02-b046-43f3-a7bb-62dec3d6d8d2"},"vehicle_type_id":"4","last_reported":1774203698,"current_range_meters":9200,"station_id":"ce4bgup2rcd13ifvqco0","pricing_plan_id":"cebpf4jnsgd1na2vs0mg"},{"bike_id":"0b2517ff-7555-440c-8a7d-8e629f682998","system_id":"levelo_inurba_marseille","lat":43.31338,"lon":5.397,"is_reserved":false,"is_disabled":false,"rental_uris":{"android":"levelo://app?vid=0b2517ff-7555-440c-8a7d-8e629f682998","ios":"levelo://app?vid=0b2517ff-7555-440c-8a7d-8e629f682998"},"vehicle_type_id":"4","last_reported":1774203698,"current_range_meters":9200,"station_id":"ce4bgvp2rcd13ifvqcu0","pricing_plan_id":"cebpf4jnsgd1na2vs0mg"},{"bike_id":"f0388167-dcc0-435a-837c-5eb0c48f50c0","system_id":"levelo_inurba_marseille","lat":43.28702,"lon":5.46701,"is_reserved":false,"is_disabled":false,"rental_uris":{"android":"levelo://app?vid=f0388167-dcc0-435a-837c-5eb0c48f50c0","ios":"levelo://app?vid=f0388167-dcc0-435a-837c-5eb0c48f50c0"},"vehicle_type_id":"4","last_reported":1774203698,"current_range_meters":9200,"station_id":"st_d6tc3vkotcvc738tfjhg","pricing_plan_id":"cebpf4jnsgd1na2vs0mg"},{"bike_id":"4654d03d-a6a4-4eee-a061-7c2a677f6949","system_id":"levelo_inurba_marseille","lat":43.32091,"lon":5.36777,"is_reserved":false,"is_disabled":false,"rental_uris":{"android":"levelo://app?vid=4654d03d-a6a4-4eee-a061-7c2a677f6949","ios":"levelo://app?vid=4654d03d-a6a4-4eee-a061-7c2a677f6949"},"vehicle_type_id":"4","last_reported":1774203698,"current_range_meters":9200,"station_id":"ce4bhrh2rcd13ifvqhug","pricing_plan_id":"cebpf4jnsgd1na2vs0mg"},{"bike_id":"3e86872d-0403-4619-842e-1549b9470291","system_id":"levelo_inurba_marseille","lat":43.27931,"lon":5.40044,"is_reserved":false,"is_disabled":true,"rental_uris":{"android":"levelo://app?vid=3e86872d-0403-4619-842e-1549b9470291","ios":"levelo://app?vid=3e86872d-0403-4619-842e-1549b9470291"},"vehicle_type_id":"4","last_reported":1774203698,"current_range_meters":9200,"station_id":"ce4bho92rcd13ifvqh4g","pricing_plan_id":"cebpf4jnsgd1na2vs0mg"},{"bike_id":"1be3a4ec-c2ec-4fa5-b915-220eda4109f4","system_id":"levelo_inurba_marseille","lat":43.28683,"lon":5.46677,"is_reserved":false,"is_disabled":false,"rental_uris":{"android":"levelo://app?vid=1be3a4ec-c2ec-4fa5-b915-220eda4109f4","ios":"levelo://app?vid=1be3a4ec-c2ec-4fa5-b915-220eda4109f4"},"vehicle_type_id":"4","last_reported":1774203698,"current_range_meters":9600,"station_id":"st_d6tc3vkotcvc738tfjhg","pricing_plan_id":"cebpf4jnsgd1na2vs0mg"},{"bike_id":"c92fb013-f65a-4b6e-8912-580a6142357c","system_id":"levelo_inurba_marseille","lat":43.33531,"lon":5.37457,"is_reserved":false,"is_disabled":false,"rental_uris":{"android":"levelo://app?vid=c92fb013-f65a-4b6e-8912-580a6142357c","ios":"levelo://app?vid=c92fb013-f65a-4b6e-8912-580a6142357c"},"vehicle_type_id":"4","last_reported":1774203698,"current_range_meters":9600,"station_id":"st_d46tts09ee8s73dlu43g","pricing_plan_id":"cebpf4jnsgd1na2vs0mg"},{"bike_id":"69fcec7f-ac33-45cd-bce0-553de2f7ffb9","system_id":"levelo_inurba_marseille","lat":43.27054,"lon":5.40272,"is_reserved":false,"is_disabled":false,"rental_uris":{"android":"levelo://app?vid=69fcec7f-ac33-45cd-bce0-553de2f7ffb9","ios":"levelo://app?vid=69fcec7f-ac33-45cd-bce0-553de2f7ffb9"},"vehicle_type_id":"4","last_reported":1774203698,"current_range_meters":9600,"station_id":"ce4bhk92rcd13ifvqgc0","pricing_plan_id":"cebpf4jnsgd1na2vs0mg"},{"bike_id":"e75c0e5f-106c-47e2-93f8-5a002f67eaa8","system_id":"levelo_inurba_marseille","lat":43.23782,"lon":5.36626,"is_reserved":false,"is_disabled":false,"rental_uris":{"android":"levelo://app?vid=e75c0e5f-106c-47e2-93f8-5a002f67eaa8","ios":"levelo://app?vid=e75c0e5f-106c-47e2-93f8-5a002f67eaa8"},"vehicle_type_id":"4","last_reported":1774203698,"current_range_meters":9600,"station_id":"st_d3nk18o9ro0c73en2l3g","pricing_plan_id":"cebpf4jnsgd1na2vs0mg"},{"bike_id":"d3a80a49-e747-424d-b893-9532980212e2","system_id":"levelo_inurba_marseille","lat":43.29029,"lon":5.39952,"is_reserved":false,"is_disabled":false,"rental_uris":{"android":"levelo://app?vid=d3a80a49-e747-424d-b893-9532980212e2","ios":"levelo://app?vid=d3a80a49-e747-424d-b893-9532980212e2"},"vehicle_type_id":"4","last_reported":1774203698,"current_range_meters":9600,"station_id":"ce4bh392rcd13ifvqdm0","pricing_plan_id":"cebpf4jnsgd1na2vs0mg"},{"bike_id":"ad998b8e-1e0e-4522-a6b0-38e1268f96a5","system_id":"levelo_inurba_marseille","lat":43.31499,"lon":5.36698,"is_reserved":false,"is_disabled":false,"rental_uris":{"android":"levelo://app?vid=ad998b8e-1e0e-4522-a6b0-38e1268f96a5","ios":"levelo://app?vid=ad998b8e-1e0e-4522-a6b0-38e1268f96a5"},"vehicle_type_id":"4","last_reported":1774203698,"current_range_meters":9600,"station_id":"","pricing_plan_id":"cebpf4jnsgd1na2vs0mg"},{"bike_id":"2bf6e12f-3f64-49c2-9464-ec23d157a16d","system_id":"levelo_inurba_marseille","lat":43.32119,"lon":5.36748,"is_reserved":false,"is_disabled":false,"rental_uris":{"android":"levelo://app?vid=2bf6e12f-3f64-49c2-9464-ec23d157a16d","ios":"levelo://app?vid=2bf6e12f-3f64-49c2-9464-ec23d157a16d"},"vehicle_type_id":"4","last_reported":1774203698,"current_range_meters":9600,"station_id":"ce4bhrh2rcd13ifvqhug","pricing_plan_id":"cebpf4jnsgd1na2vs0mg"},{"bike_id":"3bbb2d24-3e39-4a5a-acef-2063c8f69749","system_id":"levelo_inurba_marseille","lat":43.30151,"lon":5.38806,"is_reserved":false,"is_disabled":true,"rental_uris":{"android":"levelo://app?vid=3bbb2d24-3e39-4a5a-acef-2063c8f69749","ios":"levelo://app?vid=3bbb2d24-3e39-4a5a-acef-2063c8f69749"},"vehicle_type_id":"4","last_reported":1774203698,"current_range_meters":10000,"station_id":"ce4bghh2rcd13ifvqb60","pricing_plan_id":"cebpf4jnsgd1na2vs0mg"},{"bike_id":"8b5ac345-ed06-4aa3-a02e-461c1d85a878","system_id":"levelo_inurba_marseille","lat":43.25005,"lon":5.38911,"is_reserved":false,"is_disabled":true,"rental_uris":{"android":"levelo://app?vid=8b5ac345-ed06-4aa3-a02e-461c1d85a878","ios":"levelo://app?vid=8b5ac345-ed06-4aa3-a02e-461c1d85a878"},"vehicle_type_id":"4","last_reported":1774203698,"current_range_meters":10000,"station_id":"ce4bhgp2rcd13ifvqfd0","pricing_plan_id":"cebpf4jnsgd1na2vs0mg"},{"bike_id":"59d26c1c-a626-4fe5-bb54-85a4f4e17640","system_id":"levelo_inurba_marseille","lat":43.28475,"lon":5.48393,"is_reserved":false,"is_disabled":false,"rental_uris":{"android":"levelo://app?vid=59d26c1c-a626-4fe5-bb54-85a4f4e17640","ios":"levelo://app?vid=59d26c1c-a626-4fe5-bb54-85a4f4e17640"},"vehicle_type_id":"4","last_reported":1774203698,"current_range_meters":10000,"station_id":"","pricing_plan_id":"cebpf4jnsgd1na2vs0mg"},{"bike_id":"c524ee7b-a362-41ed-9659-586e5fab1e4b","system_id":"levelo_inurba_marseille","lat":43.29589,"lon":5.39955,"is_reserved":false,"is_disabled":true,"rental_uris":{"android":"levelo://app?vid=c524ee7b-a362-41ed-9659-586e5fab1e4b","ios":"levelo://app?vid=c524ee7b-a362-41ed-9659-586e5fab1e4b"},"vehicle_type_id":"4","last_reported":1774203698,"current_range_meters":10000,"station_id":"ce4bh312rcd13ifvqdj0","pricing_plan_id":"cebpf4jnsgd1na2vs0mg"},{"bike_id":"f6b0aaa3-f85d-4911-b3c0-89e24d615d95","system_id":"levelo_inurba_marseille","lat":43.21184,"lon":5.35076,"is_reserved":false,"is_disabled":true,"rental_uris":{"android":"levelo://app?vid=f6b0aaa3-f85d-4911-b3c0-89e24d615d95","ios":"levelo://app?vid=f6b0aaa3-f85d-4911-b3c0-89e24d615d95"},"vehicle_type_id":"4","last_reported":1774203698,"current_range_meters":10000,"station_id":"st_cvj6sg6p6f1abm77japg","pricing_plan_id":"cebpf4jnsgd1na2vs0mg"},{"bike_id":"cd25e487-f139-4d00-8797-a233697c2e18","system_id":"levelo_inurba_marseille","lat":43.2836,"lon":5.38475,"is_reserved":false,"is_disabled":false,"rental_uris":{"android":"levelo://app?vid=cd25e487-f139-4d00-8797-a233697c2e18","ios":"levelo://app?vid=cd25e487-f139-4d00-8797-a233697c2e18"},"vehicle_type_id":"4","last_reported":1774203698,"current_range_meters":10000,"station_id":"","pricing_plan_id":"cebpf4jnsgd1na2vs0mg"},{"bike_id":"6a349db2-35cd-46bc-9450-f4ec403eb3e2","system_id":"levelo_inurba_marseille","lat":43.24718,"lon":5.39277,"is_reserved":false,"is_disabled":false,"rental_uris":{"android":"levelo://app?vid=6a349db2-35cd-46bc-9450-f4ec403eb3e2","ios":"levelo://app?vid=6a349db2-35cd-46bc-9450-f4ec403eb3e2"},"vehicle_type_id":"4","last_reported":1774203698,"current_range_meters":10000,"station_id":"","pricing_plan_id":"cebpf4jnsgd1na2vs0mg"},{"bike_id":"fa7f5f0d-1fd4-40b2-9523-978617503ff0","system_id":"levelo_inurba_marseille","lat":43.2669,"lon":5.38286,"is_reserved":false,"is_disabled":true,"rental_uris":{"android":"levelo://app?vid=fa7f5f0d-1fd4-40b2-9523-978617503ff0","ios":"levelo://app?vid=fa7f5f0d-1fd4-40b2-9523-978617503ff0"},"vehicle_type_id":"4","last_reported":1774203698,"current_range_meters":10000,"station_id":"ce4bhg92rcd13ifvqf90","pricing_plan_id":"cebpf4jnsgd1na2vs0mg"},{"bike_id":"06517dae-b7b9-4e7f-a9bd-9b462d98abd3","system_id":"levelo_inurba_marseille","lat":43.28036,"lon":5.36932,"is_reserved":false,"is_disabled":false,"rental_uris":{"android":"levelo://app?vid=06517dae-b7b9-4e7f-a9bd-9b462d98abd3","ios":"levelo://app?vid=06517dae-b7b9-4e7f-a9bd-9b462d98abd3"},"vehicle_type_id":"4","last_reported":1774203698,"current_range_meters":10000,"station_id":"ce4bha12rcd13ifvqef0","pricing_plan_id":"cebpf4jnsgd1na2vs0mg"},{"bike_id":"5521ae74-b716-4888-ae64-fd25b7d56914","system_id":"levelo_inurba_marseille","lat":43.29601,"lon":5.36558,"is_reserved":false,"is_disabled":false,"rental_uris":{"android":"levelo://app?vid=5521ae74-b716-4888-ae64-fd25b7d56914","ios":"levelo://app?vid=5521ae74-b716-4888-ae64-fd25b7d56914"},"vehicle_type_id":"4","last_reported":1774203698,"current_range_meters":10000,"station_id":"","pricing_plan_id":"cebpf4jnsgd1na2vs0mg"},{"bike_id":"6fb15948-a05b-43c6-8157-c719b829935b","system_id":"levelo_inurba_marseille","lat":43.31325,"lon":5.39701,"is_reserved":false,"is_disabled":false,"rental_uris":{"android":"levelo://app?vid=6fb15948-a05b-43c6-8157-c719b829935b","ios":"levelo://app?vid=6fb15948-a05b-43c6-8157-c719b829935b"},"vehicle_type_id":"4","last_reported":1774203698,"current_range_meters":10000,"station_id":"ce4bgvp2rcd13ifvqcu0","pricing_plan_id":"cebpf4jnsgd1na2vs0mg"},{"bike_id":"43e59ba5-ec46-4220-91f3-66a9acd0748a","system_id":"levelo_inurba_marseille","lat":43.23106,"lon":5.35484,"is_reserved":false,"is_disabled":false,"rental_uris":{"android":"levelo://app?vid=43e59ba5-ec46-4220-91f3-66a9acd0748a","ios":"levelo://app?vid=43e59ba5-ec46-4220-91f3-66a9acd0748a"},"vehicle_type_id":"4","last_reported":1774203698,"current_range_meters":10000,"station_id":"","pricing_plan_id":"cebpf4jnsgd1na2vs0mg"},{"bike_id":"8b87b45c-a551-4f59-a6ab-37cb4d8a790c","system_id":"levelo_inurba_marseille","lat":43.29979,"lon":5.38506,"is_reserved":false,"is_disabled":true,"rental_uris":{"android":"levelo://app?vid=8b87b45c-a551-4f59-a6ab-37cb4d8a790c","ios":"levelo://app?vid=8b87b45c-a551-4f59-a6ab-37cb4d8a790c"},"vehicle_type_id":"4","last_reported":1774203698,"current_range_meters":10800,"station_id":"ce4bgj92rcd13ifvqbd0","pricing_plan_id":"cebpf4jnsgd1na2vs0mg"},{"bike_id":"bf581493-29ec-48b7-b37c-57c9f28ff16c","system_id":"levelo_inurba_marseille","lat":43.28965,"lon":5.38933,"is_reserved":false,"is_disabled":false,"rental_uris":{"android":"levelo://app?vid=bf581493-29ec-48b7-b37c-57c9f28ff16c","ios":"levelo://app?vid=bf581493-29ec-48b7-b37c-57c9f28ff16c"},"vehicle_type_id":"4","last_reported":1774203698,"current_range_meters":10800,"station_id":"","pricing_plan_id":"cebpf4jnsgd1na2vs0mg"},{"bike_id":"94b186d1-2ae3-49b4-8152-d41fc2565b52","system_id":"levelo_inurba_marseille","lat":43.29257,"lon":5.40912,"is_reserved":false,"is_disabled":false,"rental_uris":{"android":"levelo://app?vid=94b186d1-2ae3-49b4-8152-d41fc2565b52","ios":"levelo://app?vid=94b186d1-2ae3-49b4-8152-d41fc2565b52"},"vehicle_type_id":"4","last_reported":1774203698,"current_range_meters":10800,"station_id":"ce4bh192rcd13ifvqdc0","pricing_plan_id":"cebpf4jnsgd1na2vs0mg"},{"bike_id":"9bd3f79a-0719-4c3f-b3c7-8051544625c1","system_id":"levelo_inurba_marseille","lat":43.2656,"lon":5.39025,"is_reserved":false,"is_disabled":true,"rental_uris":{"android":"levelo://app?vid=9bd3f79a-0719-4c3f-b3c7-8051544625c1","ios":"levelo://app?vid=9bd3f79a-0719-4c3f-b3c7-8051544625c1"},"vehicle_type_id":"4","last_reported":1774203698,"current_range_meters":10800,"station_id":"ce4bhe12rcd13ifvqf30","pricing_plan_id":"cebpf4jnsgd1na2vs0mg"},{"bike_id":"2622af1f-a585-4008-a4bd-47a1884ef2be","system_id":"levelo_inurba_marseille","lat":43.29959,"lon":5.41327,"is_reserved":false,"is_disabled":false,"rental_uris":{"android":"levelo://app?vid=2622af1f-a585-4008-a4bd-47a1884ef2be","ios":"levelo://app?vid=2622af1f-a585-4008-a4bd-47a1884ef2be"},"vehicle_type_id":"4","last_reported":1774203698,"current_range_meters":10800,"station_id":"ce4bhp12rcd13ifvqh9g","pricing_plan_id":"cebpf4jnsgd1na2vs0mg"},{"bike_id":"5980dbab-554a-48e7-a3ff-8a95f21d019e","system_id":"levelo_inurba_marseille","lat":43.32108,"lon":5.3678,"is_reserved":false,"is_disabled":false,"rental_uris":{"android":"levelo://app?vid=5980dbab-554a-48e7-a3ff-8a95f21d019e","ios":"levelo://app?vid=5980dbab-554a-48e7-a3ff-8a95f21d019e"},"vehicle_type_id":"4","last_reported":1774203698,"current_range_meters":10800,"station_id":"ce4bhrh2rcd13ifvqhug","pricing_plan_id":"cebpf4jnsgd1na2vs0mg"},{"bike_id":"4fbd7bdc-310e-4946-a8b8-c5e070fba8f4","system_id":"levelo_inurba_marseille","lat":43.29001,"lon":5.37823,"is_reserved":false,"is_disabled":true,"rental_uris":{"android":"levelo://app?vid=4fbd7bdc-310e-4946-a8b8-c5e070fba8f4","ios":"levelo://app?vid=4fbd7bdc-310e-4946-a8b8-c5e070fba8f4"},"vehicle_type_id":"4","last_reported":1774203698,"current_range_meters":10800,"station_id":"ce4bh9p2rcd13ifvqed0","pricing_plan_id":"cebpf4jnsgd1na2vs0mg"},{"bike_id":"1f22c2b4-0678-4e30-93dc-50e38b5c86f6","system_id":"levelo_inurba_marseille","lat":43.29537,"lon":5.37521,"is_reserved":false,"is_disabled":false,"rental_uris":{"android":"levelo://app?vid=1f22c2b4-0678-4e30-93dc-50e38b5c86f6","ios":"levelo://app?vid=1f22c2b4-0678-4e30-93dc-50e38b5c86f6"},"vehicle_type_id":"4","last_reported":1774203698,"current_range_meters":10800,"station_id":"ce4bgkp2rcd13ifvqbmg","pricing_plan_id":"cebpf4jnsgd1na2vs0mg"},{"bike_id":"920a5d76-d9d6-49d0-86b2-e6efeb8b0a42","system_id":"levelo_inurba_marseille","lat":43.29218,"lon":5.42579,"is_reserved":false,"is_disabled":false,"rental_uris":{"android":"levelo://app?vid=920a5d76-d9d6-49d0-86b2-e6efeb8b0a42","ios":"levelo://app?vid=920a5d76-d9d6-49d0-86b2-e6efeb8b0a42"},"vehicle_type_id":"4","last_reported":1774203698,"current_range_meters":10800,"station_id":"","pricing_plan_id":"cebpf4jnsgd1na2vs0mg"},{"bike_id":"bd496750-bf55-4130-86b6-b9df6421f735","system_id":"levelo_inurba_marseille","lat":43.31351,"lon":5.38421,"is_reserved":false,"is_disabled":false,"rental_uris":{"android":"levelo://app?vid=bd496750-bf55-4130-86b6-b9df6421f735","ios":"levelo://app?vid=bd496750-bf55-4130-86b6-b9df6421f735"},"vehicle_type_id":"4","last_reported":1774203698,"current_range_meters":10800,"station_id":"","pricing_plan_id":"cebpf4jnsgd1na2vs0mg"},{"bike_id":"d377b73d-4e75-43ee-9583-ed7feed69c46","system_id":"levelo_inurba_marseille","lat":43.31184,"lon":5.3683,"is_reserved":false,"is_disabled":false,"rental_uris":{"android":"levelo://app?vid=d377b73d-4e75-43ee-9583-ed7feed69c46","ios":"levelo://app?vid=d377b73d-4e75-43ee-9583-ed7feed69c46"},"vehicle_type_id":"4","last_reported":1774203698,"current_range_meters":10800,"station_id":"ce4bgl92rcd13ifvqbq0","pricing_plan_id":"cebpf4jnsgd1na2vs0mg"},{"bike_id":"728c189a-ecd8-46ef-aadc-354c1c8ed43b","system_id":"levelo_inurba_marseille","lat":43.27665,"lon":5.38939,"is_reserved":false,"is_disabled":false,"rental_uris":{"android":"levelo://app?vid=728c189a-ecd8-46ef-aadc-354c1c8ed43b","ios":"levelo://app?vid=728c189a-ecd8-46ef-aadc-354c1c8ed43b"},"vehicle_type_id":"4","last_reported":1774203698,"current_range_meters":10800,"station_id":"ce4bhi12rcd13ifvqfo0","pricing_plan_id":"cebpf4jnsgd1na2vs0mg"},{"bike_id":"1f73e3f0-028e-4314-bf46-885c2e89ab17","system_id":"levelo_inurba_marseille","lat":43.3116,"lon":5.37807,"is_reserved":false,"is_disabled":true,"rental_uris":{"android":"levelo://app?vid=1f73e3f0-028e-4314-bf46-885c2e89ab17","ios":"levelo://app?vid=1f73e3f0-028e-4314-bf46-885c2e89ab17"},"vehicle_type_id":"4","last_reported":1774203698,"current_range_meters":11200,"station_id":"","pricing_plan_id":"cebpf4jnsgd1na2vs0mg"},{"bike_id":"8ed2d08c-6f1e-4605-a456-b1343be89941","system_id":"levelo_inurba_marseille","lat":43.25833,"lon":5.39432,"is_reserved":false,"is_disabled":true,"rental_uris":{"android":"levelo://app?vid=8ed2d08c-6f1e-4605-a456-b1343be89941","ios":"levelo://app?vid=8ed2d08c-6f1e-4605-a456-b1343be89941"},"vehicle_type_id":"4","last_reported":1774203698,"current_range_meters":11200,"station_id":"ce4bhip2rcd13ifvqft0","pricing_plan_id":"cebpf4jnsgd1na2vs0mg"},{"bike_id":"a45161af-a88e-4f3f-942e-d2b820a4974f","system_id":"levelo_inurba_marseille","lat":43.29914,"lon":5.43663,"is_reserved":false,"is_disabled":false,"rental_uris":{"android":"levelo://app?vid=a45161af-a88e-4f3f-942e-d2b820a4974f","ios":"levelo://app?vid=a45161af-a88e-4f3f-942e-d2b820a4974f"},"vehicle_type_id":"4","last_reported":1774203698,"current_range_meters":11200,"station_id":"ce4bhpp2rcd13ifvqhfg","pricing_plan_id":"cebpf4jnsgd1na2vs0mg"},{"bike_id":"799bfa70-f302-472e-a814-a78b32f991a0","system_id":"levelo_inurba_marseille","lat":43.25817,"lon":5.39425,"is_reserved":false,"is_disabled":false,"rental_uris":{"android":"levelo://app?vid=799bfa70-f302-472e-a814-a78b32f991a0","ios":"levelo://app?vid=799bfa70-f302-472e-a814-a78b32f991a0"},"vehicle_type_id":"4","last_reported":1774203698,"current_range_meters":11200,"station_id":"ce4bhip2rcd13ifvqft0","pricing_plan_id":"cebpf4jnsgd1na2vs0mg"},{"bike_id":"f022ffb0-fd15-4849-a172-efb955c56a3d","system_id":"levelo_inurba_marseille","lat":43.28159,"lon":5.40963,"is_reserved":false,"is_disabled":false,"rental_uris":{"android":"levelo://app?vid=f022ffb0-fd15-4849-a172-efb955c56a3d","ios":"levelo://app?vid=f022ffb0-fd15-4849-a172-efb955c56a3d"},"vehicle_type_id":"4","last_reported":1774203698,"current_range_meters":11200,"station_id":"","pricing_plan_id":"cebpf4jnsgd1na2vs0mg"},{"bike_id":"3232a440-1596-4b33-a369-dd69ab7c6dfc","system_id":"levelo_inurba_marseille","lat":43.2964,"lon":5.42423,"is_reserved":false,"is_disabled":false,"rental_uris":{"android":"levelo://app?vid=3232a440-1596-4b33-a369-dd69ab7c6dfc","ios":"levelo://app?vid=3232a440-1596-4b33-a369-dd69ab7c6dfc"},"vehicle_type_id":"4","last_reported":1774203698,"current_range_meters":11200,"station_id":"","pricing_plan_id":"cebpf4jnsgd1na2vs0mg"},{"bike_id":"1c062ef6-d94c-4276-97e8-1f0e831f707c","system_id":"levelo_inurba_marseille","lat":43.24174,"lon":5.36403,"is_reserved":false,"is_disabled":false,"rental_uris":{"android":"levelo://app?vid=1c062ef6-d94c-4276-97e8-1f0e831f707c","ios":"levelo://app?vid=1c062ef6-d94c-4276-97e8-1f0e831f707c"},"vehicle_type_id":"4","last_reported":1774203698,"current_range_meters":11200,"station_id":"cpo36qri1sfpv3e86is0","pricing_plan_id":"cebpf4jnsgd1na2vs0mg"},{"bike_id":"810d1be9-b748-4a70-b470-896d0128af15","system_id":"levelo_inurba_marseille","lat":43.29263,"lon":5.40908,"is_reserved":false,"is_disabled":false,"rental_uris":{"android":"levelo://app?vid=810d1be9-b748-4a70-b470-896d0128af15","ios":"levelo://app?vid=810d1be9-b748-4a70-b470-896d0128af15"},"vehicle_type_id":"4","last_reported":1774203698,"current_range_meters":11600,"station_id":"ce4bh192rcd13ifvqdc0","pricing_plan_id":"cebpf4jnsgd1na2vs0mg"},{"bike_id":"c250d617-6f49-4534-a56b-323ec48f8483","system_id":"levelo_inurba_marseille","lat":43.29645,"lon":5.37533,"is_reserved":false,"is_disabled":false,"rental_uris":{"android":"levelo://app?vid=c250d617-6f49-4534-a56b-323ec48f8483","ios":"levelo://app?vid=c250d617-6f49-4534-a56b-323ec48f8483"},"vehicle_type_id":"4","last_reported":1774203698,"current_range_meters":11600,"station_id":"ce4bgh92rcd13ifvqb50","pricing_plan_id":"cebpf4jnsgd1na2vs0mg"},{"bike_id":"9aa8d54f-5194-4e85-898f-32ec4d39709e","system_id":"levelo_inurba_marseille","lat":43.25592,"lon":5.3827,"is_reserved":false,"is_disabled":true,"rental_uris":{"android":"levelo://app?vid=9aa8d54f-5194-4e85-898f-32ec4d39709e","ios":"levelo://app?vid=9aa8d54f-5194-4e85-898f-32ec4d39709e"},"vehicle_type_id":"4","last_reported":1774203698,"current_range_meters":11600,"station_id":"ce4bhih2rcd13ifvqfs0","pricing_plan_id":"cebpf4jnsgd1na2vs0mg"},{"bike_id":"988e1c7a-06c5-47ec-9be8-5d95053efe00","system_id":"levelo_inurba_marseille","lat":43.28531,"lon":5.44123,"is_reserved":false,"is_disabled":false,"rental_uris":{"android":"levelo://app?vid=988e1c7a-06c5-47ec-9be8-5d95053efe00","ios":"levelo://app?vid=988e1c7a-06c5-47ec-9be8-5d95053efe00"},"vehicle_type_id":"4","last_reported":1774203698,"current_range_meters":11600,"station_id":"st_d3j3df2ikq2c7380ej80","pricing_plan_id":"cebpf4jnsgd1na2vs0mg"},{"bike_id":"edb0787a-0bc8-4fcc-8382-493efa7b2a5f","system_id":"levelo_inurba_marseille","lat":43.29205,"lon":5.42586,"is_reserved":false,"is_disabled":false,"rental_uris":{"android":"levelo://app?vid=edb0787a-0bc8-4fcc-8382-493efa7b2a5f","ios":"levelo://app?vid=edb0787a-0bc8-4fcc-8382-493efa7b2a5f"},"vehicle_type_id":"4","last_reported":1774203698,"current_range_meters":11600,"station_id":"","pricing_plan_id":"cebpf4jnsgd1na2vs0mg"},{"bike_id":"04d81b9b-5e14-4afe-9f37-84056a920cda","system_id":"levelo_inurba_marseille","lat":43.29372,"lon":5.37821,"is_reserved":false,"is_disabled":false,"rental_uris":{"android":"levelo://app?vid=04d81b9b-5e14-4afe-9f37-84056a920cda","ios":"levelo://app?vid=04d81b9b-5e14-4afe-9f37-84056a920cda"},"vehicle_type_id":"4","last_reported":1774203698,"current_range_meters":11600,"station_id":"ce4bgjh2rcd13ifvqbf0","pricing_plan_id":"cebpf4jnsgd1na2vs0mg"},{"bike_id":"35f645e1-8c5a-4a54-aa65-0e928df4c46d","system_id":"levelo_inurba_marseille","lat":43.26816,"lon":5.39455,"is_reserved":false,"is_disabled":true,"rental_uris":{"android":"levelo://app?vid=35f645e1-8c5a-4a54-aa65-0e928df4c46d","ios":"levelo://app?vid=35f645e1-8c5a-4a54-aa65-0e928df4c46d"},"vehicle_type_id":"4","last_reported":1774203698,"current_range_meters":11600,"station_id":"ce4bhh12rcd13ifvqfg0","pricing_plan_id":"cebpf4jnsgd1na2vs0mg"},{"bike_id":"72dbeea7-ba8f-4303-a015-7b55503ab9a2","system_id":"levelo_inurba_marseille","lat":43.29764,"lon":5.37094,"is_reserved":false,"is_disabled":false,"rental_uris":{"android":"levelo://app?vid=72dbeea7-ba8f-4303-a015-7b55503ab9a2","ios":"levelo://app?vid=72dbeea7-ba8f-4303-a015-7b55503ab9a2"},"vehicle_type_id":"4","last_reported":1774203698,"current_range_meters":11600,"station_id":"ce4bgop2rcd13ifvqc1g","pricing_plan_id":"cebpf4jnsgd1na2vs0mg"},{"bike_id":"479f31e5-4f37-4002-b88b-cfa4374fd14f","system_id":"levelo_inurba_marseille","lat":43.302,"lon":5.366,"is_reserved":false,"is_disabled":false,"rental_uris":{"android":"levelo://app?vid=479f31e5-4f37-4002-b88b-cfa4374fd14f","ios":"levelo://app?vid=479f31e5-4f37-4002-b88b-cfa4374fd14f"},"vehicle_type_id":"4","last_reported":1774203698,"current_range_meters":11600,"station_id":"ce4bgrh2rcd13ifvqc8g","pricing_plan_id":"cebpf4jnsgd1na2vs0mg"},{"bike_id":"b9f505fc-2e00-4ec6-b16f-02065eb5caa6","system_id":"levelo_inurba_marseille","lat":43.28509,"lon":5.48447,"is_reserved":false,"is_disabled":false,"rental_uris":{"android":"levelo://app?vid=b9f505fc-2e00-4ec6-b16f-02065eb5caa6","ios":"levelo://app?vid=b9f505fc-2e00-4ec6-b16f-02065eb5caa6"},"vehicle_type_id":"4","last_reported":1774203698,"current_range_meters":12000,"station_id":"st_d3svhcjqgbts73a3dn0g","pricing_plan_id":"cebpf4jnsgd1na2vs0mg"},{"bike_id":"12ccb092-e1c6-41d4-bba9-ccfc08c2778e","system_id":"levelo_inurba_marseille","lat":43.26055,"lon":5.39398,"is_reserved":false,"is_disabled":false,"rental_uris":{"android":"levelo://app?vid=12ccb092-e1c6-41d4-bba9-ccfc08c2778e","ios":"levelo://app?vid=12ccb092-e1c6-41d4-bba9-ccfc08c2778e"},"vehicle_type_id":"4","last_reported":1774203698,"current_range_meters":12000,"station_id":"ce4bhh92rcd13ifvqfj0","pricing_plan_id":"cebpf4jnsgd1na2vs0mg"},{"bike_id":"733152fc-5672-46b8-932f-e65e9193c863","system_id":"levelo_inurba_marseille","lat":43.2795,"lon":5.43628,"is_reserved":false,"is_disabled":false,"rental_uris":{"android":"levelo://app?vid=733152fc-5672-46b8-932f-e65e9193c863","ios":"levelo://app?vid=733152fc-5672-46b8-932f-e65e9193c863"},"vehicle_type_id":"4","last_reported":1774203698,"current_range_meters":12000,"station_id":"","pricing_plan_id":"cebpf4jnsgd1na2vs0mg"},{"bike_id":"88c75268-c829-4290-81d1-d719ec4f5cda","system_id":"levelo_inurba_marseille","lat":43.28739,"lon":5.35202,"is_reserved":false,"is_disabled":false,"rental_uris":{"android":"levelo://app?vid=88c75268-c829-4290-81d1-d719ec4f5cda","ios":"levelo://app?vid=88c75268-c829-4290-81d1-d719ec4f5cda"},"vehicle_type_id":"4","last_reported":1774203698,"current_range_meters":12400,"station_id":"","pricing_plan_id":"cebpf4jnsgd1na2vs0mg"},{"bike_id":"5f1fc54f-523e-48d6-989e-ae3cde29a666","system_id":"levelo_inurba_marseille","lat":43.30302,"lon":5.36904,"is_reserved":false,"is_disabled":false,"rental_uris":{"android":"levelo://app?vid=5f1fc54f-523e-48d6-989e-ae3cde29a666","ios":"levelo://app?vid=5f1fc54f-523e-48d6-989e-ae3cde29a666"},"vehicle_type_id":"4","last_reported":1774203698,"current_range_meters":12400,"station_id":"ce4bgqh2rcd13ifvqc5g","pricing_plan_id":"cebpf4jnsgd1na2vs0mg"},{"bike_id":"21d11ad5-0050-49a2-bcc5-5cd3d309f80a","system_id":"levelo_inurba_marseille","lat":43.29264,"lon":5.40899,"is_reserved":false,"is_disabled":false,"rental_uris":{"android":"levelo://app?vid=21d11ad5-0050-49a2-bcc5-5cd3d309f80a","ios":"levelo://app?vid=21d11ad5-0050-49a2-bcc5-5cd3d309f80a"},"vehicle_type_id":"4","last_reported":1774203698,"current_range_meters":12400,"station_id":"ce4bh192rcd13ifvqdc0","pricing_plan_id":"cebpf4jnsgd1na2vs0mg"},{"bike_id":"7990660b-2620-4022-917b-310d044a5ce8","system_id":"levelo_inurba_marseille","lat":43.23856,"lon":5.3668,"is_reserved":false,"is_disabled":false,"rental_uris":{"android":"levelo://app?vid=7990660b-2620-4022-917b-310d044a5ce8","ios":"levelo://app?vid=7990660b-2620-4022-917b-310d044a5ce8"},"vehicle_type_id":"4","last_reported":1774203698,"current_range_meters":12400,"station_id":"st_d3nk18o9ro0c73en2l3g","pricing_plan_id":"cebpf4jnsgd1na2vs0mg"},{"bike_id":"f42f660a-25c0-43e5-be12-db3eb95ee8c8","system_id":"levelo_inurba_marseille","lat":43.30176,"lon":5.39919,"is_reserved":false,"is_disabled":true,"rental_uris":{"android":"levelo://app?vid=f42f660a-25c0-43e5-be12-db3eb95ee8c8","ios":"levelo://app?vid=f42f660a-25c0-43e5-be12-db3eb95ee8c8"},"vehicle_type_id":"4","last_reported":1774203698,"current_range_meters":12800,"station_id":"","pricing_plan_id":"cebpf4jnsgd1na2vs0mg"},{"bike_id":"d5655304-8323-46da-aaf3-621b7978c8b9","system_id":"levelo_inurba_marseille","lat":43.29642,"lon":5.37702,"is_reserved":false,"is_disabled":true,"rental_uris":{"android":"levelo://app?vid=d5655304-8323-46da-aaf3-621b7978c8b9","ios":"levelo://app?vid=d5655304-8323-46da-aaf3-621b7978c8b9"},"vehicle_type_id":"4","last_reported":1774203698,"current_range_meters":12800,"station_id":"ce4bgi92rcd13ifvqb90","pricing_plan_id":"cebpf4jnsgd1na2vs0mg"},{"bike_id":"d88344c2-7982-44c5-b59f-ca674532bd34","system_id":"levelo_inurba_marseille","lat":43.29952,"lon":5.36527,"is_reserved":false,"is_disabled":false,"rental_uris":{"android":"levelo://app?vid=d88344c2-7982-44c5-b59f-ca674532bd34","ios":"levelo://app?vid=d88344c2-7982-44c5-b59f-ca674532bd34"},"vehicle_type_id":"4","last_reported":1774203698,"current_range_meters":12800,"station_id":"ce4bgm92rcd13ifvqbr0","pricing_plan_id":"cebpf4jnsgd1na2vs0mg"},{"bike_id":"4b4cc377-b31c-476e-83b3-fe7b53a9f5c4","system_id":"levelo_inurba_marseille","lat":43.27991,"lon":5.41674,"is_reserved":false,"is_disabled":false,"rental_uris":{"android":"levelo://app?vid=4b4cc377-b31c-476e-83b3-fe7b53a9f5c4","ios":"levelo://app?vid=4b4cc377-b31c-476e-83b3-fe7b53a9f5c4"},"vehicle_type_id":"4","last_reported":1774203698,"current_range_meters":12800,"station_id":"ce4bho12rcd13ifvqh1g","pricing_plan_id":"cebpf4jnsgd1na2vs0mg"},{"bike_id":"6c795635-3065-492d-b935-195107d3902d","system_id":"levelo_inurba_marseille","lat":43.29556,"lon":5.4389,"is_reserved":false,"is_disabled":false,"rental_uris":{"android":"levelo://app?vid=6c795635-3065-492d-b935-195107d3902d","ios":"levelo://app?vid=6c795635-3065-492d-b935-195107d3902d"},"vehicle_type_id":"4","last_reported":1774203698,"current_range_meters":12800,"station_id":"","pricing_plan_id":"cebpf4jnsgd1na2vs0mg"},{"bike_id":"f6a7a81b-fc6a-49e3-ac57-45c5341dc6c9","system_id":"levelo_inurba_marseille","lat":43.28638,"lon":5.35088,"is_reserved":false,"is_disabled":true,"rental_uris":{"android":"levelo://app?vid=f6a7a81b-fc6a-49e3-ac57-45c5341dc6c9","ios":"levelo://app?vid=f6a7a81b-fc6a-49e3-ac57-45c5341dc6c9"},"vehicle_type_id":"4","last_reported":1774203698,"current_range_meters":12800,"station_id":"ce4bhch2rcd13ifvqeug","pricing_plan_id":"cebpf4jnsgd1na2vs0mg"},{"bike_id":"a43fe6bf-69a9-439a-b7ad-f6c908e25bd7","system_id":"levelo_inurba_marseille","lat":43.272,"lon":5.39199,"is_reserved":false,"is_disabled":true,"rental_uris":{"android":"levelo://app?vid=a43fe6bf-69a9-439a-b7ad-f6c908e25bd7","ios":"levelo://app?vid=a43fe6bf-69a9-439a-b7ad-f6c908e25bd7"},"vehicle_type_id":"4","last_reported":1774203698,"current_range_meters":12800,"station_id":"ce4bhhp2rcd13ifvqfm0","pricing_plan_id":"cebpf4jnsgd1na2vs0mg"},{"bike_id":"ed1ee25b-4a4b-4de4-b517-c24b3d22b925","system_id":"levelo_inurba_marseille","lat":43.31554,"lon":5.37305,"is_reserved":false,"is_disabled":false,"rental_uris":{"android":"levelo://app?vid=ed1ee25b-4a4b-4de4-b517-c24b3d22b925","ios":"levelo://app?vid=ed1ee25b-4a4b-4de4-b517-c24b3d22b925"},"vehicle_type_id":"4","last_reported":1774203698,"current_range_meters":12800,"station_id":"","pricing_plan_id":"cebpf4jnsgd1na2vs0mg"},{"bike_id":"291fc04c-074f-442e-97fd-1d0417718243","system_id":"levelo_inurba_marseille","lat":43.3033,"lon":5.44962,"is_reserved":false,"is_disabled":false,"rental_uris":{"android":"levelo://app?vid=291fc04c-074f-442e-97fd-1d0417718243","ios":"levelo://app?vid=291fc04c-074f-442e-97fd-1d0417718243"},"vehicle_type_id":"4","last_reported":1774203698,"current_range_meters":12800,"station_id":"","pricing_plan_id":"cebpf4jnsgd1na2vs0mg"},{"bike_id":"03d63685-421a-4a52-bce6-3e6d6958c388","system_id":"levelo_inurba_marseille","lat":43.29952,"lon":5.37187,"is_reserved":false,"is_disabled":true,"rental_uris":{"android":"levelo://app?vid=03d63685-421a-4a52-bce6-3e6d6958c388","ios":"levelo://app?vid=03d63685-421a-4a52-bce6-3e6d6958c388"},"vehicle_type_id":"4","last_reported":1774203698,"current_range_meters":13600,"station_id":"ce4bgr92rcd13ifvqc7g","pricing_plan_id":"cebpf4jnsgd1na2vs0mg"},{"bike_id":"49bc0c1d-bda9-49bc-970f-68dcd2e15322","system_id":"levelo_inurba_marseille","lat":43.29975,"lon":5.38471,"is_reserved":false,"is_disabled":true,"rental_uris":{"android":"levelo://app?vid=49bc0c1d-bda9-49bc-970f-68dcd2e15322","ios":"levelo://app?vid=49bc0c1d-bda9-49bc-970f-68dcd2e15322"},"vehicle_type_id":"4","last_reported":1774203698,"current_range_meters":13600,"station_id":"ce4bgj92rcd13ifvqbd0","pricing_plan_id":"cebpf4jnsgd1na2vs0mg"},{"bike_id":"c41a4fb8-2843-44d9-b80e-5ce9e1c2e940","system_id":"levelo_inurba_marseille","lat":43.24033,"lon":5.36224,"is_reserved":false,"is_disabled":false,"rental_uris":{"android":"levelo://app?vid=c41a4fb8-2843-44d9-b80e-5ce9e1c2e940","ios":"levelo://app?vid=c41a4fb8-2843-44d9-b80e-5ce9e1c2e940"},"vehicle_type_id":"4","last_reported":1774203698,"current_range_meters":13600,"station_id":"","pricing_plan_id":"cebpf4jnsgd1na2vs0mg"},{"bike_id":"6b00f18e-7eee-456a-ab5b-c745dbea62c1","system_id":"levelo_inurba_marseille","lat":43.32107,"lon":5.36761,"is_reserved":false,"is_disabled":false,"rental_uris":{"android":"levelo://app?vid=6b00f18e-7eee-456a-ab5b-c745dbea62c1","ios":"levelo://app?vid=6b00f18e-7eee-456a-ab5b-c745dbea62c1"},"vehicle_type_id":"4","last_reported":1774203698,"current_range_meters":13600,"station_id":"ce4bhrh2rcd13ifvqhug","pricing_plan_id":"cebpf4jnsgd1na2vs0mg"},{"bike_id":"ae973117-b80d-406a-81f8-2d830aa4fb71","system_id":"levelo_inurba_marseille","lat":43.29578,"lon":5.37505,"is_reserved":false,"is_disabled":false,"rental_uris":{"android":"levelo://app?vid=ae973117-b80d-406a-81f8-2d830aa4fb71","ios":"levelo://app?vid=ae973117-b80d-406a-81f8-2d830aa4fb71"},"vehicle_type_id":"4","last_reported":1774203698,"current_range_meters":13600,"station_id":"ce4bgh92rcd13ifvqb50","pricing_plan_id":"cebpf4jnsgd1na2vs0mg"},{"bike_id":"fb5c253a-ac07-44c0-b73c-6f41338cf90d","system_id":"levelo_inurba_marseille","lat":43.29369,"lon":5.37836,"is_reserved":false,"is_disabled":false,"rental_uris":{"android":"levelo://app?vid=fb5c253a-ac07-44c0-b73c-6f41338cf90d","ios":"levelo://app?vid=fb5c253a-ac07-44c0-b73c-6f41338cf90d"},"vehicle_type_id":"4","last_reported":1774203698,"current_range_meters":13600,"station_id":"ce4bgjh2rcd13ifvqbf0","pricing_plan_id":"cebpf4jnsgd1na2vs0mg"},{"bike_id":"b5893769-60bf-4560-a990-e4d81f88c2a2","system_id":"levelo_inurba_marseille","lat":43.30576,"lon":5.38451,"is_reserved":false,"is_disabled":true,"rental_uris":{"android":"levelo://app?vid=b5893769-60bf-4560-a990-e4d81f88c2a2","ios":"levelo://app?vid=b5893769-60bf-4560-a990-e4d81f88c2a2"},"vehicle_type_id":"4","last_reported":1774203698,"current_range_meters":14000,"station_id":"","pricing_plan_id":"cebpf4jnsgd1na2vs0mg"},{"bike_id":"740ee367-ca4e-4cc3-9251-f35d15b72cc6","system_id":"levelo_inurba_marseille","lat":43.33563,"lon":5.37472,"is_reserved":false,"is_disabled":false,"rental_uris":{"android":"levelo://app?vid=740ee367-ca4e-4cc3-9251-f35d15b72cc6","ios":"levelo://app?vid=740ee367-ca4e-4cc3-9251-f35d15b72cc6"},"vehicle_type_id":"4","last_reported":1774203698,"current_range_meters":14000,"station_id":"st_d46tts09ee8s73dlu43g","pricing_plan_id":"cebpf4jnsgd1na2vs0mg"},{"bike_id":"3e8960a8-ecc2-4a1b-be9f-7819413af594","system_id":"levelo_inurba_marseille","lat":43.27042,"lon":5.3832,"is_reserved":false,"is_disabled":false,"rental_uris":{"android":"levelo://app?vid=3e8960a8-ecc2-4a1b-be9f-7819413af594","ios":"levelo://app?vid=3e8960a8-ecc2-4a1b-be9f-7819413af594"},"vehicle_type_id":"4","last_reported":1774203698,"current_range_meters":14000,"station_id":"st_d3n2fo6cfp8s73cte1j0","pricing_plan_id":"cebpf4jnsgd1na2vs0mg"},{"bike_id":"fce3089f-a3c7-4273-9879-3aa3fd635d2b","system_id":"levelo_inurba_marseille","lat":43.28512,"lon":5.38442,"is_reserved":false,"is_disabled":false,"rental_uris":{"android":"levelo://app?vid=fce3089f-a3c7-4273-9879-3aa3fd635d2b","ios":"levelo://app?vid=fce3089f-a3c7-4273-9879-3aa3fd635d2b"},"vehicle_type_id":"4","last_reported":1774203698,"current_range_meters":14000,"station_id":"ce4bh512rcd13ifvqe3g","pricing_plan_id":"cebpf4jnsgd1na2vs0mg"},{"bike_id":"d029d612-3a50-43fe-82da-30f2196aaf6f","system_id":"levelo_inurba_marseille","lat":43.23917,"lon":5.37445,"is_reserved":false,"is_disabled":true,"rental_uris":{"android":"levelo://app?vid=d029d612-3a50-43fe-82da-30f2196aaf6f","ios":"levelo://app?vid=d029d612-3a50-43fe-82da-30f2196aaf6f"},"vehicle_type_id":"4","last_reported":1774203698,"current_range_meters":14000,"station_id":"st_d6sm7csbq4hs73f8fpjg","pricing_plan_id":"cebpf4jnsgd1na2vs0mg"},{"bike_id":"cd8845c1-7dc4-45b4-8599-55fe03229b32","system_id":"levelo_inurba_marseille","lat":43.28925,"lon":5.38908,"is_reserved":false,"is_disabled":false,"rental_uris":{"android":"levelo://app?vid=cd8845c1-7dc4-45b4-8599-55fe03229b32","ios":"levelo://app?vid=cd8845c1-7dc4-45b4-8599-55fe03229b32"},"vehicle_type_id":"4","last_reported":1774203698,"current_range_meters":14000,"station_id":"","pricing_plan_id":"cebpf4jnsgd1na2vs0mg"},{"bike_id":"fba4745a-4c8a-4704-aad5-f8cadfa349ba","system_id":"levelo_inurba_marseille","lat":43.23143,"lon":5.43728,"is_reserved":false,"is_disabled":false,"rental_uris":{"android":"levelo://app?vid=fba4745a-4c8a-4704-aad5-f8cadfa349ba","ios":"levelo://app?vid=fba4745a-4c8a-4704-aad5-f8cadfa349ba"},"vehicle_type_id":"4","last_reported":1774203698,"current_range_meters":14000,"station_id":"ce4bhmp2rcd13ifvqgog","pricing_plan_id":"cebpf4jnsgd1na2vs0mg"},