{"last_updated":1746263399,"ttl":60,"version":"2.2","data":{"bikes":[{"bike_id":"587033e8-9114-4237-990e-deafe4f5ad79","system_id":"levelo_inurba_marseille","lat":43.24255,"lon":5.37045,"is_reserved":false,"is_disabled":true,"rental_uris":{"android":"levelo://app?vid=587033e8-9114-4237-990e-deafe4f5ad79","ios":"levelo://app?vid=587033e8-9114-4237-990e-deafe4f5ad79"},"vehicle_type_id":"4","last_reported":1746263399,"current_range_meters":0,"station_id":"","pricing_plan_id":"cebpf4jnsgd1na2vs0mg"},{"bike_id":"76c1809e-b03a-4489-8d04-2161a1946c9d","system_id":"levelo_inurba_marseille","lat":43.279531,"lon":5.371796,"is_reserved":false,"is_disabled":true,"rental_uris":{"android":"levelo://app?vid=76c1809e-b03a-4489-8d04-2161a1946c9d","ios":"levelo://app?vid=76c1809e-b03a-4489-8d04-2161a1946c9d"},"vehicle_type_id":"4","last_reported":1746263399,"current_range_meters":0,"station_id":"","pricing_plan_id":"cebpf4jnsgd1na2vs0mg"},{"bike_id":"41649255-c38b-42cb-ae7f-67f2787c354c","system_id":"levelo_inurba_marseille","lat":43.23775,"lon":5.43572,"is_reserved":false,"is_disabled":true,"rental_uris":{"android":"levelo://app?vid=41649255-c38b-42cb-ae7f-67f2787c354c","ios":"levelo://app?vid=41649255-c38b-42cb-ae7f-67f2787c354c"},"vehicle_type_id":"4","last_reported":1746263399,"current_range_meters":0,"station_id":"","pricing_plan_id":"cebpf4jnsgd1na2vs0mg"},{"bike_id":"98e592b3-5fa3-4a83-b8d7-4600d55d353f","system_id":"levelo_inurba_marseille","lat":43.246335,"lon":5.436453,"is_reserved":false,"is_disabled":true,"rental_uris":{"android":"levelo://app?vid=98e592b3-5fa3-4a83-b8d7-4600d55d353f","ios":"levelo://app?vid=98e592b3-5fa3-4a83-b8d7-4600d55d353f"},"vehicle_type_id":"4","last_reported":1746263399,"current_range_meters":0,"station_id":"","pricing_plan_id":"cebpf4jnsgd1na2vs0mg"},{"bike_id":"1a83781f-7a36-4cf4-ab0b-69ec34a77d7d","system_id":"levelo_inurba_marseille","lat":43.27887,"lon":5.38282,"is_reserved":false,"is_disabled":true,"rental_uris":{"android":"levelo://app?vid=1a83781f-7a36-4cf4-ab0b-69ec34a77d7d","ios":"levelo://app?vid=1a83781f-7a36-4cf4-ab0b-69ec34a77d7d"},"vehicle_type_id":"4","last_reported":1746263399,"current_range_meters":0,"station_id":"","pricing_plan_id":"cebpf4jnsgd1na2vs0mg"},{"bike_id":"f35a4c3e-288c-46e6-a156-ce98b822e31c","system_id":"levelo_inurba_marseille","lat":43.26597,"lon":5.39399,"is_reserved":false,"is_disabled":true,"rental_uris":{"android":"levelo://app?vid=f35a4c3e-288c-46e6-a156-ce98b822e31c","ios":"levelo://app?vid=f35a4c3e-288c-46e6-a156-ce98b822e31c"},"vehicle_type_id":"4","last_reported":1746263399,"current_range_meters":0,"station_id":"","pricing_plan_id":"cebpf4jnsgd1na2vs0mg"},{"bike_id":"27c926f4-2e8c-4fe5-8d0a-ce234b43b164","system_id":"levelo_inurba_marseille","lat":43.27876,"lon":5.38808,"is_reserved":false,"is_disabled":true,"rental_uris":{"android":"levelo://app?vid=27c926f4-2e8c-4fe5-8d0a-ce234b43b164","ios":"levelo://app?vid=27c926f4-2e8c-4fe5-8d0a-ce234b43b164"},"vehicle_type_id":"4","last_reported":1746263399,"current_range_meters":0,"station_id":"","pricing_plan_id":"cebpf4jnsgd1na2vs0mg"},{"bike_id":"7f770ba9-2e48-47c9-8bb4-942855273bad","system_id":"levelo_inurba_marseille","lat":43.25323,"lon":5.42415,"is_reserved":false,"is_disabled":true,"rental_uris":{"android":"levelo://app?vid=7f770ba9-2e48-47c9-8bb4-942855273bad","ios":"levelo://app?vid=7f770ba9-2e48-47c9-8bb4-942855273bad"},"vehicle_type_id":"4","last_reported":1746263399,"current_range_meters":0,"station_id":"","pricing_plan_id":"cebpf4jnsgd1na2vs0mg"},{"bike_id":"dcf471e5-50d7-4c6d-8c76-01b9d58b8521","system_id":"levelo_inurba_marseille","lat":43.21755,"lon":5.34597,"is_reserved":false,"is_disabled":true,"rental_uris":{"android":"levelo://app?vid=dcf471e5-50d7-4c6d-8c76-01b9d58b8521","ios":"levelo://app?vid=dcf471e5-50d7-4c6d-8c76-01b9d58b8521"},"vehicle_type_id":"4","last_reported":1746263399,"current_range_meters":0,"station_id":"","pricing_plan_id":"cebpf4jnsgd1na2vs0mg"},{"bike_id":"eefa78c8-4f9d-4d38-a7d3-c880870c89cc","system_id":"levelo_inurba_marseille","lat":43.28092,"lon":5.398717,"is_reserved":false,"is_disabled":true,"rental_uris":{"android":"levelo://app?vid=eefa78c8-4f9d-4d38-a7d3-c880870c89cc","ios":"levelo://app?vid=eefa78c8-4f9d-4d38-a7d3-c880870c89cc"},"vehicle_type_id":"4","last_reported":1746263399,"current_range_meters":0,"station_id":"","pricing_plan_id":"cebpf4jnsgd1na2vs0mg"},{"bike_id":"f1838310-e644-4cc5-b131-598db146ee41","system_id":"levelo_inurba_marseille","lat":43.33733,"lon":5.37442,"is_reserved":false,"is_disabled":true,"rental_uris":{"android":"levelo://app?vid=f1838310-e644-4cc5-b131-598db146ee41","ios":"levelo://app?vid=f1838310-e644-4cc5-b131-598db146ee41"},"vehicle_type_id":"4","last_reported":1746263399,"current_range_meters":0,"station_id":"","pricing_plan_id":"cebpf4jnsgd1na2vs0mg"},{"bike_id":"e93b949e-1738-47f2-ad13-8f512df2ffaf","system_id":"levelo_inurba_marseille","lat":43.28149,"lon":5.44349,"is_reserved":false,"is_disabled":true,"rental_uris":{"android":"levelo://app?vid=e93b949e-1738-47f2-ad13-8f512df2ffaf","ios":"levelo://app?vid=e93b949e-1738-47f2-ad13-8f512df2ffaf"},"vehicle_type_id":"4","last_reported":1746263399,"current_range_meters":0,"station_id":"","pricing_plan_id":"cebpf4jnsgd1na2vs0mg"},{"bike_id":"03932771-2ef6-4c4e-b700-12b2eec42aba","system_id":"levelo_inurba_marseille","lat":43.30551,"lon":5.36539,"is_reserved":false,"is_disabled":true,"rental_uris":{"android":"levelo://app?vid=03932771-2ef6-4c4e-b700-12b2eec42aba","ios":"levelo://app?vid=03932771-2ef6-4c4e-b700-12b2eec42aba"},"vehicle_type_id":"4","last_reported":1746263399,"current_range_meters":0,"station_id":"ce4bgs12rcd13ifvqcag","pricing_plan_id":"cebpf4jnsgd1na2vs0mg"},{"bike_id":"51b41003-8348-4751-b129-7d082e325107","system_id":"levelo_inurba_marseille","lat":43.30892,"lon":5.39652,"is_reserved":false,"is_disabled":true,"rental_uris":{"android":"levelo://app?vid=51b41003-8348-4751-b129-7d082e325107","ios":"levelo://app?vid=51b41003-8348-4751-b129-7d082e325107"},"vehicle_type_id":"4","last_reported":1746263399,"current_range_meters":0,"station_id":"ce4bh012rcd13ifvqcv0","pricing_plan_id":"cebpf4jnsgd1na2vs0mg"},{"bike_id":"13b0e714-3e61-49c1-bf47-9b1565a163d2","system_id":"levelo_inurba_marseille","lat":43.27914,"lon":5.39582,"is_reserved":false,"is_disabled":true,"rental_uris":{"android":"levelo://app?vid=13b0e714-3e61-49c1-bf47-9b1565a163d2","ios":"levelo://app?vid=13b0e714-3e61-49c1-bf47-9b1565a163d2"},"vehicle_type_id":"4","last_reported":1746263399,"current_range_meters":0,"station_id":"ce4bhf92rcd13ifvqf40","pricing_plan_id":"cebpf4jnsgd1na2vs0mg"},{"bike_id":"a3282d87-fb1b-4228-a5ac-d635c8d79766","system_id":"levelo_inurba_marseille","lat":43.24398,"lon":5.37062,"is_reserved":false,"is_disabled":true,"rental_uris":{"android":"levelo://app?vid=a3282d87-fb1b-4228-a5ac-d635c8d79766","ios":"levelo://app?vid=a3282d87-fb1b-4228-a5ac-d635c8d79766"},"vehicle_type_id":"4","last_reported":1746263399,"current_range_meters":0,"station_id":"ce4bhhh2rcd13ifvqfk0","pricing_plan_id":"cebpf4jnsgd1na2vs0mg"},{"bike_id":"6f191500-dc26-4577-bb56-b85957d57936","system_id":"levelo_inurba_marseille","lat":43.24659,"lon":5.38168,"is_reserved":false,"is_disabled":true,"rental_uris":{"android":"levelo://app?vid=6f191500-dc26-4577-bb56-b85957d57936","ios":"levelo://app?vid=6f191500-dc26-4577-bb56-b85957d57936"},"vehicle_type_id":"4","last_reported":1746263399,"current_range_meters":0,"station_id":"ce4bhih2rcd13ifvqfr0","pricing_plan_id":"cebpf4jnsgd1na2vs0mg"},{"bike_id":"bb65b838-6f77-4057-bf86-bceb8e478284","system_id":"levelo_inurba_marseille","lat":43.25133,"lon":5.40309,"is_reserved":false,"is_disabled":true,"rental_uris":{"android":"levelo://app?vid=bb65b838-6f77-4057-bf86-bceb8e478284","ios":"levelo://app?vid=bb65b838-6f77-4057-bf86-bceb8e478284"},"vehicle_type_id":"4","last_reported":1746263399,"current_range_meters":0,"station_id":"ce4bhlh2rcd13ifvqgig","pricing_plan_id":"cebpf4jnsgd1na2vs0mg"},{"bike_id":"95b129d8-231b-44e8-a724-dc3041b12460","system_id":"levelo_inurba_marseille","lat":43.24183,"lon":5.39717,"is_reserved":false,"is_disabled":true,"rental_uris":{"android":"levelo://app?vid=95b129d8-231b-44e8-a724-dc3041b12460","ios":"levelo://app?vid=95b129d8-231b-44e8-a724-dc3041b12460"},"vehicle_type_id":"4","last_reported":1746263399,"current_range_meters":0,"station_id":"ce4bhn12rcd13ifvqgpg","pricing_plan_id":"cebpf4jnsgd1na2vs0mg"},{"bike_id":"8fd771d6-b815-4383-9cfd-a12a0a746d41","system_id":"levelo_inurba_marseille","lat":43.31723,"lon":5.42394,"is_reserved":false,"is_disabled":true,"rental_uris":{"android":"levelo://app?vid=8fd771d6-b815-4383-9cfd-a12a0a746d41","ios":"levelo://app?vid=8fd771d6-b815-4383-9cfd-a12a0a746d41"},"vehicle_type_id":"4","last_reported":1746263399,"current_range_meters":0,"station_id":"ce4bhp92rcd13ifvqhbg","pricing_plan_id":"cebpf4jnsgd1na2vs0mg"},{"bike_id":"42133c27-8ba5-4137-8411-ac92eac04003","system_id":"levelo_inurba_marseille","lat":43.2706,"lon":5.40262,"is_reserved":false,"is_disabled":true,"rental_uris":{"android":"levelo://app?vid=42133c27-8ba5-4137-8411-ac92eac04003","ios":"levelo://app?vid=42133c27-8ba5-4137-8411-ac92eac04003"},"vehicle_type_id":"4","last_reported":1746263399,"current_range_meters":400,"station_id":"ce4bhk92rcd13ifvqgc0","pricing_plan_id":"cebpf4jnsgd1na2vs0mg"},{"bike_id":"82823425-488a-4456-af27-76b5f2be6048","system_id":"levelo_inurba_marseille","lat":43.23182,"lon":5.39998,"is_reserved":false,"is_disabled":true,"rental_uris":{"android":"levelo://app?vid=82823425-488a-4456-af27-76b5f2be6048","ios":"levelo://app?vid=82823425-488a-4456-af27-76b5f2be6048"},"vehicle_type_id":"4","last_reported":1746263399,"current_range_meters":400,"station_id":"ce4bhn12rcd13ifvqgqg","pricing_plan_id":"cebpf4jnsgd1na2vs0mg"},{"bike_id":"c1318a00-693c-4b4d-8357-c9180d24f393","system_id":"levelo_inurba_marseille","lat":43.26551,"lon":5.37282,"is_reserved":false,"is_disabled":true,"rental_uris":{"android":"levelo://app?vid=c1318a00-693c-4b4d-8357-c9180d24f393","ios":"levelo://app?vid=c1318a00-693c-4b4d-8357-c9180d24f393"},"vehicle_type_id":"4","last_reported":1746263399,"current_range_meters":1200,"station_id":"ce4bhg12rcd13ifvqf70","pricing_plan_id":"cebpf4jnsgd1na2vs0mg"},{"bike_id":"8cb0aeec-f2e9-40fc-8119-16d6dde3aa45","system_id":"levelo_inurba_marseille","lat":43.25718,"lon":5.41112,"is_reserved":false,"is_disabled":true,"rental_uris":{"android":"levelo://app?vid=8cb0aeec-f2e9-40fc-8119-16d6dde3aa45","ios":"levelo://app?vid=8cb0aeec-f2e9-40fc-8119-16d6dde3aa45"},"vehicle_type_id":"4","last_reported":1746263399,"current_range_meters":1200,"station_id":"ce4bhkp2rcd13ifvqgd0","pricing_plan_id":"cebpf4jnsgd1na2vs0mg"},{"bike_id":"06a9efe3-b3bd-4687-9543-8a94d34394b6","system_id":"levelo_inurba_marseille","lat":43.27939,"lon":5.38708,"is_reserved":false,"is_disabled":true,"rental_uris":{"android":"levelo://app?vid=06a9efe3-b3bd-4687-9543-8a94d34394b6","ios":"levelo://app?vid=06a9efe3-b3bd-4687-9543-8a94d34394b6"},"vehicle_type_id":"4","last_reported":1746263399,"current_range_meters":1600,"station_id":"ce4bhg12rcd13ifvqf80","pricing_plan_id":"cebpf4jnsgd1na2vs0mg"},{"bike_id":"34294dd3-b27d-4ffb-860f-a93d9867f32f","system_id":"levelo_inurba_marseille","lat":43.25075,"lon":5.39523,"is_reserved":false,"is_disabled":true,"rental_uris":{"android":"levelo://app?vid=34294dd3-b27d-4ffb-860f-a93d9867f32f","ios":"levelo://app?vid=34294dd3-b27d-4ffb-860f-a93d9867f32f"},"vehicle_type_id":"4","last_reported":1746263399,"current_range_meters":2000,"station_id":"ce4bhm12rcd13ifvqgkg","pricing_plan_id":"cebpf4jnsgd1na2vs0mg"},{"bike_id":"885d5381-9902-418c-bec9-d084ccc99c30","system_id":"levelo_inurba_marseille","lat":43.24186,"lon":5.39754,"is_reserved":false,"is_disabled":true,"rental_uris":{"android":"levelo://app?vid=885d5381-9902-418c-bec9-d084ccc99c30","ios":"levelo://app?vid=885d5381-9902-418c-bec9-d084ccc99c30"},"vehicle_type_id":"4","last_reported":1746263399,"current_range_meters":2000,"station_id":"ce4bhn12rcd13ifvqgpg","pricing_plan_id":"cebpf4jnsgd1na2vs0mg"},{"bike_id":"6a488b3c-93fe-41c2-908a-82e627f40de1","system_id":"levelo_inurba_marseille","lat":43.29566,"lon":5.37508,"is_reserved":false,"is_disabled":false,"rental_uris":{"android":"levelo://app?vid=6a488b3c-93fe-41c2-908a-82e627f40de1","ios":"levelo://app?vid=6a488b3c-93fe-41c2-908a-82e627f40de1"},"vehicle_type_id":"4","last_reported":1746263399,"current_range_meters":2800,"station_id":"ce4bgh92rcd13ifvqb50","pricing_plan_id":"cebpf4jnsgd1na2vs0mg"},{"bike_id":"bacef4d1-5be8-4801-8a31-a0e048284a4f","system_id":"levelo_inurba_marseille","lat":43.31356,"lon":5.38502,"is_reserved":false,"is_disabled":false,"rental_uris":{"android":"levelo://app?vid=bacef4d1-5be8-4801-8a31-a0e048284a4f","ios":"levelo://app?vid=bacef4d1-5be8-4801-8a31-a0e048284a4f"},"vehicle_type_id":"4","last_reported":1746263399,"current_range_meters":2800,"station_id":"ce4bgt92rcd13ifvqcf0","pricing_plan_id":"cebpf4jnsgd1na2vs0mg"},{"bike_id":"5e7b378c-de26-424f-b82c-ba8003f67879","system_id":"levelo_inurba_marseille","lat":43.28925,"lon":5.38397,"is_reserved":false,"is_disabled":false,"rental_uris":{"android":"levelo://app?vid=5e7b378c-de26-424f-b82c-ba8003f67879","ios":"levelo://app?vid=5e7b378c-de26-424f-b82c-ba8003f67879"},"vehicle_type_id":"4","last_reported":1746263399,"current_range_meters":2800,"station_id":"ce4bh612rcd13ifvqe6g","pricing_plan_id":"cebpf4jnsgd1na2vs0mg"},{"bike_id":"1f693de2-4039-4fe7-a312-33be95ea043e","system_id":"levelo_inurba_marseille","lat":43.24802,"lon":5.37449,"is_reserved":false,"is_disabled":false,"rental_uris":{"android":"levelo://app?vid=1f693de2-4039-4fe7-a312-33be95ea043e","ios":"levelo://app?vid=1f693de2-4039-4fe7-a312-33be95ea043e"},"vehicle_type_id":"4","last_reported":1746263399,"current_range_meters":2800,"station_id":"ce4bhgh2rcd13ifvqfb0","pricing_plan_id":"cebpf4jnsgd1na2vs0mg"},{"bike_id":"255a15e3-8f5f-48b9-96a5-354518fa5a4b","system_id":"levelo_inurba_marseille","lat":43.27206,"lon":5.39172,"is_reserved":false,"is_disabled":false,"rental_uris":{"android":"levelo://app?vid=255a15e3-8f5f-48b9-96a5-354518fa5a4b","ios":"levelo://app?vid=255a15e3-8f5f-48b9-96a5-354518fa5a4b"},"vehicle_type_id":"4","last_reported":1746263399,"current_range_meters":3200,"station_id":"ce4bhhp2rcd13ifvqfm0","pricing_plan_id":"cebpf4jnsgd1na2vs0mg"},{"bike_id":"fb1a961d-a942-4d57-b471-468013633b9d","system_id":"levelo_inurba_marseille","lat":43.29898,"lon":5.43672,"is_reserved":false,"is_disabled":false,"rental_uris":{"android":"levelo://app?vid=fb1a961d-a942-4d57-b471-468013633b9d","ios":"levelo://app?vid=fb1a961d-a942-4d57-b471-468013633b9d"},"vehicle_type_id":"4","last_reported":1746263399,"current_range_meters":3200,"station_id":"ce4bhpp2rcd13ifvqhfg","pricing_plan_id":"cebpf4jnsgd1na2vs0mg"},{"bike_id":"56c2a0ae-09a7-4f7b-b71e-617f925a787c","system_id":"levelo_inurba_marseille","lat":43.25065,"lon":5.40427,"is_reserved":false,"is_disabled":false,"rental_uris":{"android":"levelo://app?vid=56c2a0ae-09a7-4f7b-b71e-617f925a787c","ios":"levelo://app?vid=56c2a0ae-09a7-4f7b-b71e-617f925a787c"},"vehicle_type_id":"4","last_reported":1746263399,"current_range_meters":3600,"station_id":"ce4bhlh2rcd13ifvqgig","pricing_plan_id":"cebpf4jnsgd1na2vs0mg"},{"bike_id":"2be6c5ac-db75-4c9d-95c6-9c66882f14b8","system_id":"levelo_inurba_marseille","lat":43.27902,"lon":5.36311,"is_reserved":false,"is_disabled":false,"rental_uris":{"android":"levelo://app?vid=2be6c5ac-db75-4c9d-95c6-9c66882f14b8","ios":"levelo://app?vid=2be6c5ac-db75-4c9d-95c6-9c66882f14b8"},"vehicle_type_id":"4","last_reported":1746263399,"current_range_meters":4000,"station_id":"","pricing_plan_id":"cebpf4jnsgd1na2vs0mg"},{"bike_id":"796b40bd-7406-4666-9c20-2794b8f854cb","system_id":"levelo_inurba_marseille","lat":43.2956,"lon":5.37518,"is_reserved":false,"is_disabled":false,"rental_uris":{"android":"levelo://app?vid=796b40bd-7406-4666-9c20-2794b8f854cb","ios":"levelo://app?vid=796b40bd-7406-4666-9c20-2794b8f854cb"},"vehicle_type_id":"4","last_reported":1746263399,"current_range_meters":4000,"station_id":"ce4bgh92rcd13ifvqb50","pricing_plan_id":"cebpf4jnsgd1na2vs0mg"},{"bike_id":"f73daf93-45c7-48c0-a61a-2d28ac89db8d","system_id":"levelo_inurba_marseille","lat":43.33953,"lon":5.4204,"is_reserved":false,"is_disabled":false,"rental_uris":{"android":"levelo://app?vid=f73daf93-45c7-48c0-a61a-2d28ac89db8d","ios":"levelo://app?vid=f73daf93-45c7-48c0-a61a-2d28ac89db8d"},"vehicle_type_id":"4","last_reported":1746263399,"current_range_meters":4400,"station_id":"","pricing_plan_id":"cebpf4jnsgd1na2vs0mg"},{"bike_id":"b599357e-128a-4df4-aa4f-7925801226af","system_id":"levelo_inurba_marseille","lat":43.29529,"lon":5.39039,"is_reserved":false,"is_disabled":false,"rental_uris":{"android":"levelo://app?vid=b599357e-128a-4df4-aa4f-7925801226af","ios":"levelo://app?vid=b599357e-128a-4df4-aa4f-7925801226af"},"vehicle_type_id":"4","last_reported":1746263399,"current_range_meters":4400,"station_id":"ce4bh3p2rcd13ifvqdp0","pricing_plan_id":"cebpf4jnsgd1na2vs0mg"},{"bike_id":"1d0d93bc-8925-4725-b95e-dead68dec769","system_id":"levelo_inurba_marseille","lat":43.2558,"lon":5.38236,"is_reserved":false,"is_disabled":false,"rental_uris":{"android":"levelo://app?vid=1d0d93bc-8925-4725-b95e-dead68dec769","ios":"levelo://app?vid=1d0d93bc-8925-4725-b95e-dead68dec769"},"vehicle_type_id":"4","last_reported":1746263399,"current_range_meters":4400,"station_id":"ce4bhih2rcd13ifvqfs0","pricing_plan_id":"cebpf4jnsgd1na2vs0mg"},{"bike_id":"4fcb94dd-7e2e-4c2b-a657-b8760b2238dc","system_id":"levelo_inurba_marseille","lat":43.25955,"lon":5.4091,"is_reserved":false,"is_disabled":false,"rental_uris":{"android":"levelo://app?vid=4fcb94dd-7e2e-4c2b-a657-b8760b2238dc","ios":"levelo://app?vid=4fcb94dd-7e2e-4c2b-a657-b8760b2238dc"},"vehicle_type_id":"4","last_reported":1746263399,"current_range_meters":4400,"station_id":"ce4bhm92rcd13ifvqglg","pricing_plan_id":"cebpf4jnsgd1na2vs0mg"},{"bike_id":"7971fe93-5f1d-4a59-8508-b415e64fcb18","system_id":"levelo_inurba_marseille","lat":43.30944,"lon":5.37362,"is_reserved":false,"is_disabled":false,"rental_uris":{"android":"levelo://app?vid=7971fe93-5f1d-4a59-8508-b415e64fcb18","ios":"levelo://app?vid=7971fe93-5f1d-4a59-8508-b415e64fcb18"},"vehicle_type_id":"4","last_reported":1746263399,"current_range_meters":5600,"station_id":"","pricing_plan_id":"cebpf4jnsgd1na2vs0mg"},{"bike_id":"34d82e56-d819-45e9-ae4f-e18306b1ae62","system_id":"levelo_inurba_marseille","lat":43.335,"lon":5.41046,"is_reserved":false,"is_disabled":false,"rental_uris":{"android":"levelo://app?vid=34d82e56-d819-45e9-ae4f-e18306b1ae62","ios":"levelo://app?vid=34d82e56-d819-45e9-ae4f-e18306b1ae62"},"vehicle_type_id":"4","last_reported":1746263399,"current_range_meters":5600,"station_id":"ce4bhqh2rcd13ifvqhmg","pricing_plan_id":"cebpf4jnsgd1na2vs0mg"},{"bike_id":"0d6c5100-7db5-44d0-b9d6-cf2b96014798","system_id":"levelo_inurba_marseille","lat":43.30985,"lon":5.37491,"is_reserved":false,"is_disabled":false,"rental_uris":{"android":"levelo://app?vid=0d6c5100-7db5-44d0-b9d6-cf2b96014798","ios":"levelo://app?vid=0d6c5100-7db5-44d0-b9d6-cf2b96014798"},"vehicle_type_id":"4","last_reported":1746263399,"current_range_meters":6000,"station_id":"","pricing_plan_id":"cebpf4jnsgd1na2vs0mg"},{"bike_id":"f753f784-c383-459d-bb01-35e23d97f4eb","system_id":"levelo_inurba_marseille","lat":43.27206,"lon":5.39178,"is_reserved":false,"is_disabled":false,"rental_uris":{"android":"levelo://app?vid=f753f784-c383-459d-bb01-35e23d97f4eb","ios":"levelo://app?vid=f753f784-c383-459d-bb01-35e23d97f4eb"},"vehicle_type_id":"4","last_reported":1746263399,"current_range_meters":6000,"station_id":"ce4bhhp2rcd13ifvqfm0","pricing_plan_id":"cebpf4jnsgd1na2vs0mg"},{"bike_id":"b3640da1-194a-4267-8e87-7f1df6f7e89b","system_id":"levelo_inurba_marseille","lat":43.29513,"lon":5.39038,"is_reserved":false,"is_disabled":false,"rental_uris":{"android":"levelo://app?vid=b3640da1-194a-4267-8e87-7f1df6f7e89b","ios":"levelo://app?vid=b3640da1-194a-4267-8e87-7f1df6f7e89b"},"vehicle_type_id":"4","last_reported":1746263399,"current_range_meters":6400,"station_id":"ce4bh3p2rcd13ifvqdp0","pricing_plan_id":"cebpf4jnsgd1na2vs0mg"},{"bike_id":"d58585d6-496e-490c-aae1-51103de0e34a","system_id":"levelo_inurba_marseille","lat":43.27376,"lon":5.36262,"is_reserved":false,"is_disabled":false,"rental_uris":{"android":"levelo://app?vid=d58585d6-496e-490c-aae1-51103de0e34a","ios":"levelo://app?vid=d58585d6-496e-490c-aae1-51103de0e34a"},"vehicle_type_id":"4","last_reported":1746263399,"current_range_meters":6400,"station_id":"ce4bhbh2rcd13ifvqeo0","pricing_plan_id":"cebpf4jnsgd1na2vs0mg"},{"bike_id":"489be0ce-1d86-48f7-821e-777261b20d6f","system_id":"levelo_inurba_marseille","lat":43.26779,"lon":5.39422,"is_reserved":false,"is_disabled":false,"rental_uris":{"android":"levelo://app?vid=489be0ce-1d86-48f7-821e-777261b20d6f","ios":"levelo://app?vid=489be0ce-1d86-48f7-821e-777261b20d6f"},"vehicle_type_id":"4","last_reported":1746263399,"current_range_meters":6400,"station_id":"ce4bhh12rcd13ifvqfg0","pricing_plan_id":"cebpf4jnsgd1na2vs0mg"},{"bike_id":"602482fc-8091-4065-84d6-06980fc27863","system_id":"levelo_inurba_marseille","lat":43.30549,"lon":5.36533,"is_reserved":false,"is_disabled":false,"rental_uris":{"android":"levelo://app?vid=602482fc-8091-4065-84d6-06980fc27863","ios":"levelo://app?vid=602482fc-8091-4065-84d6-06980fc27863"},"vehicle_type_id":"4","last_reported":1746263399,"current_range_meters":6800,"station_id":"ce4bgs12rcd13ifvqcag","pricing_plan_id":"cebpf4jnsgd1na2vs0mg"},{"bike_id":"be603208-d170-4bfa-90d2-5c2e3b76d0c4","system_id":"levelo_inurba_marseille","lat":43.29513,"lon":5.39394,"is_reserved":false,"is_disabled":false,"rental_uris":{"android":"levelo://app?vid=be603208-d170-4bfa-90d2-5c2e3b76d0c4","ios":"levelo://app?vid=be603208-d170-4bfa-90d2-5c2e3b76d0c4"},"vehicle_type_id":"4","last_reported":1746263399,"current_range_meters":6800,"station_id":"ce4bh292rcd13ifvqdf0","pricing_plan_id":"cebpf4jnsgd1na2vs0mg"},{"bike_id":"f31150ca-f4e5-41a0-9e44-2e088c26b9d0","system_id":"levelo_inurba_marseille","lat":43.28031,"lon":5.3694,"is_reserved":false,"is_disabled":false,"rental_uris":{"android":"levelo://app?vid=f31150ca-f4e5-41a0-9e44-2e088c26b9d0","ios":"levelo://app?vid=f31150ca-f4e5-41a0-9e44-2e088c26b9d0"},"vehicle_type_id":"4","last_reported":1746263399,"current_range_meters":6800,"station_id":"ce4bha12rcd13ifvqef0","pricing_plan_id":"cebpf4jnsgd1na2vs0mg"},{"bike_id":"971ddfee-8968-450a-a719-65d14cf6cd74","system_id":"levelo_inurba_marseille","lat":43.29359,"lon":5.37836,"is_reserved":false,"is_disabled":false,"rental_uris":{"android":"levelo://app?vid=971ddfee-8968-450a-a719-65d14cf6cd74","ios":"levelo://app?vid=971ddfee-8968-450a-a719-65d14cf6cd74"},"vehicle_type_id":"4","last_reported":1746263399,"current_range_meters":7200,"station_id":"ce4bgjh2rcd13ifvqbf0","pricing_plan_id":"cebpf4jnsgd1na2vs0mg"},{"bike_id":"354f7438-aa30-4e53-8181-12e37a07905f","system_id":"levelo_inurba_marseille","lat":43.29673,"lon":5.37275,"is_reserved":false,"is_disabled":false,"rental_uris":{"android":"levelo://app?vid=354f7438-aa30-4e53-8181-12e37a07905f","ios":"levelo://app?vid=354f7438-aa30-4e53-8181-12e37a07905f"},"vehicle_type_id":"4","last_reported":1746263399,"current_range_meters":7200,"station_id":"ce4bgk12rcd13ifvqbj0","pricing_plan_id":"cebpf4jnsgd1na2vs0mg"},{"bike_id":"37a7029c-8fed-457c-b7d9-8e87cffd70ec","system_id":"levelo_inurba_marseille","lat":43.295311,"lon":5.390442,"is_reserved":false,"is_disabled":false,"rental_uris":{"android":"levelo://app?vid=37a7029c-8fed-457c-b7d9-8e87cffd70ec","ios":"levelo://app?vid=37a7029c-8fed-457c-b7d9-8e87cffd70ec"},"vehicle_type_id":"4","last_reported":1746263399,"current_range_meters":7200,"station_id":"ce4bh3p2rcd13ifvqdp0","pricing_plan_id":"cebpf4jnsgd1na2vs0mg"},{"bike_id":"639c38d8-2329-478f-815b-1ba6751697ef","system_id":"levelo_inurba_marseille","lat":43.24545,"lon":5.39519,"is_reserved":false,"is_disabled":false,"rental_uris":{"android":"levelo://app?vid=639c38d8-2329-478f-815b-1ba6751697ef","ios":"levelo://app?vid=639c38d8-2329-478f-815b-1ba6751697ef"},"vehicle_type_id":"4","last_reported":1746263399,"current_range_meters":7200,"station_id":"ce4bhlp2rcd13ifvqgjg","pricing_plan_id":"cebpf4jnsgd1na2vs0mg"},{"bike_id":"edc6b69e-8a7c-4069-b4b0-1f2a5bb85fde","system_id":"levelo_inurba_marseille","lat":43.30525,"lon":5.36547,"is_reserved":false,"is_disabled":false,"rental_uris":{"android":"levelo://app?vid=edc6b69e-8a7c-4069-b4b0-1f2a5bb85fde","ios":"levelo://app?vid=edc6b69e-8a7c-4069-b4b0-1f2a5bb85fde"},"vehicle_type_id":"4","last_reported":1746263399,"current_range_meters":8000,"station_id":"ce4bgs12rcd13ifvqcag","pricing_plan_id":"cebpf4jnsgd1na2vs0mg"},{"bike_id":"a7d306e5-fef2-4f07-bda8-51f0813d4a01","system_id":"levelo_inurba_marseille","lat":43.2397,"lon":5.36621,"is_reserved":false,"is_disabled":false,"rental_uris":{"android":"levelo://app?vid=a7d306e5-fef2-4f07-bda8-51f0813d4a01","ios":"levelo://app?vid=a7d306e5-fef2-4f07-bda8-51f0813d4a01"},"vehicle_type_id":"4","last_reported":1746263399,"current_range_meters":8000,"station_id":"ce4bhi12rcd13ifvqfp0","pricing_plan_id":"cebpf4jnsgd1na2vs0mg"},{"bike_id":"52653438-d935-4f61-a0a5-dc59b768eafc","system_id":"levelo_inurba_marseille","lat":43.323563,"lon":5.367578,"is_reserved":false,"is_disabled":false,"rental_uris":{"android":"levelo://app?vid=52653438-d935-4f61-a0a5-dc59b768eafc","ios":"levelo://app?vid=52653438-d935-4f61-a0a5-dc59b768eafc"},"vehicle_type_id":"4","last_reported":1746263399,"current_range_meters":8000,"station_id":"ce4bhsh2rcd13ifvqi2g","pricing_plan_id":"cebpf4jnsgd1na2vs0mg"},{"bike_id":"03f8f1a1-348f-43c1-810e-3f5bf3b4a5c6","system_id":"levelo_inurba_marseille","lat":43.24884,"lon":5.39437,"is_reserved":false,"is_disabled":false,"rental_uris":{"android":"levelo://app?vid=03f8f1a1-348f-43c1-810e-3f5bf3b4a5c6","ios":"levelo://app?vid=03f8f1a1-348f-43c1-810e-3f5bf3b4a5c6"},"vehicle_type_id":"4","last_reported":1746263399,"current_range_meters":8400,"station_id":"","pricing_plan_id":"cebpf4jnsgd1na2vs0mg"},{"bike_id":"00b1b554-8c88-4904-9e41-4e0230996a65","system_id":"levelo_inurba_marseille","lat":43.295289,"lon":5.390424,"is_reserved":false,"is_disabled":false,"rental_uris":{"android":"levelo://app?vid=00b1b554-8c88-4904-9e41-4e0230996a65","ios":"levelo://app?vid=00b1b554-8c88-4904-9e41-4e0230996a65"},"vehicle_type_id":"4","last_reported":1746263399,"current_range_meters":8400,"station_id":"ce4bh3p2rcd13ifvqdp0","pricing_plan_id":"cebpf4jnsgd1na2vs0mg"},{"bike_id":"7cb2821e-49c6-45a0-bfbd-cb5f15d3c98f","system_id":"levelo_inurba_marseille","lat":43.295309,"lon":5.390437,"is_reserved":false,"is_disabled":false,"rental_uris":{"android":"levelo://app?vid=7cb2821e-49c6-45a0-bfbd-cb5f15d3c98f","ios":"levelo://app?vid=7cb2821e-49c6-45a0-bfbd-cb5f15d3c98f"},"vehicle_type_id":"4","last_reported":1746263399,"current_range_meters":8400,"station_id":"ce4bh3p2rcd13ifvqdp0","pricing_plan_id":"cebpf4jnsgd1na2vs0mg"},{"bike_id":"3370706f-3c60-4448-9fa7-c3c667e2e849","system_id":"levelo_inurba_marseille","lat":43.235282,"lon":5.403332,"is_reserved":false,"is_disabled":false,"rental_uris":{"android":"levelo://app?vid=3370706f-3c60-4448-9fa7-c3c667e2e849","ios":"levelo://app?vid=3370706f-3c60-4448-9fa7-c3c667e2e849"},"vehicle_type_id":"4","last_reported":1746263399,"current_range_meters":8800,"station_id":"","pricing_plan_id":"cebpf4jnsgd1na2vs0mg"},{"bike_id":"67507888-b210-40bf-b465-1eb6f5bfa05f","system_id":"levelo_inurba_marseille","lat":43.30518,"lon":5.38415,"is_reserved":false,"is_disabled":false,"rental_uris":{"android":"levelo://app?vid=67507888-b210-40bf-b465-1eb6f5bfa05f","ios":"levelo://app?vid=67507888-b210-40bf-b465-1eb6f5bfa05f"},"vehicle_type_id":"4","last_reported":1746263399,"current_range_meters":8800,"station_id":"ce4bgg92rcd13ifvqb30","pricing_plan_id":"cebpf4jnsgd1na2vs0mg"},{"bike_id":"ceb7bbc0-0abe-4c68-8877-1b73485c0d71","system_id":"levelo_inurba_marseille","lat":43.273675,"lon":5.362646,"is_reserved":false,"is_disabled":false,"rental_uris":{"android":"levelo://app?vid=ceb7bbc0-0abe-4c68-8877-1b73485c0d71","ios":"levelo://app?vid=ceb7bbc0-0abe-4c68-8877-1b73485c0d71"},"vehicle_type_id":"4","last_reported":1746263399,"current_range_meters":8800,"station_id":"ce4bhbh2rcd13ifvqeo0","pricing_plan_id":"cebpf4jnsgd1na2vs0mg"},{"bike_id":"440889e7-8fcf-45b3-99cf-c618f5144df7","system_id":"levelo_inurba_marseille","lat":43.30306,"lon":5.36884,"is_reserved":false,"is_disabled":false,"rental_uris":{"android":"levelo://app?vid=440889e7-8fcf-45b3-99cf-c618f5144df7","ios":"levelo://app?vid=440889e7-8fcf-45b3-99cf-c618f5144df7"},"vehicle_type_id":"4","last_reported":1746263399,"current_range_meters":9200,"station_id":"ce4bgqh2rcd13ifvqc5g","pricing_plan_id":"cebpf4jnsgd1na2vs0mg"},{"bike_id":"375b7f1c-0fc8-406f-a128-74461b6c2b75","system_id":"levelo_inurba_marseille","lat":43.2669,"lon":5.38229,"is_reserved":false,"is_disabled":false,"rental_uris":{"android":"levelo://app?vid=375b7f1c-0fc8-406f-a128-74461b6c2b75","ios":"levelo://app?vid=375b7f1c-0fc8-406f-a128-74461b6c2b75"},"vehicle_type_id":"4","last_reported":1746263399,"current_range_meters":9200,"station_id":"ce4bhg92rcd13ifvqf90","pricing_plan_id":"cebpf4jnsgd1na2vs0mg"},{"bike_id":"313f19ff-8c45-4a02-b367-c6a7c2d5e214","system_id":"levelo_inurba_marseille","lat":43.27499,"lon":5.42475,"is_reserved":false,"is_disabled":false,"rental_uris":{"android":"levelo://app?vid=313f19ff-8c45-4a02-b367-c6a7c2d5e214","ios":"levelo://app?vid=313f19ff-8c45-4a02-b367-c6a7c2d5e214"},"vehicle_type_id":"4","last_reported":1746263399,"current_range_meters":9200,"station_id":"ce4bhn92rcd13ifvqgrg","pricing_plan_id":"cebpf4jnsgd1na2vs0mg"},{"bike_id":"7719b24a-05b9-48c9-8002-0734452df164","system_id":"levelo_inurba_marseille","lat":43.24072,"lon":5.37758,"is_reserved":false,"is_disabled":false,"rental_uris":{"android":"levelo://app?vid=7719b24a-05b9-48c9-8002-0734452df164","ios":"levelo://app?vid=7719b24a-05b9-48c9-8002-0734452df164"},"vehicle_type_id":"4","last_reported":1746263399,"current_range_meters":9200,"station_id":"ce4bhnp2rcd13ifvqgvg","pricing_plan_id":"cebpf4jnsgd1na2vs0mg"},{"bike_id":"f93d853b-ca78-4f88-b96f-c9c1053489aa","system_id":"levelo_inurba_marseille","lat":43.240671,"lon":5.377668,"is_reserved":false,"is_disabled":false,"rental_uris":{"android":"levelo://app?vid=f93d853b-ca78-4f88-b96f-c9c1053489aa","ios":"levelo://app?vid=f93d853b-ca78-4f88-b96f-c9c1053489aa"},"vehicle_type_id":"4","last_reported":1746263399,"current_range_meters":9200,"station_id":"ce4bhnp2rcd13ifvqgvg","pricing_plan_id":"cebpf4jnsgd1na2vs0mg"},{"bike_id":"4feecaba-9754-404f-bc12-97e81ba0e761","system_id":"levelo_inurba_marseille","lat":43.321086,"lon":5.367936,"is_reserved":false,"is_disabled":false,"rental_uris":{"android":"levelo://app?vid=4feecaba-9754-404f-bc12-97e81ba0e761","ios":"levelo://app?vid=4feecaba-9754-404f-bc12-97e81ba0e761"},"vehicle_type_id":"4","last_reported":1746263399,"current_range_meters":9200,"station_id":"ce4bhrh2rcd13ifvqhug","pricing_plan_id":"cebpf4jnsgd1na2vs0mg"},{"bike_id":"ad7ca592-f236-4a6d-9431-e31ab8d26c7e","system_id":"levelo_inurba_marseille","lat":43.32362,"lon":5.36779,"is_reserved":false,"is_disabled":false,"rental_uris":{"android":"levelo://app?vid=ad7ca592-f236-4a6d-9431-e31ab8d26c7e","ios":"levelo://app?vid=ad7ca592-f236-4a6d-9431-e31ab8d26c7e"},"vehicle_type_id":"4","last_reported":1746263399,"current_range_meters":9200,"station_id":"ce4bhsh2rcd13ifvqi2g","pricing_plan_id":"cebpf4jnsgd1na2vs0mg"},{"bike_id":"6d74a9f5-3f03-4e8e-aa3b-29a84082925f","system_id":"levelo_inurba_marseille","lat":43.229289,"lon":5.353795,"is_reserved":false,"is_disabled":false,"rental_uris":{"android":"levelo://app?vid=6d74a9f5-3f03-4e8e-aa3b-29a84082925f","ios":"levelo://app?vid=6d74a9f5-3f03-4e8e-aa3b-29a84082925f"},"vehicle_type_id":"4","last_reported":1746263399,"current_range_meters":9200,"station_id":"cpo3532slgdg3j2ikp40","pricing_plan_id":"cebpf4jnsgd1na2vs0mg"},{"bike_id":"e0e163c0-b70c-478b-a240-966060226969","system_id":"levelo_inurba_marseille","lat":43.29227,"lon":5.36203,"is_reserved":false,"is_disabled":false,"rental_uris":{"android":"levelo://app?vid=e0e163c0-b70c-478b-a240-966060226969","ios":"levelo://app?vid=e0e163c0-b70c-478b-a240-966060226969"},"vehicle_type_id":"4","last_reported":1746263399,"current_range_meters":9600,"station_id":"","pricing_plan_id":"cebpf4jnsgd1na2vs0mg"},{"bike_id":"95a9ef03-f985-4000-a9bf-6454963f49da","system_id":"levelo_inurba_marseille","lat":43.29524,"lon":5.38543,"is_reserved":false,"is_disabled":false,"rental_uris":{"android":"levelo://app?vid=95a9ef03-f985-4000-a9bf-6454963f49da","ios":"levelo://app?vid=95a9ef03-f985-4000-a9bf-6454963f49da"},"vehicle_type_id":"4","last_reported":1746263399,"current_range_meters":9600,"station_id":"ce4bgih2rcd13ifvqba0","pricing_plan_id":"cebpf4jnsgd1na2vs0mg"},{"bike_id":"5636aa3d-90e5-46b8-889b-ca722454f93e","system_id":"levelo_inurba_marseille","lat":43.24067,"lon":5.37757,"is_reserved":false,"is_disabled":false,"rental_uris":{"android":"levelo://app?vid=5636aa3d-90e5-46b8-889b-ca722454f93e","ios":"levelo://app?vid=5636aa3d-90e5-46b8-889b-ca722454f93e"},"vehicle_type_id":"4","last_reported":1746263399,"current_range_meters":9600,"station_id":"ce4bhnp2rcd13ifvqgvg","pricing_plan_id":"cebpf4jnsgd1na2vs0mg"},{"bike_id":"e27ce41e-d31e-4411-a762-387f29d91877","system_id":"levelo_inurba_marseille","lat":43.295582,"lon":5.422796,"is_reserved":false,"is_disabled":false,"rental_uris":{"android":"levelo://app?vid=e27ce41e-d31e-4411-a762-387f29d91877","ios":"levelo://app?vid=e27ce41e-d31e-4411-a762-387f29d91877"},"vehicle_type_id":"4","last_reported":1746263399,"current_range_meters":9600,"station_id":"ce4bhph2rcd13ifvqhdg","pricing_plan_id":"cebpf4jnsgd1na2vs0mg"},{"bike_id":"2cce8745-f47d-491d-9776-93cf9f036027","system_id":"levelo_inurba_marseille","lat":43.308066,"lon":5.435343,"is_reserved":false,"is_disabled":false,"rental_uris":{"android":"levelo://app?vid=2cce8745-f47d-491d-9776-93cf9f036027","ios":"levelo://app?vid=2cce8745-f47d-491d-9776-93cf9f036027"},"vehicle_type_id":"4","last_reported":1746263399,"current_range_meters":9600,"station_id":"ce4bhph2rcd13ifvqheg","pricing_plan_id":"cebpf4jnsgd1na2vs0mg"},{"bike_id":"570b486c-50df-4f1f-97df-caa86c0d419e","system_id":"levelo_inurba_marseille","lat":43.33713,"lon":5.35574,"is_reserved":false,"is_disabled":false,"rental_uris":{"android":"levelo://app?vid=570b486c-50df-4f1f-97df-caa86c0d419e","ios":"levelo://app?vid=570b486c-50df-4f1f-97df-caa86c0d419e"},"vehicle_type_id":"4","last_reported":1746263399,"current_range_meters":10000,"station_id":"","pricing_plan_id":"cebpf4jnsgd1na2vs0mg"},{"bike_id":"050b47e1-41b1-468c-85ff-dbdcac9cd1dd","system_id":"levelo_inurba_marseille","lat":43.29959,"lon":5.38501,"is_reserved":false,"is_disabled":false,"rental_uris":{"android":"levelo://app?vid=050b47e1-41b1-468c-85ff-dbdcac9cd1dd","ios":"levelo://app?vid=050b47e1-41b1-468c-85ff-dbdcac9cd1dd"},"vehicle_type_id":"4","last_reported":1746263399,"current_range_meters":10000,"station_id":"ce4bgj92rcd13ifvqbd0","pricing_plan_id":"cebpf4jnsgd1na2vs0mg"},{"bike_id":"69bd84df-d6fe-4bb6-a1fa-3a667ba94ef8","system_id":"levelo_inurba_marseille","lat":43.30562,"lon":5.36521,"is_reserved":false,"is_disabled":false,"rental_uris":{"android":"levelo://app?vid=69bd84df-d6fe-4bb6-a1fa-3a667ba94ef8","ios":"levelo://app?vid=69bd84df-d6fe-4bb6-a1fa-3a667ba94ef8"},"vehicle_type_id":"4","last_reported":1746263399,"current_range_meters":10000,"station_id":"ce4bgs12rcd13ifvqcag","pricing_plan_id":"cebpf4jnsgd1na2vs0mg"},{"bike_id":"3b710cb9-3791-461d-ae81-5461c1475204","system_id":"levelo_inurba_marseille","lat":43.29514,"lon":5.39047,"is_reserved":false,"is_disabled":false,"rental_uris":{"android":"levelo://app?vid=3b710cb9-3791-461d-ae81-5461c1475204","ios":"levelo://app?vid=3b710cb9-3791-461d-ae81-5461c1475204"},"vehicle_type_id":"4","last_reported":1746263399,"current_range_meters":10000,"station_id":"ce4bh3p2rcd13ifvqdp0","pricing_plan_id":"cebpf4jnsgd1na2vs0mg"},{"bike_id":"718c9650-d2fd-4572-9df3-fc4b0937e0e8","system_id":"levelo_inurba_marseille","lat":43.27428,"lon":5.39408,"is_reserved":false,"is_disabled":false,"rental_uris":{"android":"levelo://app?vid=718c9650-d2fd-4572-9df3-fc4b0937e0e8","ios":"levelo://app?vid=718c9650-d2fd-4572-9df3-fc4b0937e0e8"},"vehicle_type_id":"4","last_reported":1746263399,"current_range_meters":10000,"station_id":"ce4bhdp2rcd13ifvqf20","pricing_plan_id":"cebpf4jnsgd1na2vs0mg"},{"bike_id":"6bcfafe9-e0dc-4830-a2ef-8fbcb15314a2","system_id":"levelo_inurba_marseille","lat":43.29562,"lon":5.42276,"is_reserved":false,"is_disabled":false,"rental_uris":{"android":"levelo://app?vid=6bcfafe9-e0dc-4830-a2ef-8fbcb15314a2","ios":"levelo://app?vid=6bcfafe9-e0dc-4830-a2ef-8fbcb15314a2"},"vehicle_type_id":"4","last_reported":1746263399,"current_range_meters":10000,"station_id":"ce4bhph2rcd13ifvqhdg","pricing_plan_id":"cebpf4jnsgd1na2vs0mg"},{"bike_id":"dfb3396e-96f5-457c-af11-f6f27dad33e9","system_id":"levelo_inurba_marseille","lat":43.27195,"lon":5.36477,"is_reserved":false,"is_disabled":false,"rental_uris":{"android":"levelo://app?vid=dfb3396e-96f5-457c-af11-f6f27dad33e9","ios":"levelo://app?vid=dfb3396e-96f5-457c-af11-f6f27dad33e9"},"vehicle_type_id":"4","last_reported":1746263399,"current_range_meters":10800,"station_id":"","pricing_plan_id":"cebpf4jnsgd1na2vs0mg"},{"bike_id":"a95600bb-7341-4e7a-95fd-f3fc54abf2bb","system_id":"levelo_inurba_marseille","lat":43.27995,"lon":5.40011,"is_reserved":false,"is_disabled":false,"rental_uris":{"android":"levelo://app?vid=a95600bb-7341-4e7a-95fd-f3fc54abf2bb","ios":"levelo://app?vid=a95600bb-7341-4e7a-95fd-f3fc54abf2bb"},"vehicle_type_id":"4","last_reported":1746263399,"current_range_meters":10800,"station_id":"","pricing_plan_id":"cebpf4jnsgd1na2vs0mg"},{"bike_id":"f824525b-c722-4992-9b83-c8ffce11f1a2","system_id":"levelo_inurba_marseille","lat":43.30545,"lon":5.36532,"is_reserved":false,"is_disabled":false,"rental_uris":{"android":"levelo://app?vid=f824525b-c722-4992-9b83-c8ffce11f1a2","ios":"levelo://app?vid=f824525b-c722-4992-9b83-c8ffce11f1a2"},"vehicle_type_id":"4","last_reported":1746263399,"current_range_meters":11200,"station_id":"ce4bgs12rcd13ifvqcag","pricing_plan_id":"cebpf4jnsgd1na2vs0mg"},{"bike_id":"17fa687f-c14b-4e08-ab20-7965ecc57327","system_id":"levelo_inurba_marseille","lat":43.28347,"lon":5.38102,"is_reserved":false,"is_disabled":false,"rental_uris":{"android":"levelo://app?vid=17fa687f-c14b-4e08-ab20-7965ecc57327","ios":"levelo://app?vid=17fa687f-c14b-4e08-ab20-7965ecc57327"},"vehicle_type_id":"4","last_reported":1746263399,"current_range_meters":11200,"station_id":"ce4bh412rcd13ifvqdr0","pricing_plan_id":"cebpf4jnsgd1na2vs0mg"},{"bike_id":"8494f6f5-a608-4fb3-a4da-d6ef0e6c4206","system_id":"levelo_inurba_marseille","lat":43.25502,"lon":5.37648,"is_reserved":false,"is_disabled":false,"rental_uris":{"android":"levelo://app?vid=8494f6f5-a608-4fb3-a4da-d6ef0e6c4206","ios":"levelo://app?vid=8494f6f5-a608-4fb3-a4da-d6ef0e6c4206"},"vehicle_type_id":"4","last_reported":1746263399,"current_range_meters":11200,"station_id":"ce4bhh12rcd13ifvqff0","pricing_plan_id":"cebpf4jnsgd1na2vs0mg"},{"bike_id":"a978adc6-201e-4b96-b42f-9c074698e1bc","system_id":"levelo_inurba_marseille","lat":43.23956,"lon":5.36633,"is_reserved":false,"is_disabled":false,"rental_uris":{"android":"levelo://app?vid=a978adc6-201e-4b96-b42f-9c074698e1bc","ios":"levelo://app?vid=a978adc6-201e-4b96-b42f-9c074698e1bc"},"vehicle_type_id":"4","last_reported":1746263399,"current_range_meters":11200,"station_id":"ce4bhi12rcd13ifvqfp0","pricing_plan_id":"cebpf4jnsgd1na2vs0mg"},{"bike_id":"f1ffd2b9-91e9-4bf5-a319-6e95940b0de6","system_id":"levelo_inurba_marseille","lat":43.29574,"lon":5.42284,"is_reserved":false,"is_disabled":false,"rental_uris":{"android":"levelo://app?vid=f1ffd2b9-91e9-4bf5-a319-6e95940b0de6","ios":"levelo://app?vid=f1ffd2b9-91e9-4bf5-a319-6e95940b0de6"},"vehicle_type_id":"4","last_reported":1746263399,"current_range_meters":11200,"station_id":"ce4bhph2rcd13ifvqhdg","pricing_plan_id":"cebpf4jnsgd1na2vs0mg"},{"bike_id":"fd2c3c67-23a6-4380-b7ca-8f23c8f78921","system_id":"levelo_inurba_marseille","lat":43.32343,"lon":5.36746,"is_reserved":false,"is_disabled":false,"rental_uris":{"android":"levelo://app?vid=fd2c3c67-23a6-4380-b7ca-8f23c8f78921","ios":"levelo://app?vid=fd2c3c67-23a6-4380-b7ca-8f23c8f78921"},"vehicle_type_id":"4","last_reported":1746263399,"current_range_meters":11200,"station_id":"ce4bhsh2rcd13ifvqi2g","pricing_plan_id":"cebpf4jnsgd1na2vs0mg"},{"bike_id":"36a9b9c7-54b7-45b0-81a5-b00d50ed8e1f","system_id":"levelo_inurba_marseille","lat":43.30807,"lon":5.38169,"is_reserved":false,"is_disabled":false,"rental_uris":{"android":"levelo://app?vid=36a9b9c7-54b7-45b0-81a5-b00d50ed8e1f","ios":"levelo://app?vid=36a9b9c7-54b7-45b0-81a5-b00d50ed8e1f"},"vehicle_type_id":"4","last_reported":1746263399,"current_range_meters":11600,"station_id":"ce4bgt12rcd13ifvqce0","pricing_plan_id":"cebpf4jnsgd1na2vs0mg"},{"bike_id":"251f13fb-ae1b-4c09-bcd9-d582b991dd56","system_id":"levelo_inurba_marseille","lat":43.292002,"lon":5.393157,"is_reserved":false,"is_disabled":false,"rental_uris":{"android":"levelo://app?vid=251f13fb-ae1b-4c09-bcd9-d582b991dd56","ios":"levelo://app?vid=251f13fb-ae1b-4c09-bcd9-d582b991dd56"},"vehicle_type_id":"4","last_reported":1746263399,"current_range_meters":11600,"station_id":"ce4bhbh2rcd13ifvqeo0","pricing_plan_id":"cebpf4jnsgd1na2vs0mg"},{"bike_id":"fb2a6c66-5045-41c6-9061-073f9fbeb4c4","system_id":"levelo_inurba_marseille","lat":43.29549,"lon":5.37535,"is_reserved":false,"is_disabled":false,"rental_uris":{"android":"levelo://app?vid=fb2a6c66-5045-41c6-9061-073f9fbeb4c4","ios":"levelo://app?vid=fb2a6c66-5045-41c6-9061-073f9fbeb4c4"},"vehicle_type_id":"4","last_reported":1746263399,"current_range_meters":12000,"station_id":"ce4bgh92rcd13ifvqb50","pricing_plan_id":"cebpf4jnsgd1na2vs0mg"},{"bike_id":"4b5d4806-b244-44c1-98ab-c2069058880a","system_id":"levelo_inurba_marseille","lat":43.29372,"lon":5.3783,"is_reserved":false,"is_disabled":false,"rental_uris":{"android":"levelo://app?vid=4b5d4806-b244-44c1-98ab-c2069058880a","ios":"levelo://app?vid=4b5d4806-b244-44c1-98ab-c2069058880a"},"vehicle_type_id":"4","last_reported":1746263399,"current_range_meters":12000,"station_id":"ce4bgjh2rcd13ifvqbf0","pricing_plan_id":"cebpf4jnsgd1na2vs0mg"},{"bike_id":"f4fee0e9-9b2d-4fff-bf8d-54a5bc219cee","system_id":"levelo_inurba_marseille","lat":43.29864,"lon":5.39742,"is_reserved":false,"is_disabled":false,"rental_uris":{"android":"levelo://app?vid=f4fee0e9-9b2d-4fff-bf8d-54a5bc219cee","ios":"levelo://app?vid=f4fee0e9-9b2d-4fff-bf8d-54a5bc219cee"},"vehicle_type_id":"4","last_reported":1746263399,"current_range_meters":12000,"station_id":"ce4bh0h2rcd13ifvqd50","pricing_plan_id":"cebpf4jnsgd1na2vs0mg"},{"bike_id":"edbe73a6-c598-4bb9-8134-3725269deb81","system_id":"levelo_inurba_marseille","lat":43.29522,"lon":5.390384,"is_reserved":false,"is_disabled":false,"rental_uris":{"android":"levelo://app?vid=edbe73a6-c598-4bb9-8134-3725269deb81","ios":"levelo://app?vid=edbe73a6-c598-4bb9-8134-3725269deb81"},"vehicle_type_id":"4","last_reported":1746263399,"current_range_meters":12000,"station_id":"ce4bh3p2rcd13ifvqdp0","pricing_plan_id":"cebpf4jnsgd1na2vs0mg"},{"bike_id":"9542c33c-0702-4756-806d-0dec1f34efc5","system_id":"levelo_inurba_marseille","lat":43.2318,"lon":5.399853,"is_reserved":false,"is_disabled":false,"rental_uris":{"android":"levelo://app?vid=9542c33c-0702-4756-806d-0dec1f34efc5","ios":"levelo://app?vid=9542c33c-0702-4756-806d-0dec1f34efc5"},"vehicle_type_id":"4","last_reported":1746263399,"current_range_meters":12000,"station_id":"ce4bhn12rcd13ifvqgqg","pricing_plan_id":"cebpf4jnsgd1na2vs0mg"},{"bike_id":"831b13ac-03f1-4a0d-b2e8-915cb2a6b8ce","system_id":"levelo_inurba_marseille","lat":43.28146,"lon":5.4264,"is_reserved":false,"is_disabled":false,"rental_uris":{"android":"levelo://app?vid=831b13ac-03f1-4a0d-b2e8-915cb2a6b8ce","ios":"levelo://app?vid=831b13ac-03f1-4a0d-b2e8-915cb2a6b8ce"},"vehicle_type_id":"4","last_reported":1746263399,"current_range_meters":12000,"station_id":"ce4bhnh2rcd13ifvqgug","pricing_plan_id":"cebpf4jnsgd1na2vs0mg"},{"bike_id":"6c0e5220-ee62-4032-884d-af4df430249c","system_id":"levelo_inurba_marseille","lat":43.32107,"lon":5.36746,"is_reserved":false,"is_disabled":false,"rental_uris":{"android":"levelo://app?vid=6c0e5220-ee62-4032-884d-af4df430249c","ios":"levelo://app?vid=6c0e5220-ee62-4032-884d-af4df430249c"},"vehicle_type_id":"4","last_reported":1746263399,"current_range_meters":12000,"station_id":"ce4bhrh2rcd13ifvqhug","pricing_plan_id":"cebpf4jnsgd1na2vs0mg"},{"bike_id":"715d4ccd-4d07-4967-8be3-b199930f65b6","system_id":"levelo_inurba_marseille","lat":43.31082,"lon":5.40091,"is_reserved":false,"is_disabled":false,"rental_uris":{"android":"levelo://app?vid=715d4ccd-4d07-4967-8be3-b199930f65b6","ios":"levelo://app?vid=715d4ccd-4d07-4967-8be3-b199930f65b6"},"vehicle_type_id":"4","last_reported":1746263399,"current_range_meters":12800,"station_id":"","pricing_plan_id":"cebpf4jnsgd1na2vs0mg"},{"bike_id":"4ae02176-31a4-48f7-825f-a587fefa23c2","system_id":"levelo_inurba_marseille","lat":43.30184,"lon":5.36621,"is_reserved":false,"is_disabled":false,"rental_uris":{"android":"levelo://app?vid=4ae02176-31a4-48f7-825f-a587fefa23c2","ios":"levelo://app?vid=4ae02176-31a4-48f7-825f-a587fefa23c2"},"vehicle_type_id":"4","last_reported":1746263399,"current_range_meters":13600,"station_id":"ce4bgrh2rcd13ifvqc8g","pricing_plan_id":"cebpf4jnsgd1na2vs0mg"},{"bike_id":"0b6a0ab1-d943-4803-b0db-426ff0fe03e3","system_id":"levelo_inurba_marseille","lat":43.29796,"lon":5.40395,"is_reserved":false,"is_disabled":false,"rental_uris":{"android":"levelo://app?vid=0b6a0ab1-d943-4803-b0db-426ff0fe03e3","ios":"levelo://app?vid=0b6a0ab1-d943-4803-b0db-426ff0fe03e3"},"vehicle_type_id":"4","last_reported":1746263399,"current_range_meters":13600,"station_id":"ce4bh112rcd13ifvqd90","pricing_plan_id":"cebpf4jnsgd1na2vs0mg"},{"bike_id":"fb5d263c-208b-46eb-8c0a-9d3360071523","system_id":"levelo_inurba_marseille","lat":43.29166,"lon":5.37163,"is_reserved":false,"is_disabled":false,"rental_uris":{"android":"levelo://app?vid=fb5d263c-208b-46eb-8c0a-9d3360071523","ios":"levelo://app?vid=fb5d263c-208b-46eb-8c0a-9d3360071523"},"vehicle_type_id":"4","last_reported":1746263399,"current_range_meters":13600,"station_id":"ce4bha92rcd13ifvqeh0","pricing_plan_id":"cebpf4jnsgd1na2vs0mg"},{"bike_id":"15814510-c022-47ca-b016-05c7113bec26","system_id":"levelo_inurba_marseille","lat":43.29512,"lon":5.37506,"is_reserved":false,"is_disabled":false,"rental_uris":{"android":"levelo://app?vid=15814510-c022-47ca-b016-05c7113bec26","ios":"levelo://app?vid=15814510-c022-47ca-b016-05c7113bec26"},"vehicle_type_id":"4","last_reported":1746263399,"current_range_meters":14000,"station_id":"ce4bgkp2rcd13ifvqbmg","pricing_plan_id":"cebpf4jnsgd1na2vs0mg"},{"bike_id":"c3856106-206a-4f39-adcf-8916ef5dd857","system_id":"levelo_inurba_marseille","lat":43.31063,"lon":5.38366,"is_reserved":false,"is_disabled":false,"rental_uris":{"android":"levelo://app?vid=c3856106-206a-4f39-adcf-8916ef5dd857","ios":"levelo://app?vid=c3856106-206a-4f39-adcf-8916ef5dd857"},"vehicle_type_id":"4","last_reported":1746263399,"current_range_meters":14000,"station_id":"ce4bgv92rcd13ifvqcr0","pricing_plan_id":"cebpf4jnsgd1na2vs0mg"},{"bike_id":"60ccb1a8-e8c8-43cc-8293-f7f1eed757bb","system_id":"levelo_inurba_marseille","lat":43.299579,"lon":5.385994,"is_reserved":false,"is_disabled":false,"rental_uris":{"android":"levelo://app?vid=60ccb1a8-e8c8-43cc-8293-f7f1eed757bb","ios":"levelo://app?vid=60ccb1a8-e8c8-43cc-8293-f7f1eed757bb"},"vehicle_type_id":"4","last_reported":1746263399,"current_range_meters":14400,"station_id":"ce4bgjp2rcd13ifvqbh0","pricing_plan_id":"cebpf4jnsgd1na2vs0mg"},{"bike_id":"f1f1d9f2-438d-43aa-9146-c19d4a9cbea5","system_id":"levelo_inurba_marseille","lat":43.30548,"lon":5.3654,"is_reserved":false,"is_disabled":false,"rental_uris":{"android":"levelo://app?vid=f1f1d9f2-438d-43aa-9146-c19d4a9cbea5","ios":"levelo://app?vid=f1f1d9f2-438d-43aa-9146-c19d4a9cbea5"},"vehicle_type_id":"4","last_reported":1746263399,"current_range_meters":14800,"station_id":"ce4bgs12rcd13ifvqcag","pricing_plan_id":"cebpf4jnsgd1na2vs0mg"},{"bike_id":"fb80c1da-d845-467b-9c3b-2f591f4d56ae","system_id":"levelo_inurba_marseille","lat":43.323406,"lon":5.37422,"is_reserved":false,"is_disabled":false,"rental_uris":{"android":"levelo://app?vid=fb80c1da-d845-467b-9c3b-2f591f4d56ae","ios":"levelo://app?vid=fb80c1da-d845-467b-9c3b-2f591f4d56ae"},"vehicle_type_id":"4","last_reported":1746263399,"current_range_meters":15200,"station_id":"","pricing_plan_id":"cebpf4jnsgd1na2vs0mg"},{"bike_id":"aedf206f-89f3-4f30-9da6-56fb7ff8915b","system_id":"levelo_inurba_marseille","lat":43.28149,"lon":5.4033,"is_reserved":false,"is_disabled":false,"rental_uris":{"android":"levelo://app?vid=aedf206f-89f3-4f30-9da6-56fb7ff8915b","ios":"levelo://app?vid=aedf206f-89f3-4f30-9da6-56fb7ff8915b"},"vehicle_type_id":"4","last_reported":1746263399,"current_range_meters":15200,"station_id":"","pricing_plan_id":"cebpf4jnsgd1na2vs0mg"},{"bike_id":"1ec92fb0-86eb-403d-83b2-d0ae07bd2255","system_id":"levelo_inurba_marseille","lat":43.2937,"lon":5.3785,"is_reserved":false,"is_disabled":false,"rental_uris":{"android":"levelo://app?vid=1ec92fb0-86eb-403d-83b2-d0ae07bd2255","ios":"levelo://app?vid=1ec92fb0-86eb-403d-83b2-d0ae07bd2255"},"vehicle_type_id":"4","last_reported":1746263399,"current_range_meters":15200,"station_id":"ce4bgjh2rcd13ifvqbf0","pricing_plan_id":"cebpf4jnsgd1na2vs0mg"},{"bike_id":"0be1d185-737c-4035-86f4-b0d551723ed1","system_id":"levelo_inurba_marseille","lat":43.31367,"lon":5.38495,"is_reserved":false,"is_disabled":false,"rental_uris":{"android":"levelo://app?vid=0be1d185-737c-4035-86f4-b0d551723ed1","ios":"levelo://app?vid=0be1d185-737c-4035-86f4-b0d551723ed1"},"vehicle_type_id":"4","last_reported":1746263399,"current_range_meters":15200,"station_id":"ce4bgt92rcd13ifvqcf0","pricing_plan_id":"cebpf4jnsgd1na2vs0mg"},{"bike_id":"7c423589-e730-40a2-8cb3-1e3ee3b0af5c","system_id":"levelo_inurba_marseille","lat":43.30951,"lon":5.39029,"is_reserved":false,"is_disabled":false,"rental_uris":{"android":"levelo://app?vid=7c423589-e730-40a2-8cb3-1e3ee3b0af5c","ios":"levelo://app?vid=7c423589-e730-40a2-8cb3-1e3ee3b0af5c"},"vehicle_type_id":"4","last_reported":1746263399,"current_range_meters":15200,"station_id":"ce4bgup2rcd13ifvqco0","pricing_plan_id":"cebpf4jnsgd1na2vs0mg"},{"bike_id":"44e332d3-4a1c-4779-bbd5-bdf59fc4f39e","system_id":"levelo_inurba_marseille","lat":43.26781,"lon":5.39418,"is_reserved":false,"is_disabled":false,"rental_uris":{"android":"levelo://app?vid=44e332d3-4a1c-4779-bbd5-bdf59fc4f39e","ios":"levelo://app?vid=44e332d3-4a1c-4779-bbd5-bdf59fc4f39e"},"vehicle_type_id":"4","last_reported":1746263399,"current_range_meters":15200,"station_id":"ce4bhh12rcd13ifvqfg0","pricing_plan_id":"cebpf4jnsgd1na2vs0mg"},{"bike_id":"b4102a4e-d811-4d88-965b-be63fdffde01","system_id":"levelo_inurba_marseille","lat":43.23152,"lon":5.43721,"is_reserved":false,"is_disabled":false,"rental_uris":{"android":"levelo://app?vid=b4102a4e-d811-4d88-965b-be63fdffde01","ios":"levelo://app?vid=b4102a4e-d811-4d88-965b-be63fdffde01"},"vehicle_type_id":"4","last_reported":1746263399,"current_range_meters":15200,"station_id":"ce4bhmp2rcd13ifvqgog","pricing_plan_id":"cebpf4jnsgd1na2vs0mg"},{"bike_id":"67cbe29e-b469-4c71-bc85-5cfa4f17b248","system_id":"levelo_inurba_marseille","lat":43.28151,"lon":5.42639,"is_reserved":false,"is_disabled":false,"rental_uris":{"android":"levelo://app?vid=67cbe29e-b469-4c71-bc85-5cfa4f17b248","ios":"levelo://app?vid=67cbe29e-b469-4c71-bc85-5cfa4f17b248"},"vehicle_type_id":"4","last_reported":1746263399,"current_range_meters":15200,"station_id":"ce4bhnh2rcd13ifvqgug","pricing_plan_id":"cebpf4jnsgd1na2vs0mg"},{"bike_id":"51166c96-b777-402d-a1e7-9a7f167d7d3b","system_id":"levelo_inurba_marseille","lat":43.28438,"lon":5.39178,"is_reserved":false,"is_disabled":false,"rental_uris":{"android":"levelo://app?vid=51166c96-b777-402d-a1e7-9a7f167d7d3b","ios":"levelo://app?vid=51166c96-b777-402d-a1e7-9a7f167d7d3b"},"vehicle_type_id":"4","last_reported":1746263399,"current_range_meters":15200,"station_id":"ce4bhoh2rcd13ifvqh5g","pricing_plan_id":"cebpf4jnsgd1na2vs0mg"},{"bike_id":"1edb852e-6726-4413-83f9-10d2434bb24e","system_id":"levelo_inurba_marseille","lat":43.29593,"lon":5.38092,"is_reserved":false,"is_disabled":false,"rental_uris":{"android":"levelo://app?vid=1edb852e-6726-4413-83f9-10d2434bb24e","ios":"levelo://app?vid=1edb852e-6726-4413-83f9-10d2434bb24e"},"vehicle_type_id":"4","last_reported":1746263399,"current_range_meters":16000,"station_id":"ce4bgl12rcd13ifvqbo0","pricing_plan_id":"cebpf4jnsgd1na2vs0mg"},{"bike_id":"da8d6aa2-3416-47ef-8ae3-dd0ad14d5b5c","system_id":"levelo_inurba_marseille","lat":43.28482,"lon":5.38563,"is_reserved":false,"is_disabled":false,"rental_uris":{"android":"levelo://app?vid=da8d6aa2-3416-47ef-8ae3-dd0ad14d5b5c","ios":"levelo://app?vid=da8d6aa2-3416-47ef-8ae3-dd0ad14d5b5c"},"vehicle_type_id":"4","last_reported":1746263399,"current_range_meters":16000,"station_id":"ce4bh8p2rcd13ifvqeb0","pricing_plan_id":"cebpf4jnsgd1na2vs0mg"},{"bike_id":"c6c2475d-894f-44da-aa21-c2debb4fe485","system_id":"levelo_inurba_marseille","lat":43.27054,"lon":5.4026,"is_reserved":false,"is_disabled":false,"rental_uris":{"android":"levelo://app?vid=c6c2475d-894f-44da-aa21-c2debb4fe485","ios":"levelo://app?vid=c6c2475d-894f-44da-aa21-c2debb4fe485"},"vehicle_type_id":"4","last_reported":1746263399,"current_range_meters":16000,"station_id":"ce4bhk92rcd13ifvqgc0","pricing_plan_id":"cebpf4jnsgd1na2vs0mg"},{"bike_id":"f72e4edc-e658-4902-be5c-882b1f65b363","system_id":"levelo_inurba_marseille","lat":43.25923,"lon":5.409,"is_reserved":false,"is_disabled":false,"rental_uris":{"android":"levelo://app?vid=f72e4edc-e658-4902-be5c-882b1f65b363","ios":"levelo://app?vid=f72e4edc-e658-4902-be5c-882b1f65b363"},"vehicle_type_id":"4","last_reported":1746263399,"current_range_meters":16000,"station_id":"ce4bhm92rcd13ifvqglg","pricing_plan_id":"cebpf4jnsgd1na2vs0mg"},{"bike_id":"c3afca57-9863-4ec0-b4f2-57789c645a09","system_id":"levelo_inurba_marseille","lat":43.29962,"lon":5.38496,"is_reserved":false,"is_disabled":false,"rental_uris":{"android":"levelo://app?vid=c3afca57-9863-4ec0-b4f2-57789c645a09","ios":"levelo://app?vid=c3afca57-9863-4ec0-b4f2-57789c645a09"},"vehicle_type_id":"4","last_reported":1746263399,"current_range_meters":16400,"station_id":"ce4bgj92rcd13ifvqbd0","pricing_plan_id":"cebpf4jnsgd1na2vs0mg"},{"bike_id":"3f506505-a089-4076-bc43-08024cf6ce18","system_id":"levelo_inurba_marseille","lat":43.30871,"lon":5.37159,"is_reserved":false,"is_disabled":false,"rental_uris":{"android":"levelo://app?vid=3f506505-a089-4076-bc43-08024cf6ce18","ios":"levelo://app?vid=3f506505-a089-4076-bc43-08024cf6ce18"},"vehicle_type_id":"4","last_reported":1746263399,"current_range_meters":16400,"station_id":"ce4bguh2rcd13ifvqckg","pricing_plan_id":"cebpf4jnsgd1na2vs0mg"},{"bike_id":"001eb7d2-22eb-4a35-8184-65ae1e03babb","system_id":"levelo_inurba_marseille","lat":43.30474,"lon":5.37904,"is_reserved":false,"is_disabled":false,"rental_uris":{"android":"levelo://app?vid=001eb7d2-22eb-4a35-8184-65ae1e03babb","ios":"levelo://app?vid=001eb7d2-22eb-4a35-8184-65ae1e03babb"},"vehicle_type_id":"4","last_reported":1746263399,"current_range_meters":16400,"station_id":"ce4bgup2rcd13ifvqcn0","pricing_plan_id":"cebpf4jnsgd1na2vs0mg"},{"bike_id":"e0ceefc0-61c9-406f-91eb-ef69db9dbe42","system_id":"levelo_inurba_marseille","lat":43.26116,"lon":5.414664,"is_reserved":false,"is_disabled":false,"rental_uris":{"android":"levelo://app?vid=e0ceefc0-61c9-406f-91eb-ef69db9dbe42","ios":"levelo://app?vid=e0ceefc0-61c9-406f-91eb-ef69db9dbe42"},"vehicle_type_id":"4","last_reported":1746263399,"current_range_meters":16800,"station_id":"","pricing_plan_id":"cebpf4jnsgd1na2vs0mg"},{"bike_id":"9d5309b8-8543-4f56-980b-02135e1464d5","system_id":"levelo_inurba_marseille","lat":43.29058,"lon":5.37146,"is_reserved":false,"is_disabled":false,"rental_uris":{"android":"levelo://app?vid=9d5309b8-8543-4f56-980b-02135e1464d5","ios":"levelo://app?vid=9d5309b8-8543-4f56-980b-02135e1464d5"},"vehicle_type_id":"4","last_reported":1746263399,"current_range_meters":16800,"station_id":"ce4bh5p2rcd13ifvqe4g","pricing_plan_id":"cebpf4jnsgd1na2vs0mg"},{"bike_id":"7b0e0ae0-19ca-46ac-9d87-9763768c7e8a","system_id":"levelo_inurba_marseille","lat":43.24663,"lon":5.38157,"is_reserved":false,"is_disabled":false,"rental_uris":{"android":"levelo://app?vid=7b0e0ae0-19ca-46ac-9d87-9763768c7e8a","ios":"levelo://app?vid=7b0e0ae0-19ca-46ac-9d87-9763768c7e8a"},"vehicle_type_id":"4","last_reported":1746263399,"current_range_meters":16800,"station_id":"ce4bhih2rcd13ifvqfr0","pricing_plan_id":"cebpf4jnsgd1na2vs0mg"},{"bike_id":"d8b86b0f-465d-4a8c-97af-44c7a0af89e6","system_id":"levelo_inurba_marseille","lat":43.27051,"lon":5.40258,"is_reserved":false,"is_disabled":false,"rental_uris":{"android":"levelo://app?vid=d8b86b0f-465d-4a8c-97af-44c7a0af89e6","ios":"levelo://app?vid=d8b86b0f-465d-4a8c-97af-44c7a0af89e6"},"vehicle_type_id":"4","last_reported":1746263399,"current_range_meters":16800,"station_id":"ce4bhk92rcd13ifvqgc0","pricing_plan_id":"cebpf4jnsgd1na2vs0mg"},{"bike_id":"cdfd7ebf-d40f-442e-8508-ccaa5f6b29f7","system_id":"levelo_inurba_marseille","lat":43.259,"lon":5.40879,"is_reserved":false,"is_disabled":false,"rental_uris":{"android":"levelo://app?vid=cdfd7ebf-d40f-442e-8508-ccaa5f6b29f7","ios":"levelo://app?vid=cdfd7ebf-d40f-442e-8508-ccaa5f6b29f7"},"vehicle_type_id":"4","last_reported":1746263399,"current_range_meters":16800,"station_id":"ce4bhm92rcd13ifvqglg","pricing_plan_id":"cebpf4jnsgd1na2vs0mg"},{"bike_id":"4cac8a45-449f-449e-9ca9-04490eb84c50","system_id":"levelo_inurba_marseille","lat":43.240699,"lon":5.377649,"is_reserved":false,"is_disabled":false,"rental_uris":{"android":"levelo://app?vid=4cac8a45-449f-449e-9ca9-04490eb84c50","ios":"levelo://app?vid=4cac8a45-449f-449e-9ca9-04490eb84c50"},"vehicle_type_id":"4","last_reported":1746263399,"current_range_meters":16800,"station_id":"ce4bhnp2rcd13ifvqgvg","pricing_plan_id":"cebpf4jnsgd1na2vs0mg"},{"bike_id":"48d076c9-f0c1-4849-a112-ad30c88e222e","system_id":"levelo_inurba_marseille","lat":43.29725,"lon":5.376783,"is_reserved":false,"is_disabled":false,"rental_uris":{"android":"levelo://app?vid=48d076c9-f0c1-4849-a112-ad30c88e222e","ios":"levelo://app?vid=48d076c9-f0c1-4849-a112-ad30c88e222e"},"vehicle_type_id":"4","last_reported":1746263399,"current_range_meters":17200,"station_id":"ce4bgkh2rcd13ifvqbl0","pricing_plan_id":"cebpf4jnsgd1na2vs0mg"},{"bike_id":"51520620-401d-4a0d-b0db-7949d702703b","system_id":"levelo_inurba_marseille","lat":43.29595,"lon":5.38112,"is_reserved":false,"is_disabled":false,"rental_uris":{"android":"levelo://app?vid=51520620-401d-4a0d-b0db-7949d702703b","ios":"levelo://app?vid=51520620-401d-4a0d-b0db-7949d702703b"},"vehicle_type_id":"4","last_reported":1746263399,"current_range_meters":17200,"station_id":"ce4bgl12rcd13ifvqbo0","pricing_plan_id":"cebpf4jnsgd1na2vs0mg"},{"bike_id":"38280e2e-364f-4ea1-a1ab-ec608738475b","system_id":"levelo_inurba_marseille","lat":43.30139,"lon":5.37417,"is_reserved":false,"is_disabled":false,"rental_uris":{"android":"levelo://app?vid=38280e2e-364f-4ea1-a1ab-ec608738475b","ios":"levelo://app?vid=38280e2e-364f-4ea1-a1ab-ec608738475b"},"vehicle_type_id":"4","last_reported":1746263399,"current_range_meters":17200,"station_id":"ce4bgs92rcd13ifvqcc0","pricing_plan_id":"cebpf4jnsgd1na2vs0mg"},{"bike_id":"5f40d9e4-d918-4aea-93fc-6c647fe4daf5","system_id":"levelo_inurba_marseille","lat":43.25584,"lon":5.38243,"is_reserved":false,"is_disabled":false,"rental_uris":{"android":"levelo://app?vid=5f40d9e4-d918-4aea-93fc-6c647fe4daf5","ios":"levelo://app?vid=5f40d9e4-d918-4aea-93fc-6c647fe4daf5"},"vehicle_type_id":"4","last_reported":1746263399,"current_range_meters":17200,"station_id":"ce4bhih2rcd13ifvqfs0","pricing_plan_id":"cebpf4jnsgd1na2vs0mg"},{"bike_id":"d76bfe54-9f31-429e-b3fd-66658987c5a6","system_id":"levelo_inurba_marseille","lat":43.32259,"lon":5.36788,"is_reserved":false,"is_disabled":false,"rental_uris":{"android":"levelo://app?vid=d76bfe54-9f31-429e-b3fd-66658987c5a6","ios":"levelo://app?vid=d76bfe54-9f31-429e-b3fd-66658987c5a6"},"vehicle_type_id":"4","last_reported":1746263399,"current_range_meters":17600,"station_id":"","pricing_plan_id":"cebpf4jnsgd1na2vs0mg"},{"bike_id":"3fcb736e-a0a3-450b-8593-9b49a2b9ad11","system_id":"levelo_inurba_marseille","lat":43.29786,"lon":5.38098,"is_reserved":false,"is_disabled":false,"rental_uris":{"android":"levelo://app?vid=3fcb736e-a0a3-450b-8593-9b49a2b9ad11","ios":"levelo://app?vid=3fcb736e-a0a3-450b-8593-9b49a2b9ad11"},"vehicle_type_id":"4","last_reported":1746263399,"current_range_meters":17600,"station_id":"ce4bgip2rcd13ifvqbb0","pricing_plan_id":"cebpf4jnsgd1na2vs0mg"},{"bike_id":"629eb9e0-4a1c-4525-8bfd-d53f7d83d12e","system_id":"levelo_inurba_marseille","lat":43.29267,"lon":5.38442,"is_reserved":false,"is_disabled":false,"rental_uris":{"android":"levelo://app?vid=629eb9e0-4a1c-4525-8bfd-d53f7d83d12e","ios":"levelo://app?vid=629eb9e0-4a1c-4525-8bfd-d53f7d83d12e"},"vehicle_type_id":"4","last_reported":1746263399,"current_range_meters":17600,"station_id":"ce4bh692rcd13ifvqea0","pricing_plan_id":"cebpf4jnsgd1na2vs0mg"},{"bike_id":"ec6da0aa-0845-4bad-8a7b-8655154f5109","system_id":"levelo_inurba_marseille","lat":43.30822,"lon":5.43489,"is_reserved":false,"is_disabled":false,"rental_uris":{"android":"levelo://app?vid=ec6da0aa-0845-4bad-8a7b-8655154f5109","ios":"levelo://app?vid=ec6da0aa-0845-4bad-8a7b-8655154f5109"},"vehicle_type_id":"4","last_reported":1746263399,"current_range_meters":18000,"station_id":"ce4bhph2rcd13ifvqheg","pricing_plan_id":"cebpf4jnsgd1na2vs0mg"},{"bike_id":"c8e16fcb-5510-4723-b6e7-2aa49c1b3b8d","system_id":"levelo_inurba_marseille","lat":43.31942,"lon":5.37044,"is_reserved":false,"is_disabled":false,"rental_uris":{"android":"levelo://app?vid=c8e16fcb-5510-4723-b6e7-2aa49c1b3b8d","ios":"levelo://app?vid=c8e16fcb-5510-4723-b6e7-2aa49c1b3b8d"},"vehicle_type_id":"4","last_reported":1746263399,"current_range_meters":18800,"station_id":"","pricing_plan_id":"cebpf4jnsgd1na2vs0mg"},{"bike_id":"1a877ed8-aa67-486c-a34b-30e006e67ea0","system_id":"levelo_inurba_marseille","lat":43.28506,"lon":5.38029,"is_reserved":false,"is_disabled":false,"rental_uris":{"android":"levelo://app?vid=1a877ed8-aa67-486c-a34b-30e006e67ea0","ios":"levelo://app?vid=1a877ed8-aa67-486c-a34b-30e006e67ea0"},"vehicle_type_id":"4","last_reported":1746263399,"current_range_meters":18800,"station_id":"","pricing_plan_id":"cebpf4jnsgd1na2vs0mg"},{"bike_id":"ee99ba6e-e5f1-4473-a6f8-583938304dee","system_id":"levelo_inurba_marseille","lat":43.30158,"lon":5.38073,"is_reserved":false,"is_disabled":false,"rental_uris":{"android":"levelo://app?vid=ee99ba6e-e5f1-4473-a6f8-583938304dee","ios":"levelo://app?vid=ee99ba6e-e5f1-4473-a6f8-583938304dee"},"vehicle_type_id":"4","last_reported":1746263399,"current_range_meters":18800,"station_id":"ce4bgjp2rcd13ifvqbh0","pricing_plan_id":"cebpf4jnsgd1na2vs0mg"},{"bike_id":"3bad2182-5b26-4afd-b37b-e6a71552c0a4","system_id":"levelo_inurba_marseille","lat":43.26496,"lon":5.39532,"is_reserved":false,"is_disabled":false,"rental_uris":{"android":"levelo://app?vid=3bad2182-5b26-4afd-b37b-e6a71552c0a4","ios":"levelo://app?vid=3bad2182-5b26-4afd-b37b-e6a71552c0a4"},"vehicle_type_id":"4","last_reported":1746263399,"current_range_meters":18800,"station_id":"ce4bhi12rcd13ifvqfq0","pricing_plan_id":"cebpf4jnsgd1na2vs0mg"},{"bike_id":"2cd00fa1-aa9b-4b46-86ba-129fb9364ad2","system_id":"levelo_inurba_marseille","lat":43.23133,"lon":5.43709,"is_reserved":false,"is_disabled":false,"rental_uris":{"android":"levelo://app?vid=2cd00fa1-aa9b-4b46-86ba-129fb9364ad2","ios":"levelo://app?vid=2cd00fa1-aa9b-4b46-86ba-129fb9364ad2"},"vehicle_type_id":"4","last_reported":1746263399,"current_range_meters":18800,"station_id":"ce4bhmp2rcd13ifvqgog","pricing_plan_id":"cebpf4jnsgd1na2vs0mg"},{"bike_id":"0429d970-ccc1-4932-a108-9f5804f6f682","system_id":"levelo_inurba_marseille","lat":43.23188,"lon":5.39985,"is_reserved":false,"is_disabled":false,"rental_uris":{"android":"levelo://app?vid=0429d970-ccc1-4932-a108-9f5804f6f682","ios":"levelo://app?vid=0429d970-ccc1-4932-a108-9f5804f6f682"},"vehicle_type_id":"4","last_reported":1746263399,"current_range_meters":18800,"station_id":"ce4bhn12rcd13ifvqgqg","pricing_plan_id":"cebpf4jnsgd1na2vs0mg"},{"bike_id":"00d817ea-1e17-4024-9950-2423b24f9085","system_id":"levelo_inurba_marseille","lat":43.293083,"lon":5.371833,"is_reserved":false,"is_disabled":false,"rental_uris":{"android":"levelo://app?vid=00d817ea-1e17-4024-9950-2423b24f9085","ios":"levelo://app?vid=00d817ea-1e17-4024-9950-2423b24f9085"},"vehicle_type_id":"4","last_reported":1746263399,"current_range_meters":19200,"station_id":"ce4bgh92rcd13ifvqb40","pricing_plan_id":"cebpf4jnsgd1na2vs0mg"},{"bike_id":"f727d689-5886-4206-a49f-953aea936a1b","system_id":"levelo_inurba_marseille","lat":43.30156,"lon":5.38101,"is_reserved":false,"is_disabled":false,"rental_uris":{"android":"levelo://app?vid=f727d689-5886-4206-a49f-953aea936a1b","ios":"levelo://app?vid=f727d689-5886-4206-a49f-953aea936a1b"},"vehicle_type_id":"4","last_reported":1746263399,"current_range_meters":19200,"station_id":"ce4bgjp2rcd13ifvqbh0","pricing_plan_id":"cebpf4jnsgd1na2vs0mg"},{"bike_id":"3699300a-5a2a-424f-96f5-b5854001350a","system_id":"levelo_inurba_marseille","lat":43.28406,"lon":5.38092,"is_reserved":false,"is_disabled":false,"rental_uris":{"android":"levelo://app?vid=3699300a-5a2a-424f-96f5-b5854001350a","ios":"levelo://app?vid=3699300a-5a2a-424f-96f5-b5854001350a"},"vehicle_type_id":"4","last_reported":1746263399,"current_range_meters":19600,"station_id":"","pricing_plan_id":"cebpf4jnsgd1na2vs0mg"},{"bike_id":"7b5bf833-2c09-4d84-a1d8-6f5aa9accb75","system_id":"levelo_inurba_marseille","lat":43.30552,"lon":5.36551,"is_reserved":false,"is_disabled":false,"rental_uris":{"android":"levelo://app?vid=7b5bf833-2c09-4d84-a1d8-6f5aa9accb75","ios":"levelo://app?vid=7b5bf833-2c09-4d84-a1d8-6f5aa9accb75"},"vehicle_type_id":"4","last_reported":1746263399,"current_range_meters":19600,"station_id":"ce4bgs12rcd13ifvqcag","pricing_plan_id":"cebpf4jnsgd1na2vs0mg"},{"bike_id":"79d7074e-49cd-4d9c-b075-bca18e599db0","system_id":"levelo_inurba_marseille","lat":43.2953,"lon":5.390415,"is_reserved":false,"is_disabled":false,"rental_uris":{"android":"levelo://app?vid=79d7074e-49cd-4d9c-b075-bca18e599db0","ios":"levelo://app?vid=79d7074e-49cd-4d9c-b075-bca18e599db0"},"vehicle_type_id":"4","last_reported":1746263399,"current_range_meters":19600,"station_id":"ce4bh3p2rcd13ifvqdp0","pricing_plan_id":"cebpf4jnsgd1na2vs0mg"},{"bike_id":"530c9918-290d-412b-8ff3-c0bf4815d0f9","system_id":"levelo_inurba_marseille","lat":43.29718,"lon":5.37695,"is_reserved":false,"is_disabled":false,"rental_uris":{"android":"levelo://app?vid=530c9918-290d-412b-8ff3-c0bf4815d0f9","ios":"levelo://app?vid=530c9918-290d-412b-8ff3-c0bf4815d0f9"},"vehicle_type_id":"4","last_reported":1746263399,"current_range_meters":20000,"station_id":"ce4bgkh2rcd13ifvqbl0","pricing_plan_id":"cebpf4jnsgd1na2vs0mg"},{"bike_id":"d55aeab5-4db8-4940-9df6-45489d60b44f","system_id":"levelo_inurba_marseille","lat":43.30933,"lon":5.40147,"is_reserved":false,"is_disabled":false,"rental_uris":{"android":"levelo://app?vid=d55aeab5-4db8-4940-9df6-45489d60b44f","ios":"levelo://app?vid=d55aeab5-4db8-4940-9df6-45489d60b44f"},"vehicle_type_id":"4","last_reported":1746263399,"current_range_meters":20000,"station_id":"ce4bgvp2rcd13ifvqct0","pricing_plan_id":"cebpf4jnsgd1na2vs0mg"},{"bike_id":"6eac989f-2c51-4d21-a0eb-00a05abd69f3","system_id":"levelo_inurba_marseille","lat":43.32359,"lon":5.36776,"is_reserved":false,"is_disabled":false,"rental_uris":{"android":"levelo://app?vid=6eac989f-2c51-4d21-a0eb-00a05abd69f3","ios":"levelo://app?vid=6eac989f-2c51-4d21-a0eb-00a05abd69f3"},"vehicle_type_id":"4","last_reported":1746263399,"current_range_meters":20000,"station_id":"ce4bhsh2rcd13ifvqi2g","pricing_plan_id":"cebpf4jnsgd1na2vs0mg"},{"bike_id":"899f1c13-7008-4f05-81eb-05e3064d591d","system_id":"levelo_inurba_marseille","lat":43.28506,"lon":5.35043,"is_reserved":false,"is_disabled":false,"rental_uris":{"android":"levelo://app?vid=899f1c13-7008-4f05-81eb-05e3064d591d","ios":"levelo://app?vid=899f1c13-7008-4f05-81eb-05e3064d591d"},"vehicle_type_id":"4","last_reported":1746263399,"current_range_meters":20400,"station_id":"","pricing_plan_id":"cebpf4jnsgd1na2vs0mg"},{"bike_id":"ef276988-9a3d-4b9b-ad8f-b74f4c20a903","system_id":"levelo_inurba_marseille","lat":43.293133,"lon":5.37175,"is_reserved":false,"is_disabled":false,"rental_uris":{"android":"levelo://app?vid=ef276988-9a3d-4b9b-ad8f-b74f4c20a903","ios":"levelo://app?vid=ef276988-9a3d-4b9b-ad8f-b74f4c20a903"},"vehicle_type_id":"4","last_reported":1746263399,"current_range_meters":20400,"station_id":"ce4bgh92rcd13ifvqb40","pricing_plan_id":"cebpf4jnsgd1na2vs0mg"},{"bike_id":"bf0826ef-a5bc-4c79-a4c0-d73a8192de4d","system_id":"levelo_inurba_marseille","lat":43.29604,"lon":5.37733,"is_reserved":false,"is_disabled":false,"rental_uris":{"android":"levelo://app?vid=bf0826ef-a5bc-4c79-a4c0-d73a8192de4d","ios":"levelo://app?vid=bf0826ef-a5bc-4c79-a4c0-d73a8192de4d"},"vehicle_type_id":"4","last_reported":1746263399,"current_range_meters":20400,"station_id":"ce4bgi92rcd13ifvqb90","pricing_plan_id":"cebpf4jnsgd1na2vs0mg"},{"bike_id":"1de6e3a2-7b74-4d48-9b25-3eb3a6a22f63","system_id":"levelo_inurba_marseille","lat":43.30547,"lon":5.36524,"is_reserved":false,"is_disabled":false,"rental_uris":{"android":"levelo://app?vid=1de6e3a2-7b74-4d48-9b25-3eb3a6a22f63","ios":"levelo://app?vid=1de6e3a2-7b74-4d48-9b25-3eb3a6a22f63"},"vehicle_type_id":"4","last_reported":1746263399,"current_range_meters":20400,"station_id":"ce4bgs12rcd13ifvqcag","pricing_plan_id":"cebpf4jnsgd1na2vs0mg"},{"bike_id":"e2369c6c-4add-4be8-a64a-8add6170d41f","system_id":"levelo_inurba_marseille","lat":43.30273,"lon":5.37713,"is_reserved":false,"is_disabled":false,"rental_uris":{"android":"levelo://app?vid=e2369c6c-4add-4be8-a64a-8add6170d41f","ios":"levelo://app?vid=e2369c6c-4add-4be8-a64a-8add6170d41f"},"vehicle_type_id":"4","last_reported":1746263399,"current_range_meters":20400,"station_id":"ce4bguh2rcd13ifvqcj0","pricing_plan_id":"cebpf4jnsgd1na2vs0mg"},{"bike_id":"0bf8fabe-1c96-4318-b318-8e31aae2f6c1","system_id":"levelo_inurba_marseille","lat":43.30325,"lon":5.40444,"is_reserved":false,"is_disabled":false,"rental_uris":{"android":"levelo://app?vid=0bf8fabe-1c96-4318-b318-8e31aae2f6c1","ios":"levelo://app?vid=0bf8fabe-1c96-4318-b318-8e31aae2f6c1"},"vehicle_type_id":"4","last_reported":1746263399,"current_range_meters":20400,"station_id":"ce4bh012rcd13ifvqd10","pricing_plan_id":"cebpf4jnsgd1na2vs0mg"},{"bike_id":"7e3909fb-a3ef-45af-ade6-95fe1de011ac","system_id":"levelo_inurba_marseille","lat":43.23962,"lon":5.36629,"is_reserved":false,"is_disabled":false,"rental_uris":{"android":"levelo://app?vid=7e3909fb-a3ef-45af-ade6-95fe1de011ac","ios":"levelo://app?vid=7e3909fb-a3ef-45af-ade6-95fe1de011ac"},"vehicle_type_id":"4","last_reported":1746263399,"current_range_meters":20400,"station_id":"ce4bhi12rcd13ifvqfp0","pricing_plan_id":"cebpf4jnsgd1na2vs0mg"},{"bike_id":"dc5fe893-b143-433b-a238-14153dbad606","system_id":"levelo_inurba_marseille","lat":43.27082,"lon":5.42276,"is_reserved":false,"is_disabled":false,"rental_uris":{"android":"levelo://app?vid=dc5fe893-b143-433b-a238-14153dbad606","ios":"levelo://app?vid=dc5fe893-b143-433b-a238-14153dbad606"},"vehicle_type_id":"4","last_reported":1746263399,"current_range_meters":20400,"station_id":"ce4bhk92rcd13ifvqgb0","pricing_plan_id":"cebpf4jnsgd1na2vs0mg"},{"bike_id":"081de96f-bf51-443b-a90b-f2898e08d1c4","system_id":"levelo_inurba_marseille","lat":43.29565,"lon":5.37502,"is_reserved":false,"is_disabled":false,"rental_uris":{"android":"levelo://app?vid=081de96f-bf51-443b-a90b-f2898e08d1c4","ios":"levelo://app?vid=081de96f-bf51-443b-a90b-f2898e08d1c4"},"vehicle_type_id":"4","last_reported":1746263399,"current_range_meters":20800,"station_id":"ce4bgh92rcd13ifvqb50","pricing_plan_id":"cebpf4jnsgd1na2vs0mg"},{"bike_id":"549b3ceb-be76-4df9-ae21-e94e45c72e59","system_id":"levelo_inurba_marseille","lat":43.30518,"lon":5.36522,"is_reserved":false,"is_disabled":false,"rental_uris":{"android":"levelo://app?vid=549b3ceb-be76-4df9-ae21-e94e45c72e59","ios":"levelo://app?vid=549b3ceb-be76-4df9-ae21-e94e45c72e59"},"vehicle_type_id":"4","last_reported":1746263399,"current_range_meters":21600,"station_id":"ce4bgs12rcd13ifvqcag","pricing_plan_id":"cebpf4jnsgd1na2vs0mg"},{"bike_id":"d0f582e8-9b3c-4cc4-aa75-6f6c1ef4dc52","system_id":"levelo_inurba_marseille","lat":43.29032,"lon":5.37563,"is_reserved":false,"is_disabled":false,"rental_uris":{"android":"levelo://app?vid=d0f582e8-9b3c-4cc4-aa75-6f6c1ef4dc52","ios":"levelo://app?vid=d0f582e8-9b3c-4cc4-aa75-6f6c1ef4dc52"},"vehicle_type_id":"4","last_reported":1746263399,"current_range_meters":21600,"station_id":"ce4bh692rcd13ifvqe90","pricing_plan_id":"cebpf4jnsgd1na2vs0mg"},{"bike_id":"0543489d-91cc-4e66-b4ad-b504474ac899","system_id":"levelo_inurba_marseille","lat":43.269243,"lon":5.389078,"is_reserved":false,"is_disabled":false,"rental_uris":{"android":"levelo://app?vid=0543489d-91cc-4e66-b4ad-b504474ac899","ios":"levelo://app?vid=0543489d-91cc-4e66-b4ad-b504474ac899"},"vehicle_type_id":"4","last_reported":1746263399,"current_range_meters":21600,"station_id":"ce4bhhh2rcd13ifvqfl0","pricing_plan_id":"cebpf4jnsgd1na2vs0mg"},{"bike_id":"70095b94-43e4-4891-b46f-2fdb9fd451b0","system_id":"levelo_inurba_marseille","lat":43.27954,"lon":5.39086,"is_reserved":false,"is_disabled":false,"rental_uris":{"android":"levelo://app?vid=70095b94-43e4-4891-b46f-2fdb9fd451b0","ios":"levelo://app?vid=70095b94-43e4-4891-b46f-2fdb9fd451b0"},"vehicle_type_id":"4","last_reported":1746263399,"current_range_meters":21600,"station_id":"ce4bhjp2rcd13ifvqga0","pricing_plan_id":"cebpf4jnsgd1na2vs0mg"},{"bike_id":"b725bdd8-39a0-48d4-b03f-61bb26f62255","system_id":"levelo_inurba_marseille","lat":43.2293,"lon":5.35376,"is_reserved":false,"is_disabled":false,"rental_uris":{"android":"levelo://app?vid=b725bdd8-39a0-48d4-b03f-61bb26f62255","ios":"levelo://app?vid=b725bdd8-39a0-48d4-b03f-61bb26f62255"},"vehicle_type_id":"4","last_reported":1746263399,"current_range_meters":21600,"station_id":"cpo3532slgdg3j2ikp40","pricing_plan_id":"cebpf4jnsgd1na2vs0mg"},{"bike_id":"dcdf0b8b-ec60-490a-9293-a94b9cb6cee9","system_id":"levelo_inurba_marseille","lat":43.29645,"lon":5.3713,"is_reserved":false,"is_disabled":false,"rental_uris":{"android":"levelo://app?vid=dcdf0b8b-ec60-490a-9293-a94b9cb6cee9","ios":"levelo://app?vid=dcdf0b8b-ec60-490a-9293-a94b9cb6cee9"},"vehicle_type_id":"4","last_reported":1746263399,"current_range_meters":22000,"station_id":"ce4bgnh2rcd13ifvqc0g","pricing_plan_id":"cebpf4jnsgd1na2vs0mg"},{"bike_id":"206d330c-9675-4151-b054-b7bcca1cfe7e","system_id":"levelo_inurba_marseille","lat":43.24664,"lon":5.38165,"is_reserved":false,"is_disabled":false,"rental_uris":{"android":"levelo://app?vid=206d330c-9675-4151-b054-b7bcca1cfe7e","ios":"levelo://app?vid=206d330c-9675-4151-b054-b7bcca1cfe7e"},"vehicle_type_id":"4","last_reported":1746263399,"current_range_meters":22000,"station_id":"ce4bhih2rcd13ifvqfr0","pricing_plan_id":"cebpf4jnsgd1na2vs0mg"},{"bike_id":"17517de0-fbfa-4e7e-8f85-5b43619482ea","system_id":"levelo_inurba_marseille","lat":43.25088,"lon":5.40351,"is_reserved":false,"is_disabled":false,"rental_uris":{"android":"levelo://app?vid=17517de0-fbfa-4e7e-8f85-5b43619482ea","ios":"levelo://app?vid=17517de0-fbfa-4e7e-8f85-5b43619482ea"},"vehicle_type_id":"4","last_reported":1746263399,"current_range_meters":22000,"station_id":"ce4bhlh2rcd13ifvqgig","pricing_plan_id":"cebpf4jnsgd1na2vs0mg"},{"bike_id":"bb7ee8e7-ecc1-4f78-baf0-c0d27d74dab8","system_id":"levelo_inurba_marseille","lat":43.23181,"lon":5.39979,"is_reserved":false,"is_disabled":false,"rental_uris":{"android":"levelo://app?vid=bb7ee8e7-ecc1-4f78-baf0-c0d27d74dab8","ios":"levelo://app?vid=bb7ee8e7-ecc1-4f78-baf0-c0d27d74dab8"},"vehicle_type_id":"4","last_reported":1746263399,"current_range_meters":22000,"station_id":"ce4bhn12rcd13ifvqgqg","pricing_plan_id":"cebpf4jnsgd1na2vs0mg"},{"bike_id":"cbe9032b-ff18-4bb1-b940-bde7497ff44e","system_id":"levelo_inurba_marseille","lat":43.30362,"lon":5.42479,"is_reserved":false,"is_disabled":false,"rental_uris":{"android":"levelo://app?vid=cbe9032b-ff18-4bb1-b940-bde7497ff44e","ios":"levelo://app?vid=cbe9032b-ff18-4bb1-b940-bde7497ff44e"},"vehicle_type_id":"4","last_reported":1746263399,"current_range_meters":22000,"station_id":"ce4bhoh2rcd13ifvqh6g","pricing_plan_id":"cebpf4jnsgd1na2vs0mg"},{"bike_id":"30fda04b-5f8d-4517-ab68-f2df9b0264b3","system_id":"levelo_inurba_marseille","lat":43.28433,"lon":5.39194,"is_reserved":false,"is_disabled":false,"rental_uris":{"android":"levelo://app?vid=30fda04b-5f8d-4517-ab68-f2df9b0264b3","ios":"levelo://app?vid=30fda04b-5f8d-4517-ab68-f2df9b0264b3"},"vehicle_type_id":"4","last_reported":1746263399,"current_range_meters":22400,"station_id":"ce4bhoh2rcd13ifvqh5g","pricing_plan_id":"cebpf4jnsgd1na2vs0mg"},{"bike_id":"99d17d9e-e3a1-449c-9878-97420bda123b","system_id":"levelo_inurba_marseille","lat":43.29566,"lon":5.37504,"is_reserved":false,"is_disabled":false,"rental_uris":{"android":"levelo://app?vid=99d17d9e-e3a1-449c-9878-97420bda123b","ios":"levelo://app?vid=99d17d9e-e3a1-449c-9878-97420bda123b"},"vehicle_type_id":"4","last_reported":1746263399,"current_range_meters":22800,"station_id":"ce4bgh92rcd13ifvqb50","pricing_plan_id":"cebpf4jnsgd1na2vs0mg"},{"bike_id":"cadcf8ba-765e-48cd-be09-7eefad7093e3","system_id":"levelo_inurba_marseille","lat":43.29728,"lon":5.37689,"is_reserved":false,"is_disabled":false,"rental_uris":{"android":"levelo://app?vid=cadcf8ba-765e-48cd-be09-7eefad7093e3","ios":"levelo://app?vid=cadcf8ba-765e-48cd-be09-7eefad7093e3"},"vehicle_type_id":"4","last_reported":1746263399,"current_range_meters":22800,"station_id":"ce4bgkh2rcd13ifvqbl0","pricing_plan_id":"cebpf4jnsgd1na2vs0mg"},{"bike_id":"d93b8431-cb57-4385-bd70-b611640b0cbd","system_id":"levelo_inurba_marseille","lat":43.29621,"lon":5.37157,"is_reserved":false,"is_disabled":false,"rental_uris":{"android":"levelo://app?vid=d93b8431-cb57-4385-bd70-b611640b0cbd","ios":"levelo://app?vid=d93b8431-cb57-4385-bd70-b611640b0cbd"},"vehicle_type_id":"4","last_reported":1746263399,"current_range_meters":22800,"station_id":"ce4bgnh2rcd13ifvqc0g","pricing_plan_id":"cebpf4jnsgd1na2vs0mg"},{"bike_id":"228ce56e-0d85-46e5-8c3f-2b4bbd157fd4","system_id":"levelo_inurba_marseille","lat":43.305383,"lon":5.365507,"is_reserved":false,"is_disabled":false,"rental_uris":{"android":"levelo://app?vid=228ce56e-0d85-46e5-8c3f-2b4bbd157fd4","ios":"levelo://app?vid=228ce56e-0d85-46e5-8c3f-2b4bbd157fd4"},"vehicle_type_id":"4","last_reported":1746263399,"current_range_meters":22800,"station_id":"ce4bgs12rcd13ifvqcag","pricing_plan_id":"cebpf4jnsgd1na2vs0mg"},{"bike_id":"94bcb1ff-a3b9-4920-acc7-bea9e8c213f5","system_id":"levelo_inurba_marseille","lat":43.28679,"lon":5.38668,"is_reserved":false,"is_disabled":false,"rental_uris":{"android":"levelo://app?vid=94bcb1ff-a3b9-4920-acc7-bea9e8c213f5","ios":"levelo://app?vid=94bcb1ff-a3b9-4920-acc7-bea9e8c213f5"},"vehicle_type_id":"4","last_reported":1746263399,"current_range_meters":22800,"station_id":"ce4bh492rcd13ifvqdug","pricing_plan_id":"cebpf4jnsgd1na2vs0mg"},{"bike_id":"029a87bb-90fa-447a-9828-2f6d8a7ab734","system_id":"levelo_inurba_marseille","lat":43.308058,"lon":5.434918,"is_reserved":false,"is_disabled":false,"rental_uris":{"android":"levelo://app?vid=029a87bb-90fa-447a-9828-2f6d8a7ab734","ios":"levelo://app?vid=029a87bb-90fa-447a-9828-2f6d8a7ab734"},"vehicle_type_id":"4","last_reported":1746263399,"current_range_meters":22800,"station_id":"ce4bhph2rcd13ifvqheg","pricing_plan_id":"cebpf4jnsgd1na2vs0mg"},{"bike_id":"85f24af0-dee4-49a1-a83b-a442e9bc4f75","system_id":"levelo_inurba_marseille","lat":43.30796,"lon":5.38154,"is_reserved":false,"is_disabled":false,"rental_uris":{"android":"levelo://app?vid=85f24af0-dee4-49a1-a83b-a442e9bc4f75","ios":"levelo://app?vid=85f24af0-dee4-49a1-a83b-a442e9bc4f75"},"vehicle_type_id":"4","last_reported":1746263399,"current_range_meters":23200,"station_id":"ce4bgt12rcd13ifvqce0","pricing_plan_id":"cebpf4jnsgd1na2vs0mg"},{"bike_id":"18137903-72ba-4200-abff-b6b27df8a90f","system_id":"levelo_inurba_marseille","lat":43.31363,"lon":5.38498,"is_reserved":false,"is_disabled":false,"rental_uris":{"android":"levelo://app?vid=18137903-72ba-4200-abff-b6b27df8a90f","ios":"levelo://app?vid=18137903-72ba-4200-abff-b6b27df8a90f"},"vehicle_type_id":"4","last_reported":1746263399,"current_range_meters":23200,"station_id":"ce4bgt92rcd13ifvqcf0","pricing_plan_id":"cebpf4jnsgd1na2vs0mg"},{"bike_id":"d365758e-d925-4687-857c-495ad7e103e1","system_id":"levelo_inurba_marseille","lat":43.29095,"lon":5.38136,"is_reserved":false,"is_disabled":false,"rental_uris":{"android":"levelo://app?vid=d365758e-d925-4687-857c-495ad7e103e1","ios":"levelo://app?vid=d365758e-d925-4687-857c-495ad7e103e1"},"vehicle_type_id":"4","last_reported":1746263399,"current_range_meters":23200,"station_id":"ce4bh512rcd13ifvqe2g","pricing_plan_id":"cebpf4jnsgd1na2vs0mg"},{"bike_id":"5d8281b4-4195-4780-9ed4-bcb562bdbe72","system_id":"levelo_inurba_marseille","lat":43.23155,"lon":5.43703,"is_reserved":false,"is_disabled":false,"rental_uris":{"android":"levelo://app?vid=5d8281b4-4195-4780-9ed4-bcb562bdbe72","ios":"levelo://app?vid=5d8281b4-4195-4780-9ed4-bcb562bdbe72"},"vehicle_type_id":"4","last_reported":1746263399,"current_range_meters":23200,"station_id":"ce4bhmp2rcd13ifvqgog","pricing_plan_id":"cebpf4jnsgd1na2vs0mg"},{"bike_id":"4e65a762-e06d-4c29-b9ea-fd31f6fe0be2","system_id":"levelo_inurba_marseille","lat":43.28597,"lon":5.37065,"is_reserved":false,"is_disabled":false,"rental_uris":{"android":"levelo://app?vid=4e65a762-e06d-4c29-b9ea-fd31f6fe0be2","ios":"levelo://app?vid=4e65a762-e06d-4c29-b9ea-fd31f6fe0be2"},"vehicle_type_id":"4","last_reported":1746263399,"current_range_meters":23200,"station_id":"ce4bht12rcd13ifvqi60","pricing_plan_id":"cebpf4jnsgd1na2vs0mg"},{"bike_id":"b6ff7fa4-e4bc-4cce-8826-1b5f2fea7511","system_id":"levelo_inurba_marseille","lat":43.29564,"lon":5.37508,"is_reserved":false,"is_disabled":false,"rental_uris":{"android":"levelo://app?vid=b6ff7fa4-e4bc-4cce-8826-1b5f2fea7511","ios":"levelo://app?vid=b6ff7fa4-e4bc-4cce-8826-1b5f2fea7511"},"vehicle_type_id":"4","last_reported":1746263399,"current_range_meters":24000,"station_id":"ce4bgh92rcd13ifvqb50","pricing_plan_id":"cebpf4jnsgd1na2vs0mg"},{"bike_id":"4c32163b-454e-49a2-ae16-e54a09a2d97b","system_id":"levelo_inurba_marseille","lat":43.29186,"lon":5.39314,"is_reserved":false,"is_disabled":false,"rental_uris":{"android":"levelo://app?vid=4c32163b-454e-49a2-ae16-e54a09a2d97b","ios":"levelo://app?vid=4c32163b-454e-49a2-ae16-e54a09a2d97b"},"vehicle_type_id":"4","last_reported":1746263399,"current_range_meters":24000,"station_id":"ce4bh192rcd13ifvqdd0","pricing_plan_id":"cebpf4jnsgd1na2vs0mg"},{"bike_id":"ecafa817-97c3-4b51-a9f2-7dc39a787e41","system_id":"levelo_inurba_marseille","lat":43.25563,"lon":5.38239,"is_reserved":false,"is_disabled":false,"rental_uris":{"android":"levelo://app?vid=ecafa817-97c3-4b51-a9f2-7dc39a787e41","ios":"levelo://app?vid=ecafa817-97c3-4b51-a9f2-7dc39a787e41"},"vehicle_type_id":"4","last_reported":1746263399,"current_range_meters":24000,"station_id":"ce4bhih2rcd13ifvqfs0","pricing_plan_id":"cebpf4jnsgd1na2vs0mg"},{"bike_id":"d7948657-be19-48e3-abbb-ea98ed718cc7","system_id":"levelo_inurba_marseille","lat":43.2512,"lon":5.40311,"is_reserved":false,"is_disabled":false,"rental_uris":{"android":"levelo://app?vid=d7948657-be19-48e3-abbb-ea98ed718cc7","ios":"levelo://app?vid=d7948657-be19-48e3-abbb-ea98ed718cc7"},"vehicle_type_id":"4","last_reported":1746263399,"current_range_meters":24000,"station_id":"ce4bhlh2rcd13ifvqgig","pricing_plan_id":"cebpf4jnsgd1na2vs0mg"},{"bike_id":"39109ae3-767e-493e-8a75-65eb1e6d39fe","system_id":"levelo_inurba_marseille","lat":43.21196,"lon":5.35067,"is_reserved":false,"is_disabled":false,"rental_uris":{"android":"levelo://app?vid=39109ae3-767e-493e-8a75-65eb1e6d39fe","ios":"levelo://app?vid=39109ae3-767e-493e-8a75-65eb1e6d39fe"},"vehicle_type_id":"4","last_reported":1746263399,"current_range_meters":24000,"station_id":"st_cvj6sg6p6f1abm77japg","pricing_plan_id":"cebpf4jnsgd1na2vs0mg"},{"bike_id":"85a730b5-c28f-4c6c-8e3f-734b4281147b","system_id":"levelo_inurba_marseille","lat":43.31524,"lon":5.3897,"is_reserved":false,"is_disabled":false,"rental_uris":{"android":"levelo://app?vid=85a730b5-c28f-4c6c-8e3f-734b4281147b","ios":"levelo://app?vid=85a730b5-c28f-4c6c-8e3f-734b4281147b"},"vehicle_type_id":"4","last_reported":1746263399,"current_range_meters":24400,"station_id":"","pricing_plan_id":"cebpf4jnsgd1na2vs0mg"},{"bike_id":"fc400f1e-ea64-4b30-9c61-d6d8fa2ae1f3","system_id":"levelo_inurba_marseille","lat":43.29586,"lon":5.36738,"is_reserved":false,"is_disabled":false,"rental_uris":{"android":"levelo://app?vid=fc400f1e-ea64-4b30-9c61-d6d8fa2ae1f3","ios":"levelo://app?vid=fc400f1e-ea64-4b30-9c61-d6d8fa2ae1f3"},"vehicle_type_id":"4","last_reported":1746263399,"current_range_meters":24400,"station_id":"ce4bgph2rcd13ifvqc2g","pricing_plan_id":"cebpf4jnsgd1na2vs0mg"},{"bike_id":"c10d2207-47aa-429e-b58c-c186040d5121","system_id":"levelo_inurba_marseille","lat":43.30459,"lon":5.37904,"is_reserved":false,"is_disabled":false,"rental_uris":{"android":"levelo://app?vid=c10d2207-47aa-429e-b58c-c186040d5121","ios":"levelo://app?vid=c10d2207-47aa-429e-b58c-c186040d5121"},"vehicle_type_id":"4","last_reported":1746263399,"current_range_meters":24400,"station_id":"ce4bgup2rcd13ifvqcn0","pricing_plan_id":"cebpf4jnsgd1na2vs0mg"},{"bike_id":"d14aac38-2fad-42c0-8374-baa98351deaa","system_id":"levelo_inurba_marseille","lat":43.30416,"lon":5.39723,"is_reserved":false,"is_disabled":false,"rental_uris":{"android":"levelo://app?vid=d14aac38-2fad-42c0-8374-baa98351deaa","ios":"levelo://app?vid=d14aac38-2fad-42c0-8374-baa98351deaa"},"vehicle_type_id":"4","last_reported":1746263399,"current_range_meters":24400,"station_id":"ce4bh092rcd13ifvqd20","pricing_plan_id":"cebpf4jnsgd1na2vs0mg"},{"bike_id":"7a3ce176-b92c-4f7e-b5e4-18195d21139c","system_id":"levelo_inurba_marseille","lat":43.23181,"lon":5.39989,"is_reserved":false,"is_disabled":false,"rental_uris":{"android":"levelo://app?vid=7a3ce176-b92c-4f7e-b5e4-18195d21139c","ios":"levelo://app?vid=7a3ce176-b92c-4f7e-b5e4-18195d21139c"},"vehicle_type_id":"4","last_reported":1746263399,"current_range_meters":24400,"station_id":"ce4bhn12rcd13ifvqgqg","pricing_plan_id":"cebpf4jnsgd1na2vs0mg"},{"bike_id":"d8b60368-ee34-45bc-856a-d4f3030d3f05","system_id":"levelo_inurba_marseille","lat":43.23179,"lon":5.39981,"is_reserved":false,"is_disabled":false,"rental_uris":{"android":"levelo://app?vid=d8b60368-ee34-45bc-856a-d4f3030d3f05","ios":"levelo://app?vid=d8b60368-ee34-45bc-856a-d4f3030d3f05"},"vehicle_type_id":"4","last_reported":1746263399,"current_range_meters":24400,"station_id":"ce4bhn12rcd13ifvqgqg","pricing_plan_id":"cebpf4jnsgd1na2vs0mg"},{"bike_id":"3e7dcdb5-240f-4605-915e-73a94cf84290","system_id":"levelo_inurba_marseille","lat":43.32045,"lon":5.41536,"is_reserved":false,"is_disabled":false,"rental_uris":{"android":"levelo://app?vid=3e7dcdb5-240f-4605-915e-73a94cf84290","ios":"levelo://app?vid=3e7dcdb5-240f-4605-915e-73a94cf84290"},"vehicle_type_id":"4","last_reported":1746263399,"current_range_meters":24400,"station_id":"ce4bhq92rcd13ifvqhkg","pricing_plan_id":"cebpf4jnsgd1na2vs0mg"},{"bike_id":"364e5e2e-0b9f-490b-b832-124ab6944aab","system_id":"levelo_inurba_marseille","lat":43.301509,"lon":5.380617,"is_reserved":false,"is_disabled":false,"rental_uris":{"android":"levelo://app?vid=364e5e2e-0b9f-490b-b832-124ab6944aab","ios":"levelo://app?vid=364e5e2e-0b9f-490b-b832-124ab6944aab"},"vehicle_type_id":"4","last_reported":1746263399,"current_range_meters":24800,"station_id":"ce4bgjp2rcd13ifvqbh0","pricing_plan_id":"cebpf4jnsgd1na2vs0mg"},{"bike_id":"095fa394-24dd-4142-86dc-1147038e6b4f","system_id":"levelo_inurba_marseille","lat":43.30538,"lon":5.36547,"is_reserved":false,"is_disabled":false,"rental_uris":{"android":"levelo://app?vid=095fa394-24dd-4142-86dc-1147038e6b4f","ios":"levelo://app?vid=095fa394-24dd-4142-86dc-1147038e6b4f"},"vehicle_type_id":"4","last_reported":1746263399,"current_range_meters":24800,"station_id":"ce4bgs12rcd13ifvqcag","pricing_plan_id":"cebpf4jnsgd1na2vs0mg"},{"bike_id":"060fac57-e604-4022-ad52-45f039217821","system_id":"levelo_inurba_marseille","lat":43.30946,"lon":5.39032,"is_reserved":false,"is_disabled":false,"rental_uris":{"android":"levelo://app?vid=060fac57-e604-4022-ad52-45f039217821","ios":"levelo://app?vid=060fac57-e604-4022-ad52-45f039217821"},"vehicle_type_id":"4","last_reported":1746263399,"current_range_meters":24800,"station_id":"ce4bgup2rcd13ifvqco0","pricing_plan_id":"cebpf4jnsgd1na2vs0mg"},{"bike_id":"df86844d-5b78-49b3-abae-9d226111b63a","system_id":"levelo_inurba_marseille","lat":43.27375,"lon":5.36251,"is_reserved":false,"is_disabled":false,"rental_uris":{"android":"levelo://app?vid=df86844d-5b78-49b3-abae-9d226111b63a","ios":"levelo://app?vid=df86844d-5b78-49b3-abae-9d226111b63a"},"vehicle_type_id":"4","last_reported":1746263399,"current_range_meters":24800,"station_id":"ce4bhbh2rcd13ifvqeo0","pricing_plan_id":"cebpf4jnsgd1na2vs0mg"},{"bike_id":"b02b948c-3579-41e0-8147-e42f8ce9ab20","system_id":"levelo_inurba_marseille","lat":43.23956,"lon":5.36628,"is_reserved":false,"is_disabled":false,"rental_uris":{"android":"levelo://app?vid=b02b948c-3579-41e0-8147-e42f8ce9ab20","ios":"levelo://app?vid=b02b948c-3579-41e0-8147-e42f8ce9ab20"},"vehicle_type_id":"4","last_reported":1746263399,"current_range_meters":24800,"station_id":"ce4bhi12rcd13ifvqfp0","pricing_plan_id":"cebpf4jnsgd1na2vs0mg"},{"bike_id":"fa62b819-970e-4d0f-bc91-f80ea3c2cfff","system_id":"levelo_inurba_marseille","lat":43.25719,"lon":5.4112,"is_reserved":false,"is_disabled":false,"rental_uris":{"android":"levelo://app?vid=fa62b819-970e-4d0f-bc91-f80ea3c2cfff","ios":"levelo://app?vid=fa62b819-970e-4d0f-bc91-f80ea3c2cfff"},"vehicle_type_id":"4","last_reported":1746263399,"current_range_meters":24800,"station_id":"ce4bhkp2rcd13ifvqgd0","pricing_plan_id":"cebpf4jnsgd1na2vs0mg"},{"bike_id":"740b9354-f94f-41f9-a61c-1973f4545658","system_id":"levelo_inurba_marseille","lat":43.30144,"lon":5.37419,"is_reserved":false,"is_disabled":false,"rental_uris":{"android":"levelo://app?vid=740b9354-f94f-41f9-a61c-1973f4545658","ios":"levelo://app?vid=740b9354-f94f-41f9-a61c-1973f4545658"},"vehicle_type_id":"4","last_reported":1746263399,"current_range_meters":25200,"station_id":"ce4bgs92rcd13ifvqcc0","pricing_plan_id":"cebpf4jnsgd1na2vs0mg"},{"bike_id":"e3d6e32b-9dc6-4a75-a56f-32d8c5570156","system_id":"levelo_inurba_marseille","lat":43.24173,"lon":5.39724,"is_reserved":false,"is_disabled":false,"rental_uris":{"android":"levelo://app?vid=e3d6e32b-9dc6-4a75-a56f-32d8c5570156","ios":"levelo://app?vid=e3d6e32b-9dc6-4a75-a56f-32d8c5570156"},"vehicle_type_id":"4","last_reported":1746263399,"current_range_meters":25200,"station_id":"ce4bhn12rcd13ifvqgpg","pricing_plan_id":"cebpf4jnsgd1na2vs0mg"},{"bike_id":"f74c6c35-a306-4ae1-9069-33ebc6b7c6b8","system_id":"levelo_inurba_marseille","lat":43.2318,"lon":5.39976,"is_reserved":false,"is_disabled":false,"rental_uris":{"android":"levelo://app?vid=f74c6c35-a306-4ae1-9069-33ebc6b7c6b8","ios":"levelo://app?vid=f74c6c35-a306-4ae1-9069-33ebc6b7c6b8"},"vehicle_type_id":"4","last_reported":1746263399,"current_range_meters":25200,"station_id":"ce4bhn12rcd13ifvqgqg","pricing_plan_id":"cebpf4jnsgd1na2vs0mg"},{"bike_id":"167d9cab-1574-47f7-b940-c6db31e18c54","system_id":"levelo_inurba_marseille","lat":43.30573,"lon":5.37211,"is_reserved":false,"is_disabled":false,"rental_uris":{"android":"levelo://app?vid=167d9cab-1574-47f7-b940-c6db31e18c54","ios":"levelo://app?vid=167d9cab-1574-47f7-b940-c6db31e18c54"},"vehicle_type_id":"4","last_reported":1746263399,"current_range_meters":25600,"station_id":"ce4bgqh2rcd13ifvqc4g","pricing_plan_id":"cebpf4jnsgd1na2vs0mg"},{"bike_id":"a5c1492a-23b5-4684-a497-65267b78e211","system_id":"levelo_inurba_marseille","lat":43.30457,"lon":5.37915,"is_reserved":false,"is_disabled":false,"rental_uris":{"android":"levelo://app?vid=a5c1492a-23b5-4684-a497-65267b78e211","ios":"levelo://app?vid=a5c1492a-23b5-4684-a497-65267b78e211"},"vehicle_type_id":"4","last_reported":1746263399,"current_range_meters":25600,"station_id":"ce4bgup2rcd13ifvqcn0","pricing_plan_id":"cebpf4jnsgd1na2vs0mg"},{"bike_id":"085e45f4-0d03-4c37-a722-8a9de5a2676b","system_id":"levelo_inurba_marseille","lat":43.255844,"lon":5.382306,"is_reserved":false,"is_disabled":false,"rental_uris":{"android":"levelo://app?vid=085e45f4-0d03-4c37-a722-8a9de5a2676b","ios":"levelo://app?vid=085e45f4-0d03-4c37-a722-8a9de5a2676b"},"vehicle_type_id":"4","last_reported":1746263399,"current_range_meters":25600,"station_id":"ce4bhih2rcd13ifvqfs0","pricing_plan_id":"cebpf4jnsgd1na2vs0mg"},{"bike_id":"8f2787aa-d29d-440b-a0b1-8d652626962f","system_id":"levelo_inurba_marseille","lat":43.25581,"lon":5.38225,"is_reserved":false,"is_disabled":false,"rental_uris":{"android":"levelo://app?vid=8f2787aa-d29d-440b-a0b1-8d652626962f","ios":"levelo://app?vid=8f2787aa-d29d-440b-a0b1-8d652626962f"},"vehicle_type_id":"4","last_reported":1746263399,"current_range_meters":25600,"station_id":"ce4bhih2rcd13ifvqfs0","pricing_plan_id":"cebpf4jnsgd1na2vs0mg"},{"bike_id":"98c18424-e0d8-45c0-8084-08e1fb42eb19","system_id":"levelo_inurba_marseille","lat":43.2989,"lon":5.4368,"is_reserved":false,"is_disabled":false,"rental_uris":{"android":"levelo://app?vid=98c18424-e0d8-45c0-8084-08e1fb42eb19","ios":"levelo://app?vid=98c18424-e0d8-45c0-8084-08e1fb42eb19"},"vehicle_type_id":"4","last_reported":1746263399,"current_range_meters":25600,"station_id":"ce4bhpp2rcd13ifvqhfg","pricing_plan_id":"cebpf4jnsgd1na2vs0mg"},{"bike_id":"b6a07bd4-db6d-49e8-984e-4675f8f8e49b","system_id":"levelo_inurba_marseille","lat":43.29367,"lon":5.37862,"is_reserved":false,"is_disabled":false,"rental_uris":{"android":"levelo://app?vid=b6a07bd4-db6d-49e8-984e-4675f8f8e49b","ios":"levelo://app?vid=b6a07bd4-db6d-49e8-984e-4675f8f8e49b"},"vehicle_type_id":"4","last_reported":1746263399,"current_range_meters":26000,"station_id":"ce4bgjh2rcd13ifvqbf0","pricing_plan_id":"cebpf4jnsgd1na2vs0mg"},{"bike_id":"2b05ce5f-6ca1-499a-913c-00fd09f148b4","system_id":"levelo_inurba_marseille","lat":43.30544,"lon":5.36551,"is_reserved":false,"is_disabled":false,"rental_uris":{"android":"levelo://app?vid=2b05ce5f-6ca1-499a-913c-00fd09f148b4","ios":"levelo://app?vid=2b05ce5f-6ca1-499a-913c-00fd09f148b4"},"vehicle_type_id":"4","last_reported":1746263399,"current_range_meters":26000,"station_id":"ce4bgs12rcd13ifvqcag","pricing_plan_id":"cebpf4jnsgd1na2vs0mg"},{"bike_id":"f7f4b574-9f8c-4845-915c-eac2b084e5d6","system_id":"levelo_inurba_marseille","lat":43.27374,"lon":5.36258,"is_reserved":false,"is_disabled":false,"rental_uris":{"android":"levelo://app?vid=f7f4b574-9f8c-4845-915c-eac2b084e5d6","ios":"levelo://app?vid=f7f4b574-9f8c-4845-915c-eac2b084e5d6"},"vehicle_type_id":"4","last_reported":1746263399,"current_range_meters":26000,"station_id":"ce4bhbh2rcd13ifvqeo0","pricing_plan_id":"cebpf4jnsgd1na2vs0mg"},{"bike_id":"904a67bb-3dfd-4572-a0ac-e07b0601aedd","system_id":"levelo_inurba_marseille","lat":43.32333,"lon":5.4061,"is_reserved":false,"is_disabled":false,"rental_uris":{"android":"levelo://app?vid=904a67bb-3dfd-4572-a0ac-e07b0601aedd","ios":"levelo://app?vid=904a67bb-3dfd-4572-a0ac-e07b0601aedd"},"vehicle_type_id":"4","last_reported":1746263399,"current_range_meters":26000,"station_id":"ce4bhq92rcd13ifvqhjg","pricing_plan_id":"cebpf4jnsgd1na2vs0mg"},{"bike_id":"2dce38cf-a8d4-49cd-9fcf-ef494d90a125","system_id":"levelo_inurba_marseille","lat":43.27138,"lon":5.36362,"is_reserved":false,"is_disabled":false,"rental_uris":{"android":"levelo://app?vid=2dce38cf-a8d4-49cd-9fcf-ef494d90a125","ios":"levelo://app?vid=2dce38cf-a8d4-49cd-9fcf-ef494d90a125"},"vehicle_type_id":"4","last_reported":1746263399,"current_range_meters":26800,"station_id":"","pricing_plan_id":"cebpf4jnsgd1na2vs0mg"},{"bike_id":"ca2d2f8e-8c7f-4395-bd58-271f94f85d1e","system_id":"levelo_inurba_marseille","lat":43.28278,"lon":5.36132,"is_reserved":false,"is_disabled":false,"rental_uris":{"android":"levelo://app?vid=ca2d2f8e-8c7f-4395-bd58-271f94f85d1e","ios":"levelo://app?vid=ca2d2f8e-8c7f-4395-bd58-271f94f85d1e"},"vehicle_type_id":"4","last_reported":1746263399,"current_range_meters":26800,"station_id":"","pricing_plan_id":"cebpf4jnsgd1na2vs0mg"},{"bike_id":"87e195e9-843e-4c4a-b4b7-9c97c1cd59be","system_id":"levelo_inurba_marseille","lat":43.293,"lon":5.37464,"is_reserved":false,"is_disabled":false,"rental_uris":{"android":"levelo://app?vid=87e195e9-843e-4c4a-b4b7-9c97c1cd59be","ios":"levelo://app?vid=87e195e9-843e-4c4a-b4b7-9c97c1cd59be"},"vehicle_type_id":"4","last_reported":1746263399,"current_range_meters":26800,"station_id":"ce4bgi12rcd13ifvqb70","pricing_plan_id":"cebpf4jnsgd1na2vs0mg"},{"bike_id":"3fa4ad01-03b6-4b9c-8f0d-6615df4d777f","system_id":"levelo_inurba_marseille","lat":43.3081,"lon":5.38156,"is_reserved":false,"is_disabled":false,"rental_uris":{"android":"levelo://app?vid=3fa4ad01-03b6-4b9c-8f0d-6615df4d777f","ios":"levelo://app?vid=3fa4ad01-03b6-4b9c-8f0d-6615df4d777f"},"vehicle_type_id":"4","last_reported":1746263399,"current_range_meters":26800,"station_id":"ce4bgt12rcd13ifvqce0","pricing_plan_id":"cebpf4jnsgd1na2vs0mg"},{"bike_id":"d36ce7ff-52ca-4827-8b92-968471c17776","system_id":"levelo_inurba_marseille","lat":43.30458,"lon":5.37898,"is_reserved":false,"is_disabled":false,"rental_uris":{"android":"levelo://app?vid=d36ce7ff-52ca-4827-8b92-968471c17776","ios":"levelo://app?vid=d36ce7ff-52ca-4827-8b92-968471c17776"},"vehicle_type_id":"4","last_reported":1746263399,"current_range_meters":26800,"station_id":"ce4bgup2rcd13ifvqcn0","pricing_plan_id":"cebpf4jnsgd1na2vs0mg"},{"bike_id":"d2363e9d-64ae-48d6-913b-24205a283e0f","system_id":"levelo_inurba_marseille","lat":43.303371,"lon":5.404507,"is_reserved":false,"is_disabled":false,"rental_uris":{"android":"levelo://app?vid=d2363e9d-64ae-48d6-913b-24205a283e0f","ios":"levelo://app?vid=d2363e9d-64ae-48d6-913b-24205a283e0f"},"vehicle_type_id":"4","last_reported":1746263399,"current_range_meters":26800,"station_id":"ce4bh012rcd13ifvqd10","pricing_plan_id":"cebpf4jnsgd1na2vs0mg"},{"bike_id":"07bc4154-6d4e-4414-bdd3-af5034aa0050","system_id":"levelo_inurba_marseille","lat":43.31263,"lon":5.40165,"is_reserved":false,"is_disabled":false,"rental_uris":{"android":"levelo://app?vid=07bc4154-6d4e-4414-bdd3-af5034aa0050","ios":"levelo://app?vid=07bc4154-6d4e-4414-bdd3-af5034aa0050"},"vehicle_type_id":"4","last_reported":1746263399,"current_range_meters":26800,"station_id":"ce4bh092rcd13ifvqd30","pricing_plan_id":"cebpf4jnsgd1na2vs0mg"},{"bike_id":"f1cb4665-30af-47ba-bc98-b45ed30ef785","system_id":"levelo_inurba_marseille","lat":43.312649,"lon":5.401583,"is_reserved":false,"is_disabled":false,"rental_uris":{"android":"levelo://app?vid=f1cb4665-30af-47ba-bc98-b45ed30ef785","ios":"levelo://app?vid=f1cb4665-30af-47ba-bc98-b45ed30ef785"},"vehicle_type_id":"4","last_reported":1746263399,"current_range_meters":26800,"station_id":"ce4bh092rcd13ifvqd30","pricing_plan_id":"cebpf4jnsgd1na2vs0mg"},