{"last_updated":1748689700,"ttl":60,"version":"2.2","data":{"bikes":[{"bike_id":"63b0e50f-8b99-41da-a48b-f8ed229782f3","system_id":"levelo_inurba_marseille","lat":43.2903,"lon":5.38133,"is_reserved":false,"is_disabled":false,"rental_uris":{"android":"levelo://app?vid=63b0e50f-8b99-41da-a48b-f8ed229782f3","ios":"levelo://app?vid=63b0e50f-8b99-41da-a48b-f8ed229782f3"},"vehicle_type_id":"4","last_reported":1748689700,"current_range_meters":2800,"station_id":"ce4bh4p2rcd13ifvqe1g","pricing_plan_id":"cebpf4jnsgd1na2vs0mg"},{"bike_id":"5ed5b339-4457-4433-a432-2bd0d2a3aa42","system_id":"levelo_inurba_marseille","lat":43.28266,"lon":5.35059,"is_reserved":false,"is_disabled":false,"rental_uris":{"android":"levelo://app?vid=5ed5b339-4457-4433-a432-2bd0d2a3aa42","ios":"levelo://app?vid=5ed5b339-4457-4433-a432-2bd0d2a3aa42"},"vehicle_type_id":"4","last_reported":1748689700,"current_range_meters":2800,"station_id":"ce4bhbp2rcd13ifvqerg","pricing_plan_id":"cebpf4jnsgd1na2vs0mg"},{"bike_id":"a24ed859-7ffe-447b-a280-957c836eb856","system_id":"levelo_inurba_marseille","lat":43.31351,"lon":5.37607,"is_reserved":false,"is_disabled":false,"rental_uris":{"android":"levelo://app?vid=a24ed859-7ffe-447b-a280-957c836eb856","ios":"levelo://app?vid=a24ed859-7ffe-447b-a280-957c836eb856"},"vehicle_type_id":"4","last_reported":1748689700,"current_range_meters":2800,"station_id":"","pricing_plan_id":"cebpf4jnsgd1na2vs0mg"},{"bike_id":"4606a288-c4b4-467c-bdcc-a9515d68faf4","system_id":"levelo_inurba_marseille","lat":43.27199,"lon":5.3901,"is_reserved":false,"is_disabled":false,"rental_uris":{"android":"levelo://app?vid=4606a288-c4b4-467c-bdcc-a9515d68faf4","ios":"levelo://app?vid=4606a288-c4b4-467c-bdcc-a9515d68faf4"},"vehicle_type_id":"4","last_reported":1748689700,"current_range_meters":2800,"station_id":"","pricing_plan_id":"cebpf4jnsgd1na2vs0mg"},{"bike_id":"f490c801-b1ea-4c16-9333-bcd6db113eb6","system_id":"levelo_inurba_marseille","lat":43.28413,"lon":5.34977,"is_reserved":false,"is_disabled":false,"rental_uris":{"android":"levelo://app?vid=f490c801-b1ea-4c16-9333-bcd6db113eb6","ios":"levelo://app?vid=f490c801-b1ea-4c16-9333-bcd6db113eb6"},"vehicle_type_id":"4","last_reported":1748689700,"current_range_meters":3200,"station_id":"ce4bhbh2rcd13ifvqepg","pricing_plan_id":"cebpf4jnsgd1na2vs0mg"},{"bike_id":"36240f0a-66a2-43ec-8330-1f3a9d08cc7e","system_id":"levelo_inurba_marseille","lat":43.23899,"lon":5.36258,"is_reserved":false,"is_disabled":false,"rental_uris":{"android":"levelo://app?vid=36240f0a-66a2-43ec-8330-1f3a9d08cc7e","ios":"levelo://app?vid=36240f0a-66a2-43ec-8330-1f3a9d08cc7e"},"vehicle_type_id":"4","last_reported":1748689700,"current_range_meters":3200,"station_id":"","pricing_plan_id":"cebpf4jnsgd1na2vs0mg"},{"bike_id":"381d9bfb-ab55-4205-9262-cf0adcb674d0","system_id":"levelo_inurba_marseille","lat":43.28672,"lon":5.38663,"is_reserved":false,"is_disabled":false,"rental_uris":{"android":"levelo://app?vid=381d9bfb-ab55-4205-9262-cf0adcb674d0","ios":"levelo://app?vid=381d9bfb-ab55-4205-9262-cf0adcb674d0"},"vehicle_type_id":"4","last_reported":1748689700,"current_range_meters":3200,"station_id":"ce4bh492rcd13ifvqdug","pricing_plan_id":"cebpf4jnsgd1na2vs0mg"},{"bike_id":"c40b5fb1-fb87-4a87-bbd6-c1f33aaedd7f","system_id":"levelo_inurba_marseille","lat":43.30374,"lon":5.42477,"is_reserved":false,"is_disabled":false,"rental_uris":{"android":"levelo://app?vid=c40b5fb1-fb87-4a87-bbd6-c1f33aaedd7f","ios":"levelo://app?vid=c40b5fb1-fb87-4a87-bbd6-c1f33aaedd7f"},"vehicle_type_id":"4","last_reported":1748689700,"current_range_meters":3200,"station_id":"ce4bhoh2rcd13ifvqh6g","pricing_plan_id":"cebpf4jnsgd1na2vs0mg"},{"bike_id":"55080048-1445-433c-8653-9f436d843131","system_id":"levelo_inurba_marseille","lat":43.2846,"lon":5.36911,"is_reserved":false,"is_disabled":false,"rental_uris":{"android":"levelo://app?vid=55080048-1445-433c-8653-9f436d843131","ios":"levelo://app?vid=55080048-1445-433c-8653-9f436d843131"},"vehicle_type_id":"4","last_reported":1748689700,"current_range_meters":3600,"station_id":"","pricing_plan_id":"cebpf4jnsgd1na2vs0mg"},{"bike_id":"3439ba72-6274-4944-afe8-831521b598e6","system_id":"levelo_inurba_marseille","lat":43.29041,"lon":5.3996,"is_reserved":false,"is_disabled":false,"rental_uris":{"android":"levelo://app?vid=3439ba72-6274-4944-afe8-831521b598e6","ios":"levelo://app?vid=3439ba72-6274-4944-afe8-831521b598e6"},"vehicle_type_id":"4","last_reported":1748689700,"current_range_meters":3600,"station_id":"ce4bh392rcd13ifvqdm0","pricing_plan_id":"cebpf4jnsgd1na2vs0mg"},{"bike_id":"26904eab-0040-4a23-9aec-04ac31ff2d99","system_id":"levelo_inurba_marseille","lat":43.24175,"lon":5.36368,"is_reserved":false,"is_disabled":false,"rental_uris":{"android":"levelo://app?vid=26904eab-0040-4a23-9aec-04ac31ff2d99","ios":"levelo://app?vid=26904eab-0040-4a23-9aec-04ac31ff2d99"},"vehicle_type_id":"4","last_reported":1748689700,"current_range_meters":3600,"station_id":"cpo36qri1sfpv3e86is0","pricing_plan_id":"cebpf4jnsgd1na2vs0mg"},{"bike_id":"d2b3ba5a-2f70-4307-9091-300175a74120","system_id":"levelo_inurba_marseille","lat":43.28267,"lon":5.35067,"is_reserved":false,"is_disabled":false,"rental_uris":{"android":"levelo://app?vid=d2b3ba5a-2f70-4307-9091-300175a74120","ios":"levelo://app?vid=d2b3ba5a-2f70-4307-9091-300175a74120"},"vehicle_type_id":"4","last_reported":1748689700,"current_range_meters":3600,"station_id":"ce4bhbp2rcd13ifvqerg","pricing_plan_id":"cebpf4jnsgd1na2vs0mg"},{"bike_id":"0e476aa4-4c57-48b9-96b6-452dbcafb294","system_id":"levelo_inurba_marseille","lat":43.29175,"lon":5.37152,"is_reserved":false,"is_disabled":false,"rental_uris":{"android":"levelo://app?vid=0e476aa4-4c57-48b9-96b6-452dbcafb294","ios":"levelo://app?vid=0e476aa4-4c57-48b9-96b6-452dbcafb294"},"vehicle_type_id":"4","last_reported":1748689700,"current_range_meters":3200,"station_id":"ce4bha92rcd13ifvqeh0","pricing_plan_id":"cebpf4jnsgd1na2vs0mg"},{"bike_id":"e5d113e9-a907-4483-a607-193e3c6f0534","system_id":"levelo_inurba_marseille","lat":43.24169,"lon":5.36374,"is_reserved":false,"is_disabled":false,"rental_uris":{"android":"levelo://app?vid=e5d113e9-a907-4483-a607-193e3c6f0534","ios":"levelo://app?vid=e5d113e9-a907-4483-a607-193e3c6f0534"},"vehicle_type_id":"4","last_reported":1748689700,"current_range_meters":4000,"station_id":"cpo36qri1sfpv3e86is0","pricing_plan_id":"cebpf4jnsgd1na2vs0mg"},{"bike_id":"4134fe01-5d14-4615-9d7b-0a524ae01da0","system_id":"levelo_inurba_marseille","lat":43.23153,"lon":5.43702,"is_reserved":false,"is_disabled":false,"rental_uris":{"android":"levelo://app?vid=4134fe01-5d14-4615-9d7b-0a524ae01da0","ios":"levelo://app?vid=4134fe01-5d14-4615-9d7b-0a524ae01da0"},"vehicle_type_id":"4","last_reported":1748689700,"current_range_meters":4000,"station_id":"ce4bhmp2rcd13ifvqgog","pricing_plan_id":"cebpf4jnsgd1na2vs0mg"},{"bike_id":"a426f99b-d34a-41bf-bbda-59f7dfd6939b","system_id":"levelo_inurba_marseille","lat":43.255796,"lon":5.382262,"is_reserved":false,"is_disabled":true,"rental_uris":{"android":"levelo://app?vid=a426f99b-d34a-41bf-bbda-59f7dfd6939b","ios":"levelo://app?vid=a426f99b-d34a-41bf-bbda-59f7dfd6939b"},"vehicle_type_id":"4","last_reported":1748689700,"current_range_meters":4400,"station_id":"ce501612rcd8frsf0b60","pricing_plan_id":"cebpf4jnsgd1na2vs0mg"},{"bike_id":"89ffc610-8c1d-49ab-a16f-8e7b4f049e54","system_id":"levelo_inurba_marseille","lat":43.23183,"lon":5.39985,"is_reserved":false,"is_disabled":false,"rental_uris":{"android":"levelo://app?vid=89ffc610-8c1d-49ab-a16f-8e7b4f049e54","ios":"levelo://app?vid=89ffc610-8c1d-49ab-a16f-8e7b4f049e54"},"vehicle_type_id":"4","last_reported":1748689700,"current_range_meters":4400,"station_id":"ce4bhn12rcd13ifvqgqg","pricing_plan_id":"cebpf4jnsgd1na2vs0mg"},{"bike_id":"a4008c57-5af7-4632-bc3e-06b8cd178e14","system_id":"levelo_inurba_marseille","lat":43.26562,"lon":5.39016,"is_reserved":false,"is_disabled":false,"rental_uris":{"android":"levelo://app?vid=a4008c57-5af7-4632-bc3e-06b8cd178e14","ios":"levelo://app?vid=a4008c57-5af7-4632-bc3e-06b8cd178e14"},"vehicle_type_id":"4","last_reported":1748689700,"current_range_meters":4400,"station_id":"ce4bhe12rcd13ifvqf30","pricing_plan_id":"cebpf4jnsgd1na2vs0mg"},{"bike_id":"7d434e27-643b-44eb-8fbf-1f24c5425c8a","system_id":"levelo_inurba_marseille","lat":43.27376,"lon":5.36259,"is_reserved":false,"is_disabled":false,"rental_uris":{"android":"levelo://app?vid=7d434e27-643b-44eb-8fbf-1f24c5425c8a","ios":"levelo://app?vid=7d434e27-643b-44eb-8fbf-1f24c5425c8a"},"vehicle_type_id":"4","last_reported":1748689700,"current_range_meters":4800,"station_id":"ce4bhbh2rcd13ifvqeo0","pricing_plan_id":"cebpf4jnsgd1na2vs0mg"},{"bike_id":"b0ef799d-9ad8-4b33-97af-7fa7d8a21875","system_id":"levelo_inurba_marseille","lat":43.23966,"lon":5.36635,"is_reserved":false,"is_disabled":false,"rental_uris":{"android":"levelo://app?vid=b0ef799d-9ad8-4b33-97af-7fa7d8a21875","ios":"levelo://app?vid=b0ef799d-9ad8-4b33-97af-7fa7d8a21875"},"vehicle_type_id":"4","last_reported":1748689700,"current_range_meters":4800,"station_id":"ce4bhi12rcd13ifvqfp0","pricing_plan_id":"cebpf4jnsgd1na2vs0mg"},{"bike_id":"da5921cd-e75b-4ce7-b109-06c28f720590","system_id":"levelo_inurba_marseille","lat":43.28743,"lon":5.36175,"is_reserved":false,"is_disabled":false,"rental_uris":{"android":"levelo://app?vid=da5921cd-e75b-4ce7-b109-06c28f720590","ios":"levelo://app?vid=da5921cd-e75b-4ce7-b109-06c28f720590"},"vehicle_type_id":"4","last_reported":1748689700,"current_range_meters":5600,"station_id":"","pricing_plan_id":"cebpf4jnsgd1na2vs0mg"},{"bike_id":"5e9ad4f4-364a-4535-b0ca-28bb17c2aa6a","system_id":"levelo_inurba_marseille","lat":43.27915,"lon":5.39581,"is_reserved":false,"is_disabled":false,"rental_uris":{"android":"levelo://app?vid=5e9ad4f4-364a-4535-b0ca-28bb17c2aa6a","ios":"levelo://app?vid=5e9ad4f4-364a-4535-b0ca-28bb17c2aa6a"},"vehicle_type_id":"4","last_reported":1748689700,"current_range_meters":5600,"station_id":"ce4bhf92rcd13ifvqf40","pricing_plan_id":"cebpf4jnsgd1na2vs0mg"},{"bike_id":"82bc7266-3aff-4648-a1c0-27b01b0a1265","system_id":"levelo_inurba_marseille","lat":43.291783,"lon":5.358011,"is_reserved":false,"is_disabled":false,"rental_uris":{"android":"levelo://app?vid=82bc7266-3aff-4648-a1c0-27b01b0a1265","ios":"levelo://app?vid=82bc7266-3aff-4648-a1c0-27b01b0a1265"},"vehicle_type_id":"4","last_reported":1748689700,"current_range_meters":5600,"station_id":"ce4bhb12rcd13ifvqel0","pricing_plan_id":"cebpf4jnsgd1na2vs0mg"},{"bike_id":"7cae288b-a20c-48db-aeab-54486a184524","system_id":"levelo_inurba_marseille","lat":43.287,"lon":5.37387,"is_reserved":false,"is_disabled":false,"rental_uris":{"android":"levelo://app?vid=7cae288b-a20c-48db-aeab-54486a184524","ios":"levelo://app?vid=7cae288b-a20c-48db-aeab-54486a184524"},"vehicle_type_id":"4","last_reported":1748689700,"current_range_meters":6000,"station_id":"ce4bh3p2rcd13ifvqdq0","pricing_plan_id":"cebpf4jnsgd1na2vs0mg"},{"bike_id":"5ac3febd-6c2a-411e-9a8f-db290e2abd46","system_id":"levelo_inurba_marseille","lat":43.241683,"lon":5.363915,"is_reserved":false,"is_disabled":false,"rental_uris":{"android":"levelo://app?vid=5ac3febd-6c2a-411e-9a8f-db290e2abd46","ios":"levelo://app?vid=5ac3febd-6c2a-411e-9a8f-db290e2abd46"},"vehicle_type_id":"4","last_reported":1748689700,"current_range_meters":6000,"station_id":"cpo36qri1sfpv3e86is0","pricing_plan_id":"cebpf4jnsgd1na2vs0mg"},{"bike_id":"36fd8527-c4fe-4cdb-b1a9-49c3af544e7b","system_id":"levelo_inurba_marseille","lat":43.2978,"lon":5.37113,"is_reserved":false,"is_disabled":false,"rental_uris":{"android":"levelo://app?vid=36fd8527-c4fe-4cdb-b1a9-49c3af544e7b","ios":"levelo://app?vid=36fd8527-c4fe-4cdb-b1a9-49c3af544e7b"},"vehicle_type_id":"4","last_reported":1748689700,"current_range_meters":6000,"station_id":"ce4bgop2rcd13ifvqc1g","pricing_plan_id":"cebpf4jnsgd1na2vs0mg"},{"bike_id":"81671e0c-3640-4498-bca6-b0a5e4f5d158","system_id":"levelo_inurba_marseille","lat":43.28699,"lon":5.37381,"is_reserved":false,"is_disabled":false,"rental_uris":{"android":"levelo://app?vid=81671e0c-3640-4498-bca6-b0a5e4f5d158","ios":"levelo://app?vid=81671e0c-3640-4498-bca6-b0a5e4f5d158"},"vehicle_type_id":"4","last_reported":1748689700,"current_range_meters":6000,"station_id":"ce4bh3p2rcd13ifvqdq0","pricing_plan_id":"cebpf4jnsgd1na2vs0mg"},{"bike_id":"9a26905f-db9c-4a1b-85fc-0fa6667b8242","system_id":"levelo_inurba_marseille","lat":43.2842,"lon":5.34984,"is_reserved":false,"is_disabled":false,"rental_uris":{"android":"levelo://app?vid=9a26905f-db9c-4a1b-85fc-0fa6667b8242","ios":"levelo://app?vid=9a26905f-db9c-4a1b-85fc-0fa6667b8242"},"vehicle_type_id":"4","last_reported":1748689700,"current_range_meters":6400,"station_id":"ce4bhbh2rcd13ifvqepg","pricing_plan_id":"cebpf4jnsgd1na2vs0mg"},{"bike_id":"8b649c72-8cca-4b2b-84dc-b51e030af54a","system_id":"levelo_inurba_marseille","lat":43.24807,"lon":5.37452,"is_reserved":false,"is_disabled":false,"rental_uris":{"android":"levelo://app?vid=8b649c72-8cca-4b2b-84dc-b51e030af54a","ios":"levelo://app?vid=8b649c72-8cca-4b2b-84dc-b51e030af54a"},"vehicle_type_id":"4","last_reported":1748689700,"current_range_meters":6400,"station_id":"ce4bhgh2rcd13ifvqfb0","pricing_plan_id":"cebpf4jnsgd1na2vs0mg"},{"bike_id":"79e6e0c4-0a79-4ac8-91df-7cf8a3551551","system_id":"levelo_inurba_marseille","lat":43.30675,"lon":5.40071,"is_reserved":false,"is_disabled":false,"rental_uris":{"android":"levelo://app?vid=79e6e0c4-0a79-4ac8-91df-7cf8a3551551","ios":"levelo://app?vid=79e6e0c4-0a79-4ac8-91df-7cf8a3551551"},"vehicle_type_id":"4","last_reported":1748689700,"current_range_meters":1200,"station_id":"ce4bh112rcd13ifvqda0","pricing_plan_id":"cebpf4jnsgd1na2vs0mg"},{"bike_id":"17527022-c15f-45b2-a334-b3615a47d266","system_id":"levelo_inurba_marseille","lat":43.25116,"lon":5.40317,"is_reserved":false,"is_disabled":false,"rental_uris":{"android":"levelo://app?vid=17527022-c15f-45b2-a334-b3615a47d266","ios":"levelo://app?vid=17527022-c15f-45b2-a334-b3615a47d266"},"vehicle_type_id":"4","last_reported":1748689700,"current_range_meters":6400,"station_id":"ce4bhlh2rcd13ifvqgig","pricing_plan_id":"cebpf4jnsgd1na2vs0mg"},{"bike_id":"f80006c7-2f10-4ba5-bb7c-2b0507fde45f","system_id":"levelo_inurba_marseille","lat":43.21746,"lon":5.34609,"is_reserved":false,"is_disabled":true,"rental_uris":{"android":"levelo://app?vid=f80006c7-2f10-4ba5-bb7c-2b0507fde45f","ios":"levelo://app?vid=f80006c7-2f10-4ba5-bb7c-2b0507fde45f"},"vehicle_type_id":"4","last_reported":1748689700,"current_range_meters":6400,"station_id":"st_cvj6r9ubvosntc0bgbag","pricing_plan_id":"cebpf4jnsgd1na2vs0mg"},{"bike_id":"90b08475-cb18-4883-9654-7644ae1405cf","system_id":"levelo_inurba_marseille","lat":43.301522,"lon":5.374365,"is_reserved":false,"is_disabled":false,"rental_uris":{"android":"levelo://app?vid=90b08475-cb18-4883-9654-7644ae1405cf","ios":"levelo://app?vid=90b08475-cb18-4883-9654-7644ae1405cf"},"vehicle_type_id":"4","last_reported":1748689700,"current_range_meters":6400,"station_id":"ce4bgs92rcd13ifvqcc0","pricing_plan_id":"cebpf4jnsgd1na2vs0mg"},{"bike_id":"854b0cf0-4938-481f-a5fa-56b46a144ce7","system_id":"levelo_inurba_marseille","lat":43.26565,"lon":5.40321,"is_reserved":false,"is_disabled":false,"rental_uris":{"android":"levelo://app?vid=854b0cf0-4938-481f-a5fa-56b46a144ce7","ios":"levelo://app?vid=854b0cf0-4938-481f-a5fa-56b46a144ce7"},"vehicle_type_id":"4","last_reported":1748689700,"current_range_meters":6400,"station_id":"","pricing_plan_id":"cebpf4jnsgd1na2vs0mg"},{"bike_id":"21f4ae41-acd5-46f4-9151-646052d7f996","system_id":"levelo_inurba_marseille","lat":43.299,"lon":5.37468,"is_reserved":false,"is_disabled":false,"rental_uris":{"android":"levelo://app?vid=21f4ae41-acd5-46f4-9151-646052d7f996","ios":"levelo://app?vid=21f4ae41-acd5-46f4-9151-646052d7f996"},"vehicle_type_id":"4","last_reported":1748689700,"current_range_meters":6800,"station_id":"ce4bgjh2rcd13ifvqbg0","pricing_plan_id":"cebpf4jnsgd1na2vs0mg"},{"bike_id":"586d7e68-1782-4f9f-9be5-9a1640e83e42","system_id":"levelo_inurba_marseille","lat":43.23194,"lon":5.35548,"is_reserved":false,"is_disabled":false,"rental_uris":{"android":"levelo://app?vid=586d7e68-1782-4f9f-9be5-9a1640e83e42","ios":"levelo://app?vid=586d7e68-1782-4f9f-9be5-9a1640e83e42"},"vehicle_type_id":"4","last_reported":1748689700,"current_range_meters":6800,"station_id":"ce4bhu92rcd13ifvqi70","pricing_plan_id":"cebpf4jnsgd1na2vs0mg"},{"bike_id":"46c4d46f-48c6-4eb8-ba33-e70066667fd8","system_id":"levelo_inurba_marseille","lat":43.2656,"lon":5.37285,"is_reserved":false,"is_disabled":false,"rental_uris":{"android":"levelo://app?vid=46c4d46f-48c6-4eb8-ba33-e70066667fd8","ios":"levelo://app?vid=46c4d46f-48c6-4eb8-ba33-e70066667fd8"},"vehicle_type_id":"4","last_reported":1748689700,"current_range_meters":6800,"station_id":"ce4bhg12rcd13ifvqf70","pricing_plan_id":"cebpf4jnsgd1na2vs0mg"},{"bike_id":"990df701-79a7-41ec-b963-3693dc590a87","system_id":"levelo_inurba_marseille","lat":43.3015,"lon":5.379,"is_reserved":false,"is_disabled":false,"rental_uris":{"android":"levelo://app?vid=990df701-79a7-41ec-b963-3693dc590a87","ios":"levelo://app?vid=990df701-79a7-41ec-b963-3693dc590a87"},"vehicle_type_id":"4","last_reported":1748689700,"current_range_meters":6800,"station_id":"","pricing_plan_id":"cebpf4jnsgd1na2vs0mg"},{"bike_id":"f7005840-3fcb-440d-a899-0476f19bf267","system_id":"levelo_inurba_marseille","lat":43.28163,"lon":5.42645,"is_reserved":false,"is_disabled":false,"rental_uris":{"android":"levelo://app?vid=f7005840-3fcb-440d-a899-0476f19bf267","ios":"levelo://app?vid=f7005840-3fcb-440d-a899-0476f19bf267"},"vehicle_type_id":"4","last_reported":1748689700,"current_range_meters":7200,"station_id":"ce4bhnh2rcd13ifvqgug","pricing_plan_id":"cebpf4jnsgd1na2vs0mg"},{"bike_id":"d35279df-65fa-4a1d-a5be-df30ee6e8cd3","system_id":"levelo_inurba_marseille","lat":43.28734,"lon":5.36083,"is_reserved":false,"is_disabled":false,"rental_uris":{"android":"levelo://app?vid=d35279df-65fa-4a1d-a5be-df30ee6e8cd3","ios":"levelo://app?vid=d35279df-65fa-4a1d-a5be-df30ee6e8cd3"},"vehicle_type_id":"4","last_reported":1748689700,"current_range_meters":7200,"station_id":"cki0cbj6b192h4jlfktg","pricing_plan_id":"cebpf4jnsgd1na2vs0mg"},{"bike_id":"f5f64fe6-e75b-4412-8ae5-4c6ffa965e31","system_id":"levelo_inurba_marseille","lat":43.27374,"lon":5.36255,"is_reserved":false,"is_disabled":false,"rental_uris":{"android":"levelo://app?vid=f5f64fe6-e75b-4412-8ae5-4c6ffa965e31","ios":"levelo://app?vid=f5f64fe6-e75b-4412-8ae5-4c6ffa965e31"},"vehicle_type_id":"4","last_reported":1748689700,"current_range_meters":7200,"station_id":"ce4bhbh2rcd13ifvqeo0","pricing_plan_id":"cebpf4jnsgd1na2vs0mg"},{"bike_id":"b2c15014-fb63-4476-86b1-c60efceacaf3","system_id":"levelo_inurba_marseille","lat":43.24667,"lon":5.38167,"is_reserved":false,"is_disabled":false,"rental_uris":{"android":"levelo://app?vid=b2c15014-fb63-4476-86b1-c60efceacaf3","ios":"levelo://app?vid=b2c15014-fb63-4476-86b1-c60efceacaf3"},"vehicle_type_id":"4","last_reported":1748689700,"current_range_meters":7200,"station_id":"ce4bhih2rcd13ifvqfr0","pricing_plan_id":"cebpf4jnsgd1na2vs0mg"},{"bike_id":"524711b4-be8c-4e38-abb0-59ce12681057","system_id":"levelo_inurba_marseille","lat":43.23067,"lon":5.35491,"is_reserved":false,"is_disabled":false,"rental_uris":{"android":"levelo://app?vid=524711b4-be8c-4e38-abb0-59ce12681057","ios":"levelo://app?vid=524711b4-be8c-4e38-abb0-59ce12681057"},"vehicle_type_id":"4","last_reported":1748689700,"current_range_meters":8000,"station_id":"cpo3342slgdg3j2ifvpg","pricing_plan_id":"cebpf4jnsgd1na2vs0mg"},{"bike_id":"7243d7c8-02f5-4392-89cf-8c360e846d55","system_id":"levelo_inurba_marseille","lat":43.25269,"lon":5.3785,"is_reserved":false,"is_disabled":false,"rental_uris":{"android":"levelo://app?vid=7243d7c8-02f5-4392-89cf-8c360e846d55","ios":"levelo://app?vid=7243d7c8-02f5-4392-89cf-8c360e846d55"},"vehicle_type_id":"4","last_reported":1748689700,"current_range_meters":8000,"station_id":"","pricing_plan_id":"cebpf4jnsgd1na2vs0mg"},{"bike_id":"4a7fcb66-5a14-41b4-b9c1-88d3616e3b62","system_id":"levelo_inurba_marseille","lat":43.211914,"lon":5.350722,"is_reserved":false,"is_disabled":false,"rental_uris":{"android":"levelo://app?vid=4a7fcb66-5a14-41b4-b9c1-88d3616e3b62","ios":"levelo://app?vid=4a7fcb66-5a14-41b4-b9c1-88d3616e3b62"},"vehicle_type_id":"4","last_reported":1748689700,"current_range_meters":8000,"station_id":"st_cvj6sg6p6f1abm77japg","pricing_plan_id":"cebpf4jnsgd1na2vs0mg"},{"bike_id":"a882f5db-172f-4f11-bf66-7e2c36364bb7","system_id":"levelo_inurba_marseille","lat":43.29535,"lon":5.42281,"is_reserved":false,"is_disabled":false,"rental_uris":{"android":"levelo://app?vid=a882f5db-172f-4f11-bf66-7e2c36364bb7","ios":"levelo://app?vid=a882f5db-172f-4f11-bf66-7e2c36364bb7"},"vehicle_type_id":"4","last_reported":1748689700,"current_range_meters":8000,"station_id":"ce4bhph2rcd13ifvqhdg","pricing_plan_id":"cebpf4jnsgd1na2vs0mg"},{"bike_id":"429a4cec-59d7-4bac-90bb-fd0512f1899a","system_id":"levelo_inurba_marseille","lat":43.29576,"lon":5.36737,"is_reserved":false,"is_disabled":false,"rental_uris":{"android":"levelo://app?vid=429a4cec-59d7-4bac-90bb-fd0512f1899a","ios":"levelo://app?vid=429a4cec-59d7-4bac-90bb-fd0512f1899a"},"vehicle_type_id":"4","last_reported":1748689700,"current_range_meters":8000,"station_id":"ce4bgph2rcd13ifvqc2g","pricing_plan_id":"cebpf4jnsgd1na2vs0mg"},{"bike_id":"7f8e91a2-4c62-44ef-84b9-5b80994e3676","system_id":"levelo_inurba_marseille","lat":43.30537,"lon":5.36529,"is_reserved":false,"is_disabled":false,"rental_uris":{"android":"levelo://app?vid=7f8e91a2-4c62-44ef-84b9-5b80994e3676","ios":"levelo://app?vid=7f8e91a2-4c62-44ef-84b9-5b80994e3676"},"vehicle_type_id":"4","last_reported":1748689700,"current_range_meters":8000,"station_id":"ce4bgs12rcd13ifvqcag","pricing_plan_id":"cebpf4jnsgd1na2vs0mg"},{"bike_id":"a326951f-0eaf-4b67-9913-457e6cd35573","system_id":"levelo_inurba_marseille","lat":43.23195,"lon":5.35548,"is_reserved":false,"is_disabled":false,"rental_uris":{"android":"levelo://app?vid=a326951f-0eaf-4b67-9913-457e6cd35573","ios":"levelo://app?vid=a326951f-0eaf-4b67-9913-457e6cd35573"},"vehicle_type_id":"4","last_reported":1748689700,"current_range_meters":8000,"station_id":"ce4bhu92rcd13ifvqi70","pricing_plan_id":"cebpf4jnsgd1na2vs0mg"},{"bike_id":"3feffd94-b1f8-4904-a4cf-e5629abe4092","system_id":"levelo_inurba_marseille","lat":43.25932,"lon":5.40905,"is_reserved":false,"is_disabled":false,"rental_uris":{"android":"levelo://app?vid=3feffd94-b1f8-4904-a4cf-e5629abe4092","ios":"levelo://app?vid=3feffd94-b1f8-4904-a4cf-e5629abe4092"},"vehicle_type_id":"4","last_reported":1748689700,"current_range_meters":8000,"station_id":"ce4bhm92rcd13ifvqglg","pricing_plan_id":"cebpf4jnsgd1na2vs0mg"},{"bike_id":"07e603b0-a203-4283-b1ae-d3100e82a0e4","system_id":"levelo_inurba_marseille","lat":43.27373,"lon":5.36251,"is_reserved":false,"is_disabled":false,"rental_uris":{"android":"levelo://app?vid=07e603b0-a203-4283-b1ae-d3100e82a0e4","ios":"levelo://app?vid=07e603b0-a203-4283-b1ae-d3100e82a0e4"},"vehicle_type_id":"4","last_reported":1748689700,"current_range_meters":8400,"station_id":"ce4bhbh2rcd13ifvqeo0","pricing_plan_id":"cebpf4jnsgd1na2vs0mg"},{"bike_id":"e766bf1b-9eb2-4670-a867-a42d831a0cf5","system_id":"levelo_inurba_marseille","lat":43.29276,"lon":5.36845,"is_reserved":false,"is_disabled":false,"rental_uris":{"android":"levelo://app?vid=e766bf1b-9eb2-4670-a867-a42d831a0cf5","ios":"levelo://app?vid=e766bf1b-9eb2-4670-a867-a42d831a0cf5"},"vehicle_type_id":"4","last_reported":1748689700,"current_range_meters":8400,"station_id":"ce4bhbp2rcd13ifvqesg","pricing_plan_id":"cebpf4jnsgd1na2vs0mg"},{"bike_id":"986655a1-31e5-40be-ad38-e8bd24c70851","system_id":"levelo_inurba_marseille","lat":43.23186,"lon":5.39981,"is_reserved":false,"is_disabled":false,"rental_uris":{"android":"levelo://app?vid=986655a1-31e5-40be-ad38-e8bd24c70851","ios":"levelo://app?vid=986655a1-31e5-40be-ad38-e8bd24c70851"},"vehicle_type_id":"4","last_reported":1748689700,"current_range_meters":8400,"station_id":"ce4bhn12rcd13ifvqgqg","pricing_plan_id":"cebpf4jnsgd1na2vs0mg"},{"bike_id":"2e07aef8-e874-45ea-9f76-75f8a02a34f8","system_id":"levelo_inurba_marseille","lat":43.25128,"lon":5.40325,"is_reserved":false,"is_disabled":true,"rental_uris":{"android":"levelo://app?vid=2e07aef8-e874-45ea-9f76-75f8a02a34f8","ios":"levelo://app?vid=2e07aef8-e874-45ea-9f76-75f8a02a34f8"},"vehicle_type_id":"4","last_reported":1748689700,"current_range_meters":8400,"station_id":"","pricing_plan_id":"cebpf4jnsgd1na2vs0mg"},{"bike_id":"d02ba7d2-914d-425a-8b2a-f1259e1c2fbf","system_id":"levelo_inurba_marseille","lat":43.26232,"lon":5.40419,"is_reserved":false,"is_disabled":false,"rental_uris":{"android":"levelo://app?vid=d02ba7d2-914d-425a-8b2a-f1259e1c2fbf","ios":"levelo://app?vid=d02ba7d2-914d-425a-8b2a-f1259e1c2fbf"},"vehicle_type_id":"4","last_reported":1748689700,"current_range_meters":8400,"station_id":"ce4bhmh2rcd13ifvqgmg","pricing_plan_id":"cebpf4jnsgd1na2vs0mg"},{"bike_id":"ad5e2127-adbe-4393-9b1e-f7e3379325f8","system_id":"levelo_inurba_marseille","lat":43.23196,"lon":5.35551,"is_reserved":false,"is_disabled":false,"rental_uris":{"android":"levelo://app?vid=ad5e2127-adbe-4393-9b1e-f7e3379325f8","ios":"levelo://app?vid=ad5e2127-adbe-4393-9b1e-f7e3379325f8"},"vehicle_type_id":"4","last_reported":1748689700,"current_range_meters":8800,"station_id":"ce4bhu92rcd13ifvqi70","pricing_plan_id":"cebpf4jnsgd1na2vs0mg"},{"bike_id":"c4b3232f-483f-45eb-a9fc-e33deb92c068","system_id":"levelo_inurba_marseille","lat":43.2993,"lon":5.36548,"is_reserved":false,"is_disabled":false,"rental_uris":{"android":"levelo://app?vid=c4b3232f-483f-45eb-a9fc-e33deb92c068","ios":"levelo://app?vid=c4b3232f-483f-45eb-a9fc-e33deb92c068"},"vehicle_type_id":"4","last_reported":1748689700,"current_range_meters":8800,"station_id":"ce4bgm92rcd13ifvqbr0","pricing_plan_id":"cebpf4jnsgd1na2vs0mg"},{"bike_id":"471fccc4-e0a0-45c9-96ca-25361ad546a7","system_id":"levelo_inurba_marseille","lat":43.21753,"lon":5.34593,"is_reserved":false,"is_disabled":false,"rental_uris":{"android":"levelo://app?vid=471fccc4-e0a0-45c9-96ca-25361ad546a7","ios":"levelo://app?vid=471fccc4-e0a0-45c9-96ca-25361ad546a7"},"vehicle_type_id":"4","last_reported":1748689700,"current_range_meters":8800,"station_id":"","pricing_plan_id":"cebpf4jnsgd1na2vs0mg"},{"bike_id":"662af0d9-b4f1-4513-bbd2-fd65be6229e5","system_id":"levelo_inurba_marseille","lat":43.25919,"lon":5.40891,"is_reserved":false,"is_disabled":false,"rental_uris":{"android":"levelo://app?vid=662af0d9-b4f1-4513-bbd2-fd65be6229e5","ios":"levelo://app?vid=662af0d9-b4f1-4513-bbd2-fd65be6229e5"},"vehicle_type_id":"4","last_reported":1748689700,"current_range_meters":8800,"station_id":"ce4bhm92rcd13ifvqglg","pricing_plan_id":"cebpf4jnsgd1na2vs0mg"},{"bike_id":"9a75f755-b06d-4292-8ce5-f8ae259dac3f","system_id":"levelo_inurba_marseille","lat":43.21191,"lon":5.35063,"is_reserved":false,"is_disabled":false,"rental_uris":{"android":"levelo://app?vid=9a75f755-b06d-4292-8ce5-f8ae259dac3f","ios":"levelo://app?vid=9a75f755-b06d-4292-8ce5-f8ae259dac3f"},"vehicle_type_id":"4","last_reported":1748689700,"current_range_meters":8800,"station_id":"st_cvj6sg6p6f1abm77japg","pricing_plan_id":"cebpf4jnsgd1na2vs0mg"},{"bike_id":"189adaee-dd37-463c-a8f2-b162d20a9983","system_id":"levelo_inurba_marseille","lat":43.231926,"lon":5.355545,"is_reserved":false,"is_disabled":false,"rental_uris":{"android":"levelo://app?vid=189adaee-dd37-463c-a8f2-b162d20a9983","ios":"levelo://app?vid=189adaee-dd37-463c-a8f2-b162d20a9983"},"vehicle_type_id":"4","last_reported":1748689700,"current_range_meters":8800,"station_id":"ce4bhr12rcd13ifvqhqg","pricing_plan_id":"cebpf4jnsgd1na2vs0mg"},{"bike_id":"f8218e46-fc4b-4d5f-8f9b-1d400388085e","system_id":"levelo_inurba_marseille","lat":43.3122,"lon":5.36844,"is_reserved":false,"is_disabled":false,"rental_uris":{"android":"levelo://app?vid=f8218e46-fc4b-4d5f-8f9b-1d400388085e","ios":"levelo://app?vid=f8218e46-fc4b-4d5f-8f9b-1d400388085e"},"vehicle_type_id":"4","last_reported":1748689700,"current_range_meters":8400,"station_id":"ce4bgl92rcd13ifvqbq0","pricing_plan_id":"cebpf4jnsgd1na2vs0mg"},{"bike_id":"e31a1e1f-1f99-4d47-9ad9-848f9f016670","system_id":"levelo_inurba_marseille","lat":43.29238,"lon":5.3761,"is_reserved":false,"is_disabled":false,"rental_uris":{"android":"levelo://app?vid=e31a1e1f-1f99-4d47-9ad9-848f9f016670","ios":"levelo://app?vid=e31a1e1f-1f99-4d47-9ad9-848f9f016670"},"vehicle_type_id":"4","last_reported":1748689700,"current_range_meters":8800,"station_id":"ce4bgi12rcd13ifvqb80","pricing_plan_id":"cebpf4jnsgd1na2vs0mg"},{"bike_id":"3bba0215-f5e8-4b5c-b849-98d069187e3d","system_id":"levelo_inurba_marseille","lat":43.29196,"lon":5.39326,"is_reserved":false,"is_disabled":false,"rental_uris":{"android":"levelo://app?vid=3bba0215-f5e8-4b5c-b849-98d069187e3d","ios":"levelo://app?vid=3bba0215-f5e8-4b5c-b849-98d069187e3d"},"vehicle_type_id":"4","last_reported":1748689700,"current_range_meters":8800,"station_id":"ce4bh192rcd13ifvqdd0","pricing_plan_id":"cebpf4jnsgd1na2vs0mg"},{"bike_id":"6cab2d10-7f2c-4dac-ba3d-4f103803cc6a","system_id":"levelo_inurba_marseille","lat":43.28913,"lon":5.38389,"is_reserved":false,"is_disabled":true,"rental_uris":{"android":"levelo://app?vid=6cab2d10-7f2c-4dac-ba3d-4f103803cc6a","ios":"levelo://app?vid=6cab2d10-7f2c-4dac-ba3d-4f103803cc6a"},"vehicle_type_id":"4","last_reported":1748689700,"current_range_meters":8800,"station_id":"ce4bh612rcd13ifvqe6g","pricing_plan_id":"cebpf4jnsgd1na2vs0mg"},{"bike_id":"df507df2-05fd-4c43-aab4-2de2c87479a0","system_id":"levelo_inurba_marseille","lat":43.29875,"lon":5.39737,"is_reserved":false,"is_disabled":false,"rental_uris":{"android":"levelo://app?vid=df507df2-05fd-4c43-aab4-2de2c87479a0","ios":"levelo://app?vid=df507df2-05fd-4c43-aab4-2de2c87479a0"},"vehicle_type_id":"4","last_reported":1748689700,"current_range_meters":8800,"station_id":"ce4bh0h2rcd13ifvqd50","pricing_plan_id":"cebpf4jnsgd1na2vs0mg"},{"bike_id":"d16f5222-3d1e-4d65-a992-1bc93f719178","system_id":"levelo_inurba_marseille","lat":43.30334,"lon":5.36594,"is_reserved":false,"is_disabled":false,"rental_uris":{"android":"levelo://app?vid=d16f5222-3d1e-4d65-a992-1bc93f719178","ios":"levelo://app?vid=d16f5222-3d1e-4d65-a992-1bc93f719178"},"vehicle_type_id":"4","last_reported":1748689700,"current_range_meters":9200,"station_id":"","pricing_plan_id":"cebpf4jnsgd1na2vs0mg"},{"bike_id":"789d6c17-e761-49a1-a512-f2d97a4299d4","system_id":"levelo_inurba_marseille","lat":43.2811,"lon":5.37829,"is_reserved":false,"is_disabled":false,"rental_uris":{"android":"levelo://app?vid=789d6c17-e761-49a1-a512-f2d97a4299d4","ios":"levelo://app?vid=789d6c17-e761-49a1-a512-f2d97a4299d4"},"vehicle_type_id":"4","last_reported":1748689700,"current_range_meters":8800,"station_id":"ce4bha12rcd13ifvqee0","pricing_plan_id":"cebpf4jnsgd1na2vs0mg"},{"bike_id":"f834d568-f3e2-4973-beb0-7959512c9902","system_id":"levelo_inurba_marseille","lat":43.23964,"lon":5.3662,"is_reserved":false,"is_disabled":false,"rental_uris":{"android":"levelo://app?vid=f834d568-f3e2-4973-beb0-7959512c9902","ios":"levelo://app?vid=f834d568-f3e2-4973-beb0-7959512c9902"},"vehicle_type_id":"4","last_reported":1748689700,"current_range_meters":9200,"station_id":"ce4bhi12rcd13ifvqfp0","pricing_plan_id":"cebpf4jnsgd1na2vs0mg"},{"bike_id":"ef4b8ede-1877-41db-b371-aa67fb983004","system_id":"levelo_inurba_marseille","lat":43.28105,"lon":5.37833,"is_reserved":false,"is_disabled":true,"rental_uris":{"android":"levelo://app?vid=ef4b8ede-1877-41db-b371-aa67fb983004","ios":"levelo://app?vid=ef4b8ede-1877-41db-b371-aa67fb983004"},"vehicle_type_id":"4","last_reported":1748689700,"current_range_meters":9200,"station_id":"ce4bha12rcd13ifvqee0","pricing_plan_id":"cebpf4jnsgd1na2vs0mg"},{"bike_id":"008a8b5c-da32-426f-bdcf-6db4c9f404d8","system_id":"levelo_inurba_marseille","lat":43.229307,"lon":5.353773,"is_reserved":false,"is_disabled":false,"rental_uris":{"android":"levelo://app?vid=008a8b5c-da32-426f-bdcf-6db4c9f404d8","ios":"levelo://app?vid=008a8b5c-da32-426f-bdcf-6db4c9f404d8"},"vehicle_type_id":"4","last_reported":1748689700,"current_range_meters":9200,"station_id":"cpo3532slgdg3j2ikp40","pricing_plan_id":"cebpf4jnsgd1na2vs0mg"},{"bike_id":"64a3d9b3-30f8-4a8c-b831-0d99a9fae7a2","system_id":"levelo_inurba_marseille","lat":43.31699,"lon":5.40481,"is_reserved":false,"is_disabled":false,"rental_uris":{"android":"levelo://app?vid=64a3d9b3-30f8-4a8c-b831-0d99a9fae7a2","ios":"levelo://app?vid=64a3d9b3-30f8-4a8c-b831-0d99a9fae7a2"},"vehicle_type_id":"4","last_reported":1748689700,"current_range_meters":9200,"station_id":"ce4bh012rcd13ifvqd00","pricing_plan_id":"cebpf4jnsgd1na2vs0mg"},{"bike_id":"232c4705-8474-4e07-8307-822c8fd53acb","system_id":"levelo_inurba_marseille","lat":43.24801,"lon":5.37446,"is_reserved":false,"is_disabled":false,"rental_uris":{"android":"levelo://app?vid=232c4705-8474-4e07-8307-822c8fd53acb","ios":"levelo://app?vid=232c4705-8474-4e07-8307-822c8fd53acb"},"vehicle_type_id":"4","last_reported":1748689700,"current_range_meters":9200,"station_id":"ce4bhgh2rcd13ifvqfb0","pricing_plan_id":"cebpf4jnsgd1na2vs0mg"},{"bike_id":"982529bb-e920-45e4-b5f9-41ab48c3f914","system_id":"levelo_inurba_marseille","lat":43.30208,"lon":5.39465,"is_reserved":false,"is_disabled":false,"rental_uris":{"android":"levelo://app?vid=982529bb-e920-45e4-b5f9-41ab48c3f914","ios":"levelo://app?vid=982529bb-e920-45e4-b5f9-41ab48c3f914"},"vehicle_type_id":"4","last_reported":1748689700,"current_range_meters":9600,"station_id":"ce4bh0p2rcd13ifvqd70","pricing_plan_id":"cebpf4jnsgd1na2vs0mg"},{"bike_id":"d1049cb7-f478-4bcc-86df-7cb1412d81e7","system_id":"levelo_inurba_marseille","lat":43.28264,"lon":5.3506,"is_reserved":false,"is_disabled":false,"rental_uris":{"android":"levelo://app?vid=d1049cb7-f478-4bcc-86df-7cb1412d81e7","ios":"levelo://app?vid=d1049cb7-f478-4bcc-86df-7cb1412d81e7"},"vehicle_type_id":"4","last_reported":1748689700,"current_range_meters":9600,"station_id":"ce4bhbp2rcd13ifvqerg","pricing_plan_id":"cebpf4jnsgd1na2vs0mg"},{"bike_id":"a672e2ce-ff65-491a-baf8-b5fcce4f4059","system_id":"levelo_inurba_marseille","lat":43.31698,"lon":5.39045,"is_reserved":false,"is_disabled":false,"rental_uris":{"android":"levelo://app?vid=a672e2ce-ff65-491a-baf8-b5fcce4f4059","ios":"levelo://app?vid=a672e2ce-ff65-491a-baf8-b5fcce4f4059"},"vehicle_type_id":"4","last_reported":1748689700,"current_range_meters":9600,"station_id":"","pricing_plan_id":"cebpf4jnsgd1na2vs0mg"},{"bike_id":"86fccae8-f772-4e7a-8471-e6bb6d1ee7b8","system_id":"levelo_inurba_marseille","lat":43.27068,"lon":5.42275,"is_reserved":false,"is_disabled":false,"rental_uris":{"android":"levelo://app?vid=86fccae8-f772-4e7a-8471-e6bb6d1ee7b8","ios":"levelo://app?vid=86fccae8-f772-4e7a-8471-e6bb6d1ee7b8"},"vehicle_type_id":"4","last_reported":1748689700,"current_range_meters":9600,"station_id":"ce4bhk92rcd13ifvqgb0","pricing_plan_id":"cebpf4jnsgd1na2vs0mg"},{"bike_id":"46f83dc6-3352-42b5-a8ad-706c6403ff37","system_id":"levelo_inurba_marseille","lat":43.23173,"lon":5.39977,"is_reserved":false,"is_disabled":false,"rental_uris":{"android":"levelo://app?vid=46f83dc6-3352-42b5-a8ad-706c6403ff37","ios":"levelo://app?vid=46f83dc6-3352-42b5-a8ad-706c6403ff37"},"vehicle_type_id":"4","last_reported":1748689700,"current_range_meters":10000,"station_id":"ce4bhn12rcd13ifvqgqg","pricing_plan_id":"cebpf4jnsgd1na2vs0mg"},{"bike_id":"f61266f9-9ef3-44c7-b1fc-8a9106712a53","system_id":"levelo_inurba_marseille","lat":43.21741,"lon":5.34601,"is_reserved":false,"is_disabled":false,"rental_uris":{"android":"levelo://app?vid=f61266f9-9ef3-44c7-b1fc-8a9106712a53","ios":"levelo://app?vid=f61266f9-9ef3-44c7-b1fc-8a9106712a53"},"vehicle_type_id":"4","last_reported":1748689700,"current_range_meters":10000,"station_id":"st_cvj6r9ubvosntc0bgbag","pricing_plan_id":"cebpf4jnsgd1na2vs0mg"},{"bike_id":"8f0300e4-899f-4e13-b8a7-90f137ab1640","system_id":"levelo_inurba_marseille","lat":43.2706,"lon":5.39272,"is_reserved":false,"is_disabled":false,"rental_uris":{"android":"levelo://app?vid=8f0300e4-899f-4e13-b8a7-90f137ab1640","ios":"levelo://app?vid=8f0300e4-899f-4e13-b8a7-90f137ab1640"},"vehicle_type_id":"4","last_reported":1748689700,"current_range_meters":10000,"station_id":"","pricing_plan_id":"cebpf4jnsgd1na2vs0mg"},{"bike_id":"369f602e-df65-466d-bcb9-05bb4d85d7ee","system_id":"levelo_inurba_marseille","lat":43.28392,"lon":5.37508,"is_reserved":false,"is_disabled":false,"rental_uris":{"android":"levelo://app?vid=369f602e-df65-466d-bcb9-05bb4d85d7ee","ios":"levelo://app?vid=369f602e-df65-466d-bcb9-05bb4d85d7ee"},"vehicle_type_id":"4","last_reported":1748689700,"current_range_meters":10000,"station_id":"ce4bh412rcd13ifvqds0","pricing_plan_id":"cebpf4jnsgd1na2vs0mg"},{"bike_id":"f0012670-04e8-44ad-ae17-5630e3d7eeb8","system_id":"levelo_inurba_marseille","lat":43.2317,"lon":5.39984,"is_reserved":false,"is_disabled":false,"rental_uris":{"android":"levelo://app?vid=f0012670-04e8-44ad-ae17-5630e3d7eeb8","ios":"levelo://app?vid=f0012670-04e8-44ad-ae17-5630e3d7eeb8"},"vehicle_type_id":"4","last_reported":1748689700,"current_range_meters":10000,"station_id":"ce4bhn12rcd13ifvqgqg","pricing_plan_id":"cebpf4jnsgd1na2vs0mg"},{"bike_id":"95cd80fa-c2e5-401c-95da-632e1df7bbde","system_id":"levelo_inurba_marseille","lat":43.23141,"lon":5.43717,"is_reserved":false,"is_disabled":false,"rental_uris":{"android":"levelo://app?vid=95cd80fa-c2e5-401c-95da-632e1df7bbde","ios":"levelo://app?vid=95cd80fa-c2e5-401c-95da-632e1df7bbde"},"vehicle_type_id":"4","last_reported":1748689700,"current_range_meters":10800,"station_id":"ce4bhmp2rcd13ifvqgog","pricing_plan_id":"cebpf4jnsgd1na2vs0mg"},{"bike_id":"83120baa-5e2f-445c-b3c0-c27db817844a","system_id":"levelo_inurba_marseille","lat":43.24389,"lon":5.37055,"is_reserved":false,"is_disabled":false,"rental_uris":{"android":"levelo://app?vid=83120baa-5e2f-445c-b3c0-c27db817844a","ios":"levelo://app?vid=83120baa-5e2f-445c-b3c0-c27db817844a"},"vehicle_type_id":"4","last_reported":1748689700,"current_range_meters":10000,"station_id":"ce4bhhh2rcd13ifvqfk0","pricing_plan_id":"cebpf4jnsgd1na2vs0mg"},{"bike_id":"90661731-e0ab-494e-b197-0ad194ea14f4","system_id":"levelo_inurba_marseille","lat":43.26944,"lon":5.40252,"is_reserved":false,"is_disabled":false,"rental_uris":{"android":"levelo://app?vid=90661731-e0ab-494e-b197-0ad194ea14f4","ios":"levelo://app?vid=90661731-e0ab-494e-b197-0ad194ea14f4"},"vehicle_type_id":"4","last_reported":1748689700,"current_range_meters":10800,"station_id":"cjm6bp8fraef2m0cb0m0","pricing_plan_id":"cebpf4jnsgd1na2vs0mg"},{"bike_id":"8d48119e-760e-4c00-b401-59af0a322afa","system_id":"levelo_inurba_marseille","lat":43.25648,"lon":5.40855,"is_reserved":false,"is_disabled":false,"rental_uris":{"android":"levelo://app?vid=8d48119e-760e-4c00-b401-59af0a322afa","ios":"levelo://app?vid=8d48119e-760e-4c00-b401-59af0a322afa"},"vehicle_type_id":"4","last_reported":1748689700,"current_range_meters":10800,"station_id":"","pricing_plan_id":"cebpf4jnsgd1na2vs0mg"},{"bike_id":"a2b05694-d9e0-4b83-8e25-2604bfbf2718","system_id":"levelo_inurba_marseille","lat":43.29694,"lon":5.3727,"is_reserved":false,"is_disabled":false,"rental_uris":{"android":"levelo://app?vid=a2b05694-d9e0-4b83-8e25-2604bfbf2718","ios":"levelo://app?vid=a2b05694-d9e0-4b83-8e25-2604bfbf2718"},"vehicle_type_id":"4","last_reported":1748689700,"current_range_meters":10800,"station_id":"ce4bgk12rcd13ifvqbj0","pricing_plan_id":"cebpf4jnsgd1na2vs0mg"},{"bike_id":"5291cf4b-2021-40c9-9a7c-11e51c847979","system_id":"levelo_inurba_marseille","lat":43.23167,"lon":5.43726,"is_reserved":false,"is_disabled":false,"rental_uris":{"android":"levelo://app?vid=5291cf4b-2021-40c9-9a7c-11e51c847979","ios":"levelo://app?vid=5291cf4b-2021-40c9-9a7c-11e51c847979"},"vehicle_type_id":"4","last_reported":1748689700,"current_range_meters":10800,"station_id":"ce4bhmp2rcd13ifvqgog","pricing_plan_id":"cebpf4jnsgd1na2vs0mg"},{"bike_id":"49606bd9-6d6c-4347-85cc-4af520d576ff","system_id":"levelo_inurba_marseille","lat":43.28477,"lon":5.384115,"is_reserved":false,"is_disabled":false,"rental_uris":{"android":"levelo://app?vid=49606bd9-6d6c-4347-85cc-4af520d576ff","ios":"levelo://app?vid=49606bd9-6d6c-4347-85cc-4af520d576ff"},"vehicle_type_id":"4","last_reported":1748689700,"current_range_meters":10800,"station_id":"ce4bh512rcd13ifvqe3g","pricing_plan_id":"cebpf4jnsgd1na2vs0mg"},{"bike_id":"37c9dcad-038c-495f-8fe1-c0b795219e26","system_id":"levelo_inurba_marseille","lat":43.27669,"lon":5.38908,"is_reserved":false,"is_disabled":false,"rental_uris":{"android":"levelo://app?vid=37c9dcad-038c-495f-8fe1-c0b795219e26","ios":"levelo://app?vid=37c9dcad-038c-495f-8fe1-c0b795219e26"},"vehicle_type_id":"4","last_reported":1748689700,"current_range_meters":10800,"station_id":"ce4bhi12rcd13ifvqfo0","pricing_plan_id":"cebpf4jnsgd1na2vs0mg"},{"bike_id":"b18036e4-cdbb-441f-a4f1-99c9cdbece34","system_id":"levelo_inurba_marseille","lat":43.29495,"lon":5.39066,"is_reserved":false,"is_disabled":false,"rental_uris":{"android":"levelo://app?vid=b18036e4-cdbb-441f-a4f1-99c9cdbece34","ios":"levelo://app?vid=b18036e4-cdbb-441f-a4f1-99c9cdbece34"},"vehicle_type_id":"4","last_reported":1748689700,"current_range_meters":10800,"station_id":"ce4bh3p2rcd13ifvqdp0","pricing_plan_id":"cebpf4jnsgd1na2vs0mg"},{"bike_id":"f4431ae7-57a2-44b7-b0f4-0bd0d29a42ab","system_id":"levelo_inurba_marseille","lat":43.26941,"lon":5.40255,"is_reserved":false,"is_disabled":false,"rental_uris":{"android":"levelo://app?vid=f4431ae7-57a2-44b7-b0f4-0bd0d29a42ab","ios":"levelo://app?vid=f4431ae7-57a2-44b7-b0f4-0bd0d29a42ab"},"vehicle_type_id":"4","last_reported":1748689700,"current_range_meters":11200,"station_id":"cjm6bp8fraef2m0cb0m0","pricing_plan_id":"cebpf4jnsgd1na2vs0mg"},{"bike_id":"45b986d1-d5db-4012-aede-57d3459a37ac","system_id":"levelo_inurba_marseille","lat":43.24994,"lon":5.3893,"is_reserved":false,"is_disabled":false,"rental_uris":{"android":"levelo://app?vid=45b986d1-d5db-4012-aede-57d3459a37ac","ios":"levelo://app?vid=45b986d1-d5db-4012-aede-57d3459a37ac"},"vehicle_type_id":"4","last_reported":1748689700,"current_range_meters":10800,"station_id":"ce4bhgp2rcd13ifvqfd0","pricing_plan_id":"cebpf4jnsgd1na2vs0mg"},{"bike_id":"c38efc23-2d71-49a8-930f-02728d850714","system_id":"levelo_inurba_marseille","lat":43.29002,"lon":5.35614,"is_reserved":false,"is_disabled":false,"rental_uris":{"android":"levelo://app?vid=c38efc23-2d71-49a8-930f-02728d850714","ios":"levelo://app?vid=c38efc23-2d71-49a8-930f-02728d850714"},"vehicle_type_id":"4","last_reported":1748689700,"current_range_meters":11200,"station_id":"ce4bhb92rcd13ifvqen0","pricing_plan_id":"cebpf4jnsgd1na2vs0mg"},{"bike_id":"6dbec55b-fee0-4a3a-9ed2-723f9ae1c783","system_id":"levelo_inurba_marseille","lat":43.2989,"lon":5.43657,"is_reserved":false,"is_disabled":true,"rental_uris":{"android":"levelo://app?vid=6dbec55b-fee0-4a3a-9ed2-723f9ae1c783","ios":"levelo://app?vid=6dbec55b-fee0-4a3a-9ed2-723f9ae1c783"},"vehicle_type_id":"4","last_reported":1748689700,"current_range_meters":11600,"station_id":"ce4bhpp2rcd13ifvqhfg","pricing_plan_id":"cebpf4jnsgd1na2vs0mg"},{"bike_id":"25866adb-6a96-4a09-8ec1-e154dc548fb4","system_id":"levelo_inurba_marseille","lat":43.2319,"lon":5.35556,"is_reserved":false,"is_disabled":false,"rental_uris":{"android":"levelo://app?vid=25866adb-6a96-4a09-8ec1-e154dc548fb4","ios":"levelo://app?vid=25866adb-6a96-4a09-8ec1-e154dc548fb4"},"vehicle_type_id":"4","last_reported":1748689700,"current_range_meters":11600,"station_id":"ce4bhu92rcd13ifvqi70","pricing_plan_id":"cebpf4jnsgd1na2vs0mg"},{"bike_id":"b35fd950-24e0-465e-96d1-082254f22158","system_id":"levelo_inurba_marseille","lat":43.278359,"lon":5.392008,"is_reserved":false,"is_disabled":false,"rental_uris":{"android":"levelo://app?vid=b35fd950-24e0-465e-96d1-082254f22158","ios":"levelo://app?vid=b35fd950-24e0-465e-96d1-082254f22158"},"vehicle_type_id":"4","last_reported":1748689700,"current_range_meters":11600,"station_id":"ce4bhjp2rcd13ifvqga0","pricing_plan_id":"cebpf4jnsgd1na2vs0mg"},{"bike_id":"0d3bab2f-26cf-41f1-82dd-bb5db963b288","system_id":"levelo_inurba_marseille","lat":43.32542,"lon":5.36483,"is_reserved":false,"is_disabled":true,"rental_uris":{"android":"levelo://app?vid=0d3bab2f-26cf-41f1-82dd-bb5db963b288","ios":"levelo://app?vid=0d3bab2f-26cf-41f1-82dd-bb5db963b288"},"vehicle_type_id":"4","last_reported":1748689700,"current_range_meters":11600,"station_id":"","pricing_plan_id":"cebpf4jnsgd1na2vs0mg"},{"bike_id":"2734d6db-8b75-43b4-a3c5-a61e48cb0a9d","system_id":"levelo_inurba_marseille","lat":43.24997,"lon":5.38933,"is_reserved":false,"is_disabled":false,"rental_uris":{"android":"levelo://app?vid=2734d6db-8b75-43b4-a3c5-a61e48cb0a9d","ios":"levelo://app?vid=2734d6db-8b75-43b4-a3c5-a61e48cb0a9d"},"vehicle_type_id":"4","last_reported":1748689700,"current_range_meters":12000,"station_id":"ce4bhgp2rcd13ifvqfd0","pricing_plan_id":"cebpf4jnsgd1na2vs0mg"},{"bike_id":"42060358-49d8-44c6-acbb-a8fdaec06f62","system_id":"levelo_inurba_marseille","lat":43.26218,"lon":5.40446,"is_reserved":false,"is_disabled":false,"rental_uris":{"android":"levelo://app?vid=42060358-49d8-44c6-acbb-a8fdaec06f62","ios":"levelo://app?vid=42060358-49d8-44c6-acbb-a8fdaec06f62"},"vehicle_type_id":"4","last_reported":1748689700,"current_range_meters":12000,"station_id":"ce4bhmh2rcd13ifvqgmg","pricing_plan_id":"cebpf4jnsgd1na2vs0mg"},{"bike_id":"934904aa-b6fe-443c-8d85-9d5ac099efe4","system_id":"levelo_inurba_marseille","lat":43.21754,"lon":5.34594,"is_reserved":false,"is_disabled":false,"rental_uris":{"android":"levelo://app?vid=934904aa-b6fe-443c-8d85-9d5ac099efe4","ios":"levelo://app?vid=934904aa-b6fe-443c-8d85-9d5ac099efe4"},"vehicle_type_id":"4","last_reported":1748689700,"current_range_meters":12000,"station_id":"st_cvj6r9ubvosntc0bgbag","pricing_plan_id":"cebpf4jnsgd1na2vs0mg"},{"bike_id":"130df770-e1cd-4cbd-98bd-fe5961a706d2","system_id":"levelo_inurba_marseille","lat":43.29258,"lon":5.40903,"is_reserved":false,"is_disabled":false,"rental_uris":{"android":"levelo://app?vid=130df770-e1cd-4cbd-98bd-fe5961a706d2","ios":"levelo://app?vid=130df770-e1cd-4cbd-98bd-fe5961a706d2"},"vehicle_type_id":"4","last_reported":1748689700,"current_range_meters":12000,"station_id":"ce4bh192rcd13ifvqdc0","pricing_plan_id":"cebpf4jnsgd1na2vs0mg"},{"bike_id":"84c1e71b-c6ad-414e-9795-3675bda248d5","system_id":"levelo_inurba_marseille","lat":43.2315,"lon":5.43697,"is_reserved":false,"is_disabled":false,"rental_uris":{"android":"levelo://app?vid=84c1e71b-c6ad-414e-9795-3675bda248d5","ios":"levelo://app?vid=84c1e71b-c6ad-414e-9795-3675bda248d5"},"vehicle_type_id":"4","last_reported":1748689700,"current_range_meters":11600,"station_id":"ce4bhmp2rcd13ifvqgog","pricing_plan_id":"cebpf4jnsgd1na2vs0mg"},{"bike_id":"8209d80a-991f-4cc1-b8d3-f6beff0039cd","system_id":"levelo_inurba_marseille","lat":43.3054,"lon":5.36537,"is_reserved":false,"is_disabled":false,"rental_uris":{"android":"levelo://app?vid=8209d80a-991f-4cc1-b8d3-f6beff0039cd","ios":"levelo://app?vid=8209d80a-991f-4cc1-b8d3-f6beff0039cd"},"vehicle_type_id":"4","last_reported":1748689700,"current_range_meters":12400,"station_id":"ce4bgs12rcd13ifvqcag","pricing_plan_id":"cebpf4jnsgd1na2vs0mg"},{"bike_id":"aa7f5b45-7dfa-4851-a5ea-ff556e596fa2","system_id":"levelo_inurba_marseille","lat":43.29621,"lon":5.37156,"is_reserved":false,"is_disabled":false,"rental_uris":{"android":"levelo://app?vid=aa7f5b45-7dfa-4851-a5ea-ff556e596fa2","ios":"levelo://app?vid=aa7f5b45-7dfa-4851-a5ea-ff556e596fa2"},"vehicle_type_id":"4","last_reported":1748689700,"current_range_meters":12400,"station_id":"ce4bgnh2rcd13ifvqc0g","pricing_plan_id":"cebpf4jnsgd1na2vs0mg"},{"bike_id":"67614841-9f24-4f1f-81f7-acf09b9bb6b8","system_id":"levelo_inurba_marseille","lat":43.25725,"lon":5.41112,"is_reserved":false,"is_disabled":false,"rental_uris":{"android":"levelo://app?vid=67614841-9f24-4f1f-81f7-acf09b9bb6b8","ios":"levelo://app?vid=67614841-9f24-4f1f-81f7-acf09b9bb6b8"},"vehicle_type_id":"4","last_reported":1748689700,"current_range_meters":12400,"station_id":"ce4bhkp2rcd13ifvqgd0","pricing_plan_id":"cebpf4jnsgd1na2vs0mg"},{"bike_id":"0a9ffdd7-c167-4d81-8c08-db4e255360a4","system_id":"levelo_inurba_marseille","lat":43.27999,"lon":5.40006,"is_reserved":false,"is_disabled":false,"rental_uris":{"android":"levelo://app?vid=0a9ffdd7-c167-4d81-8c08-db4e255360a4","ios":"levelo://app?vid=0a9ffdd7-c167-4d81-8c08-db4e255360a4"},"vehicle_type_id":"4","last_reported":1748689700,"current_range_meters":12400,"station_id":"ce4bho92rcd13ifvqh4g","pricing_plan_id":"cebpf4jnsgd1na2vs0mg"},{"bike_id":"ca45ae50-8fdf-43fd-8443-30c134198d86","system_id":"levelo_inurba_marseille","lat":43.26564,"lon":5.4032,"is_reserved":false,"is_disabled":false,"rental_uris":{"android":"levelo://app?vid=ca45ae50-8fdf-43fd-8443-30c134198d86","ios":"levelo://app?vid=ca45ae50-8fdf-43fd-8443-30c134198d86"},"vehicle_type_id":"4","last_reported":1748689700,"current_range_meters":12400,"station_id":"","pricing_plan_id":"cebpf4jnsgd1na2vs0mg"},{"bike_id":"03c1751e-ef60-4175-a52f-4759bb9df88b","system_id":"levelo_inurba_marseille","lat":43.27938,"lon":5.38738,"is_reserved":false,"is_disabled":false,"rental_uris":{"android":"levelo://app?vid=03c1751e-ef60-4175-a52f-4759bb9df88b","ios":"levelo://app?vid=03c1751e-ef60-4175-a52f-4759bb9df88b"},"vehicle_type_id":"4","last_reported":1748689700,"current_range_meters":12400,"station_id":"ce4bhg12rcd13ifvqf80","pricing_plan_id":"cebpf4jnsgd1na2vs0mg"},{"bike_id":"cf31518c-33cd-4310-88dd-e3d434df7390","system_id":"levelo_inurba_marseille","lat":43.269433,"lon":5.40261,"is_reserved":false,"is_disabled":false,"rental_uris":{"android":"levelo://app?vid=cf31518c-33cd-4310-88dd-e3d434df7390","ios":"levelo://app?vid=cf31518c-33cd-4310-88dd-e3d434df7390"},"vehicle_type_id":"4","last_reported":1748689700,"current_range_meters":12800,"station_id":"cjm6bp8fraef2m0cb0m0","pricing_plan_id":"cebpf4jnsgd1na2vs0mg"},{"bike_id":"d8af0821-bc5d-459f-b24d-bbfca9521714","system_id":"levelo_inurba_marseille","lat":43.2416,"lon":5.39714,"is_reserved":false,"is_disabled":false,"rental_uris":{"android":"levelo://app?vid=d8af0821-bc5d-459f-b24d-bbfca9521714","ios":"levelo://app?vid=d8af0821-bc5d-459f-b24d-bbfca9521714"},"vehicle_type_id":"4","last_reported":1748689700,"current_range_meters":12800,"station_id":"ce4bhn12rcd13ifvqgpg","pricing_plan_id":"cebpf4jnsgd1na2vs0mg"},{"bike_id":"c9a8ab5e-4f64-4e9c-8db2-4dbad5a71d1d","system_id":"levelo_inurba_marseille","lat":43.21751,"lon":5.34601,"is_reserved":false,"is_disabled":false,"rental_uris":{"android":"levelo://app?vid=c9a8ab5e-4f64-4e9c-8db2-4dbad5a71d1d","ios":"levelo://app?vid=c9a8ab5e-4f64-4e9c-8db2-4dbad5a71d1d"},"vehicle_type_id":"4","last_reported":1748689700,"current_range_meters":12800,"station_id":"st_cvj6r9ubvosntc0bgbag","pricing_plan_id":"cebpf4jnsgd1na2vs0mg"},{"bike_id":"6ea182ec-7912-43ab-b30b-0079bdc212c8","system_id":"levelo_inurba_marseille","lat":43.29033,"lon":5.3756,"is_reserved":false,"is_disabled":false,"rental_uris":{"android":"levelo://app?vid=6ea182ec-7912-43ab-b30b-0079bdc212c8","ios":"levelo://app?vid=6ea182ec-7912-43ab-b30b-0079bdc212c8"},"vehicle_type_id":"4","last_reported":1748689700,"current_range_meters":12800,"station_id":"ce4bh692rcd13ifvqe90","pricing_plan_id":"cebpf4jnsgd1na2vs0mg"},{"bike_id":"37240c81-268a-4bb7-a9d8-4e93c6fab707","system_id":"levelo_inurba_marseille","lat":43.31994,"lon":5.38168,"is_reserved":false,"is_disabled":false,"rental_uris":{"android":"levelo://app?vid=37240c81-268a-4bb7-a9d8-4e93c6fab707","ios":"levelo://app?vid=37240c81-268a-4bb7-a9d8-4e93c6fab707"},"vehicle_type_id":"4","last_reported":1748689700,"current_range_meters":12400,"station_id":"ce4bhr12rcd13ifvqhpg","pricing_plan_id":"cebpf4jnsgd1na2vs0mg"},{"bike_id":"fe20ebb6-35d3-4911-8f48-789c97fc55ce","system_id":"levelo_inurba_marseille","lat":43.29622,"lon":5.37723,"is_reserved":false,"is_disabled":false,"rental_uris":{"android":"levelo://app?vid=fe20ebb6-35d3-4911-8f48-789c97fc55ce","ios":"levelo://app?vid=fe20ebb6-35d3-4911-8f48-789c97fc55ce"},"vehicle_type_id":"4","last_reported":1748689700,"current_range_meters":12400,"station_id":"ce4bgi92rcd13ifvqb90","pricing_plan_id":"cebpf4jnsgd1na2vs0mg"},{"bike_id":"a7bc0857-ba13-43fa-9be2-c26b232e5a26","system_id":"levelo_inurba_marseille","lat":43.25926,"lon":5.40895,"is_reserved":false,"is_disabled":false,"rental_uris":{"android":"levelo://app?vid=a7bc0857-ba13-43fa-9be2-c26b232e5a26","ios":"levelo://app?vid=a7bc0857-ba13-43fa-9be2-c26b232e5a26"},"vehicle_type_id":"4","last_reported":1748689700,"current_range_meters":13600,"station_id":"ce4bhm92rcd13ifvqglg","pricing_plan_id":"cebpf4jnsgd1na2vs0mg"},{"bike_id":"bc48938d-c70f-4f1d-8804-8fda4bb815fa","system_id":"levelo_inurba_marseille","lat":43.24388,"lon":5.37061,"is_reserved":false,"is_disabled":false,"rental_uris":{"android":"levelo://app?vid=bc48938d-c70f-4f1d-8804-8fda4bb815fa","ios":"levelo://app?vid=bc48938d-c70f-4f1d-8804-8fda4bb815fa"},"vehicle_type_id":"4","last_reported":1748689700,"current_range_meters":13600,"station_id":"ce4bhhh2rcd13ifvqfk0","pricing_plan_id":"cebpf4jnsgd1na2vs0mg"},{"bike_id":"85b57ead-8a3b-4148-81a7-7994880056e9","system_id":"levelo_inurba_marseille","lat":43.21744,"lon":5.34605,"is_reserved":false,"is_disabled":false,"rental_uris":{"android":"levelo://app?vid=85b57ead-8a3b-4148-81a7-7994880056e9","ios":"levelo://app?vid=85b57ead-8a3b-4148-81a7-7994880056e9"},"vehicle_type_id":"4","last_reported":1748689700,"current_range_meters":13600,"station_id":"st_cvj6r9ubvosntc0bgbag","pricing_plan_id":"cebpf4jnsgd1na2vs0mg"},{"bike_id":"d5d0bfbb-f2bc-4297-a453-115bac476736","system_id":"levelo_inurba_marseille","lat":43.29374,"lon":5.37493,"is_reserved":false,"is_disabled":false,"rental_uris":{"android":"levelo://app?vid=d5d0bfbb-f2bc-4297-a453-115bac476736","ios":"levelo://app?vid=d5d0bfbb-f2bc-4297-a453-115bac476736"},"vehicle_type_id":"4","last_reported":1748689700,"current_range_meters":13600,"station_id":"","pricing_plan_id":"cebpf4jnsgd1na2vs0mg"},{"bike_id":"00ef3427-c1fb-463a-b0e1-a0760b43e984","system_id":"levelo_inurba_marseille","lat":43.29543,"lon":5.37499,"is_reserved":false,"is_disabled":false,"rental_uris":{"android":"levelo://app?vid=00ef3427-c1fb-463a-b0e1-a0760b43e984","ios":"levelo://app?vid=00ef3427-c1fb-463a-b0e1-a0760b43e984"},"vehicle_type_id":"4","last_reported":1748689700,"current_range_meters":13600,"station_id":"ce4bgkp2rcd13ifvqbmg","pricing_plan_id":"cebpf4jnsgd1na2vs0mg"},{"bike_id":"e6901d81-8f28-4d7d-9700-121d525d1548","system_id":"levelo_inurba_marseille","lat":43.21753,"lon":5.34595,"is_reserved":false,"is_disabled":false,"rental_uris":{"android":"levelo://app?vid=e6901d81-8f28-4d7d-9700-121d525d1548","ios":"levelo://app?vid=e6901d81-8f28-4d7d-9700-121d525d1548"},"vehicle_type_id":"4","last_reported":1748689700,"current_range_meters":14000,"station_id":"","pricing_plan_id":"cebpf4jnsgd1na2vs0mg"},{"bike_id":"b5e7c5da-4a72-499d-b836-838107a6451c","system_id":"levelo_inurba_marseille","lat":43.21752,"lon":5.34592,"is_reserved":false,"is_disabled":false,"rental_uris":{"android":"levelo://app?vid=b5e7c5da-4a72-499d-b836-838107a6451c","ios":"levelo://app?vid=b5e7c5da-4a72-499d-b836-838107a6451c"},"vehicle_type_id":"4","last_reported":1748689700,"current_range_meters":13600,"station_id":"st_cvj6r9ubvosntc0bgbag","pricing_plan_id":"cebpf4jnsgd1na2vs0mg"},{"bike_id":"a1afee0d-636a-4145-8e38-9b2384426a66","system_id":"levelo_inurba_marseille","lat":43.322813,"lon":5.382704,"is_reserved":false,"is_disabled":false,"rental_uris":{"android":"levelo://app?vid=a1afee0d-636a-4145-8e38-9b2384426a66","ios":"levelo://app?vid=a1afee0d-636a-4145-8e38-9b2384426a66"},"vehicle_type_id":"4","last_reported":1748689700,"current_range_meters":14000,"station_id":"ce4bhr12rcd13ifvqhqg","pricing_plan_id":"cebpf4jnsgd1na2vs0mg"},{"bike_id":"8fa2986e-e7ee-4a67-9283-136ddf42da81","system_id":"levelo_inurba_marseille","lat":43.2621,"lon":5.37446,"is_reserved":false,"is_disabled":false,"rental_uris":{"android":"levelo://app?vid=8fa2986e-e7ee-4a67-9283-136ddf42da81","ios":"levelo://app?vid=8fa2986e-e7ee-4a67-9283-136ddf42da81"},"vehicle_type_id":"4","last_reported":1748689700,"current_range_meters":14000,"station_id":"ce4bhgp2rcd13ifvqfc0","pricing_plan_id":"cebpf4jnsgd1na2vs0mg"},{"bike_id":"14036455-f919-44f7-8d5e-0b2e84f48674","system_id":"levelo_inurba_marseille","lat":43.309196,"lon":5.403938,"is_reserved":false,"is_disabled":false,"rental_uris":{"android":"levelo://app?vid=14036455-f919-44f7-8d5e-0b2e84f48674","ios":"levelo://app?vid=14036455-f919-44f7-8d5e-0b2e84f48674"},"vehicle_type_id":"4","last_reported":1748689700,"current_range_meters":14000,"station_id":"","pricing_plan_id":"cebpf4jnsgd1na2vs0mg"},{"bike_id":"e09836a0-a88a-4b81-ba5f-0a0566889c80","system_id":"levelo_inurba_marseille","lat":43.29179,"lon":5.35803,"is_reserved":false,"is_disabled":false,"rental_uris":{"android":"levelo://app?vid=e09836a0-a88a-4b81-ba5f-0a0566889c80","ios":"levelo://app?vid=e09836a0-a88a-4b81-ba5f-0a0566889c80"},"vehicle_type_id":"4","last_reported":1748689700,"current_range_meters":14000,"station_id":"ce4bhb12rcd13ifvqel0","pricing_plan_id":"cebpf4jnsgd1na2vs0mg"},{"bike_id":"937f9e3f-8b13-4a88-a638-6f5372018cc9","system_id":"levelo_inurba_marseille","lat":43.29853,"lon":5.36278,"is_reserved":false,"is_disabled":false,"rental_uris":{"android":"levelo://app?vid=937f9e3f-8b13-4a88-a638-6f5372018cc9","ios":"levelo://app?vid=937f9e3f-8b13-4a88-a638-6f5372018cc9"},"vehicle_type_id":"4","last_reported":1748689700,"current_range_meters":14400,"station_id":"ce4bgpp2rcd13ifvqc3g","pricing_plan_id":"cebpf4jnsgd1na2vs0mg"},{"bike_id":"b4a389d7-474d-4a9d-8dec-223a88612b5c","system_id":"levelo_inurba_marseille","lat":43.24994,"lon":5.37942,"is_reserved":false,"is_disabled":false,"rental_uris":{"android":"levelo://app?vid=b4a389d7-474d-4a9d-8dec-223a88612b5c","ios":"levelo://app?vid=b4a389d7-474d-4a9d-8dec-223a88612b5c"},"vehicle_type_id":"4","last_reported":1748689700,"current_range_meters":14400,"station_id":"","pricing_plan_id":"cebpf4jnsgd1na2vs0mg"},{"bike_id":"fafa605c-41de-4def-a99a-5baad40749f1","system_id":"levelo_inurba_marseille","lat":43.29568,"lon":5.37502,"is_reserved":false,"is_disabled":false,"rental_uris":{"android":"levelo://app?vid=fafa605c-41de-4def-a99a-5baad40749f1","ios":"levelo://app?vid=fafa605c-41de-4def-a99a-5baad40749f1"},"vehicle_type_id":"4","last_reported":1748689700,"current_range_meters":14400,"station_id":"ce4bgh92rcd13ifvqb50","pricing_plan_id":"cebpf4jnsgd1na2vs0mg"},{"bike_id":"348ddc31-f232-46b0-bbef-5931b86212cf","system_id":"levelo_inurba_marseille","lat":43.24182,"lon":5.39734,"is_reserved":false,"is_disabled":false,"rental_uris":{"android":"levelo://app?vid=348ddc31-f232-46b0-bbef-5931b86212cf","ios":"levelo://app?vid=348ddc31-f232-46b0-bbef-5931b86212cf"},"vehicle_type_id":"4","last_reported":1748689700,"current_range_meters":14400,"station_id":"ce4bhn12rcd13ifvqgpg","pricing_plan_id":"cebpf4jnsgd1na2vs0mg"},{"bike_id":"d2dd3510-eb8b-47f5-ae18-f18358da230e","system_id":"levelo_inurba_marseille","lat":43.217467,"lon":5.346013,"is_reserved":false,"is_disabled":false,"rental_uris":{"android":"levelo://app?vid=d2dd3510-eb8b-47f5-ae18-f18358da230e","ios":"levelo://app?vid=d2dd3510-eb8b-47f5-ae18-f18358da230e"},"vehicle_type_id":"4","last_reported":1748689700,"current_range_meters":14400,"station_id":"st_cvj6r9ubvosntc0bgbag","pricing_plan_id":"cebpf4jnsgd1na2vs0mg"},{"bike_id":"9dd8b8cc-b2f3-445f-a172-5fd0cc0494af","system_id":"levelo_inurba_marseille","lat":43.28202,"lon":5.42623,"is_reserved":false,"is_disabled":false,"rental_uris":{"android":"levelo://app?vid=9dd8b8cc-b2f3-445f-a172-5fd0cc0494af","ios":"levelo://app?vid=9dd8b8cc-b2f3-445f-a172-5fd0cc0494af"},"vehicle_type_id":"4","last_reported":1748689700,"current_range_meters":14400,"station_id":"","pricing_plan_id":"cebpf4jnsgd1na2vs0mg"},{"bike_id":"c630786e-c291-4fb8-84cb-386ffb734336","system_id":"levelo_inurba_marseille","lat":43.28934,"lon":5.36638,"is_reserved":false,"is_disabled":false,"rental_uris":{"android":"levelo://app?vid=c630786e-c291-4fb8-84cb-386ffb734336","ios":"levelo://app?vid=c630786e-c291-4fb8-84cb-386ffb734336"},"vehicle_type_id":"4","last_reported":1748689700,"current_range_meters":14400,"station_id":"ce4bhap2rcd13ifvqek0","pricing_plan_id":"cebpf4jnsgd1na2vs0mg"},{"bike_id":"556afdd1-4952-4918-bbdd-ad3be352acaa","system_id":"levelo_inurba_marseille","lat":43.30174,"lon":5.36604,"is_reserved":false,"is_disabled":false,"rental_uris":{"android":"levelo://app?vid=556afdd1-4952-4918-bbdd-ad3be352acaa","ios":"levelo://app?vid=556afdd1-4952-4918-bbdd-ad3be352acaa"},"vehicle_type_id":"4","last_reported":1748689700,"current_range_meters":14400,"station_id":"ce4bgrh2rcd13ifvqc8g","pricing_plan_id":"cebpf4jnsgd1na2vs0mg"},{"bike_id":"c2d12911-d807-4b9e-a921-9882f9818a1c","system_id":"levelo_inurba_marseille","lat":43.24168,"lon":5.36395,"is_reserved":false,"is_disabled":false,"rental_uris":{"android":"levelo://app?vid=c2d12911-d807-4b9e-a921-9882f9818a1c","ios":"levelo://app?vid=c2d12911-d807-4b9e-a921-9882f9818a1c"},"vehicle_type_id":"4","last_reported":1748689700,"current_range_meters":14400,"station_id":"cpo36qri1sfpv3e86is0","pricing_plan_id":"cebpf4jnsgd1na2vs0mg"},{"bike_id":"6237d16b-2182-4761-a970-0cabe452be18","system_id":"levelo_inurba_marseille","lat":43.29046,"lon":5.35913,"is_reserved":false,"is_disabled":false,"rental_uris":{"android":"levelo://app?vid=6237d16b-2182-4761-a970-0cabe452be18","ios":"levelo://app?vid=6237d16b-2182-4761-a970-0cabe452be18"},"vehicle_type_id":"4","last_reported":1748689700,"current_range_meters":14800,"station_id":"ce4bha92rcd13ifvqeg0","pricing_plan_id":"cebpf4jnsgd1na2vs0mg"},{"bike_id":"ce340e7f-3f36-4a0b-92f8-6812802490bb","system_id":"levelo_inurba_marseille","lat":43.30959,"lon":5.40149,"is_reserved":false,"is_disabled":false,"rental_uris":{"android":"levelo://app?vid=ce340e7f-3f36-4a0b-92f8-6812802490bb","ios":"levelo://app?vid=ce340e7f-3f36-4a0b-92f8-6812802490bb"},"vehicle_type_id":"4","last_reported":1748689700,"current_range_meters":14800,"station_id":"ce4bgvp2rcd13ifvqct0","pricing_plan_id":"cebpf4jnsgd1na2vs0mg"},{"bike_id":"d4eaaff6-c979-4c36-9f1c-b8c4ec006171","system_id":"levelo_inurba_marseille","lat":43.291818,"lon":5.35575,"is_reserved":false,"is_disabled":false,"rental_uris":{"android":"levelo://app?vid=d4eaaff6-c979-4c36-9f1c-b8c4ec006171","ios":"levelo://app?vid=d4eaaff6-c979-4c36-9f1c-b8c4ec006171"},"vehicle_type_id":"4","last_reported":1748689700,"current_range_meters":15200,"station_id":"ce4bhbh2rcd13ifvqepg","pricing_plan_id":"cebpf4jnsgd1na2vs0mg"},{"bike_id":"1e3afdce-4772-41e6-b0a8-ad3714dc985c","system_id":"levelo_inurba_marseille","lat":43.2794,"lon":5.41044,"is_reserved":false,"is_disabled":false,"rental_uris":{"android":"levelo://app?vid=1e3afdce-4772-41e6-b0a8-ad3714dc985c","ios":"levelo://app?vid=1e3afdce-4772-41e6-b0a8-ad3714dc985c"},"vehicle_type_id":"4","last_reported":1748689700,"current_range_meters":16000,"station_id":"ce4bhnp2rcd13ifvqh0g","pricing_plan_id":"cebpf4jnsgd1na2vs0mg"},{"bike_id":"01df70b4-2f20-4b2d-86a6-42002e2e8110","system_id":"levelo_inurba_marseille","lat":43.2926,"lon":5.40906,"is_reserved":false,"is_disabled":false,"rental_uris":{"android":"levelo://app?vid=01df70b4-2f20-4b2d-86a6-42002e2e8110","ios":"levelo://app?vid=01df70b4-2f20-4b2d-86a6-42002e2e8110"},"vehicle_type_id":"4","last_reported":1748689700,"current_range_meters":16000,"station_id":"ce4bh192rcd13ifvqdc0","pricing_plan_id":"cebpf4jnsgd1na2vs0mg"},{"bike_id":"5dae0668-833e-4f25-993a-cb99cb88669d","system_id":"levelo_inurba_marseille","lat":43.21751,"lon":5.34603,"is_reserved":false,"is_disabled":false,"rental_uris":{"android":"levelo://app?vid=5dae0668-833e-4f25-993a-cb99cb88669d","ios":"levelo://app?vid=5dae0668-833e-4f25-993a-cb99cb88669d"},"vehicle_type_id":"4","last_reported":1748689700,"current_range_meters":16000,"station_id":"st_cvj6r9ubvosntc0bgbag","pricing_plan_id":"cebpf4jnsgd1na2vs0mg"},{"bike_id":"d94ad4e9-ef56-400a-81a8-14ac56c6093e","system_id":"levelo_inurba_marseille","lat":43.2175,"lon":5.34599,"is_reserved":false,"is_disabled":false,"rental_uris":{"android":"levelo://app?vid=d94ad4e9-ef56-400a-81a8-14ac56c6093e","ios":"levelo://app?vid=d94ad4e9-ef56-400a-81a8-14ac56c6093e"},"vehicle_type_id":"4","last_reported":1748689700,"current_range_meters":16000,"station_id":"st_cvj6r9ubvosntc0bgbag","pricing_plan_id":"cebpf4jnsgd1na2vs0mg"},{"bike_id":"e35f13ce-a6c7-4a08-9fa1-ffa4b3601a0b","system_id":"levelo_inurba_marseille","lat":43.21192,"lon":5.35068,"is_reserved":false,"is_disabled":false,"rental_uris":{"android":"levelo://app?vid=e35f13ce-a6c7-4a08-9fa1-ffa4b3601a0b","ios":"levelo://app?vid=e35f13ce-a6c7-4a08-9fa1-ffa4b3601a0b"},"vehicle_type_id":"4","last_reported":1748689700,"current_range_meters":16000,"station_id":"st_cvj6sg6p6f1abm77japg","pricing_plan_id":"cebpf4jnsgd1na2vs0mg"},{"bike_id":"acf16947-b203-4b81-91fe-aabb86c76086","system_id":"levelo_inurba_marseille","lat":43.25729,"lon":5.41082,"is_reserved":false,"is_disabled":false,"rental_uris":{"android":"levelo://app?vid=acf16947-b203-4b81-91fe-aabb86c76086","ios":"levelo://app?vid=acf16947-b203-4b81-91fe-aabb86c76086"},"vehicle_type_id":"4","last_reported":1748689700,"current_range_meters":16000,"station_id":"ce4bhkp2rcd13ifvqgd0","pricing_plan_id":"cebpf4jnsgd1na2vs0mg"},{"bike_id":"5f224e55-2261-440e-bf2f-3cbcb28e1363","system_id":"levelo_inurba_marseille","lat":43.21753,"lon":5.34596,"is_reserved":false,"is_disabled":false,"rental_uris":{"android":"levelo://app?vid=5f224e55-2261-440e-bf2f-3cbcb28e1363","ios":"levelo://app?vid=5f224e55-2261-440e-bf2f-3cbcb28e1363"},"vehicle_type_id":"4","last_reported":1748689700,"current_range_meters":16400,"station_id":"st_cvj6r9ubvosntc0bgbag","pricing_plan_id":"cebpf4jnsgd1na2vs0mg"},{"bike_id":"b000c175-4cbf-433e-9672-aca43766da9c","system_id":"levelo_inurba_marseille","lat":43.23961,"lon":5.36628,"is_reserved":false,"is_disabled":false,"rental_uris":{"android":"levelo://app?vid=b000c175-4cbf-433e-9672-aca43766da9c","ios":"levelo://app?vid=b000c175-4cbf-433e-9672-aca43766da9c"},"vehicle_type_id":"4","last_reported":1748689700,"current_range_meters":16000,"station_id":"ce4bhi12rcd13ifvqfp0","pricing_plan_id":"cebpf4jnsgd1na2vs0mg"},{"bike_id":"42793c90-af8e-4a8a-ba2a-99d6be1aeb0f","system_id":"levelo_inurba_marseille","lat":43.29275,"lon":5.36842,"is_reserved":false,"is_disabled":false,"rental_uris":{"android":"levelo://app?vid=42793c90-af8e-4a8a-ba2a-99d6be1aeb0f","ios":"levelo://app?vid=42793c90-af8e-4a8a-ba2a-99d6be1aeb0f"},"vehicle_type_id":"4","last_reported":1748689700,"current_range_meters":16400,"station_id":"ce4bhbp2rcd13ifvqesg","pricing_plan_id":"cebpf4jnsgd1na2vs0mg"},{"bike_id":"9a724ef8-d819-47e7-a9f7-9a3986491294","system_id":"levelo_inurba_marseille","lat":43.29349,"lon":5.38821,"is_reserved":false,"is_disabled":false,"rental_uris":{"android":"levelo://app?vid=9a724ef8-d819-47e7-a9f7-9a3986491294","ios":"levelo://app?vid=9a724ef8-d819-47e7-a9f7-9a3986491294"},"vehicle_type_id":"4","last_reported":1748689700,"current_range_meters":16400,"station_id":"","pricing_plan_id":"cebpf4jnsgd1na2vs0mg"},{"bike_id":"2f727641-8372-4e37-b639-88cbef7c9941","system_id":"levelo_inurba_marseille","lat":43.2706,"lon":5.40256,"is_reserved":false,"is_disabled":true,"rental_uris":{"android":"levelo://app?vid=2f727641-8372-4e37-b639-88cbef7c9941","ios":"levelo://app?vid=2f727641-8372-4e37-b639-88cbef7c9941"},"vehicle_type_id":"4","last_reported":1748689700,"current_range_meters":16400,"station_id":"ce4bhk92rcd13ifvqgc0","pricing_plan_id":"cebpf4jnsgd1na2vs0mg"},{"bike_id":"e210be7e-07b8-44d3-ae09-6702f28e2ae8","system_id":"levelo_inurba_marseille","lat":43.2513,"lon":5.39358,"is_reserved":false,"is_disabled":false,"rental_uris":{"android":"levelo://app?vid=e210be7e-07b8-44d3-ae09-6702f28e2ae8","ios":"levelo://app?vid=e210be7e-07b8-44d3-ae09-6702f28e2ae8"},"vehicle_type_id":"4","last_reported":1748689700,"current_range_meters":16400,"station_id":"","pricing_plan_id":"cebpf4jnsgd1na2vs0mg"},{"bike_id":"792b8862-e581-44be-8ddc-645d1733b829","system_id":"levelo_inurba_marseille","lat":43.2861,"lon":5.37065,"is_reserved":false,"is_disabled":false,"rental_uris":{"android":"levelo://app?vid=792b8862-e581-44be-8ddc-645d1733b829","ios":"levelo://app?vid=792b8862-e581-44be-8ddc-645d1733b829"},"vehicle_type_id":"4","last_reported":1748689700,"current_range_meters":16400,"station_id":"ce4bht12rcd13ifvqi60","pricing_plan_id":"cebpf4jnsgd1na2vs0mg"},{"bike_id":"fd58be44-efe0-4ddd-a4ac-a9782f7bce3c","system_id":"levelo_inurba_marseille","lat":43.28266,"lon":5.35058,"is_reserved":false,"is_disabled":false,"rental_uris":{"android":"levelo://app?vid=fd58be44-efe0-4ddd-a4ac-a9782f7bce3c","ios":"levelo://app?vid=fd58be44-efe0-4ddd-a4ac-a9782f7bce3c"},"vehicle_type_id":"4","last_reported":1748689700,"current_range_meters":16400,"station_id":"ce4bhbp2rcd13ifvqerg","pricing_plan_id":"cebpf4jnsgd1na2vs0mg"},{"bike_id":"10cccf0e-5e24-4b75-8e4f-e089b2d3e656","system_id":"levelo_inurba_marseille","lat":43.23184,"lon":5.3999,"is_reserved":false,"is_disabled":false,"rental_uris":{"android":"levelo://app?vid=10cccf0e-5e24-4b75-8e4f-e089b2d3e656","ios":"levelo://app?vid=10cccf0e-5e24-4b75-8e4f-e089b2d3e656"},"vehicle_type_id":"4","last_reported":1748689700,"current_range_meters":16400,"station_id":"ce4bhn12rcd13ifvqgqg","pricing_plan_id":"cebpf4jnsgd1na2vs0mg"},{"bike_id":"9a189ee8-27ed-444b-b171-f705371af28f","system_id":"levelo_inurba_marseille","lat":43.28253,"lon":5.34905,"is_reserved":false,"is_disabled":false,"rental_uris":{"android":"levelo://app?vid=9a189ee8-27ed-444b-b171-f705371af28f","ios":"levelo://app?vid=9a189ee8-27ed-444b-b171-f705371af28f"},"vehicle_type_id":"4","last_reported":1748689700,"current_range_meters":16800,"station_id":"","pricing_plan_id":"cebpf4jnsgd1na2vs0mg"},{"bike_id":"4634b1a0-27fb-4f28-89df-b2b50c9cbade","system_id":"levelo_inurba_marseille","lat":43.28593,"lon":5.37109,"is_reserved":false,"is_disabled":false,"rental_uris":{"android":"levelo://app?vid=4634b1a0-27fb-4f28-89df-b2b50c9cbade","ios":"levelo://app?vid=4634b1a0-27fb-4f28-89df-b2b50c9cbade"},"vehicle_type_id":"4","last_reported":1748689700,"current_range_meters":16800,"station_id":"ce4bht12rcd13ifvqi60","pricing_plan_id":"cebpf4jnsgd1na2vs0mg"},{"bike_id":"d9ec35c4-388c-4ab8-ae02-d1cc8b808a2b","system_id":"levelo_inurba_marseille","lat":43.21748,"lon":5.34598,"is_reserved":false,"is_disabled":false,"rental_uris":{"android":"levelo://app?vid=d9ec35c4-388c-4ab8-ae02-d1cc8b808a2b","ios":"levelo://app?vid=d9ec35c4-388c-4ab8-ae02-d1cc8b808a2b"},"vehicle_type_id":"4","last_reported":1748689700,"current_range_meters":16800,"station_id":"st_cvj6r9ubvosntc0bgbag","pricing_plan_id":"cebpf4jnsgd1na2vs0mg"},{"bike_id":"e7177d95-1523-44fc-8625-8d734cdfb209","system_id":"levelo_inurba_marseille","lat":43.21745,"lon":5.34607,"is_reserved":false,"is_disabled":false,"rental_uris":{"android":"levelo://app?vid=e7177d95-1523-44fc-8625-8d734cdfb209","ios":"levelo://app?vid=e7177d95-1523-44fc-8625-8d734cdfb209"},"vehicle_type_id":"4","last_reported":1748689700,"current_range_meters":16800,"station_id":"st_cvj6r9ubvosntc0bgbag","pricing_plan_id":"cebpf4jnsgd1na2vs0mg"},{"bike_id":"61b86620-def2-4760-9d0a-205ac26592db","system_id":"levelo_inurba_marseille","lat":43.2828,"lon":5.35059,"is_reserved":false,"is_disabled":false,"rental_uris":{"android":"levelo://app?vid=61b86620-def2-4760-9d0a-205ac26592db","ios":"levelo://app?vid=61b86620-def2-4760-9d0a-205ac26592db"},"vehicle_type_id":"4","last_reported":1748689700,"current_range_meters":16800,"station_id":"ce4bhbp2rcd13ifvqerg","pricing_plan_id":"cebpf4jnsgd1na2vs0mg"},{"bike_id":"6225bc78-26b5-46b6-b764-a832dab871c6","system_id":"levelo_inurba_marseille","lat":43.29844,"lon":5.36275,"is_reserved":false,"is_disabled":false,"rental_uris":{"android":"levelo://app?vid=6225bc78-26b5-46b6-b764-a832dab871c6","ios":"levelo://app?vid=6225bc78-26b5-46b6-b764-a832dab871c6"},"vehicle_type_id":"4","last_reported":1748689700,"current_range_meters":16800,"station_id":"ce4bgpp2rcd13ifvqc3g","pricing_plan_id":"cebpf4jnsgd1na2vs0mg"},{"bike_id":"413fb428-b0b3-4bea-92b1-d0a1d3888a4f","system_id":"levelo_inurba_marseille","lat":43.23964,"lon":5.36621,"is_reserved":false,"is_disabled":false,"rental_uris":{"android":"levelo://app?vid=413fb428-b0b3-4bea-92b1-d0a1d3888a4f","ios":"levelo://app?vid=413fb428-b0b3-4bea-92b1-d0a1d3888a4f"},"vehicle_type_id":"4","last_reported":1748689700,"current_range_meters":16400,"station_id":"ce4bhi12rcd13ifvqfp0","pricing_plan_id":"cebpf4jnsgd1na2vs0mg"},{"bike_id":"59cc9f64-369b-40a4-aef4-571b231df862","system_id":"levelo_inurba_marseille","lat":43.28095,"lon":5.35192,"is_reserved":false,"is_disabled":false,"rental_uris":{"android":"levelo://app?vid=59cc9f64-369b-40a4-aef4-571b231df862","ios":"levelo://app?vid=59cc9f64-369b-40a4-aef4-571b231df862"},"vehicle_type_id":"4","last_reported":1748689700,"current_range_meters":16800,"station_id":"","pricing_plan_id":"cebpf4jnsgd1na2vs0mg"},{"bike_id":"5ff198f8-38c8-47a5-9be2-e22d967d7fd6","system_id":"levelo_inurba_marseille","lat":43.28413,"lon":5.37511,"is_reserved":false,"is_disabled":false,"rental_uris":{"android":"levelo://app?vid=5ff198f8-38c8-47a5-9be2-e22d967d7fd6","ios":"levelo://app?vid=5ff198f8-38c8-47a5-9be2-e22d967d7fd6"},"vehicle_type_id":"4","last_reported":1748689700,"current_range_meters":16800,"station_id":"ce4bh412rcd13ifvqds0","pricing_plan_id":"cebpf4jnsgd1na2vs0mg"},{"bike_id":"32503fa7-7208-4269-b40f-34ba3dae0f9e","system_id":"levelo_inurba_marseille","lat":43.308679,"lon":5.403709,"is_reserved":false,"is_disabled":false,"rental_uris":{"android":"levelo://app?vid=32503fa7-7208-4269-b40f-34ba3dae0f9e","ios":"levelo://app?vid=32503fa7-7208-4269-b40f-34ba3dae0f9e"},"vehicle_type_id":"4","last_reported":1748689700,"current_range_meters":17200,"station_id":"","pricing_plan_id":"cebpf4jnsgd1na2vs0mg"},{"bike_id":"f5a90625-b7e8-48a8-90c6-777efe255a32","system_id":"levelo_inurba_marseille","lat":43.250992,"lon":5.409718,"is_reserved":false,"is_disabled":false,"rental_uris":{"android":"levelo://app?vid=f5a90625-b7e8-48a8-90c6-777efe255a32","ios":"levelo://app?vid=f5a90625-b7e8-48a8-90c6-777efe255a32"},"vehicle_type_id":"4","last_reported":1748689700,"current_range_meters":17200,"station_id":"","pricing_plan_id":"cebpf4jnsgd1na2vs0mg"},{"bike_id":"3b5fc8e8-6dad-420c-a4b0-3999e30b1da1","system_id":"levelo_inurba_marseille","lat":43.26564,"lon":5.39011,"is_reserved":false,"is_disabled":false,"rental_uris":{"android":"levelo://app?vid=3b5fc8e8-6dad-420c-a4b0-3999e30b1da1","ios":"levelo://app?vid=3b5fc8e8-6dad-420c-a4b0-3999e30b1da1"},"vehicle_type_id":"4","last_reported":1748689700,"current_range_meters":17200,"station_id":"ce4bhe12rcd13ifvqf30","pricing_plan_id":"cebpf4jnsgd1na2vs0mg"},{"bike_id":"b433c371-fa62-4ef0-9c6a-19d8581a9331","system_id":"levelo_inurba_marseille","lat":43.28119,"lon":5.38143,"is_reserved":false,"is_disabled":false,"rental_uris":{"android":"levelo://app?vid=b433c371-fa62-4ef0-9c6a-19d8581a9331","ios":"levelo://app?vid=b433c371-fa62-4ef0-9c6a-19d8581a9331"},"vehicle_type_id":"4","last_reported":1748689700,"current_range_meters":17200,"station_id":"","pricing_plan_id":"cebpf4jnsgd1na2vs0mg"},{"bike_id":"c319417c-4b61-4a2f-b2cd-1ff58f3f859d","system_id":"levelo_inurba_marseille","lat":43.29692,"lon":5.37291,"is_reserved":false,"is_disabled":false,"rental_uris":{"android":"levelo://app?vid=c319417c-4b61-4a2f-b2cd-1ff58f3f859d","ios":"levelo://app?vid=c319417c-4b61-4a2f-b2cd-1ff58f3f859d"},"vehicle_type_id":"4","last_reported":1748689700,"current_range_meters":17200,"station_id":"ce4bgk12rcd13ifvqbj0","pricing_plan_id":"cebpf4jnsgd1na2vs0mg"},{"bike_id":"63f88d84-7da8-46ea-b820-966033f43d35","system_id":"levelo_inurba_marseille","lat":43.30308,"lon":5.4046,"is_reserved":false,"is_disabled":false,"rental_uris":{"android":"levelo://app?vid=63f88d84-7da8-46ea-b820-966033f43d35","ios":"levelo://app?vid=63f88d84-7da8-46ea-b820-966033f43d35"},"vehicle_type_id":"4","last_reported":1748689700,"current_range_meters":17200,"station_id":"ce4bh012rcd13ifvqd10","pricing_plan_id":"cebpf4jnsgd1na2vs0mg"},{"bike_id":"636315b9-8b51-41e2-8903-b28264e088a0","system_id":"levelo_inurba_marseille","lat":43.29307,"lon":5.37177,"is_reserved":false,"is_disabled":false,"rental_uris":{"android":"levelo://app?vid=636315b9-8b51-41e2-8903-b28264e088a0","ios":"levelo://app?vid=636315b9-8b51-41e2-8903-b28264e088a0"},"vehicle_type_id":"4","last_reported":1748689700,"current_range_meters":17200,"station_id":"ce4bgh92rcd13ifvqb40","pricing_plan_id":"cebpf4jnsgd1na2vs0mg"},{"bike_id":"0b248cd5-f7f1-4616-ab60-adc75f0b322e","system_id":"levelo_inurba_marseille","lat":43.22501,"lon":5.347861,"is_reserved":false,"is_disabled":false,"rental_uris":{"android":"levelo://app?vid=0b248cd5-f7f1-4616-ab60-adc75f0b322e","ios":"levelo://app?vid=0b248cd5-f7f1-4616-ab60-adc75f0b322e"},"vehicle_type_id":"4","last_reported":1748689700,"current_range_meters":17200,"station_id":"st_cvj5dfep6f1abm77gieg","pricing_plan_id":"cebpf4jnsgd1na2vs0mg"},{"bike_id":"6578478f-d104-4cd6-bfb0-80e5cad41a4c","system_id":"levelo_inurba_marseille","lat":43.23184,"lon":5.39995,"is_reserved":false,"is_disabled":false,"rental_uris":{"android":"levelo://app?vid=6578478f-d104-4cd6-bfb0-80e5cad41a4c","ios":"levelo://app?vid=6578478f-d104-4cd6-bfb0-80e5cad41a4c"},"vehicle_type_id":"4","last_reported":1748689700,"current_range_meters":17200,"station_id":"ce4bhn12rcd13ifvqgqg","pricing_plan_id":"cebpf4jnsgd1na2vs0mg"},{"bike_id":"c2c9a056-ac46-4716-b14a-bbd4354c60cf","system_id":"levelo_inurba_marseille","lat":43.2319,"lon":5.35558,"is_reserved":false,"is_disabled":false,"rental_uris":{"android":"levelo://app?vid=c2c9a056-ac46-4716-b14a-bbd4354c60cf","ios":"levelo://app?vid=c2c9a056-ac46-4716-b14a-bbd4354c60cf"},"vehicle_type_id":"4","last_reported":1748689700,"current_range_meters":17600,"station_id":"ce4bhu92rcd13ifvqi70","pricing_plan_id":"cebpf4jnsgd1na2vs0mg"},{"bike_id":"684a21ce-411f-414b-92e9-43270a777fb3","system_id":"levelo_inurba_marseille","lat":43.3016,"lon":5.38071,"is_reserved":false,"is_disabled":false,"rental_uris":{"android":"levelo://app?vid=684a21ce-411f-414b-92e9-43270a777fb3","ios":"levelo://app?vid=684a21ce-411f-414b-92e9-43270a777fb3"},"vehicle_type_id":"4","last_reported":1748689700,"current_range_meters":17600,"station_id":"ce4bgjp2rcd13ifvqbh0","pricing_plan_id":"cebpf4jnsgd1na2vs0mg"},{"bike_id":"9a47a076-9458-4b32-be41-39a181d59c34","system_id":"levelo_inurba_marseille","lat":43.29222,"lon":5.36053,"is_reserved":false,"is_disabled":false,"rental_uris":{"android":"levelo://app?vid=9a47a076-9458-4b32-be41-39a181d59c34","ios":"levelo://app?vid=9a47a076-9458-4b32-be41-39a181d59c34"},"vehicle_type_id":"4","last_reported":1748689700,"current_range_meters":17600,"station_id":"ce4bhbh2rcd13ifvqeqg","pricing_plan_id":"cebpf4jnsgd1na2vs0mg"},{"bike_id":"4d9035a1-4135-4911-9f5a-65e8a1a4939f","system_id":"levelo_inurba_marseille","lat":43.21746,"lon":5.34599,"is_reserved":false,"is_disabled":false,"rental_uris":{"android":"levelo://app?vid=4d9035a1-4135-4911-9f5a-65e8a1a4939f","ios":"levelo://app?vid=4d9035a1-4135-4911-9f5a-65e8a1a4939f"},"vehicle_type_id":"4","last_reported":1748689700,"current_range_meters":17600,"station_id":"st_cvj6r9ubvosntc0bgbag","pricing_plan_id":"cebpf4jnsgd1na2vs0mg"},{"bike_id":"26a58952-4c59-4f08-9b98-dbeb39dd15d3","system_id":"levelo_inurba_marseille","lat":43.28415,"lon":5.34979,"is_reserved":false,"is_disabled":false,"rental_uris":{"android":"levelo://app?vid=26a58952-4c59-4f08-9b98-dbeb39dd15d3","ios":"levelo://app?vid=26a58952-4c59-4f08-9b98-dbeb39dd15d3"},"vehicle_type_id":"4","last_reported":1748689700,"current_range_meters":17600,"station_id":"ce4bhbh2rcd13ifvqepg","pricing_plan_id":"cebpf4jnsgd1na2vs0mg"},{"bike_id":"93d5c392-0778-4cad-89ec-024023e88599","system_id":"levelo_inurba_marseille","lat":43.21752,"lon":5.34601,"is_reserved":false,"is_disabled":false,"rental_uris":{"android":"levelo://app?vid=93d5c392-0778-4cad-89ec-024023e88599","ios":"levelo://app?vid=93d5c392-0778-4cad-89ec-024023e88599"},"vehicle_type_id":"4","last_reported":1748689700,"current_range_meters":17600,"station_id":"st_cvj6r9ubvosntc0bgbag","pricing_plan_id":"cebpf4jnsgd1na2vs0mg"},{"bike_id":"77520d45-03bf-4b26-9f9b-8ac6c162ce6b","system_id":"levelo_inurba_marseille","lat":43.243588,"lon":5.411454,"is_reserved":false,"is_disabled":false,"rental_uris":{"android":"levelo://app?vid=77520d45-03bf-4b26-9f9b-8ac6c162ce6b","ios":"levelo://app?vid=77520d45-03bf-4b26-9f9b-8ac6c162ce6b"},"vehicle_type_id":"4","last_reported":1748689700,"current_range_meters":17600,"station_id":"","pricing_plan_id":"cebpf4jnsgd1na2vs0mg"},{"bike_id":"88394dab-750a-4000-a664-329d1611cc61","system_id":"levelo_inurba_marseille","lat":43.217624,"lon":5.345991,"is_reserved":false,"is_disabled":false,"rental_uris":{"android":"levelo://app?vid=88394dab-750a-4000-a664-329d1611cc61","ios":"levelo://app?vid=88394dab-750a-4000-a664-329d1611cc61"},"vehicle_type_id":"4","last_reported":1748689700,"current_range_meters":17600,"station_id":"st_cvj6r9ubvosntc0bgbag","pricing_plan_id":"cebpf4jnsgd1na2vs0mg"},{"bike_id":"b4da423f-fb71-4982-954d-9450efb1246a","system_id":"levelo_inurba_marseille","lat":43.24798,"lon":5.3745,"is_reserved":false,"is_disabled":false,"rental_uris":{"android":"levelo://app?vid=b4da423f-fb71-4982-954d-9450efb1246a","ios":"levelo://app?vid=b4da423f-fb71-4982-954d-9450efb1246a"},"vehicle_type_id":"4","last_reported":1748689700,"current_range_meters":17600,"station_id":"ce4bhgh2rcd13ifvqfb0","pricing_plan_id":"cebpf4jnsgd1na2vs0mg"},{"bike_id":"b8c15673-8192-4b22-ab7c-92cb8e5fce00","system_id":"levelo_inurba_marseille","lat":43.30801,"lon":5.38169,"is_reserved":false,"is_disabled":false,"rental_uris":{"android":"levelo://app?vid=b8c15673-8192-4b22-ab7c-92cb8e5fce00","ios":"levelo://app?vid=b8c15673-8192-4b22-ab7c-92cb8e5fce00"},"vehicle_type_id":"4","last_reported":1748689700,"current_range_meters":17600,"station_id":"ce4bgt12rcd13ifvqce0","pricing_plan_id":"cebpf4jnsgd1na2vs0mg"},{"bike_id":"62b02994-5210-426a-980f-6cb47507004d","system_id":"levelo_inurba_marseille","lat":43.29251,"lon":5.36001,"is_reserved":false,"is_disabled":false,"rental_uris":{"android":"levelo://app?vid=62b02994-5210-426a-980f-6cb47507004d","ios":"levelo://app?vid=62b02994-5210-426a-980f-6cb47507004d"},"vehicle_type_id":"4","last_reported":1748689700,"current_range_meters":17600,"station_id":"","pricing_plan_id":"cebpf4jnsgd1na2vs0mg"},{"bike_id":"4694a8e3-e23c-4f02-9dbb-dd4ec8897662","system_id":"levelo_inurba_marseille","lat":43.26196,"lon":5.37921,"is_reserved":false,"is_disabled":false,"rental_uris":{"android":"levelo://app?vid=4694a8e3-e23c-4f02-9dbb-dd4ec8897662","ios":"levelo://app?vid=4694a8e3-e23c-4f02-9dbb-dd4ec8897662"},"vehicle_type_id":"4","last_reported":1748689700,"current_range_meters":17600,"station_id":"ce4bhjp2rcd13ifvqg90","pricing_plan_id":"cebpf4jnsgd1na2vs0mg"},{"bike_id":"207bb5eb-1a79-480d-8161-16332ac6efb4","system_id":"levelo_inurba_marseille","lat":43.28265,"lon":5.35063,"is_reserved":false,"is_disabled":false,"rental_uris":{"android":"levelo://app?vid=207bb5eb-1a79-480d-8161-16332ac6efb4","ios":"levelo://app?vid=207bb5eb-1a79-480d-8161-16332ac6efb4"},"vehicle_type_id":"4","last_reported":1748689700,"current_range_meters":17600,"station_id":"ce4bhbp2rcd13ifvqerg","pricing_plan_id":"cebpf4jnsgd1na2vs0mg"},{"bike_id":"9a87b717-f8e2-4016-bc78-03583a62a953","system_id":"levelo_inurba_marseille","lat":43.265574,"lon":5.403204,"is_reserved":false,"is_disabled":false,"rental_uris":{"android":"levelo://app?vid=9a87b717-f8e2-4016-bc78-03583a62a953","ios":"levelo://app?vid=9a87b717-f8e2-4016-bc78-03583a62a953"},"vehicle_type_id":"4","last_reported":1748689700,"current_range_meters":18000,"station_id":"","pricing_plan_id":"cebpf4jnsgd1na2vs0mg"},{"bike_id":"788b90c6-2084-4eb3-bb08-4e058b371f4b","system_id":"levelo_inurba_marseille","lat":43.26211,"lon":5.37439,"is_reserved":false,"is_disabled":false,"rental_uris":{"android":"levelo://app?vid=788b90c6-2084-4eb3-bb08-4e058b371f4b","ios":"levelo://app?vid=788b90c6-2084-4eb3-bb08-4e058b371f4b"},"vehicle_type_id":"4","last_reported":1748689700,"current_range_meters":18000,"station_id":"ce4bhgp2rcd13ifvqfc0","pricing_plan_id":"cebpf4jnsgd1na2vs0mg"},{"bike_id":"45ee39cf-e26d-4d69-a577-61e82eb33322","system_id":"levelo_inurba_marseille","lat":43.30554,"lon":5.36548,"is_reserved":false,"is_disabled":false,"rental_uris":{"android":"levelo://app?vid=45ee39cf-e26d-4d69-a577-61e82eb33322","ios":"levelo://app?vid=45ee39cf-e26d-4d69-a577-61e82eb33322"},"vehicle_type_id":"4","last_reported":1748689700,"current_range_meters":18000,"station_id":"ce4bgs12rcd13ifvqcag","pricing_plan_id":"cebpf4jnsgd1na2vs0mg"},{"bike_id":"f365caa8-1088-42e4-9d08-18d155792df5","system_id":"levelo_inurba_marseille","lat":43.21742,"lon":5.34615,"is_reserved":false,"is_disabled":false,"rental_uris":{"android":"levelo://app?vid=f365caa8-1088-42e4-9d08-18d155792df5","ios":"levelo://app?vid=f365caa8-1088-42e4-9d08-18d155792df5"},"vehicle_type_id":"4","last_reported":1748689700,"current_range_meters":18000,"station_id":"st_cvj6r9ubvosntc0bgbag","pricing_plan_id":"cebpf4jnsgd1na2vs0mg"},{"bike_id":"f81af539-ec78-40b9-bb0c-6f60cab8d76b","system_id":"levelo_inurba_marseille","lat":43.21748,"lon":5.34597,"is_reserved":false,"is_disabled":false,"rental_uris":{"android":"levelo://app?vid=f81af539-ec78-40b9-bb0c-6f60cab8d76b","ios":"levelo://app?vid=f81af539-ec78-40b9-bb0c-6f60cab8d76b"},"vehicle_type_id":"4","last_reported":1748689700,"current_range_meters":18000,"station_id":"st_cvj6r9ubvosntc0bgbag","pricing_plan_id":"cebpf4jnsgd1na2vs0mg"},{"bike_id":"cf99540e-56c9-47fd-bb37-414f9e70e2e8","system_id":"levelo_inurba_marseille","lat":43.29848,"lon":5.3628,"is_reserved":false,"is_disabled":false,"rental_uris":{"android":"levelo://app?vid=cf99540e-56c9-47fd-bb37-414f9e70e2e8","ios":"levelo://app?vid=cf99540e-56c9-47fd-bb37-414f9e70e2e8"},"vehicle_type_id":"4","last_reported":1748689700,"current_range_meters":18000,"station_id":"ce4bgpp2rcd13ifvqc3g","pricing_plan_id":"cebpf4jnsgd1na2vs0mg"},{"bike_id":"77c8d843-097d-4a21-9eaf-ceba89e1d972","system_id":"levelo_inurba_marseille","lat":43.24152,"lon":5.36447,"is_reserved":false,"is_disabled":false,"rental_uris":{"android":"levelo://app?vid=77c8d843-097d-4a21-9eaf-ceba89e1d972","ios":"levelo://app?vid=77c8d843-097d-4a21-9eaf-ceba89e1d972"},"vehicle_type_id":"4","last_reported":1748689700,"current_range_meters":18000,"station_id":"cpo36qri1sfpv3e86is0","pricing_plan_id":"cebpf4jnsgd1na2vs0mg"},{"bike_id":"ffcd44c6-d25b-475b-829d-4a4d66d78c68","system_id":"levelo_inurba_marseille","lat":43.30599,"lon":5.39358,"is_reserved":false,"is_disabled":false,"rental_uris":{"android":"levelo://app?vid=ffcd44c6-d25b-475b-829d-4a4d66d78c68","ios":"levelo://app?vid=ffcd44c6-d25b-475b-829d-4a4d66d78c68"},"vehicle_type_id":"4","last_reported":1748689700,"current_range_meters":18000,"station_id":"ce4bh0p2rcd13ifvqd80","pricing_plan_id":"cebpf4jnsgd1na2vs0mg"},{"bike_id":"06288c81-29c4-49c7-acf3-001940d7405f","system_id":"levelo_inurba_marseille","lat":43.28273,"lon":5.35055,"is_reserved":false,"is_disabled":false,"rental_uris":{"android":"levelo://app?vid=06288c81-29c4-49c7-acf3-001940d7405f","ios":"levelo://app?vid=06288c81-29c4-49c7-acf3-001940d7405f"},"vehicle_type_id":"4","last_reported":1748689700,"current_range_meters":18000,"station_id":"ce4bhbp2rcd13ifvqerg","pricing_plan_id":"cebpf4jnsgd1na2vs0mg"},{"bike_id":"52138315-f13b-4871-ab78-9e5155a1008c","system_id":"levelo_inurba_marseille","lat":43.32297,"lon":5.38207,"is_reserved":false,"is_disabled":false,"rental_uris":{"android":"levelo://app?vid=52138315-f13b-4871-ab78-9e5155a1008c","ios":"levelo://app?vid=52138315-f13b-4871-ab78-9e5155a1008c"},"vehicle_type_id":"4","last_reported":1748689700,"current_range_meters":18000,"station_id":"","pricing_plan_id":"cebpf4jnsgd1na2vs0mg"},{"bike_id":"56ed4761-a43c-4469-9ea6-f227f320ed7f","system_id":"levelo_inurba_marseille","lat":43.23137,"lon":5.43716,"is_reserved":false,"is_disabled":false,"rental_uris":{"android":"levelo://app?vid=56ed4761-a43c-4469-9ea6-f227f320ed7f","ios":"levelo://app?vid=56ed4761-a43c-4469-9ea6-f227f320ed7f"},"vehicle_type_id":"4","last_reported":1748689700,"current_range_meters":18000,"station_id":"ce4bhmp2rcd13ifvqgog","pricing_plan_id":"cebpf4jnsgd1na2vs0mg"},{"bike_id":"185087fc-f1d0-49e3-a213-58b84bc46ffd","system_id":"levelo_inurba_marseille","lat":43.27969,"lon":5.38738,"is_reserved":false,"is_disabled":false,"rental_uris":{"android":"levelo://app?vid=185087fc-f1d0-49e3-a213-58b84bc46ffd","ios":"levelo://app?vid=185087fc-f1d0-49e3-a213-58b84bc46ffd"},"vehicle_type_id":"4","last_reported":1748689700,"current_range_meters":18000,"station_id":"ce4bhg12rcd13ifvqf80","pricing_plan_id":"cebpf4jnsgd1na2vs0mg"},{"bike_id":"cb0bfac2-c2d3-4d9e-8e37-bb9beda6d44a","system_id":"levelo_inurba_marseille","lat":43.21193,"lon":5.35072,"is_reserved":false,"is_disabled":false,"rental_uris":{"android":"levelo://app?vid=cb0bfac2-c2d3-4d9e-8e37-bb9beda6d44a","ios":"levelo://app?vid=cb0bfac2-c2d3-4d9e-8e37-bb9beda6d44a"},"vehicle_type_id":"4","last_reported":1748689700,"current_range_meters":18800,"station_id":"st_cvj6sg6p6f1abm77japg","pricing_plan_id":"cebpf4jnsgd1na2vs0mg"},{"bike_id":"268cc788-0708-467d-8566-e49ef9836499","system_id":"levelo_inurba_marseille","lat":43.28413,"lon":5.34982,"is_reserved":false,"is_disabled":false,"rental_uris":{"android":"levelo://app?vid=268cc788-0708-467d-8566-e49ef9836499","ios":"levelo://app?vid=268cc788-0708-467d-8566-e49ef9836499"},"vehicle_type_id":"4","last_reported":1748689700,"current_range_meters":18800,"station_id":"ce4bhbh2rcd13ifvqepg","pricing_plan_id":"cebpf4jnsgd1na2vs0mg"},{"bike_id":"0cd0f35a-8fb8-4853-b498-8b85d9daafee","system_id":"levelo_inurba_marseille","lat":43.21195,"lon":5.35066,"is_reserved":false,"is_disabled":false,"rental_uris":{"android":"levelo://app?vid=0cd0f35a-8fb8-4853-b498-8b85d9daafee","ios":"levelo://app?vid=0cd0f35a-8fb8-4853-b498-8b85d9daafee"},"vehicle_type_id":"4","last_reported":1748689700,"current_range_meters":18800,"station_id":"st_cvj6sg6p6f1abm77japg","pricing_plan_id":"cebpf4jnsgd1na2vs0mg"},{"bike_id":"816207d6-e3a6-474a-b2de-fa06de5511fe","system_id":"levelo_inurba_marseille","lat":43.29307,"lon":5.37166,"is_reserved":false,"is_disabled":false,"rental_uris":{"android":"levelo://app?vid=816207d6-e3a6-474a-b2de-fa06de5511fe","ios":"levelo://app?vid=816207d6-e3a6-474a-b2de-fa06de5511fe"},"vehicle_type_id":"4","last_reported":1748689700,"current_range_meters":19200,"station_id":"ce4bgh92rcd13ifvqb40","pricing_plan_id":"cebpf4jnsgd1na2vs0mg"},{"bike_id":"37da63eb-922c-43a2-a033-1797e8a35c14","system_id":"levelo_inurba_marseille","lat":43.27918,"lon":5.39576,"is_reserved":false,"is_disabled":false,"rental_uris":{"android":"levelo://app?vid=37da63eb-922c-43a2-a033-1797e8a35c14","ios":"levelo://app?vid=37da63eb-922c-43a2-a033-1797e8a35c14"},"vehicle_type_id":"4","last_reported":1748689700,"current_range_meters":19200,"station_id":"ce4bhf92rcd13ifvqf40","pricing_plan_id":"cebpf4jnsgd1na2vs0mg"},{"bike_id":"18fa9a24-85b2-4d2f-986e-4e414af349d9","system_id":"levelo_inurba_marseille","lat":43.21748,"lon":5.34601,"is_reserved":false,"is_disabled":false,"rental_uris":{"android":"levelo://app?vid=18fa9a24-85b2-4d2f-986e-4e414af349d9","ios":"levelo://app?vid=18fa9a24-85b2-4d2f-986e-4e414af349d9"},"vehicle_type_id":"4","last_reported":1748689700,"current_range_meters":19200,"station_id":"st_cvj6r9ubvosntc0bgbag","pricing_plan_id":"cebpf4jnsgd1na2vs0mg"},{"bike_id":"3528ca7f-30d6-456a-aaf7-c5ee0d0ae008","system_id":"levelo_inurba_marseille","lat":43.299217,"lon":5.365316,"is_reserved":false,"is_disabled":false,"rental_uris":{"android":"levelo://app?vid=3528ca7f-30d6-456a-aaf7-c5ee0d0ae008","ios":"levelo://app?vid=3528ca7f-30d6-456a-aaf7-c5ee0d0ae008"},"vehicle_type_id":"4","last_reported":1748689700,"current_range_meters":19200,"station_id":"ce4bgm92rcd13ifvqbr0","pricing_plan_id":"cebpf4jnsgd1na2vs0mg"},{"bike_id":"03e3948e-5d01-4ad0-9fbf-47b38235c175","system_id":"levelo_inurba_marseille","lat":43.28667,"lon":5.38659,"is_reserved":false,"is_disabled":false,"rental_uris":{"android":"levelo://app?vid=03e3948e-5d01-4ad0-9fbf-47b38235c175","ios":"levelo://app?vid=03e3948e-5d01-4ad0-9fbf-47b38235c175"},"vehicle_type_id":"4","last_reported":1748689700,"current_range_meters":19200,"station_id":"ce4bh492rcd13ifvqdug","pricing_plan_id":"cebpf4jnsgd1na2vs0mg"},{"bike_id":"2f650bb1-6027-4191-83d2-16315820a0a7","system_id":"levelo_inurba_marseille","lat":43.29992,"lon":5.37372,"is_reserved":false,"is_disabled":false,"rental_uris":{"android":"levelo://app?vid=2f650bb1-6027-4191-83d2-16315820a0a7","ios":"levelo://app?vid=2f650bb1-6027-4191-83d2-16315820a0a7"},"vehicle_type_id":"4","last_reported":1748689700,"current_range_meters":19200,"station_id":"","pricing_plan_id":"cebpf4jnsgd1na2vs0mg"},{"bike_id":"06d84860-65e0-4134-b6ad-1e0fe5ddc0d6","system_id":"levelo_inurba_marseille","lat":43.25694,"lon":5.37661,"is_reserved":false,"is_disabled":false,"rental_uris":{"android":"levelo://app?vid=06d84860-65e0-4134-b6ad-1e0fe5ddc0d6","ios":"levelo://app?vid=06d84860-65e0-4134-b6ad-1e0fe5ddc0d6"},"vehicle_type_id":"4","last_reported":1748689700,"current_range_meters":19200,"station_id":"","pricing_plan_id":"cebpf4jnsgd1na2vs0mg"},{"bike_id":"b8a13ef2-f75f-43cc-b6c5-56549b3ab028","system_id":"levelo_inurba_marseille","lat":43.23189,"lon":5.35557,"is_reserved":false,"is_disabled":false,"rental_uris":{"android":"levelo://app?vid=b8a13ef2-f75f-43cc-b6c5-56549b3ab028","ios":"levelo://app?vid=b8a13ef2-f75f-43cc-b6c5-56549b3ab028"},"vehicle_type_id":"4","last_reported":1748689700,"current_range_meters":19600,"station_id":"ce4bhu92rcd13ifvqi70","pricing_plan_id":"cebpf4jnsgd1na2vs0mg"},{"bike_id":"d18d0bd5-e08c-43d2-bb50-39e059aac817","system_id":"levelo_inurba_marseille","lat":43.2407,"lon":5.37766,"is_reserved":false,"is_disabled":false,"rental_uris":{"android":"levelo://app?vid=d18d0bd5-e08c-43d2-bb50-39e059aac817","ios":"levelo://app?vid=d18d0bd5-e08c-43d2-bb50-39e059aac817"},"vehicle_type_id":"4","last_reported":1748689700,"current_range_meters":19600,"station_id":"ce4bhnp2rcd13ifvqgvg","pricing_plan_id":"cebpf4jnsgd1na2vs0mg"},{"bike_id":"c3356fac-ed02-4794-858d-296337669cd0","system_id":"levelo_inurba_marseille","lat":43.2904,"lon":5.39959,"is_reserved":false,"is_disabled":false,"rental_uris":{"android":"levelo://app?vid=c3356fac-ed02-4794-858d-296337669cd0","ios":"levelo://app?vid=c3356fac-ed02-4794-858d-296337669cd0"},"vehicle_type_id":"4","last_reported":1748689700,"current_range_meters":19600,"station_id":"ce4bh392rcd13ifvqdm0","pricing_plan_id":"cebpf4jnsgd1na2vs0mg"},{"bike_id":"ce1210dc-ad07-4097-8bb7-95f8a95c9063","system_id":"levelo_inurba_marseille","lat":43.217469,"lon":5.346039,"is_reserved":false,"is_disabled":false,"rental_uris":{"android":"levelo://app?vid=ce1210dc-ad07-4097-8bb7-95f8a95c9063","ios":"levelo://app?vid=ce1210dc-ad07-4097-8bb7-95f8a95c9063"},"vehicle_type_id":"4","last_reported":1748689700,"current_range_meters":19600,"station_id":"st_cvj6r9ubvosntc0bgbag","pricing_plan_id":"cebpf4jnsgd1na2vs0mg"},{"bike_id":"cfdaee7c-2100-4fe4-b398-d082d5cab5f4","system_id":"levelo_inurba_marseille","lat":43.23194,"lon":5.35545,"is_reserved":false,"is_disabled":false,"rental_uris":{"android":"levelo://app?vid=cfdaee7c-2100-4fe4-b398-d082d5cab5f4","ios":"levelo://app?vid=cfdaee7c-2100-4fe4-b398-d082d5cab5f4"},"vehicle_type_id":"4","last_reported":1748689700,"current_range_meters":20000,"station_id":"ce4bhu92rcd13ifvqi70","pricing_plan_id":"cebpf4jnsgd1na2vs0mg"},{"bike_id":"86c46626-2442-4b91-8286-6a130d19f61a","system_id":"levelo_inurba_marseille","lat":43.29512,"lon":5.3751,"is_reserved":false,"is_disabled":false,"rental_uris":{"android":"levelo://app?vid=86c46626-2442-4b91-8286-6a130d19f61a","ios":"levelo://app?vid=86c46626-2442-4b91-8286-6a130d19f61a"},"vehicle_type_id":"4","last_reported":1748689700,"current_range_meters":20000,"station_id":"ce4bgkp2rcd13ifvqbmg","pricing_plan_id":"cebpf4jnsgd1na2vs0mg"},{"bike_id":"24682733-ba8c-45c8-8c23-8858aa0826fe","system_id":"levelo_inurba_marseille","lat":43.26499,"lon":5.39536,"is_reserved":false,"is_disabled":false,"rental_uris":{"android":"levelo://app?vid=24682733-ba8c-45c8-8c23-8858aa0826fe","ios":"levelo://app?vid=24682733-ba8c-45c8-8c23-8858aa0826fe"},"vehicle_type_id":"4","last_reported":1748689700,"current_range_meters":20000,"station_id":"ce4bhi12rcd13ifvqfq0","pricing_plan_id":"cebpf4jnsgd1na2vs0mg"},{"bike_id":"01d51a3b-bd36-4bae-b70d-feca5edf1a87","system_id":"levelo_inurba_marseille","lat":43.28127,"lon":5.39853,"is_reserved":false,"is_disabled":false,"rental_uris":{"android":"levelo://app?vid=01d51a3b-bd36-4bae-b70d-feca5edf1a87","ios":"levelo://app?vid=01d51a3b-bd36-4bae-b70d-feca5edf1a87"},"vehicle_type_id":"4","last_reported":1748689700,"current_range_meters":20000,"station_id":"","pricing_plan_id":"cebpf4jnsgd1na2vs0mg"},{"bike_id":"291182fd-d3e2-40e9-9ce3-f98691675246","system_id":"levelo_inurba_marseille","lat":43.21753,"lon":5.34604,"is_reserved":false,"is_disabled":false,"rental_uris":{"android":"levelo://app?vid=291182fd-d3e2-40e9-9ce3-f98691675246","ios":"levelo://app?vid=291182fd-d3e2-40e9-9ce3-f98691675246"},"vehicle_type_id":"4","last_reported":1748689700,"current_range_meters":20000,"station_id":"st_cvj6r9ubvosntc0bgbag","pricing_plan_id":"cebpf4jnsgd1na2vs0mg"},{"bike_id":"089e56f6-6830-4e81-a5d0-2f1506350941","system_id":"levelo_inurba_marseille","lat":43.32112,"lon":5.36771,"is_reserved":false,"is_disabled":false,"rental_uris":{"android":"levelo://app?vid=089e56f6-6830-4e81-a5d0-2f1506350941","ios":"levelo://app?vid=089e56f6-6830-4e81-a5d0-2f1506350941"},"vehicle_type_id":"4","last_reported":1748689700,"current_range_meters":20000,"station_id":"ce4bhrh2rcd13ifvqhug","pricing_plan_id":"cebpf4jnsgd1na2vs0mg"},{"bike_id":"c1b33d3e-f453-4f82-a16d-18fc51fe49fb","system_id":"levelo_inurba_marseille","lat":43.3016,"lon":5.38086,"is_reserved":false,"is_disabled":false,"rental_uris":{"android":"levelo://app?vid=c1b33d3e-f453-4f82-a16d-18fc51fe49fb","ios":"levelo://app?vid=c1b33d3e-f453-4f82-a16d-18fc51fe49fb"},"vehicle_type_id":"4","last_reported":1748689700,"current_range_meters":20000,"station_id":"ce4bgjp2rcd13ifvqbh0","pricing_plan_id":"cebpf4jnsgd1na2vs0mg"},{"bike_id":"448538d2-0e7f-4c96-8500-b0a60b5f5887","system_id":"levelo_inurba_marseille","lat":43.28612,"lon":5.35112,"is_reserved":false,"is_disabled":false,"rental_uris":{"android":"levelo://app?vid=448538d2-0e7f-4c96-8500-b0a60b5f5887","ios":"levelo://app?vid=448538d2-0e7f-4c96-8500-b0a60b5f5887"},"vehicle_type_id":"4","last_reported":1748689700,"current_range_meters":20000,"station_id":"ce4bhch2rcd13ifvqeug","pricing_plan_id":"cebpf4jnsgd1na2vs0mg"},{"bike_id":"9df70647-ad82-4e2a-b657-060a85e868d5","system_id":"levelo_inurba_marseille","lat":43.30214,"lon":5.39476,"is_reserved":false,"is_disabled":false,"rental_uris":{"android":"levelo://app?vid=9df70647-ad82-4e2a-b657-060a85e868d5","ios":"levelo://app?vid=9df70647-ad82-4e2a-b657-060a85e868d5"},"vehicle_type_id":"4","last_reported":1748689700,"current_range_meters":20000,"station_id":"ce4bh0p2rcd13ifvqd70","pricing_plan_id":"cebpf4jnsgd1na2vs0mg"},{"bike_id":"2bfca244-becf-4fc8-9a06-d84171f2628b","system_id":"levelo_inurba_marseille","lat":43.28418,"lon":5.34982,"is_reserved":false,"is_disabled":false,"rental_uris":{"android":"levelo://app?vid=2bfca244-becf-4fc8-9a06-d84171f2628b","ios":"levelo://app?vid=2bfca244-becf-4fc8-9a06-d84171f2628b"},"vehicle_type_id":"4","last_reported":1748689700,"current_range_meters":20000,"station_id":"ce4bhbh2rcd13ifvqepg","pricing_plan_id":"cebpf4jnsgd1na2vs0mg"},