{"last_updated":1783232959,"ttl":60,"version":"2.2","data":{"bikes":[{"bike_id":"ba0c28b1-8732-48e2-8079-f25b2b3fbc3c","system_id":"levelo_inurba_marseille","lat":43.337444,"lon":5.374475,"is_reserved":false,"is_disabled":false,"rental_uris":{"android":"levelo://app?vid=ba0c28b1-8732-48e2-8079-f25b2b3fbc3c","ios":"levelo://app?vid=ba0c28b1-8732-48e2-8079-f25b2b3fbc3c"},"vehicle_type_id":"4","last_reported":1783232959,"current_range_meters":0,"station_id":"","pricing_plan_id":"cebpf4jnsgd1na2vs0mg"},{"bike_id":"dcec4b0e-2c1d-4625-a13e-1be3280ae107","system_id":"levelo_inurba_marseille","lat":43.27625,"lon":5.36101,"is_reserved":false,"is_disabled":false,"rental_uris":{"android":"levelo://app?vid=dcec4b0e-2c1d-4625-a13e-1be3280ae107","ios":"levelo://app?vid=dcec4b0e-2c1d-4625-a13e-1be3280ae107"},"vehicle_type_id":"4","last_reported":1783232959,"current_range_meters":2800,"station_id":"ce4bgj92rcd13ifvqbe0","pricing_plan_id":"cebpf4jnsgd1na2vs0mg"},{"bike_id":"b3f65140-a3e5-496b-b90c-4694ba3e0e8e","system_id":"levelo_inurba_marseille","lat":43.265613,"lon":5.403265,"is_reserved":false,"is_disabled":false,"rental_uris":{"android":"levelo://app?vid=b3f65140-a3e5-496b-b90c-4694ba3e0e8e","ios":"levelo://app?vid=b3f65140-a3e5-496b-b90c-4694ba3e0e8e"},"vehicle_type_id":"4","last_reported":1783232959,"current_range_meters":2800,"station_id":"ce4bhmp2rcd13ifvqgng","pricing_plan_id":"cebpf4jnsgd1na2vs0mg"},{"bike_id":"34308a23-9ab3-42eb-8a66-d3db662b30fc","system_id":"levelo_inurba_marseille","lat":43.30892,"lon":5.39642,"is_reserved":false,"is_disabled":false,"rental_uris":{"android":"levelo://app?vid=34308a23-9ab3-42eb-8a66-d3db662b30fc","ios":"levelo://app?vid=34308a23-9ab3-42eb-8a66-d3db662b30fc"},"vehicle_type_id":"4","last_reported":1783232959,"current_range_meters":2800,"station_id":"ce4bh012rcd13ifvqcv0","pricing_plan_id":"cebpf4jnsgd1na2vs0mg"},{"bike_id":"1b867af5-a8dd-4cf1-98a0-0bf223f8d873","system_id":"levelo_inurba_marseille","lat":43.2911,"lon":5.38153,"is_reserved":false,"is_disabled":false,"rental_uris":{"android":"levelo://app?vid=1b867af5-a8dd-4cf1-98a0-0bf223f8d873","ios":"levelo://app?vid=1b867af5-a8dd-4cf1-98a0-0bf223f8d873"},"vehicle_type_id":"4","last_reported":1783232959,"current_range_meters":2800,"station_id":"ce4bh512rcd13ifvqe2g","pricing_plan_id":"cebpf4jnsgd1na2vs0mg"},{"bike_id":"7c307107-00ce-47a3-9d07-05413c5b1e8c","system_id":"levelo_inurba_marseille","lat":43.30603,"lon":5.37651,"is_reserved":false,"is_disabled":false,"rental_uris":{"android":"levelo://app?vid=7c307107-00ce-47a3-9d07-05413c5b1e8c","ios":"levelo://app?vid=7c307107-00ce-47a3-9d07-05413c5b1e8c"},"vehicle_type_id":"4","last_reported":1783232959,"current_range_meters":2800,"station_id":"","pricing_plan_id":"cebpf4jnsgd1na2vs0mg"},{"bike_id":"3662f416-a3a5-4065-9eaa-0539b7e03316","system_id":"levelo_inurba_marseille","lat":43.28336,"lon":5.43344,"is_reserved":false,"is_disabled":false,"rental_uris":{"android":"levelo://app?vid=3662f416-a3a5-4065-9eaa-0539b7e03316","ios":"levelo://app?vid=3662f416-a3a5-4065-9eaa-0539b7e03316"},"vehicle_type_id":"4","last_reported":1783232959,"current_range_meters":2800,"station_id":"","pricing_plan_id":"cebpf4jnsgd1na2vs0mg"},{"bike_id":"ce8f1511-4d33-43e3-9cb6-ad0f35fadd3d","system_id":"levelo_inurba_marseille","lat":43.27609,"lon":5.36112,"is_reserved":false,"is_disabled":true,"rental_uris":{"android":"levelo://app?vid=ce8f1511-4d33-43e3-9cb6-ad0f35fadd3d","ios":"levelo://app?vid=ce8f1511-4d33-43e3-9cb6-ad0f35fadd3d"},"vehicle_type_id":"4","last_reported":1783232959,"current_range_meters":2800,"station_id":"ce4bgj92rcd13ifvqbe0","pricing_plan_id":"cebpf4jnsgd1na2vs0mg"},{"bike_id":"e321e33a-d8a6-4ce1-bcce-2bf39c4d40b9","system_id":"levelo_inurba_marseille","lat":43.27819,"lon":5.40723,"is_reserved":false,"is_disabled":false,"rental_uris":{"android":"levelo://app?vid=e321e33a-d8a6-4ce1-bcce-2bf39c4d40b9","ios":"levelo://app?vid=e321e33a-d8a6-4ce1-bcce-2bf39c4d40b9"},"vehicle_type_id":"4","last_reported":1783232959,"current_range_meters":2800,"station_id":"ce4bhnh2rcd13ifvqgtg","pricing_plan_id":"cebpf4jnsgd1na2vs0mg"},{"bike_id":"1560180a-4033-457a-8726-691aba4a319b","system_id":"levelo_inurba_marseille","lat":43.26557,"lon":5.41587,"is_reserved":false,"is_disabled":false,"rental_uris":{"android":"levelo://app?vid=1560180a-4033-457a-8726-691aba4a319b","ios":"levelo://app?vid=1560180a-4033-457a-8726-691aba4a319b"},"vehicle_type_id":"4","last_reported":1783232959,"current_range_meters":2800,"station_id":"","pricing_plan_id":"cebpf4jnsgd1na2vs0mg"},{"bike_id":"01332077-075f-44cd-a54a-93c44f7c6171","system_id":"levelo_inurba_marseille","lat":43.29162,"lon":5.38908,"is_reserved":false,"is_disabled":false,"rental_uris":{"android":"levelo://app?vid=01332077-075f-44cd-a54a-93c44f7c6171","ios":"levelo://app?vid=01332077-075f-44cd-a54a-93c44f7c6171"},"vehicle_type_id":"4","last_reported":1783232959,"current_range_meters":2800,"station_id":"","pricing_plan_id":"cebpf4jnsgd1na2vs0mg"},{"bike_id":"ceebdc64-d889-452c-b5ea-b2d7fb0b2d51","system_id":"levelo_inurba_marseille","lat":43.21186,"lon":5.35076,"is_reserved":false,"is_disabled":false,"rental_uris":{"android":"levelo://app?vid=ceebdc64-d889-452c-b5ea-b2d7fb0b2d51","ios":"levelo://app?vid=ceebdc64-d889-452c-b5ea-b2d7fb0b2d51"},"vehicle_type_id":"4","last_reported":1783232959,"current_range_meters":2800,"station_id":"st_cvj6sg6p6f1abm77japg","pricing_plan_id":"cebpf4jnsgd1na2vs0mg"},{"bike_id":"872d17e9-42b6-44d2-899e-f7ba4d8612ac","system_id":"levelo_inurba_marseille","lat":43.30819,"lon":5.38126,"is_reserved":false,"is_disabled":false,"rental_uris":{"android":"levelo://app?vid=872d17e9-42b6-44d2-899e-f7ba4d8612ac","ios":"levelo://app?vid=872d17e9-42b6-44d2-899e-f7ba4d8612ac"},"vehicle_type_id":"4","last_reported":1783232959,"current_range_meters":2800,"station_id":"ce4bgt12rcd13ifvqce0","pricing_plan_id":"cebpf4jnsgd1na2vs0mg"},{"bike_id":"4f20dec7-264e-41d7-aa6a-e0568f15a2e1","system_id":"levelo_inurba_marseille","lat":43.28812,"lon":5.37469,"is_reserved":false,"is_disabled":false,"rental_uris":{"android":"levelo://app?vid=4f20dec7-264e-41d7-aa6a-e0568f15a2e1","ios":"levelo://app?vid=4f20dec7-264e-41d7-aa6a-e0568f15a2e1"},"vehicle_type_id":"4","last_reported":1783232959,"current_range_meters":2800,"station_id":"","pricing_plan_id":"cebpf4jnsgd1na2vs0mg"},{"bike_id":"a0964d95-9313-4196-8c07-8c023bad4058","system_id":"levelo_inurba_marseille","lat":43.24409,"lon":5.37075,"is_reserved":false,"is_disabled":true,"rental_uris":{"android":"levelo://app?vid=a0964d95-9313-4196-8c07-8c023bad4058","ios":"levelo://app?vid=a0964d95-9313-4196-8c07-8c023bad4058"},"vehicle_type_id":"4","last_reported":1783232959,"current_range_meters":2800,"station_id":"ce4bhhh2rcd13ifvqfk0","pricing_plan_id":"cebpf4jnsgd1na2vs0mg"},{"bike_id":"9b51a04e-dd53-4243-acdf-3010bba3e4f9","system_id":"levelo_inurba_marseille","lat":43.29634,"lon":5.40609,"is_reserved":false,"is_disabled":false,"rental_uris":{"android":"levelo://app?vid=9b51a04e-dd53-4243-acdf-3010bba3e4f9","ios":"levelo://app?vid=9b51a04e-dd53-4243-acdf-3010bba3e4f9"},"vehicle_type_id":"4","last_reported":1783232959,"current_range_meters":3200,"station_id":"ce4bh0h2rcd13ifvqd60","pricing_plan_id":"cebpf4jnsgd1na2vs0mg"},{"bike_id":"de049147-c657-4c42-a27c-553a5a06c309","system_id":"levelo_inurba_marseille","lat":43.30893,"lon":5.39911,"is_reserved":false,"is_disabled":false,"rental_uris":{"android":"levelo://app?vid=de049147-c657-4c42-a27c-553a5a06c309","ios":"levelo://app?vid=de049147-c657-4c42-a27c-553a5a06c309"},"vehicle_type_id":"4","last_reported":1783232959,"current_range_meters":3200,"station_id":"","pricing_plan_id":"cebpf4jnsgd1na2vs0mg"},{"bike_id":"53735e42-dbbd-45e4-95bb-c4c4ca2bdaa4","system_id":"levelo_inurba_marseille","lat":43.21197,"lon":5.35052,"is_reserved":false,"is_disabled":false,"rental_uris":{"android":"levelo://app?vid=53735e42-dbbd-45e4-95bb-c4c4ca2bdaa4","ios":"levelo://app?vid=53735e42-dbbd-45e4-95bb-c4c4ca2bdaa4"},"vehicle_type_id":"4","last_reported":1783232959,"current_range_meters":3200,"station_id":"st_cvj6sg6p6f1abm77japg","pricing_plan_id":"cebpf4jnsgd1na2vs0mg"},{"bike_id":"a16f545e-1200-4f05-b1d5-93515e7f672e","system_id":"levelo_inurba_marseille","lat":43.30672,"lon":5.40068,"is_reserved":false,"is_disabled":false,"rental_uris":{"android":"levelo://app?vid=a16f545e-1200-4f05-b1d5-93515e7f672e","ios":"levelo://app?vid=a16f545e-1200-4f05-b1d5-93515e7f672e"},"vehicle_type_id":"4","last_reported":1783232959,"current_range_meters":3200,"station_id":"ce4bh112rcd13ifvqda0","pricing_plan_id":"cebpf4jnsgd1na2vs0mg"},{"bike_id":"9a3bfc49-0ee5-49f1-b778-bab88ca7b823","system_id":"levelo_inurba_marseille","lat":43.26924,"lon":5.40252,"is_reserved":false,"is_disabled":true,"rental_uris":{"android":"levelo://app?vid=9a3bfc49-0ee5-49f1-b778-bab88ca7b823","ios":"levelo://app?vid=9a3bfc49-0ee5-49f1-b778-bab88ca7b823"},"vehicle_type_id":"4","last_reported":1783232959,"current_range_meters":3200,"station_id":"cjm6bp8fraef2m0cb0m0","pricing_plan_id":"cebpf4jnsgd1na2vs0mg"},{"bike_id":"586c98e2-d1eb-463a-b350-32aabe87d13f","system_id":"levelo_inurba_marseille","lat":43.30807,"lon":5.3766,"is_reserved":false,"is_disabled":true,"rental_uris":{"android":"levelo://app?vid=586c98e2-d1eb-463a-b350-32aabe87d13f","ios":"levelo://app?vid=586c98e2-d1eb-463a-b350-32aabe87d13f"},"vehicle_type_id":"4","last_reported":1783232959,"current_range_meters":3200,"station_id":"ce4bgv92rcd13ifvqcq0","pricing_plan_id":"cebpf4jnsgd1na2vs0mg"},{"bike_id":"2bddd16a-5845-4c17-ae86-0491d911716c","system_id":"levelo_inurba_marseille","lat":43.28609,"lon":5.39857,"is_reserved":false,"is_disabled":false,"rental_uris":{"android":"levelo://app?vid=2bddd16a-5845-4c17-ae86-0491d911716c","ios":"levelo://app?vid=2bddd16a-5845-4c17-ae86-0491d911716c"},"vehicle_type_id":"4","last_reported":1783232959,"current_range_meters":3200,"station_id":"st_d4a7ka997mjs738ck50g","pricing_plan_id":"cebpf4jnsgd1na2vs0mg"},{"bike_id":"13dd3260-5d56-4587-b6f9-965fab8f284a","system_id":"levelo_inurba_marseille","lat":43.2823,"lon":5.39022,"is_reserved":false,"is_disabled":true,"rental_uris":{"android":"levelo://app?vid=13dd3260-5d56-4587-b6f9-965fab8f284a","ios":"levelo://app?vid=13dd3260-5d56-4587-b6f9-965fab8f284a"},"vehicle_type_id":"4","last_reported":1783232959,"current_range_meters":3200,"station_id":"","pricing_plan_id":"cebpf4jnsgd1na2vs0mg"},{"bike_id":"da877165-3a25-4d72-9854-85df2b3fe835","system_id":"levelo_inurba_marseille","lat":43.30783,"lon":5.39313,"is_reserved":false,"is_disabled":false,"rental_uris":{"android":"levelo://app?vid=da877165-3a25-4d72-9854-85df2b3fe835","ios":"levelo://app?vid=da877165-3a25-4d72-9854-85df2b3fe835"},"vehicle_type_id":"4","last_reported":1783232959,"current_range_meters":3200,"station_id":"","pricing_plan_id":"cebpf4jnsgd1na2vs0mg"},{"bike_id":"9fa74e1b-9530-43c8-bfa1-f3494492f86c","system_id":"levelo_inurba_marseille","lat":43.31313,"lon":5.41694,"is_reserved":false,"is_disabled":false,"rental_uris":{"android":"levelo://app?vid=9fa74e1b-9530-43c8-bfa1-f3494492f86c","ios":"levelo://app?vid=9fa74e1b-9530-43c8-bfa1-f3494492f86c"},"vehicle_type_id":"4","last_reported":1783232959,"current_range_meters":3200,"station_id":"","pricing_plan_id":"cebpf4jnsgd1na2vs0mg"},{"bike_id":"d7d68da6-2956-4a35-b563-787f4d6c9c4d","system_id":"levelo_inurba_marseille","lat":43.31345,"lon":5.3815,"is_reserved":false,"is_disabled":false,"rental_uris":{"android":"levelo://app?vid=d7d68da6-2956-4a35-b563-787f4d6c9c4d","ios":"levelo://app?vid=d7d68da6-2956-4a35-b563-787f4d6c9c4d"},"vehicle_type_id":"4","last_reported":1783232959,"current_range_meters":3200,"station_id":"","pricing_plan_id":"cebpf4jnsgd1na2vs0mg"},{"bike_id":"e8f6a657-271f-4b5c-8154-326e45ad5126","system_id":"levelo_inurba_marseille","lat":43.32235,"lon":5.40175,"is_reserved":false,"is_disabled":false,"rental_uris":{"android":"levelo://app?vid=e8f6a657-271f-4b5c-8154-326e45ad5126","ios":"levelo://app?vid=e8f6a657-271f-4b5c-8154-326e45ad5126"},"vehicle_type_id":"4","last_reported":1783232959,"current_range_meters":3200,"station_id":"","pricing_plan_id":"cebpf4jnsgd1na2vs0mg"},{"bike_id":"a53bde85-5c99-45a9-829e-ba6410d488a7","system_id":"levelo_inurba_marseille","lat":43.24579,"lon":5.397,"is_reserved":false,"is_disabled":false,"rental_uris":{"android":"levelo://app?vid=a53bde85-5c99-45a9-829e-ba6410d488a7","ios":"levelo://app?vid=a53bde85-5c99-45a9-829e-ba6410d488a7"},"vehicle_type_id":"4","last_reported":1783232959,"current_range_meters":3200,"station_id":"","pricing_plan_id":"cebpf4jnsgd1na2vs0mg"},{"bike_id":"ccc29cce-6b82-42c8-b439-6b8483505296","system_id":"levelo_inurba_marseille","lat":43.22559,"lon":5.41624,"is_reserved":false,"is_disabled":false,"rental_uris":{"android":"levelo://app?vid=ccc29cce-6b82-42c8-b439-6b8483505296","ios":"levelo://app?vid=ccc29cce-6b82-42c8-b439-6b8483505296"},"vehicle_type_id":"4","last_reported":1783232959,"current_range_meters":3200,"station_id":"st_d2o4gvlbi1j2169b742g","pricing_plan_id":"cebpf4jnsgd1na2vs0mg"},{"bike_id":"20693bed-9ca1-4500-a411-e603079e43d3","system_id":"levelo_inurba_marseille","lat":43.269483,"lon":5.386276,"is_reserved":false,"is_disabled":false,"rental_uris":{"android":"levelo://app?vid=20693bed-9ca1-4500-a411-e603079e43d3","ios":"levelo://app?vid=20693bed-9ca1-4500-a411-e603079e43d3"},"vehicle_type_id":"4","last_reported":1783232959,"current_range_meters":3600,"station_id":"ce4bhh92rcd13ifvqfh0","pricing_plan_id":"cebpf4jnsgd1na2vs0mg"},{"bike_id":"e6848630-9072-460b-b017-5daf7a537da6","system_id":"levelo_inurba_marseille","lat":43.27891,"lon":5.3799,"is_reserved":false,"is_disabled":true,"rental_uris":{"android":"levelo://app?vid=e6848630-9072-460b-b017-5daf7a537da6","ios":"levelo://app?vid=e6848630-9072-460b-b017-5daf7a537da6"},"vehicle_type_id":"4","last_reported":1783232959,"current_range_meters":3600,"station_id":"ce4bhf92rcd13ifvqf50","pricing_plan_id":"cebpf4jnsgd1na2vs0mg"},{"bike_id":"5c81c856-5fb8-4bea-9872-86004f0d9dfd","system_id":"levelo_inurba_marseille","lat":43.31051,"lon":5.38586,"is_reserved":false,"is_disabled":false,"rental_uris":{"android":"levelo://app?vid=5c81c856-5fb8-4bea-9872-86004f0d9dfd","ios":"levelo://app?vid=5c81c856-5fb8-4bea-9872-86004f0d9dfd"},"vehicle_type_id":"4","last_reported":1783232959,"current_range_meters":3600,"station_id":"","pricing_plan_id":"cebpf4jnsgd1na2vs0mg"},{"bike_id":"0097db39-22ab-462c-ab27-eaa866ac43b5","system_id":"levelo_inurba_marseille","lat":43.23457,"lon":5.40906,"is_reserved":false,"is_disabled":false,"rental_uris":{"android":"levelo://app?vid=0097db39-22ab-462c-ab27-eaa866ac43b5","ios":"levelo://app?vid=0097db39-22ab-462c-ab27-eaa866ac43b5"},"vehicle_type_id":"4","last_reported":1783232959,"current_range_meters":3600,"station_id":"","pricing_plan_id":"cebpf4jnsgd1na2vs0mg"},{"bike_id":"aa50fd8d-af5d-4ede-99be-6e7dcd9cfc20","system_id":"levelo_inurba_marseille","lat":43.31451,"lon":5.37378,"is_reserved":false,"is_disabled":false,"rental_uris":{"android":"levelo://app?vid=aa50fd8d-af5d-4ede-99be-6e7dcd9cfc20","ios":"levelo://app?vid=aa50fd8d-af5d-4ede-99be-6e7dcd9cfc20"},"vehicle_type_id":"4","last_reported":1783232959,"current_range_meters":3600,"station_id":"","pricing_plan_id":"cebpf4jnsgd1na2vs0mg"},{"bike_id":"65faeab8-40e6-4e6f-a384-550798631e1f","system_id":"levelo_inurba_marseille","lat":43.30211,"lon":5.39491,"is_reserved":false,"is_disabled":false,"rental_uris":{"android":"levelo://app?vid=65faeab8-40e6-4e6f-a384-550798631e1f","ios":"levelo://app?vid=65faeab8-40e6-4e6f-a384-550798631e1f"},"vehicle_type_id":"4","last_reported":1783232959,"current_range_meters":3600,"station_id":"ce4bh0p2rcd13ifvqd70","pricing_plan_id":"cebpf4jnsgd1na2vs0mg"},{"bike_id":"c00350d5-4dab-4004-927a-3688436cfd2e","system_id":"levelo_inurba_marseille","lat":43.29545,"lon":5.38531,"is_reserved":false,"is_disabled":true,"rental_uris":{"android":"levelo://app?vid=c00350d5-4dab-4004-927a-3688436cfd2e","ios":"levelo://app?vid=c00350d5-4dab-4004-927a-3688436cfd2e"},"vehicle_type_id":"4","last_reported":1783232959,"current_range_meters":3600,"station_id":"ce4bgih2rcd13ifvqba0","pricing_plan_id":"cebpf4jnsgd1na2vs0mg"},{"bike_id":"2259ff17-d88b-4c0b-bd45-29703333fa4e","system_id":"levelo_inurba_marseille","lat":43.28961,"lon":5.36377,"is_reserved":false,"is_disabled":true,"rental_uris":{"android":"levelo://app?vid=2259ff17-d88b-4c0b-bd45-29703333fa4e","ios":"levelo://app?vid=2259ff17-d88b-4c0b-bd45-29703333fa4e"},"vehicle_type_id":"4","last_reported":1783232959,"current_range_meters":3600,"station_id":"ce4bhc92rcd13ifvqetg","pricing_plan_id":"cebpf4jnsgd1na2vs0mg"},{"bike_id":"f37aa11b-792f-4a06-bdbd-c449f5d0628a","system_id":"levelo_inurba_marseille","lat":43.26201,"lon":5.37926,"is_reserved":false,"is_disabled":false,"rental_uris":{"android":"levelo://app?vid=f37aa11b-792f-4a06-bdbd-c449f5d0628a","ios":"levelo://app?vid=f37aa11b-792f-4a06-bdbd-c449f5d0628a"},"vehicle_type_id":"4","last_reported":1783232959,"current_range_meters":3600,"station_id":"ce4bhjp2rcd13ifvqg90","pricing_plan_id":"cebpf4jnsgd1na2vs0mg"},{"bike_id":"370012cd-d205-46eb-8a80-a3b9f0a7309d","system_id":"levelo_inurba_marseille","lat":43.24793,"lon":5.37452,"is_reserved":false,"is_disabled":true,"rental_uris":{"android":"levelo://app?vid=370012cd-d205-46eb-8a80-a3b9f0a7309d","ios":"levelo://app?vid=370012cd-d205-46eb-8a80-a3b9f0a7309d"},"vehicle_type_id":"4","last_reported":1783232959,"current_range_meters":3600,"station_id":"ce4bhgh2rcd13ifvqfb0","pricing_plan_id":"cebpf4jnsgd1na2vs0mg"},{"bike_id":"8d1a396a-a9a7-4417-8f13-9097580718a9","system_id":"levelo_inurba_marseille","lat":43.22593,"lon":5.41595,"is_reserved":false,"is_disabled":false,"rental_uris":{"android":"levelo://app?vid=8d1a396a-a9a7-4417-8f13-9097580718a9","ios":"levelo://app?vid=8d1a396a-a9a7-4417-8f13-9097580718a9"},"vehicle_type_id":"4","last_reported":1783232959,"current_range_meters":3600,"station_id":"st_d2o4gvlbi1j2169b742g","pricing_plan_id":"cebpf4jnsgd1na2vs0mg"},{"bike_id":"0258c125-282f-4adb-84e3-d806703dc533","system_id":"levelo_inurba_marseille","lat":43.31278,"lon":5.39392,"is_reserved":false,"is_disabled":false,"rental_uris":{"android":"levelo://app?vid=0258c125-282f-4adb-84e3-d806703dc533","ios":"levelo://app?vid=0258c125-282f-4adb-84e3-d806703dc533"},"vehicle_type_id":"4","last_reported":1783232959,"current_range_meters":3600,"station_id":"","pricing_plan_id":"cebpf4jnsgd1na2vs0mg"},{"bike_id":"ccf4c40f-7eee-46ac-98aa-fa89c3e4ffb4","system_id":"levelo_inurba_marseille","lat":43.28357,"lon":5.3862,"is_reserved":false,"is_disabled":true,"rental_uris":{"android":"levelo://app?vid=ccf4c40f-7eee-46ac-98aa-fa89c3e4ffb4","ios":"levelo://app?vid=ccf4c40f-7eee-46ac-98aa-fa89c3e4ffb4"},"vehicle_type_id":"4","last_reported":1783232959,"current_range_meters":3600,"station_id":"ce4bh492rcd13ifvqdvg","pricing_plan_id":"cebpf4jnsgd1na2vs0mg"},{"bike_id":"4f239ab5-9e38-41eb-a6bf-b73f41ae97f7","system_id":"levelo_inurba_marseille","lat":43.31148,"lon":5.3724,"is_reserved":false,"is_disabled":false,"rental_uris":{"android":"levelo://app?vid=4f239ab5-9e38-41eb-a6bf-b73f41ae97f7","ios":"levelo://app?vid=4f239ab5-9e38-41eb-a6bf-b73f41ae97f7"},"vehicle_type_id":"4","last_reported":1783232959,"current_range_meters":3600,"station_id":"","pricing_plan_id":"cebpf4jnsgd1na2vs0mg"},{"bike_id":"1ea8bdc2-9ab9-45a5-9a07-418a954aeab7","system_id":"levelo_inurba_marseille","lat":43.2254,"lon":5.34824,"is_reserved":false,"is_disabled":false,"rental_uris":{"android":"levelo://app?vid=1ea8bdc2-9ab9-45a5-9a07-418a954aeab7","ios":"levelo://app?vid=1ea8bdc2-9ab9-45a5-9a07-418a954aeab7"},"vehicle_type_id":"4","last_reported":1783232959,"current_range_meters":3600,"station_id":"st_cvj5dfep6f1abm77gieg","pricing_plan_id":"cebpf4jnsgd1na2vs0mg"},{"bike_id":"bb82b558-6057-48ae-8a0d-5d0410926389","system_id":"levelo_inurba_marseille","lat":43.26365,"lon":5.42037,"is_reserved":false,"is_disabled":false,"rental_uris":{"android":"levelo://app?vid=bb82b558-6057-48ae-8a0d-5d0410926389","ios":"levelo://app?vid=bb82b558-6057-48ae-8a0d-5d0410926389"},"vehicle_type_id":"4","last_reported":1783232959,"current_range_meters":3600,"station_id":"","pricing_plan_id":"cebpf4jnsgd1na2vs0mg"},{"bike_id":"bbc4114e-8917-4ae3-9524-c61197d9a885","system_id":"levelo_inurba_marseille","lat":43.29025,"lon":5.43981,"is_reserved":false,"is_disabled":false,"rental_uris":{"android":"levelo://app?vid=bbc4114e-8917-4ae3-9524-c61197d9a885","ios":"levelo://app?vid=bbc4114e-8917-4ae3-9524-c61197d9a885"},"vehicle_type_id":"4","last_reported":1783232959,"current_range_meters":3600,"station_id":"","pricing_plan_id":"cebpf4jnsgd1na2vs0mg"},{"bike_id":"a5af41e5-d6be-4196-8bb8-98c432519ec1","system_id":"levelo_inurba_marseille","lat":43.30301,"lon":5.392,"is_reserved":false,"is_disabled":true,"rental_uris":{"android":"levelo://app?vid=a5af41e5-d6be-4196-8bb8-98c432519ec1","ios":"levelo://app?vid=a5af41e5-d6be-4196-8bb8-98c432519ec1"},"vehicle_type_id":"4","last_reported":1783232959,"current_range_meters":3600,"station_id":"ce4bgkh2rcd13ifvqbk0","pricing_plan_id":"cebpf4jnsgd1na2vs0mg"},{"bike_id":"abf1c1fa-1405-476f-bd73-54723798211b","system_id":"levelo_inurba_marseille","lat":43.23722,"lon":5.40199,"is_reserved":false,"is_disabled":false,"rental_uris":{"android":"levelo://app?vid=abf1c1fa-1405-476f-bd73-54723798211b","ios":"levelo://app?vid=abf1c1fa-1405-476f-bd73-54723798211b"},"vehicle_type_id":"4","last_reported":1783232959,"current_range_meters":3600,"station_id":"","pricing_plan_id":"cebpf4jnsgd1na2vs0mg"},{"bike_id":"4c986123-5e2d-4e54-a19e-58aafac449d4","system_id":"levelo_inurba_marseille","lat":43.28369,"lon":5.3863,"is_reserved":false,"is_disabled":true,"rental_uris":{"android":"levelo://app?vid=4c986123-5e2d-4e54-a19e-58aafac449d4","ios":"levelo://app?vid=4c986123-5e2d-4e54-a19e-58aafac449d4"},"vehicle_type_id":"4","last_reported":1783232959,"current_range_meters":3600,"station_id":"ce4bh492rcd13ifvqdvg","pricing_plan_id":"cebpf4jnsgd1na2vs0mg"},{"bike_id":"d093438b-5abc-469e-baeb-0e71e88c0762","system_id":"levelo_inurba_marseille","lat":43.2814,"lon":5.36355,"is_reserved":false,"is_disabled":false,"rental_uris":{"android":"levelo://app?vid=d093438b-5abc-469e-baeb-0e71e88c0762","ios":"levelo://app?vid=d093438b-5abc-469e-baeb-0e71e88c0762"},"vehicle_type_id":"4","last_reported":1783232959,"current_range_meters":3600,"station_id":"","pricing_plan_id":"cebpf4jnsgd1na2vs0mg"},{"bike_id":"92e63590-d42c-41ed-9197-022317634a3d","system_id":"levelo_inurba_marseille","lat":43.30522,"lon":5.39886,"is_reserved":false,"is_disabled":false,"rental_uris":{"android":"levelo://app?vid=92e63590-d42c-41ed-9197-022317634a3d","ios":"levelo://app?vid=92e63590-d42c-41ed-9197-022317634a3d"},"vehicle_type_id":"4","last_reported":1783232959,"current_range_meters":3600,"station_id":"","pricing_plan_id":"cebpf4jnsgd1na2vs0mg"},{"bike_id":"965d4db8-fb32-44eb-b828-7e397e014646","system_id":"levelo_inurba_marseille","lat":43.27492,"lon":5.42553,"is_reserved":false,"is_disabled":false,"rental_uris":{"android":"levelo://app?vid=965d4db8-fb32-44eb-b828-7e397e014646","ios":"levelo://app?vid=965d4db8-fb32-44eb-b828-7e397e014646"},"vehicle_type_id":"4","last_reported":1783232959,"current_range_meters":3600,"station_id":"st_d8t4bh7nbrqs73arha60","pricing_plan_id":"cebpf4jnsgd1na2vs0mg"},{"bike_id":"a88c13b2-a8fe-44d6-9bc5-2bf79d9b9126","system_id":"levelo_inurba_marseille","lat":43.28425,"lon":5.34981,"is_reserved":false,"is_disabled":false,"rental_uris":{"android":"levelo://app?vid=a88c13b2-a8fe-44d6-9bc5-2bf79d9b9126","ios":"levelo://app?vid=a88c13b2-a8fe-44d6-9bc5-2bf79d9b9126"},"vehicle_type_id":"4","last_reported":1783232959,"current_range_meters":3600,"station_id":"ce4bhbh2rcd13ifvqepg","pricing_plan_id":"cebpf4jnsgd1na2vs0mg"},{"bike_id":"06a8253e-2715-46f0-b3a7-68e363678aa0","system_id":"levelo_inurba_marseille","lat":43.26208,"lon":5.40471,"is_reserved":false,"is_disabled":false,"rental_uris":{"android":"levelo://app?vid=06a8253e-2715-46f0-b3a7-68e363678aa0","ios":"levelo://app?vid=06a8253e-2715-46f0-b3a7-68e363678aa0"},"vehicle_type_id":"4","last_reported":1783232959,"current_range_meters":4000,"station_id":"ce4bhmh2rcd13ifvqgmg","pricing_plan_id":"cebpf4jnsgd1na2vs0mg"},{"bike_id":"0afbfa5b-a988-460e-ab1f-a6790b3b99dc","system_id":"levelo_inurba_marseille","lat":43.29066,"lon":5.4225,"is_reserved":false,"is_disabled":false,"rental_uris":{"android":"levelo://app?vid=0afbfa5b-a988-460e-ab1f-a6790b3b99dc","ios":"levelo://app?vid=0afbfa5b-a988-460e-ab1f-a6790b3b99dc"},"vehicle_type_id":"4","last_reported":1783232959,"current_range_meters":4000,"station_id":"","pricing_plan_id":"cebpf4jnsgd1na2vs0mg"},{"bike_id":"8ccd6e2f-84cc-489c-8df1-44c73a4d5f71","system_id":"levelo_inurba_marseille","lat":43.25084,"lon":5.39521,"is_reserved":false,"is_disabled":false,"rental_uris":{"android":"levelo://app?vid=8ccd6e2f-84cc-489c-8df1-44c73a4d5f71","ios":"levelo://app?vid=8ccd6e2f-84cc-489c-8df1-44c73a4d5f71"},"vehicle_type_id":"4","last_reported":1783232959,"current_range_meters":4000,"station_id":"ce4bhm12rcd13ifvqgkg","pricing_plan_id":"cebpf4jnsgd1na2vs0mg"},{"bike_id":"7dcdb77e-5520-404c-a8e4-5410b21ff636","system_id":"levelo_inurba_marseille","lat":43.29659,"lon":5.42385,"is_reserved":false,"is_disabled":false,"rental_uris":{"android":"levelo://app?vid=7dcdb77e-5520-404c-a8e4-5410b21ff636","ios":"levelo://app?vid=7dcdb77e-5520-404c-a8e4-5410b21ff636"},"vehicle_type_id":"4","last_reported":1783232959,"current_range_meters":4000,"station_id":"","pricing_plan_id":"cebpf4jnsgd1na2vs0mg"},{"bike_id":"65396844-0447-48b9-aa45-af445ded3e70","system_id":"levelo_inurba_marseille","lat":43.29366,"lon":5.3786,"is_reserved":false,"is_disabled":false,"rental_uris":{"android":"levelo://app?vid=65396844-0447-48b9-aa45-af445ded3e70","ios":"levelo://app?vid=65396844-0447-48b9-aa45-af445ded3e70"},"vehicle_type_id":"4","last_reported":1783232959,"current_range_meters":4000,"station_id":"ce4bgjh2rcd13ifvqbf0","pricing_plan_id":"cebpf4jnsgd1na2vs0mg"},{"bike_id":"fa60f93d-ad38-4af6-be84-609fd8fcf28e","system_id":"levelo_inurba_marseille","lat":43.27504,"lon":5.42545,"is_reserved":false,"is_disabled":false,"rental_uris":{"android":"levelo://app?vid=fa60f93d-ad38-4af6-be84-609fd8fcf28e","ios":"levelo://app?vid=fa60f93d-ad38-4af6-be84-609fd8fcf28e"},"vehicle_type_id":"4","last_reported":1783232959,"current_range_meters":4000,"station_id":"st_d8t4bh7nbrqs73arha60","pricing_plan_id":"cebpf4jnsgd1na2vs0mg"},{"bike_id":"e34d317c-42f4-445f-af6f-bd978b03e594","system_id":"levelo_inurba_marseille","lat":43.30566,"lon":5.367,"is_reserved":false,"is_disabled":true,"rental_uris":{"android":"levelo://app?vid=e34d317c-42f4-445f-af6f-bd978b03e594","ios":"levelo://app?vid=e34d317c-42f4-445f-af6f-bd978b03e594"},"vehicle_type_id":"4","last_reported":1783232959,"current_range_meters":4000,"station_id":"ce4bgrp2rcd13ifvqc9g","pricing_plan_id":"cebpf4jnsgd1na2vs0mg"},{"bike_id":"6f37e172-e521-4e45-91cc-413b9ad92298","system_id":"levelo_inurba_marseille","lat":43.29343,"lon":5.37592,"is_reserved":false,"is_disabled":true,"rental_uris":{"android":"levelo://app?vid=6f37e172-e521-4e45-91cc-413b9ad92298","ios":"levelo://app?vid=6f37e172-e521-4e45-91cc-413b9ad92298"},"vehicle_type_id":"4","last_reported":1783232959,"current_range_meters":4000,"station_id":"","pricing_plan_id":"cebpf4jnsgd1na2vs0mg"},{"bike_id":"e92075e7-3a3e-45e4-92c1-470694a2d8c2","system_id":"levelo_inurba_marseille","lat":43.29633,"lon":5.40606,"is_reserved":false,"is_disabled":false,"rental_uris":{"android":"levelo://app?vid=e92075e7-3a3e-45e4-92c1-470694a2d8c2","ios":"levelo://app?vid=e92075e7-3a3e-45e4-92c1-470694a2d8c2"},"vehicle_type_id":"4","last_reported":1783232959,"current_range_meters":4000,"station_id":"ce4bh0h2rcd13ifvqd60","pricing_plan_id":"cebpf4jnsgd1na2vs0mg"},{"bike_id":"0f787ef2-c2c0-4177-b354-032bc8ec2dce","system_id":"levelo_inurba_marseille","lat":43.24939,"lon":5.40504,"is_reserved":false,"is_disabled":false,"rental_uris":{"android":"levelo://app?vid=0f787ef2-c2c0-4177-b354-032bc8ec2dce","ios":"levelo://app?vid=0f787ef2-c2c0-4177-b354-032bc8ec2dce"},"vehicle_type_id":"4","last_reported":1783232959,"current_range_meters":4000,"station_id":"st_d2ngiaodas8pm72gd1h0","pricing_plan_id":"cebpf4jnsgd1na2vs0mg"},{"bike_id":"814f7e87-2c30-4122-9d72-00c8922e4d9d","system_id":"levelo_inurba_marseille","lat":43.2863,"lon":5.3509,"is_reserved":false,"is_disabled":false,"rental_uris":{"android":"levelo://app?vid=814f7e87-2c30-4122-9d72-00c8922e4d9d","ios":"levelo://app?vid=814f7e87-2c30-4122-9d72-00c8922e4d9d"},"vehicle_type_id":"4","last_reported":1783232959,"current_range_meters":4000,"station_id":"ce4bhch2rcd13ifvqeug","pricing_plan_id":"cebpf4jnsgd1na2vs0mg"},{"bike_id":"ea74b46d-ac18-48b3-a910-39d5524d6dd3","system_id":"levelo_inurba_marseille","lat":43.31127,"lon":5.37729,"is_reserved":false,"is_disabled":false,"rental_uris":{"android":"levelo://app?vid=ea74b46d-ac18-48b3-a910-39d5524d6dd3","ios":"levelo://app?vid=ea74b46d-ac18-48b3-a910-39d5524d6dd3"},"vehicle_type_id":"4","last_reported":1783232959,"current_range_meters":4000,"station_id":"ce4bgt92rcd13ifvqcg0","pricing_plan_id":"cebpf4jnsgd1na2vs0mg"},{"bike_id":"fa1d1e9d-6a41-4b39-8eed-83f527b75535","system_id":"levelo_inurba_marseille","lat":43.29248,"lon":5.36873,"is_reserved":false,"is_disabled":true,"rental_uris":{"android":"levelo://app?vid=fa1d1e9d-6a41-4b39-8eed-83f527b75535","ios":"levelo://app?vid=fa1d1e9d-6a41-4b39-8eed-83f527b75535"},"vehicle_type_id":"4","last_reported":1783232959,"current_range_meters":4000,"station_id":"ce4bhbp2rcd13ifvqesg","pricing_plan_id":"cebpf4jnsgd1na2vs0mg"},{"bike_id":"cba4abb3-1b4e-4836-8ed4-ef34ca54f4d0","system_id":"levelo_inurba_marseille","lat":43.28362,"lon":5.38633,"is_reserved":false,"is_disabled":false,"rental_uris":{"android":"levelo://app?vid=cba4abb3-1b4e-4836-8ed4-ef34ca54f4d0","ios":"levelo://app?vid=cba4abb3-1b4e-4836-8ed4-ef34ca54f4d0"},"vehicle_type_id":"4","last_reported":1783232959,"current_range_meters":4000,"station_id":"ce4bh492rcd13ifvqdvg","pricing_plan_id":"cebpf4jnsgd1na2vs0mg"},{"bike_id":"267dcfcf-4c0c-4e52-a89b-30943bf74d94","system_id":"levelo_inurba_marseille","lat":43.26854,"lon":5.38556,"is_reserved":false,"is_disabled":false,"rental_uris":{"android":"levelo://app?vid=267dcfcf-4c0c-4e52-a89b-30943bf74d94","ios":"levelo://app?vid=267dcfcf-4c0c-4e52-a89b-30943bf74d94"},"vehicle_type_id":"4","last_reported":1783232959,"current_range_meters":4000,"station_id":"","pricing_plan_id":"cebpf4jnsgd1na2vs0mg"},{"bike_id":"21c46627-93c0-4ab5-b259-0186a02d6cac","system_id":"levelo_inurba_marseille","lat":43.247994,"lon":5.3746,"is_reserved":false,"is_disabled":false,"rental_uris":{"android":"levelo://app?vid=21c46627-93c0-4ab5-b259-0186a02d6cac","ios":"levelo://app?vid=21c46627-93c0-4ab5-b259-0186a02d6cac"},"vehicle_type_id":"4","last_reported":1783232959,"current_range_meters":4000,"station_id":"ce4bhgh2rcd13ifvqfb0","pricing_plan_id":"cebpf4jnsgd1na2vs0mg"},{"bike_id":"b992f33c-2044-4900-92bd-8bb6e1b9d118","system_id":"levelo_inurba_marseille","lat":43.28457,"lon":5.38404,"is_reserved":false,"is_disabled":true,"rental_uris":{"android":"levelo://app?vid=b992f33c-2044-4900-92bd-8bb6e1b9d118","ios":"levelo://app?vid=b992f33c-2044-4900-92bd-8bb6e1b9d118"},"vehicle_type_id":"4","last_reported":1783232959,"current_range_meters":4000,"station_id":"ce4bh512rcd13ifvqe3g","pricing_plan_id":"cebpf4jnsgd1na2vs0mg"},{"bike_id":"61cd84df-f76f-41ad-9da2-1b4df883e51c","system_id":"levelo_inurba_marseille","lat":43.26243,"lon":5.38961,"is_reserved":false,"is_disabled":false,"rental_uris":{"android":"levelo://app?vid=61cd84df-f76f-41ad-9da2-1b4df883e51c","ios":"levelo://app?vid=61cd84df-f76f-41ad-9da2-1b4df883e51c"},"vehicle_type_id":"4","last_reported":1783232959,"current_range_meters":4000,"station_id":"","pricing_plan_id":"cebpf4jnsgd1na2vs0mg"},{"bike_id":"f6a588f6-73ad-4dc2-9dac-0fa0dfa77cde","system_id":"levelo_inurba_marseille","lat":43.30934,"lon":5.39031,"is_reserved":false,"is_disabled":true,"rental_uris":{"android":"levelo://app?vid=f6a588f6-73ad-4dc2-9dac-0fa0dfa77cde","ios":"levelo://app?vid=f6a588f6-73ad-4dc2-9dac-0fa0dfa77cde"},"vehicle_type_id":"4","last_reported":1783232959,"current_range_meters":4400,"station_id":"ce4bgup2rcd13ifvqco0","pricing_plan_id":"cebpf4jnsgd1na2vs0mg"},{"bike_id":"50aa6815-cb65-48bd-999a-1d2dfbbe24c7","system_id":"levelo_inurba_marseille","lat":43.28486,"lon":5.48393,"is_reserved":false,"is_disabled":false,"rental_uris":{"android":"levelo://app?vid=50aa6815-cb65-48bd-999a-1d2dfbbe24c7","ios":"levelo://app?vid=50aa6815-cb65-48bd-999a-1d2dfbbe24c7"},"vehicle_type_id":"4","last_reported":1783232959,"current_range_meters":4400,"station_id":"st_d3svhcjqgbts73a3dn0g","pricing_plan_id":"cebpf4jnsgd1na2vs0mg"},{"bike_id":"a6e047d4-9829-4b23-b5e1-20c5a9277b5d","system_id":"levelo_inurba_marseille","lat":43.29179,"lon":5.38326,"is_reserved":false,"is_disabled":true,"rental_uris":{"android":"levelo://app?vid=a6e047d4-9829-4b23-b5e1-20c5a9277b5d","ios":"levelo://app?vid=a6e047d4-9829-4b23-b5e1-20c5a9277b5d"},"vehicle_type_id":"4","last_reported":1783232959,"current_range_meters":4400,"station_id":"","pricing_plan_id":"cebpf4jnsgd1na2vs0mg"},{"bike_id":"aac6d6f5-5414-4268-950d-e95baa8a24a9","system_id":"levelo_inurba_marseille","lat":43.32501,"lon":5.36572,"is_reserved":false,"is_disabled":false,"rental_uris":{"android":"levelo://app?vid=aac6d6f5-5414-4268-950d-e95baa8a24a9","ios":"levelo://app?vid=aac6d6f5-5414-4268-950d-e95baa8a24a9"},"vehicle_type_id":"4","last_reported":1783232959,"current_range_meters":4400,"station_id":"ce4bhs12rcd13ifvqhvg","pricing_plan_id":"cebpf4jnsgd1na2vs0mg"},{"bike_id":"3edad406-7310-4441-b103-43aa843ff572","system_id":"levelo_inurba_marseille","lat":43.27925,"lon":5.37218,"is_reserved":false,"is_disabled":false,"rental_uris":{"android":"levelo://app?vid=3edad406-7310-4441-b103-43aa843ff572","ios":"levelo://app?vid=3edad406-7310-4441-b103-43aa843ff572"},"vehicle_type_id":"4","last_reported":1783232959,"current_range_meters":4400,"station_id":"","pricing_plan_id":"cebpf4jnsgd1na2vs0mg"},{"bike_id":"d5e51f24-3dde-4b7b-9831-f9e147114644","system_id":"levelo_inurba_marseille","lat":43.30925,"lon":5.40152,"is_reserved":false,"is_disabled":false,"rental_uris":{"android":"levelo://app?vid=d5e51f24-3dde-4b7b-9831-f9e147114644","ios":"levelo://app?vid=d5e51f24-3dde-4b7b-9831-f9e147114644"},"vehicle_type_id":"4","last_reported":1783232959,"current_range_meters":4400,"station_id":"ce4bgvp2rcd13ifvqct0","pricing_plan_id":"cebpf4jnsgd1na2vs0mg"},{"bike_id":"c03616ae-9d00-47f7-a0ee-97717b9f27f4","system_id":"levelo_inurba_marseille","lat":43.29614,"lon":5.40583,"is_reserved":false,"is_disabled":false,"rental_uris":{"android":"levelo://app?vid=c03616ae-9d00-47f7-a0ee-97717b9f27f4","ios":"levelo://app?vid=c03616ae-9d00-47f7-a0ee-97717b9f27f4"},"vehicle_type_id":"4","last_reported":1783232959,"current_range_meters":4400,"station_id":"ce4bh0h2rcd13ifvqd60","pricing_plan_id":"cebpf4jnsgd1na2vs0mg"},{"bike_id":"ef354e88-b598-4562-a10e-077d24b88fa8","system_id":"levelo_inurba_marseille","lat":43.30156,"lon":5.3809,"is_reserved":false,"is_disabled":false,"rental_uris":{"android":"levelo://app?vid=ef354e88-b598-4562-a10e-077d24b88fa8","ios":"levelo://app?vid=ef354e88-b598-4562-a10e-077d24b88fa8"},"vehicle_type_id":"4","last_reported":1783232959,"current_range_meters":4400,"station_id":"ce4bgjp2rcd13ifvqbh0","pricing_plan_id":"cebpf4jnsgd1na2vs0mg"},{"bike_id":"d728b632-da17-49b6-bee6-586bce6b51e3","system_id":"levelo_inurba_marseille","lat":43.25249,"lon":5.40998,"is_reserved":false,"is_disabled":false,"rental_uris":{"android":"levelo://app?vid=d728b632-da17-49b6-bee6-586bce6b51e3","ios":"levelo://app?vid=d728b632-da17-49b6-bee6-586bce6b51e3"},"vehicle_type_id":"4","last_reported":1783232959,"current_range_meters":4400,"station_id":"","pricing_plan_id":"cebpf4jnsgd1na2vs0mg"},{"bike_id":"4fd868f0-fe6a-40e4-938d-4e94da45f3d8","system_id":"levelo_inurba_marseille","lat":43.28471,"lon":5.38412,"is_reserved":false,"is_disabled":true,"rental_uris":{"android":"levelo://app?vid=4fd868f0-fe6a-40e4-938d-4e94da45f3d8","ios":"levelo://app?vid=4fd868f0-fe6a-40e4-938d-4e94da45f3d8"},"vehicle_type_id":"4","last_reported":1783232959,"current_range_meters":4400,"station_id":"ce4bh512rcd13ifvqe3g","pricing_plan_id":"cebpf4jnsgd1na2vs0mg"},{"bike_id":"91536602-64c3-4f05-937f-5ff1f849ba25","system_id":"levelo_inurba_marseille","lat":43.2999,"lon":5.36403,"is_reserved":false,"is_disabled":false,"rental_uris":{"android":"levelo://app?vid=91536602-64c3-4f05-937f-5ff1f849ba25","ios":"levelo://app?vid=91536602-64c3-4f05-937f-5ff1f849ba25"},"vehicle_type_id":"4","last_reported":1783232959,"current_range_meters":4400,"station_id":"","pricing_plan_id":"cebpf4jnsgd1na2vs0mg"},{"bike_id":"51e7e5db-21d7-4eef-9556-8d53c85c4ede","system_id":"levelo_inurba_marseille","lat":43.25113,"lon":5.40328,"is_reserved":false,"is_disabled":false,"rental_uris":{"android":"levelo://app?vid=51e7e5db-21d7-4eef-9556-8d53c85c4ede","ios":"levelo://app?vid=51e7e5db-21d7-4eef-9556-8d53c85c4ede"},"vehicle_type_id":"4","last_reported":1783232959,"current_range_meters":4400,"station_id":"ce4bhlh2rcd13ifvqgig","pricing_plan_id":"cebpf4jnsgd1na2vs0mg"},{"bike_id":"10dda524-b695-4ec2-8bb7-08b3154d666d","system_id":"levelo_inurba_marseille","lat":43.2316,"lon":5.43706,"is_reserved":false,"is_disabled":false,"rental_uris":{"android":"levelo://app?vid=10dda524-b695-4ec2-8bb7-08b3154d666d","ios":"levelo://app?vid=10dda524-b695-4ec2-8bb7-08b3154d666d"},"vehicle_type_id":"4","last_reported":1783232959,"current_range_meters":4400,"station_id":"ce4bhmp2rcd13ifvqgog","pricing_plan_id":"cebpf4jnsgd1na2vs0mg"},{"bike_id":"2c52e4bc-365b-40fb-ace9-a63bc2aa685a","system_id":"levelo_inurba_marseille","lat":43.33079,"lon":5.38568,"is_reserved":false,"is_disabled":false,"rental_uris":{"android":"levelo://app?vid=2c52e4bc-365b-40fb-ace9-a63bc2aa685a","ios":"levelo://app?vid=2c52e4bc-365b-40fb-ace9-a63bc2aa685a"},"vehicle_type_id":"4","last_reported":1783232959,"current_range_meters":4400,"station_id":"","pricing_plan_id":"cebpf4jnsgd1na2vs0mg"},{"bike_id":"be14d72b-ec18-44f3-b0c0-3b262635bc8f","system_id":"levelo_inurba_marseille","lat":43.29703,"lon":5.36615,"is_reserved":false,"is_disabled":true,"rental_uris":{"android":"levelo://app?vid=be14d72b-ec18-44f3-b0c0-3b262635bc8f","ios":"levelo://app?vid=be14d72b-ec18-44f3-b0c0-3b262635bc8f"},"vehicle_type_id":"4","last_reported":1783232959,"current_range_meters":4400,"station_id":"ce4bgn12rcd13ifvqbt0","pricing_plan_id":"cebpf4jnsgd1na2vs0mg"},{"bike_id":"d967f5e0-14cb-4a36-a6ef-6948e11faf1c","system_id":"levelo_inurba_marseille","lat":43.24658,"lon":5.3816,"is_reserved":false,"is_disabled":false,"rental_uris":{"android":"levelo://app?vid=d967f5e0-14cb-4a36-a6ef-6948e11faf1c","ios":"levelo://app?vid=d967f5e0-14cb-4a36-a6ef-6948e11faf1c"},"vehicle_type_id":"4","last_reported":1783232959,"current_range_meters":4400,"station_id":"ce4bhih2rcd13ifvqfr0","pricing_plan_id":"cebpf4jnsgd1na2vs0mg"},{"bike_id":"8b68c4bb-0e1e-4547-9b70-4ed1e5a840b2","system_id":"levelo_inurba_marseille","lat":43.246359,"lon":5.431429,"is_reserved":false,"is_disabled":false,"rental_uris":{"android":"levelo://app?vid=8b68c4bb-0e1e-4547-9b70-4ed1e5a840b2","ios":"levelo://app?vid=8b68c4bb-0e1e-4547-9b70-4ed1e5a840b2"},"vehicle_type_id":"4","last_reported":1783232959,"current_range_meters":4400,"station_id":"st_d2m6c4gdas8pm72e190g","pricing_plan_id":"cebpf4jnsgd1na2vs0mg"},{"bike_id":"6c270b54-b91e-4f76-9727-6989d0f21ebe","system_id":"levelo_inurba_marseille","lat":43.29771,"lon":5.39106,"is_reserved":false,"is_disabled":false,"rental_uris":{"android":"levelo://app?vid=6c270b54-b91e-4f76-9727-6989d0f21ebe","ios":"levelo://app?vid=6c270b54-b91e-4f76-9727-6989d0f21ebe"},"vehicle_type_id":"4","last_reported":1783232959,"current_range_meters":4400,"station_id":"","pricing_plan_id":"cebpf4jnsgd1na2vs0mg"},{"bike_id":"a050f825-e0fd-4f7c-a478-bebdba529444","system_id":"levelo_inurba_marseille","lat":43.30888,"lon":5.37194,"is_reserved":false,"is_disabled":false,"rental_uris":{"android":"levelo://app?vid=a050f825-e0fd-4f7c-a478-bebdba529444","ios":"levelo://app?vid=a050f825-e0fd-4f7c-a478-bebdba529444"},"vehicle_type_id":"4","last_reported":1783232959,"current_range_meters":4800,"station_id":"ce4bguh2rcd13ifvqckg","pricing_plan_id":"cebpf4jnsgd1na2vs0mg"},{"bike_id":"6602a4c2-2732-4d05-8cc2-0c5637d727c4","system_id":"levelo_inurba_marseille","lat":43.27891,"lon":5.38008,"is_reserved":false,"is_disabled":false,"rental_uris":{"android":"levelo://app?vid=6602a4c2-2732-4d05-8cc2-0c5637d727c4","ios":"levelo://app?vid=6602a4c2-2732-4d05-8cc2-0c5637d727c4"},"vehicle_type_id":"4","last_reported":1783232959,"current_range_meters":4800,"station_id":"ce4bhf92rcd13ifvqf50","pricing_plan_id":"cebpf4jnsgd1na2vs0mg"},{"bike_id":"693afbfa-e70f-40d9-9271-5aba390db9b6","system_id":"levelo_inurba_marseille","lat":43.24099,"lon":5.36291,"is_reserved":false,"is_disabled":false,"rental_uris":{"android":"levelo://app?vid=693afbfa-e70f-40d9-9271-5aba390db9b6","ios":"levelo://app?vid=693afbfa-e70f-40d9-9271-5aba390db9b6"},"vehicle_type_id":"4","last_reported":1783232959,"current_range_meters":4800,"station_id":"","pricing_plan_id":"cebpf4jnsgd1na2vs0mg"},{"bike_id":"68817dd0-ab55-4a38-b85d-581c813985b5","system_id":"levelo_inurba_marseille","lat":43.27825,"lon":5.39195,"is_reserved":false,"is_disabled":false,"rental_uris":{"android":"levelo://app?vid=68817dd0-ab55-4a38-b85d-581c813985b5","ios":"levelo://app?vid=68817dd0-ab55-4a38-b85d-581c813985b5"},"vehicle_type_id":"4","last_reported":1783232959,"current_range_meters":4800,"station_id":"ce4bhjp2rcd13ifvqga0","pricing_plan_id":"cebpf4jnsgd1na2vs0mg"},{"bike_id":"ad7df966-8773-4e44-b118-1dbc68af219b","system_id":"levelo_inurba_marseille","lat":43.23968,"lon":5.36595,"is_reserved":false,"is_disabled":true,"rental_uris":{"android":"levelo://app?vid=ad7df966-8773-4e44-b118-1dbc68af219b","ios":"levelo://app?vid=ad7df966-8773-4e44-b118-1dbc68af219b"},"vehicle_type_id":"4","last_reported":1783232959,"current_range_meters":4800,"station_id":"ce4bhi12rcd13ifvqfp0","pricing_plan_id":"cebpf4jnsgd1na2vs0mg"},{"bike_id":"c4e8210f-6b7a-4305-9e0f-987d46077c47","system_id":"levelo_inurba_marseille","lat":43.26211,"lon":5.37438,"is_reserved":false,"is_disabled":false,"rental_uris":{"android":"levelo://app?vid=c4e8210f-6b7a-4305-9e0f-987d46077c47","ios":"levelo://app?vid=c4e8210f-6b7a-4305-9e0f-987d46077c47"},"vehicle_type_id":"4","last_reported":1783232959,"current_range_meters":4800,"station_id":"ce4bhgp2rcd13ifvqfc0","pricing_plan_id":"cebpf4jnsgd1na2vs0mg"},{"bike_id":"40fdd1cf-c3bf-484e-8ffd-9f5f22190a77","system_id":"levelo_inurba_marseille","lat":43.32127,"lon":5.36769,"is_reserved":false,"is_disabled":false,"rental_uris":{"android":"levelo://app?vid=40fdd1cf-c3bf-484e-8ffd-9f5f22190a77","ios":"levelo://app?vid=40fdd1cf-c3bf-484e-8ffd-9f5f22190a77"},"vehicle_type_id":"4","last_reported":1783232959,"current_range_meters":4800,"station_id":"ce4bhrh2rcd13ifvqhug","pricing_plan_id":"cebpf4jnsgd1na2vs0mg"},{"bike_id":"f61953fc-8e06-49a0-ae03-f9abddf3e07b","system_id":"levelo_inurba_marseille","lat":43.28335,"lon":5.38116,"is_reserved":false,"is_disabled":false,"rental_uris":{"android":"levelo://app?vid=f61953fc-8e06-49a0-ae03-f9abddf3e07b","ios":"levelo://app?vid=f61953fc-8e06-49a0-ae03-f9abddf3e07b"},"vehicle_type_id":"4","last_reported":1783232959,"current_range_meters":4800,"station_id":"ce4bh412rcd13ifvqdr0","pricing_plan_id":"cebpf4jnsgd1na2vs0mg"},{"bike_id":"d1760130-e4de-4a21-91bd-915a7a1f1a4e","system_id":"levelo_inurba_marseille","lat":43.28706,"lon":5.37389,"is_reserved":false,"is_disabled":false,"rental_uris":{"android":"levelo://app?vid=d1760130-e4de-4a21-91bd-915a7a1f1a4e","ios":"levelo://app?vid=d1760130-e4de-4a21-91bd-915a7a1f1a4e"},"vehicle_type_id":"4","last_reported":1783232959,"current_range_meters":4800,"station_id":"ce4bh3p2rcd13ifvqdq0","pricing_plan_id":"cebpf4jnsgd1na2vs0mg"},{"bike_id":"ac38680d-b2a2-4ab6-b631-f6e5a1bbb8a4","system_id":"levelo_inurba_marseille","lat":43.28716,"lon":5.37415,"is_reserved":false,"is_disabled":false,"rental_uris":{"android":"levelo://app?vid=ac38680d-b2a2-4ab6-b631-f6e5a1bbb8a4","ios":"levelo://app?vid=ac38680d-b2a2-4ab6-b631-f6e5a1bbb8a4"},"vehicle_type_id":"4","last_reported":1783232959,"current_range_meters":4800,"station_id":"ce4bh3p2rcd13ifvqdq0","pricing_plan_id":"cebpf4jnsgd1na2vs0mg"},{"bike_id":"190f53f5-1748-48a1-9fe2-500cc8cefa8e","system_id":"levelo_inurba_marseille","lat":43.32599,"lon":5.3655,"is_reserved":false,"is_disabled":false,"rental_uris":{"android":"levelo://app?vid=190f53f5-1748-48a1-9fe2-500cc8cefa8e","ios":"levelo://app?vid=190f53f5-1748-48a1-9fe2-500cc8cefa8e"},"vehicle_type_id":"4","last_reported":1783232959,"current_range_meters":4800,"station_id":"","pricing_plan_id":"cebpf4jnsgd1na2vs0mg"},{"bike_id":"5658cfe3-ed59-45e9-8a44-0561163fcd3f","system_id":"levelo_inurba_marseille","lat":43.30848,"lon":5.40495,"is_reserved":false,"is_disabled":false,"rental_uris":{"android":"levelo://app?vid=5658cfe3-ed59-45e9-8a44-0561163fcd3f","ios":"levelo://app?vid=5658cfe3-ed59-45e9-8a44-0561163fcd3f"},"vehicle_type_id":"4","last_reported":1783232959,"current_range_meters":4800,"station_id":"","pricing_plan_id":"cebpf4jnsgd1na2vs0mg"},{"bike_id":"cbfc489f-1b59-40e1-bc38-0f8dc57c2502","system_id":"levelo_inurba_marseille","lat":43.3137,"lon":5.38495,"is_reserved":false,"is_disabled":false,"rental_uris":{"android":"levelo://app?vid=cbfc489f-1b59-40e1-bc38-0f8dc57c2502","ios":"levelo://app?vid=cbfc489f-1b59-40e1-bc38-0f8dc57c2502"},"vehicle_type_id":"4","last_reported":1783232959,"current_range_meters":4800,"station_id":"ce4bgt92rcd13ifvqcf0","pricing_plan_id":"cebpf4jnsgd1na2vs0mg"},{"bike_id":"521080ad-0053-41e3-bcb5-1056f3ff73f5","system_id":"levelo_inurba_marseille","lat":43.28617,"lon":5.37065,"is_reserved":false,"is_disabled":false,"rental_uris":{"android":"levelo://app?vid=521080ad-0053-41e3-bcb5-1056f3ff73f5","ios":"levelo://app?vid=521080ad-0053-41e3-bcb5-1056f3ff73f5"},"vehicle_type_id":"4","last_reported":1783232959,"current_range_meters":4800,"station_id":"ce4bht12rcd13ifvqi60","pricing_plan_id":"cebpf4jnsgd1na2vs0mg"},{"bike_id":"21c1f518-ff21-43e2-9e39-1c676cfcd09d","system_id":"levelo_inurba_marseille","lat":43.28725,"lon":5.36113,"is_reserved":false,"is_disabled":false,"rental_uris":{"android":"levelo://app?vid=21c1f518-ff21-43e2-9e39-1c676cfcd09d","ios":"levelo://app?vid=21c1f518-ff21-43e2-9e39-1c676cfcd09d"},"vehicle_type_id":"4","last_reported":1783232959,"current_range_meters":4800,"station_id":"cki0cbj6b192h4jlfktg","pricing_plan_id":"cebpf4jnsgd1na2vs0mg"},{"bike_id":"b7c7c1e8-84e9-49fb-a54d-fbe5086cd61a","system_id":"levelo_inurba_marseille","lat":43.27801,"lon":5.40714,"is_reserved":false,"is_disabled":true,"rental_uris":{"android":"levelo://app?vid=b7c7c1e8-84e9-49fb-a54d-fbe5086cd61a","ios":"levelo://app?vid=b7c7c1e8-84e9-49fb-a54d-fbe5086cd61a"},"vehicle_type_id":"4","last_reported":1783232959,"current_range_meters":5600,"station_id":"ce4bhnh2rcd13ifvqgtg","pricing_plan_id":"cebpf4jnsgd1na2vs0mg"},{"bike_id":"daec884b-6f7a-4e9d-bc94-369833ef2cdc","system_id":"levelo_inurba_marseille","lat":43.29026,"lon":5.38119,"is_reserved":false,"is_disabled":true,"rental_uris":{"android":"levelo://app?vid=daec884b-6f7a-4e9d-bc94-369833ef2cdc","ios":"levelo://app?vid=daec884b-6f7a-4e9d-bc94-369833ef2cdc"},"vehicle_type_id":"4","last_reported":1783232959,"current_range_meters":5600,"station_id":"ce4bh4p2rcd13ifvqe1g","pricing_plan_id":"cebpf4jnsgd1na2vs0mg"},{"bike_id":"0df3073c-4d91-4aad-99ca-3266164a2dbe","system_id":"levelo_inurba_marseille","lat":43.28413,"lon":5.37501,"is_reserved":false,"is_disabled":true,"rental_uris":{"android":"levelo://app?vid=0df3073c-4d91-4aad-99ca-3266164a2dbe","ios":"levelo://app?vid=0df3073c-4d91-4aad-99ca-3266164a2dbe"},"vehicle_type_id":"4","last_reported":1783232959,"current_range_meters":5600,"station_id":"ce4bh412rcd13ifvqds0","pricing_plan_id":"cebpf4jnsgd1na2vs0mg"},{"bike_id":"240a2f40-9589-426f-8d22-d5304688bd11","system_id":"levelo_inurba_marseille","lat":43.29042,"lon":5.3756,"is_reserved":false,"is_disabled":true,"rental_uris":{"android":"levelo://app?vid=240a2f40-9589-426f-8d22-d5304688bd11","ios":"levelo://app?vid=240a2f40-9589-426f-8d22-d5304688bd11"},"vehicle_type_id":"4","last_reported":1783232959,"current_range_meters":5600,"station_id":"ce4bh692rcd13ifvqe90","pricing_plan_id":"cebpf4jnsgd1na2vs0mg"},{"bike_id":"ec94044f-b7d7-4ee7-a321-63892dad468f","system_id":"levelo_inurba_marseille","lat":43.29564,"lon":5.39947,"is_reserved":false,"is_disabled":false,"rental_uris":{"android":"levelo://app?vid=ec94044f-b7d7-4ee7-a321-63892dad468f","ios":"levelo://app?vid=ec94044f-b7d7-4ee7-a321-63892dad468f"},"vehicle_type_id":"4","last_reported":1783232959,"current_range_meters":5600,"station_id":"ce4bh312rcd13ifvqdj0","pricing_plan_id":"cebpf4jnsgd1na2vs0mg"},{"bike_id":"54db33aa-17e0-4887-bd60-f808cc5cd70d","system_id":"levelo_inurba_marseille","lat":43.21153,"lon":5.3509,"is_reserved":false,"is_disabled":false,"rental_uris":{"android":"levelo://app?vid=54db33aa-17e0-4887-bd60-f808cc5cd70d","ios":"levelo://app?vid=54db33aa-17e0-4887-bd60-f808cc5cd70d"},"vehicle_type_id":"4","last_reported":1783232959,"current_range_meters":5600,"station_id":"st_cvj6sg6p6f1abm77japg","pricing_plan_id":"cebpf4jnsgd1na2vs0mg"},{"bike_id":"4ef9d4cb-cbb4-473d-9b95-4aa874734694","system_id":"levelo_inurba_marseille","lat":43.24829,"lon":5.37421,"is_reserved":false,"is_disabled":false,"rental_uris":{"android":"levelo://app?vid=4ef9d4cb-cbb4-473d-9b95-4aa874734694","ios":"levelo://app?vid=4ef9d4cb-cbb4-473d-9b95-4aa874734694"},"vehicle_type_id":"4","last_reported":1783232959,"current_range_meters":5600,"station_id":"ce4bhgh2rcd13ifvqfb0","pricing_plan_id":"cebpf4jnsgd1na2vs0mg"},{"bike_id":"0a9ebcff-1b56-45db-9b33-1cda38943cf9","system_id":"levelo_inurba_marseille","lat":43.24479,"lon":5.4073,"is_reserved":false,"is_disabled":false,"rental_uris":{"android":"levelo://app?vid=0a9ebcff-1b56-45db-9b33-1cda38943cf9","ios":"levelo://app?vid=0a9ebcff-1b56-45db-9b33-1cda38943cf9"},"vehicle_type_id":"4","last_reported":1783232959,"current_range_meters":5600,"station_id":"","pricing_plan_id":"cebpf4jnsgd1na2vs0mg"},{"bike_id":"ab5fa6e9-1abc-481a-a377-ef28659caa27","system_id":"levelo_inurba_marseille","lat":43.29103,"lon":5.38134,"is_reserved":false,"is_disabled":false,"rental_uris":{"android":"levelo://app?vid=ab5fa6e9-1abc-481a-a377-ef28659caa27","ios":"levelo://app?vid=ab5fa6e9-1abc-481a-a377-ef28659caa27"},"vehicle_type_id":"4","last_reported":1783232959,"current_range_meters":5600,"station_id":"ce4bh512rcd13ifvqe2g","pricing_plan_id":"cebpf4jnsgd1na2vs0mg"},{"bike_id":"d8d40ed0-a3f1-47e2-b1bf-7e8d3b829169","system_id":"levelo_inurba_marseille","lat":43.212,"lon":5.35069,"is_reserved":false,"is_disabled":false,"rental_uris":{"android":"levelo://app?vid=d8d40ed0-a3f1-47e2-b1bf-7e8d3b829169","ios":"levelo://app?vid=d8d40ed0-a3f1-47e2-b1bf-7e8d3b829169"},"vehicle_type_id":"4","last_reported":1783232959,"current_range_meters":5600,"station_id":"st_cvj6sg6p6f1abm77japg","pricing_plan_id":"cebpf4jnsgd1na2vs0mg"},{"bike_id":"3af208fb-ed62-4f29-bcd1-b301d13a9628","system_id":"levelo_inurba_marseille","lat":43.28389,"lon":5.36509,"is_reserved":false,"is_disabled":false,"rental_uris":{"android":"levelo://app?vid=3af208fb-ed62-4f29-bcd1-b301d13a9628","ios":"levelo://app?vid=3af208fb-ed62-4f29-bcd1-b301d13a9628"},"vehicle_type_id":"4","last_reported":1783232959,"current_range_meters":5600,"station_id":"","pricing_plan_id":"cebpf4jnsgd1na2vs0mg"},{"bike_id":"7b9b4653-dc1f-4144-8788-bd5e4a15a5be","system_id":"levelo_inurba_marseille","lat":43.29267,"lon":5.40894,"is_reserved":false,"is_disabled":false,"rental_uris":{"android":"levelo://app?vid=7b9b4653-dc1f-4144-8788-bd5e4a15a5be","ios":"levelo://app?vid=7b9b4653-dc1f-4144-8788-bd5e4a15a5be"},"vehicle_type_id":"4","last_reported":1783232959,"current_range_meters":5600,"station_id":"ce4bh192rcd13ifvqdc0","pricing_plan_id":"cebpf4jnsgd1na2vs0mg"},{"bike_id":"f11d684c-5143-4f8d-a43a-f71abd231a7f","system_id":"levelo_inurba_marseille","lat":43.3095,"lon":5.39057,"is_reserved":false,"is_disabled":true,"rental_uris":{"android":"levelo://app?vid=f11d684c-5143-4f8d-a43a-f71abd231a7f","ios":"levelo://app?vid=f11d684c-5143-4f8d-a43a-f71abd231a7f"},"vehicle_type_id":"4","last_reported":1783232959,"current_range_meters":6000,"station_id":"ce4bgup2rcd13ifvqco0","pricing_plan_id":"cebpf4jnsgd1na2vs0mg"},{"bike_id":"63863038-32bb-4acf-b72d-2e82991e45d7","system_id":"levelo_inurba_marseille","lat":43.29904,"lon":5.37815,"is_reserved":false,"is_disabled":false,"rental_uris":{"android":"levelo://app?vid=63863038-32bb-4acf-b72d-2e82991e45d7","ios":"levelo://app?vid=63863038-32bb-4acf-b72d-2e82991e45d7"},"vehicle_type_id":"4","last_reported":1783232959,"current_range_meters":6000,"station_id":"","pricing_plan_id":"cebpf4jnsgd1na2vs0mg"},{"bike_id":"cdb96f67-4069-4baa-a896-228f7764dacd","system_id":"levelo_inurba_marseille","lat":43.29541,"lon":5.37907,"is_reserved":false,"is_disabled":false,"rental_uris":{"android":"levelo://app?vid=cdb96f67-4069-4baa-a896-228f7764dacd","ios":"levelo://app?vid=cdb96f67-4069-4baa-a896-228f7764dacd"},"vehicle_type_id":"4","last_reported":1783232959,"current_range_meters":6000,"station_id":"","pricing_plan_id":"cebpf4jnsgd1na2vs0mg"},{"bike_id":"3bc6d12d-59c0-4162-9cda-07f3d37dc2e0","system_id":"levelo_inurba_marseille","lat":43.24419,"lon":5.4029,"is_reserved":false,"is_disabled":false,"rental_uris":{"android":"levelo://app?vid=3bc6d12d-59c0-4162-9cda-07f3d37dc2e0","ios":"levelo://app?vid=3bc6d12d-59c0-4162-9cda-07f3d37dc2e0"},"vehicle_type_id":"4","last_reported":1783232959,"current_range_meters":6000,"station_id":"","pricing_plan_id":"cebpf4jnsgd1na2vs0mg"},{"bike_id":"1959d89c-958b-41ef-bd52-1c96fb77483f","system_id":"levelo_inurba_marseille","lat":43.25113,"lon":5.40329,"is_reserved":false,"is_disabled":false,"rental_uris":{"android":"levelo://app?vid=1959d89c-958b-41ef-bd52-1c96fb77483f","ios":"levelo://app?vid=1959d89c-958b-41ef-bd52-1c96fb77483f"},"vehicle_type_id":"4","last_reported":1783232959,"current_range_meters":6000,"station_id":"ce4bhlh2rcd13ifvqgig","pricing_plan_id":"cebpf4jnsgd1na2vs0mg"},{"bike_id":"367e2c77-1840-403a-b532-0336e7732bd2","system_id":"levelo_inurba_marseille","lat":43.25575,"lon":5.3823,"is_reserved":false,"is_disabled":true,"rental_uris":{"android":"levelo://app?vid=367e2c77-1840-403a-b532-0336e7732bd2","ios":"levelo://app?vid=367e2c77-1840-403a-b532-0336e7732bd2"},"vehicle_type_id":"4","last_reported":1783232959,"current_range_meters":6000,"station_id":"ce4bhih2rcd13ifvqfs0","pricing_plan_id":"cebpf4jnsgd1na2vs0mg"},{"bike_id":"e79f254b-5f22-43ed-88c1-4b468ec33f1f","system_id":"levelo_inurba_marseille","lat":43.26559,"lon":5.40324,"is_reserved":false,"is_disabled":false,"rental_uris":{"android":"levelo://app?vid=e79f254b-5f22-43ed-88c1-4b468ec33f1f","ios":"levelo://app?vid=e79f254b-5f22-43ed-88c1-4b468ec33f1f"},"vehicle_type_id":"4","last_reported":1783232959,"current_range_meters":6000,"station_id":"ce4bhmp2rcd13ifvqgng","pricing_plan_id":"cebpf4jnsgd1na2vs0mg"},{"bike_id":"e11520f4-8a10-4d3b-aef2-f2f747d51737","system_id":"levelo_inurba_marseille","lat":43.28486,"lon":5.38442,"is_reserved":false,"is_disabled":false,"rental_uris":{"android":"levelo://app?vid=e11520f4-8a10-4d3b-aef2-f2f747d51737","ios":"levelo://app?vid=e11520f4-8a10-4d3b-aef2-f2f747d51737"},"vehicle_type_id":"4","last_reported":1783232959,"current_range_meters":6000,"station_id":"ce4bh512rcd13ifvqe3g","pricing_plan_id":"cebpf4jnsgd1na2vs0mg"},{"bike_id":"d0f28ab1-3c46-46de-ad46-1a7ea455b32f","system_id":"levelo_inurba_marseille","lat":43.29618,"lon":5.37708,"is_reserved":false,"is_disabled":true,"rental_uris":{"android":"levelo://app?vid=d0f28ab1-3c46-46de-ad46-1a7ea455b32f","ios":"levelo://app?vid=d0f28ab1-3c46-46de-ad46-1a7ea455b32f"},"vehicle_type_id":"4","last_reported":1783232959,"current_range_meters":6000,"station_id":"ce4bgi92rcd13ifvqb90","pricing_plan_id":"cebpf4jnsgd1na2vs0mg"},{"bike_id":"061e9941-7b05-4cba-88ab-e5a83f0ed275","system_id":"levelo_inurba_marseille","lat":43.28717,"lon":5.39975,"is_reserved":false,"is_disabled":false,"rental_uris":{"android":"levelo://app?vid=061e9941-7b05-4cba-88ab-e5a83f0ed275","ios":"levelo://app?vid=061e9941-7b05-4cba-88ab-e5a83f0ed275"},"vehicle_type_id":"4","last_reported":1783232959,"current_range_meters":6000,"station_id":"ce4bho92rcd13ifvqh3g","pricing_plan_id":"cebpf4jnsgd1na2vs0mg"},{"bike_id":"a77df645-5a3d-4473-87f8-fcae29a5431e","system_id":"levelo_inurba_marseille","lat":43.28445,"lon":5.39164,"is_reserved":false,"is_disabled":false,"rental_uris":{"android":"levelo://app?vid=a77df645-5a3d-4473-87f8-fcae29a5431e","ios":"levelo://app?vid=a77df645-5a3d-4473-87f8-fcae29a5431e"},"vehicle_type_id":"4","last_reported":1783232959,"current_range_meters":6000,"station_id":"ce4bhoh2rcd13ifvqh5g","pricing_plan_id":"cebpf4jnsgd1na2vs0mg"},{"bike_id":"e5473c20-a8c7-4d8d-b488-3c64c2ba2802","system_id":"levelo_inurba_marseille","lat":43.30479,"lon":5.37888,"is_reserved":false,"is_disabled":false,"rental_uris":{"android":"levelo://app?vid=e5473c20-a8c7-4d8d-b488-3c64c2ba2802","ios":"levelo://app?vid=e5473c20-a8c7-4d8d-b488-3c64c2ba2802"},"vehicle_type_id":"4","last_reported":1783232959,"current_range_meters":6000,"station_id":"ce4bgup2rcd13ifvqcn0","pricing_plan_id":"cebpf4jnsgd1na2vs0mg"},{"bike_id":"748e4a51-7d23-4fcf-84f1-cef0557be7cc","system_id":"levelo_inurba_marseille","lat":43.30147,"lon":5.36633,"is_reserved":false,"is_disabled":false,"rental_uris":{"android":"levelo://app?vid=748e4a51-7d23-4fcf-84f1-cef0557be7cc","ios":"levelo://app?vid=748e4a51-7d23-4fcf-84f1-cef0557be7cc"},"vehicle_type_id":"4","last_reported":1783232959,"current_range_meters":6000,"station_id":"","pricing_plan_id":"cebpf4jnsgd1na2vs0mg"},{"bike_id":"c5716036-0194-46a1-8323-9e6336598a67","system_id":"levelo_inurba_marseille","lat":43.2253,"lon":5.34832,"is_reserved":false,"is_disabled":false,"rental_uris":{"android":"levelo://app?vid=c5716036-0194-46a1-8323-9e6336598a67","ios":"levelo://app?vid=c5716036-0194-46a1-8323-9e6336598a67"},"vehicle_type_id":"4","last_reported":1783232959,"current_range_meters":6000,"station_id":"st_cvj5dfep6f1abm77gieg","pricing_plan_id":"cebpf4jnsgd1na2vs0mg"},{"bike_id":"d6788e7d-6ca0-41b0-9b54-a846cce64917","system_id":"levelo_inurba_marseille","lat":43.26585,"lon":5.39006,"is_reserved":false,"is_disabled":false,"rental_uris":{"android":"levelo://app?vid=d6788e7d-6ca0-41b0-9b54-a846cce64917","ios":"levelo://app?vid=d6788e7d-6ca0-41b0-9b54-a846cce64917"},"vehicle_type_id":"4","last_reported":1783232959,"current_range_meters":6000,"station_id":"ce4bhe12rcd13ifvqf30","pricing_plan_id":"cebpf4jnsgd1na2vs0mg"},{"bike_id":"c0080d7a-1f56-488a-9914-bd2925216be0","system_id":"levelo_inurba_marseille","lat":43.22552,"lon":5.41637,"is_reserved":false,"is_disabled":false,"rental_uris":{"android":"levelo://app?vid=c0080d7a-1f56-488a-9914-bd2925216be0","ios":"levelo://app?vid=c0080d7a-1f56-488a-9914-bd2925216be0"},"vehicle_type_id":"4","last_reported":1783232959,"current_range_meters":6000,"station_id":"st_d2o4gvlbi1j2169b742g","pricing_plan_id":"cebpf4jnsgd1na2vs0mg"},{"bike_id":"43d30edd-cdea-4445-a246-fe658042dfdb","system_id":"levelo_inurba_marseille","lat":43.30793,"lon":5.37627,"is_reserved":false,"is_disabled":false,"rental_uris":{"android":"levelo://app?vid=43d30edd-cdea-4445-a246-fe658042dfdb","ios":"levelo://app?vid=43d30edd-cdea-4445-a246-fe658042dfdb"},"vehicle_type_id":"4","last_reported":1783232959,"current_range_meters":6000,"station_id":"ce4bgv92rcd13ifvqcq0","pricing_plan_id":"cebpf4jnsgd1na2vs0mg"},{"bike_id":"927accec-a05f-4a8e-a4cf-0009f10d7109","system_id":"levelo_inurba_marseille","lat":43.29802,"lon":5.40412,"is_reserved":false,"is_disabled":false,"rental_uris":{"android":"levelo://app?vid=927accec-a05f-4a8e-a4cf-0009f10d7109","ios":"levelo://app?vid=927accec-a05f-4a8e-a4cf-0009f10d7109"},"vehicle_type_id":"4","last_reported":1783232959,"current_range_meters":6000,"station_id":"ce4bh112rcd13ifvqd90","pricing_plan_id":"cebpf4jnsgd1na2vs0mg"},{"bike_id":"053ac7f0-2661-4959-8f04-39a48999ab79","system_id":"levelo_inurba_marseille","lat":43.24659,"lon":5.38154,"is_reserved":false,"is_disabled":false,"rental_uris":{"android":"levelo://app?vid=053ac7f0-2661-4959-8f04-39a48999ab79","ios":"levelo://app?vid=053ac7f0-2661-4959-8f04-39a48999ab79"},"vehicle_type_id":"4","last_reported":1783232959,"current_range_meters":6000,"station_id":"ce4bhih2rcd13ifvqfr0","pricing_plan_id":"cebpf4jnsgd1na2vs0mg"},{"bike_id":"b2206209-3ca9-41e2-80e2-68b97279a6f4","system_id":"levelo_inurba_marseille","lat":43.24675,"lon":5.38172,"is_reserved":false,"is_disabled":false,"rental_uris":{"android":"levelo://app?vid=b2206209-3ca9-41e2-80e2-68b97279a6f4","ios":"levelo://app?vid=b2206209-3ca9-41e2-80e2-68b97279a6f4"},"vehicle_type_id":"4","last_reported":1783232959,"current_range_meters":6400,"station_id":"ce4bhih2rcd13ifvqfr0","pricing_plan_id":"cebpf4jnsgd1na2vs0mg"},{"bike_id":"36693d68-22d3-40a3-8c1f-b4746c5838c3","system_id":"levelo_inurba_marseille","lat":43.27811,"lon":5.4072,"is_reserved":false,"is_disabled":false,"rental_uris":{"android":"levelo://app?vid=36693d68-22d3-40a3-8c1f-b4746c5838c3","ios":"levelo://app?vid=36693d68-22d3-40a3-8c1f-b4746c5838c3"},"vehicle_type_id":"4","last_reported":1783232959,"current_range_meters":6400,"station_id":"ce4bhnh2rcd13ifvqgtg","pricing_plan_id":"cebpf4jnsgd1na2vs0mg"},{"bike_id":"f32649e7-7632-4652-b17b-3ae6b603dcc2","system_id":"levelo_inurba_marseille","lat":43.32111,"lon":5.36775,"is_reserved":false,"is_disabled":false,"rental_uris":{"android":"levelo://app?vid=f32649e7-7632-4652-b17b-3ae6b603dcc2","ios":"levelo://app?vid=f32649e7-7632-4652-b17b-3ae6b603dcc2"},"vehicle_type_id":"4","last_reported":1783232959,"current_range_meters":6400,"station_id":"ce4bhrh2rcd13ifvqhug","pricing_plan_id":"cebpf4jnsgd1na2vs0mg"},{"bike_id":"a82796c5-40ef-4807-b26d-66152c959991","system_id":"levelo_inurba_marseille","lat":43.2799,"lon":5.3986,"is_reserved":false,"is_disabled":false,"rental_uris":{"android":"levelo://app?vid=a82796c5-40ef-4807-b26d-66152c959991","ios":"levelo://app?vid=a82796c5-40ef-4807-b26d-66152c959991"},"vehicle_type_id":"4","last_reported":1783232959,"current_range_meters":6400,"station_id":"","pricing_plan_id":"cebpf4jnsgd1na2vs0mg"},{"bike_id":"55b4386c-7303-40b5-a5d0-06786e05f79c","system_id":"levelo_inurba_marseille","lat":43.29269,"lon":5.36845,"is_reserved":false,"is_disabled":false,"rental_uris":{"android":"levelo://app?vid=55b4386c-7303-40b5-a5d0-06786e05f79c","ios":"levelo://app?vid=55b4386c-7303-40b5-a5d0-06786e05f79c"},"vehicle_type_id":"4","last_reported":1783232959,"current_range_meters":6400,"station_id":"ce4bhbp2rcd13ifvqesg","pricing_plan_id":"cebpf4jnsgd1na2vs0mg"},{"bike_id":"b74986d2-a017-40be-8756-6f69c7af4c8a","system_id":"levelo_inurba_marseille","lat":43.29196,"lon":5.36015,"is_reserved":false,"is_disabled":true,"rental_uris":{"android":"levelo://app?vid=b74986d2-a017-40be-8756-6f69c7af4c8a","ios":"levelo://app?vid=b74986d2-a017-40be-8756-6f69c7af4c8a"},"vehicle_type_id":"4","last_reported":1783232959,"current_range_meters":6400,"station_id":"","pricing_plan_id":"cebpf4jnsgd1na2vs0mg"},{"bike_id":"de6914c1-a127-4bad-9192-c1a2795bb81d","system_id":"levelo_inurba_marseille","lat":43.21192,"lon":5.35062,"is_reserved":false,"is_disabled":false,"rental_uris":{"android":"levelo://app?vid=de6914c1-a127-4bad-9192-c1a2795bb81d","ios":"levelo://app?vid=de6914c1-a127-4bad-9192-c1a2795bb81d"},"vehicle_type_id":"4","last_reported":1783232959,"current_range_meters":6400,"station_id":"st_cvj6sg6p6f1abm77japg","pricing_plan_id":"cebpf4jnsgd1na2vs0mg"},{"bike_id":"40c60d26-7793-4225-aaf2-3a67b9faf4fc","system_id":"levelo_inurba_marseille","lat":43.23481,"lon":5.38077,"is_reserved":false,"is_disabled":false,"rental_uris":{"android":"levelo://app?vid=40c60d26-7793-4225-aaf2-3a67b9faf4fc","ios":"levelo://app?vid=40c60d26-7793-4225-aaf2-3a67b9faf4fc"},"vehicle_type_id":"4","last_reported":1783232959,"current_range_meters":6400,"station_id":"","pricing_plan_id":"cebpf4jnsgd1na2vs0mg"},{"bike_id":"c3485d90-3822-42cc-aa0a-42b926fcbc4a","system_id":"levelo_inurba_marseille","lat":43.28011,"lon":5.3706,"is_reserved":false,"is_disabled":false,"rental_uris":{"android":"levelo://app?vid=c3485d90-3822-42cc-aa0a-42b926fcbc4a","ios":"levelo://app?vid=c3485d90-3822-42cc-aa0a-42b926fcbc4a"},"vehicle_type_id":"4","last_reported":1783232959,"current_range_meters":6400,"station_id":"","pricing_plan_id":"cebpf4jnsgd1na2vs0mg"},{"bike_id":"f7eff25e-c0d0-412a-b638-abd57aa02912","system_id":"levelo_inurba_marseille","lat":43.29908,"lon":5.38149,"is_reserved":false,"is_disabled":false,"rental_uris":{"android":"levelo://app?vid=f7eff25e-c0d0-412a-b638-abd57aa02912","ios":"levelo://app?vid=f7eff25e-c0d0-412a-b638-abd57aa02912"},"vehicle_type_id":"4","last_reported":1783232959,"current_range_meters":6400,"station_id":"ce4bgj12rcd13ifvqbc0","pricing_plan_id":"cebpf4jnsgd1na2vs0mg"},{"bike_id":"3ce2a995-95ce-4ef6-811f-2cfd6fc8b9fa","system_id":"levelo_inurba_marseille","lat":43.29199,"lon":5.39288,"is_reserved":false,"is_disabled":true,"rental_uris":{"android":"levelo://app?vid=3ce2a995-95ce-4ef6-811f-2cfd6fc8b9fa","ios":"levelo://app?vid=3ce2a995-95ce-4ef6-811f-2cfd6fc8b9fa"},"vehicle_type_id":"4","last_reported":1783232959,"current_range_meters":6400,"station_id":"ce4bh192rcd13ifvqdd0","pricing_plan_id":"cebpf4jnsgd1na2vs0mg"},{"bike_id":"8c51c550-068e-4ee8-9e6b-2b6156bd353f","system_id":"levelo_inurba_marseille","lat":43.30195,"lon":5.36619,"is_reserved":false,"is_disabled":true,"rental_uris":{"android":"levelo://app?vid=8c51c550-068e-4ee8-9e6b-2b6156bd353f","ios":"levelo://app?vid=8c51c550-068e-4ee8-9e6b-2b6156bd353f"},"vehicle_type_id":"4","last_reported":1783232959,"current_range_meters":6400,"station_id":"ce4bgrh2rcd13ifvqc8g","pricing_plan_id":"cebpf4jnsgd1na2vs0mg"},{"bike_id":"910a0e56-3842-458a-b929-4deeebc2ab76","system_id":"levelo_inurba_marseille","lat":43.21185,"lon":5.35081,"is_reserved":false,"is_disabled":false,"rental_uris":{"android":"levelo://app?vid=910a0e56-3842-458a-b929-4deeebc2ab76","ios":"levelo://app?vid=910a0e56-3842-458a-b929-4deeebc2ab76"},"vehicle_type_id":"4","last_reported":1783232959,"current_range_meters":6400,"station_id":"st_cvj6sg6p6f1abm77japg","pricing_plan_id":"cebpf4jnsgd1na2vs0mg"},{"bike_id":"7accfb6f-13c6-499b-91fd-a9662bf46908","system_id":"levelo_inurba_marseille","lat":43.29007,"lon":5.35631,"is_reserved":false,"is_disabled":false,"rental_uris":{"android":"levelo://app?vid=7accfb6f-13c6-499b-91fd-a9662bf46908","ios":"levelo://app?vid=7accfb6f-13c6-499b-91fd-a9662bf46908"},"vehicle_type_id":"4","last_reported":1783232959,"current_range_meters":6400,"station_id":"ce4bhb92rcd13ifvqen0","pricing_plan_id":"cebpf4jnsgd1na2vs0mg"},{"bike_id":"9721af8c-8419-4a7c-ac70-241e4be05937","system_id":"levelo_inurba_marseille","lat":43.24632,"lon":5.4314,"is_reserved":false,"is_disabled":false,"rental_uris":{"android":"levelo://app?vid=9721af8c-8419-4a7c-ac70-241e4be05937","ios":"levelo://app?vid=9721af8c-8419-4a7c-ac70-241e4be05937"},"vehicle_type_id":"4","last_reported":1783232959,"current_range_meters":6400,"station_id":"st_d2m6c4gdas8pm72e190g","pricing_plan_id":"cebpf4jnsgd1na2vs0mg"},{"bike_id":"637ca6f2-621c-4ae1-adb4-7b5112bde475","system_id":"levelo_inurba_marseille","lat":43.28674,"lon":5.36322,"is_reserved":false,"is_disabled":true,"rental_uris":{"android":"levelo://app?vid=637ca6f2-621c-4ae1-adb4-7b5112bde475","ios":"levelo://app?vid=637ca6f2-621c-4ae1-adb4-7b5112bde475"},"vehicle_type_id":"4","last_reported":1783232959,"current_range_meters":6400,"station_id":"ce4bhah2rcd13ifvqej0","pricing_plan_id":"cebpf4jnsgd1na2vs0mg"},{"bike_id":"4f82b017-0d6a-4c83-89fc-3804b9f8b8cf","system_id":"levelo_inurba_marseille","lat":43.3169,"lon":5.40433,"is_reserved":false,"is_disabled":false,"rental_uris":{"android":"levelo://app?vid=4f82b017-0d6a-4c83-89fc-3804b9f8b8cf","ios":"levelo://app?vid=4f82b017-0d6a-4c83-89fc-3804b9f8b8cf"},"vehicle_type_id":"4","last_reported":1783232959,"current_range_meters":6400,"station_id":"ce4bh012rcd13ifvqd00","pricing_plan_id":"cebpf4jnsgd1na2vs0mg"},{"bike_id":"ba134be4-42af-4670-a145-0318372118dc","system_id":"levelo_inurba_marseille","lat":43.31124,"lon":5.3778,"is_reserved":false,"is_disabled":false,"rental_uris":{"android":"levelo://app?vid=ba134be4-42af-4670-a145-0318372118dc","ios":"levelo://app?vid=ba134be4-42af-4670-a145-0318372118dc"},"vehicle_type_id":"4","last_reported":1783232959,"current_range_meters":6400,"station_id":"ce4bgt92rcd13ifvqcg0","pricing_plan_id":"cebpf4jnsgd1na2vs0mg"},{"bike_id":"e4ee63c7-9eff-4911-8f46-91d4a1859e49","system_id":"levelo_inurba_marseille","lat":43.21195,"lon":5.35075,"is_reserved":false,"is_disabled":false,"rental_uris":{"android":"levelo://app?vid=e4ee63c7-9eff-4911-8f46-91d4a1859e49","ios":"levelo://app?vid=e4ee63c7-9eff-4911-8f46-91d4a1859e49"},"vehicle_type_id":"4","last_reported":1783232959,"current_range_meters":6400,"station_id":"st_cvj6sg6p6f1abm77japg","pricing_plan_id":"cebpf4jnsgd1na2vs0mg"},{"bike_id":"67ff903d-b2b0-4196-be8d-ce9048cbff4d","system_id":"levelo_inurba_marseille","lat":43.22974,"lon":5.44482,"is_reserved":false,"is_disabled":false,"rental_uris":{"android":"levelo://app?vid=67ff903d-b2b0-4196-be8d-ce9048cbff4d","ios":"levelo://app?vid=67ff903d-b2b0-4196-be8d-ce9048cbff4d"},"vehicle_type_id":"4","last_reported":1783232959,"current_range_meters":6400,"station_id":"","pricing_plan_id":"cebpf4jnsgd1na2vs0mg"},{"bike_id":"0e329229-8565-4a9d-b593-532bd3ccbaef","system_id":"levelo_inurba_marseille","lat":43.3124,"lon":5.38798,"is_reserved":false,"is_disabled":false,"rental_uris":{"android":"levelo://app?vid=0e329229-8565-4a9d-b593-532bd3ccbaef","ios":"levelo://app?vid=0e329229-8565-4a9d-b593-532bd3ccbaef"},"vehicle_type_id":"4","last_reported":1783232959,"current_range_meters":6800,"station_id":"","pricing_plan_id":"cebpf4jnsgd1na2vs0mg"},{"bike_id":"7bebe51d-5fe1-4ff4-b80c-8ee3dcc0f59a","system_id":"levelo_inurba_marseille","lat":43.27162,"lon":5.40988,"is_reserved":false,"is_disabled":false,"rental_uris":{"android":"levelo://app?vid=7bebe51d-5fe1-4ff4-b80c-8ee3dcc0f59a","ios":"levelo://app?vid=7bebe51d-5fe1-4ff4-b80c-8ee3dcc0f59a"},"vehicle_type_id":"4","last_reported":1783232959,"current_range_meters":6800,"station_id":"ce4bhl12rcd13ifvqgf0","pricing_plan_id":"cebpf4jnsgd1na2vs0mg"},{"bike_id":"f4ef8be3-ec9d-4a83-a2b2-f4f97f7f8e63","system_id":"levelo_inurba_marseille","lat":43.2396,"lon":5.36634,"is_reserved":false,"is_disabled":false,"rental_uris":{"android":"levelo://app?vid=f4ef8be3-ec9d-4a83-a2b2-f4f97f7f8e63","ios":"levelo://app?vid=f4ef8be3-ec9d-4a83-a2b2-f4f97f7f8e63"},"vehicle_type_id":"4","last_reported":1783232959,"current_range_meters":6800,"station_id":"ce4bhi12rcd13ifvqfp0","pricing_plan_id":"cebpf4jnsgd1na2vs0mg"},{"bike_id":"2f1e7c27-cdbb-4552-bcb6-438088afd41d","system_id":"levelo_inurba_marseille","lat":43.297995,"lon":5.381091,"is_reserved":false,"is_disabled":true,"rental_uris":{"android":"levelo://app?vid=2f1e7c27-cdbb-4552-bcb6-438088afd41d","ios":"levelo://app?vid=2f1e7c27-cdbb-4552-bcb6-438088afd41d"},"vehicle_type_id":"4","last_reported":1783232959,"current_range_meters":6800,"station_id":"ce4bgl12rcd13ifvqbo0","pricing_plan_id":"cebpf4jnsgd1na2vs0mg"},{"bike_id":"90956858-67b4-4bbd-82de-736588e9511e","system_id":"levelo_inurba_marseille","lat":43.22552,"lon":5.41627,"is_reserved":false,"is_disabled":false,"rental_uris":{"android":"levelo://app?vid=90956858-67b4-4bbd-82de-736588e9511e","ios":"levelo://app?vid=90956858-67b4-4bbd-82de-736588e9511e"},"vehicle_type_id":"4","last_reported":1783232959,"current_range_meters":6800,"station_id":"st_d2o4gvlbi1j2169b742g","pricing_plan_id":"cebpf4jnsgd1na2vs0mg"},{"bike_id":"25801e0a-e313-4f6c-8662-d1791b0082b9","system_id":"levelo_inurba_marseille","lat":43.2511,"lon":5.40321,"is_reserved":false,"is_disabled":false,"rental_uris":{"android":"levelo://app?vid=25801e0a-e313-4f6c-8662-d1791b0082b9","ios":"levelo://app?vid=25801e0a-e313-4f6c-8662-d1791b0082b9"},"vehicle_type_id":"4","last_reported":1783232959,"current_range_meters":6800,"station_id":"ce4bhlh2rcd13ifvqgig","pricing_plan_id":"cebpf4jnsgd1na2vs0mg"},{"bike_id":"6bfed8b6-c2f0-4dd2-afe2-1ed7b81e9669","system_id":"levelo_inurba_marseille","lat":43.23948,"lon":5.36653,"is_reserved":false,"is_disabled":true,"rental_uris":{"android":"levelo://app?vid=6bfed8b6-c2f0-4dd2-afe2-1ed7b81e9669","ios":"levelo://app?vid=6bfed8b6-c2f0-4dd2-afe2-1ed7b81e9669"},"vehicle_type_id":"4","last_reported":1783232959,"current_range_meters":6800,"station_id":"ce4bhi12rcd13ifvqfp0","pricing_plan_id":"cebpf4jnsgd1na2vs0mg"},{"bike_id":"98d9ab63-952f-49d0-8775-50ac81ca5fd7","system_id":"levelo_inurba_marseille","lat":43.30924,"lon":5.37497,"is_reserved":false,"is_disabled":false,"rental_uris":{"android":"levelo://app?vid=98d9ab63-952f-49d0-8775-50ac81ca5fd7","ios":"levelo://app?vid=98d9ab63-952f-49d0-8775-50ac81ca5fd7"},"vehicle_type_id":"4","last_reported":1783232959,"current_range_meters":6800,"station_id":"","pricing_plan_id":"cebpf4jnsgd1na2vs0mg"},{"bike_id":"558cffce-bef5-4f7b-b636-7f88d54a4bba","system_id":"levelo_inurba_marseille","lat":43.212,"lon":5.35066,"is_reserved":false,"is_disabled":false,"rental_uris":{"android":"levelo://app?vid=558cffce-bef5-4f7b-b636-7f88d54a4bba","ios":"levelo://app?vid=558cffce-bef5-4f7b-b636-7f88d54a4bba"},"vehicle_type_id":"4","last_reported":1783232959,"current_range_meters":6800,"station_id":"st_cvj6sg6p6f1abm77japg","pricing_plan_id":"cebpf4jnsgd1na2vs0mg"},{"bike_id":"1b72bfff-6a15-4d23-8e6f-3555e98ef07c","system_id":"levelo_inurba_marseille","lat":43.28036,"lon":5.36933,"is_reserved":false,"is_disabled":false,"rental_uris":{"android":"levelo://app?vid=1b72bfff-6a15-4d23-8e6f-3555e98ef07c","ios":"levelo://app?vid=1b72bfff-6a15-4d23-8e6f-3555e98ef07c"},"vehicle_type_id":"4","last_reported":1783232959,"current_range_meters":6800,"station_id":"ce4bha12rcd13ifvqef0","pricing_plan_id":"cebpf4jnsgd1na2vs0mg"},{"bike_id":"e2770b29-2b53-4a1b-b237-7b8799569b06","system_id":"levelo_inurba_marseille","lat":43.29505,"lon":5.3941,"is_reserved":false,"is_disabled":true,"rental_uris":{"android":"levelo://app?vid=e2770b29-2b53-4a1b-b237-7b8799569b06","ios":"levelo://app?vid=e2770b29-2b53-4a1b-b237-7b8799569b06"},"vehicle_type_id":"4","last_reported":1783232959,"current_range_meters":6800,"station_id":"ce4bh292rcd13ifvqdf0","pricing_plan_id":"cebpf4jnsgd1na2vs0mg"},{"bike_id":"a351dbfd-b396-4fee-bbf9-64048b7d5b49","system_id":"levelo_inurba_marseille","lat":43.26776,"lon":5.3943,"is_reserved":false,"is_disabled":false,"rental_uris":{"android":"levelo://app?vid=a351dbfd-b396-4fee-bbf9-64048b7d5b49","ios":"levelo://app?vid=a351dbfd-b396-4fee-bbf9-64048b7d5b49"},"vehicle_type_id":"4","last_reported":1783232959,"current_range_meters":6800,"station_id":"ce4bhh12rcd13ifvqfg0","pricing_plan_id":"cebpf4jnsgd1na2vs0mg"},{"bike_id":"c2d1d622-04fa-499b-a242-1cb85938d110","system_id":"levelo_inurba_marseille","lat":43.27331,"lon":5.39076,"is_reserved":false,"is_disabled":false,"rental_uris":{"android":"levelo://app?vid=c2d1d622-04fa-499b-a242-1cb85938d110","ios":"levelo://app?vid=c2d1d622-04fa-499b-a242-1cb85938d110"},"vehicle_type_id":"4","last_reported":1783232959,"current_range_meters":6800,"station_id":"ce4bhgp2rcd13ifvqfe0","pricing_plan_id":"cebpf4jnsgd1na2vs0mg"},{"bike_id":"f803775f-8fe2-4d7e-82f4-f1c4f606bb2a","system_id":"levelo_inurba_marseille","lat":43.28153,"lon":5.42654,"is_reserved":false,"is_disabled":false,"rental_uris":{"android":"levelo://app?vid=f803775f-8fe2-4d7e-82f4-f1c4f606bb2a","ios":"levelo://app?vid=f803775f-8fe2-4d7e-82f4-f1c4f606bb2a"},"vehicle_type_id":"4","last_reported":1783232959,"current_range_meters":6800,"station_id":"ce4bhnh2rcd13ifvqgug","pricing_plan_id":"cebpf4jnsgd1na2vs0mg"},{"bike_id":"7a71c416-c3b5-4289-ad0e-531bcb18f06d","system_id":"levelo_inurba_marseille","lat":43.33163,"lon":5.37696,"is_reserved":false,"is_disabled":false,"rental_uris":{"android":"levelo://app?vid=7a71c416-c3b5-4289-ad0e-531bcb18f06d","ios":"levelo://app?vid=7a71c416-c3b5-4289-ad0e-531bcb18f06d"},"vehicle_type_id":"4","last_reported":1783232959,"current_range_meters":6800,"station_id":"st_d46cu089ee8s73dldbu0","pricing_plan_id":"cebpf4jnsgd1na2vs0mg"},{"bike_id":"62f9c1b0-01ba-49cb-b2d3-2c1a1ace0e77","system_id":"levelo_inurba_marseille","lat":43.28687,"lon":5.39912,"is_reserved":false,"is_disabled":false,"rental_uris":{"android":"levelo://app?vid=62f9c1b0-01ba-49cb-b2d3-2c1a1ace0e77","ios":"levelo://app?vid=62f9c1b0-01ba-49cb-b2d3-2c1a1ace0e77"},"vehicle_type_id":"4","last_reported":1783232959,"current_range_meters":6800,"station_id":"","pricing_plan_id":"cebpf4jnsgd1na2vs0mg"},{"bike_id":"445d35b6-f643-469f-b414-9bd600d839a2","system_id":"levelo_inurba_marseille","lat":43.28363,"lon":5.38627,"is_reserved":false,"is_disabled":false,"rental_uris":{"android":"levelo://app?vid=445d35b6-f643-469f-b414-9bd600d839a2","ios":"levelo://app?vid=445d35b6-f643-469f-b414-9bd600d839a2"},"vehicle_type_id":"4","last_reported":1783232959,"current_range_meters":6800,"station_id":"ce4bh492rcd13ifvqdvg","pricing_plan_id":"cebpf4jnsgd1na2vs0mg"},{"bike_id":"defe664f-116a-400b-aa68-5aba6647b941","system_id":"levelo_inurba_marseille","lat":43.29303,"lon":5.44568,"is_reserved":false,"is_disabled":false,"rental_uris":{"android":"levelo://app?vid=defe664f-116a-400b-aa68-5aba6647b941","ios":"levelo://app?vid=defe664f-116a-400b-aa68-5aba6647b941"},"vehicle_type_id":"4","last_reported":1783232959,"current_range_meters":6800,"station_id":"","pricing_plan_id":"cebpf4jnsgd1na2vs0mg"},{"bike_id":"dbf64650-89eb-48b6-b9f2-72f63f8936ba","system_id":"levelo_inurba_marseille","lat":43.29171,"lon":5.37886,"is_reserved":false,"is_disabled":false,"rental_uris":{"android":"levelo://app?vid=dbf64650-89eb-48b6-b9f2-72f63f8936ba","ios":"levelo://app?vid=dbf64650-89eb-48b6-b9f2-72f63f8936ba"},"vehicle_type_id":"4","last_reported":1783232959,"current_range_meters":6800,"station_id":"","pricing_plan_id":"cebpf4jnsgd1na2vs0mg"},{"bike_id":"fd63a157-b735-4680-ab46-0b47304fd616","system_id":"levelo_inurba_marseille","lat":43.29618,"lon":5.37702,"is_reserved":false,"is_disabled":true,"rental_uris":{"android":"levelo://app?vid=fd63a157-b735-4680-ab46-0b47304fd616","ios":"levelo://app?vid=fd63a157-b735-4680-ab46-0b47304fd616"},"vehicle_type_id":"4","last_reported":1783232959,"current_range_meters":6800,"station_id":"ce4bgi92rcd13ifvqb90","pricing_plan_id":"cebpf4jnsgd1na2vs0mg"},{"bike_id":"ffea6b56-400a-490d-82be-58d6b97c6449","system_id":"levelo_inurba_marseille","lat":43.28862,"lon":5.42529,"is_reserved":false,"is_disabled":true,"rental_uris":{"android":"levelo://app?vid=ffea6b56-400a-490d-82be-58d6b97c6449","ios":"levelo://app?vid=ffea6b56-400a-490d-82be-58d6b97c6449"},"vehicle_type_id":"4","last_reported":1783232959,"current_range_meters":6800,"station_id":"st_d3b462108ojc7389ooeg","pricing_plan_id":"cebpf4jnsgd1na2vs0mg"},{"bike_id":"cde74f5c-4ec2-438c-8761-c7357f5c7eb6","system_id":"levelo_inurba_marseille","lat":43.2961,"lon":5.3671,"is_reserved":false,"is_disabled":true,"rental_uris":{"android":"levelo://app?vid=cde74f5c-4ec2-438c-8761-c7357f5c7eb6","ios":"levelo://app?vid=cde74f5c-4ec2-438c-8761-c7357f5c7eb6"},"vehicle_type_id":"4","last_reported":1783232959,"current_range_meters":6800,"station_id":"ce4bgph2rcd13ifvqc2g","pricing_plan_id":"cebpf4jnsgd1na2vs0mg"},{"bike_id":"abf8e30d-ac86-42fd-8f02-010fdd14dc34","system_id":"levelo_inurba_marseille","lat":43.28423,"lon":5.375,"is_reserved":false,"is_disabled":false,"rental_uris":{"android":"levelo://app?vid=abf8e30d-ac86-42fd-8f02-010fdd14dc34","ios":"levelo://app?vid=abf8e30d-ac86-42fd-8f02-010fdd14dc34"},"vehicle_type_id":"4","last_reported":1783232959,"current_range_meters":6800,"station_id":"ce4bh412rcd13ifvqds0","pricing_plan_id":"cebpf4jnsgd1na2vs0mg"},{"bike_id":"7fcca41e-2146-47b2-bf38-372ba8763a88","system_id":"levelo_inurba_marseille","lat":43.27987,"lon":5.41641,"is_reserved":false,"is_disabled":false,"rental_uris":{"android":"levelo://app?vid=7fcca41e-2146-47b2-bf38-372ba8763a88","ios":"levelo://app?vid=7fcca41e-2146-47b2-bf38-372ba8763a88"},"vehicle_type_id":"4","last_reported":1783232959,"current_range_meters":6800,"station_id":"ce4bho12rcd13ifvqh1g","pricing_plan_id":"cebpf4jnsgd1na2vs0mg"},{"bike_id":"6124ebb7-e1a6-4b69-928f-00eba5f13f01","system_id":"levelo_inurba_marseille","lat":43.30813,"lon":5.38171,"is_reserved":false,"is_disabled":false,"rental_uris":{"android":"levelo://app?vid=6124ebb7-e1a6-4b69-928f-00eba5f13f01","ios":"levelo://app?vid=6124ebb7-e1a6-4b69-928f-00eba5f13f01"},"vehicle_type_id":"4","last_reported":1783232959,"current_range_meters":6800,"station_id":"ce4bgt12rcd13ifvqce0","pricing_plan_id":"cebpf4jnsgd1na2vs0mg"},{"bike_id":"ffc3d1f4-2d9c-49e7-b9c6-239475b2640a","system_id":"levelo_inurba_marseille","lat":43.2848,"lon":5.38419,"is_reserved":false,"is_disabled":true,"rental_uris":{"android":"levelo://app?vid=ffc3d1f4-2d9c-49e7-b9c6-239475b2640a","ios":"levelo://app?vid=ffc3d1f4-2d9c-49e7-b9c6-239475b2640a"},"vehicle_type_id":"4","last_reported":1783232959,"current_range_meters":6800,"station_id":"ce4bh512rcd13ifvqe3g","pricing_plan_id":"cebpf4jnsgd1na2vs0mg"},{"bike_id":"9efeb665-6ac9-4e70-ba70-20bf3b204b4c","system_id":"levelo_inurba_marseille","lat":43.299059,"lon":5.381578,"is_reserved":false,"is_disabled":false,"rental_uris":{"android":"levelo://app?vid=9efeb665-6ac9-4e70-ba70-20bf3b204b4c","ios":"levelo://app?vid=9efeb665-6ac9-4e70-ba70-20bf3b204b4c"},"vehicle_type_id":"4","last_reported":1783232959,"current_range_meters":6800,"station_id":"ce4bgip2rcd13ifvqbb0","pricing_plan_id":"cebpf4jnsgd1na2vs0mg"},{"bike_id":"69e417ad-b027-4e19-ab2c-a27b60962176","system_id":"levelo_inurba_marseille","lat":43.33533,"lon":5.37461,"is_reserved":false,"is_disabled":false,"rental_uris":{"android":"levelo://app?vid=69e417ad-b027-4e19-ab2c-a27b60962176","ios":"levelo://app?vid=69e417ad-b027-4e19-ab2c-a27b60962176"},"vehicle_type_id":"4","last_reported":1783232959,"current_range_meters":6800,"station_id":"st_d46tts09ee8s73dlu43g","pricing_plan_id":"cebpf4jnsgd1na2vs0mg"},{"bike_id":"d455396b-25c8-4bf4-aa48-4df15ad83f7e","system_id":"levelo_inurba_marseille","lat":43.33867,"lon":5.34769,"is_reserved":false,"is_disabled":false,"rental_uris":{"android":"levelo://app?vid=d455396b-25c8-4bf4-aa48-4df15ad83f7e","ios":"levelo://app?vid=d455396b-25c8-4bf4-aa48-4df15ad83f7e"},"vehicle_type_id":"4","last_reported":1783232959,"current_range_meters":6800,"station_id":"","pricing_plan_id":"cebpf4jnsgd1na2vs0mg"},{"bike_id":"f5d895ef-c089-403e-ab80-fa5c68c05b11","system_id":"levelo_inurba_marseille","lat":43.29999,"lon":5.37183,"is_reserved":false,"is_disabled":false,"rental_uris":{"android":"levelo://app?vid=f5d895ef-c089-403e-ab80-fa5c68c05b11","ios":"levelo://app?vid=f5d895ef-c089-403e-ab80-fa5c68c05b11"},"vehicle_type_id":"4","last_reported":1783232959,"current_range_meters":7200,"station_id":"ce4bgr92rcd13ifvqc7g","pricing_plan_id":"cebpf4jnsgd1na2vs0mg"},{"bike_id":"e35ad478-7eab-476b-ba86-fccc630dec18","system_id":"levelo_inurba_marseille","lat":43.28374,"lon":5.38645,"is_reserved":false,"is_disabled":false,"rental_uris":{"android":"levelo://app?vid=e35ad478-7eab-476b-ba86-fccc630dec18","ios":"levelo://app?vid=e35ad478-7eab-476b-ba86-fccc630dec18"},"vehicle_type_id":"4","last_reported":1783232959,"current_range_meters":7200,"station_id":"ce4bh492rcd13ifvqdvg","pricing_plan_id":"cebpf4jnsgd1na2vs0mg"},{"bike_id":"73c9749d-17e8-4c63-a959-0525396ac1ef","system_id":"levelo_inurba_marseille","lat":43.29233,"lon":5.36063,"is_reserved":false,"is_disabled":false,"rental_uris":{"android":"levelo://app?vid=73c9749d-17e8-4c63-a959-0525396ac1ef","ios":"levelo://app?vid=73c9749d-17e8-4c63-a959-0525396ac1ef"},"vehicle_type_id":"4","last_reported":1783232959,"current_range_meters":7200,"station_id":"ce4bhbh2rcd13ifvqeqg","pricing_plan_id":"cebpf4jnsgd1na2vs0mg"},{"bike_id":"88634da4-5d5a-4c95-95d4-0e111a943869","system_id":"levelo_inurba_marseille","lat":43.32241,"lon":5.38305,"is_reserved":false,"is_disabled":false,"rental_uris":{"android":"levelo://app?vid=88634da4-5d5a-4c95-95d4-0e111a943869","ios":"levelo://app?vid=88634da4-5d5a-4c95-95d4-0e111a943869"},"vehicle_type_id":"4","last_reported":1783232959,"current_range_meters":7200,"station_id":"ce4bhr12rcd13ifvqhqg","pricing_plan_id":"cebpf4jnsgd1na2vs0mg"},{"bike_id":"250735b4-5b8b-4dc7-b190-cde8d2987c64","system_id":"levelo_inurba_marseille","lat":43.30641,"lon":5.40064,"is_reserved":false,"is_disabled":false,"rental_uris":{"android":"levelo://app?vid=250735b4-5b8b-4dc7-b190-cde8d2987c64","ios":"levelo://app?vid=250735b4-5b8b-4dc7-b190-cde8d2987c64"},"vehicle_type_id":"4","last_reported":1783232959,"current_range_meters":7200,"station_id":"ce4bh112rcd13ifvqda0","pricing_plan_id":"cebpf4jnsgd1na2vs0mg"},{"bike_id":"f367f910-3661-4ac3-ab63-2ce0e9051e44","system_id":"levelo_inurba_marseille","lat":43.30793,"lon":5.38152,"is_reserved":false,"is_disabled":false,"rental_uris":{"android":"levelo://app?vid=f367f910-3661-4ac3-ab63-2ce0e9051e44","ios":"levelo://app?vid=f367f910-3661-4ac3-ab63-2ce0e9051e44"},"vehicle_type_id":"4","last_reported":1783232959,"current_range_meters":7200,"station_id":"ce4bgt12rcd13ifvqce0","pricing_plan_id":"cebpf4jnsgd1na2vs0mg"},{"bike_id":"4d52a61b-5c30-41df-a6ac-71b42f016aed","system_id":"levelo_inurba_marseille","lat":43.25867,"lon":5.3992,"is_reserved":false,"is_disabled":true,"rental_uris":{"android":"levelo://app?vid=4d52a61b-5c30-41df-a6ac-71b42f016aed","ios":"levelo://app?vid=4d52a61b-5c30-41df-a6ac-71b42f016aed"},"vehicle_type_id":"4","last_reported":1783232959,"current_range_meters":7200,"station_id":"ce4bhl92rcd13ifvqghg","pricing_plan_id":"cebpf4jnsgd1na2vs0mg"},{"bike_id":"4d82d08a-3fea-47b8-876f-1ceabe5a1de9","system_id":"levelo_inurba_marseille","lat":43.3138,"lon":5.38497,"is_reserved":false,"is_disabled":false,"rental_uris":{"android":"levelo://app?vid=4d82d08a-3fea-47b8-876f-1ceabe5a1de9","ios":"levelo://app?vid=4d82d08a-3fea-47b8-876f-1ceabe5a1de9"},"vehicle_type_id":"4","last_reported":1783232959,"current_range_meters":7200,"station_id":"ce4bgt92rcd13ifvqcf0","pricing_plan_id":"cebpf4jnsgd1na2vs0mg"},{"bike_id":"00e9f481-d59a-48fd-9603-1a3e40938620","system_id":"levelo_inurba_marseille","lat":43.29923,"lon":5.38065,"is_reserved":false,"is_disabled":false,"rental_uris":{"android":"levelo://app?vid=00e9f481-d59a-48fd-9603-1a3e40938620","ios":"levelo://app?vid=00e9f481-d59a-48fd-9603-1a3e40938620"},"vehicle_type_id":"4","last_reported":1783232959,"current_range_meters":7200,"station_id":"","pricing_plan_id":"cebpf4jnsgd1na2vs0mg"},{"bike_id":"ff0495fe-fff3-492a-9f54-59b071111719","system_id":"levelo_inurba_marseille","lat":43.28615,"lon":5.39922,"is_reserved":false,"is_disabled":false,"rental_uris":{"android":"levelo://app?vid=ff0495fe-fff3-492a-9f54-59b071111719","ios":"levelo://app?vid=ff0495fe-fff3-492a-9f54-59b071111719"},"vehicle_type_id":"4","last_reported":1783232959,"current_range_meters":7200,"station_id":"st_d4a7ka997mjs738ck50g","pricing_plan_id":"cebpf4jnsgd1na2vs0mg"},{"bike_id":"cc738f32-f811-4e3f-b968-0bc0d7c9be0d","system_id":"levelo_inurba_marseille","lat":43.29252,"lon":5.40912,"is_reserved":false,"is_disabled":true,"rental_uris":{"android":"levelo://app?vid=cc738f32-f811-4e3f-b968-0bc0d7c9be0d","ios":"levelo://app?vid=cc738f32-f811-4e3f-b968-0bc0d7c9be0d"},"vehicle_type_id":"4","last_reported":1783232959,"current_range_meters":7200,"station_id":"ce4bh192rcd13ifvqdc0","pricing_plan_id":"cebpf4jnsgd1na2vs0mg"},{"bike_id":"c64fd8b2-f458-4a6e-88eb-895f5a6985c2","system_id":"levelo_inurba_marseille","lat":43.31434,"lon":5.39355,"is_reserved":false,"is_disabled":true,"rental_uris":{"android":"levelo://app?vid=c64fd8b2-f458-4a6e-88eb-895f5a6985c2","ios":"levelo://app?vid=c64fd8b2-f458-4a6e-88eb-895f5a6985c2"},"vehicle_type_id":"4","last_reported":1783232959,"current_range_meters":7200,"station_id":"","pricing_plan_id":"cebpf4jnsgd1na2vs0mg"},{"bike_id":"f205b214-eefc-41f1-bb62-8680c99661c5","system_id":"levelo_inurba_marseille","lat":43.30884,"lon":5.39637,"is_reserved":false,"is_disabled":true,"rental_uris":{"android":"levelo://app?vid=f205b214-eefc-41f1-bb62-8680c99661c5","ios":"levelo://app?vid=f205b214-eefc-41f1-bb62-8680c99661c5"},"vehicle_type_id":"4","last_reported":1783232959,"current_range_meters":7200,"station_id":"ce4bh012rcd13ifvqcv0","pricing_plan_id":"cebpf4jnsgd1na2vs0mg"},{"bike_id":"aaa3dfdf-fcd1-459c-95ce-08dab50b62f3","system_id":"levelo_inurba_marseille","lat":43.24673,"lon":5.40225,"is_reserved":false,"is_disabled":false,"rental_uris":{"android":"levelo://app?vid=aaa3dfdf-fcd1-459c-95ce-08dab50b62f3","ios":"levelo://app?vid=aaa3dfdf-fcd1-459c-95ce-08dab50b62f3"},"vehicle_type_id":"4","last_reported":1783232959,"current_range_meters":7200,"station_id":"","pricing_plan_id":"cebpf4jnsgd1na2vs0mg"},{"bike_id":"921da4bc-30af-4d4e-b765-6d63bf2b9f36","system_id":"levelo_inurba_marseille","lat":43.30142,"lon":5.38766,"is_reserved":false,"is_disabled":false,"rental_uris":{"android":"levelo://app?vid=921da4bc-30af-4d4e-b765-6d63bf2b9f36","ios":"levelo://app?vid=921da4bc-30af-4d4e-b765-6d63bf2b9f36"},"vehicle_type_id":"4","last_reported":1783232959,"current_range_meters":7200,"station_id":"ce4bghh2rcd13ifvqb60","pricing_plan_id":"cebpf4jnsgd1na2vs0mg"},{"bike_id":"768e8e3e-0842-420d-b2e7-10d6a3a8af06","system_id":"levelo_inurba_marseille","lat":43.30461,"lon":5.37901,"is_reserved":false,"is_disabled":false,"rental_uris":{"android":"levelo://app?vid=768e8e3e-0842-420d-b2e7-10d6a3a8af06","ios":"levelo://app?vid=768e8e3e-0842-420d-b2e7-10d6a3a8af06"},"vehicle_type_id":"4","last_reported":1783232959,"current_range_meters":7200,"station_id":"ce4bgup2rcd13ifvqcn0","pricing_plan_id":"cebpf4jnsgd1na2vs0mg"},{"bike_id":"2a8f592d-3ebd-4853-bf23-1a2cca68a093","system_id":"levelo_inurba_marseille","lat":43.27056,"lon":5.38545,"is_reserved":false,"is_disabled":false,"rental_uris":{"android":"levelo://app?vid=2a8f592d-3ebd-4853-bf23-1a2cca68a093","ios":"levelo://app?vid=2a8f592d-3ebd-4853-bf23-1a2cca68a093"},"vehicle_type_id":"4","last_reported":1783232959,"current_range_meters":7200,"station_id":"","pricing_plan_id":"cebpf4jnsgd1na2vs0mg"},{"bike_id":"790cbdf8-0e04-4146-a15e-83cc366e9a7d","system_id":"levelo_inurba_marseille","lat":43.30187,"lon":5.36619,"is_reserved":false,"is_disabled":false,"rental_uris":{"android":"levelo://app?vid=790cbdf8-0e04-4146-a15e-83cc366e9a7d","ios":"levelo://app?vid=790cbdf8-0e04-4146-a15e-83cc366e9a7d"},"vehicle_type_id":"4","last_reported":1783232959,"current_range_meters":7200,"station_id":"ce4bgrh2rcd13ifvqc8g","pricing_plan_id":"cebpf4jnsgd1na2vs0mg"},{"bike_id":"74c027a4-4b67-40ff-a2fc-35f79d498796","system_id":"levelo_inurba_marseille","lat":43.2922,"lon":5.36017,"is_reserved":false,"is_disabled":true,"rental_uris":{"android":"levelo://app?vid=74c027a4-4b67-40ff-a2fc-35f79d498796","ios":"levelo://app?vid=74c027a4-4b67-40ff-a2fc-35f79d498796"},"vehicle_type_id":"4","last_reported":1783232959,"current_range_meters":7200,"station_id":"ce4bhbh2rcd13ifvqeqg","pricing_plan_id":"cebpf4jnsgd1na2vs0mg"},{"bike_id":"ed5c7db6-f8ab-4b3b-8e18-9436ad688be6","system_id":"levelo_inurba_marseille","lat":43.28607,"lon":5.37069,"is_reserved":false,"is_disabled":false,"rental_uris":{"android":"levelo://app?vid=ed5c7db6-f8ab-4b3b-8e18-9436ad688be6","ios":"levelo://app?vid=ed5c7db6-f8ab-4b3b-8e18-9436ad688be6"},"vehicle_type_id":"4","last_reported":1783232959,"current_range_meters":7200,"station_id":"ce4bht12rcd13ifvqi60","pricing_plan_id":"cebpf4jnsgd1na2vs0mg"},{"bike_id":"a12a4f83-c050-4064-a9cd-bf7775a31f2f","system_id":"levelo_inurba_marseille","lat":43.24678,"lon":5.38169,"is_reserved":false,"is_disabled":true,"rental_uris":{"android":"levelo://app?vid=a12a4f83-c050-4064-a9cd-bf7775a31f2f","ios":"levelo://app?vid=a12a4f83-c050-4064-a9cd-bf7775a31f2f"},"vehicle_type_id":"4","last_reported":1783232959,"current_range_meters":7200,"station_id":"ce4bhih2rcd13ifvqfr0","pricing_plan_id":"cebpf4jnsgd1na2vs0mg"},{"bike_id":"95e2c5d3-ee09-417b-93c0-7f04fa895ada","system_id":"levelo_inurba_marseille","lat":43.31912,"lon":5.37361,"is_reserved":false,"is_disabled":false,"rental_uris":{"android":"levelo://app?vid=95e2c5d3-ee09-417b-93c0-7f04fa895ada","ios":"levelo://app?vid=95e2c5d3-ee09-417b-93c0-7f04fa895ada"},"vehicle_type_id":"4","last_reported":1783232959,"current_range_meters":7200,"station_id":"","pricing_plan_id":"cebpf4jnsgd1na2vs0mg"},{"bike_id":"4c4f4324-932b-4b24-a2d7-6ec00f37d749","system_id":"levelo_inurba_marseille","lat":43.30803,"lon":5.38152,"is_reserved":false,"is_disabled":false,"rental_uris":{"android":"levelo://app?vid=4c4f4324-932b-4b24-a2d7-6ec00f37d749","ios":"levelo://app?vid=4c4f4324-932b-4b24-a2d7-6ec00f37d749"},"vehicle_type_id":"4","last_reported":1783232959,"current_range_meters":7200,"station_id":"ce4bgt12rcd13ifvqce0","pricing_plan_id":"cebpf4jnsgd1na2vs0mg"},{"bike_id":"a1f32e76-4126-4796-9783-810ced54e16b","system_id":"levelo_inurba_marseille","lat":43.29815,"lon":5.404,"is_reserved":false,"is_disabled":false,"rental_uris":{"android":"levelo://app?vid=a1f32e76-4126-4796-9783-810ced54e16b","ios":"levelo://app?vid=a1f32e76-4126-4796-9783-810ced54e16b"},"vehicle_type_id":"4","last_reported":1783232959,"current_range_meters":7200,"station_id":"ce4bh112rcd13ifvqd90","pricing_plan_id":"cebpf4jnsgd1na2vs0mg"},{"bike_id":"7c427d21-5ba3-47e9-b621-2ca7d29df3d2","system_id":"levelo_inurba_marseille","lat":43.28459,"lon":5.43714,"is_reserved":false,"is_disabled":false,"rental_uris":{"android":"levelo://app?vid=7c427d21-5ba3-47e9-b621-2ca7d29df3d2","ios":"levelo://app?vid=7c427d21-5ba3-47e9-b621-2ca7d29df3d2"},"vehicle_type_id":"4","last_reported":1783232959,"current_range_meters":7200,"station_id":"","pricing_plan_id":"cebpf4jnsgd1na2vs0mg"},{"bike_id":"75ebe46d-92d1-4961-ac06-6553a761dcd0","system_id":"levelo_inurba_marseille","lat":43.305431,"lon":5.365512,"is_reserved":false,"is_disabled":false,"rental_uris":{"android":"levelo://app?vid=75ebe46d-92d1-4961-ac06-6553a761dcd0","ios":"levelo://app?vid=75ebe46d-92d1-4961-ac06-6553a761dcd0"},"vehicle_type_id":"4","last_reported":1783232959,"current_range_meters":7200,"station_id":"ce4bgs12rcd13ifvqcag","pricing_plan_id":"cebpf4jnsgd1na2vs0mg"},{"bike_id":"42768633-cdff-4643-9ae6-164a5e9274b2","system_id":"levelo_inurba_marseille","lat":43.31102,"lon":5.37788,"is_reserved":false,"is_disabled":false,"rental_uris":{"android":"levelo://app?vid=42768633-cdff-4643-9ae6-164a5e9274b2","ios":"levelo://app?vid=42768633-cdff-4643-9ae6-164a5e9274b2"},"vehicle_type_id":"4","last_reported":1783232959,"current_range_meters":8000,"station_id":"ce4bgt92rcd13ifvqcg0","pricing_plan_id":"cebpf4jnsgd1na2vs0mg"},{"bike_id":"76c09f68-5105-4134-a436-86d70e396fc7","system_id":"levelo_inurba_marseille","lat":43.31338,"lon":5.39697,"is_reserved":false,"is_disabled":false,"rental_uris":{"android":"levelo://app?vid=76c09f68-5105-4134-a436-86d70e396fc7","ios":"levelo://app?vid=76c09f68-5105-4134-a436-86d70e396fc7"},"vehicle_type_id":"4","last_reported":1783232959,"current_range_meters":8000,"station_id":"ce4bgvp2rcd13ifvqcu0","pricing_plan_id":"cebpf4jnsgd1na2vs0mg"},{"bike_id":"7353a5db-0b63-416d-abba-7495d0ab1bab","system_id":"levelo_inurba_marseille","lat":43.306,"lon":5.37237,"is_reserved":false,"is_disabled":false,"rental_uris":{"android":"levelo://app?vid=7353a5db-0b63-416d-abba-7495d0ab1bab","ios":"levelo://app?vid=7353a5db-0b63-416d-abba-7495d0ab1bab"},"vehicle_type_id":"4","last_reported":1783232959,"current_range_meters":8000,"station_id":"ce4bgqh2rcd13ifvqc4g","pricing_plan_id":"cebpf4jnsgd1na2vs0mg"},{"bike_id":"38360f99-2bce-4f28-bc36-3bc8367dcc77","system_id":"levelo_inurba_marseille","lat":43.302907,"lon":5.377195,"is_reserved":false,"is_disabled":false,"rental_uris":{"android":"levelo://app?vid=38360f99-2bce-4f28-bc36-3bc8367dcc77","ios":"levelo://app?vid=38360f99-2bce-4f28-bc36-3bc8367dcc77"},"vehicle_type_id":"4","last_reported":1783232959,"current_range_meters":8000,"station_id":"ce4bgqh2rcd13ifvqc5g","pricing_plan_id":"cebpf4jnsgd1na2vs0mg"},{"bike_id":"3d8be496-fd64-46b6-b0ea-5fd84539cd45","system_id":"levelo_inurba_marseille","lat":43.30675,"lon":5.40071,"is_reserved":false,"is_disabled":false,"rental_uris":{"android":"levelo://app?vid=3d8be496-fd64-46b6-b0ea-5fd84539cd45","ios":"levelo://app?vid=3d8be496-fd64-46b6-b0ea-5fd84539cd45"},"vehicle_type_id":"4","last_reported":1783232959,"current_range_meters":8000,"station_id":"ce4bh112rcd13ifvqda0","pricing_plan_id":"cebpf4jnsgd1na2vs0mg"},{"bike_id":"d38bd415-3d0a-4a55-b982-afd00c9a112e","system_id":"levelo_inurba_marseille","lat":43.31335,"lon":5.39725,"is_reserved":false,"is_disabled":false,"rental_uris":{"android":"levelo://app?vid=d38bd415-3d0a-4a55-b982-afd00c9a112e","ios":"levelo://app?vid=d38bd415-3d0a-4a55-b982-afd00c9a112e"},"vehicle_type_id":"4","last_reported":1783232959,"current_range_meters":8000,"station_id":"ce4bgvp2rcd13ifvqcu0","pricing_plan_id":"cebpf4jnsgd1na2vs0mg"},{"bike_id":"8220ecc2-6bf9-4e7d-8a35-6858c0daf5f4","system_id":"levelo_inurba_marseille","lat":43.21192,"lon":5.35069,"is_reserved":false,"is_disabled":false,"rental_uris":{"android":"levelo://app?vid=8220ecc2-6bf9-4e7d-8a35-6858c0daf5f4","ios":"levelo://app?vid=8220ecc2-6bf9-4e7d-8a35-6858c0daf5f4"},"vehicle_type_id":"4","last_reported":1783232959,"current_range_meters":8000,"station_id":"st_cvj6sg6p6f1abm77japg","pricing_plan_id":"cebpf4jnsgd1na2vs0mg"},{"bike_id":"91897732-dbdc-424a-a954-e3ede6e562ab","system_id":"levelo_inurba_marseille","lat":43.29264,"lon":5.38435,"is_reserved":false,"is_disabled":false,"rental_uris":{"android":"levelo://app?vid=91897732-dbdc-424a-a954-e3ede6e562ab","ios":"levelo://app?vid=91897732-dbdc-424a-a954-e3ede6e562ab"},"vehicle_type_id":"4","last_reported":1783232959,"current_range_meters":8000,"station_id":"ce4bh692rcd13ifvqea0","pricing_plan_id":"cebpf4jnsgd1na2vs0mg"},{"bike_id":"d542e80b-c621-4744-a175-6c723a1aa866","system_id":"levelo_inurba_marseille","lat":43.29296,"lon":5.44523,"is_reserved":false,"is_disabled":false,"rental_uris":{"android":"levelo://app?vid=d542e80b-c621-4744-a175-6c723a1aa866","ios":"levelo://app?vid=d542e80b-c621-4744-a175-6c723a1aa866"},"vehicle_type_id":"4","last_reported":1783232959,"current_range_meters":8000,"station_id":"","pricing_plan_id":"cebpf4jnsgd1na2vs0mg"},{"bike_id":"f56c5a55-490f-470f-bccd-8a878283165b","system_id":"levelo_inurba_marseille","lat":43.31791,"lon":5.36818,"is_reserved":false,"is_disabled":false,"rental_uris":{"android":"levelo://app?vid=f56c5a55-490f-470f-bccd-8a878283165b","ios":"levelo://app?vid=f56c5a55-490f-470f-bccd-8a878283165b"},"vehicle_type_id":"4","last_reported":1783232959,"current_range_meters":8000,"station_id":"","pricing_plan_id":"cebpf4jnsgd1na2vs0mg"},{"bike_id":"3892050e-cb6a-457e-90e6-5def440715fd","system_id":"levelo_inurba_marseille","lat":43.28705,"lon":5.46688,"is_reserved":false,"is_disabled":false,"rental_uris":{"android":"levelo://app?vid=3892050e-cb6a-457e-90e6-5def440715fd","ios":"levelo://app?vid=3892050e-cb6a-457e-90e6-5def440715fd"},"vehicle_type_id":"4","last_reported":1783232959,"current_range_meters":8000,"station_id":"st_d6tc3vkotcvc738tfjhg","pricing_plan_id":"cebpf4jnsgd1na2vs0mg"},{"bike_id":"66f64495-157d-434d-a3ef-5a17f45e04e3","system_id":"levelo_inurba_marseille","lat":43.24123,"lon":5.41004,"is_reserved":false,"is_disabled":false,"rental_uris":{"android":"levelo://app?vid=66f64495-157d-434d-a3ef-5a17f45e04e3","ios":"levelo://app?vid=66f64495-157d-434d-a3ef-5a17f45e04e3"},