{"last_updated":1757718535,"ttl":60,"version":"2.2","data":{"bikes":[{"bike_id":"8892aeee-a9d9-4fba-80e3-3e95e13fe015","system_id":"levelo_inurba_marseille","lat":43.30804,"lon":5.43522,"is_reserved":false,"is_disabled":true,"rental_uris":{"android":"levelo://app?vid=8892aeee-a9d9-4fba-80e3-3e95e13fe015","ios":"levelo://app?vid=8892aeee-a9d9-4fba-80e3-3e95e13fe015"},"vehicle_type_id":"4","last_reported":1757718535,"current_range_meters":2800,"station_id":"ce4bhph2rcd13ifvqheg","pricing_plan_id":"cebpf4jnsgd1na2vs0mg"},{"bike_id":"f96b701e-7897-4097-85fe-b03340fba83d","system_id":"levelo_inurba_marseille","lat":43.295353,"lon":5.385429,"is_reserved":false,"is_disabled":true,"rental_uris":{"android":"levelo://app?vid=f96b701e-7897-4097-85fe-b03340fba83d","ios":"levelo://app?vid=f96b701e-7897-4097-85fe-b03340fba83d"},"vehicle_type_id":"4","last_reported":1757718535,"current_range_meters":3200,"station_id":"ce4bgih2rcd13ifvqba0","pricing_plan_id":"cebpf4jnsgd1na2vs0mg"},{"bike_id":"a43e72fe-69d9-4ead-8a51-6f17d3558021","system_id":"levelo_inurba_marseille","lat":43.22573,"lon":5.41633,"is_reserved":false,"is_disabled":false,"rental_uris":{"android":"levelo://app?vid=a43e72fe-69d9-4ead-8a51-6f17d3558021","ios":"levelo://app?vid=a43e72fe-69d9-4ead-8a51-6f17d3558021"},"vehicle_type_id":"4","last_reported":1757718535,"current_range_meters":3200,"station_id":"st_d2o4gvlbi1j2169b742g","pricing_plan_id":"cebpf4jnsgd1na2vs0mg"},{"bike_id":"fcda51fd-c787-43e5-82c3-c8578711573c","system_id":"levelo_inurba_marseille","lat":43.30928,"lon":5.36694,"is_reserved":false,"is_disabled":false,"rental_uris":{"android":"levelo://app?vid=fcda51fd-c787-43e5-82c3-c8578711573c","ios":"levelo://app?vid=fcda51fd-c787-43e5-82c3-c8578711573c"},"vehicle_type_id":"4","last_reported":1757718535,"current_range_meters":3200,"station_id":"","pricing_plan_id":"cebpf4jnsgd1na2vs0mg"},{"bike_id":"8d0b09c4-79c5-479a-9ea3-5ecc5d381d18","system_id":"levelo_inurba_marseille","lat":43.28075,"lon":5.39657,"is_reserved":false,"is_disabled":false,"rental_uris":{"android":"levelo://app?vid=8d0b09c4-79c5-479a-9ea3-5ecc5d381d18","ios":"levelo://app?vid=8d0b09c4-79c5-479a-9ea3-5ecc5d381d18"},"vehicle_type_id":"4","last_reported":1757718535,"current_range_meters":3200,"station_id":"ce4bho12rcd13ifvqh2g","pricing_plan_id":"cebpf4jnsgd1na2vs0mg"},{"bike_id":"36997ca6-bcc3-4eb8-8443-99e312f7a119","system_id":"levelo_inurba_marseille","lat":43.30641,"lon":5.40109,"is_reserved":false,"is_disabled":false,"rental_uris":{"android":"levelo://app?vid=36997ca6-bcc3-4eb8-8443-99e312f7a119","ios":"levelo://app?vid=36997ca6-bcc3-4eb8-8443-99e312f7a119"},"vehicle_type_id":"4","last_reported":1757718535,"current_range_meters":3200,"station_id":"ce4bh112rcd13ifvqda0","pricing_plan_id":"cebpf4jnsgd1na2vs0mg"},{"bike_id":"885201bb-4b20-436c-82a5-5d655a75e50e","system_id":"levelo_inurba_marseille","lat":43.33626,"lon":5.36237,"is_reserved":false,"is_disabled":false,"rental_uris":{"android":"levelo://app?vid=885201bb-4b20-436c-82a5-5d655a75e50e","ios":"levelo://app?vid=885201bb-4b20-436c-82a5-5d655a75e50e"},"vehicle_type_id":"4","last_reported":1757718535,"current_range_meters":3200,"station_id":"","pricing_plan_id":"cebpf4jnsgd1na2vs0mg"},{"bike_id":"36b9f779-e0e4-415c-bcf6-4fb85f8b5482","system_id":"levelo_inurba_marseille","lat":43.24812,"lon":5.37458,"is_reserved":false,"is_disabled":false,"rental_uris":{"android":"levelo://app?vid=36b9f779-e0e4-415c-bcf6-4fb85f8b5482","ios":"levelo://app?vid=36b9f779-e0e4-415c-bcf6-4fb85f8b5482"},"vehicle_type_id":"4","last_reported":1757718535,"current_range_meters":3200,"station_id":"ce4bhgh2rcd13ifvqfb0","pricing_plan_id":"cebpf4jnsgd1na2vs0mg"},{"bike_id":"be991777-0a36-436a-9880-deda5bbd9572","system_id":"levelo_inurba_marseille","lat":43.280942,"lon":5.407121,"is_reserved":false,"is_disabled":false,"rental_uris":{"android":"levelo://app?vid=be991777-0a36-436a-9880-deda5bbd9572","ios":"levelo://app?vid=be991777-0a36-436a-9880-deda5bbd9572"},"vehicle_type_id":"4","last_reported":1757718535,"current_range_meters":3600,"station_id":"","pricing_plan_id":"cebpf4jnsgd1na2vs0mg"},{"bike_id":"7c89a88c-611f-45ce-af74-ef2df70dd7a5","system_id":"levelo_inurba_marseille","lat":43.28858,"lon":5.35849,"is_reserved":false,"is_disabled":false,"rental_uris":{"android":"levelo://app?vid=7c89a88c-611f-45ce-af74-ef2df70dd7a5","ios":"levelo://app?vid=7c89a88c-611f-45ce-af74-ef2df70dd7a5"},"vehicle_type_id":"4","last_reported":1757718535,"current_range_meters":4000,"station_id":"ce4bhb12rcd13ifvqem0","pricing_plan_id":"cebpf4jnsgd1na2vs0mg"},{"bike_id":"d3d2a43f-c498-4abc-82ce-a39672257ccc","system_id":"levelo_inurba_marseille","lat":43.2707,"lon":5.4227,"is_reserved":false,"is_disabled":true,"rental_uris":{"android":"levelo://app?vid=d3d2a43f-c498-4abc-82ce-a39672257ccc","ios":"levelo://app?vid=d3d2a43f-c498-4abc-82ce-a39672257ccc"},"vehicle_type_id":"4","last_reported":1757718535,"current_range_meters":4000,"station_id":"ce4bhk92rcd13ifvqgb0","pricing_plan_id":"cebpf4jnsgd1na2vs0mg"},{"bike_id":"9c3a2073-bc98-42a1-a691-0a7b7be57bf8","system_id":"levelo_inurba_marseille","lat":43.29526,"lon":5.36371,"is_reserved":false,"is_disabled":false,"rental_uris":{"android":"levelo://app?vid=9c3a2073-bc98-42a1-a691-0a7b7be57bf8","ios":"levelo://app?vid=9c3a2073-bc98-42a1-a691-0a7b7be57bf8"},"vehicle_type_id":"4","last_reported":1757718535,"current_range_meters":4000,"station_id":"","pricing_plan_id":"cebpf4jnsgd1na2vs0mg"},{"bike_id":"be317cd7-4396-4b85-a68a-f1b29098a499","system_id":"levelo_inurba_marseille","lat":43.294653,"lon":5.384602,"is_reserved":false,"is_disabled":false,"rental_uris":{"android":"levelo://app?vid=be317cd7-4396-4b85-a68a-f1b29098a499","ios":"levelo://app?vid=be317cd7-4396-4b85-a68a-f1b29098a499"},"vehicle_type_id":"4","last_reported":1757718535,"current_range_meters":4400,"station_id":"","pricing_plan_id":"cebpf4jnsgd1na2vs0mg"},{"bike_id":"7be9dae7-e2ed-4b00-ba43-0b3b6bac116e","system_id":"levelo_inurba_marseille","lat":43.29764,"lon":5.37119,"is_reserved":false,"is_disabled":false,"rental_uris":{"android":"levelo://app?vid=7be9dae7-e2ed-4b00-ba43-0b3b6bac116e","ios":"levelo://app?vid=7be9dae7-e2ed-4b00-ba43-0b3b6bac116e"},"vehicle_type_id":"4","last_reported":1757718535,"current_range_meters":4400,"station_id":"ce4bgop2rcd13ifvqc1g","pricing_plan_id":"cebpf4jnsgd1na2vs0mg"},{"bike_id":"7f34d3be-70f7-4af0-9578-addff9a1a7c4","system_id":"levelo_inurba_marseille","lat":43.26868,"lon":5.40656,"is_reserved":false,"is_disabled":true,"rental_uris":{"android":"levelo://app?vid=7f34d3be-70f7-4af0-9578-addff9a1a7c4","ios":"levelo://app?vid=7f34d3be-70f7-4af0-9578-addff9a1a7c4"},"vehicle_type_id":"4","last_reported":1757718535,"current_range_meters":4400,"station_id":"","pricing_plan_id":"cebpf4jnsgd1na2vs0mg"},{"bike_id":"de41831f-1383-4c07-837b-2009251864cd","system_id":"levelo_inurba_marseille","lat":43.22561,"lon":5.41631,"is_reserved":false,"is_disabled":false,"rental_uris":{"android":"levelo://app?vid=de41831f-1383-4c07-837b-2009251864cd","ios":"levelo://app?vid=de41831f-1383-4c07-837b-2009251864cd"},"vehicle_type_id":"4","last_reported":1757718535,"current_range_meters":4400,"station_id":"st_d2o4gvlbi1j2169b742g","pricing_plan_id":"cebpf4jnsgd1na2vs0mg"},{"bike_id":"2f90fbdf-e2db-444f-928b-42e117670f18","system_id":"levelo_inurba_marseille","lat":43.337608,"lon":5.374358,"is_reserved":false,"is_disabled":false,"rental_uris":{"android":"levelo://app?vid=2f90fbdf-e2db-444f-928b-42e117670f18","ios":"levelo://app?vid=2f90fbdf-e2db-444f-928b-42e117670f18"},"vehicle_type_id":"4","last_reported":1757718535,"current_range_meters":4800,"station_id":"","pricing_plan_id":"cebpf4jnsgd1na2vs0mg"},{"bike_id":"6627b7c8-d245-498c-97ae-1bca49ecd6d9","system_id":"levelo_inurba_marseille","lat":43.32078,"lon":5.44776,"is_reserved":false,"is_disabled":false,"rental_uris":{"android":"levelo://app?vid=6627b7c8-d245-498c-97ae-1bca49ecd6d9","ios":"levelo://app?vid=6627b7c8-d245-498c-97ae-1bca49ecd6d9"},"vehicle_type_id":"4","last_reported":1757718535,"current_range_meters":4800,"station_id":"","pricing_plan_id":"cebpf4jnsgd1na2vs0mg"},{"bike_id":"c5c5955e-98bd-435e-a3f0-077a3ad783d0","system_id":"levelo_inurba_marseille","lat":43.28914,"lon":5.43099,"is_reserved":false,"is_disabled":false,"rental_uris":{"android":"levelo://app?vid=c5c5955e-98bd-435e-a3f0-077a3ad783d0","ios":"levelo://app?vid=c5c5955e-98bd-435e-a3f0-077a3ad783d0"},"vehicle_type_id":"4","last_reported":1757718535,"current_range_meters":4800,"station_id":"","pricing_plan_id":"cebpf4jnsgd1na2vs0mg"},{"bike_id":"315f6d98-31f6-42c7-abb6-65132eb7e8aa","system_id":"levelo_inurba_marseille","lat":43.307849,"lon":5.376552,"is_reserved":false,"is_disabled":false,"rental_uris":{"android":"levelo://app?vid=315f6d98-31f6-42c7-abb6-65132eb7e8aa","ios":"levelo://app?vid=315f6d98-31f6-42c7-abb6-65132eb7e8aa"},"vehicle_type_id":"4","last_reported":1757718535,"current_range_meters":4800,"station_id":"ce4bgv92rcd13ifvqcq0","pricing_plan_id":"cebpf4jnsgd1na2vs0mg"},{"bike_id":"c14ddda8-05f2-4275-9b78-7f7a5455b6b9","system_id":"levelo_inurba_marseille","lat":43.307778,"lon":5.373844,"is_reserved":false,"is_disabled":false,"rental_uris":{"android":"levelo://app?vid=c14ddda8-05f2-4275-9b78-7f7a5455b6b9","ios":"levelo://app?vid=c14ddda8-05f2-4275-9b78-7f7a5455b6b9"},"vehicle_type_id":"4","last_reported":1757718535,"current_range_meters":5600,"station_id":"","pricing_plan_id":"cebpf4jnsgd1na2vs0mg"},{"bike_id":"cf105b11-284b-4069-9cc8-23d47273f853","system_id":"levelo_inurba_marseille","lat":43.25449,"lon":5.37667,"is_reserved":false,"is_disabled":false,"rental_uris":{"android":"levelo://app?vid=cf105b11-284b-4069-9cc8-23d47273f853","ios":"levelo://app?vid=cf105b11-284b-4069-9cc8-23d47273f853"},"vehicle_type_id":"4","last_reported":1757718535,"current_range_meters":5600,"station_id":"","pricing_plan_id":"cebpf4jnsgd1na2vs0mg"},{"bike_id":"7ca9c8c0-0ba1-46c1-82d7-00280a54cffe","system_id":"levelo_inurba_marseille","lat":43.30467,"lon":5.3751,"is_reserved":false,"is_disabled":false,"rental_uris":{"android":"levelo://app?vid=7ca9c8c0-0ba1-46c1-82d7-00280a54cffe","ios":"levelo://app?vid=7ca9c8c0-0ba1-46c1-82d7-00280a54cffe"},"vehicle_type_id":"4","last_reported":1757718535,"current_range_meters":5600,"station_id":"","pricing_plan_id":"cebpf4jnsgd1na2vs0mg"},{"bike_id":"ba666e14-03a7-4e39-9ce6-b555719a1137","system_id":"levelo_inurba_marseille","lat":43.24182,"lon":5.39728,"is_reserved":false,"is_disabled":false,"rental_uris":{"android":"levelo://app?vid=ba666e14-03a7-4e39-9ce6-b555719a1137","ios":"levelo://app?vid=ba666e14-03a7-4e39-9ce6-b555719a1137"},"vehicle_type_id":"4","last_reported":1757718535,"current_range_meters":5600,"station_id":"ce4bhn12rcd13ifvqgpg","pricing_plan_id":"cebpf4jnsgd1na2vs0mg"},{"bike_id":"97514a44-1f4d-4ae1-a270-04ca7b75c621","system_id":"levelo_inurba_marseille","lat":43.28868,"lon":5.42522,"is_reserved":false,"is_disabled":false,"rental_uris":{"android":"levelo://app?vid=97514a44-1f4d-4ae1-a270-04ca7b75c621","ios":"levelo://app?vid=97514a44-1f4d-4ae1-a270-04ca7b75c621"},"vehicle_type_id":"4","last_reported":1757718535,"current_range_meters":6000,"station_id":"","pricing_plan_id":"cebpf4jnsgd1na2vs0mg"},{"bike_id":"aad2a0b7-64d0-4afd-8375-af56eb254148","system_id":"levelo_inurba_marseille","lat":43.23963,"lon":5.3663,"is_reserved":false,"is_disabled":false,"rental_uris":{"android":"levelo://app?vid=aad2a0b7-64d0-4afd-8375-af56eb254148","ios":"levelo://app?vid=aad2a0b7-64d0-4afd-8375-af56eb254148"},"vehicle_type_id":"4","last_reported":1757718535,"current_range_meters":6000,"station_id":"ce4bhi12rcd13ifvqfp0","pricing_plan_id":"cebpf4jnsgd1na2vs0mg"},{"bike_id":"5c3b8324-4f47-40ae-b829-94061268861d","system_id":"levelo_inurba_marseille","lat":43.22584,"lon":5.41636,"is_reserved":false,"is_disabled":false,"rental_uris":{"android":"levelo://app?vid=5c3b8324-4f47-40ae-b829-94061268861d","ios":"levelo://app?vid=5c3b8324-4f47-40ae-b829-94061268861d"},"vehicle_type_id":"4","last_reported":1757718535,"current_range_meters":6000,"station_id":"st_d2o4gvlbi1j2169b742g","pricing_plan_id":"cebpf4jnsgd1na2vs0mg"},{"bike_id":"aacee71c-24fe-4f80-8f2e-f53b32fc07fb","system_id":"levelo_inurba_marseille","lat":43.2678,"lon":5.39416,"is_reserved":false,"is_disabled":false,"rental_uris":{"android":"levelo://app?vid=aacee71c-24fe-4f80-8f2e-f53b32fc07fb","ios":"levelo://app?vid=aacee71c-24fe-4f80-8f2e-f53b32fc07fb"},"vehicle_type_id":"4","last_reported":1757718535,"current_range_meters":6400,"station_id":"ce4bhh12rcd13ifvqfg0","pricing_plan_id":"cebpf4jnsgd1na2vs0mg"},{"bike_id":"4931aba7-cde1-44c9-a7e9-05ea81f948dc","system_id":"levelo_inurba_marseille","lat":43.29193,"lon":5.39315,"is_reserved":false,"is_disabled":false,"rental_uris":{"android":"levelo://app?vid=4931aba7-cde1-44c9-a7e9-05ea81f948dc","ios":"levelo://app?vid=4931aba7-cde1-44c9-a7e9-05ea81f948dc"},"vehicle_type_id":"4","last_reported":1757718535,"current_range_meters":6400,"station_id":"ce4bh192rcd13ifvqdd0","pricing_plan_id":"cebpf4jnsgd1na2vs0mg"},{"bike_id":"44d4c041-58e0-40ce-9a68-4591219aef55","system_id":"levelo_inurba_marseille","lat":43.27943,"lon":5.41047,"is_reserved":false,"is_disabled":false,"rental_uris":{"android":"levelo://app?vid=44d4c041-58e0-40ce-9a68-4591219aef55","ios":"levelo://app?vid=44d4c041-58e0-40ce-9a68-4591219aef55"},"vehicle_type_id":"4","last_reported":1757718535,"current_range_meters":6400,"station_id":"ce4bhnp2rcd13ifvqh0g","pricing_plan_id":"cebpf4jnsgd1na2vs0mg"},{"bike_id":"9863dacd-4366-4082-b436-bc2561ea2ab1","system_id":"levelo_inurba_marseille","lat":43.248095,"lon":5.374574,"is_reserved":false,"is_disabled":false,"rental_uris":{"android":"levelo://app?vid=9863dacd-4366-4082-b436-bc2561ea2ab1","ios":"levelo://app?vid=9863dacd-4366-4082-b436-bc2561ea2ab1"},"vehicle_type_id":"4","last_reported":1757718535,"current_range_meters":6400,"station_id":"ce4bhgh2rcd13ifvqfb0","pricing_plan_id":"cebpf4jnsgd1na2vs0mg"},{"bike_id":"9ef26e0c-6f01-4b10-90fe-cec11146e852","system_id":"levelo_inurba_marseille","lat":43.31032,"lon":5.37296,"is_reserved":false,"is_disabled":false,"rental_uris":{"android":"levelo://app?vid=9ef26e0c-6f01-4b10-90fe-cec11146e852","ios":"levelo://app?vid=9ef26e0c-6f01-4b10-90fe-cec11146e852"},"vehicle_type_id":"4","last_reported":1757718535,"current_range_meters":6800,"station_id":"","pricing_plan_id":"cebpf4jnsgd1na2vs0mg"},{"bike_id":"156d00f8-389c-42d2-b8f1-ec13ca69d7b1","system_id":"levelo_inurba_marseille","lat":43.303073,"lon":5.392067,"is_reserved":false,"is_disabled":true,"rental_uris":{"android":"levelo://app?vid=156d00f8-389c-42d2-b8f1-ec13ca69d7b1","ios":"levelo://app?vid=156d00f8-389c-42d2-b8f1-ec13ca69d7b1"},"vehicle_type_id":"4","last_reported":1757718535,"current_range_meters":6800,"station_id":"ce4bgkh2rcd13ifvqbk0","pricing_plan_id":"cebpf4jnsgd1na2vs0mg"},{"bike_id":"1ebefbfd-624a-4358-a5fd-1364730669fd","system_id":"levelo_inurba_marseille","lat":43.32041,"lon":5.41557,"is_reserved":false,"is_disabled":false,"rental_uris":{"android":"levelo://app?vid=1ebefbfd-624a-4358-a5fd-1364730669fd","ios":"levelo://app?vid=1ebefbfd-624a-4358-a5fd-1364730669fd"},"vehicle_type_id":"4","last_reported":1757718535,"current_range_meters":7200,"station_id":"ce4bhq92rcd13ifvqhkg","pricing_plan_id":"cebpf4jnsgd1na2vs0mg"},{"bike_id":"ecb15787-cf17-46d2-a042-e308afb942c9","system_id":"levelo_inurba_marseille","lat":43.26682,"lon":5.38264,"is_reserved":false,"is_disabled":false,"rental_uris":{"android":"levelo://app?vid=ecb15787-cf17-46d2-a042-e308afb942c9","ios":"levelo://app?vid=ecb15787-cf17-46d2-a042-e308afb942c9"},"vehicle_type_id":"4","last_reported":1757718535,"current_range_meters":7200,"station_id":"ce4bhg92rcd13ifvqf90","pricing_plan_id":"cebpf4jnsgd1na2vs0mg"},{"bike_id":"85bd5459-5b3c-423c-90a5-65977c644259","system_id":"levelo_inurba_marseille","lat":43.22537,"lon":5.34835,"is_reserved":false,"is_disabled":true,"rental_uris":{"android":"levelo://app?vid=85bd5459-5b3c-423c-90a5-65977c644259","ios":"levelo://app?vid=85bd5459-5b3c-423c-90a5-65977c644259"},"vehicle_type_id":"4","last_reported":1757718535,"current_range_meters":7200,"station_id":"","pricing_plan_id":"cebpf4jnsgd1na2vs0mg"},{"bike_id":"ca6d52f9-f537-4238-b982-81aca0a31600","system_id":"levelo_inurba_marseille","lat":43.30227,"lon":5.45377,"is_reserved":false,"is_disabled":false,"rental_uris":{"android":"levelo://app?vid=ca6d52f9-f537-4238-b982-81aca0a31600","ios":"levelo://app?vid=ca6d52f9-f537-4238-b982-81aca0a31600"},"vehicle_type_id":"4","last_reported":1757718535,"current_range_meters":7200,"station_id":"","pricing_plan_id":"cebpf4jnsgd1na2vs0mg"},{"bike_id":"c04e0261-d77f-4c1b-b97a-a6d7e222cd69","system_id":"levelo_inurba_marseille","lat":43.30129,"lon":5.3987,"is_reserved":false,"is_disabled":false,"rental_uris":{"android":"levelo://app?vid=c04e0261-d77f-4c1b-b97a-a6d7e222cd69","ios":"levelo://app?vid=c04e0261-d77f-4c1b-b97a-a6d7e222cd69"},"vehicle_type_id":"4","last_reported":1757718535,"current_range_meters":8000,"station_id":"ce4bh0h2rcd13ifvqd40","pricing_plan_id":"cebpf4jnsgd1na2vs0mg"},{"bike_id":"8e823669-a05c-4f14-a05f-6373bb94f16b","system_id":"levelo_inurba_marseille","lat":43.307288,"lon":5.372792,"is_reserved":false,"is_disabled":false,"rental_uris":{"android":"levelo://app?vid=8e823669-a05c-4f14-a05f-6373bb94f16b","ios":"levelo://app?vid=8e823669-a05c-4f14-a05f-6373bb94f16b"},"vehicle_type_id":"4","last_reported":1757718535,"current_range_meters":8000,"station_id":"","pricing_plan_id":"cebpf4jnsgd1na2vs0mg"},{"bike_id":"25b06ca6-59f6-4cab-9a2f-ece142030779","system_id":"levelo_inurba_marseille","lat":43.25076,"lon":5.39502,"is_reserved":false,"is_disabled":false,"rental_uris":{"android":"levelo://app?vid=25b06ca6-59f6-4cab-9a2f-ece142030779","ios":"levelo://app?vid=25b06ca6-59f6-4cab-9a2f-ece142030779"},"vehicle_type_id":"4","last_reported":1757718535,"current_range_meters":8000,"station_id":"ce4bhm12rcd13ifvqgkg","pricing_plan_id":"cebpf4jnsgd1na2vs0mg"},{"bike_id":"fe8d88d6-81c3-42a8-85bb-3d0aa4841db3","system_id":"levelo_inurba_marseille","lat":43.337444,"lon":5.374475,"is_reserved":false,"is_disabled":false,"rental_uris":{"android":"levelo://app?vid=fe8d88d6-81c3-42a8-85bb-3d0aa4841db3","ios":"levelo://app?vid=fe8d88d6-81c3-42a8-85bb-3d0aa4841db3"},"vehicle_type_id":"4","last_reported":1757718535,"current_range_meters":8000,"station_id":"","pricing_plan_id":"cebpf4jnsgd1na2vs0mg"},{"bike_id":"d1de2b7d-3583-4df3-8bfa-43eda5116068","system_id":"levelo_inurba_marseille","lat":43.3374,"lon":5.37468,"is_reserved":false,"is_disabled":false,"rental_uris":{"android":"levelo://app?vid=d1de2b7d-3583-4df3-8bfa-43eda5116068","ios":"levelo://app?vid=d1de2b7d-3583-4df3-8bfa-43eda5116068"},"vehicle_type_id":"4","last_reported":1757718535,"current_range_meters":8000,"station_id":"","pricing_plan_id":"cebpf4jnsgd1na2vs0mg"},{"bike_id":"d1208639-5703-4ac3-a303-6e72a5788218","system_id":"levelo_inurba_marseille","lat":43.33753,"lon":5.37475,"is_reserved":false,"is_disabled":false,"rental_uris":{"android":"levelo://app?vid=d1208639-5703-4ac3-a303-6e72a5788218","ios":"levelo://app?vid=d1208639-5703-4ac3-a303-6e72a5788218"},"vehicle_type_id":"4","last_reported":1757718535,"current_range_meters":8000,"station_id":"","pricing_plan_id":"cebpf4jnsgd1na2vs0mg"},{"bike_id":"60b2d016-2ccf-41aa-9293-dd665af26767","system_id":"levelo_inurba_marseille","lat":43.297101,"lon":5.377007,"is_reserved":false,"is_disabled":false,"rental_uris":{"android":"levelo://app?vid=60b2d016-2ccf-41aa-9293-dd665af26767","ios":"levelo://app?vid=60b2d016-2ccf-41aa-9293-dd665af26767"},"vehicle_type_id":"4","last_reported":1757718535,"current_range_meters":8400,"station_id":"","pricing_plan_id":"cebpf4jnsgd1na2vs0mg"},{"bike_id":"0a180902-13a6-4de2-a6fc-e04d96d9b351","system_id":"levelo_inurba_marseille","lat":43.28943,"lon":5.38372,"is_reserved":false,"is_disabled":true,"rental_uris":{"android":"levelo://app?vid=0a180902-13a6-4de2-a6fc-e04d96d9b351","ios":"levelo://app?vid=0a180902-13a6-4de2-a6fc-e04d96d9b351"},"vehicle_type_id":"4","last_reported":1757718535,"current_range_meters":8400,"station_id":"ce4bh612rcd13ifvqe6g","pricing_plan_id":"cebpf4jnsgd1na2vs0mg"},{"bike_id":"d29cceff-9e03-4662-927a-ddd341b0cf16","system_id":"levelo_inurba_marseille","lat":43.25867,"lon":5.39898,"is_reserved":false,"is_disabled":false,"rental_uris":{"android":"levelo://app?vid=d29cceff-9e03-4662-927a-ddd341b0cf16","ios":"levelo://app?vid=d29cceff-9e03-4662-927a-ddd341b0cf16"},"vehicle_type_id":"4","last_reported":1757718535,"current_range_meters":8400,"station_id":"ce4bhl92rcd13ifvqghg","pricing_plan_id":"cebpf4jnsgd1na2vs0mg"},{"bike_id":"b8e144fd-4129-4d03-ab97-a5290c844a49","system_id":"levelo_inurba_marseille","lat":43.29886,"lon":5.3973,"is_reserved":false,"is_disabled":false,"rental_uris":{"android":"levelo://app?vid=b8e144fd-4129-4d03-ab97-a5290c844a49","ios":"levelo://app?vid=b8e144fd-4129-4d03-ab97-a5290c844a49"},"vehicle_type_id":"4","last_reported":1757718535,"current_range_meters":8400,"station_id":"ce4bh0h2rcd13ifvqd50","pricing_plan_id":"cebpf4jnsgd1na2vs0mg"},{"bike_id":"e5a74d17-11b1-4f5b-bf75-a9249f1d2450","system_id":"levelo_inurba_marseille","lat":43.28615,"lon":5.35106,"is_reserved":false,"is_disabled":false,"rental_uris":{"android":"levelo://app?vid=e5a74d17-11b1-4f5b-bf75-a9249f1d2450","ios":"levelo://app?vid=e5a74d17-11b1-4f5b-bf75-a9249f1d2450"},"vehicle_type_id":"4","last_reported":1757718535,"current_range_meters":8400,"station_id":"ce4bhch2rcd13ifvqeug","pricing_plan_id":"cebpf4jnsgd1na2vs0mg"},{"bike_id":"c43f22e8-e199-4bcf-85bb-c6b208e1bdeb","system_id":"levelo_inurba_marseille","lat":43.309148,"lon":5.368628,"is_reserved":false,"is_disabled":true,"rental_uris":{"android":"levelo://app?vid=c43f22e8-e199-4bcf-85bb-c6b208e1bdeb","ios":"levelo://app?vid=c43f22e8-e199-4bcf-85bb-c6b208e1bdeb"},"vehicle_type_id":"4","last_reported":1757718535,"current_range_meters":8000,"station_id":"ce4bgn92rcd13ifvqbvg","pricing_plan_id":"cebpf4jnsgd1na2vs0mg"},{"bike_id":"3f479393-b68c-4670-955a-363c0730b726","system_id":"levelo_inurba_marseille","lat":43.30889,"lon":5.39661,"is_reserved":false,"is_disabled":false,"rental_uris":{"android":"levelo://app?vid=3f479393-b68c-4670-955a-363c0730b726","ios":"levelo://app?vid=3f479393-b68c-4670-955a-363c0730b726"},"vehicle_type_id":"4","last_reported":1757718535,"current_range_meters":8400,"station_id":"ce4bh012rcd13ifvqcv0","pricing_plan_id":"cebpf4jnsgd1na2vs0mg"},{"bike_id":"500ae009-e915-4f34-927a-56b5b681cde9","system_id":"levelo_inurba_marseille","lat":43.28359,"lon":5.38103,"is_reserved":false,"is_disabled":false,"rental_uris":{"android":"levelo://app?vid=500ae009-e915-4f34-927a-56b5b681cde9","ios":"levelo://app?vid=500ae009-e915-4f34-927a-56b5b681cde9"},"vehicle_type_id":"4","last_reported":1757718535,"current_range_meters":16800,"station_id":"ce4bh412rcd13ifvqdr0","pricing_plan_id":"cebpf4jnsgd1na2vs0mg"},{"bike_id":"234132cc-f511-4a9b-8e06-08c5f5b083a3","system_id":"levelo_inurba_marseille","lat":43.29852,"lon":5.38344,"is_reserved":false,"is_disabled":false,"rental_uris":{"android":"levelo://app?vid=234132cc-f511-4a9b-8e06-08c5f5b083a3","ios":"levelo://app?vid=234132cc-f511-4a9b-8e06-08c5f5b083a3"},"vehicle_type_id":"4","last_reported":1757718535,"current_range_meters":8400,"station_id":"","pricing_plan_id":"cebpf4jnsgd1na2vs0mg"},{"bike_id":"d0334b27-b17d-4a5e-99e1-314311f8805e","system_id":"levelo_inurba_marseille","lat":43.30217,"lon":5.39482,"is_reserved":false,"is_disabled":false,"rental_uris":{"android":"levelo://app?vid=d0334b27-b17d-4a5e-99e1-314311f8805e","ios":"levelo://app?vid=d0334b27-b17d-4a5e-99e1-314311f8805e"},"vehicle_type_id":"4","last_reported":1757718535,"current_range_meters":8400,"station_id":"ce4bh0p2rcd13ifvqd70","pricing_plan_id":"cebpf4jnsgd1na2vs0mg"},{"bike_id":"966fccfb-edf5-45b0-8efd-ce67125d4a08","system_id":"levelo_inurba_marseille","lat":43.30032,"lon":5.37816,"is_reserved":false,"is_disabled":false,"rental_uris":{"android":"levelo://app?vid=966fccfb-edf5-45b0-8efd-ce67125d4a08","ios":"levelo://app?vid=966fccfb-edf5-45b0-8efd-ce67125d4a08"},"vehicle_type_id":"4","last_reported":1757718535,"current_range_meters":8800,"station_id":"","pricing_plan_id":"cebpf4jnsgd1na2vs0mg"},{"bike_id":"7740586c-1ce5-4bd6-a5f0-d3382dd2764f","system_id":"levelo_inurba_marseille","lat":43.29302,"lon":5.37459,"is_reserved":false,"is_disabled":false,"rental_uris":{"android":"levelo://app?vid=7740586c-1ce5-4bd6-a5f0-d3382dd2764f","ios":"levelo://app?vid=7740586c-1ce5-4bd6-a5f0-d3382dd2764f"},"vehicle_type_id":"4","last_reported":1757718535,"current_range_meters":8800,"station_id":"ce4bgi12rcd13ifvqb70","pricing_plan_id":"cebpf4jnsgd1na2vs0mg"},{"bike_id":"0cb75114-0cdc-4d6a-874f-a3e13043b225","system_id":"levelo_inurba_marseille","lat":43.28995,"lon":5.35635,"is_reserved":false,"is_disabled":false,"rental_uris":{"android":"levelo://app?vid=0cb75114-0cdc-4d6a-874f-a3e13043b225","ios":"levelo://app?vid=0cb75114-0cdc-4d6a-874f-a3e13043b225"},"vehicle_type_id":"4","last_reported":1757718535,"current_range_meters":8800,"station_id":"ce4bhb92rcd13ifvqen0","pricing_plan_id":"cebpf4jnsgd1na2vs0mg"},{"bike_id":"9b15f3a6-e2d6-4649-8776-8a0a670d80a7","system_id":"levelo_inurba_marseille","lat":43.28615,"lon":5.35105,"is_reserved":false,"is_disabled":false,"rental_uris":{"android":"levelo://app?vid=9b15f3a6-e2d6-4649-8776-8a0a670d80a7","ios":"levelo://app?vid=9b15f3a6-e2d6-4649-8776-8a0a670d80a7"},"vehicle_type_id":"4","last_reported":1757718535,"current_range_meters":8800,"station_id":"ce4bhch2rcd13ifvqeug","pricing_plan_id":"cebpf4jnsgd1na2vs0mg"},{"bike_id":"54868907-63ea-40a5-8f3a-4ac6edb4c05c","system_id":"levelo_inurba_marseille","lat":43.29211,"lon":5.37842,"is_reserved":false,"is_disabled":false,"rental_uris":{"android":"levelo://app?vid=54868907-63ea-40a5-8f3a-4ac6edb4c05c","ios":"levelo://app?vid=54868907-63ea-40a5-8f3a-4ac6edb4c05c"},"vehicle_type_id":"4","last_reported":1757718535,"current_range_meters":8800,"station_id":"","pricing_plan_id":"cebpf4jnsgd1na2vs0mg"},{"bike_id":"7f2d99f8-e0cf-4b94-aabd-9730b3325ed6","system_id":"levelo_inurba_marseille","lat":43.28722,"lon":5.37944,"is_reserved":false,"is_disabled":false,"rental_uris":{"android":"levelo://app?vid=7f2d99f8-e0cf-4b94-aabd-9730b3325ed6","ios":"levelo://app?vid=7f2d99f8-e0cf-4b94-aabd-9730b3325ed6"},"vehicle_type_id":"4","last_reported":1757718535,"current_range_meters":8800,"station_id":"ce4bh9p2rcd13ifvqec0","pricing_plan_id":"cebpf4jnsgd1na2vs0mg"},{"bike_id":"02967f80-b1f7-4072-a56a-61747b6c2878","system_id":"levelo_inurba_marseille","lat":43.30604,"lon":5.37227,"is_reserved":false,"is_disabled":false,"rental_uris":{"android":"levelo://app?vid=02967f80-b1f7-4072-a56a-61747b6c2878","ios":"levelo://app?vid=02967f80-b1f7-4072-a56a-61747b6c2878"},"vehicle_type_id":"4","last_reported":1757718535,"current_range_meters":8800,"station_id":"ce4bgqh2rcd13ifvqc4g","pricing_plan_id":"cebpf4jnsgd1na2vs0mg"},{"bike_id":"77332836-4209-4e6e-8fc7-12ac34e7f249","system_id":"levelo_inurba_marseille","lat":43.2861,"lon":5.35103,"is_reserved":false,"is_disabled":false,"rental_uris":{"android":"levelo://app?vid=77332836-4209-4e6e-8fc7-12ac34e7f249","ios":"levelo://app?vid=77332836-4209-4e6e-8fc7-12ac34e7f249"},"vehicle_type_id":"4","last_reported":1757718535,"current_range_meters":9200,"station_id":"ce4bhch2rcd13ifvqeug","pricing_plan_id":"cebpf4jnsgd1na2vs0mg"},{"bike_id":"2c391566-752c-4551-9bfc-d1b085699401","system_id":"levelo_inurba_marseille","lat":43.27321,"lon":5.39086,"is_reserved":false,"is_disabled":true,"rental_uris":{"android":"levelo://app?vid=2c391566-752c-4551-9bfc-d1b085699401","ios":"levelo://app?vid=2c391566-752c-4551-9bfc-d1b085699401"},"vehicle_type_id":"4","last_reported":1757718535,"current_range_meters":9200,"station_id":"ce4bhgp2rcd13ifvqfe0","pricing_plan_id":"cebpf4jnsgd1na2vs0mg"},{"bike_id":"7db384a7-4267-4cd8-b9e7-7ca132b3d121","system_id":"levelo_inurba_marseille","lat":43.33885,"lon":5.3555,"is_reserved":false,"is_disabled":false,"rental_uris":{"android":"levelo://app?vid=7db384a7-4267-4cd8-b9e7-7ca132b3d121","ios":"levelo://app?vid=7db384a7-4267-4cd8-b9e7-7ca132b3d121"},"vehicle_type_id":"4","last_reported":1757718535,"current_range_meters":9200,"station_id":"","pricing_plan_id":"cebpf4jnsgd1na2vs0mg"},{"bike_id":"069b0fee-af69-4958-a06e-d0bd95d527ee","system_id":"levelo_inurba_marseille","lat":43.21192,"lon":5.35073,"is_reserved":false,"is_disabled":false,"rental_uris":{"android":"levelo://app?vid=069b0fee-af69-4958-a06e-d0bd95d527ee","ios":"levelo://app?vid=069b0fee-af69-4958-a06e-d0bd95d527ee"},"vehicle_type_id":"4","last_reported":1757718535,"current_range_meters":9200,"station_id":"","pricing_plan_id":"cebpf4jnsgd1na2vs0mg"},{"bike_id":"a04909f0-8cf2-4881-9eb9-dc7d2fda7c17","system_id":"levelo_inurba_marseille","lat":43.28939,"lon":5.364,"is_reserved":false,"is_disabled":false,"rental_uris":{"android":"levelo://app?vid=a04909f0-8cf2-4881-9eb9-dc7d2fda7c17","ios":"levelo://app?vid=a04909f0-8cf2-4881-9eb9-dc7d2fda7c17"},"vehicle_type_id":"4","last_reported":1757718535,"current_range_meters":9200,"station_id":"ce4bhc92rcd13ifvqetg","pricing_plan_id":"cebpf4jnsgd1na2vs0mg"},{"bike_id":"5cd91922-cbda-48b3-a1f5-22dfa8cca674","system_id":"levelo_inurba_marseille","lat":43.31699,"lon":5.40476,"is_reserved":false,"is_disabled":false,"rental_uris":{"android":"levelo://app?vid=5cd91922-cbda-48b3-a1f5-22dfa8cca674","ios":"levelo://app?vid=5cd91922-cbda-48b3-a1f5-22dfa8cca674"},"vehicle_type_id":"4","last_reported":1757718535,"current_range_meters":9200,"station_id":"ce4bh012rcd13ifvqd00","pricing_plan_id":"cebpf4jnsgd1na2vs0mg"},{"bike_id":"bde43026-5ee2-4507-a34f-7aaa01267faa","system_id":"levelo_inurba_marseille","lat":43.27202,"lon":5.38954,"is_reserved":false,"is_disabled":true,"rental_uris":{"android":"levelo://app?vid=bde43026-5ee2-4507-a34f-7aaa01267faa","ios":"levelo://app?vid=bde43026-5ee2-4507-a34f-7aaa01267faa"},"vehicle_type_id":"4","last_reported":1757718535,"current_range_meters":9600,"station_id":"","pricing_plan_id":"cebpf4jnsgd1na2vs0mg"},{"bike_id":"981db5db-5691-4e42-9b95-5cb97bdaa65e","system_id":"levelo_inurba_marseille","lat":43.2842,"lon":5.37515,"is_reserved":false,"is_disabled":false,"rental_uris":{"android":"levelo://app?vid=981db5db-5691-4e42-9b95-5cb97bdaa65e","ios":"levelo://app?vid=981db5db-5691-4e42-9b95-5cb97bdaa65e"},"vehicle_type_id":"4","last_reported":1757718535,"current_range_meters":9600,"station_id":"ce4bh412rcd13ifvqds0","pricing_plan_id":"cebpf4jnsgd1na2vs0mg"},{"bike_id":"ba2f1959-ad57-4458-adbd-b14fbb1b820f","system_id":"levelo_inurba_marseille","lat":43.3372,"lon":5.39186,"is_reserved":false,"is_disabled":true,"rental_uris":{"android":"levelo://app?vid=ba2f1959-ad57-4458-adbd-b14fbb1b820f","ios":"levelo://app?vid=ba2f1959-ad57-4458-adbd-b14fbb1b820f"},"vehicle_type_id":"4","last_reported":1757718535,"current_range_meters":9600,"station_id":"ce4bhr92rcd13ifvqhsg","pricing_plan_id":"cebpf4jnsgd1na2vs0mg"},{"bike_id":"e04d2d8d-78c9-4355-b924-3245571f27d7","system_id":"levelo_inurba_marseille","lat":43.29079,"lon":5.37172,"is_reserved":false,"is_disabled":false,"rental_uris":{"android":"levelo://app?vid=e04d2d8d-78c9-4355-b924-3245571f27d7","ios":"levelo://app?vid=e04d2d8d-78c9-4355-b924-3245571f27d7"},"vehicle_type_id":"4","last_reported":1757718535,"current_range_meters":9600,"station_id":"ce4bh5p2rcd13ifvqe4g","pricing_plan_id":"cebpf4jnsgd1na2vs0mg"},{"bike_id":"82491e25-e9b9-4c3b-b7c4-d51bc2758b25","system_id":"levelo_inurba_marseille","lat":43.33734,"lon":5.39183,"is_reserved":false,"is_disabled":true,"rental_uris":{"android":"levelo://app?vid=82491e25-e9b9-4c3b-b7c4-d51bc2758b25","ios":"levelo://app?vid=82491e25-e9b9-4c3b-b7c4-d51bc2758b25"},"vehicle_type_id":"4","last_reported":1757718535,"current_range_meters":9600,"station_id":"ce4bhr92rcd13ifvqhsg","pricing_plan_id":"cebpf4jnsgd1na2vs0mg"},{"bike_id":"3bd595b7-af3b-43b1-8697-1bcb2a61af6f","system_id":"levelo_inurba_marseille","lat":43.27988,"lon":5.4001,"is_reserved":false,"is_disabled":true,"rental_uris":{"android":"levelo://app?vid=3bd595b7-af3b-43b1-8697-1bcb2a61af6f","ios":"levelo://app?vid=3bd595b7-af3b-43b1-8697-1bcb2a61af6f"},"vehicle_type_id":"4","last_reported":1757718535,"current_range_meters":9600,"station_id":"ce4bho92rcd13ifvqh4g","pricing_plan_id":"cebpf4jnsgd1na2vs0mg"},{"bike_id":"5a947efa-6b53-4f73-a8ef-fadbfb417a96","system_id":"levelo_inurba_marseille","lat":43.28663,"lon":5.3636,"is_reserved":false,"is_disabled":false,"rental_uris":{"android":"levelo://app?vid=5a947efa-6b53-4f73-a8ef-fadbfb417a96","ios":"levelo://app?vid=5a947efa-6b53-4f73-a8ef-fadbfb417a96"},"vehicle_type_id":"4","last_reported":1757718535,"current_range_meters":9600,"station_id":"ce4bhah2rcd13ifvqej0","pricing_plan_id":"cebpf4jnsgd1na2vs0mg"},{"bike_id":"7fa34ec0-a293-418f-bfd5-6e8a3d326e13","system_id":"levelo_inurba_marseille","lat":43.30996,"lon":5.37518,"is_reserved":false,"is_disabled":false,"rental_uris":{"android":"levelo://app?vid=7fa34ec0-a293-418f-bfd5-6e8a3d326e13","ios":"levelo://app?vid=7fa34ec0-a293-418f-bfd5-6e8a3d326e13"},"vehicle_type_id":"4","last_reported":1757718535,"current_range_meters":9600,"station_id":"","pricing_plan_id":"cebpf4jnsgd1na2vs0mg"},{"bike_id":"2d12160b-3c0f-4c34-a9aa-739445a1affc","system_id":"levelo_inurba_marseille","lat":43.29203,"lon":5.39333,"is_reserved":false,"is_disabled":false,"rental_uris":{"android":"levelo://app?vid=2d12160b-3c0f-4c34-a9aa-739445a1affc","ios":"levelo://app?vid=2d12160b-3c0f-4c34-a9aa-739445a1affc"},"vehicle_type_id":"4","last_reported":1757718535,"current_range_meters":9600,"station_id":"ce4bh192rcd13ifvqdd0","pricing_plan_id":"cebpf4jnsgd1na2vs0mg"},{"bike_id":"ced5462d-ee0d-4d22-a76c-c1aecf6c99da","system_id":"levelo_inurba_marseille","lat":43.24397,"lon":5.37072,"is_reserved":false,"is_disabled":true,"rental_uris":{"android":"levelo://app?vid=ced5462d-ee0d-4d22-a76c-c1aecf6c99da","ios":"levelo://app?vid=ced5462d-ee0d-4d22-a76c-c1aecf6c99da"},"vehicle_type_id":"4","last_reported":1757718535,"current_range_meters":9600,"station_id":"ce4bhhh2rcd13ifvqfk0","pricing_plan_id":"cebpf4jnsgd1na2vs0mg"},{"bike_id":"1dd15c6f-ac67-4f62-b926-19ea80cb6a79","system_id":"levelo_inurba_marseille","lat":43.30891,"lon":5.37191,"is_reserved":false,"is_disabled":false,"rental_uris":{"android":"levelo://app?vid=1dd15c6f-ac67-4f62-b926-19ea80cb6a79","ios":"levelo://app?vid=1dd15c6f-ac67-4f62-b926-19ea80cb6a79"},"vehicle_type_id":"4","last_reported":1757718535,"current_range_meters":10000,"station_id":"ce4bguh2rcd13ifvqckg","pricing_plan_id":"cebpf4jnsgd1na2vs0mg"},{"bike_id":"300794c4-b199-425d-a36b-62fdf5cf91c7","system_id":"levelo_inurba_marseille","lat":43.28109,"lon":5.37849,"is_reserved":false,"is_disabled":false,"rental_uris":{"android":"levelo://app?vid=300794c4-b199-425d-a36b-62fdf5cf91c7","ios":"levelo://app?vid=300794c4-b199-425d-a36b-62fdf5cf91c7"},"vehicle_type_id":"4","last_reported":1757718535,"current_range_meters":10000,"station_id":"ce4bha12rcd13ifvqee0","pricing_plan_id":"cebpf4jnsgd1na2vs0mg"},{"bike_id":"b9292363-f8d5-4c4b-b6f1-5aedcff86eb1","system_id":"levelo_inurba_marseille","lat":43.2953,"lon":5.38543,"is_reserved":false,"is_disabled":false,"rental_uris":{"android":"levelo://app?vid=b9292363-f8d5-4c4b-b6f1-5aedcff86eb1","ios":"levelo://app?vid=b9292363-f8d5-4c4b-b6f1-5aedcff86eb1"},"vehicle_type_id":"4","last_reported":1757718535,"current_range_meters":10000,"station_id":"ce4bgih2rcd13ifvqba0","pricing_plan_id":"cebpf4jnsgd1na2vs0mg"},{"bike_id":"646ced27-1dd9-4cf2-85e7-6d56dd885835","system_id":"levelo_inurba_marseille","lat":43.2886,"lon":5.35857,"is_reserved":false,"is_disabled":false,"rental_uris":{"android":"levelo://app?vid=646ced27-1dd9-4cf2-85e7-6d56dd885835","ios":"levelo://app?vid=646ced27-1dd9-4cf2-85e7-6d56dd885835"},"vehicle_type_id":"4","last_reported":1757718535,"current_range_meters":10000,"station_id":"ce4bhb12rcd13ifvqem0","pricing_plan_id":"cebpf4jnsgd1na2vs0mg"},{"bike_id":"0e0c8dec-1a42-46dd-bb35-7088192ded70","system_id":"levelo_inurba_marseille","lat":43.29745,"lon":5.37156,"is_reserved":false,"is_disabled":false,"rental_uris":{"android":"levelo://app?vid=0e0c8dec-1a42-46dd-bb35-7088192ded70","ios":"levelo://app?vid=0e0c8dec-1a42-46dd-bb35-7088192ded70"},"vehicle_type_id":"4","last_reported":1757718535,"current_range_meters":10800,"station_id":"","pricing_plan_id":"cebpf4jnsgd1na2vs0mg"},{"bike_id":"e0a47ffa-0cad-408c-96af-bc4ad9c798d9","system_id":"levelo_inurba_marseille","lat":43.24185,"lon":5.36394,"is_reserved":false,"is_disabled":false,"rental_uris":{"android":"levelo://app?vid=e0a47ffa-0cad-408c-96af-bc4ad9c798d9","ios":"levelo://app?vid=e0a47ffa-0cad-408c-96af-bc4ad9c798d9"},"vehicle_type_id":"4","last_reported":1757718535,"current_range_meters":10800,"station_id":"cpo36qri1sfpv3e86is0","pricing_plan_id":"cebpf4jnsgd1na2vs0mg"},{"bike_id":"e77461fd-9a53-40b2-b8aa-bd1c93db50c1","system_id":"levelo_inurba_marseille","lat":43.32359,"lon":5.38173,"is_reserved":false,"is_disabled":false,"rental_uris":{"android":"levelo://app?vid=e77461fd-9a53-40b2-b8aa-bd1c93db50c1","ios":"levelo://app?vid=e77461fd-9a53-40b2-b8aa-bd1c93db50c1"},"vehicle_type_id":"4","last_reported":1757718535,"current_range_meters":10800,"station_id":"","pricing_plan_id":"cebpf4jnsgd1na2vs0mg"},{"bike_id":"4d7c223f-2439-4e88-bc34-342812ce1f1f","system_id":"levelo_inurba_marseille","lat":43.292582,"lon":5.409116,"is_reserved":false,"is_disabled":false,"rental_uris":{"android":"levelo://app?vid=4d7c223f-2439-4e88-bc34-342812ce1f1f","ios":"levelo://app?vid=4d7c223f-2439-4e88-bc34-342812ce1f1f"},"vehicle_type_id":"4","last_reported":1757718535,"current_range_meters":10800,"station_id":"ce4bh192rcd13ifvqdc0","pricing_plan_id":"cebpf4jnsgd1na2vs0mg"},{"bike_id":"b0f2aaf4-4e39-4c7a-b9f5-3a739f8bdaa5","system_id":"levelo_inurba_marseille","lat":43.28482,"lon":5.38445,"is_reserved":false,"is_disabled":true,"rental_uris":{"android":"levelo://app?vid=b0f2aaf4-4e39-4c7a-b9f5-3a739f8bdaa5","ios":"levelo://app?vid=b0f2aaf4-4e39-4c7a-b9f5-3a739f8bdaa5"},"vehicle_type_id":"4","last_reported":1757718535,"current_range_meters":10800,"station_id":"ce4bh512rcd13ifvqe3g","pricing_plan_id":"cebpf4jnsgd1na2vs0mg"},{"bike_id":"a517806c-63f2-4bef-9aea-7d0f3ac6d4a8","system_id":"levelo_inurba_marseille","lat":43.32366,"lon":5.38882,"is_reserved":false,"is_disabled":false,"rental_uris":{"android":"levelo://app?vid=a517806c-63f2-4bef-9aea-7d0f3ac6d4a8","ios":"levelo://app?vid=a517806c-63f2-4bef-9aea-7d0f3ac6d4a8"},"vehicle_type_id":"4","last_reported":1757718535,"current_range_meters":18800,"station_id":"ce4bhqp2rcd13ifvqhog","pricing_plan_id":"cebpf4jnsgd1na2vs0mg"},{"bike_id":"68422fda-945c-402d-b886-a4fecef0c346","system_id":"levelo_inurba_marseille","lat":43.29165,"lon":5.37151,"is_reserved":false,"is_disabled":true,"rental_uris":{"android":"levelo://app?vid=68422fda-945c-402d-b886-a4fecef0c346","ios":"levelo://app?vid=68422fda-945c-402d-b886-a4fecef0c346"},"vehicle_type_id":"4","last_reported":1757718535,"current_range_meters":10800,"station_id":"ce4bha92rcd13ifvqeh0","pricing_plan_id":"cebpf4jnsgd1na2vs0mg"},{"bike_id":"0947db53-2358-4a3e-83a7-23d1b28dc77c","system_id":"levelo_inurba_marseille","lat":43.25872,"lon":5.39892,"is_reserved":false,"is_disabled":false,"rental_uris":{"android":"levelo://app?vid=0947db53-2358-4a3e-83a7-23d1b28dc77c","ios":"levelo://app?vid=0947db53-2358-4a3e-83a7-23d1b28dc77c"},"vehicle_type_id":"4","last_reported":1757718535,"current_range_meters":10800,"station_id":"ce4bhl92rcd13ifvqghg","pricing_plan_id":"cebpf4jnsgd1na2vs0mg"},{"bike_id":"b6826780-8dd1-4f45-9b17-8562da4c9c45","system_id":"levelo_inurba_marseille","lat":43.25109,"lon":5.40326,"is_reserved":false,"is_disabled":false,"rental_uris":{"android":"levelo://app?vid=b6826780-8dd1-4f45-9b17-8562da4c9c45","ios":"levelo://app?vid=b6826780-8dd1-4f45-9b17-8562da4c9c45"},"vehicle_type_id":"4","last_reported":1757718535,"current_range_meters":10800,"station_id":"ce4bhlh2rcd13ifvqgig","pricing_plan_id":"cebpf4jnsgd1na2vs0mg"},{"bike_id":"c286afa3-951c-4440-8c09-7607963f7236","system_id":"levelo_inurba_marseille","lat":43.30021,"lon":5.37127,"is_reserved":false,"is_disabled":false,"rental_uris":{"android":"levelo://app?vid=c286afa3-951c-4440-8c09-7607963f7236","ios":"levelo://app?vid=c286afa3-951c-4440-8c09-7607963f7236"},"vehicle_type_id":"4","last_reported":1757718535,"current_range_meters":11200,"station_id":"","pricing_plan_id":"cebpf4jnsgd1na2vs0mg"},{"bike_id":"8a125bca-38aa-4a61-b5dc-4566e4a718b0","system_id":"levelo_inurba_marseille","lat":43.29535,"lon":5.38533,"is_reserved":false,"is_disabled":false,"rental_uris":{"android":"levelo://app?vid=8a125bca-38aa-4a61-b5dc-4566e4a718b0","ios":"levelo://app?vid=8a125bca-38aa-4a61-b5dc-4566e4a718b0"},"vehicle_type_id":"4","last_reported":1757718535,"current_range_meters":11200,"station_id":"ce4bgih2rcd13ifvqba0","pricing_plan_id":"cebpf4jnsgd1na2vs0mg"},{"bike_id":"d36118c9-1e47-4ef7-b028-6e7ca8fc89d7","system_id":"levelo_inurba_marseille","lat":43.24815,"lon":5.37461,"is_reserved":false,"is_disabled":false,"rental_uris":{"android":"levelo://app?vid=d36118c9-1e47-4ef7-b028-6e7ca8fc89d7","ios":"levelo://app?vid=d36118c9-1e47-4ef7-b028-6e7ca8fc89d7"},"vehicle_type_id":"4","last_reported":1757718535,"current_range_meters":11200,"station_id":"ce4bhgh2rcd13ifvqfb0","pricing_plan_id":"cebpf4jnsgd1na2vs0mg"},{"bike_id":"2e3b33a4-1a18-4acd-89c4-a126d148d6c5","system_id":"levelo_inurba_marseille","lat":43.29532,"lon":5.38536,"is_reserved":false,"is_disabled":false,"rental_uris":{"android":"levelo://app?vid=2e3b33a4-1a18-4acd-89c4-a126d148d6c5","ios":"levelo://app?vid=2e3b33a4-1a18-4acd-89c4-a126d148d6c5"},"vehicle_type_id":"4","last_reported":1757718535,"current_range_meters":11600,"station_id":"ce4bgih2rcd13ifvqba0","pricing_plan_id":"cebpf4jnsgd1na2vs0mg"},{"bike_id":"5f2c0397-404f-46d4-b455-199285197a5d","system_id":"levelo_inurba_marseille","lat":43.24632,"lon":5.43134,"is_reserved":false,"is_disabled":false,"rental_uris":{"android":"levelo://app?vid=5f2c0397-404f-46d4-b455-199285197a5d","ios":"levelo://app?vid=5f2c0397-404f-46d4-b455-199285197a5d"},"vehicle_type_id":"4","last_reported":1757718535,"current_range_meters":11600,"station_id":"st_d2m6c4gdas8pm72e190g","pricing_plan_id":"cebpf4jnsgd1na2vs0mg"},{"bike_id":"1b769de0-a12a-409d-9d61-96e15d0848d3","system_id":"levelo_inurba_marseille","lat":43.31752,"lon":5.39018,"is_reserved":false,"is_disabled":false,"rental_uris":{"android":"levelo://app?vid=1b769de0-a12a-409d-9d61-96e15d0848d3","ios":"levelo://app?vid=1b769de0-a12a-409d-9d61-96e15d0848d3"},"vehicle_type_id":"4","last_reported":1757718535,"current_range_meters":11600,"station_id":"ce4bhqp2rcd13ifvqhng","pricing_plan_id":"cebpf4jnsgd1na2vs0mg"},{"bike_id":"51667cd9-048f-4c21-beef-ab93b8cf3d07","system_id":"levelo_inurba_marseille","lat":43.26558,"lon":5.38999,"is_reserved":false,"is_disabled":true,"rental_uris":{"android":"levelo://app?vid=51667cd9-048f-4c21-beef-ab93b8cf3d07","ios":"levelo://app?vid=51667cd9-048f-4c21-beef-ab93b8cf3d07"},"vehicle_type_id":"4","last_reported":1757718535,"current_range_meters":11600,"station_id":"ce4bhe12rcd13ifvqf30","pricing_plan_id":"cebpf4jnsgd1na2vs0mg"},{"bike_id":"6f8bc886-999a-4146-bd45-4335d6eeb08d","system_id":"levelo_inurba_marseille","lat":43.29625,"lon":5.40556,"is_reserved":false,"is_disabled":false,"rental_uris":{"android":"levelo://app?vid=6f8bc886-999a-4146-bd45-4335d6eeb08d","ios":"levelo://app?vid=6f8bc886-999a-4146-bd45-4335d6eeb08d"},"vehicle_type_id":"4","last_reported":1757718535,"current_range_meters":11600,"station_id":"ce4bh0h2rcd13ifvqd60","pricing_plan_id":"cebpf4jnsgd1na2vs0mg"},{"bike_id":"6959dd6c-d9d3-46b9-9234-bbddd7a8ea14","system_id":"levelo_inurba_marseille","lat":43.23185,"lon":5.39989,"is_reserved":false,"is_disabled":false,"rental_uris":{"android":"levelo://app?vid=6959dd6c-d9d3-46b9-9234-bbddd7a8ea14","ios":"levelo://app?vid=6959dd6c-d9d3-46b9-9234-bbddd7a8ea14"},"vehicle_type_id":"4","last_reported":1757718535,"current_range_meters":11200,"station_id":"ce4bhn12rcd13ifvqgqg","pricing_plan_id":"cebpf4jnsgd1na2vs0mg"},{"bike_id":"665b67fa-e064-4807-b1cf-d8beebd81d9b","system_id":"levelo_inurba_marseille","lat":43.31325,"lon":5.3969,"is_reserved":false,"is_disabled":false,"rental_uris":{"android":"levelo://app?vid=665b67fa-e064-4807-b1cf-d8beebd81d9b","ios":"levelo://app?vid=665b67fa-e064-4807-b1cf-d8beebd81d9b"},"vehicle_type_id":"4","last_reported":1757718535,"current_range_meters":11600,"station_id":"ce4bgvp2rcd13ifvqcu0","pricing_plan_id":"cebpf4jnsgd1na2vs0mg"},{"bike_id":"972b4c5f-3a00-4bb2-9116-b81f2cecc9f2","system_id":"levelo_inurba_marseille","lat":43.33764,"lon":5.37483,"is_reserved":false,"is_disabled":false,"rental_uris":{"android":"levelo://app?vid=972b4c5f-3a00-4bb2-9116-b81f2cecc9f2","ios":"levelo://app?vid=972b4c5f-3a00-4bb2-9116-b81f2cecc9f2"},"vehicle_type_id":"4","last_reported":1757718535,"current_range_meters":11600,"station_id":"","pricing_plan_id":"cebpf4jnsgd1na2vs0mg"},{"bike_id":"10ec8164-dd13-481a-aa4b-07cc4c05e18d","system_id":"levelo_inurba_marseille","lat":43.28452,"lon":5.35881,"is_reserved":false,"is_disabled":false,"rental_uris":{"android":"levelo://app?vid=10ec8164-dd13-481a-aa4b-07cc4c05e18d","ios":"levelo://app?vid=10ec8164-dd13-481a-aa4b-07cc4c05e18d"},"vehicle_type_id":"4","last_reported":1757718535,"current_range_meters":12000,"station_id":"ce4bhah2rcd13ifvqei0","pricing_plan_id":"cebpf4jnsgd1na2vs0mg"},{"bike_id":"aad1ad00-1958-48b0-a482-661db1a506a6","system_id":"levelo_inurba_marseille","lat":43.30463,"lon":5.37902,"is_reserved":false,"is_disabled":true,"rental_uris":{"android":"levelo://app?vid=aad1ad00-1958-48b0-a482-661db1a506a6","ios":"levelo://app?vid=aad1ad00-1958-48b0-a482-661db1a506a6"},"vehicle_type_id":"4","last_reported":1757718535,"current_range_meters":12000,"station_id":"ce4bgup2rcd13ifvqcn0","pricing_plan_id":"cebpf4jnsgd1na2vs0mg"},{"bike_id":"f63ed9f9-ff99-4305-83ef-b615cd3d46fc","system_id":"levelo_inurba_marseille","lat":43.25872,"lon":5.39893,"is_reserved":false,"is_disabled":false,"rental_uris":{"android":"levelo://app?vid=f63ed9f9-ff99-4305-83ef-b615cd3d46fc","ios":"levelo://app?vid=f63ed9f9-ff99-4305-83ef-b615cd3d46fc"},"vehicle_type_id":"4","last_reported":1757718535,"current_range_meters":12000,"station_id":"ce4bhl92rcd13ifvqghg","pricing_plan_id":"cebpf4jnsgd1na2vs0mg"},{"bike_id":"b558f3d9-0976-438a-9dec-f10977a5d937","system_id":"levelo_inurba_marseille","lat":43.2607,"lon":5.3938,"is_reserved":false,"is_disabled":false,"rental_uris":{"android":"levelo://app?vid=b558f3d9-0976-438a-9dec-f10977a5d937","ios":"levelo://app?vid=b558f3d9-0976-438a-9dec-f10977a5d937"},"vehicle_type_id":"4","last_reported":1757718535,"current_range_meters":12000,"station_id":"ce4bhh92rcd13ifvqfj0","pricing_plan_id":"cebpf4jnsgd1na2vs0mg"},{"bike_id":"1fc0f998-da24-45b0-9f18-e146440cbf7f","system_id":"levelo_inurba_marseille","lat":43.28932,"lon":5.36637,"is_reserved":false,"is_disabled":false,"rental_uris":{"android":"levelo://app?vid=1fc0f998-da24-45b0-9f18-e146440cbf7f","ios":"levelo://app?vid=1fc0f998-da24-45b0-9f18-e146440cbf7f"},"vehicle_type_id":"4","last_reported":1757718535,"current_range_meters":12000,"station_id":"ce4bhap2rcd13ifvqek0","pricing_plan_id":"cebpf4jnsgd1na2vs0mg"},{"bike_id":"32c46916-d3e3-46c2-b27f-3dff6c50b60b","system_id":"levelo_inurba_marseille","lat":43.293798,"lon":5.37589,"is_reserved":false,"is_disabled":false,"rental_uris":{"android":"levelo://app?vid=32c46916-d3e3-46c2-b27f-3dff6c50b60b","ios":"levelo://app?vid=32c46916-d3e3-46c2-b27f-3dff6c50b60b"},"vehicle_type_id":"4","last_reported":1757718535,"current_range_meters":12000,"station_id":"","pricing_plan_id":"cebpf4jnsgd1na2vs0mg"},{"bike_id":"cb5e40c1-d236-43e0-a819-95c7c80bf28a","system_id":"levelo_inurba_marseille","lat":43.25863,"lon":5.39923,"is_reserved":false,"is_disabled":false,"rental_uris":{"android":"levelo://app?vid=cb5e40c1-d236-43e0-a819-95c7c80bf28a","ios":"levelo://app?vid=cb5e40c1-d236-43e0-a819-95c7c80bf28a"},"vehicle_type_id":"4","last_reported":1757718535,"current_range_meters":12400,"station_id":"ce4bhl92rcd13ifvqghg","pricing_plan_id":"cebpf4jnsgd1na2vs0mg"},{"bike_id":"b2434b0c-4689-4f45-8c34-f1f2e1211270","system_id":"levelo_inurba_marseille","lat":43.26231,"lon":5.37443,"is_reserved":false,"is_disabled":false,"rental_uris":{"android":"levelo://app?vid=b2434b0c-4689-4f45-8c34-f1f2e1211270","ios":"levelo://app?vid=b2434b0c-4689-4f45-8c34-f1f2e1211270"},"vehicle_type_id":"4","last_reported":1757718535,"current_range_meters":12400,"station_id":"","pricing_plan_id":"cebpf4jnsgd1na2vs0mg"},{"bike_id":"d1a2d227-a72b-48f9-803e-12a9db38892f","system_id":"levelo_inurba_marseille","lat":43.3077,"lon":5.37086,"is_reserved":false,"is_disabled":false,"rental_uris":{"android":"levelo://app?vid=d1a2d227-a72b-48f9-803e-12a9db38892f","ios":"levelo://app?vid=d1a2d227-a72b-48f9-803e-12a9db38892f"},"vehicle_type_id":"4","last_reported":1757718535,"current_range_meters":12400,"station_id":"","pricing_plan_id":"cebpf4jnsgd1na2vs0mg"},{"bike_id":"13e14250-7ddb-4c7c-b698-57a655607d6a","system_id":"levelo_inurba_marseille","lat":43.33761,"lon":5.37463,"is_reserved":false,"is_disabled":false,"rental_uris":{"android":"levelo://app?vid=13e14250-7ddb-4c7c-b698-57a655607d6a","ios":"levelo://app?vid=13e14250-7ddb-4c7c-b698-57a655607d6a"},"vehicle_type_id":"4","last_reported":1757718535,"current_range_meters":12400,"station_id":"ce4bgqh2rcd13ifvqc4g","pricing_plan_id":"cebpf4jnsgd1na2vs0mg"},{"bike_id":"4d4ae18d-81d3-4161-97a6-a40d95f4554a","system_id":"levelo_inurba_marseille","lat":43.30133,"lon":5.38773,"is_reserved":false,"is_disabled":true,"rental_uris":{"android":"levelo://app?vid=4d4ae18d-81d3-4161-97a6-a40d95f4554a","ios":"levelo://app?vid=4d4ae18d-81d3-4161-97a6-a40d95f4554a"},"vehicle_type_id":"4","last_reported":1757718535,"current_range_meters":12400,"station_id":"ce4bghh2rcd13ifvqb60","pricing_plan_id":"cebpf4jnsgd1na2vs0mg"},{"bike_id":"ea79bbf8-6836-49db-b1f5-f460be67c626","system_id":"levelo_inurba_marseille","lat":43.30312,"lon":5.36891,"is_reserved":false,"is_disabled":false,"rental_uris":{"android":"levelo://app?vid=ea79bbf8-6836-49db-b1f5-f460be67c626","ios":"levelo://app?vid=ea79bbf8-6836-49db-b1f5-f460be67c626"},"vehicle_type_id":"4","last_reported":1757718535,"current_range_meters":12800,"station_id":"ce4bgqh2rcd13ifvqc5g","pricing_plan_id":"cebpf4jnsgd1na2vs0mg"},{"bike_id":"6515536f-56de-4109-b7a1-24c742aed225","system_id":"levelo_inurba_marseille","lat":43.32008,"lon":5.37249,"is_reserved":false,"is_disabled":false,"rental_uris":{"android":"levelo://app?vid=6515536f-56de-4109-b7a1-24c742aed225","ios":"levelo://app?vid=6515536f-56de-4109-b7a1-24c742aed225"},"vehicle_type_id":"4","last_reported":1757718535,"current_range_meters":12800,"station_id":"","pricing_plan_id":"cebpf4jnsgd1na2vs0mg"},{"bike_id":"a9dd239d-c821-4547-a71f-93364a17f0be","system_id":"levelo_inurba_marseille","lat":43.24675,"lon":5.38143,"is_reserved":false,"is_disabled":false,"rental_uris":{"android":"levelo://app?vid=a9dd239d-c821-4547-a71f-93364a17f0be","ios":"levelo://app?vid=a9dd239d-c821-4547-a71f-93364a17f0be"},"vehicle_type_id":"4","last_reported":1757718535,"current_range_meters":12800,"station_id":"ce4bhih2rcd13ifvqfr0","pricing_plan_id":"cebpf4jnsgd1na2vs0mg"},{"bike_id":"1e089dec-8dba-4541-8742-f2117c732575","system_id":"levelo_inurba_marseille","lat":43.2979,"lon":5.38081,"is_reserved":false,"is_disabled":false,"rental_uris":{"android":"levelo://app?vid=1e089dec-8dba-4541-8742-f2117c732575","ios":"levelo://app?vid=1e089dec-8dba-4541-8742-f2117c732575"},"vehicle_type_id":"4","last_reported":1757718535,"current_range_meters":12800,"station_id":"ce4bgip2rcd13ifvqbb0","pricing_plan_id":"cebpf4jnsgd1na2vs0mg"},{"bike_id":"8489395d-acaa-4f71-b662-854dca429127","system_id":"levelo_inurba_marseille","lat":43.29649,"lon":5.40612,"is_reserved":false,"is_disabled":false,"rental_uris":{"android":"levelo://app?vid=8489395d-acaa-4f71-b662-854dca429127","ios":"levelo://app?vid=8489395d-acaa-4f71-b662-854dca429127"},"vehicle_type_id":"4","last_reported":1757718535,"current_range_meters":12800,"station_id":"ce4bh0h2rcd13ifvqd60","pricing_plan_id":"cebpf4jnsgd1na2vs0mg"},{"bike_id":"9f3afd7c-9ba5-4291-8ef9-5c6c69b2e851","system_id":"levelo_inurba_marseille","lat":43.281,"lon":5.37838,"is_reserved":false,"is_disabled":false,"rental_uris":{"android":"levelo://app?vid=9f3afd7c-9ba5-4291-8ef9-5c6c69b2e851","ios":"levelo://app?vid=9f3afd7c-9ba5-4291-8ef9-5c6c69b2e851"},"vehicle_type_id":"4","last_reported":1757718535,"current_range_meters":12800,"station_id":"ce4bha12rcd13ifvqee0","pricing_plan_id":"cebpf4jnsgd1na2vs0mg"},{"bike_id":"1f6f0585-eabd-41a9-8089-3818f9d37b49","system_id":"levelo_inurba_marseille","lat":43.30121,"lon":5.39054,"is_reserved":false,"is_disabled":false,"rental_uris":{"android":"levelo://app?vid=1f6f0585-eabd-41a9-8089-3818f9d37b49","ios":"levelo://app?vid=1f6f0585-eabd-41a9-8089-3818f9d37b49"},"vehicle_type_id":"4","last_reported":1757718535,"current_range_meters":12800,"station_id":"ce4bh192rcd13ifvqdb0","pricing_plan_id":"cebpf4jnsgd1na2vs0mg"},{"bike_id":"f4c73375-56c8-4d6b-a64c-003996b01c55","system_id":"levelo_inurba_marseille","lat":43.29254,"lon":5.40916,"is_reserved":false,"is_disabled":false,"rental_uris":{"android":"levelo://app?vid=f4c73375-56c8-4d6b-a64c-003996b01c55","ios":"levelo://app?vid=f4c73375-56c8-4d6b-a64c-003996b01c55"},"vehicle_type_id":"4","last_reported":1757718535,"current_range_meters":13600,"station_id":"ce4bh192rcd13ifvqdc0","pricing_plan_id":"cebpf4jnsgd1na2vs0mg"},{"bike_id":"fb135702-3497-4a53-8709-882e75f58370","system_id":"levelo_inurba_marseille","lat":43.28615,"lon":5.35098,"is_reserved":false,"is_disabled":false,"rental_uris":{"android":"levelo://app?vid=fb135702-3497-4a53-8709-882e75f58370","ios":"levelo://app?vid=fb135702-3497-4a53-8709-882e75f58370"},"vehicle_type_id":"4","last_reported":1757718535,"current_range_meters":13600,"station_id":"ce4bhch2rcd13ifvqeug","pricing_plan_id":"cebpf4jnsgd1na2vs0mg"},{"bike_id":"4266b374-d4bf-4fd2-bb94-51b2d7d40946","system_id":"levelo_inurba_marseille","lat":43.22577,"lon":5.41605,"is_reserved":false,"is_disabled":false,"rental_uris":{"android":"levelo://app?vid=4266b374-d4bf-4fd2-bb94-51b2d7d40946","ios":"levelo://app?vid=4266b374-d4bf-4fd2-bb94-51b2d7d40946"},"vehicle_type_id":"4","last_reported":1757718535,"current_range_meters":13600,"station_id":"st_d2o4gvlbi1j2169b742g","pricing_plan_id":"cebpf4jnsgd1na2vs0mg"},{"bike_id":"a6e3d7a5-73b7-41a3-9801-5eeeb3e805ca","system_id":"levelo_inurba_marseille","lat":43.24388,"lon":5.37059,"is_reserved":false,"is_disabled":false,"rental_uris":{"android":"levelo://app?vid=a6e3d7a5-73b7-41a3-9801-5eeeb3e805ca","ios":"levelo://app?vid=a6e3d7a5-73b7-41a3-9801-5eeeb3e805ca"},"vehicle_type_id":"4","last_reported":1757718535,"current_range_meters":13600,"station_id":"ce4bhhh2rcd13ifvqfk0","pricing_plan_id":"cebpf4jnsgd1na2vs0mg"},{"bike_id":"9ea214cd-c5f8-441b-9338-7fcf595de156","system_id":"levelo_inurba_marseille","lat":43.21201,"lon":5.35071,"is_reserved":false,"is_disabled":false,"rental_uris":{"android":"levelo://app?vid=9ea214cd-c5f8-441b-9338-7fcf595de156","ios":"levelo://app?vid=9ea214cd-c5f8-441b-9338-7fcf595de156"},"vehicle_type_id":"4","last_reported":1757718535,"current_range_meters":14000,"station_id":"st_cvj6sg6p6f1abm77japg","pricing_plan_id":"cebpf4jnsgd1na2vs0mg"},{"bike_id":"b1df6e1b-2354-4e4b-abe5-46f3573a2c29","system_id":"levelo_inurba_marseille","lat":43.30911,"lon":5.36841,"is_reserved":false,"is_disabled":false,"rental_uris":{"android":"levelo://app?vid=b1df6e1b-2354-4e4b-abe5-46f3573a2c29","ios":"levelo://app?vid=b1df6e1b-2354-4e4b-abe5-46f3573a2c29"},"vehicle_type_id":"4","last_reported":1757718535,"current_range_meters":14000,"station_id":"ce4bgn92rcd13ifvqbvg","pricing_plan_id":"cebpf4jnsgd1na2vs0mg"},{"bike_id":"817f8f2d-0051-417c-b495-b637b594c5ae","system_id":"levelo_inurba_marseille","lat":43.28409,"lon":5.37514,"is_reserved":false,"is_disabled":true,"rental_uris":{"android":"levelo://app?vid=817f8f2d-0051-417c-b495-b637b594c5ae","ios":"levelo://app?vid=817f8f2d-0051-417c-b495-b637b594c5ae"},"vehicle_type_id":"4","last_reported":1757718535,"current_range_meters":14000,"station_id":"ce4bh412rcd13ifvqds0","pricing_plan_id":"cebpf4jnsgd1na2vs0mg"},{"bike_id":"5510e832-78f9-46e6-894c-ba6755842242","system_id":"levelo_inurba_marseille","lat":43.3015,"lon":5.38096,"is_reserved":false,"is_disabled":false,"rental_uris":{"android":"levelo://app?vid=5510e832-78f9-46e6-894c-ba6755842242","ios":"levelo://app?vid=5510e832-78f9-46e6-894c-ba6755842242"},"vehicle_type_id":"4","last_reported":1757718535,"current_range_meters":14000,"station_id":"ce4bgjp2rcd13ifvqbh0","pricing_plan_id":"cebpf4jnsgd1na2vs0mg"},{"bike_id":"a24c4696-920b-4645-847f-87e0b46915a6","system_id":"levelo_inurba_marseille","lat":43.32424,"lon":5.4249,"is_reserved":false,"is_disabled":false,"rental_uris":{"android":"levelo://app?vid=a24c4696-920b-4645-847f-87e0b46915a6","ios":"levelo://app?vid=a24c4696-920b-4645-847f-87e0b46915a6"},"vehicle_type_id":"4","last_reported":1757718535,"current_range_meters":14400,"station_id":"","pricing_plan_id":"cebpf4jnsgd1na2vs0mg"},{"bike_id":"652a81c2-f0b6-4210-b4e2-a05ae0e0daea","system_id":"levelo_inurba_marseille","lat":43.2953,"lon":5.38536,"is_reserved":false,"is_disabled":false,"rental_uris":{"android":"levelo://app?vid=652a81c2-f0b6-4210-b4e2-a05ae0e0daea","ios":"levelo://app?vid=652a81c2-f0b6-4210-b4e2-a05ae0e0daea"},"vehicle_type_id":"4","last_reported":1757718535,"current_range_meters":14400,"station_id":"ce4bgih2rcd13ifvqba0","pricing_plan_id":"cebpf4jnsgd1na2vs0mg"},{"bike_id":"985c4f56-c378-4f55-b5bf-d2ba1346b657","system_id":"levelo_inurba_marseille","lat":43.28911,"lon":5.38381,"is_reserved":false,"is_disabled":true,"rental_uris":{"android":"levelo://app?vid=985c4f56-c378-4f55-b5bf-d2ba1346b657","ios":"levelo://app?vid=985c4f56-c378-4f55-b5bf-d2ba1346b657"},"vehicle_type_id":"4","last_reported":1757718535,"current_range_meters":14400,"station_id":"ce4bh612rcd13ifvqe6g","pricing_plan_id":"cebpf4jnsgd1na2vs0mg"},{"bike_id":"4c668842-b954-4b64-a636-586eec2b8670","system_id":"levelo_inurba_marseille","lat":43.31497,"lon":5.37306,"is_reserved":false,"is_disabled":false,"rental_uris":{"android":"levelo://app?vid=4c668842-b954-4b64-a636-586eec2b8670","ios":"levelo://app?vid=4c668842-b954-4b64-a636-586eec2b8670"},"vehicle_type_id":"4","last_reported":1757718535,"current_range_meters":14400,"station_id":"ce4bgt12rcd13ifvqcd0","pricing_plan_id":"cebpf4jnsgd1na2vs0mg"},{"bike_id":"644bad96-0642-4197-9954-3180f374be16","system_id":"levelo_inurba_marseille","lat":43.30536,"lon":5.3656,"is_reserved":false,"is_disabled":false,"rental_uris":{"android":"levelo://app?vid=644bad96-0642-4197-9954-3180f374be16","ios":"levelo://app?vid=644bad96-0642-4197-9954-3180f374be16"},"vehicle_type_id":"4","last_reported":1757718535,"current_range_meters":14400,"station_id":"ce4bgs12rcd13ifvqcag","pricing_plan_id":"cebpf4jnsgd1na2vs0mg"},{"bike_id":"f24cd637-2a13-4120-b81f-882de2ef79b6","system_id":"levelo_inurba_marseille","lat":43.30938,"lon":5.40127,"is_reserved":false,"is_disabled":false,"rental_uris":{"android":"levelo://app?vid=f24cd637-2a13-4120-b81f-882de2ef79b6","ios":"levelo://app?vid=f24cd637-2a13-4120-b81f-882de2ef79b6"},"vehicle_type_id":"4","last_reported":1757718535,"current_range_meters":14400,"station_id":"ce4bgvp2rcd13ifvqct0","pricing_plan_id":"cebpf4jnsgd1na2vs0mg"},{"bike_id":"b2aeb6a5-74a2-46fb-ba9a-314058d95425","system_id":"levelo_inurba_marseille","lat":43.23191,"lon":5.35542,"is_reserved":false,"is_disabled":false,"rental_uris":{"android":"levelo://app?vid=b2aeb6a5-74a2-46fb-ba9a-314058d95425","ios":"levelo://app?vid=b2aeb6a5-74a2-46fb-ba9a-314058d95425"},"vehicle_type_id":"4","last_reported":1757718535,"current_range_meters":14400,"station_id":"ce4bhu92rcd13ifvqi70","pricing_plan_id":"cebpf4jnsgd1na2vs0mg"},{"bike_id":"9fdce098-492a-40f9-ae29-95caf53fef79","system_id":"levelo_inurba_marseille","lat":43.32694,"lon":5.3916,"is_reserved":false,"is_disabled":false,"rental_uris":{"android":"levelo://app?vid=9fdce098-492a-40f9-ae29-95caf53fef79","ios":"levelo://app?vid=9fdce098-492a-40f9-ae29-95caf53fef79"},"vehicle_type_id":"4","last_reported":1757718535,"current_range_meters":14400,"station_id":"","pricing_plan_id":"cebpf4jnsgd1na2vs0mg"},{"bike_id":"d1dd7cda-331f-4e27-b4d7-1c497b39889f","system_id":"levelo_inurba_marseille","lat":43.273862,"lon":5.362601,"is_reserved":false,"is_disabled":true,"rental_uris":{"android":"levelo://app?vid=d1dd7cda-331f-4e27-b4d7-1c497b39889f","ios":"levelo://app?vid=d1dd7cda-331f-4e27-b4d7-1c497b39889f"},"vehicle_type_id":"4","last_reported":1757718535,"current_range_meters":14400,"station_id":"","pricing_plan_id":"cebpf4jnsgd1na2vs0mg"},{"bike_id":"c0545557-0d6c-4b0e-9279-c18ab3d2597f","system_id":"levelo_inurba_marseille","lat":43.32485,"lon":5.3655,"is_reserved":false,"is_disabled":false,"rental_uris":{"android":"levelo://app?vid=c0545557-0d6c-4b0e-9279-c18ab3d2597f","ios":"levelo://app?vid=c0545557-0d6c-4b0e-9279-c18ab3d2597f"},"vehicle_type_id":"4","last_reported":1757718535,"current_range_meters":14400,"station_id":"ce4bhs12rcd13ifvqhvg","pricing_plan_id":"cebpf4jnsgd1na2vs0mg"},{"bike_id":"10dfb71d-b4fe-4c66-9e42-a774a54e4626","system_id":"levelo_inurba_marseille","lat":43.25162,"lon":5.40326,"is_reserved":false,"is_disabled":false,"rental_uris":{"android":"levelo://app?vid=10dfb71d-b4fe-4c66-9e42-a774a54e4626","ios":"levelo://app?vid=10dfb71d-b4fe-4c66-9e42-a774a54e4626"},"vehicle_type_id":"4","last_reported":1757718535,"current_range_meters":14400,"station_id":"","pricing_plan_id":"cebpf4jnsgd1na2vs0mg"},{"bike_id":"b2083b1b-095d-48a2-b1a0-832cfd9422d2","system_id":"levelo_inurba_marseille","lat":43.29877,"lon":5.39731,"is_reserved":false,"is_disabled":false,"rental_uris":{"android":"levelo://app?vid=b2083b1b-095d-48a2-b1a0-832cfd9422d2","ios":"levelo://app?vid=b2083b1b-095d-48a2-b1a0-832cfd9422d2"},"vehicle_type_id":"4","last_reported":1757718535,"current_range_meters":14800,"station_id":"ce4bh0h2rcd13ifvqd50","pricing_plan_id":"cebpf4jnsgd1na2vs0mg"},{"bike_id":"468b29b7-c0e4-4fb5-98d3-7139e8424f60","system_id":"levelo_inurba_marseille","lat":43.32113,"lon":5.3677,"is_reserved":false,"is_disabled":false,"rental_uris":{"android":"levelo://app?vid=468b29b7-c0e4-4fb5-98d3-7139e8424f60","ios":"levelo://app?vid=468b29b7-c0e4-4fb5-98d3-7139e8424f60"},"vehicle_type_id":"4","last_reported":1757718535,"current_range_meters":14800,"station_id":"ce4bhrh2rcd13ifvqhug","pricing_plan_id":"cebpf4jnsgd1na2vs0mg"},{"bike_id":"858374bb-59c5-4ecc-9916-a26e9e545707","system_id":"levelo_inurba_marseille","lat":43.25414,"lon":5.41898,"is_reserved":false,"is_disabled":false,"rental_uris":{"android":"levelo://app?vid=858374bb-59c5-4ecc-9916-a26e9e545707","ios":"levelo://app?vid=858374bb-59c5-4ecc-9916-a26e9e545707"},"vehicle_type_id":"4","last_reported":1757718535,"current_range_meters":14800,"station_id":"","pricing_plan_id":"cebpf4jnsgd1na2vs0mg"},{"bike_id":"7f696ba1-833f-412e-8b5d-d4d815a574fc","system_id":"levelo_inurba_marseille","lat":43.29846,"lon":5.37165,"is_reserved":false,"is_disabled":false,"rental_uris":{"android":"levelo://app?vid=7f696ba1-833f-412e-8b5d-d4d815a574fc","ios":"levelo://app?vid=7f696ba1-833f-412e-8b5d-d4d815a574fc"},"vehicle_type_id":"4","last_reported":1757718535,"current_range_meters":14800,"station_id":"","pricing_plan_id":"cebpf4jnsgd1na2vs0mg"},{"bike_id":"0c0ff4e5-6c5c-480a-a88f-762b61a2bfa0","system_id":"levelo_inurba_marseille","lat":43.295307,"lon":5.385432,"is_reserved":false,"is_disabled":true,"rental_uris":{"android":"levelo://app?vid=0c0ff4e5-6c5c-480a-a88f-762b61a2bfa0","ios":"levelo://app?vid=0c0ff4e5-6c5c-480a-a88f-762b61a2bfa0"},"vehicle_type_id":"4","last_reported":1757718535,"current_range_meters":14800,"station_id":"ce4bgih2rcd13ifvqba0","pricing_plan_id":"cebpf4jnsgd1na2vs0mg"},{"bike_id":"eb63930d-877a-441f-b341-64b2d52383d4","system_id":"levelo_inurba_marseille","lat":43.33044,"lon":5.39018,"is_reserved":false,"is_disabled":false,"rental_uris":{"android":"levelo://app?vid=eb63930d-877a-441f-b341-64b2d52383d4","ios":"levelo://app?vid=eb63930d-877a-441f-b341-64b2d52383d4"},"vehicle_type_id":"4","last_reported":1757718535,"current_range_meters":14800,"station_id":"ce4bhr92rcd13ifvqhrg","pricing_plan_id":"cebpf4jnsgd1na2vs0mg"},{"bike_id":"1a56e511-f10f-4fed-9328-c4cbbc9cec58","system_id":"levelo_inurba_marseille","lat":43.29268,"lon":5.38387,"is_reserved":false,"is_disabled":false,"rental_uris":{"android":"levelo://app?vid=1a56e511-f10f-4fed-9328-c4cbbc9cec58","ios":"levelo://app?vid=1a56e511-f10f-4fed-9328-c4cbbc9cec58"},"vehicle_type_id":"4","last_reported":1757718535,"current_range_meters":15200,"station_id":"ce4bh692rcd13ifvqea0","pricing_plan_id":"cebpf4jnsgd1na2vs0mg"},{"bike_id":"fa598d9f-c511-4d86-b266-8f2a04717c18","system_id":"levelo_inurba_marseille","lat":43.24809,"lon":5.37454,"is_reserved":false,"is_disabled":false,"rental_uris":{"android":"levelo://app?vid=fa598d9f-c511-4d86-b266-8f2a04717c18","ios":"levelo://app?vid=fa598d9f-c511-4d86-b266-8f2a04717c18"},"vehicle_type_id":"4","last_reported":1757718535,"current_range_meters":15200,"station_id":"ce4bhgh2rcd13ifvqfb0","pricing_plan_id":"cebpf4jnsgd1na2vs0mg"},{"bike_id":"e43fdc27-4283-4e61-97ff-9c2689a8903a","system_id":"levelo_inurba_marseille","lat":43.246598,"lon":5.381612,"is_reserved":false,"is_disabled":false,"rental_uris":{"android":"levelo://app?vid=e43fdc27-4283-4e61-97ff-9c2689a8903a","ios":"levelo://app?vid=e43fdc27-4283-4e61-97ff-9c2689a8903a"},"vehicle_type_id":"4","last_reported":1757718535,"current_range_meters":15200,"station_id":"ce4bhih2rcd13ifvqfr0","pricing_plan_id":"cebpf4jnsgd1na2vs0mg"},{"bike_id":"34b4ecdb-0d1f-4cd5-83c3-4e93f64fadf5","system_id":"levelo_inurba_marseille","lat":43.301453,"lon":5.380855,"is_reserved":false,"is_disabled":false,"rental_uris":{"android":"levelo://app?vid=34b4ecdb-0d1f-4cd5-83c3-4e93f64fadf5","ios":"levelo://app?vid=34b4ecdb-0d1f-4cd5-83c3-4e93f64fadf5"},"vehicle_type_id":"4","last_reported":1757718535,"current_range_meters":15200,"station_id":"ce4bgjp2rcd13ifvqbh0","pricing_plan_id":"cebpf4jnsgd1na2vs0mg"},{"bike_id":"7826096b-67a1-4956-bce8-c946e9b6330f","system_id":"levelo_inurba_marseille","lat":43.30303,"lon":5.39199,"is_reserved":false,"is_disabled":false,"rental_uris":{"android":"levelo://app?vid=7826096b-67a1-4956-bce8-c946e9b6330f","ios":"levelo://app?vid=7826096b-67a1-4956-bce8-c946e9b6330f"},"vehicle_type_id":"4","last_reported":1757718535,"current_range_meters":14800,"station_id":"ce4bgkh2rcd13ifvqbk0","pricing_plan_id":"cebpf4jnsgd1na2vs0mg"},{"bike_id":"e7a329bd-ed66-4ac7-aaba-63f2810ddd86","system_id":"levelo_inurba_marseille","lat":43.31912,"lon":5.37187,"is_reserved":false,"is_disabled":false,"rental_uris":{"android":"levelo://app?vid=e7a329bd-ed66-4ac7-aaba-63f2810ddd86","ios":"levelo://app?vid=e7a329bd-ed66-4ac7-aaba-63f2810ddd86"},"vehicle_type_id":"4","last_reported":1757718535,"current_range_meters":15200,"station_id":"","pricing_plan_id":"cebpf4jnsgd1na2vs0mg"},{"bike_id":"a8200689-d7b2-4d2e-b5a2-52cc95231e31","system_id":"levelo_inurba_marseille","lat":43.24151,"lon":5.36422,"is_reserved":false,"is_disabled":false,"rental_uris":{"android":"levelo://app?vid=a8200689-d7b2-4d2e-b5a2-52cc95231e31","ios":"levelo://app?vid=a8200689-d7b2-4d2e-b5a2-52cc95231e31"},"vehicle_type_id":"4","last_reported":1757718535,"current_range_meters":15200,"station_id":"cpo36qri1sfpv3e86is0","pricing_plan_id":"cebpf4jnsgd1na2vs0mg"},{"bike_id":"afa5b270-1b82-4b90-8fe4-7ae439ce006b","system_id":"levelo_inurba_marseille","lat":43.2799,"lon":5.41652,"is_reserved":false,"is_disabled":false,"rental_uris":{"android":"levelo://app?vid=afa5b270-1b82-4b90-8fe4-7ae439ce006b","ios":"levelo://app?vid=afa5b270-1b82-4b90-8fe4-7ae439ce006b"},"vehicle_type_id":"4","last_reported":1757718535,"current_range_meters":15200,"station_id":"ce4bho12rcd13ifvqh1g","pricing_plan_id":"cebpf4jnsgd1na2vs0mg"},{"bike_id":"0c78ed8a-2af8-4f2c-895d-0de884f1c9f2","system_id":"levelo_inurba_marseille","lat":43.29905,"lon":5.43697,"is_reserved":false,"is_disabled":false,"rental_uris":{"android":"levelo://app?vid=0c78ed8a-2af8-4f2c-895d-0de884f1c9f2","ios":"levelo://app?vid=0c78ed8a-2af8-4f2c-895d-0de884f1c9f2"},"vehicle_type_id":"4","last_reported":1757718535,"current_range_meters":15200,"station_id":"","pricing_plan_id":"cebpf4jnsgd1na2vs0mg"},{"bike_id":"b34b0d65-0d12-49eb-ae00-1b48756cc9ff","system_id":"levelo_inurba_marseille","lat":43.28877,"lon":5.39346,"is_reserved":false,"is_disabled":false,"rental_uris":{"android":"levelo://app?vid=b34b0d65-0d12-49eb-ae00-1b48756cc9ff","ios":"levelo://app?vid=b34b0d65-0d12-49eb-ae00-1b48756cc9ff"},"vehicle_type_id":"4","last_reported":1757718535,"current_range_meters":14800,"station_id":"ce4bh2p2rcd13ifvqdi0","pricing_plan_id":"cebpf4jnsgd1na2vs0mg"},{"bike_id":"091601b3-3c5a-42ff-866e-cde10b59b3c0","system_id":"levelo_inurba_marseille","lat":43.30761,"lon":5.37426,"is_reserved":false,"is_disabled":false,"rental_uris":{"android":"levelo://app?vid=091601b3-3c5a-42ff-866e-cde10b59b3c0","ios":"levelo://app?vid=091601b3-3c5a-42ff-866e-cde10b59b3c0"},"vehicle_type_id":"4","last_reported":1757718535,"current_range_meters":15200,"station_id":"","pricing_plan_id":"cebpf4jnsgd1na2vs0mg"},{"bike_id":"794cc232-3d6b-41cf-96d8-1b6745bec950","system_id":"levelo_inurba_marseille","lat":43.29738,"lon":5.37949,"is_reserved":false,"is_disabled":false,"rental_uris":{"android":"levelo://app?vid=794cc232-3d6b-41cf-96d8-1b6745bec950","ios":"levelo://app?vid=794cc232-3d6b-41cf-96d8-1b6745bec950"},"vehicle_type_id":"4","last_reported":1757718535,"current_range_meters":15200,"station_id":"","pricing_plan_id":"cebpf4jnsgd1na2vs0mg"},{"bike_id":"5d2d49c3-df0a-4e43-a031-b4854d84eee8","system_id":"levelo_inurba_marseille","lat":43.23962,"lon":5.36628,"is_reserved":false,"is_disabled":false,"rental_uris":{"android":"levelo://app?vid=5d2d49c3-df0a-4e43-a031-b4854d84eee8","ios":"levelo://app?vid=5d2d49c3-df0a-4e43-a031-b4854d84eee8"},"vehicle_type_id":"4","last_reported":1757718535,"current_range_meters":16000,"station_id":"ce4bhi12rcd13ifvqfp0","pricing_plan_id":"cebpf4jnsgd1na2vs0mg"},{"bike_id":"e213f39e-a4d8-4608-9f3f-d29cabced392","system_id":"levelo_inurba_marseille","lat":43.30255,"lon":5.40068,"is_reserved":false,"is_disabled":false,"rental_uris":{"android":"levelo://app?vid=e213f39e-a4d8-4608-9f3f-d29cabced392","ios":"levelo://app?vid=e213f39e-a4d8-4608-9f3f-d29cabced392"},"vehicle_type_id":"4","last_reported":1757718535,"current_range_meters":16000,"station_id":"ce4bgvh2rcd13ifvqcs0","pricing_plan_id":"cebpf4jnsgd1na2vs0mg"},{"bike_id":"d987f56d-76e3-4f7b-9b84-5022d38036d0","system_id":"levelo_inurba_marseille","lat":43.2534,"lon":5.42171,"is_reserved":false,"is_disabled":false,"rental_uris":{"android":"levelo://app?vid=d987f56d-76e3-4f7b-9b84-5022d38036d0","ios":"levelo://app?vid=d987f56d-76e3-4f7b-9b84-5022d38036d0"},"vehicle_type_id":"4","last_reported":1757718535,"current_range_meters":16000,"station_id":"st_d2m65c5bi1j21697t3ng","pricing_plan_id":"cebpf4jnsgd1na2vs0mg"},{"bike_id":"85e137ee-ba02-4875-8407-865445509c75","system_id":"levelo_inurba_marseille","lat":43.28152,"lon":5.42652,"is_reserved":false,"is_disabled":false,"rental_uris":{"android":"levelo://app?vid=85e137ee-ba02-4875-8407-865445509c75","ios":"levelo://app?vid=85e137ee-ba02-4875-8407-865445509c75"},"vehicle_type_id":"4","last_reported":1757718535,"current_range_meters":16000,"station_id":"ce4bhnh2rcd13ifvqgug","pricing_plan_id":"cebpf4jnsgd1na2vs0mg"},{"bike_id":"c021ea9e-72e5-44e2-bb77-3d43d8c9f999","system_id":"levelo_inurba_marseille","lat":43.28551,"lon":5.40172,"is_reserved":false,"is_disabled":false,"rental_uris":{"android":"levelo://app?vid=c021ea9e-72e5-44e2-bb77-3d43d8c9f999","ios":"levelo://app?vid=c021ea9e-72e5-44e2-bb77-3d43d8c9f999"},"vehicle_type_id":"4","last_reported":1757718535,"current_range_meters":16000,"station_id":"","pricing_plan_id":"cebpf4jnsgd1na2vs0mg"},{"bike_id":"140f33b8-1102-4f7e-b0ef-d83c5cd8bb96","system_id":"levelo_inurba_marseille","lat":43.23198,"lon":5.35549,"is_reserved":false,"is_disabled":false,"rental_uris":{"android":"levelo://app?vid=140f33b8-1102-4f7e-b0ef-d83c5cd8bb96","ios":"levelo://app?vid=140f33b8-1102-4f7e-b0ef-d83c5cd8bb96"},"vehicle_type_id":"4","last_reported":1757718535,"current_range_meters":16000,"station_id":"ce4bhu92rcd13ifvqi70","pricing_plan_id":"cebpf4jnsgd1na2vs0mg"},{"bike_id":"ac17e805-c229-45ba-8ffe-967f2b9aeff4","system_id":"levelo_inurba_marseille","lat":43.30213,"lon":5.39461,"is_reserved":false,"is_disabled":false,"rental_uris":{"android":"levelo://app?vid=ac17e805-c229-45ba-8ffe-967f2b9aeff4","ios":"levelo://app?vid=ac17e805-c229-45ba-8ffe-967f2b9aeff4"},"vehicle_type_id":"4","last_reported":1757718535,"current_range_meters":16000,"station_id":"ce4bh0p2rcd13ifvqd70","pricing_plan_id":"cebpf4jnsgd1na2vs0mg"},{"bike_id":"d9365328-3c9c-4c3c-be04-dbec3b226b93","system_id":"levelo_inurba_marseille","lat":43.3046,"lon":5.39693,"is_reserved":false,"is_disabled":false,"rental_uris":{"android":"levelo://app?vid=d9365328-3c9c-4c3c-be04-dbec3b226b93","ios":"levelo://app?vid=d9365328-3c9c-4c3c-be04-dbec3b226b93"},"vehicle_type_id":"4","last_reported":1757718535,"current_range_meters":15200,"station_id":"ce4bh092rcd13ifvqd20","pricing_plan_id":"cebpf4jnsgd1na2vs0mg"},{"bike_id":"7068895e-81c5-46c1-85a7-fdbb8280530f","system_id":"levelo_inurba_marseille","lat":43.23972,"lon":5.366172,"is_reserved":false,"is_disabled":false,"rental_uris":{"android":"levelo://app?vid=7068895e-81c5-46c1-85a7-fdbb8280530f","ios":"levelo://app?vid=7068895e-81c5-46c1-85a7-fdbb8280530f"},"vehicle_type_id":"4","last_reported":1757718535,"current_range_meters":16000,"station_id":"ce4bhi12rcd13ifvqfp0","pricing_plan_id":"cebpf4jnsgd1na2vs0mg"},{"bike_id":"6f4a7455-ca74-4845-ba85-815e127176a8","system_id":"levelo_inurba_marseille","lat":43.2894,"lon":5.36403,"is_reserved":false,"is_disabled":false,"rental_uris":{"android":"levelo://app?vid=6f4a7455-ca74-4845-ba85-815e127176a8","ios":"levelo://app?vid=6f4a7455-ca74-4845-ba85-815e127176a8"},"vehicle_type_id":"4","last_reported":1757718535,"current_range_meters":16000,"station_id":"ce4bhc92rcd13ifvqetg","pricing_plan_id":"cebpf4jnsgd1na2vs0mg"},{"bike_id":"dba7c831-767b-4065-ba87-36344ddb18af","system_id":"levelo_inurba_marseille","lat":43.30135,"lon":5.38774,"is_reserved":false,"is_disabled":false,"rental_uris":{"android":"levelo://app?vid=dba7c831-767b-4065-ba87-36344ddb18af","ios":"levelo://app?vid=dba7c831-767b-4065-ba87-36344ddb18af"},"vehicle_type_id":"4","last_reported":1757718535,"current_range_meters":15200,"station_id":"ce4bghh2rcd13ifvqb60","pricing_plan_id":"cebpf4jnsgd1na2vs0mg"},{"bike_id":"3672c5d3-201f-4918-b547-49575d4d63cb","system_id":"levelo_inurba_marseille","lat":43.28455,"lon":5.35893,"is_reserved":false,"is_disabled":false,"rental_uris":{"android":"levelo://app?vid=3672c5d3-201f-4918-b547-49575d4d63cb","ios":"levelo://app?vid=3672c5d3-201f-4918-b547-49575d4d63cb"},"vehicle_type_id":"4","last_reported":1757718535,"current_range_meters":16000,"station_id":"ce4bhah2rcd13ifvqei0","pricing_plan_id":"cebpf4jnsgd1na2vs0mg"},{"bike_id":"39c8e79c-8fdb-43bf-bb5b-3b331524bba4","system_id":"levelo_inurba_marseille","lat":43.29463,"lon":5.43936,"is_reserved":false,"is_disabled":false,"rental_uris":{"android":"levelo://app?vid=39c8e79c-8fdb-43bf-bb5b-3b331524bba4","ios":"levelo://app?vid=39c8e79c-8fdb-43bf-bb5b-3b331524bba4"},"vehicle_type_id":"4","last_reported":1757718535,"current_range_meters":16000,"station_id":"","pricing_plan_id":"cebpf4jnsgd1na2vs0mg"},{"bike_id":"01e950df-131b-4d86-86fe-4218d641ead6","system_id":"levelo_inurba_marseille","lat":43.24555,"lon":5.39517,"is_reserved":false,"is_disabled":false,"rental_uris":{"android":"levelo://app?vid=01e950df-131b-4d86-86fe-4218d641ead6","ios":"levelo://app?vid=01e950df-131b-4d86-86fe-4218d641ead6"},"vehicle_type_id":"4","last_reported":1757718535,"current_range_meters":16400,"station_id":"ce4bhlp2rcd13ifvqgjg","pricing_plan_id":"cebpf4jnsgd1na2vs0mg"},{"bike_id":"6bc4356b-2683-48df-86f6-4f8709c558c6","system_id":"levelo_inurba_marseille","lat":43.24963,"lon":5.40492,"is_reserved":false,"is_disabled":false,"rental_uris":{"android":"levelo://app?vid=6bc4356b-2683-48df-86f6-4f8709c558c6","ios":"levelo://app?vid=6bc4356b-2683-48df-86f6-4f8709c558c6"},"vehicle_type_id":"4","last_reported":1757718535,"current_range_meters":16400,"station_id":"st_d2ngiaodas8pm72gd1h0","pricing_plan_id":"cebpf4jnsgd1na2vs0mg"},{"bike_id":"ee32b9e4-47c0-469e-8058-b6eda65feb79","system_id":"levelo_inurba_marseille","lat":43.28049,"lon":5.36972,"is_reserved":false,"is_disabled":false,"rental_uris":{"android":"levelo://app?vid=ee32b9e4-47c0-469e-8058-b6eda65feb79","ios":"levelo://app?vid=ee32b9e4-47c0-469e-8058-b6eda65feb79"},"vehicle_type_id":"4","last_reported":1757718535,"current_range_meters":16400,"station_id":"ce4bha12rcd13ifvqef0","pricing_plan_id":"cebpf4jnsgd1na2vs0mg"},{"bike_id":"1f361235-877f-4750-ae21-f35369fb4a6c","system_id":"levelo_inurba_marseille","lat":43.30924,"lon":5.40152,"is_reserved":false,"is_disabled":false,"rental_uris":{"android":"levelo://app?vid=1f361235-877f-4750-ae21-f35369fb4a6c","ios":"levelo://app?vid=1f361235-877f-4750-ae21-f35369fb4a6c"},"vehicle_type_id":"4","last_reported":1757718535,"current_range_meters":16400,"station_id":"ce4bgvp2rcd13ifvqct0","pricing_plan_id":"cebpf4jnsgd1na2vs0mg"},{"bike_id":"6fb5cb97-53ae-4a68-9c22-dcc5cae46a4e","system_id":"levelo_inurba_marseille","lat":43.30929,"lon":5.40143,"is_reserved":false,"is_disabled":false,"rental_uris":{"android":"levelo://app?vid=6fb5cb97-53ae-4a68-9c22-dcc5cae46a4e","ios":"levelo://app?vid=6fb5cb97-53ae-4a68-9c22-dcc5cae46a4e"},"vehicle_type_id":"4","last_reported":1757718535,"current_range_meters":16400,"station_id":"ce4bgvp2rcd13ifvqct0","pricing_plan_id":"cebpf4jnsgd1na2vs0mg"},{"bike_id":"ca44f2dd-ec3c-47b1-9f46-6ff64d61fa37","system_id":"levelo_inurba_marseille","lat":43.28158,"lon":5.42639,"is_reserved":false,"is_disabled":false,"rental_uris":{"android":"levelo://app?vid=ca44f2dd-ec3c-47b1-9f46-6ff64d61fa37","ios":"levelo://app?vid=ca44f2dd-ec3c-47b1-9f46-6ff64d61fa37"},"vehicle_type_id":"4","last_reported":1757718535,"current_range_meters":16400,"station_id":"ce4bhnh2rcd13ifvqgug","pricing_plan_id":"cebpf4jnsgd1na2vs0mg"},{"bike_id":"c64581ca-910b-4768-9541-64d9566cd765","system_id":"levelo_inurba_marseille","lat":43.30429,"lon":5.38887,"is_reserved":false,"is_disabled":false,"rental_uris":{"android":"levelo://app?vid=c64581ca-910b-4768-9541-64d9566cd765","ios":"levelo://app?vid=c64581ca-910b-4768-9541-64d9566cd765"},"vehicle_type_id":"4","last_reported":1757718535,"current_range_meters":16400,"station_id":"ce4bgk12rcd13ifvqbi0","pricing_plan_id":"cebpf4jnsgd1na2vs0mg"},{"bike_id":"04778aa2-3f70-44cc-b5b2-f7c38edf01c6","system_id":"levelo_inurba_marseille","lat":43.25875,"lon":5.39898,"is_reserved":false,"is_disabled":false,"rental_uris":{"android":"levelo://app?vid=04778aa2-3f70-44cc-b5b2-f7c38edf01c6","ios":"levelo://app?vid=04778aa2-3f70-44cc-b5b2-f7c38edf01c6"},"vehicle_type_id":"4","last_reported":1757718535,"current_range_meters":16400,"station_id":"ce4bhl92rcd13ifvqghg","pricing_plan_id":"cebpf4jnsgd1na2vs0mg"},{"bike_id":"d5fe8587-d577-4927-9f03-bf5f1fa338f3","system_id":"levelo_inurba_marseille","lat":43.326537,"lon":5.375203,"is_reserved":false,"is_disabled":false,"rental_uris":{"android":"levelo://app?vid=d5fe8587-d577-4927-9f03-bf5f1fa338f3","ios":"levelo://app?vid=d5fe8587-d577-4927-9f03-bf5f1fa338f3"},"vehicle_type_id":"4","last_reported":1757718535,"current_range_meters":16400,"station_id":"","pricing_plan_id":"cebpf4jnsgd1na2vs0mg"},{"bike_id":"9533c35d-03f6-47af-a779-6e3d0ff6d0c3","system_id":"levelo_inurba_marseille","lat":43.2795,"lon":5.41038,"is_reserved":false,"is_disabled":false,"rental_uris":{"android":"levelo://app?vid=9533c35d-03f6-47af-a779-6e3d0ff6d0c3","ios":"levelo://app?vid=9533c35d-03f6-47af-a779-6e3d0ff6d0c3"},"vehicle_type_id":"4","last_reported":1757718535,"current_range_meters":16400,"station_id":"ce4bhnp2rcd13ifvqh0g","pricing_plan_id":"cebpf4jnsgd1na2vs0mg"},{"bike_id":"34233ccb-dc71-4a77-97ed-5b4df5f57876","system_id":"levelo_inurba_marseille","lat":43.25877,"lon":5.39909,"is_reserved":false,"is_disabled":false,"rental_uris":{"android":"levelo://app?vid=34233ccb-dc71-4a77-97ed-5b4df5f57876","ios":"levelo://app?vid=34233ccb-dc71-4a77-97ed-5b4df5f57876"},"vehicle_type_id":"4","last_reported":1757718535,"current_range_meters":16400,"station_id":"ce4bhl92rcd13ifvqghg","pricing_plan_id":"cebpf4jnsgd1na2vs0mg"},{"bike_id":"d5c98035-fc72-4062-a3ec-13203f68e8ed","system_id":"levelo_inurba_marseille","lat":43.28865,"lon":5.42513,"is_reserved":false,"is_disabled":false,"rental_uris":{"android":"levelo://app?vid=d5c98035-fc72-4062-a3ec-13203f68e8ed","ios":"levelo://app?vid=d5c98035-fc72-4062-a3ec-13203f68e8ed"},"vehicle_type_id":"4","last_reported":1757718535,"current_range_meters":16400,"station_id":"","pricing_plan_id":"cebpf4jnsgd1na2vs0mg"},{"bike_id":"dcae514d-9200-43c1-9267-dee91427cf46","system_id":"levelo_inurba_marseille","lat":43.25088,"lon":5.3952,"is_reserved":false,"is_disabled":false,"rental_uris":{"android":"levelo://app?vid=dcae514d-9200-43c1-9267-dee91427cf46","ios":"levelo://app?vid=dcae514d-9200-43c1-9267-dee91427cf46"},"vehicle_type_id":"4","last_reported":1757718535,"current_range_meters":16400,"station_id":"ce4bhm12rcd13ifvqgkg","pricing_plan_id":"cebpf4jnsgd1na2vs0mg"},{"bike_id":"02dbb44c-70e3-4a7a-b86e-6159cc35ba47","system_id":"levelo_inurba_marseille","lat":43.29587,"lon":5.38689,"is_reserved":false,"is_disabled":false,"rental_uris":{"android":"levelo://app?vid=02dbb44c-70e3-4a7a-b86e-6159cc35ba47","ios":"levelo://app?vid=02dbb44c-70e3-4a7a-b86e-6159cc35ba47"},"vehicle_type_id":"4","last_reported":1757718535,"current_range_meters":16400,"station_id":"ce4bgih2rcd13ifvqba0","pricing_plan_id":"cebpf4jnsgd1na2vs0mg"},{"bike_id":"4f3c0b34-d342-466a-a243-f2e18ef6f515","system_id":"levelo_inurba_marseille","lat":43.24829,"lon":5.37512,"is_reserved":false,"is_disabled":false,"rental_uris":{"android":"levelo://app?vid=4f3c0b34-d342-466a-a243-f2e18ef6f515","ios":"levelo://app?vid=4f3c0b34-d342-466a-a243-f2e18ef6f515"},"vehicle_type_id":"4","last_reported":1757718535,"current_range_meters":16400,"station_id":"ce4bhgh2rcd13ifvqfb0","pricing_plan_id":"cebpf4jnsgd1na2vs0mg"},{"bike_id":"49672130-5e5d-4bd8-b10c-10c3bec7a880","system_id":"levelo_inurba_marseille","lat":43.35011,"lon":5.35026,"is_reserved":false,"is_disabled":false,"rental_uris":{"android":"levelo://app?vid=49672130-5e5d-4bd8-b10c-10c3bec7a880","ios":"levelo://app?vid=49672130-5e5d-4bd8-b10c-10c3bec7a880"},"vehicle_type_id":"4","last_reported":1757718535,"current_range_meters":16800,"station_id":"","pricing_plan_id":"cebpf4jnsgd1na2vs0mg"},{"bike_id":"485f96ad-9597-42ae-b672-a0622d98b9c2","system_id":"levelo_inurba_marseille","lat":43.30779,"lon":5.37647,"is_reserved":false,"is_disabled":false,"rental_uris":{"android":"levelo://app?vid=485f96ad-9597-42ae-b672-a0622d98b9c2","ios":"levelo://app?vid=485f96ad-9597-42ae-b672-a0622d98b9c2"},"vehicle_type_id":"4","last_reported":1757718535,"current_range_meters":16800,"station_id":"ce4bgv92rcd13ifvqcq0","pricing_plan_id":"cebpf4jnsgd1na2vs0mg"},{"bike_id":"55d59e02-f5a5-4e1a-9360-556e842fa2a4","system_id":"levelo_inurba_marseille","lat":43.33764,"lon":5.37496,"is_reserved":false,"is_disabled":false,"rental_uris":{"android":"levelo://app?vid=55d59e02-f5a5-4e1a-9360-556e842fa2a4","ios":"levelo://app?vid=55d59e02-f5a5-4e1a-9360-556e842fa2a4"},"vehicle_type_id":"4","last_reported":1757718535,"current_range_meters":16800,"station_id":"","pricing_plan_id":"cebpf4jnsgd1na2vs0mg"},{"bike_id":"0f0e66ec-5f1c-40a8-8c5d-5ba1924a75a6","system_id":"levelo_inurba_marseille","lat":43.2841,"lon":5.37504,"is_reserved":false,"is_disabled":true,"rental_uris":{"android":"levelo://app?vid=0f0e66ec-5f1c-40a8-8c5d-5ba1924a75a6","ios":"levelo://app?vid=0f0e66ec-5f1c-40a8-8c5d-5ba1924a75a6"},"vehicle_type_id":"4","last_reported":1757718535,"current_range_meters":16800,"station_id":"ce4bh412rcd13ifvqds0","pricing_plan_id":"cebpf4jnsgd1na2vs0mg"},{"bike_id":"d8e0ec4a-5e20-4c40-8747-0a1d961db4a0","system_id":"levelo_inurba_marseille","lat":43.29569,"lon":5.38535,"is_reserved":false,"is_disabled":false,"rental_uris":{"android":"levelo://app?vid=d8e0ec4a-5e20-4c40-8747-0a1d961db4a0","ios":"levelo://app?vid=d8e0ec4a-5e20-4c40-8747-0a1d961db4a0"},"vehicle_type_id":"4","last_reported":1757718535,"current_range_meters":16800,"station_id":"ce4bgih2rcd13ifvqba0","pricing_plan_id":"cebpf4jnsgd1na2vs0mg"},{"bike_id":"84be000e-b186-4e60-8aaa-b7a0f42a7175","system_id":"levelo_inurba_marseille","lat":43.337776,"lon":5.374315,"is_reserved":false,"is_disabled":false,"rental_uris":{"android":"levelo://app?vid=84be000e-b186-4e60-8aaa-b7a0f42a7175","ios":"levelo://app?vid=84be000e-b186-4e60-8aaa-b7a0f42a7175"},"vehicle_type_id":"4","last_reported":1757718535,"current_range_meters":16800,"station_id":"","pricing_plan_id":"cebpf4jnsgd1na2vs0mg"},{"bike_id":"7dc00165-e583-4bd0-bbf8-f77743c96ba8","system_id":"levelo_inurba_marseille","lat":43.32362,"lon":5.36748,"is_reserved":false,"is_disabled":false,"rental_uris":{"android":"levelo://app?vid=7dc00165-e583-4bd0-bbf8-f77743c96ba8","ios":"levelo://app?vid=7dc00165-e583-4bd0-bbf8-f77743c96ba8"},"vehicle_type_id":"4","last_reported":1757718535,"current_range_meters":16800,"station_id":"ce4bhsh2rcd13ifvqi2g","pricing_plan_id":"cebpf4jnsgd1na2vs0mg"},{"bike_id":"2f51f322-8b2f-46cb-9e33-a6733b21e9ec","system_id":"levelo_inurba_marseille","lat":43.30424,"lon":5.38878,"is_reserved":false,"is_disabled":false,"rental_uris":{"android":"levelo://app?vid=2f51f322-8b2f-46cb-9e33-a6733b21e9ec","ios":"levelo://app?vid=2f51f322-8b2f-46cb-9e33-a6733b21e9ec"},"vehicle_type_id":"4","last_reported":1757718535,"current_range_meters":16800,"station_id":"ce4bgk12rcd13ifvqbi0","pricing_plan_id":"cebpf4jnsgd1na2vs0mg"},{"bike_id":"926d2128-f259-4642-bed4-66d7528051aa","system_id":"levelo_inurba_marseille","lat":43.28002,"lon":5.40015,"is_reserved":false,"is_disabled":false,"rental_uris":{"android":"levelo://app?vid=926d2128-f259-4642-bed4-66d7528051aa","ios":"levelo://app?vid=926d2128-f259-4642-bed4-66d7528051aa"},"vehicle_type_id":"4","last_reported":1757718535,"current_range_meters":16800,"station_id":"ce4bho92rcd13ifvqh4g","pricing_plan_id":"cebpf4jnsgd1na2vs0mg"},{"bike_id":"ba3bd1bb-48a6-44ab-9913-ecc7cc15b20c","system_id":"levelo_inurba_marseille","lat":43.29885,"lon":5.38904,"is_reserved":false,"is_disabled":false,"rental_uris":{"android":"levelo://app?vid=ba3bd1bb-48a6-44ab-9913-ecc7cc15b20c","ios":"levelo://app?vid=ba3bd1bb-48a6-44ab-9913-ecc7cc15b20c"},"vehicle_type_id":"4","last_reported":1757718535,"current_range_meters":16800,"station_id":"ce4bh392rcd13ifvqdl0","pricing_plan_id":"cebpf4jnsgd1na2vs0mg"},{"bike_id":"beb6189c-c21e-4836-b631-6b5c31a632d8","system_id":"levelo_inurba_marseille","lat":43.22572,"lon":5.41615,"is_reserved":false,"is_disabled":false,"rental_uris":{"android":"levelo://app?vid=beb6189c-c21e-4836-b631-6b5c31a632d8","ios":"levelo://app?vid=beb6189c-c21e-4836-b631-6b5c31a632d8"},"vehicle_type_id":"4","last_reported":1757718535,"current_range_meters":17200,"station_id":"st_d2o4gvlbi1j2169b742g","pricing_plan_id":"cebpf4jnsgd1na2vs0mg"},{"bike_id":"905795ae-1ee0-48b1-90e2-daa163d38c92","system_id":"levelo_inurba_marseille","lat":43.30432,"lon":5.38887,"is_reserved":false,"is_disabled":false,"rental_uris":{"android":"levelo://app?vid=905795ae-1ee0-48b1-90e2-daa163d38c92","ios":"levelo://app?vid=905795ae-1ee0-48b1-90e2-daa163d38c92"},"vehicle_type_id":"4","last_reported":1757718535,"current_range_meters":17200,"station_id":"ce4bgk12rcd13ifvqbi0","pricing_plan_id":"cebpf4jnsgd1na2vs0mg"},{"bike_id":"7e3c255d-f870-4dbb-9257-435417d659ee","system_id":"levelo_inurba_marseille","lat":43.30885,"lon":5.3964,"is_reserved":false,"is_disabled":false,"rental_uris":{"android":"levelo://app?vid=7e3c255d-f870-4dbb-9257-435417d659ee","ios":"levelo://app?vid=7e3c255d-f870-4dbb-9257-435417d659ee"},"vehicle_type_id":"4","last_reported":1757718535,"current_range_meters":17200,"station_id":"ce4bh012rcd13ifvqcv0","pricing_plan_id":"cebpf4jnsgd1na2vs0mg"},{"bike_id":"ff84926c-4eb4-4efb-a9c7-890e126080a3","system_id":"levelo_inurba_marseille","lat":43.298031,"lon":5.381014,"is_reserved":false,"is_disabled":false,"rental_uris":{"android":"levelo://app?vid=ff84926c-4eb4-4efb-a9c7-890e126080a3","ios":"levelo://app?vid=ff84926c-4eb4-4efb-a9c7-890e126080a3"},"vehicle_type_id":"4","last_reported":1757718535,"current_range_meters":17200,"station_id":"ce4bgj92rcd13ifvqbd0","pricing_plan_id":"cebpf4jnsgd1na2vs0mg"},{"bike_id":"d9c11a94-d122-4240-b95b-24fdee8810ac","system_id":"levelo_inurba_marseille","lat":43.2827,"lon":5.39907,"is_reserved":false,"is_disabled":false,"rental_uris":{"android":"levelo://app?vid=d9c11a94-d122-4240-b95b-24fdee8810ac","ios":"levelo://app?vid=d9c11a94-d122-4240-b95b-24fdee8810ac"},"vehicle_type_id":"4","last_reported":1757718535,"current_range_meters":17200,"station_id":"","pricing_plan_id":"cebpf4jnsgd1na2vs0mg"},{"bike_id":"c12de684-1074-4d56-8041-f47f42c96f1b","system_id":"levelo_inurba_marseille","lat":43.2957,"lon":5.38145,"is_reserved":false,"is_disabled":false,"rental_uris":{"android":"levelo://app?vid=c12de684-1074-4d56-8041-f47f42c96f1b","ios":"levelo://app?vid=c12de684-1074-4d56-8041-f47f42c96f1b"},"vehicle_type_id":"4","last_reported":1757718535,"current_range_meters":17200,"station_id":"ce4bgl12rcd13ifvqbo0","pricing_plan_id":"cebpf4jnsgd1na2vs0mg"},{"bike_id":"ba130961-8fba-495b-b802-0f3495419d49","system_id":"levelo_inurba_marseille","lat":43.30941,"lon":5.40174,"is_reserved":false,"is_disabled":false,"rental_uris":{"android":"levelo://app?vid=ba130961-8fba-495b-b802-0f3495419d49","ios":"levelo://app?vid=ba130961-8fba-495b-b802-0f3495419d49"},"vehicle_type_id":"4","last_reported":1757718535,"current_range_meters":17200,"station_id":"ce4bgvp2rcd13ifvqct0","pricing_plan_id":"cebpf4jnsgd1na2vs0mg"},{"bike_id":"22056c1f-5a5a-4970-84ab-9172106e8c1b","system_id":"levelo_inurba_marseille","lat":43.26255,"lon":5.39889,"is_reserved":false,"is_disabled":false,"rental_uris":{"android":"levelo://app?vid=22056c1f-5a5a-4970-84ab-9172106e8c1b","ios":"levelo://app?vid=22056c1f-5a5a-4970-84ab-9172106e8c1b"},"vehicle_type_id":"4","last_reported":1757718535,"current_range_meters":17200,"station_id":"","pricing_plan_id":"cebpf4jnsgd1na2vs0mg"},{"bike_id":"a3088b90-b012-4cbd-869b-7f931d17102d","system_id":"levelo_inurba_marseille","lat":43.25576,"lon":5.38224,"is_reserved":false,"is_disabled":false,"rental_uris":{"android":"levelo://app?vid=a3088b90-b012-4cbd-869b-7f931d17102d","ios":"levelo://app?vid=a3088b90-b012-4cbd-869b-7f931d17102d"},"vehicle_type_id":"4","last_reported":1757718535,"current_range_meters":17200,"station_id":"ce4bhih2rcd13ifvqfs0","pricing_plan_id":"cebpf4jnsgd1na2vs0mg"},{"bike_id":"cd104b68-7370-4e88-ba9c-1edeee0f6c77","system_id":"levelo_inurba_marseille","lat":43.25226,"lon":5.42475,"is_reserved":false,"is_disabled":false,"rental_uris":{"android":"levelo://app?vid=cd104b68-7370-4e88-ba9c-1edeee0f6c77","ios":"levelo://app?vid=cd104b68-7370-4e88-ba9c-1edeee0f6c77"},"vehicle_type_id":"4","last_reported":1757718535,"current_range_meters":17600,"station_id":"","pricing_plan_id":"cebpf4jnsgd1na2vs0mg"},{"bike_id":"d9c66413-fc0c-4d58-b9df-c55859e73212","system_id":"levelo_inurba_marseille","lat":43.28466,"lon":5.35887,"is_reserved":false,"is_disabled":true,"rental_uris":{"android":"levelo://app?vid=d9c66413-fc0c-4d58-b9df-c55859e73212","ios":"levelo://app?vid=d9c66413-fc0c-4d58-b9df-c55859e73212"},"vehicle_type_id":"4","last_reported":1757718535,"current_range_meters":17600,"station_id":"ce4bhah2rcd13ifvqei0","pricing_plan_id":"cebpf4jnsgd1na2vs0mg"},{"bike_id":"1bd07d49-9ddf-47b9-97ed-19427f874804","system_id":"levelo_inurba_marseille","lat":43.30914,"lon":5.40148,"is_reserved":false,"is_disabled":false,"rental_uris":{"android":"levelo://app?vid=1bd07d49-9ddf-47b9-97ed-19427f874804","ios":"levelo://app?vid=1bd07d49-9ddf-47b9-97ed-19427f874804"},"vehicle_type_id":"4","last_reported":1757718535,"current_range_meters":17600,"station_id":"ce4bgvp2rcd13ifvqct0","pricing_plan_id":"cebpf4jnsgd1na2vs0mg"},{"bike_id":"5bcfbd31-a961-4999-b9f2-efe4e21be0e9","system_id":"levelo_inurba_marseille","lat":43.30297,"lon":5.39203,"is_reserved":false,"is_disabled":false,"rental_uris":{"android":"levelo://app?vid=5bcfbd31-a961-4999-b9f2-efe4e21be0e9","ios":"levelo://app?vid=5bcfbd31-a961-4999-b9f2-efe4e21be0e9"},"vehicle_type_id":"4","last_reported":1757718535,"current_range_meters":17600,"station_id":"ce4bgkh2rcd13ifvqbk0","pricing_plan_id":"cebpf4jnsgd1na2vs0mg"},{"bike_id":"2ef0338d-2a5b-49c8-b8b3-df9ba9cec0b6","system_id":"levelo_inurba_marseille","lat":43.28407,"lon":5.3751,"is_reserved":false,"is_disabled":false,"rental_uris":{"android":"levelo://app?vid=2ef0338d-2a5b-49c8-b8b3-df9ba9cec0b6","ios":"levelo://app?vid=2ef0338d-2a5b-49c8-b8b3-df9ba9cec0b6"},"vehicle_type_id":"4","last_reported":1757718535,"current_range_meters":17600,"station_id":"ce4bh412rcd13ifvqds0","pricing_plan_id":"cebpf4jnsgd1na2vs0mg"},{"bike_id":"709587d6-d04b-4410-b757-b76147562ad8","system_id":"levelo_inurba_marseille","lat":43.30541,"lon":5.38426,"is_reserved":false,"is_disabled":false,"rental_uris":{"android":"levelo://app?vid=709587d6-d04b-4410-b757-b76147562ad8","ios":"levelo://app?vid=709587d6-d04b-4410-b757-b76147562ad8"},"vehicle_type_id":"4","last_reported":1757718535,"current_range_meters":17600,"station_id":"ce4bgg92rcd13ifvqb30","pricing_plan_id":"cebpf4jnsgd1na2vs0mg"},{"bike_id":"d50939ff-72cd-4b68-8002-44541c79e2d1","system_id":"levelo_inurba_marseille","lat":43.33598,"lon":5.4101,"is_reserved":false,"is_disabled":false,"rental_uris":{"android":"levelo://app?vid=d50939ff-72cd-4b68-8002-44541c79e2d1","ios":"levelo://app?vid=d50939ff-72cd-4b68-8002-44541c79e2d1"},"vehicle_type_id":"4","last_reported":1757718535,"current_range_meters":17600,"station_id":"ce4bhqh2rcd13ifvqhmg","pricing_plan_id":"cebpf4jnsgd1na2vs0mg"},{"bike_id":"0cef82c9-4baf-4345-8ffe-64ab9ec1eb98","system_id":"levelo_inurba_marseille","lat":43.32654,"lon":5.40987,"is_reserved":false,"is_disabled":false,"rental_uris":{"android":"levelo://app?vid=0cef82c9-4baf-4345-8ffe-64ab9ec1eb98","ios":"levelo://app?vid=0cef82c9-4baf-4345-8ffe-64ab9ec1eb98"},"vehicle_type_id":"4","last_reported":1757718535,"current_range_meters":17600,"station_id":"ce4bhpp2rcd13ifvqhgg","pricing_plan_id":"cebpf4jnsgd1na2vs0mg"},{"bike_id":"369b4198-f8ce-4687-8c57-ab005c8df082","system_id":"levelo_inurba_marseille","lat":43.27944,"lon":5.41053,"is_reserved":false,"is_disabled":false,"rental_uris":{"android":"levelo://app?vid=369b4198-f8ce-4687-8c57-ab005c8df082","ios":"levelo://app?vid=369b4198-f8ce-4687-8c57-ab005c8df082"},"vehicle_type_id":"4","last_reported":1757718535,"current_range_meters":17600,"station_id":"ce4bhnp2rcd13ifvqh0g","pricing_plan_id":"cebpf4jnsgd1na2vs0mg"},{"bike_id":"31195751-bbc1-4ea5-8068-c21d8881b649","system_id":"levelo_inurba_marseille","lat":43.24079,"lon":5.37724,"is_reserved":false,"is_disabled":false,"rental_uris":{"android":"levelo://app?vid=31195751-bbc1-4ea5-8068-c21d8881b649","ios":"levelo://app?vid=31195751-bbc1-4ea5-8068-c21d8881b649"},"vehicle_type_id":"4","last_reported":1757718535,"current_range_meters":18000,"station_id":"ce4bhnp2rcd13ifvqgvg","pricing_plan_id":"cebpf4jnsgd1na2vs0mg"},{"bike_id":"0698b43c-1f5f-4fe9-bc60-835539c760ec","system_id":"levelo_inurba_marseille","lat":43.287448,"lon":5.370104,"is_reserved":false,"is_disabled":false,"rental_uris":{"android":"levelo://app?vid=0698b43c-1f5f-4fe9-bc60-835539c760ec","ios":"levelo://app?vid=0698b43c-1f5f-4fe9-bc60-835539c760ec"},"vehicle_type_id":"4","last_reported":1757718535,"current_range_meters":18000,"station_id":"","pricing_plan_id":"cebpf4jnsgd1na2vs0mg"},{"bike_id":"9e35ba16-84c7-4860-9af9-a28d3dde94a3","system_id":"levelo_inurba_marseille","lat":43.23152,"lon":5.43719,"is_reserved":false,"is_disabled":false,"rental_uris":{"android":"levelo://app?vid=9e35ba16-84c7-4860-9af9-a28d3dde94a3","ios":"levelo://app?vid=9e35ba16-84c7-4860-9af9-a28d3dde94a3"},"vehicle_type_id":"4","last_reported":1757718535,"current_range_meters":18000,"station_id":"ce4bhmp2rcd13ifvqgog","pricing_plan_id":"cebpf4jnsgd1na2vs0mg"},{"bike_id":"6ce09d0f-f80f-40c7-88c5-4e4555de0566","system_id":"levelo_inurba_marseille","lat":43.29513,"lon":5.39396,"is_reserved":false,"is_disabled":true,"rental_uris":{"android":"levelo://app?vid=6ce09d0f-f80f-40c7-88c5-4e4555de0566","ios":"levelo://app?vid=6ce09d0f-f80f-40c7-88c5-4e4555de0566"},"vehicle_type_id":"4","last_reported":1757718535,"current_range_meters":18000,"station_id":"ce4bh292rcd13ifvqdf0","pricing_plan_id":"cebpf4jnsgd1na2vs0mg"},{"bike_id":"4d6e6605-7f16-44fa-a19a-c138ee7cb360","system_id":"levelo_inurba_marseille","lat":43.33754,"lon":5.37438,"is_reserved":false,"is_disabled":false,"rental_uris":{"android":"levelo://app?vid=4d6e6605-7f16-44fa-a19a-c138ee7cb360","ios":"levelo://app?vid=4d6e6605-7f16-44fa-a19a-c138ee7cb360"},"vehicle_type_id":"4","last_reported":1757718535,"current_range_meters":18000,"station_id":"","pricing_plan_id":"cebpf4jnsgd1na2vs0mg"},{"bike_id":"1eaf7d24-f23e-4e79-b6f5-17176bccc028","system_id":"levelo_inurba_marseille","lat":43.27994,"lon":5.38687,"is_reserved":false,"is_disabled":true,"rental_uris":{"android":"levelo://app?vid=1eaf7d24-f23e-4e79-b6f5-17176bccc028","ios":"levelo://app?vid=1eaf7d24-f23e-4e79-b6f5-17176bccc028"},"vehicle_type_id":"4","last_reported":1757718535,"current_range_meters":18000,"station_id":"","pricing_plan_id":"cebpf4jnsgd1na2vs0mg"},{"bike_id":"ee42c31a-b74b-4b2d-917a-cd50dc10c6ce","system_id":"levelo_inurba_marseille","lat":43.33018,"lon":5.39034,"is_reserved":false,"is_disabled":false,"rental_uris":{"android":"levelo://app?vid=ee42c31a-b74b-4b2d-917a-cd50dc10c6ce","ios":"levelo://app?vid=ee42c31a-b74b-4b2d-917a-cd50dc10c6ce"},"vehicle_type_id":"4","last_reported":1757718535,"current_range_meters":18000,"station_id":"ce4bhr92rcd13ifvqhrg","pricing_plan_id":"cebpf4jnsgd1na2vs0mg"},{"bike_id":"0327f043-3240-48b2-b1f4-abc02165d232","system_id":"levelo_inurba_marseille","lat":43.24626,"lon":5.38891,"is_reserved":false,"is_disabled":false,"rental_uris":{"android":"levelo://app?vid=0327f043-3240-48b2-b1f4-abc02165d232","ios":"levelo://app?vid=0327f043-3240-48b2-b1f4-abc02165d232"},"vehicle_type_id":"4","last_reported":1757718535,"current_range_meters":18000,"station_id":"ce4bhg12rcd13ifvqf60","pricing_plan_id":"cebpf4jnsgd1na2vs0mg"},{"bike_id":"2fccd658-8d5e-49e9-8e30-c11aebcf76e2","system_id":"levelo_inurba_marseille","lat":43.301327,"lon":5.39868,"is_reserved":false,"is_disabled":false,"rental_uris":{"android":"levelo://app?vid=2fccd658-8d5e-49e9-8e30-c11aebcf76e2","ios":"levelo://app?vid=2fccd658-8d5e-49e9-8e30-c11aebcf76e2"},"vehicle_type_id":"4","last_reported":1757718535,"current_range_meters":18000,"station_id":"ce4bh0h2rcd13ifvqd40","pricing_plan_id":"cebpf4jnsgd1na2vs0mg"},{"bike_id":"566b1f71-e6f7-4b45-845a-581254de6061","system_id":"levelo_inurba_marseille","lat":43.27482,"lon":5.42469,"is_reserved":false,"is_disabled":false,"rental_uris":{"android":"levelo://app?vid=566b1f71-e6f7-4b45-845a-581254de6061","ios":"levelo://app?vid=566b1f71-e6f7-4b45-845a-581254de6061"},"vehicle_type_id":"4","last_reported":1757718535,"current_range_meters":18000,"station_id":"ce4bhn92rcd13ifvqgrg","pricing_plan_id":"cebpf4jnsgd1na2vs0mg"},