{"last_updated":1706907983,"ttl":30,"version":"2.2","data":{"bikes":[{"bike_id":"8075556e-9c83-4ece-b92f-e5e90a5fd8a2","system_id":"levelo_inurba_marseille","lat":43.31306,"lon":5.37258,"is_reserved":false,"is_disabled":false,"rental_uris":{"android":"levelo://app?vid=8075556e-9c83-4ece-b92f-e5e90a5fd8a2","ios":"levelo://app?vid=8075556e-9c83-4ece-b92f-e5e90a5fd8a2"},"vehicle_type_id":"4","last_reported":1706907983,"current_range_meters":7600,"station_id":"","pricing_plan_id":"free"},{"bike_id":"4935c2bb-fa9e-412b-9ac1-51d8f5e7ba5e","system_id":"levelo_inurba_marseille","lat":43.30863,"lon":5.37155,"is_reserved":false,"is_disabled":false,"rental_uris":{"android":"levelo://app?vid=4935c2bb-fa9e-412b-9ac1-51d8f5e7ba5e","ios":"levelo://app?vid=4935c2bb-fa9e-412b-9ac1-51d8f5e7ba5e"},"vehicle_type_id":"4","last_reported":1706907983,"current_range_meters":0,"station_id":"","pricing_plan_id":"free"},{"bike_id":"b91a7d45-03c0-4195-b401-17dec8d47e7a","system_id":"levelo_inurba_marseille","lat":43.30537,"lon":5.367345,"is_reserved":false,"is_disabled":false,"rental_uris":{"android":"levelo://app?vid=b91a7d45-03c0-4195-b401-17dec8d47e7a","ios":"levelo://app?vid=b91a7d45-03c0-4195-b401-17dec8d47e7a"},"vehicle_type_id":"4","last_reported":1706907983,"current_range_meters":2400,"station_id":"ce4bgrp2rcd13ifvqc9g","pricing_plan_id":"free"},{"bike_id":"f4266a27-3eea-410f-83b5-2e6941fe3843","system_id":"levelo_inurba_marseille","lat":43.305368,"lon":5.367343,"is_reserved":false,"is_disabled":false,"rental_uris":{"android":"levelo://app?vid=f4266a27-3eea-410f-83b5-2e6941fe3843","ios":"levelo://app?vid=f4266a27-3eea-410f-83b5-2e6941fe3843"},"vehicle_type_id":"4","last_reported":1706907983,"current_range_meters":6800,"station_id":"ce4bgrp2rcd13ifvqc9g","pricing_plan_id":"free"},{"bike_id":"b7d0fca8-fc67-43a5-b74e-7f658427ae6b","system_id":"levelo_inurba_marseille","lat":43.305712,"lon":5.365641,"is_reserved":false,"is_disabled":false,"rental_uris":{"android":"levelo://app?vid=b7d0fca8-fc67-43a5-b74e-7f658427ae6b","ios":"levelo://app?vid=b7d0fca8-fc67-43a5-b74e-7f658427ae6b"},"vehicle_type_id":"4","last_reported":1706907983,"current_range_meters":10400,"station_id":"ce4bgs12rcd13ifvqcag","pricing_plan_id":"free"},{"bike_id":"bca9e367-0133-4373-858a-c0148c5c19d1","system_id":"levelo_inurba_marseille","lat":43.311125,"lon":5.377624,"is_reserved":false,"is_disabled":false,"rental_uris":{"android":"levelo://app?vid=bca9e367-0133-4373-858a-c0148c5c19d1","ios":"levelo://app?vid=bca9e367-0133-4373-858a-c0148c5c19d1"},"vehicle_type_id":"4","last_reported":1706907983,"current_range_meters":22400,"station_id":"ce4bgt92rcd13ifvqcg0","pricing_plan_id":"free"},{"bike_id":"3adfefd7-2e3e-4f0a-a6b8-a0613d1259d7","system_id":"levelo_inurba_marseille","lat":43.31117,"lon":5.37777,"is_reserved":false,"is_disabled":false,"rental_uris":{"android":"levelo://app?vid=3adfefd7-2e3e-4f0a-a6b8-a0613d1259d7","ios":"levelo://app?vid=3adfefd7-2e3e-4f0a-a6b8-a0613d1259d7"},"vehicle_type_id":"4","last_reported":1706907983,"current_range_meters":19200,"station_id":"ce4bgt92rcd13ifvqcg0","pricing_plan_id":"free"},{"bike_id":"bc7ec735-7b15-4a8c-a122-c8c4d5bc571a","system_id":"levelo_inurba_marseille","lat":43.307945,"lon":5.376487,"is_reserved":false,"is_disabled":false,"rental_uris":{"android":"levelo://app?vid=bc7ec735-7b15-4a8c-a122-c8c4d5bc571a","ios":"levelo://app?vid=bc7ec735-7b15-4a8c-a122-c8c4d5bc571a"},"vehicle_type_id":"4","last_reported":1706907983,"current_range_meters":0,"station_id":"ce4bgv92rcd13ifvqcq0","pricing_plan_id":"free"},{"bike_id":"3fd6b355-cd17-4e44-a4ed-1c6a0b48a8ac","system_id":"levelo_inurba_marseille","lat":43.307945,"lon":5.376487,"is_reserved":false,"is_disabled":false,"rental_uris":{"android":"levelo://app?vid=3fd6b355-cd17-4e44-a4ed-1c6a0b48a8ac","ios":"levelo://app?vid=3fd6b355-cd17-4e44-a4ed-1c6a0b48a8ac"},"vehicle_type_id":"4","last_reported":1706907983,"current_range_meters":6000,"station_id":"ce4bgv92rcd13ifvqcq0","pricing_plan_id":"free"},{"bike_id":"956baefa-276e-4952-83b1-dd8a9f77b0d2","system_id":"levelo_inurba_marseille","lat":43.307945,"lon":5.376487,"is_reserved":false,"is_disabled":false,"rental_uris":{"android":"levelo://app?vid=956baefa-276e-4952-83b1-dd8a9f77b0d2","ios":"levelo://app?vid=956baefa-276e-4952-83b1-dd8a9f77b0d2"},"vehicle_type_id":"4","last_reported":1706907983,"current_range_meters":5600,"station_id":"ce4bgv92rcd13ifvqcq0","pricing_plan_id":"free"},{"bike_id":"600e6c56-502c-498c-9b74-2ede5b850d18","system_id":"levelo_inurba_marseille","lat":43.307945,"lon":5.376487,"is_reserved":false,"is_disabled":false,"rental_uris":{"android":"levelo://app?vid=600e6c56-502c-498c-9b74-2ede5b850d18","ios":"levelo://app?vid=600e6c56-502c-498c-9b74-2ede5b850d18"},"vehicle_type_id":"4","last_reported":1706907983,"current_range_meters":27600,"station_id":"ce4bgv92rcd13ifvqcq0","pricing_plan_id":"free"},{"bike_id":"999edf58-e3e3-4653-8556-d4cfa02487c2","system_id":"levelo_inurba_marseille","lat":43.31697,"lon":5.37748,"is_reserved":false,"is_disabled":false,"rental_uris":{"android":"levelo://app?vid=999edf58-e3e3-4653-8556-d4cfa02487c2","ios":"levelo://app?vid=999edf58-e3e3-4653-8556-d4cfa02487c2"},"vehicle_type_id":"4","last_reported":1706907983,"current_range_meters":0,"station_id":"ce4bgth2rcd13ifvqch0","pricing_plan_id":"free"},{"bike_id":"6c88268f-a2a7-465d-8a0f-f73b9031ffd3","system_id":"levelo_inurba_marseille","lat":43.317075,"lon":5.377367,"is_reserved":false,"is_disabled":false,"rental_uris":{"android":"levelo://app?vid=6c88268f-a2a7-465d-8a0f-f73b9031ffd3","ios":"levelo://app?vid=6c88268f-a2a7-465d-8a0f-f73b9031ffd3"},"vehicle_type_id":"4","last_reported":1706907983,"current_range_meters":0,"station_id":"ce4bgth2rcd13ifvqch0","pricing_plan_id":"free"},{"bike_id":"0f833ad1-607f-417a-a09f-4998cd54a18f","system_id":"levelo_inurba_marseille","lat":43.317125,"lon":5.377509,"is_reserved":false,"is_disabled":false,"rental_uris":{"android":"levelo://app?vid=0f833ad1-607f-417a-a09f-4998cd54a18f","ios":"levelo://app?vid=0f833ad1-607f-417a-a09f-4998cd54a18f"},"vehicle_type_id":"4","last_reported":1706907983,"current_range_meters":0,"station_id":"ce4bgth2rcd13ifvqch0","pricing_plan_id":"free"},{"bike_id":"1b535bc9-41ba-46f2-82a9-628781479b42","system_id":"levelo_inurba_marseille","lat":43.304274,"lon":5.388873,"is_reserved":false,"is_disabled":false,"rental_uris":{"android":"levelo://app?vid=1b535bc9-41ba-46f2-82a9-628781479b42","ios":"levelo://app?vid=1b535bc9-41ba-46f2-82a9-628781479b42"},"vehicle_type_id":"4","last_reported":1706907983,"current_range_meters":6400,"station_id":"ce4bgk12rcd13ifvqbi0","pricing_plan_id":"free"},{"bike_id":"c81085a5-cd68-4bca-9506-574815927090","system_id":"levelo_inurba_marseille","lat":43.30304,"lon":5.368987,"is_reserved":false,"is_disabled":false,"rental_uris":{"android":"levelo://app?vid=c81085a5-cd68-4bca-9506-574815927090","ios":"levelo://app?vid=c81085a5-cd68-4bca-9506-574815927090"},"vehicle_type_id":"4","last_reported":1706907983,"current_range_meters":17600,"station_id":"ce4bgqh2rcd13ifvqc5g","pricing_plan_id":"free"},{"bike_id":"963ca9b6-5691-4683-bd64-5ec33f753d91","system_id":"levelo_inurba_marseille","lat":43.30304,"lon":5.368987,"is_reserved":false,"is_disabled":false,"rental_uris":{"android":"levelo://app?vid=963ca9b6-5691-4683-bd64-5ec33f753d91","ios":"levelo://app?vid=963ca9b6-5691-4683-bd64-5ec33f753d91"},"vehicle_type_id":"4","last_reported":1706907983,"current_range_meters":13200,"station_id":"ce4bgqh2rcd13ifvqc5g","pricing_plan_id":"free"},{"bike_id":"55d2f762-0c29-4f6e-a5d9-bb2efb902b59","system_id":"levelo_inurba_marseille","lat":43.303046,"lon":5.368981,"is_reserved":false,"is_disabled":false,"rental_uris":{"android":"levelo://app?vid=55d2f762-0c29-4f6e-a5d9-bb2efb902b59","ios":"levelo://app?vid=55d2f762-0c29-4f6e-a5d9-bb2efb902b59"},"vehicle_type_id":"4","last_reported":1706907983,"current_range_meters":1200,"station_id":"ce4bgqh2rcd13ifvqc5g","pricing_plan_id":"free"},{"bike_id":"1a602077-a2da-4c0c-a77b-f923a08d5789","system_id":"levelo_inurba_marseille","lat":43.315293,"lon":5.380349,"is_reserved":false,"is_disabled":false,"rental_uris":{"android":"levelo://app?vid=1a602077-a2da-4c0c-a77b-f923a08d5789","ios":"levelo://app?vid=1a602077-a2da-4c0c-a77b-f923a08d5789"},"vehicle_type_id":"4","last_reported":1706907983,"current_range_meters":25200,"station_id":"ce4bhsp2rcd13ifvqi50","pricing_plan_id":"free"},{"bike_id":"da9d8b73-e4eb-4d26-82d2-b4644779f7dd","system_id":"levelo_inurba_marseille","lat":43.301939,"lon":5.366286,"is_reserved":false,"is_disabled":false,"rental_uris":{"android":"levelo://app?vid=da9d8b73-e4eb-4d26-82d2-b4644779f7dd","ios":"levelo://app?vid=da9d8b73-e4eb-4d26-82d2-b4644779f7dd"},"vehicle_type_id":"4","last_reported":1706907983,"current_range_meters":12000,"station_id":"ce4bgrh2rcd13ifvqc8g","pricing_plan_id":"free"},{"bike_id":"2b906c46-7ba1-4775-9c28-62e4fc26a296","system_id":"levelo_inurba_marseille","lat":43.308012,"lon":5.381511,"is_reserved":false,"is_disabled":false,"rental_uris":{"android":"levelo://app?vid=2b906c46-7ba1-4775-9c28-62e4fc26a296","ios":"levelo://app?vid=2b906c46-7ba1-4775-9c28-62e4fc26a296"},"vehicle_type_id":"4","last_reported":1706907983,"current_range_meters":0,"station_id":"ce4bgt12rcd13ifvqce0","pricing_plan_id":"free"},{"bike_id":"5df45883-4e63-4f5c-9433-14d81f64f7b8","system_id":"levelo_inurba_marseille","lat":43.308012,"lon":5.381511,"is_reserved":false,"is_disabled":false,"rental_uris":{"android":"levelo://app?vid=5df45883-4e63-4f5c-9433-14d81f64f7b8","ios":"levelo://app?vid=5df45883-4e63-4f5c-9433-14d81f64f7b8"},"vehicle_type_id":"4","last_reported":1706907983,"current_range_meters":5200,"station_id":"ce4bgt12rcd13ifvqce0","pricing_plan_id":"free"},{"bike_id":"76f80905-fe3a-4ad4-b7c1-b6a00a0ad82d","system_id":"levelo_inurba_marseille","lat":43.304606,"lon":5.379026,"is_reserved":false,"is_disabled":false,"rental_uris":{"android":"levelo://app?vid=76f80905-fe3a-4ad4-b7c1-b6a00a0ad82d","ios":"levelo://app?vid=76f80905-fe3a-4ad4-b7c1-b6a00a0ad82d"},"vehicle_type_id":"4","last_reported":1706907983,"current_range_meters":10400,"station_id":"ce4bgup2rcd13ifvqcn0","pricing_plan_id":"free"},{"bike_id":"dbf1a8f0-edf9-4392-a6a8-024912b1d2f2","system_id":"levelo_inurba_marseille","lat":43.324771,"lon":5.36557,"is_reserved":false,"is_disabled":false,"rental_uris":{"android":"levelo://app?vid=dbf1a8f0-edf9-4392-a6a8-024912b1d2f2","ios":"levelo://app?vid=dbf1a8f0-edf9-4392-a6a8-024912b1d2f2"},"vehicle_type_id":"4","last_reported":1706907983,"current_range_meters":1600,"station_id":"ce4bhs12rcd13ifvqhvg","pricing_plan_id":"free"},{"bike_id":"c829652e-e086-4603-a8a6-0278668b9e64","system_id":"levelo_inurba_marseille","lat":43.310804,"lon":5.38359,"is_reserved":false,"is_disabled":false,"rental_uris":{"android":"levelo://app?vid=c829652e-e086-4603-a8a6-0278668b9e64","ios":"levelo://app?vid=c829652e-e086-4603-a8a6-0278668b9e64"},"vehicle_type_id":"4","last_reported":1706907983,"current_range_meters":16400,"station_id":"ce4bgv92rcd13ifvqcr0","pricing_plan_id":"free"},{"bike_id":"89477423-b9e8-49c8-8d78-04c9b090cb74","system_id":"levelo_inurba_marseille","lat":43.310804,"lon":5.38359,"is_reserved":false,"is_disabled":false,"rental_uris":{"android":"levelo://app?vid=89477423-b9e8-49c8-8d78-04c9b090cb74","ios":"levelo://app?vid=89477423-b9e8-49c8-8d78-04c9b090cb74"},"vehicle_type_id":"4","last_reported":1706907983,"current_range_meters":14800,"station_id":"ce4bgv92rcd13ifvqcr0","pricing_plan_id":"free"},{"bike_id":"1223bdf3-4c95-4a9a-b98e-9c0e8c3f34b8","system_id":"levelo_inurba_marseille","lat":43.310804,"lon":5.38359,"is_reserved":false,"is_disabled":false,"rental_uris":{"android":"levelo://app?vid=1223bdf3-4c95-4a9a-b98e-9c0e8c3f34b8","ios":"levelo://app?vid=1223bdf3-4c95-4a9a-b98e-9c0e8c3f34b8"},"vehicle_type_id":"4","last_reported":1706907983,"current_range_meters":1200,"station_id":"ce4bgv92rcd13ifvqcr0","pricing_plan_id":"free"},{"bike_id":"0070468a-ea24-470b-b55f-914888b585a4","system_id":"levelo_inurba_marseille","lat":43.310804,"lon":5.38359,"is_reserved":false,"is_disabled":false,"rental_uris":{"android":"levelo://app?vid=0070468a-ea24-470b-b55f-914888b585a4","ios":"levelo://app?vid=0070468a-ea24-470b-b55f-914888b585a4"},"vehicle_type_id":"4","last_reported":1706907983,"current_range_meters":2400,"station_id":"ce4bgv92rcd13ifvqcr0","pricing_plan_id":"free"},{"bike_id":"5301e721-ba6e-4e3f-9607-8f8cd4ef9972","system_id":"levelo_inurba_marseille","lat":43.30276,"lon":5.377,"is_reserved":false,"is_disabled":false,"rental_uris":{"android":"levelo://app?vid=5301e721-ba6e-4e3f-9607-8f8cd4ef9972","ios":"levelo://app?vid=5301e721-ba6e-4e3f-9607-8f8cd4ef9972"},"vehicle_type_id":"4","last_reported":1706907983,"current_range_meters":12000,"station_id":"ce4bguh2rcd13ifvqcj0","pricing_plan_id":"free"},{"bike_id":"60359010-f135-4c3b-9e8e-88de805842da","system_id":"levelo_inurba_marseille","lat":43.301429,"lon":5.37413,"is_reserved":false,"is_disabled":false,"rental_uris":{"android":"levelo://app?vid=60359010-f135-4c3b-9e8e-88de805842da","ios":"levelo://app?vid=60359010-f135-4c3b-9e8e-88de805842da"},"vehicle_type_id":"4","last_reported":1706907983,"current_range_meters":7200,"station_id":"ce4bgs92rcd13ifvqcc0","pricing_plan_id":"free"},{"bike_id":"dafffb0a-0ae6-4ed8-b9e9-57dae0c69cf1","system_id":"levelo_inurba_marseille","lat":43.319935,"lon":5.381699,"is_reserved":false,"is_disabled":false,"rental_uris":{"android":"levelo://app?vid=dafffb0a-0ae6-4ed8-b9e9-57dae0c69cf1","ios":"levelo://app?vid=dafffb0a-0ae6-4ed8-b9e9-57dae0c69cf1"},"vehicle_type_id":"4","last_reported":1706907983,"current_range_meters":26400,"station_id":"ce4bhr12rcd13ifvqhpg","pricing_plan_id":"free"},{"bike_id":"d6c6117f-570d-4943-9f4e-85244eb92b89","system_id":"levelo_inurba_marseille","lat":43.319952,"lon":5.381618,"is_reserved":false,"is_disabled":false,"rental_uris":{"android":"levelo://app?vid=d6c6117f-570d-4943-9f4e-85244eb92b89","ios":"levelo://app?vid=d6c6117f-570d-4943-9f4e-85244eb92b89"},"vehicle_type_id":"4","last_reported":1706907983,"current_range_meters":12000,"station_id":"ce4bhr12rcd13ifvqhpg","pricing_plan_id":"free"},{"bike_id":"106a407c-36e6-462b-9265-604bd28d927b","system_id":"levelo_inurba_marseille","lat":43.319935,"lon":5.381699,"is_reserved":false,"is_disabled":false,"rental_uris":{"android":"levelo://app?vid=106a407c-36e6-462b-9265-604bd28d927b","ios":"levelo://app?vid=106a407c-36e6-462b-9265-604bd28d927b"},"vehicle_type_id":"4","last_reported":1706907983,"current_range_meters":14400,"station_id":"ce4bhr12rcd13ifvqhpg","pricing_plan_id":"free"},{"bike_id":"3dfccb5d-f33c-411e-923a-f38a51b2ded8","system_id":"levelo_inurba_marseille","lat":43.313571,"lon":5.384829,"is_reserved":false,"is_disabled":false,"rental_uris":{"android":"levelo://app?vid=3dfccb5d-f33c-411e-923a-f38a51b2ded8","ios":"levelo://app?vid=3dfccb5d-f33c-411e-923a-f38a51b2ded8"},"vehicle_type_id":"4","last_reported":1706907983,"current_range_meters":18800,"station_id":"ce4bgt92rcd13ifvqcf0","pricing_plan_id":"free"},{"bike_id":"d044613f-7b3b-4798-a318-312429e32d2d","system_id":"levelo_inurba_marseille","lat":43.313571,"lon":5.384829,"is_reserved":false,"is_disabled":false,"rental_uris":{"android":"levelo://app?vid=d044613f-7b3b-4798-a318-312429e32d2d","ios":"levelo://app?vid=d044613f-7b3b-4798-a318-312429e32d2d"},"vehicle_type_id":"4","last_reported":1706907983,"current_range_meters":6000,"station_id":"ce4bgt92rcd13ifvqcf0","pricing_plan_id":"free"},{"bike_id":"fc02dd47-3f6c-4370-9ff3-ea2aea38ef40","system_id":"levelo_inurba_marseille","lat":43.313571,"lon":5.384829,"is_reserved":false,"is_disabled":false,"rental_uris":{"android":"levelo://app?vid=fc02dd47-3f6c-4370-9ff3-ea2aea38ef40","ios":"levelo://app?vid=fc02dd47-3f6c-4370-9ff3-ea2aea38ef40"},"vehicle_type_id":"4","last_reported":1706907983,"current_range_meters":13600,"station_id":"ce4bgt92rcd13ifvqcf0","pricing_plan_id":"free"},{"bike_id":"78a2af95-8915-4a25-b337-445e3f89ac6e","system_id":"levelo_inurba_marseille","lat":43.299222,"lon":5.365554,"is_reserved":false,"is_disabled":false,"rental_uris":{"android":"levelo://app?vid=78a2af95-8915-4a25-b337-445e3f89ac6e","ios":"levelo://app?vid=78a2af95-8915-4a25-b337-445e3f89ac6e"},"vehicle_type_id":"4","last_reported":1706907983,"current_range_meters":2400,"station_id":"ce4bgm92rcd13ifvqbr0","pricing_plan_id":"free"},{"bike_id":"ac2f0954-e095-46cf-b1c6-21416a058348","system_id":"levelo_inurba_marseille","lat":43.305364,"lon":5.384119,"is_reserved":false,"is_disabled":false,"rental_uris":{"android":"levelo://app?vid=ac2f0954-e095-46cf-b1c6-21416a058348","ios":"levelo://app?vid=ac2f0954-e095-46cf-b1c6-21416a058348"},"vehicle_type_id":"4","last_reported":1706907983,"current_range_meters":13600,"station_id":"ce4bgg92rcd13ifvqb30","pricing_plan_id":"free"},{"bike_id":"a757a4eb-49dd-4cfb-9f52-37bf646bf519","system_id":"levelo_inurba_marseille","lat":43.299243,"lon":5.37481,"is_reserved":false,"is_disabled":false,"rental_uris":{"android":"levelo://app?vid=a757a4eb-49dd-4cfb-9f52-37bf646bf519","ios":"levelo://app?vid=a757a4eb-49dd-4cfb-9f52-37bf646bf519"},"vehicle_type_id":"4","last_reported":1706907983,"current_range_meters":11600,"station_id":"ce4bgjh2rcd13ifvqbg0","pricing_plan_id":"free"},{"bike_id":"817fdec0-cdad-4773-97cc-a30c8b8749b0","system_id":"levelo_inurba_marseille","lat":43.31181,"lon":5.38705,"is_reserved":false,"is_disabled":false,"rental_uris":{"android":"levelo://app?vid=817fdec0-cdad-4773-97cc-a30c8b8749b0","ios":"levelo://app?vid=817fdec0-cdad-4773-97cc-a30c8b8749b0"},"vehicle_type_id":"4","last_reported":1706907983,"current_range_meters":18000,"station_id":"ce4bgv92rcd13ifvqcr0","pricing_plan_id":"free"},{"bike_id":"e6c6af6c-2e7e-4d0a-b458-1e9fe0874c4b","system_id":"levelo_inurba_marseille","lat":43.31187,"lon":5.3871,"is_reserved":false,"is_disabled":false,"rental_uris":{"android":"levelo://app?vid=e6c6af6c-2e7e-4d0a-b458-1e9fe0874c4b","ios":"levelo://app?vid=e6c6af6c-2e7e-4d0a-b458-1e9fe0874c4b"},"vehicle_type_id":"4","last_reported":1706907983,"current_range_meters":6000,"station_id":"ce4bgv12rcd13ifvqcp0","pricing_plan_id":"free"},{"bike_id":"f3a6b36f-702f-4662-8ff7-d959fcbc6177","system_id":"levelo_inurba_marseille","lat":43.299243,"lon":5.374807,"is_reserved":false,"is_disabled":false,"rental_uris":{"android":"levelo://app?vid=f3a6b36f-702f-4662-8ff7-d959fcbc6177","ios":"levelo://app?vid=f3a6b36f-702f-4662-8ff7-d959fcbc6177"},"vehicle_type_id":"4","last_reported":1706907983,"current_range_meters":8800,"station_id":"ce4bgjh2rcd13ifvqbg0","pricing_plan_id":"free"},{"bike_id":"fa932f8f-fcac-420c-8595-9eaed6f9528b","system_id":"levelo_inurba_marseille","lat":43.311722,"lon":5.387247,"is_reserved":false,"is_disabled":false,"rental_uris":{"android":"levelo://app?vid=fa932f8f-fcac-420c-8595-9eaed6f9528b","ios":"levelo://app?vid=fa932f8f-fcac-420c-8595-9eaed6f9528b"},"vehicle_type_id":"4","last_reported":1706907983,"current_range_meters":21600,"station_id":"ce4bgv12rcd13ifvqcp0","pricing_plan_id":"free"},{"bike_id":"8081cb9b-9817-4414-8802-7e71f4991282","system_id":"levelo_inurba_marseille","lat":43.31175,"lon":5.38713,"is_reserved":false,"is_disabled":false,"rental_uris":{"android":"levelo://app?vid=8081cb9b-9817-4414-8802-7e71f4991282","ios":"levelo://app?vid=8081cb9b-9817-4414-8802-7e71f4991282"},"vehicle_type_id":"4","last_reported":1706907983,"current_range_meters":0,"station_id":"ce4bgv12rcd13ifvqcp0","pricing_plan_id":"free"},{"bike_id":"3d4f3d84-51f3-4229-83fe-3be49c001beb","system_id":"levelo_inurba_marseille","lat":43.311683,"lon":5.387157,"is_reserved":false,"is_disabled":false,"rental_uris":{"android":"levelo://app?vid=3d4f3d84-51f3-4229-83fe-3be49c001beb","ios":"levelo://app?vid=3d4f3d84-51f3-4229-83fe-3be49c001beb"},"vehicle_type_id":"4","last_reported":1706907983,"current_range_meters":0,"station_id":"ce4bgv12rcd13ifvqcp0","pricing_plan_id":"free"},{"bike_id":"2498a710-378e-43fe-b4e8-f948b54af7c8","system_id":"levelo_inurba_marseille","lat":43.299243,"lon":5.374807,"is_reserved":false,"is_disabled":false,"rental_uris":{"android":"levelo://app?vid=2498a710-378e-43fe-b4e8-f948b54af7c8","ios":"levelo://app?vid=2498a710-378e-43fe-b4e8-f948b54af7c8"},"vehicle_type_id":"4","last_reported":1706907983,"current_range_meters":18800,"station_id":"ce4bgjh2rcd13ifvqbg0","pricing_plan_id":"free"},{"bike_id":"325d01ce-c888-4785-8405-d8c5bf510e60","system_id":"levelo_inurba_marseille","lat":43.299243,"lon":5.374807,"is_reserved":false,"is_disabled":false,"rental_uris":{"android":"levelo://app?vid=325d01ce-c888-4785-8405-d8c5bf510e60","ios":"levelo://app?vid=325d01ce-c888-4785-8405-d8c5bf510e60"},"vehicle_type_id":"4","last_reported":1706907983,"current_range_meters":14400,"station_id":"ce4bgjh2rcd13ifvqbg0","pricing_plan_id":"free"},{"bike_id":"e544a8cb-9126-4c85-a57a-b40c62ba6606","system_id":"levelo_inurba_marseille","lat":43.311722,"lon":5.387247,"is_reserved":false,"is_disabled":false,"rental_uris":{"android":"levelo://app?vid=e544a8cb-9126-4c85-a57a-b40c62ba6606","ios":"levelo://app?vid=e544a8cb-9126-4c85-a57a-b40c62ba6606"},"vehicle_type_id":"4","last_reported":1706907983,"current_range_meters":23200,"station_id":"ce4bgv12rcd13ifvqcp0","pricing_plan_id":"free"},{"bike_id":"33caf56c-2f78-4c22-ae92-f18710d42602","system_id":"levelo_inurba_marseille","lat":43.297794,"lon":5.370888,"is_reserved":false,"is_disabled":false,"rental_uris":{"android":"levelo://app?vid=33caf56c-2f78-4c22-ae92-f18710d42602","ios":"levelo://app?vid=33caf56c-2f78-4c22-ae92-f18710d42602"},"vehicle_type_id":"4","last_reported":1706907983,"current_range_meters":6000,"station_id":"ce4bgop2rcd13ifvqc1g","pricing_plan_id":"free"},{"bike_id":"90e85118-9897-45c7-9a7c-cb4a06c53869","system_id":"levelo_inurba_marseille","lat":43.297794,"lon":5.370888,"is_reserved":false,"is_disabled":false,"rental_uris":{"android":"levelo://app?vid=90e85118-9897-45c7-9a7c-cb4a06c53869","ios":"levelo://app?vid=90e85118-9897-45c7-9a7c-cb4a06c53869"},"vehicle_type_id":"4","last_reported":1706907983,"current_range_meters":13600,"station_id":"ce4bgop2rcd13ifvqc1g","pricing_plan_id":"free"},{"bike_id":"a4b4fa98-d30f-4140-bd7e-2b0d02fd15bb","system_id":"levelo_inurba_marseille","lat":43.297794,"lon":5.370888,"is_reserved":false,"is_disabled":false,"rental_uris":{"android":"levelo://app?vid=a4b4fa98-d30f-4140-bd7e-2b0d02fd15bb","ios":"levelo://app?vid=a4b4fa98-d30f-4140-bd7e-2b0d02fd15bb"},"vehicle_type_id":"4","last_reported":1706907983,"current_range_meters":29200,"station_id":"ce4bgop2rcd13ifvqc1g","pricing_plan_id":"free"},{"bike_id":"a949a12d-7dee-406d-b3c0-51cbee7cf722","system_id":"levelo_inurba_marseille","lat":43.322872,"lon":5.382756,"is_reserved":false,"is_disabled":false,"rental_uris":{"android":"levelo://app?vid=a949a12d-7dee-406d-b3c0-51cbee7cf722","ios":"levelo://app?vid=a949a12d-7dee-406d-b3c0-51cbee7cf722"},"vehicle_type_id":"4","last_reported":1706907983,"current_range_meters":12800,"station_id":"ce4bhr12rcd13ifvqhqg","pricing_plan_id":"free"},{"bike_id":"c1c821b1-46e9-4095-ab28-696a5cc48552","system_id":"levelo_inurba_marseille","lat":43.322872,"lon":5.382756,"is_reserved":false,"is_disabled":false,"rental_uris":{"android":"levelo://app?vid=c1c821b1-46e9-4095-ab28-696a5cc48552","ios":"levelo://app?vid=c1c821b1-46e9-4095-ab28-696a5cc48552"},"vehicle_type_id":"4","last_reported":1706907983,"current_range_meters":5200,"station_id":"ce4bhr12rcd13ifvqhqg","pricing_plan_id":"free"},{"bike_id":"02e37b27-5863-4c78-9d44-465544029690","system_id":"levelo_inurba_marseille","lat":43.322872,"lon":5.382756,"is_reserved":false,"is_disabled":false,"rental_uris":{"android":"levelo://app?vid=02e37b27-5863-4c78-9d44-465544029690","ios":"levelo://app?vid=02e37b27-5863-4c78-9d44-465544029690"},"vehicle_type_id":"4","last_reported":1706907983,"current_range_meters":19200,"station_id":"ce4bhr12rcd13ifvqhqg","pricing_plan_id":"free"},{"bike_id":"b5d7b2cb-266e-4133-b32f-f491e5a88e3f","system_id":"levelo_inurba_marseille","lat":43.322872,"lon":5.382756,"is_reserved":false,"is_disabled":false,"rental_uris":{"android":"levelo://app?vid=b5d7b2cb-266e-4133-b32f-f491e5a88e3f","ios":"levelo://app?vid=b5d7b2cb-266e-4133-b32f-f491e5a88e3f"},"vehicle_type_id":"4","last_reported":1706907983,"current_range_meters":18000,"station_id":"ce4bhr12rcd13ifvqhqg","pricing_plan_id":"free"},{"bike_id":"65cdfc14-d57a-452e-8dc5-c02b0bdb56dd","system_id":"levelo_inurba_marseille","lat":43.322872,"lon":5.382756,"is_reserved":false,"is_disabled":false,"rental_uris":{"android":"levelo://app?vid=65cdfc14-d57a-452e-8dc5-c02b0bdb56dd","ios":"levelo://app?vid=65cdfc14-d57a-452e-8dc5-c02b0bdb56dd"},"vehicle_type_id":"4","last_reported":1706907983,"current_range_meters":30400,"station_id":"ce4bhr12rcd13ifvqhqg","pricing_plan_id":"free"},{"bike_id":"ab22a9f9-4426-4a48-9339-d0847e65fb60","system_id":"levelo_inurba_marseille","lat":43.328371,"lon":5.366909,"is_reserved":false,"is_disabled":false,"rental_uris":{"android":"levelo://app?vid=ab22a9f9-4426-4a48-9339-d0847e65fb60","ios":"levelo://app?vid=ab22a9f9-4426-4a48-9339-d0847e65fb60"},"vehicle_type_id":"4","last_reported":1706907983,"current_range_meters":8000,"station_id":"ce4bhs92rcd13ifvqi0g","pricing_plan_id":"free"},{"bike_id":"1900e2ea-9239-49b1-933e-57903fa99707","system_id":"levelo_inurba_marseille","lat":43.32826,"lon":5.36695,"is_reserved":false,"is_disabled":false,"rental_uris":{"android":"levelo://app?vid=1900e2ea-9239-49b1-933e-57903fa99707","ios":"levelo://app?vid=1900e2ea-9239-49b1-933e-57903fa99707"},"vehicle_type_id":"4","last_reported":1706907983,"current_range_meters":17200,"station_id":"ce4bhs92rcd13ifvqi0g","pricing_plan_id":"free"},{"bike_id":"a7bfceb0-51de-4318-908b-e1b2856c4f57","system_id":"levelo_inurba_marseille","lat":43.297163,"lon":5.365866,"is_reserved":false,"is_disabled":false,"rental_uris":{"android":"levelo://app?vid=a7bfceb0-51de-4318-908b-e1b2856c4f57","ios":"levelo://app?vid=a7bfceb0-51de-4318-908b-e1b2856c4f57"},"vehicle_type_id":"4","last_reported":1706907983,"current_range_meters":30400,"station_id":"ce4bgn12rcd13ifvqbt0","pricing_plan_id":"free"},{"bike_id":"673429b8-3225-40e4-8c40-7a2697c5a2e7","system_id":"levelo_inurba_marseille","lat":43.296131,"lon":5.370791,"is_reserved":false,"is_disabled":false,"rental_uris":{"android":"levelo://app?vid=673429b8-3225-40e4-8c40-7a2697c5a2e7","ios":"levelo://app?vid=673429b8-3225-40e4-8c40-7a2697c5a2e7"},"vehicle_type_id":"4","last_reported":1706907983,"current_range_meters":28000,"station_id":"ce4bgnh2rcd13ifvqc0g","pricing_plan_id":"free"},{"bike_id":"6bd28e52-985f-4426-b7a5-dd3644503d35","system_id":"levelo_inurba_marseille","lat":43.309484,"lon":5.390215,"is_reserved":false,"is_disabled":false,"rental_uris":{"android":"levelo://app?vid=6bd28e52-985f-4426-b7a5-dd3644503d35","ios":"levelo://app?vid=6bd28e52-985f-4426-b7a5-dd3644503d35"},"vehicle_type_id":"4","last_reported":1706907983,"current_range_meters":14800,"station_id":"ce4bgup2rcd13ifvqco0","pricing_plan_id":"free"},{"bike_id":"e2c975c1-8ff7-410f-8bb3-35cf2b9c5d3d","system_id":"levelo_inurba_marseille","lat":43.30948,"lon":5.39029,"is_reserved":false,"is_disabled":false,"rental_uris":{"android":"levelo://app?vid=e2c975c1-8ff7-410f-8bb3-35cf2b9c5d3d","ios":"levelo://app?vid=e2c975c1-8ff7-410f-8bb3-35cf2b9c5d3d"},"vehicle_type_id":"4","last_reported":1706907983,"current_range_meters":0,"station_id":"ce4bgup2rcd13ifvqco0","pricing_plan_id":"free"},{"bike_id":"6dfd19d6-da61-4ff3-88c5-c1467079fdd0","system_id":"levelo_inurba_marseille","lat":43.309589,"lon":5.390258,"is_reserved":false,"is_disabled":false,"rental_uris":{"android":"levelo://app?vid=6dfd19d6-da61-4ff3-88c5-c1467079fdd0","ios":"levelo://app?vid=6dfd19d6-da61-4ff3-88c5-c1467079fdd0"},"vehicle_type_id":"4","last_reported":1706907983,"current_range_meters":0,"station_id":"ce4bgup2rcd13ifvqco0","pricing_plan_id":"free"},{"bike_id":"397875e9-6480-491a-8b49-3a78a07339a7","system_id":"levelo_inurba_marseille","lat":43.309589,"lon":5.390258,"is_reserved":false,"is_disabled":false,"rental_uris":{"android":"levelo://app?vid=397875e9-6480-491a-8b49-3a78a07339a7","ios":"levelo://app?vid=397875e9-6480-491a-8b49-3a78a07339a7"},"vehicle_type_id":"4","last_reported":1706907983,"current_range_meters":0,"station_id":"ce4bgup2rcd13ifvqco0","pricing_plan_id":"free"},{"bike_id":"97cfc09a-8091-45f0-992b-4818308e4264","system_id":"levelo_inurba_marseille","lat":43.3095,"lon":5.39032,"is_reserved":false,"is_disabled":false,"rental_uris":{"android":"levelo://app?vid=97cfc09a-8091-45f0-992b-4818308e4264","ios":"levelo://app?vid=97cfc09a-8091-45f0-992b-4818308e4264"},"vehicle_type_id":"4","last_reported":1706907983,"current_range_meters":0,"station_id":"ce4bgup2rcd13ifvqco0","pricing_plan_id":"free"},{"bike_id":"e8a4e0bf-04a4-4049-97a5-6a86486fa1c9","system_id":"levelo_inurba_marseille","lat":43.309589,"lon":5.390258,"is_reserved":false,"is_disabled":false,"rental_uris":{"android":"levelo://app?vid=e8a4e0bf-04a4-4049-97a5-6a86486fa1c9","ios":"levelo://app?vid=e8a4e0bf-04a4-4049-97a5-6a86486fa1c9"},"vehicle_type_id":"4","last_reported":1706907983,"current_range_meters":26000,"station_id":"ce4bgup2rcd13ifvqco0","pricing_plan_id":"free"},{"bike_id":"5a6b1083-99ee-41b4-8965-89bef5b6616e","system_id":"levelo_inurba_marseille","lat":43.309589,"lon":5.390258,"is_reserved":false,"is_disabled":false,"rental_uris":{"android":"levelo://app?vid=5a6b1083-99ee-41b4-8965-89bef5b6616e","ios":"levelo://app?vid=5a6b1083-99ee-41b4-8965-89bef5b6616e"},"vehicle_type_id":"4","last_reported":1706907983,"current_range_meters":30800,"station_id":"ce4bgup2rcd13ifvqco0","pricing_plan_id":"free"},{"bike_id":"4ea84760-07c8-4158-9804-ac54e7a992b2","system_id":"levelo_inurba_marseille","lat":43.309589,"lon":5.390258,"is_reserved":false,"is_disabled":false,"rental_uris":{"android":"levelo://app?vid=4ea84760-07c8-4158-9804-ac54e7a992b2","ios":"levelo://app?vid=4ea84760-07c8-4158-9804-ac54e7a992b2"},"vehicle_type_id":"4","last_reported":1706907983,"current_range_meters":15200,"station_id":"ce4bgup2rcd13ifvqco0","pricing_plan_id":"free"},{"bike_id":"2a2bb158-5339-436a-8507-280d8c574036","system_id":"levelo_inurba_marseille","lat":43.30949,"lon":5.39038,"is_reserved":false,"is_disabled":false,"rental_uris":{"android":"levelo://app?vid=2a2bb158-5339-436a-8507-280d8c574036","ios":"levelo://app?vid=2a2bb158-5339-436a-8507-280d8c574036"},"vehicle_type_id":"4","last_reported":1706907983,"current_range_meters":0,"station_id":"ce4bgup2rcd13ifvqco0","pricing_plan_id":"free"},{"bike_id":"ff6fce0f-48bd-4468-9e95-17203171ab9c","system_id":"levelo_inurba_marseille","lat":43.30954,"lon":5.39044,"is_reserved":false,"is_disabled":false,"rental_uris":{"android":"levelo://app?vid=ff6fce0f-48bd-4468-9e95-17203171ab9c","ios":"levelo://app?vid=ff6fce0f-48bd-4468-9e95-17203171ab9c"},"vehicle_type_id":"4","last_reported":1706907983,"current_range_meters":2800,"station_id":"ce4bgup2rcd13ifvqco0","pricing_plan_id":"free"},{"bike_id":"3d4e8176-2ec9-4344-80ea-911223347935","system_id":"levelo_inurba_marseille","lat":43.309589,"lon":5.390258,"is_reserved":false,"is_disabled":false,"rental_uris":{"android":"levelo://app?vid=3d4e8176-2ec9-4344-80ea-911223347935","ios":"levelo://app?vid=3d4e8176-2ec9-4344-80ea-911223347935"},"vehicle_type_id":"4","last_reported":1706907983,"current_range_meters":17200,"station_id":"ce4bgup2rcd13ifvqco0","pricing_plan_id":"free"},{"bike_id":"6717cb07-a2bf-46d1-ba83-09e9386dc5e6","system_id":"levelo_inurba_marseille","lat":43.317557,"lon":5.390173,"is_reserved":false,"is_disabled":false,"rental_uris":{"android":"levelo://app?vid=6717cb07-a2bf-46d1-ba83-09e9386dc5e6","ios":"levelo://app?vid=6717cb07-a2bf-46d1-ba83-09e9386dc5e6"},"vehicle_type_id":"4","last_reported":1706907983,"current_range_meters":23200,"station_id":"ce4bhqp2rcd13ifvqhng","pricing_plan_id":"free"},{"bike_id":"aaee9df6-2bd3-419f-9a0a-fb04ee96325a","system_id":"levelo_inurba_marseille","lat":43.317557,"lon":5.390173,"is_reserved":false,"is_disabled":false,"rental_uris":{"android":"levelo://app?vid=aaee9df6-2bd3-419f-9a0a-fb04ee96325a","ios":"levelo://app?vid=aaee9df6-2bd3-419f-9a0a-fb04ee96325a"},"vehicle_type_id":"4","last_reported":1706907983,"current_range_meters":31600,"station_id":"ce4bhqp2rcd13ifvqhng","pricing_plan_id":"free"},{"bike_id":"106fe314-0813-4817-8722-724f217949ab","system_id":"levelo_inurba_marseille","lat":43.317557,"lon":5.390173,"is_reserved":false,"is_disabled":false,"rental_uris":{"android":"levelo://app?vid=106fe314-0813-4817-8722-724f217949ab","ios":"levelo://app?vid=106fe314-0813-4817-8722-724f217949ab"},"vehicle_type_id":"4","last_reported":1706907983,"current_range_meters":26800,"station_id":"ce4bhqp2rcd13ifvqhng","pricing_plan_id":"free"},{"bike_id":"a58d93ca-bdc9-4969-ad76-287ea92adedb","system_id":"levelo_inurba_marseille","lat":43.317557,"lon":5.390173,"is_reserved":false,"is_disabled":false,"rental_uris":{"android":"levelo://app?vid=a58d93ca-bdc9-4969-ad76-287ea92adedb","ios":"levelo://app?vid=a58d93ca-bdc9-4969-ad76-287ea92adedb"},"vehicle_type_id":"4","last_reported":1706907983,"current_range_meters":31600,"station_id":"ce4bhqp2rcd13ifvqhng","pricing_plan_id":"free"},{"bike_id":"cdd0a5e1-97e9-4609-aa8c-b9db9e70b7f9","system_id":"levelo_inurba_marseille","lat":43.317557,"lon":5.390173,"is_reserved":false,"is_disabled":false,"rental_uris":{"android":"levelo://app?vid=cdd0a5e1-97e9-4609-aa8c-b9db9e70b7f9","ios":"levelo://app?vid=cdd0a5e1-97e9-4609-aa8c-b9db9e70b7f9"},"vehicle_type_id":"4","last_reported":1706907983,"current_range_meters":17600,"station_id":"ce4bhqp2rcd13ifvqhng","pricing_plan_id":"free"},{"bike_id":"86eba5ee-3f3e-465e-879d-a26eca611b6f","system_id":"levelo_inurba_marseille","lat":43.319143,"lon":5.389912,"is_reserved":false,"is_disabled":false,"rental_uris":{"android":"levelo://app?vid=86eba5ee-3f3e-465e-879d-a26eca611b6f","ios":"levelo://app?vid=86eba5ee-3f3e-465e-879d-a26eca611b6f"},"vehicle_type_id":"4","last_reported":1706907983,"current_range_meters":24400,"station_id":"","pricing_plan_id":"free"},{"bike_id":"d8e48e50-f4b5-40bf-8bea-6e26ec67d867","system_id":"levelo_inurba_marseille","lat":43.304278,"lon":5.388868,"is_reserved":false,"is_disabled":false,"rental_uris":{"android":"levelo://app?vid=d8e48e50-f4b5-40bf-8bea-6e26ec67d867","ios":"levelo://app?vid=d8e48e50-f4b5-40bf-8bea-6e26ec67d867"},"vehicle_type_id":"4","last_reported":1706907983,"current_range_meters":25200,"station_id":"ce4bgk12rcd13ifvqbi0","pricing_plan_id":"free"},{"bike_id":"9dddc66c-e00e-48d9-b1de-0cd143d33c1c","system_id":"levelo_inurba_marseille","lat":43.304274,"lon":5.388873,"is_reserved":false,"is_disabled":false,"rental_uris":{"android":"levelo://app?vid=9dddc66c-e00e-48d9-b1de-0cd143d33c1c","ios":"levelo://app?vid=9dddc66c-e00e-48d9-b1de-0cd143d33c1c"},"vehicle_type_id":"4","last_reported":1706907983,"current_range_meters":14000,"station_id":"ce4bgk12rcd13ifvqbi0","pricing_plan_id":"free"},{"bike_id":"156384ba-f463-4bdd-a880-f63dd567fdce","system_id":"levelo_inurba_marseille","lat":43.298037,"lon":5.381066,"is_reserved":false,"is_disabled":false,"rental_uris":{"android":"levelo://app?vid=156384ba-f463-4bdd-a880-f63dd567fdce","ios":"levelo://app?vid=156384ba-f463-4bdd-a880-f63dd567fdce"},"vehicle_type_id":"4","last_reported":1706907983,"current_range_meters":18400,"station_id":"ce4bgip2rcd13ifvqbb0","pricing_plan_id":"free"},{"bike_id":"de6b4166-bca0-4ae2-82e9-9b8ac0246d56","system_id":"levelo_inurba_marseille","lat":43.295748,"lon":5.37522,"is_reserved":false,"is_disabled":false,"rental_uris":{"android":"levelo://app?vid=de6b4166-bca0-4ae2-82e9-9b8ac0246d56","ios":"levelo://app?vid=de6b4166-bca0-4ae2-82e9-9b8ac0246d56"},"vehicle_type_id":"4","last_reported":1706907983,"current_range_meters":12000,"station_id":"ce4bgh92rcd13ifvqb50","pricing_plan_id":"free"},{"bike_id":"319655e8-6dbf-4d69-b59b-32a44efeb840","system_id":"levelo_inurba_marseille","lat":43.299724,"lon":5.384848,"is_reserved":false,"is_disabled":false,"rental_uris":{"android":"levelo://app?vid=319655e8-6dbf-4d69-b59b-32a44efeb840","ios":"levelo://app?vid=319655e8-6dbf-4d69-b59b-32a44efeb840"},"vehicle_type_id":"4","last_reported":1706907983,"current_range_meters":5200,"station_id":"ce4bgj92rcd13ifvqbd0","pricing_plan_id":"free"},{"bike_id":"f2fcd1a4-2f8c-445c-8abd-20dc79e1ea56","system_id":"levelo_inurba_marseille","lat":43.299717,"lon":5.384845,"is_reserved":false,"is_disabled":false,"rental_uris":{"android":"levelo://app?vid=f2fcd1a4-2f8c-445c-8abd-20dc79e1ea56","ios":"levelo://app?vid=f2fcd1a4-2f8c-445c-8abd-20dc79e1ea56"},"vehicle_type_id":"4","last_reported":1706907983,"current_range_meters":13200,"station_id":"ce4bgj92rcd13ifvqbd0","pricing_plan_id":"free"},{"bike_id":"67d49ac5-1f02-4459-b787-ad82d964cdfa","system_id":"levelo_inurba_marseille","lat":43.32361,"lon":5.38877,"is_reserved":false,"is_disabled":false,"rental_uris":{"android":"levelo://app?vid=67d49ac5-1f02-4459-b787-ad82d964cdfa","ios":"levelo://app?vid=67d49ac5-1f02-4459-b787-ad82d964cdfa"},"vehicle_type_id":"4","last_reported":1706907983,"current_range_meters":0,"station_id":"ce4bhqp2rcd13ifvqhog","pricing_plan_id":"free"},{"bike_id":"2f639903-b097-46b0-8494-0017af56b0e6","system_id":"levelo_inurba_marseille","lat":43.323646,"lon":5.388741,"is_reserved":false,"is_disabled":false,"rental_uris":{"android":"levelo://app?vid=2f639903-b097-46b0-8494-0017af56b0e6","ios":"levelo://app?vid=2f639903-b097-46b0-8494-0017af56b0e6"},"vehicle_type_id":"4","last_reported":1706907983,"current_range_meters":20800,"station_id":"ce4bhqp2rcd13ifvqhog","pricing_plan_id":"free"},{"bike_id":"11d92546-2528-492a-a49e-9a0a5d945886","system_id":"levelo_inurba_marseille","lat":43.32365,"lon":5.38878,"is_reserved":false,"is_disabled":false,"rental_uris":{"android":"levelo://app?vid=11d92546-2528-492a-a49e-9a0a5d945886","ios":"levelo://app?vid=11d92546-2528-492a-a49e-9a0a5d945886"},"vehicle_type_id":"4","last_reported":1706907983,"current_range_meters":8800,"station_id":"ce4bhqp2rcd13ifvqhog","pricing_plan_id":"free"},{"bike_id":"1aca591f-66c1-4cab-8b35-fdb227e8bbbc","system_id":"levelo_inurba_marseille","lat":43.32367,"lon":5.388836,"is_reserved":false,"is_disabled":false,"rental_uris":{"android":"levelo://app?vid=1aca591f-66c1-4cab-8b35-fdb227e8bbbc","ios":"levelo://app?vid=1aca591f-66c1-4cab-8b35-fdb227e8bbbc"},"vehicle_type_id":"4","last_reported":1706907983,"current_range_meters":1200,"station_id":"ce4bhqp2rcd13ifvqhog","pricing_plan_id":"free"},{"bike_id":"13b9c551-9d4a-4e3d-8b94-3ec930896106","system_id":"levelo_inurba_marseille","lat":43.323631,"lon":5.388821,"is_reserved":false,"is_disabled":false,"rental_uris":{"android":"levelo://app?vid=13b9c551-9d4a-4e3d-8b94-3ec930896106","ios":"levelo://app?vid=13b9c551-9d4a-4e3d-8b94-3ec930896106"},"vehicle_type_id":"4","last_reported":1706907983,"current_range_meters":2400,"station_id":"ce4bhqp2rcd13ifvqhog","pricing_plan_id":"free"},{"bike_id":"81b0db2a-d7d3-47f0-a95d-ba7da6ca0e0e","system_id":"levelo_inurba_marseille","lat":43.32365,"lon":5.38882,"is_reserved":false,"is_disabled":false,"rental_uris":{"android":"levelo://app?vid=81b0db2a-d7d3-47f0-a95d-ba7da6ca0e0e","ios":"levelo://app?vid=81b0db2a-d7d3-47f0-a95d-ba7da6ca0e0e"},"vehicle_type_id":"4","last_reported":1706907983,"current_range_meters":400,"station_id":"ce4bhqp2rcd13ifvqhog","pricing_plan_id":"free"},{"bike_id":"e82e7b66-0dbb-4ee8-a77f-a0c51853bda9","system_id":"levelo_inurba_marseille","lat":43.32363,"lon":5.38884,"is_reserved":false,"is_disabled":false,"rental_uris":{"android":"levelo://app?vid=e82e7b66-0dbb-4ee8-a77f-a0c51853bda9","ios":"levelo://app?vid=e82e7b66-0dbb-4ee8-a77f-a0c51853bda9"},"vehicle_type_id":"4","last_reported":1706907983,"current_range_meters":9200,"station_id":"","pricing_plan_id":"free"},{"bike_id":"2867005b-b9b0-4312-8b91-edb88d7a8842","system_id":"levelo_inurba_marseille","lat":43.32362,"lon":5.38886,"is_reserved":false,"is_disabled":false,"rental_uris":{"android":"levelo://app?vid=2867005b-b9b0-4312-8b91-edb88d7a8842","ios":"levelo://app?vid=2867005b-b9b0-4312-8b91-edb88d7a8842"},"vehicle_type_id":"4","last_reported":1706907983,"current_range_meters":0,"station_id":"ce4bhqp2rcd13ifvqhog","pricing_plan_id":"free"},{"bike_id":"e3ee28ba-cab5-40e7-ba5c-728151521cef","system_id":"levelo_inurba_marseille","lat":43.323654,"lon":5.388831,"is_reserved":false,"is_disabled":false,"rental_uris":{"android":"levelo://app?vid=e3ee28ba-cab5-40e7-ba5c-728151521cef","ios":"levelo://app?vid=e3ee28ba-cab5-40e7-ba5c-728151521cef"},"vehicle_type_id":"4","last_reported":1706907983,"current_range_meters":9600,"station_id":"ce4bhqp2rcd13ifvqhog","pricing_plan_id":"free"},{"bike_id":"522745f2-6505-4a93-9a55-5c66eaece61d","system_id":"levelo_inurba_marseille","lat":43.32366,"lon":5.38884,"is_reserved":false,"is_disabled":false,"rental_uris":{"android":"levelo://app?vid=522745f2-6505-4a93-9a55-5c66eaece61d","ios":"levelo://app?vid=522745f2-6505-4a93-9a55-5c66eaece61d"},"vehicle_type_id":"4","last_reported":1706907983,"current_range_meters":5200,"station_id":"ce4bhqp2rcd13ifvqhog","pricing_plan_id":"free"},{"bike_id":"e512050a-6529-4225-a927-b67d6c06029f","system_id":"levelo_inurba_marseille","lat":43.323665,"lon":5.388841,"is_reserved":false,"is_disabled":false,"rental_uris":{"android":"levelo://app?vid=e512050a-6529-4225-a927-b67d6c06029f","ios":"levelo://app?vid=e512050a-6529-4225-a927-b67d6c06029f"},"vehicle_type_id":"4","last_reported":1706907983,"current_range_meters":0,"station_id":"ce4bhqp2rcd13ifvqhog","pricing_plan_id":"free"},{"bike_id":"80aebc65-9276-4106-9147-2143e4c2833e","system_id":"levelo_inurba_marseille","lat":43.323633,"lon":5.388876,"is_reserved":false,"is_disabled":false,"rental_uris":{"android":"levelo://app?vid=80aebc65-9276-4106-9147-2143e4c2833e","ios":"levelo://app?vid=80aebc65-9276-4106-9147-2143e4c2833e"},"vehicle_type_id":"4","last_reported":1706907983,"current_range_meters":10400,"station_id":"ce4bhqp2rcd13ifvqhog","pricing_plan_id":"free"},{"bike_id":"81a48434-30d3-4355-a668-7d3953e7fa82","system_id":"levelo_inurba_marseille","lat":43.32367,"lon":5.388836,"is_reserved":false,"is_disabled":false,"rental_uris":{"android":"levelo://app?vid=81a48434-30d3-4355-a668-7d3953e7fa82","ios":"levelo://app?vid=81a48434-30d3-4355-a668-7d3953e7fa82"},"vehicle_type_id":"4","last_reported":1706907983,"current_range_meters":0,"station_id":"ce4bhqp2rcd13ifvqhog","pricing_plan_id":"free"},{"bike_id":"a763ba73-be1b-47fe-b1b9-a14bd81f3a01","system_id":"levelo_inurba_marseille","lat":43.32367,"lon":5.388836,"is_reserved":false,"is_disabled":false,"rental_uris":{"android":"levelo://app?vid=a763ba73-be1b-47fe-b1b9-a14bd81f3a01","ios":"levelo://app?vid=a763ba73-be1b-47fe-b1b9-a14bd81f3a01"},"vehicle_type_id":"4","last_reported":1706907983,"current_range_meters":22800,"station_id":"ce4bhqp2rcd13ifvqhog","pricing_plan_id":"free"},{"bike_id":"44412611-1df1-41d1-a1a2-71e4de692709","system_id":"levelo_inurba_marseille","lat":43.32368,"lon":5.38887,"is_reserved":false,"is_disabled":false,"rental_uris":{"android":"levelo://app?vid=44412611-1df1-41d1-a1a2-71e4de692709","ios":"levelo://app?vid=44412611-1df1-41d1-a1a2-71e4de692709"},"vehicle_type_id":"4","last_reported":1706907983,"current_range_meters":23600,"station_id":"ce4bhqp2rcd13ifvqhog","pricing_plan_id":"free"},{"bike_id":"cabe25cb-ec0b-4dc3-8feb-44741e6dd484","system_id":"levelo_inurba_marseille","lat":43.323673,"lon":5.388887,"is_reserved":false,"is_disabled":false,"rental_uris":{"android":"levelo://app?vid=cabe25cb-ec0b-4dc3-8feb-44741e6dd484","ios":"levelo://app?vid=cabe25cb-ec0b-4dc3-8feb-44741e6dd484"},"vehicle_type_id":"4","last_reported":1706907983,"current_range_meters":6400,"station_id":"ce4bhqp2rcd13ifvqhog","pricing_plan_id":"free"},{"bike_id":"46172b20-8601-4fe1-bf98-4f3ff8124fee","system_id":"levelo_inurba_marseille","lat":43.29601,"lon":5.381084,"is_reserved":false,"is_disabled":false,"rental_uris":{"android":"levelo://app?vid=46172b20-8601-4fe1-bf98-4f3ff8124fee","ios":"levelo://app?vid=46172b20-8601-4fe1-bf98-4f3ff8124fee"},"vehicle_type_id":"4","last_reported":1706907983,"current_range_meters":20800,"station_id":"ce4bgl12rcd13ifvqbo0","pricing_plan_id":"free"},{"bike_id":"fde9fa99-bdc2-4c16-a892-e89c2fc1787e","system_id":"levelo_inurba_marseille","lat":43.305714,"lon":5.365633,"is_reserved":false,"is_disabled":false,"rental_uris":{"android":"levelo://app?vid=fde9fa99-bdc2-4c16-a892-e89c2fc1787e","ios":"levelo://app?vid=fde9fa99-bdc2-4c16-a892-e89c2fc1787e"},"vehicle_type_id":"4","last_reported":1706907983,"current_range_meters":7200,"station_id":"ce4bgs12rcd13ifvqcag","pricing_plan_id":"free"},{"bike_id":"72fc857c-5b97-4664-83e7-bfe64c1e540f","system_id":"levelo_inurba_marseille","lat":43.293259,"lon":5.371586,"is_reserved":false,"is_disabled":false,"rental_uris":{"android":"levelo://app?vid=72fc857c-5b97-4664-83e7-bfe64c1e540f","ios":"levelo://app?vid=72fc857c-5b97-4664-83e7-bfe64c1e540f"},"vehicle_type_id":"4","last_reported":1706907983,"current_range_meters":31200,"station_id":"ce4bgh92rcd13ifvqb40","pricing_plan_id":"free"},{"bike_id":"f12a9f0a-9ca0-4d44-8886-83186657d17b","system_id":"levelo_inurba_marseille","lat":43.293259,"lon":5.371586,"is_reserved":false,"is_disabled":false,"rental_uris":{"android":"levelo://app?vid=f12a9f0a-9ca0-4d44-8886-83186657d17b","ios":"levelo://app?vid=f12a9f0a-9ca0-4d44-8886-83186657d17b"},"vehicle_type_id":"4","last_reported":1706907983,"current_range_meters":6400,"station_id":"ce4bgh92rcd13ifvqb40","pricing_plan_id":"free"},{"bike_id":"a6f381ce-6553-46da-9230-a0b624101b04","system_id":"levelo_inurba_marseille","lat":43.293259,"lon":5.371586,"is_reserved":false,"is_disabled":false,"rental_uris":{"android":"levelo://app?vid=a6f381ce-6553-46da-9230-a0b624101b04","ios":"levelo://app?vid=a6f381ce-6553-46da-9230-a0b624101b04"},"vehicle_type_id":"4","last_reported":1706907983,"current_range_meters":1200,"station_id":"ce4bgh92rcd13ifvqb40","pricing_plan_id":"free"},{"bike_id":"0242626d-2cea-430c-8bae-8bbfa09cf0cb","system_id":"levelo_inurba_marseille","lat":43.292749,"lon":5.368398,"is_reserved":false,"is_disabled":false,"rental_uris":{"android":"levelo://app?vid=0242626d-2cea-430c-8bae-8bbfa09cf0cb","ios":"levelo://app?vid=0242626d-2cea-430c-8bae-8bbfa09cf0cb"},"vehicle_type_id":"4","last_reported":1706907983,"current_range_meters":0,"station_id":"ce4bhbp2rcd13ifvqesg","pricing_plan_id":"free"},{"bike_id":"07db0d5c-faf2-4425-9868-4eb80020fb9e","system_id":"levelo_inurba_marseille","lat":43.293259,"lon":5.371586,"is_reserved":false,"is_disabled":false,"rental_uris":{"android":"levelo://app?vid=07db0d5c-faf2-4425-9868-4eb80020fb9e","ios":"levelo://app?vid=07db0d5c-faf2-4425-9868-4eb80020fb9e"},"vehicle_type_id":"4","last_reported":1706907983,"current_range_meters":8400,"station_id":"ce4bgh92rcd13ifvqb40","pricing_plan_id":"free"},{"bike_id":"00804569-ce7e-4af2-a22e-f35d011d74c8","system_id":"levelo_inurba_marseille","lat":43.293259,"lon":5.371586,"is_reserved":false,"is_disabled":false,"rental_uris":{"android":"levelo://app?vid=00804569-ce7e-4af2-a22e-f35d011d74c8","ios":"levelo://app?vid=00804569-ce7e-4af2-a22e-f35d011d74c8"},"vehicle_type_id":"4","last_reported":1706907983,"current_range_meters":9200,"station_id":"ce4bgh92rcd13ifvqb40","pricing_plan_id":"free"},{"bike_id":"fcedcf39-12bb-406b-8bdb-8986260de4db","system_id":"levelo_inurba_marseille","lat":43.292749,"lon":5.368402,"is_reserved":false,"is_disabled":false,"rental_uris":{"android":"levelo://app?vid=fcedcf39-12bb-406b-8bdb-8986260de4db","ios":"levelo://app?vid=fcedcf39-12bb-406b-8bdb-8986260de4db"},"vehicle_type_id":"4","last_reported":1706907983,"current_range_meters":2000,"station_id":"ce4bhbp2rcd13ifvqesg","pricing_plan_id":"free"},{"bike_id":"e4cca626-7905-47c7-bbaa-8460d2e32bf8","system_id":"levelo_inurba_marseille","lat":43.29303,"lon":5.3719,"is_reserved":false,"is_disabled":false,"rental_uris":{"android":"levelo://app?vid=e4cca626-7905-47c7-bbaa-8460d2e32bf8","ios":"levelo://app?vid=e4cca626-7905-47c7-bbaa-8460d2e32bf8"},"vehicle_type_id":"4","last_reported":1706907983,"current_range_meters":0,"station_id":"ce4bgh92rcd13ifvqb40","pricing_plan_id":"free"},{"bike_id":"9ffa8d96-0e7f-4588-b025-6311387f91b4","system_id":"levelo_inurba_marseille","lat":43.29272,"lon":5.36837,"is_reserved":false,"is_disabled":false,"rental_uris":{"android":"levelo://app?vid=9ffa8d96-0e7f-4588-b025-6311387f91b4","ios":"levelo://app?vid=9ffa8d96-0e7f-4588-b025-6311387f91b4"},"vehicle_type_id":"4","last_reported":1706907983,"current_range_meters":0,"station_id":"ce4bhbp2rcd13ifvqesg","pricing_plan_id":"free"},{"bike_id":"4dfedbae-af97-418d-87a2-63408e083fcd","system_id":"levelo_inurba_marseille","lat":43.292749,"lon":5.368402,"is_reserved":false,"is_disabled":false,"rental_uris":{"android":"levelo://app?vid=4dfedbae-af97-418d-87a2-63408e083fcd","ios":"levelo://app?vid=4dfedbae-af97-418d-87a2-63408e083fcd"},"vehicle_type_id":"4","last_reported":1706907983,"current_range_meters":30000,"station_id":"ce4bhbp2rcd13ifvqesg","pricing_plan_id":"free"},{"bike_id":"1ad3f4fe-f35d-416e-b9b3-94e5cb141635","system_id":"levelo_inurba_marseille","lat":43.293259,"lon":5.371586,"is_reserved":false,"is_disabled":false,"rental_uris":{"android":"levelo://app?vid=1ad3f4fe-f35d-416e-b9b3-94e5cb141635","ios":"levelo://app?vid=1ad3f4fe-f35d-416e-b9b3-94e5cb141635"},"vehicle_type_id":"4","last_reported":1706907983,"current_range_meters":9200,"station_id":"ce4bgh92rcd13ifvqb40","pricing_plan_id":"free"},{"bike_id":"10871523-752a-4d85-b435-825c6d5bfefe","system_id":"levelo_inurba_marseille","lat":43.293009,"lon":5.374584,"is_reserved":false,"is_disabled":false,"rental_uris":{"android":"levelo://app?vid=10871523-752a-4d85-b435-825c6d5bfefe","ios":"levelo://app?vid=10871523-752a-4d85-b435-825c6d5bfefe"},"vehicle_type_id":"4","last_reported":1706907983,"current_range_meters":24800,"station_id":"ce4bgi12rcd13ifvqb70","pricing_plan_id":"free"},{"bike_id":"22a2795b-e608-46c6-b86c-243a38ebcb03","system_id":"levelo_inurba_marseille","lat":43.29305,"lon":5.37459,"is_reserved":false,"is_disabled":false,"rental_uris":{"android":"levelo://app?vid=22a2795b-e608-46c6-b86c-243a38ebcb03","ios":"levelo://app?vid=22a2795b-e608-46c6-b86c-243a38ebcb03"},"vehicle_type_id":"4","last_reported":1706907983,"current_range_meters":0,"station_id":"","pricing_plan_id":"free"},{"bike_id":"b43e2801-425a-4bc8-aa3b-c9048f3eafcb","system_id":"levelo_inurba_marseille","lat":43.29302,"lon":5.37456,"is_reserved":false,"is_disabled":false,"rental_uris":{"android":"levelo://app?vid=b43e2801-425a-4bc8-aa3b-c9048f3eafcb","ios":"levelo://app?vid=b43e2801-425a-4bc8-aa3b-c9048f3eafcb"},"vehicle_type_id":"4","last_reported":1706907983,"current_range_meters":0,"station_id":"ce4bgi12rcd13ifvqb70","pricing_plan_id":"free"},{"bike_id":"aaaec7b9-9cb5-4f47-831d-8635a1c85d66","system_id":"levelo_inurba_marseille","lat":43.293009,"lon":5.374584,"is_reserved":false,"is_disabled":false,"rental_uris":{"android":"levelo://app?vid=aaaec7b9-9cb5-4f47-831d-8635a1c85d66","ios":"levelo://app?vid=aaaec7b9-9cb5-4f47-831d-8635a1c85d66"},"vehicle_type_id":"4","last_reported":1706907983,"current_range_meters":29600,"station_id":"ce4bgi12rcd13ifvqb70","pricing_plan_id":"free"},{"bike_id":"a8ac6fe1-b769-4547-943b-3ba52c58658c","system_id":"levelo_inurba_marseille","lat":43.293009,"lon":5.374584,"is_reserved":false,"is_disabled":false,"rental_uris":{"android":"levelo://app?vid=a8ac6fe1-b769-4547-943b-3ba52c58658c","ios":"levelo://app?vid=a8ac6fe1-b769-4547-943b-3ba52c58658c"},"vehicle_type_id":"4","last_reported":1706907983,"current_range_meters":26800,"station_id":"ce4bgi12rcd13ifvqb70","pricing_plan_id":"free"},{"bike_id":"168f331b-13ee-40a9-9c6d-440100eafd25","system_id":"levelo_inurba_marseille","lat":43.29298,"lon":5.37448,"is_reserved":false,"is_disabled":false,"rental_uris":{"android":"levelo://app?vid=168f331b-13ee-40a9-9c6d-440100eafd25","ios":"levelo://app?vid=168f331b-13ee-40a9-9c6d-440100eafd25"},"vehicle_type_id":"4","last_reported":1706907983,"current_range_meters":14400,"station_id":"ce4bgi12rcd13ifvqb70","pricing_plan_id":"free"},{"bike_id":"1058ed46-9527-42a9-9900-2077a9bd5825","system_id":"levelo_inurba_marseille","lat":43.29301,"lon":5.37469,"is_reserved":false,"is_disabled":false,"rental_uris":{"android":"levelo://app?vid=1058ed46-9527-42a9-9900-2077a9bd5825","ios":"levelo://app?vid=1058ed46-9527-42a9-9900-2077a9bd5825"},"vehicle_type_id":"4","last_reported":1706907983,"current_range_meters":400,"station_id":"ce4bgi12rcd13ifvqb70","pricing_plan_id":"free"},{"bike_id":"3dc68bb5-e0a4-448b-b67a-dffa8e9cb7a4","system_id":"levelo_inurba_marseille","lat":43.29297,"lon":5.3745,"is_reserved":false,"is_disabled":false,"rental_uris":{"android":"levelo://app?vid=3dc68bb5-e0a4-448b-b67a-dffa8e9cb7a4","ios":"levelo://app?vid=3dc68bb5-e0a4-448b-b67a-dffa8e9cb7a4"},"vehicle_type_id":"4","last_reported":1706907983,"current_range_meters":6400,"station_id":"ce4bgi12rcd13ifvqb70","pricing_plan_id":"free"},{"bike_id":"66a70232-1b01-4e97-8267-9bcf62e6cf5b","system_id":"levelo_inurba_marseille","lat":43.29296,"lon":5.37453,"is_reserved":false,"is_disabled":false,"rental_uris":{"android":"levelo://app?vid=66a70232-1b01-4e97-8267-9bcf62e6cf5b","ios":"levelo://app?vid=66a70232-1b01-4e97-8267-9bcf62e6cf5b"},"vehicle_type_id":"4","last_reported":1706907983,"current_range_meters":20800,"station_id":"ce4bgi12rcd13ifvqb70","pricing_plan_id":"free"},{"bike_id":"bcab7625-d36c-4095-83f1-59795927cc64","system_id":"levelo_inurba_marseille","lat":43.29295,"lon":5.37454,"is_reserved":false,"is_disabled":false,"rental_uris":{"android":"levelo://app?vid=bcab7625-d36c-4095-83f1-59795927cc64","ios":"levelo://app?vid=bcab7625-d36c-4095-83f1-59795927cc64"},"vehicle_type_id":"4","last_reported":1706907983,"current_range_meters":0,"station_id":"ce4bgi12rcd13ifvqb70","pricing_plan_id":"free"},{"bike_id":"23abaa73-5387-4a51-9b08-887e358d9064","system_id":"levelo_inurba_marseille","lat":43.29294,"lon":5.37452,"is_reserved":false,"is_disabled":false,"rental_uris":{"android":"levelo://app?vid=23abaa73-5387-4a51-9b08-887e358d9064","ios":"levelo://app?vid=23abaa73-5387-4a51-9b08-887e358d9064"},"vehicle_type_id":"4","last_reported":1706907983,"current_range_meters":18000,"station_id":"ce4bgi12rcd13ifvqb70","pricing_plan_id":"free"},{"bike_id":"2991abdb-94bb-45ce-9ab1-c03a7580b0d2","system_id":"levelo_inurba_marseille","lat":43.29295,"lon":5.37457,"is_reserved":false,"is_disabled":false,"rental_uris":{"android":"levelo://app?vid=2991abdb-94bb-45ce-9ab1-c03a7580b0d2","ios":"levelo://app?vid=2991abdb-94bb-45ce-9ab1-c03a7580b0d2"},"vehicle_type_id":"4","last_reported":1706907983,"current_range_meters":10400,"station_id":"ce4bgi12rcd13ifvqb70","pricing_plan_id":"free"},{"bike_id":"7e6db439-387c-4e86-aab4-02e8c05b2712","system_id":"levelo_inurba_marseille","lat":43.29294,"lon":5.37455,"is_reserved":false,"is_disabled":false,"rental_uris":{"android":"levelo://app?vid=7e6db439-387c-4e86-aab4-02e8c05b2712","ios":"levelo://app?vid=7e6db439-387c-4e86-aab4-02e8c05b2712"},"vehicle_type_id":"4","last_reported":1706907983,"current_range_meters":0,"station_id":"ce4bgi12rcd13ifvqb70","pricing_plan_id":"free"},{"bike_id":"060f9eb3-16b1-4561-b63d-b1a916302000","system_id":"levelo_inurba_marseille","lat":43.29293,"lon":5.3746,"is_reserved":false,"is_disabled":false,"rental_uris":{"android":"levelo://app?vid=060f9eb3-16b1-4561-b63d-b1a916302000","ios":"levelo://app?vid=060f9eb3-16b1-4561-b63d-b1a916302000"},"vehicle_type_id":"4","last_reported":1706907983,"current_range_meters":12000,"station_id":"ce4bgi12rcd13ifvqb70","pricing_plan_id":"free"},{"bike_id":"90f7b7e9-0aa3-4803-aa84-c7d0bc644c28","system_id":"levelo_inurba_marseille","lat":43.29291,"lon":5.37467,"is_reserved":false,"is_disabled":false,"rental_uris":{"android":"levelo://app?vid=90f7b7e9-0aa3-4803-aa84-c7d0bc644c28","ios":"levelo://app?vid=90f7b7e9-0aa3-4803-aa84-c7d0bc644c28"},"vehicle_type_id":"4","last_reported":1706907983,"current_range_meters":22800,"station_id":"ce4bgi12rcd13ifvqb70","pricing_plan_id":"free"},{"bike_id":"5035b348-a13d-4869-be5d-1777b39d1b10","system_id":"levelo_inurba_marseille","lat":43.29283,"lon":5.37462,"is_reserved":false,"is_disabled":false,"rental_uris":{"android":"levelo://app?vid=5035b348-a13d-4869-be5d-1777b39d1b10","ios":"levelo://app?vid=5035b348-a13d-4869-be5d-1777b39d1b10"},"vehicle_type_id":"4","last_reported":1706907983,"current_range_meters":16000,"station_id":"ce4bgi12rcd13ifvqb70","pricing_plan_id":"free"},{"bike_id":"8c318ea4-6925-4cbc-ac14-15ad5bffe3cd","system_id":"levelo_inurba_marseille","lat":43.2936,"lon":5.37835,"is_reserved":false,"is_disabled":false,"rental_uris":{"android":"levelo://app?vid=8c318ea4-6925-4cbc-ac14-15ad5bffe3cd","ios":"levelo://app?vid=8c318ea4-6925-4cbc-ac14-15ad5bffe3cd"},"vehicle_type_id":"4","last_reported":1706907983,"current_range_meters":11600,"station_id":"ce4bgjh2rcd13ifvqbf0","pricing_plan_id":"free"},{"bike_id":"efa36bd9-e77f-42bd-bc1a-67b323f250d6","system_id":"levelo_inurba_marseille","lat":43.2936,"lon":5.37835,"is_reserved":false,"is_disabled":false,"rental_uris":{"android":"levelo://app?vid=efa36bd9-e77f-42bd-bc1a-67b323f250d6","ios":"levelo://app?vid=efa36bd9-e77f-42bd-bc1a-67b323f250d6"},"vehicle_type_id":"4","last_reported":1706907983,"current_range_meters":17600,"station_id":"ce4bgjh2rcd13ifvqbf0","pricing_plan_id":"free"},{"bike_id":"e795c9ca-94cd-4328-abc1-730029f87c95","system_id":"levelo_inurba_marseille","lat":43.2936,"lon":5.37835,"is_reserved":false,"is_disabled":false,"rental_uris":{"android":"levelo://app?vid=e795c9ca-94cd-4328-abc1-730029f87c95","ios":"levelo://app?vid=e795c9ca-94cd-4328-abc1-730029f87c95"},"vehicle_type_id":"4","last_reported":1706907983,"current_range_meters":12400,"station_id":"ce4bgjh2rcd13ifvqbf0","pricing_plan_id":"free"},{"bike_id":"3e650f17-41fe-4f76-b9d6-2074fe0820eb","system_id":"levelo_inurba_marseille","lat":43.292311,"lon":5.360731,"is_reserved":false,"is_disabled":false,"rental_uris":{"android":"levelo://app?vid=3e650f17-41fe-4f76-b9d6-2074fe0820eb","ios":"levelo://app?vid=3e650f17-41fe-4f76-b9d6-2074fe0820eb"},"vehicle_type_id":"4","last_reported":1706907983,"current_range_meters":0,"station_id":"ce4bhbh2rcd13ifvqeqg","pricing_plan_id":"free"},{"bike_id":"85010beb-368a-483f-88d3-0795a157c841","system_id":"levelo_inurba_marseille","lat":43.29217,"lon":5.35992,"is_reserved":false,"is_disabled":false,"rental_uris":{"android":"levelo://app?vid=85010beb-368a-483f-88d3-0795a157c841","ios":"levelo://app?vid=85010beb-368a-483f-88d3-0795a157c841"},"vehicle_type_id":"4","last_reported":1706907983,"current_range_meters":6800,"station_id":"","pricing_plan_id":"free"},{"bike_id":"baab297c-036c-4f2a-9a9e-bf6d4ac4afdb","system_id":"levelo_inurba_marseille","lat":43.291994,"lon":5.357886,"is_reserved":false,"is_disabled":false,"rental_uris":{"android":"levelo://app?vid=baab297c-036c-4f2a-9a9e-bf6d4ac4afdb","ios":"levelo://app?vid=baab297c-036c-4f2a-9a9e-bf6d4ac4afdb"},"vehicle_type_id":"4","last_reported":1706907983,"current_range_meters":29200,"station_id":"ce4bhb12rcd13ifvqel0","pricing_plan_id":"free"},{"bike_id":"4a2ef070-db7f-4c4b-bc9c-0dbaf1163ad8","system_id":"levelo_inurba_marseille","lat":43.309038,"lon":5.396546,"is_reserved":false,"is_disabled":false,"rental_uris":{"android":"levelo://app?vid=4a2ef070-db7f-4c4b-bc9c-0dbaf1163ad8","ios":"levelo://app?vid=4a2ef070-db7f-4c4b-bc9c-0dbaf1163ad8"},"vehicle_type_id":"4","last_reported":1706907983,"current_range_meters":5600,"station_id":"ce4bh012rcd13ifvqcv0","pricing_plan_id":"free"},{"bike_id":"94549a1c-392b-4389-9513-b7fd6987b023","system_id":"levelo_inurba_marseille","lat":43.313291,"lon":5.396838,"is_reserved":false,"is_disabled":false,"rental_uris":{"android":"levelo://app?vid=94549a1c-392b-4389-9513-b7fd6987b023","ios":"levelo://app?vid=94549a1c-392b-4389-9513-b7fd6987b023"},"vehicle_type_id":"4","last_reported":1706907983,"current_range_meters":10400,"station_id":"ce4bgvp2rcd13ifvqcu0","pricing_plan_id":"free"},{"bike_id":"ff9cd268-10fd-42b7-8fed-765bdf26de12","system_id":"levelo_inurba_marseille","lat":43.291881,"lon":5.358085,"is_reserved":false,"is_disabled":false,"rental_uris":{"android":"levelo://app?vid=ff9cd268-10fd-42b7-8fed-765bdf26de12","ios":"levelo://app?vid=ff9cd268-10fd-42b7-8fed-765bdf26de12"},"vehicle_type_id":"4","last_reported":1706907983,"current_range_meters":400,"station_id":"","pricing_plan_id":"free"},{"bike_id":"de8d2740-3766-4439-bf5c-1e84605a6d9b","system_id":"levelo_inurba_marseille","lat":43.309047,"lon":5.396551,"is_reserved":false,"is_disabled":false,"rental_uris":{"android":"levelo://app?vid=de8d2740-3766-4439-bf5c-1e84605a6d9b","ios":"levelo://app?vid=de8d2740-3766-4439-bf5c-1e84605a6d9b"},"vehicle_type_id":"4","last_reported":1706907983,"current_range_meters":31600,"station_id":"ce4bh012rcd13ifvqcv0","pricing_plan_id":"free"},{"bike_id":"503eabd9-d11d-447d-82e1-1dd32d594b2c","system_id":"levelo_inurba_marseille","lat":43.313291,"lon":5.396838,"is_reserved":false,"is_disabled":false,"rental_uris":{"android":"levelo://app?vid=503eabd9-d11d-447d-82e1-1dd32d594b2c","ios":"levelo://app?vid=503eabd9-d11d-447d-82e1-1dd32d594b2c"},"vehicle_type_id":"4","last_reported":1706907983,"current_range_meters":10800,"station_id":"ce4bgvp2rcd13ifvqcu0","pricing_plan_id":"free"},{"bike_id":"680a7ae7-fe56-4f7d-a0d5-fb41e0576491","system_id":"levelo_inurba_marseille","lat":43.309038,"lon":5.396546,"is_reserved":false,"is_disabled":false,"rental_uris":{"android":"levelo://app?vid=680a7ae7-fe56-4f7d-a0d5-fb41e0576491","ios":"levelo://app?vid=680a7ae7-fe56-4f7d-a0d5-fb41e0576491"},"vehicle_type_id":"4","last_reported":1706907983,"current_range_meters":5200,"station_id":"ce4bh012rcd13ifvqcv0","pricing_plan_id":"free"},{"bike_id":"1ba70d85-90b2-4c4b-9eb7-a40788329ab1","system_id":"levelo_inurba_marseille","lat":43.29186,"lon":5.35807,"is_reserved":false,"is_disabled":false,"rental_uris":{"android":"levelo://app?vid=1ba70d85-90b2-4c4b-9eb7-a40788329ab1","ios":"levelo://app?vid=1ba70d85-90b2-4c4b-9eb7-a40788329ab1"},"vehicle_type_id":"4","last_reported":1706907983,"current_range_meters":22800,"station_id":"ce4bhb12rcd13ifvqel0","pricing_plan_id":"free"},{"bike_id":"c3597f81-2e33-4d31-8494-fbcfe9d38643","system_id":"levelo_inurba_marseille","lat":43.309047,"lon":5.396551,"is_reserved":false,"is_disabled":false,"rental_uris":{"android":"levelo://app?vid=c3597f81-2e33-4d31-8494-fbcfe9d38643","ios":"levelo://app?vid=c3597f81-2e33-4d31-8494-fbcfe9d38643"},"vehicle_type_id":"4","last_reported":1706907983,"current_range_meters":0,"station_id":"ce4bh012rcd13ifvqcv0","pricing_plan_id":"free"},{"bike_id":"8f6d25c4-5720-49e2-901c-58b7ad6d9c8f","system_id":"levelo_inurba_marseille","lat":43.309038,"lon":5.396546,"is_reserved":false,"is_disabled":false,"rental_uris":{"android":"levelo://app?vid=8f6d25c4-5720-49e2-901c-58b7ad6d9c8f","ios":"levelo://app?vid=8f6d25c4-5720-49e2-901c-58b7ad6d9c8f"},"vehicle_type_id":"4","last_reported":1706907983,"current_range_meters":21200,"station_id":"ce4bh012rcd13ifvqcv0","pricing_plan_id":"free"},{"bike_id":"aceb6d8b-63c6-4723-888f-e7774e512ec4","system_id":"levelo_inurba_marseille","lat":43.309038,"lon":5.396546,"is_reserved":false,"is_disabled":false,"rental_uris":{"android":"levelo://app?vid=aceb6d8b-63c6-4723-888f-e7774e512ec4","ios":"levelo://app?vid=aceb6d8b-63c6-4723-888f-e7774e512ec4"},"vehicle_type_id":"4","last_reported":1706907983,"current_range_meters":10000,"station_id":"ce4bh012rcd13ifvqcv0","pricing_plan_id":"free"},{"bike_id":"f4ba1029-0104-436a-be6e-bd8a157def75","system_id":"levelo_inurba_marseille","lat":43.309047,"lon":5.396551,"is_reserved":false,"is_disabled":false,"rental_uris":{"android":"levelo://app?vid=f4ba1029-0104-436a-be6e-bd8a157def75","ios":"levelo://app?vid=f4ba1029-0104-436a-be6e-bd8a157def75"},"vehicle_type_id":"4","last_reported":1706907983,"current_range_meters":2800,"station_id":"ce4bh012rcd13ifvqcv0","pricing_plan_id":"free"},{"bike_id":"cf225569-58ad-4df6-970e-ada45ec3143e","system_id":"levelo_inurba_marseille","lat":43.309047,"lon":5.396551,"is_reserved":false,"is_disabled":false,"rental_uris":{"android":"levelo://app?vid=cf225569-58ad-4df6-970e-ada45ec3143e","ios":"levelo://app?vid=cf225569-58ad-4df6-970e-ada45ec3143e"},"vehicle_type_id":"4","last_reported":1706907983,"current_range_meters":26800,"station_id":"ce4bh012rcd13ifvqcv0","pricing_plan_id":"free"},{"bike_id":"afe1565b-e5d8-446f-81f3-9f54a8b28097","system_id":"levelo_inurba_marseille","lat":43.29537,"lon":5.38539,"is_reserved":false,"is_disabled":false,"rental_uris":{"android":"levelo://app?vid=afe1565b-e5d8-446f-81f3-9f54a8b28097","ios":"levelo://app?vid=afe1565b-e5d8-446f-81f3-9f54a8b28097"},"vehicle_type_id":"4","last_reported":1706907983,"current_range_meters":1200,"station_id":"ce4bgih2rcd13ifvqba0","pricing_plan_id":"free"},{"bike_id":"fadafd3e-d15b-43e0-a4ab-854351751ef3","system_id":"levelo_inurba_marseille","lat":43.29529,"lon":5.385581,"is_reserved":false,"is_disabled":false,"rental_uris":{"android":"levelo://app?vid=fadafd3e-d15b-43e0-a4ab-854351751ef3","ios":"levelo://app?vid=fadafd3e-d15b-43e0-a4ab-854351751ef3"},"vehicle_type_id":"4","last_reported":1706907983,"current_range_meters":1200,"station_id":"ce4bgih2rcd13ifvqba0","pricing_plan_id":"free"},{"bike_id":"bdc9b7d4-23ec-4d31-874c-25c11758b9e5","system_id":"levelo_inurba_marseille","lat":43.29529,"lon":5.385581,"is_reserved":false,"is_disabled":false,"rental_uris":{"android":"levelo://app?vid=bdc9b7d4-23ec-4d31-874c-25c11758b9e5","ios":"levelo://app?vid=bdc9b7d4-23ec-4d31-874c-25c11758b9e5"},"vehicle_type_id":"4","last_reported":1706907983,"current_range_meters":15600,"station_id":"ce4bgih2rcd13ifvqba0","pricing_plan_id":"free"},{"bike_id":"5120e82f-4bfe-413d-9537-de4d2d232fbb","system_id":"levelo_inurba_marseille","lat":43.29526,"lon":5.38542,"is_reserved":false,"is_disabled":false,"rental_uris":{"android":"levelo://app?vid=5120e82f-4bfe-413d-9537-de4d2d232fbb","ios":"levelo://app?vid=5120e82f-4bfe-413d-9537-de4d2d232fbb"},"vehicle_type_id":"4","last_reported":1706907983,"current_range_meters":0,"station_id":"ce4bgih2rcd13ifvqba0","pricing_plan_id":"free"},{"bike_id":"03cd59d2-6b6b-459b-b4ab-6b0b54c4b1ab","system_id":"levelo_inurba_marseille","lat":43.290779,"lon":5.371482,"is_reserved":false,"is_disabled":false,"rental_uris":{"android":"levelo://app?vid=03cd59d2-6b6b-459b-b4ab-6b0b54c4b1ab","ios":"levelo://app?vid=03cd59d2-6b6b-459b-b4ab-6b0b54c4b1ab"},"vehicle_type_id":"4","last_reported":1706907983,"current_range_meters":2400,"station_id":"ce4bh5p2rcd13ifvqe4g","pricing_plan_id":"free"},{"bike_id":"ae991b29-ec83-4c62-bb9d-a66dbaddbe13","system_id":"levelo_inurba_marseille","lat":43.3021,"lon":5.3946,"is_reserved":false,"is_disabled":false,"rental_uris":{"android":"levelo://app?vid=ae991b29-ec83-4c62-bb9d-a66dbaddbe13","ios":"levelo://app?vid=ae991b29-ec83-4c62-bb9d-a66dbaddbe13"},"vehicle_type_id":"4","last_reported":1706907983,"current_range_meters":0,"station_id":"ce4bh0p2rcd13ifvqd70","pricing_plan_id":"free"},{"bike_id":"adf7a225-3328-451a-a516-0b4603f3a91e","system_id":"levelo_inurba_marseille","lat":43.30215,"lon":5.3947,"is_reserved":false,"is_disabled":false,"rental_uris":{"android":"levelo://app?vid=adf7a225-3328-451a-a516-0b4603f3a91e","ios":"levelo://app?vid=adf7a225-3328-451a-a516-0b4603f3a91e"},"vehicle_type_id":"4","last_reported":1706907983,"current_range_meters":0,"station_id":"ce4bh0p2rcd13ifvqd70","pricing_plan_id":"free"},{"bike_id":"7c755874-04f4-49a7-881c-3dccfea2f0df","system_id":"levelo_inurba_marseille","lat":43.290441,"lon":5.359123,"is_reserved":false,"is_disabled":false,"rental_uris":{"android":"levelo://app?vid=7c755874-04f4-49a7-881c-3dccfea2f0df","ios":"levelo://app?vid=7c755874-04f4-49a7-881c-3dccfea2f0df"},"vehicle_type_id":"4","last_reported":1706907983,"current_range_meters":5200,"station_id":"","pricing_plan_id":"free"},{"bike_id":"4aa09feb-36c9-4b4b-86bc-8a98272574b9","system_id":"levelo_inurba_marseille","lat":43.294162,"lon":5.386292,"is_reserved":false,"is_disabled":false,"rental_uris":{"android":"levelo://app?vid=4aa09feb-36c9-4b4b-86bc-8a98272574b9","ios":"levelo://app?vid=4aa09feb-36c9-4b4b-86bc-8a98272574b9"},"vehicle_type_id":"4","last_reported":1706907983,"current_range_meters":0,"station_id":"ce4bh2h2rcd13ifvqdh0","pricing_plan_id":"free"},{"bike_id":"2c6efc04-60e6-4283-9d79-9f2552cefd5e","system_id":"levelo_inurba_marseille","lat":43.289184,"lon":5.366408,"is_reserved":false,"is_disabled":false,"rental_uris":{"android":"levelo://app?vid=2c6efc04-60e6-4283-9d79-9f2552cefd5e","ios":"levelo://app?vid=2c6efc04-60e6-4283-9d79-9f2552cefd5e"},"vehicle_type_id":"4","last_reported":1706907983,"current_range_meters":2000,"station_id":"ce4bhap2rcd13ifvqek0","pricing_plan_id":"free"},{"bike_id":"c6e5010c-fd18-45f7-be2f-09bc9bf64e43","system_id":"levelo_inurba_marseille","lat":43.29415,"lon":5.386238,"is_reserved":false,"is_disabled":false,"rental_uris":{"android":"levelo://app?vid=c6e5010c-fd18-45f7-be2f-09bc9bf64e43","ios":"levelo://app?vid=c6e5010c-fd18-45f7-be2f-09bc9bf64e43"},"vehicle_type_id":"4","last_reported":1706907983,"current_range_meters":12400,"station_id":"ce4bh2h2rcd13ifvqdh0","pricing_plan_id":"free"},{"bike_id":"66bc02e7-3304-4865-9194-44727a6f883e","system_id":"levelo_inurba_marseille","lat":43.29413,"lon":5.38621,"is_reserved":false,"is_disabled":false,"rental_uris":{"android":"levelo://app?vid=66bc02e7-3304-4865-9194-44727a6f883e","ios":"levelo://app?vid=66bc02e7-3304-4865-9194-44727a6f883e"},"vehicle_type_id":"4","last_reported":1706907983,"current_range_meters":0,"station_id":"ce4bh2h2rcd13ifvqdh0","pricing_plan_id":"free"},{"bike_id":"1fc072e6-68df-4f7d-9b0f-6aa7460b54b2","system_id":"levelo_inurba_marseille","lat":43.289184,"lon":5.366408,"is_reserved":false,"is_disabled":false,"rental_uris":{"android":"levelo://app?vid=1fc072e6-68df-4f7d-9b0f-6aa7460b54b2","ios":"levelo://app?vid=1fc072e6-68df-4f7d-9b0f-6aa7460b54b2"},"vehicle_type_id":"4","last_reported":1706907983,"current_range_meters":6000,"station_id":"ce4bhap2rcd13ifvqek0","pricing_plan_id":"free"},{"bike_id":"116857c4-7166-4da9-90d3-d67e1f993a2e","system_id":"levelo_inurba_marseille","lat":43.289184,"lon":5.366408,"is_reserved":false,"is_disabled":false,"rental_uris":{"android":"levelo://app?vid=116857c4-7166-4da9-90d3-d67e1f993a2e","ios":"levelo://app?vid=116857c4-7166-4da9-90d3-d67e1f993a2e"},"vehicle_type_id":"4","last_reported":1706907983,"current_range_meters":5600,"station_id":"ce4bhap2rcd13ifvqek0","pricing_plan_id":"free"},{"bike_id":"c65b986d-3be7-4526-b5cb-daaf60578bf7","system_id":"levelo_inurba_marseille","lat":43.292644,"lon":5.384257,"is_reserved":false,"is_disabled":false,"rental_uris":{"android":"levelo://app?vid=c65b986d-3be7-4526-b5cb-daaf60578bf7","ios":"levelo://app?vid=c65b986d-3be7-4526-b5cb-daaf60578bf7"},"vehicle_type_id":"4","last_reported":1706907983,"current_range_meters":20000,"station_id":"ce4bh692rcd13ifvqea0","pricing_plan_id":"free"},{"bike_id":"d9f84626-0086-4915-b6ac-58458f133001","system_id":"levelo_inurba_marseille","lat":43.304274,"lon":5.397513,"is_reserved":false,"is_disabled":false,"rental_uris":{"android":"levelo://app?vid=d9f84626-0086-4915-b6ac-58458f133001","ios":"levelo://app?vid=d9f84626-0086-4915-b6ac-58458f133001"},"vehicle_type_id":"4","last_reported":1706907983,"current_range_meters":12000,"station_id":"ce4bh092rcd13ifvqd20","pricing_plan_id":"free"},{"bike_id":"2fa363cc-2315-4876-88c3-09748759a814","system_id":"levelo_inurba_marseille","lat":43.29272,"lon":5.38453,"is_reserved":false,"is_disabled":false,"rental_uris":{"android":"levelo://app?vid=2fa363cc-2315-4876-88c3-09748759a814","ios":"levelo://app?vid=2fa363cc-2315-4876-88c3-09748759a814"},"vehicle_type_id":"4","last_reported":1706907983,"current_range_meters":0,"station_id":"ce4bh692rcd13ifvqea0","pricing_plan_id":"free"},{"bike_id":"225e8c8e-47bd-4028-bcf4-52349812c06d","system_id":"levelo_inurba_marseille","lat":43.292644,"lon":5.384257,"is_reserved":false,"is_disabled":false,"rental_uris":{"android":"levelo://app?vid=225e8c8e-47bd-4028-bcf4-52349812c06d","ios":"levelo://app?vid=225e8c8e-47bd-4028-bcf4-52349812c06d"},"vehicle_type_id":"4","last_reported":1706907983,"current_range_meters":0,"station_id":"ce4bh692rcd13ifvqea0","pricing_plan_id":"free"},{"bike_id":"2b5b99c6-3915-45f8-8a2d-fc57400c6e70","system_id":"levelo_inurba_marseille","lat":43.292642,"lon":5.384254,"is_reserved":false,"is_disabled":false,"rental_uris":{"android":"levelo://app?vid=2b5b99c6-3915-45f8-8a2d-fc57400c6e70","ios":"levelo://app?vid=2b5b99c6-3915-45f8-8a2d-fc57400c6e70"},"vehicle_type_id":"4","last_reported":1706907983,"current_range_meters":8800,"station_id":"ce4bh692rcd13ifvqea0","pricing_plan_id":"free"},{"bike_id":"69352762-3a91-4260-8c62-846c40892031","system_id":"levelo_inurba_marseille","lat":43.292642,"lon":5.384254,"is_reserved":false,"is_disabled":false,"rental_uris":{"android":"levelo://app?vid=69352762-3a91-4260-8c62-846c40892031","ios":"levelo://app?vid=69352762-3a91-4260-8c62-846c40892031"},"vehicle_type_id":"4","last_reported":1706907983,"current_range_meters":0,"station_id":"ce4bh692rcd13ifvqea0","pricing_plan_id":"free"},{"bike_id":"3bf44661-a43c-4f0e-b2d7-8a5bb7fb59b7","system_id":"levelo_inurba_marseille","lat":43.292644,"lon":5.384257,"is_reserved":false,"is_disabled":false,"rental_uris":{"android":"levelo://app?vid=3bf44661-a43c-4f0e-b2d7-8a5bb7fb59b7","ios":"levelo://app?vid=3bf44661-a43c-4f0e-b2d7-8a5bb7fb59b7"},"vehicle_type_id":"4","last_reported":1706907983,"current_range_meters":15200,"station_id":"ce4bh692rcd13ifvqea0","pricing_plan_id":"free"},{"bike_id":"04a212c1-a622-4293-b50f-1ec1bf9cf7e4","system_id":"levelo_inurba_marseille","lat":43.292642,"lon":5.384254,"is_reserved":false,"is_disabled":false,"rental_uris":{"android":"levelo://app?vid=04a212c1-a622-4293-b50f-1ec1bf9cf7e4","ios":"levelo://app?vid=04a212c1-a622-4293-b50f-1ec1bf9cf7e4"},"vehicle_type_id":"4","last_reported":1706907983,"current_range_meters":13200,"station_id":"ce4bh692rcd13ifvqea0","pricing_plan_id":"free"},{"bike_id":"a4718f69-4fe1-448e-ba24-22b876119fa3","system_id":"levelo_inurba_marseille","lat":43.292642,"lon":5.384254,"is_reserved":false,"is_disabled":false,"rental_uris":{"android":"levelo://app?vid=a4718f69-4fe1-448e-ba24-22b876119fa3","ios":"levelo://app?vid=a4718f69-4fe1-448e-ba24-22b876119fa3"},"vehicle_type_id":"4","last_reported":1706907983,"current_range_meters":0,"station_id":"ce4bh692rcd13ifvqea0","pricing_plan_id":"free"},{"bike_id":"c456a54f-85af-44e8-aa23-d75a3f7b4520","system_id":"levelo_inurba_marseille","lat":43.292642,"lon":5.384254,"is_reserved":false,"is_disabled":false,"rental_uris":{"android":"levelo://app?vid=c456a54f-85af-44e8-aa23-d75a3f7b4520","ios":"levelo://app?vid=c456a54f-85af-44e8-aa23-d75a3f7b4520"},"vehicle_type_id":"4","last_reported":1706907983,"current_range_meters":1600,"station_id":"ce4bh692rcd13ifvqea0","pricing_plan_id":"free"},{"bike_id":"9b3e51e8-64ad-4b57-aad5-48a7bb56d4e4","system_id":"levelo_inurba_marseille","lat":43.292642,"lon":5.384254,"is_reserved":false,"is_disabled":false,"rental_uris":{"android":"levelo://app?vid=9b3e51e8-64ad-4b57-aad5-48a7bb56d4e4","ios":"levelo://app?vid=9b3e51e8-64ad-4b57-aad5-48a7bb56d4e4"},"vehicle_type_id":"4","last_reported":1706907983,"current_range_meters":16800,"station_id":"ce4bh692rcd13ifvqea0","pricing_plan_id":"free"},{"bike_id":"d431c351-fb3b-45ce-978a-aeae97e7ab75","system_id":"levelo_inurba_marseille","lat":43.29251,"lon":5.38445,"is_reserved":false,"is_disabled":false,"rental_uris":{"android":"levelo://app?vid=d431c351-fb3b-45ce-978a-aeae97e7ab75","ios":"levelo://app?vid=d431c351-fb3b-45ce-978a-aeae97e7ab75"},"vehicle_type_id":"4","last_reported":1706907983,"current_range_meters":0,"station_id":"ce4bh692rcd13ifvqea0","pricing_plan_id":"free"},{"bike_id":"f9d5d05c-03c7-490f-94f5-7f3e107031f5","system_id":"levelo_inurba_marseille","lat":43.317557,"lon":5.390173,"is_reserved":false,"is_disabled":false,"rental_uris":{"android":"levelo://app?vid=f9d5d05c-03c7-490f-94f5-7f3e107031f5","ios":"levelo://app?vid=f9d5d05c-03c7-490f-94f5-7f3e107031f5"},"vehicle_type_id":"4","last_reported":1706907983,"current_range_meters":4400,"station_id":"ce4bhqp2rcd13ifvqhng","pricing_plan_id":"free"},{"bike_id":"17d0cf9d-76a1-4a7a-881b-531c23b3946f","system_id":"levelo_inurba_marseille","lat":43.290104,"lon":5.356111,"is_reserved":false,"is_disabled":false,"rental_uris":{"android":"levelo://app?vid=17d0cf9d-76a1-4a7a-881b-531c23b3946f","ios":"levelo://app?vid=17d0cf9d-76a1-4a7a-881b-531c23b3946f"},"vehicle_type_id":"4","last_reported":1706907983,"current_range_meters":22800,"station_id":"ce4bhb92rcd13ifvqen0","pricing_plan_id":"free"},{"bike_id":"9365188a-2c9a-426a-98ce-c121ac9129e4","system_id":"levelo_inurba_marseille","lat":43.290103,"lon":5.356114,"is_reserved":false,"is_disabled":false,"rental_uris":{"android":"levelo://app?vid=9365188a-2c9a-426a-98ce-c121ac9129e4","ios":"levelo://app?vid=9365188a-2c9a-426a-98ce-c121ac9129e4"},"vehicle_type_id":"4","last_reported":1706907983,"current_range_meters":16800,"station_id":"ce4bhb92rcd13ifvqen0","pricing_plan_id":"free"},{"bike_id":"5957583d-c4fc-4c66-9fd3-96336d666a65","system_id":"levelo_inurba_marseille","lat":43.289741,"lon":5.378306,"is_reserved":false,"is_disabled":false,"rental_uris":{"android":"levelo://app?vid=5957583d-c4fc-4c66-9fd3-96336d666a65","ios":"levelo://app?vid=5957583d-c4fc-4c66-9fd3-96336d666a65"},"vehicle_type_id":"4","last_reported":1706907983,"current_range_meters":18400,"station_id":"ce4bh9p2rcd13ifvqed0","pricing_plan_id":"free"},{"bike_id":"399fc640-e018-4b75-9c5d-abe6efb4f297","system_id":"levelo_inurba_marseille","lat":43.297786,"lon":5.393395,"is_reserved":false,"is_disabled":false,"rental_uris":{"android":"levelo://app?vid=399fc640-e018-4b75-9c5d-abe6efb4f297","ios":"levelo://app?vid=399fc640-e018-4b75-9c5d-abe6efb4f297"},"vehicle_type_id":"4","last_reported":1706907983,"current_range_meters":0,"station_id":"chh1huq6cuj3fo74tm60","pricing_plan_id":"free"},{"bike_id":"4186a1f1-4481-4512-a6f2-253aff1e6dc4","system_id":"levelo_inurba_marseille","lat":43.330442,"lon":5.389148,"is_reserved":false,"is_disabled":false,"rental_uris":{"android":"levelo://app?vid=4186a1f1-4481-4512-a6f2-253aff1e6dc4","ios":"levelo://app?vid=4186a1f1-4481-4512-a6f2-253aff1e6dc4"},"vehicle_type_id":"4","last_reported":1706907983,"current_range_meters":4400,"station_id":"ce4bhr92rcd13ifvqhrg","pricing_plan_id":"free"},{"bike_id":"29fa78cb-ddcd-473b-afaa-62a18b90e67f","system_id":"levelo_inurba_marseille","lat":43.330442,"lon":5.389148,"is_reserved":false,"is_disabled":false,"rental_uris":{"android":"levelo://app?vid=29fa78cb-ddcd-473b-afaa-62a18b90e67f","ios":"levelo://app?vid=29fa78cb-ddcd-473b-afaa-62a18b90e67f"},"vehicle_type_id":"4","last_reported":1706907983,"current_range_meters":16000,"station_id":"ce4bhr92rcd13ifvqhrg","pricing_plan_id":"free"},{"bike_id":"a569bc82-2799-4d58-8f5c-19e0f6fce87d","system_id":"levelo_inurba_marseille","lat":43.330442,"lon":5.389148,"is_reserved":false,"is_disabled":false,"rental_uris":{"android":"levelo://app?vid=a569bc82-2799-4d58-8f5c-19e0f6fce87d","ios":"levelo://app?vid=a569bc82-2799-4d58-8f5c-19e0f6fce87d"},"vehicle_type_id":"4","last_reported":1706907983,"current_range_meters":5600,"station_id":"ce4bhr92rcd13ifvqhrg","pricing_plan_id":"free"},{"bike_id":"2fa8170d-c637-4065-85d9-e7df6de2ce6a","system_id":"levelo_inurba_marseille","lat":43.295169,"lon":5.390426,"is_reserved":false,"is_disabled":false,"rental_uris":{"android":"levelo://app?vid=2fa8170d-c637-4065-85d9-e7df6de2ce6a","ios":"levelo://app?vid=2fa8170d-c637-4065-85d9-e7df6de2ce6a"},"vehicle_type_id":"4","last_reported":1706907983,"current_range_meters":26000,"station_id":"ce4bh3p2rcd13ifvqdp0","pricing_plan_id":"free"},{"bike_id":"8b2ee090-e9c7-40b5-b2e4-d2cf27f67ac7","system_id":"levelo_inurba_marseille","lat":43.28853,"lon":5.35849,"is_reserved":false,"is_disabled":false,"rental_uris":{"android":"levelo://app?vid=8b2ee090-e9c7-40b5-b2e4-d2cf27f67ac7","ios":"levelo://app?vid=8b2ee090-e9c7-40b5-b2e4-d2cf27f67ac7"},"vehicle_type_id":"4","last_reported":1706907983,"current_range_meters":0,"station_id":"ce4bhb12rcd13ifvqem0","pricing_plan_id":"free"},{"bike_id":"2dfa196c-6c5c-4e7d-8a85-f7be22241efa","system_id":"levelo_inurba_marseille","lat":43.312609,"lon":5.401662,"is_reserved":false,"is_disabled":false,"rental_uris":{"android":"levelo://app?vid=2dfa196c-6c5c-4e7d-8a85-f7be22241efa","ios":"levelo://app?vid=2dfa196c-6c5c-4e7d-8a85-f7be22241efa"},"vehicle_type_id":"4","last_reported":1706907983,"current_range_meters":0,"station_id":"ce4bh092rcd13ifvqd30","pricing_plan_id":"free"},{"bike_id":"253e1e33-5a27-4a9c-9770-625b8bb3dcfd","system_id":"levelo_inurba_marseille","lat":43.312609,"lon":5.401662,"is_reserved":false,"is_disabled":false,"rental_uris":{"android":"levelo://app?vid=253e1e33-5a27-4a9c-9770-625b8bb3dcfd","ios":"levelo://app?vid=253e1e33-5a27-4a9c-9770-625b8bb3dcfd"},"vehicle_type_id":"4","last_reported":1706907983,"current_range_meters":0,"station_id":"ce4bh092rcd13ifvqd30","pricing_plan_id":"free"},{"bike_id":"a693be26-d51d-4635-bbd8-1f98ddaeba30","system_id":"levelo_inurba_marseille","lat":43.337463,"lon":5.374471,"is_reserved":false,"is_disabled":false,"rental_uris":{"android":"levelo://app?vid=a693be26-d51d-4635-bbd8-1f98ddaeba30","ios":"levelo://app?vid=a693be26-d51d-4635-bbd8-1f98ddaeba30"},"vehicle_type_id":"4","last_reported":1706907983,"current_range_meters":28400,"station_id":"","pricing_plan_id":"free"},{"bike_id":"8bb262aa-a828-4328-a751-72000e38b5fa","system_id":"levelo_inurba_marseille","lat":43.309371,"lon":5.401449,"is_reserved":false,"is_disabled":false,"rental_uris":{"android":"levelo://app?vid=8bb262aa-a828-4328-a751-72000e38b5fa","ios":"levelo://app?vid=8bb262aa-a828-4328-a751-72000e38b5fa"},"vehicle_type_id":"4","last_reported":1706907983,"current_range_meters":6400,"station_id":"ce4bgvp2rcd13ifvqct0","pricing_plan_id":"free"},{"bike_id":"66bd3461-0691-40ae-b47a-4aa7890e1bf1","system_id":"levelo_inurba_marseille","lat":43.309371,"lon":5.401449,"is_reserved":false,"is_disabled":false,"rental_uris":{"android":"levelo://app?vid=66bd3461-0691-40ae-b47a-4aa7890e1bf1","ios":"levelo://app?vid=66bd3461-0691-40ae-b47a-4aa7890e1bf1"},"vehicle_type_id":"4","last_reported":1706907983,"current_range_meters":14800,"station_id":"ce4bgvp2rcd13ifvqct0","pricing_plan_id":"free"},{"bike_id":"bd740a52-b1ec-4c40-8bda-e9c4da3213c8","system_id":"levelo_inurba_marseille","lat":43.309371,"lon":5.401449,"is_reserved":false,"is_disabled":false,"rental_uris":{"android":"levelo://app?vid=bd740a52-b1ec-4c40-8bda-e9c4da3213c8","ios":"levelo://app?vid=bd740a52-b1ec-4c40-8bda-e9c4da3213c8"},"vehicle_type_id":"4","last_reported":1706907983,"current_range_meters":17200,"station_id":"ce4bgvp2rcd13ifvqct0","pricing_plan_id":"free"},{"bike_id":"0aca2214-6738-4ad0-ba13-439e119f904d","system_id":"levelo_inurba_marseille","lat":43.337573,"lon":5.374459,"is_reserved":false,"is_disabled":false,"rental_uris":{"android":"levelo://app?vid=0aca2214-6738-4ad0-ba13-439e119f904d","ios":"levelo://app?vid=0aca2214-6738-4ad0-ba13-439e119f904d"},"vehicle_type_id":"4","last_reported":1706907983,"current_range_meters":26400,"station_id":"","pricing_plan_id":"free"},{"bike_id":"fbd79014-8443-4fa8-a575-118d08a47cbc","system_id":"levelo_inurba_marseille","lat":43.33762,"lon":5.37432,"is_reserved":false,"is_disabled":false,"rental_uris":{"android":"levelo://app?vid=fbd79014-8443-4fa8-a575-118d08a47cbc","ios":"levelo://app?vid=fbd79014-8443-4fa8-a575-118d08a47cbc"},"vehicle_type_id":"4","last_reported":1706907983,"current_range_meters":25200,"station_id":"","pricing_plan_id":"free"},{"bike_id":"e2d4d079-cc66-4f38-adc8-060273bea7e7","system_id":"levelo_inurba_marseille","lat":43.337666,"lon":5.374423,"is_reserved":false,"is_disabled":false,"rental_uris":{"android":"levelo://app?vid=e2d4d079-cc66-4f38-adc8-060273bea7e7","ios":"levelo://app?vid=e2d4d079-cc66-4f38-adc8-060273bea7e7"},"vehicle_type_id":"4","last_reported":1706907983,"current_range_meters":800,"station_id":"","pricing_plan_id":"free"},{"bike_id":"c76e661a-8046-4e71-b684-4d17284bfb58","system_id":"levelo_inurba_marseille","lat":43.30642,"lon":5.401031,"is_reserved":false,"is_disabled":false,"rental_uris":{"android":"levelo://app?vid=c76e661a-8046-4e71-b684-4d17284bfb58","ios":"levelo://app?vid=c76e661a-8046-4e71-b684-4d17284bfb58"},"vehicle_type_id":"4","last_reported":1706907983,"current_range_meters":30400,"station_id":"ce4bh112rcd13ifvqda0","pricing_plan_id":"free"},{"bike_id":"c0d52db0-3989-4ba8-9430-7506cdc3a535","system_id":"levelo_inurba_marseille","lat":43.306412,"lon":5.401035,"is_reserved":false,"is_disabled":false,"rental_uris":{"android":"levelo://app?vid=c0d52db0-3989-4ba8-9430-7506cdc3a535","ios":"levelo://app?vid=c0d52db0-3989-4ba8-9430-7506cdc3a535"},"vehicle_type_id":"4","last_reported":1706907983,"current_range_meters":3200,"station_id":"ce4bh112rcd13ifvqda0","pricing_plan_id":"free"},{"bike_id":"10ed2c30-7e6d-48dc-88c9-975272f31a60","system_id":"levelo_inurba_marseille","lat":43.30139,"lon":5.39854,"is_reserved":false,"is_disabled":false,"rental_uris":{"android":"levelo://app?vid=10ed2c30-7e6d-48dc-88c9-975272f31a60","ios":"levelo://app?vid=10ed2c30-7e6d-48dc-88c9-975272f31a60"},"vehicle_type_id":"4","last_reported":1706907983,"current_range_meters":2800,"station_id":"ce4bh0h2rcd13ifvqd40","pricing_plan_id":"free"},{"bike_id":"426147a3-5c01-4a2e-8ad7-555333246514","system_id":"levelo_inurba_marseille","lat":43.28807,"lon":5.37679,"is_reserved":false,"is_disabled":false,"rental_uris":{"android":"levelo://app?vid=426147a3-5c01-4a2e-8ad7-555333246514","ios":"levelo://app?vid=426147a3-5c01-4a2e-8ad7-555333246514"},"vehicle_type_id":"4","last_reported":1706907983,"current_range_meters":24000,"station_id":"","pricing_plan_id":"free"},{"bike_id":"6a9b3661-645f-41d4-aedf-d0aa9c636f86","system_id":"levelo_inurba_marseille","lat":43.286961,"lon":5.373785,"is_reserved":false,"is_disabled":false,"rental_uris":{"android":"levelo://app?vid=6a9b3661-645f-41d4-aedf-d0aa9c636f86","ios":"levelo://app?vid=6a9b3661-645f-41d4-aedf-d0aa9c636f86"},"vehicle_type_id":"4","last_reported":1706907983,"current_range_meters":21200,"station_id":"ce4bh3p2rcd13ifvqdq0","pricing_plan_id":"free"},{"bike_id":"8c360b2e-009b-4ffb-b357-1f00562773b9","system_id":"levelo_inurba_marseille","lat":43.286961,"lon":5.373785,"is_reserved":false,"is_disabled":false,"rental_uris":{"android":"levelo://app?vid=8c360b2e-009b-4ffb-b357-1f00562773b9","ios":"levelo://app?vid=8c360b2e-009b-4ffb-b357-1f00562773b9"},"vehicle_type_id":"4","last_reported":1706907983,"current_range_meters":23600,"station_id":"ce4bh3p2rcd13ifvqdq0","pricing_plan_id":"free"},{"bike_id":"bd32dd80-5a8e-4363-a9bf-5732cdb3d2f2","system_id":"levelo_inurba_marseille","lat":43.298681,"lon":5.397225,"is_reserved":false,"is_disabled":false,"rental_uris":{"android":"levelo://app?vid=bd32dd80-5a8e-4363-a9bf-5732cdb3d2f2","ios":"levelo://app?vid=bd32dd80-5a8e-4363-a9bf-5732cdb3d2f2"},"vehicle_type_id":"4","last_reported":1706907983,"current_range_meters":6000,"station_id":"ce4bh0h2rcd13ifvqd50","pricing_plan_id":"free"},{"bike_id":"0e079454-b37d-4f6e-b78a-c812e787dc12","system_id":"levelo_inurba_marseille","lat":43.286961,"lon":5.373785,"is_reserved":false,"is_disabled":false,"rental_uris":{"android":"levelo://app?vid=0e079454-b37d-4f6e-b78a-c812e787dc12","ios":"levelo://app?vid=0e079454-b37d-4f6e-b78a-c812e787dc12"},"vehicle_type_id":"4","last_reported":1706907983,"current_range_meters":28400,"station_id":"ce4bh3p2rcd13ifvqdq0","pricing_plan_id":"free"},{"bike_id":"14575a7e-be7d-472a-b3a6-b4906e54736f","system_id":"levelo_inurba_marseille","lat":43.286591,"lon":5.363346,"is_reserved":false,"is_disabled":false,"rental_uris":{"android":"levelo://app?vid=14575a7e-be7d-472a-b3a6-b4906e54736f","ios":"levelo://app?vid=14575a7e-be7d-472a-b3a6-b4906e54736f"},"vehicle_type_id":"4","last_reported":1706907983,"current_range_meters":10000,"station_id":"ce4bhah2rcd13ifvqej0","pricing_plan_id":"free"},{"bike_id":"a390102e-fccb-43b0-979a-fa8b9bb5334f","system_id":"levelo_inurba_marseille","lat":43.286593,"lon":5.363346,"is_reserved":false,"is_disabled":false,"rental_uris":{"android":"levelo://app?vid=a390102e-fccb-43b0-979a-fa8b9bb5334f","ios":"levelo://app?vid=a390102e-fccb-43b0-979a-fa8b9bb5334f"},"vehicle_type_id":"4","last_reported":1706907983,"current_range_meters":13600,"station_id":"ce4bhah2rcd13ifvqej0","pricing_plan_id":"free"},{"bike_id":"a04c9d26-d28c-4650-a41f-0d601b02f195","system_id":"levelo_inurba_marseille","lat":43.286591,"lon":5.363346,"is_reserved":false,"is_disabled":false,"rental_uris":{"android":"levelo://app?vid=a04c9d26-d28c-4650-a41f-0d601b02f195","ios":"levelo://app?vid=a04c9d26-d28c-4650-a41f-0d601b02f195"},"vehicle_type_id":"4","last_reported":1706907983,"current_range_meters":800,"station_id":"ce4bhah2rcd13ifvqej0","pricing_plan_id":"free"},{"bike_id":"c7954569-eb4a-4104-b4a6-a8cde53725bd","system_id":"levelo_inurba_marseille","lat":43.290336,"lon":5.386425,"is_reserved":false,"is_disabled":false,"rental_uris":{"android":"levelo://app?vid=c7954569-eb4a-4104-b4a6-a8cde53725bd","ios":"levelo://app?vid=c7954569-eb4a-4104-b4a6-a8cde53725bd"},"vehicle_type_id":"4","last_reported":1706907983,"current_range_meters":14800,"station_id":"ce4bh4p2rcd13ifvqe0g","pricing_plan_id":"free"},{"bike_id":"09b46069-666e-43b1-8870-7b34ff2ce27a","system_id":"levelo_inurba_marseille","lat":43.290345,"lon":5.38646,"is_reserved":false,"is_disabled":false,"rental_uris":{"android":"levelo://app?vid=09b46069-666e-43b1-8870-7b34ff2ce27a","ios":"levelo://app?vid=09b46069-666e-43b1-8870-7b34ff2ce27a"},"vehicle_type_id":"4","last_reported":1706907983,"current_range_meters":23600,"station_id":"ce4bh4p2rcd13ifvqe0g","pricing_plan_id":"free"},{"bike_id":"c621328d-fe6f-496a-ba67-af6e2ccae257","system_id":"levelo_inurba_marseille","lat":43.309047,"lon":5.396551,"is_reserved":false,"is_disabled":false,"rental_uris":{"android":"levelo://app?vid=c621328d-fe6f-496a-ba67-af6e2ccae257","ios":"levelo://app?vid=c621328d-fe6f-496a-ba67-af6e2ccae257"},"vehicle_type_id":"4","last_reported":1706907983,"current_range_meters":15600,"station_id":"ce4bh012rcd13ifvqcv0","pricing_plan_id":"free"},{"bike_id":"0906f9c9-4c51-444e-9e62-5e5ed2a145e1","system_id":"levelo_inurba_marseille","lat":43.302759,"lon":5.400793,"is_reserved":false,"is_disabled":false,"rental_uris":{"android":"levelo://app?vid=0906f9c9-4c51-444e-9e62-5e5ed2a145e1","ios":"levelo://app?vid=0906f9c9-4c51-444e-9e62-5e5ed2a145e1"},"vehicle_type_id":"4","last_reported":1706907983,"current_range_meters":16000,"station_id":"ce4bgvh2rcd13ifvqcs0","pricing_plan_id":"free"},{"bike_id":"a4b0f2ce-10b6-4093-833e-d8becb540d19","system_id":"levelo_inurba_marseille","lat":43.302759,"lon":5.400793,"is_reserved":false,"is_disabled":false,"rental_uris":{"android":"levelo://app?vid=a4b0f2ce-10b6-4093-833e-d8becb540d19","ios":"levelo://app?vid=a4b0f2ce-10b6-4093-833e-d8becb540d19"},"vehicle_type_id":"4","last_reported":1706907983,"current_range_meters":0,"station_id":"ce4bgvh2rcd13ifvqcs0","pricing_plan_id":"free"},{"bike_id":"7206da5d-ef7d-405e-b92b-880b922f1e04","system_id":"levelo_inurba_marseille","lat":43.302759,"lon":5.400793,"is_reserved":false,"is_disabled":false,"rental_uris":{"android":"levelo://app?vid=7206da5d-ef7d-405e-b92b-880b922f1e04","ios":"levelo://app?vid=7206da5d-ef7d-405e-b92b-880b922f1e04"},"vehicle_type_id":"4","last_reported":1706907983,"current_range_meters":30400,"station_id":"ce4bgvh2rcd13ifvqcs0","pricing_plan_id":"free"},{"bike_id":"f09ac4e1-b45b-41f2-9cca-9f270270d713","system_id":"levelo_inurba_marseille","lat":43.302759,"lon":5.400793,"is_reserved":false,"is_disabled":false,"rental_uris":{"android":"levelo://app?vid=f09ac4e1-b45b-41f2-9cca-9f270270d713","ios":"levelo://app?vid=f09ac4e1-b45b-41f2-9cca-9f270270d713"},"vehicle_type_id":"4","last_reported":1706907983,"current_range_meters":31200,"station_id":"ce4bgvh2rcd13ifvqcs0","pricing_plan_id":"free"},{"bike_id":"898af658-480c-4fcb-a398-bf8d26289b13","system_id":"levelo_inurba_marseille","lat":43.302759,"lon":5.400793,"is_reserved":false,"is_disabled":false,"rental_uris":{"android":"levelo://app?vid=898af658-480c-4fcb-a398-bf8d26289b13","ios":"levelo://app?vid=898af658-480c-4fcb-a398-bf8d26289b13"},"vehicle_type_id":"4","last_reported":1706907983,"current_range_meters":7200,"station_id":"ce4bgvh2rcd13ifvqcs0","pricing_plan_id":"free"},{"bike_id":"4b751970-46c9-4aa8-8bee-9656321d23df","system_id":"levelo_inurba_marseille","lat":43.302759,"lon":5.400793,"is_reserved":false,"is_disabled":false,"rental_uris":{"android":"levelo://app?vid=4b751970-46c9-4aa8-8bee-9656321d23df","ios":"levelo://app?vid=4b751970-46c9-4aa8-8bee-9656321d23df"},"vehicle_type_id":"4","last_reported":1706907983,"current_range_meters":6000,"station_id":"ce4bgvh2rcd13ifvqcs0","pricing_plan_id":"free"},{"bike_id":"9137c835-674b-4e3b-bc4c-642d164967c1","system_id":"levelo_inurba_marseille","lat":43.290345,"lon":5.38646,"is_reserved":false,"is_disabled":false,"rental_uris":{"android":"levelo://app?vid=9137c835-674b-4e3b-bc4c-642d164967c1","ios":"levelo://app?vid=9137c835-674b-4e3b-bc4c-642d164967c1"},"vehicle_type_id":"4","last_reported":1706907983,"current_range_meters":2800,"station_id":"ce4bh4p2rcd13ifvqe0g","pricing_plan_id":"free"},{"bike_id":"da13073d-23b1-432a-aec2-42afafbb1036","system_id":"levelo_inurba_marseille","lat":43.302759,"lon":5.400793,"is_reserved":false,"is_disabled":false,"rental_uris":{"android":"levelo://app?vid=da13073d-23b1-432a-aec2-42afafbb1036","ios":"levelo://app?vid=da13073d-23b1-432a-aec2-42afafbb1036"},"vehicle_type_id":"4","last_reported":1706907983,"current_range_meters":31200,"station_id":"ce4bgvh2rcd13ifvqcs0","pricing_plan_id":"free"},{"bike_id":"6ae0d0a1-55ea-4fed-85a4-7dc794d954e0","system_id":"levelo_inurba_marseille","lat":43.302759,"lon":5.400793,"is_reserved":false,"is_disabled":false,"rental_uris":{"android":"levelo://app?vid=6ae0d0a1-55ea-4fed-85a4-7dc794d954e0","ios":"levelo://app?vid=6ae0d0a1-55ea-4fed-85a4-7dc794d954e0"},"vehicle_type_id":"4","last_reported":1706907983,"current_range_meters":1200,"station_id":"ce4bgvh2rcd13ifvqcs0","pricing_plan_id":"free"},{"bike_id":"81187463-0d06-4236-b02e-9dadb5f475d1","system_id":"levelo_inurba_marseille","lat":43.286039,"lon":5.370679,"is_reserved":false,"is_disabled":false,"rental_uris":{"android":"levelo://app?vid=81187463-0d06-4236-b02e-9dadb5f475d1","ios":"levelo://app?vid=81187463-0d06-4236-b02e-9dadb5f475d1"},"vehicle_type_id":"4","last_reported":1706907983,"current_range_meters":4400,"station_id":"ce4bht12rcd13ifvqi60","pricing_plan_id":"free"},{"bike_id":"0f2199df-bb3c-4013-93f5-1fe3d7d585c8","system_id":"levelo_inurba_marseille","lat":43.285351,"lon":5.360074,"is_reserved":false,"is_disabled":false,"rental_uris":{"android":"levelo://app?vid=0f2199df-bb3c-4013-93f5-1fe3d7d585c8","ios":"levelo://app?vid=0f2199df-bb3c-4013-93f5-1fe3d7d585c8"},"vehicle_type_id":"4","last_reported":1706907983,"current_range_meters":19200,"station_id":"","pricing_plan_id":"free"},{"bike_id":"bf2a9f2d-08db-411a-a4c6-20cf77eb2d37","system_id":"levelo_inurba_marseille","lat":43.291994,"lon":5.392907,"is_reserved":false,"is_disabled":false,"rental_uris":{"android":"levelo://app?vid=bf2a9f2d-08db-411a-a4c6-20cf77eb2d37","ios":"levelo://app?vid=bf2a9f2d-08db-411a-a4c6-20cf77eb2d37"},"vehicle_type_id":"4","last_reported":1706907983,"current_range_meters":26800,"station_id":"ce4bh192rcd13ifvqdd0","pricing_plan_id":"free"},{"bike_id":"3d3a14dc-276e-4f5e-8a5c-c589356fc94b","system_id":"levelo_inurba_marseille","lat":43.291994,"lon":5.392907,"is_reserved":false,"is_disabled":false,"rental_uris":{"android":"levelo://app?vid=3d3a14dc-276e-4f5e-8a5c-c589356fc94b","ios":"levelo://app?vid=3d3a14dc-276e-4f5e-8a5c-c589356fc94b"},"vehicle_type_id":"4","last_reported":1706907983,"current_range_meters":16000,"station_id":"ce4bh192rcd13ifvqdd0","pricing_plan_id":"free"},{"bike_id":"4f8562ec-443b-423d-baf5-10125a9f6c9e","system_id":"levelo_inurba_marseille","lat":43.291994,"lon":5.392907,"is_reserved":false,"is_disabled":false,"rental_uris":{"android":"levelo://app?vid=4f8562ec-443b-423d-baf5-10125a9f6c9e","ios":"levelo://app?vid=4f8562ec-443b-423d-baf5-10125a9f6c9e"},"vehicle_type_id":"4","last_reported":1706907983,"current_range_meters":19200,"station_id":"ce4bh192rcd13ifvqdd0","pricing_plan_id":"free"},{"bike_id":"7f479f29-1052-4eb6-b770-0ef3a7cdd61c","system_id":"levelo_inurba_marseille","lat":43.294314,"lon":5.397498,"is_reserved":false,"is_disabled":false,"rental_uris":{"android":"levelo://app?vid=7f479f29-1052-4eb6-b770-0ef3a7cdd61c","ios":"levelo://app?vid=7f479f29-1052-4eb6-b770-0ef3a7cdd61c"},"vehicle_type_id":"4","last_reported":1706907983,"current_range_meters":7600,"station_id":"ce4bh3h2rcd13ifvqdo0","pricing_plan_id":"free"},{"bike_id":"5fc2930d-dec4-4c25-8fd3-e1e852bc7bcc","system_id":"levelo_inurba_marseille","lat":43.285848,"lon":5.350787,"is_reserved":false,"is_disabled":false,"rental_uris":{"android":"levelo://app?vid=5fc2930d-dec4-4c25-8fd3-e1e852bc7bcc","ios":"levelo://app?vid=5fc2930d-dec4-4c25-8fd3-e1e852bc7bcc"},"vehicle_type_id":"4","last_reported":1706907983,"current_range_meters":8800,"station_id":"ce4bhch2rcd13ifvqeug","pricing_plan_id":"free"},{"bike_id":"741c7637-7609-49c8-a905-1768b83affcd","system_id":"levelo_inurba_marseille","lat":43.283998,"lon":5.375062,"is_reserved":false,"is_disabled":false,"rental_uris":{"android":"levelo://app?vid=741c7637-7609-49c8-a905-1768b83affcd","ios":"levelo://app?vid=741c7637-7609-49c8-a905-1768b83affcd"},"vehicle_type_id":"4","last_reported":1706907983,"current_range_meters":13600,"station_id":"ce4bh412rcd13ifvqds0","pricing_plan_id":"free"},{"bike_id":"4d26bba9-dc83-4523-a8de-bef3d452e251","system_id":"levelo_inurba_marseille","lat":43.285856,"lon":5.350771,"is_reserved":false,"is_disabled":false,"rental_uris":{"android":"levelo://app?vid=4d26bba9-dc83-4523-a8de-bef3d452e251","ios":"levelo://app?vid=4d26bba9-dc83-4523-a8de-bef3d452e251"},"vehicle_type_id":"4","last_reported":1706907983,"current_range_meters":0,"station_id":"ce4bhch2rcd13ifvqeug","pricing_plan_id":"free"},{"bike_id":"8a4bc98f-3bc9-4e36-9e70-d9b5098d0a37","system_id":"levelo_inurba_marseille","lat":43.283998,"lon":5.375062,"is_reserved":false,"is_disabled":false,"rental_uris":{"android":"levelo://app?vid=8a4bc98f-3bc9-4e36-9e70-d9b5098d0a37","ios":"levelo://app?vid=8a4bc98f-3bc9-4e36-9e70-d9b5098d0a37"},"vehicle_type_id":"4","last_reported":1706907983,"current_range_meters":0,"station_id":"ce4bh412rcd13ifvqds0","pricing_plan_id":"free"},{"bike_id":"e35956a2-fba2-4660-8983-b7a17b46d35c","system_id":"levelo_inurba_marseille","lat":43.283998,"lon":5.375062,"is_reserved":false,"is_disabled":false,"rental_uris":{"android":"levelo://app?vid=e35956a2-fba2-4660-8983-b7a17b46d35c","ios":"levelo://app?vid=e35956a2-fba2-4660-8983-b7a17b46d35c"},"vehicle_type_id":"4","last_reported":1706907983,"current_range_meters":5600,"station_id":"ce4bh412rcd13ifvqds0","pricing_plan_id":"free"},{"bike_id":"48ed00e2-d3c1-4794-9a18-63d44dc12514","system_id":"levelo_inurba_marseille","lat":43.283998,"lon":5.375062,"is_reserved":false,"is_disabled":false,"rental_uris":{"android":"levelo://app?vid=48ed00e2-d3c1-4794-9a18-63d44dc12514","ios":"levelo://app?vid=48ed00e2-d3c1-4794-9a18-63d44dc12514"},"vehicle_type_id":"4","last_reported":1706907983,"current_range_meters":14800,"station_id":"ce4bh412rcd13ifvqds0","pricing_plan_id":"free"},{"bike_id":"16841bd2-9e1b-4649-9246-c94baa77d4d0","system_id":"levelo_inurba_marseille","lat":43.296263,"lon":5.40601,"is_reserved":false,"is_disabled":false,"rental_uris":{"android":"levelo://app?vid=16841bd2-9e1b-4649-9246-c94baa77d4d0","ios":"levelo://app?vid=16841bd2-9e1b-4649-9246-c94baa77d4d0"},"vehicle_type_id":"4","last_reported":1706907983,"current_range_meters":4400,"station_id":"ce4bh0h2rcd13ifvqd60","pricing_plan_id":"free"},