{"last_updated":1746137355,"ttl":60,"version":"2.2","data":{"bikes":[{"bike_id":"98e592b3-5fa3-4a83-b8d7-4600d55d353f","system_id":"levelo_inurba_marseille","lat":43.24634,"lon":5.4365,"is_reserved":false,"is_disabled":false,"rental_uris":{"android":"levelo://app?vid=98e592b3-5fa3-4a83-b8d7-4600d55d353f","ios":"levelo://app?vid=98e592b3-5fa3-4a83-b8d7-4600d55d353f"},"vehicle_type_id":"4","last_reported":1746137355,"current_range_meters":2800,"station_id":"","pricing_plan_id":"cebpf4jnsgd1na2vs0mg"},{"bike_id":"fdaaa555-e3ac-42af-8b90-07888ca1411e","system_id":"levelo_inurba_marseille","lat":43.23194,"lon":5.39981,"is_reserved":false,"is_disabled":false,"rental_uris":{"android":"levelo://app?vid=fdaaa555-e3ac-42af-8b90-07888ca1411e","ios":"levelo://app?vid=fdaaa555-e3ac-42af-8b90-07888ca1411e"},"vehicle_type_id":"4","last_reported":1746137355,"current_range_meters":2800,"station_id":"ce4bhn12rcd13ifvqgqg","pricing_plan_id":"cebpf4jnsgd1na2vs0mg"},{"bike_id":"c1c239ac-c26a-4d48-9c6e-672896f6304d","system_id":"levelo_inurba_marseille","lat":43.30246,"lon":5.40087,"is_reserved":false,"is_disabled":false,"rental_uris":{"android":"levelo://app?vid=c1c239ac-c26a-4d48-9c6e-672896f6304d","ios":"levelo://app?vid=c1c239ac-c26a-4d48-9c6e-672896f6304d"},"vehicle_type_id":"4","last_reported":1746137355,"current_range_meters":3200,"station_id":"ce4bgvh2rcd13ifvqcs0","pricing_plan_id":"cebpf4jnsgd1na2vs0mg"},{"bike_id":"b040c87c-26d7-487f-acd2-8d295b07e4e9","system_id":"levelo_inurba_marseille","lat":43.29532,"lon":5.38547,"is_reserved":false,"is_disabled":true,"rental_uris":{"android":"levelo://app?vid=b040c87c-26d7-487f-acd2-8d295b07e4e9","ios":"levelo://app?vid=b040c87c-26d7-487f-acd2-8d295b07e4e9"},"vehicle_type_id":"4","last_reported":1746137355,"current_range_meters":3200,"station_id":"ce4bgih2rcd13ifvqba0","pricing_plan_id":"cebpf4jnsgd1na2vs0mg"},{"bike_id":"644a933c-db49-4e5b-8960-0dcb83ef70b0","system_id":"levelo_inurba_marseille","lat":43.27375,"lon":5.36263,"is_reserved":false,"is_disabled":false,"rental_uris":{"android":"levelo://app?vid=644a933c-db49-4e5b-8960-0dcb83ef70b0","ios":"levelo://app?vid=644a933c-db49-4e5b-8960-0dcb83ef70b0"},"vehicle_type_id":"4","last_reported":1746137355,"current_range_meters":3200,"station_id":"ce4bhbh2rcd13ifvqeo0","pricing_plan_id":"cebpf4jnsgd1na2vs0mg"},{"bike_id":"f21b5545-0bd1-406d-91ad-1376c9d2c9b2","system_id":"levelo_inurba_marseille","lat":43.292437,"lon":5.384567,"is_reserved":false,"is_disabled":true,"rental_uris":{"android":"levelo://app?vid=f21b5545-0bd1-406d-91ad-1376c9d2c9b2","ios":"levelo://app?vid=f21b5545-0bd1-406d-91ad-1376c9d2c9b2"},"vehicle_type_id":"4","last_reported":1746137355,"current_range_meters":3600,"station_id":"ce4bh692rcd13ifvqea0","pricing_plan_id":"cebpf4jnsgd1na2vs0mg"},{"bike_id":"de3cdd69-e35e-470d-9667-1c73f08b2fea","system_id":"levelo_inurba_marseille","lat":43.28936,"lon":5.39616,"is_reserved":false,"is_disabled":false,"rental_uris":{"android":"levelo://app?vid=de3cdd69-e35e-470d-9667-1c73f08b2fea","ios":"levelo://app?vid=de3cdd69-e35e-470d-9667-1c73f08b2fea"},"vehicle_type_id":"4","last_reported":1746137355,"current_range_meters":4000,"station_id":"ce4bh3h2rcd13ifvqdn0","pricing_plan_id":"cebpf4jnsgd1na2vs0mg"},{"bike_id":"39ccc3a0-baae-41ad-bd60-2cf8edcfd4fa","system_id":"levelo_inurba_marseille","lat":43.26029,"lon":5.37555,"is_reserved":false,"is_disabled":true,"rental_uris":{"android":"levelo://app?vid=39ccc3a0-baae-41ad-bd60-2cf8edcfd4fa","ios":"levelo://app?vid=39ccc3a0-baae-41ad-bd60-2cf8edcfd4fa"},"vehicle_type_id":"4","last_reported":1746137355,"current_range_meters":4400,"station_id":"ce4bhgh2rcd13ifvqfa0","pricing_plan_id":"cebpf4jnsgd1na2vs0mg"},{"bike_id":"590c3182-b259-4323-807a-fe38f07e15f2","system_id":"levelo_inurba_marseille","lat":43.33604,"lon":5.41035,"is_reserved":false,"is_disabled":false,"rental_uris":{"android":"levelo://app?vid=590c3182-b259-4323-807a-fe38f07e15f2","ios":"levelo://app?vid=590c3182-b259-4323-807a-fe38f07e15f2"},"vehicle_type_id":"4","last_reported":1746137355,"current_range_meters":4400,"station_id":"ce4bhqh2rcd13ifvqhmg","pricing_plan_id":"cebpf4jnsgd1na2vs0mg"},{"bike_id":"13b29517-469b-4d3c-8927-4c2f06525cf0","system_id":"levelo_inurba_marseille","lat":43.28836,"lon":5.35799,"is_reserved":false,"is_disabled":false,"rental_uris":{"android":"levelo://app?vid=13b29517-469b-4d3c-8927-4c2f06525cf0","ios":"levelo://app?vid=13b29517-469b-4d3c-8927-4c2f06525cf0"},"vehicle_type_id":"4","last_reported":1746137355,"current_range_meters":4400,"station_id":"ce4bhb12rcd13ifvqem0","pricing_plan_id":"cebpf4jnsgd1na2vs0mg"},{"bike_id":"ffafe023-f228-4f84-841e-4d8493b40269","system_id":"levelo_inurba_marseille","lat":43.30809,"lon":5.38163,"is_reserved":false,"is_disabled":false,"rental_uris":{"android":"levelo://app?vid=ffafe023-f228-4f84-841e-4d8493b40269","ios":"levelo://app?vid=ffafe023-f228-4f84-841e-4d8493b40269"},"vehicle_type_id":"4","last_reported":1746137355,"current_range_meters":4400,"station_id":"ce4bgt12rcd13ifvqce0","pricing_plan_id":"cebpf4jnsgd1na2vs0mg"},{"bike_id":"94e0126e-68b5-4c51-9c5a-e928a5f0a8fa","system_id":"levelo_inurba_marseille","lat":43.31485,"lon":5.37312,"is_reserved":false,"is_disabled":false,"rental_uris":{"android":"levelo://app?vid=94e0126e-68b5-4c51-9c5a-e928a5f0a8fa","ios":"levelo://app?vid=94e0126e-68b5-4c51-9c5a-e928a5f0a8fa"},"vehicle_type_id":"4","last_reported":1746137355,"current_range_meters":4400,"station_id":"ce4bgt12rcd13ifvqcd0","pricing_plan_id":"cebpf4jnsgd1na2vs0mg"},{"bike_id":"9b53964b-0ada-41a3-a2ae-c65cc783fd66","system_id":"levelo_inurba_marseille","lat":43.29261,"lon":5.40903,"is_reserved":false,"is_disabled":false,"rental_uris":{"android":"levelo://app?vid=9b53964b-0ada-41a3-a2ae-c65cc783fd66","ios":"levelo://app?vid=9b53964b-0ada-41a3-a2ae-c65cc783fd66"},"vehicle_type_id":"4","last_reported":1746137355,"current_range_meters":4800,"station_id":"ce4bh192rcd13ifvqdc0","pricing_plan_id":"cebpf4jnsgd1na2vs0mg"},{"bike_id":"91fcfa06-6695-4026-a009-1b2f02a4229d","system_id":"levelo_inurba_marseille","lat":43.250899,"lon":5.395296,"is_reserved":false,"is_disabled":false,"rental_uris":{"android":"levelo://app?vid=91fcfa06-6695-4026-a009-1b2f02a4229d","ios":"levelo://app?vid=91fcfa06-6695-4026-a009-1b2f02a4229d"},"vehicle_type_id":"4","last_reported":1746137355,"current_range_meters":4800,"station_id":"ce4bhm12rcd13ifvqgkg","pricing_plan_id":"cebpf4jnsgd1na2vs0mg"},{"bike_id":"9993632a-4b57-4af1-b3f7-ae52baf8c31d","system_id":"levelo_inurba_marseille","lat":43.2942,"lon":5.3861,"is_reserved":false,"is_disabled":true,"rental_uris":{"android":"levelo://app?vid=9993632a-4b57-4af1-b3f7-ae52baf8c31d","ios":"levelo://app?vid=9993632a-4b57-4af1-b3f7-ae52baf8c31d"},"vehicle_type_id":"4","last_reported":1746137355,"current_range_meters":4800,"station_id":"ce4bh2h2rcd13ifvqdh0","pricing_plan_id":"cebpf4jnsgd1na2vs0mg"},{"bike_id":"0683d66b-a209-4c9a-8a6e-884c4cd4abfa","system_id":"levelo_inurba_marseille","lat":43.29877,"lon":5.39732,"is_reserved":false,"is_disabled":false,"rental_uris":{"android":"levelo://app?vid=0683d66b-a209-4c9a-8a6e-884c4cd4abfa","ios":"levelo://app?vid=0683d66b-a209-4c9a-8a6e-884c4cd4abfa"},"vehicle_type_id":"4","last_reported":1746137355,"current_range_meters":5600,"station_id":"ce4bh0h2rcd13ifvqd50","pricing_plan_id":"cebpf4jnsgd1na2vs0mg"},{"bike_id":"5a46a972-f412-47bc-918e-2491313c9726","system_id":"levelo_inurba_marseille","lat":43.29016,"lon":5.40055,"is_reserved":false,"is_disabled":false,"rental_uris":{"android":"levelo://app?vid=5a46a972-f412-47bc-918e-2491313c9726","ios":"levelo://app?vid=5a46a972-f412-47bc-918e-2491313c9726"},"vehicle_type_id":"4","last_reported":1746137355,"current_range_meters":5600,"station_id":"","pricing_plan_id":"cebpf4jnsgd1na2vs0mg"},{"bike_id":"074b1fe1-0369-406a-b3fd-aff117360eba","system_id":"levelo_inurba_marseille","lat":43.24059,"lon":5.37753,"is_reserved":false,"is_disabled":false,"rental_uris":{"android":"levelo://app?vid=074b1fe1-0369-406a-b3fd-aff117360eba","ios":"levelo://app?vid=074b1fe1-0369-406a-b3fd-aff117360eba"},"vehicle_type_id":"4","last_reported":1746137355,"current_range_meters":5600,"station_id":"ce4bhnp2rcd13ifvqgvg","pricing_plan_id":"cebpf4jnsgd1na2vs0mg"},{"bike_id":"b4fb969f-2dd6-4ff4-add9-ed423fea08b2","system_id":"levelo_inurba_marseille","lat":43.3031,"lon":5.36901,"is_reserved":false,"is_disabled":false,"rental_uris":{"android":"levelo://app?vid=b4fb969f-2dd6-4ff4-add9-ed423fea08b2","ios":"levelo://app?vid=b4fb969f-2dd6-4ff4-add9-ed423fea08b2"},"vehicle_type_id":"4","last_reported":1746137355,"current_range_meters":4800,"station_id":"ce4bgqh2rcd13ifvqc5g","pricing_plan_id":"cebpf4jnsgd1na2vs0mg"},{"bike_id":"2785f816-66b8-4b6f-bb79-42f49ec74d85","system_id":"levelo_inurba_marseille","lat":43.30452,"lon":5.39741,"is_reserved":false,"is_disabled":false,"rental_uris":{"android":"levelo://app?vid=2785f816-66b8-4b6f-bb79-42f49ec74d85","ios":"levelo://app?vid=2785f816-66b8-4b6f-bb79-42f49ec74d85"},"vehicle_type_id":"4","last_reported":1746137355,"current_range_meters":5600,"station_id":"ce4bh092rcd13ifvqd20","pricing_plan_id":"cebpf4jnsgd1na2vs0mg"},{"bike_id":"53e2a6ba-f0b2-427d-bbf2-3607ce505fbb","system_id":"levelo_inurba_marseille","lat":43.27917,"lon":5.3958,"is_reserved":false,"is_disabled":false,"rental_uris":{"android":"levelo://app?vid=53e2a6ba-f0b2-427d-bbf2-3607ce505fbb","ios":"levelo://app?vid=53e2a6ba-f0b2-427d-bbf2-3607ce505fbb"},"vehicle_type_id":"4","last_reported":1746137355,"current_range_meters":6000,"station_id":"ce4bhf92rcd13ifvqf40","pricing_plan_id":"cebpf4jnsgd1na2vs0mg"},{"bike_id":"5d3b05a5-2bb8-4020-b7ec-e6c9888f170c","system_id":"levelo_inurba_marseille","lat":43.297283,"lon":5.39458,"is_reserved":false,"is_disabled":false,"rental_uris":{"android":"levelo://app?vid=5d3b05a5-2bb8-4020-b7ec-e6c9888f170c","ios":"levelo://app?vid=5d3b05a5-2bb8-4020-b7ec-e6c9888f170c"},"vehicle_type_id":"4","last_reported":1746137355,"current_range_meters":6000,"station_id":"","pricing_plan_id":"cebpf4jnsgd1na2vs0mg"},{"bike_id":"139a4ea6-9dc1-4e6a-80cf-5d09d3450fd0","system_id":"levelo_inurba_marseille","lat":43.28709,"lon":5.39985,"is_reserved":false,"is_disabled":false,"rental_uris":{"android":"levelo://app?vid=139a4ea6-9dc1-4e6a-80cf-5d09d3450fd0","ios":"levelo://app?vid=139a4ea6-9dc1-4e6a-80cf-5d09d3450fd0"},"vehicle_type_id":"4","last_reported":1746137355,"current_range_meters":6000,"station_id":"ce4bho92rcd13ifvqh3g","pricing_plan_id":"cebpf4jnsgd1na2vs0mg"},{"bike_id":"fd9a4832-7310-4a2d-b55c-eb7e681369f4","system_id":"levelo_inurba_marseille","lat":43.2799,"lon":5.44223,"is_reserved":false,"is_disabled":false,"rental_uris":{"android":"levelo://app?vid=fd9a4832-7310-4a2d-b55c-eb7e681369f4","ios":"levelo://app?vid=fd9a4832-7310-4a2d-b55c-eb7e681369f4"},"vehicle_type_id":"4","last_reported":1746137355,"current_range_meters":6000,"station_id":"","pricing_plan_id":"cebpf4jnsgd1na2vs0mg"},{"bike_id":"b8483375-9a4a-45b5-93fc-0f48e332203e","system_id":"levelo_inurba_marseille","lat":43.30898,"lon":5.37189,"is_reserved":false,"is_disabled":false,"rental_uris":{"android":"levelo://app?vid=b8483375-9a4a-45b5-93fc-0f48e332203e","ios":"levelo://app?vid=b8483375-9a4a-45b5-93fc-0f48e332203e"},"vehicle_type_id":"4","last_reported":1746137355,"current_range_meters":6400,"station_id":"ce4bguh2rcd13ifvqckg","pricing_plan_id":"cebpf4jnsgd1na2vs0mg"},{"bike_id":"080fea3a-f03b-4b78-b4ff-0c14bc158b80","system_id":"levelo_inurba_marseille","lat":43.28361,"lon":5.38106,"is_reserved":false,"is_disabled":false,"rental_uris":{"android":"levelo://app?vid=080fea3a-f03b-4b78-b4ff-0c14bc158b80","ios":"levelo://app?vid=080fea3a-f03b-4b78-b4ff-0c14bc158b80"},"vehicle_type_id":"4","last_reported":1746137355,"current_range_meters":6400,"station_id":"ce4bh412rcd13ifvqdr0","pricing_plan_id":"cebpf4jnsgd1na2vs0mg"},{"bike_id":"322950a6-18c3-45a6-b4ce-aac5b35350d3","system_id":"levelo_inurba_marseille","lat":43.30598,"lon":5.37214,"is_reserved":false,"is_disabled":false,"rental_uris":{"android":"levelo://app?vid=322950a6-18c3-45a6-b4ce-aac5b35350d3","ios":"levelo://app?vid=322950a6-18c3-45a6-b4ce-aac5b35350d3"},"vehicle_type_id":"4","last_reported":1746137355,"current_range_meters":6400,"station_id":"ce4bgqh2rcd13ifvqc4g","pricing_plan_id":"cebpf4jnsgd1na2vs0mg"},{"bike_id":"7f770ba9-2e48-47c9-8bb4-942855273bad","system_id":"levelo_inurba_marseille","lat":43.25324,"lon":5.42408,"is_reserved":false,"is_disabled":false,"rental_uris":{"android":"levelo://app?vid=7f770ba9-2e48-47c9-8bb4-942855273bad","ios":"levelo://app?vid=7f770ba9-2e48-47c9-8bb4-942855273bad"},"vehicle_type_id":"4","last_reported":1746137355,"current_range_meters":6400,"station_id":"","pricing_plan_id":"cebpf4jnsgd1na2vs0mg"},{"bike_id":"727a9e79-9eef-4d0d-8364-8cc93b121718","system_id":"levelo_inurba_marseille","lat":43.25493,"lon":5.37639,"is_reserved":false,"is_disabled":true,"rental_uris":{"android":"levelo://app?vid=727a9e79-9eef-4d0d-8364-8cc93b121718","ios":"levelo://app?vid=727a9e79-9eef-4d0d-8364-8cc93b121718"},"vehicle_type_id":"4","last_reported":1746137355,"current_range_meters":6400,"station_id":"ce4bhh12rcd13ifvqff0","pricing_plan_id":"cebpf4jnsgd1na2vs0mg"},{"bike_id":"5929c210-eb80-47f6-b67f-7d276e7fb810","system_id":"levelo_inurba_marseille","lat":43.29896,"lon":5.39729,"is_reserved":false,"is_disabled":false,"rental_uris":{"android":"levelo://app?vid=5929c210-eb80-47f6-b67f-7d276e7fb810","ios":"levelo://app?vid=5929c210-eb80-47f6-b67f-7d276e7fb810"},"vehicle_type_id":"4","last_reported":1746137355,"current_range_meters":6400,"station_id":"ce4bh0h2rcd13ifvqd50","pricing_plan_id":"cebpf4jnsgd1na2vs0mg"},{"bike_id":"4af62b9a-7259-45f3-b15a-51fcc63c51c5","system_id":"levelo_inurba_marseille","lat":43.25724,"lon":5.41105,"is_reserved":false,"is_disabled":false,"rental_uris":{"android":"levelo://app?vid=4af62b9a-7259-45f3-b15a-51fcc63c51c5","ios":"levelo://app?vid=4af62b9a-7259-45f3-b15a-51fcc63c51c5"},"vehicle_type_id":"4","last_reported":1746137355,"current_range_meters":6800,"station_id":"ce4bhkp2rcd13ifvqgd0","pricing_plan_id":"cebpf4jnsgd1na2vs0mg"},{"bike_id":"3dda069f-efc1-4167-894b-c35218499c9b","system_id":"levelo_inurba_marseille","lat":43.28148,"lon":5.4264,"is_reserved":false,"is_disabled":false,"rental_uris":{"android":"levelo://app?vid=3dda069f-efc1-4167-894b-c35218499c9b","ios":"levelo://app?vid=3dda069f-efc1-4167-894b-c35218499c9b"},"vehicle_type_id":"4","last_reported":1746137355,"current_range_meters":6400,"station_id":"ce4bhnh2rcd13ifvqgug","pricing_plan_id":"cebpf4jnsgd1na2vs0mg"},{"bike_id":"c7da9ef9-1744-4e5e-a809-ff041badbe27","system_id":"levelo_inurba_marseille","lat":43.29034,"lon":5.39978,"is_reserved":false,"is_disabled":false,"rental_uris":{"android":"levelo://app?vid=c7da9ef9-1744-4e5e-a809-ff041badbe27","ios":"levelo://app?vid=c7da9ef9-1744-4e5e-a809-ff041badbe27"},"vehicle_type_id":"4","last_reported":1746137355,"current_range_meters":6800,"station_id":"ce4bh392rcd13ifvqdm0","pricing_plan_id":"cebpf4jnsgd1na2vs0mg"},{"bike_id":"d901647f-aef6-4e5f-b7ba-7cb0dfd0a264","system_id":"levelo_inurba_marseille","lat":43.30782,"lon":5.37647,"is_reserved":false,"is_disabled":true,"rental_uris":{"android":"levelo://app?vid=d901647f-aef6-4e5f-b7ba-7cb0dfd0a264","ios":"levelo://app?vid=d901647f-aef6-4e5f-b7ba-7cb0dfd0a264"},"vehicle_type_id":"4","last_reported":1746137355,"current_range_meters":6800,"station_id":"ce4bgv92rcd13ifvqcq0","pricing_plan_id":"cebpf4jnsgd1na2vs0mg"},{"bike_id":"993993a4-ded2-4764-967d-7bb33e67fd38","system_id":"levelo_inurba_marseille","lat":43.27913,"lon":5.39578,"is_reserved":false,"is_disabled":false,"rental_uris":{"android":"levelo://app?vid=993993a4-ded2-4764-967d-7bb33e67fd38","ios":"levelo://app?vid=993993a4-ded2-4764-967d-7bb33e67fd38"},"vehicle_type_id":"4","last_reported":1746137355,"current_range_meters":6800,"station_id":"ce4bhf92rcd13ifvqf40","pricing_plan_id":"cebpf4jnsgd1na2vs0mg"},{"bike_id":"22a05297-e340-4c8d-bcc3-8a0476149340","system_id":"levelo_inurba_marseille","lat":43.28617,"lon":5.35108,"is_reserved":false,"is_disabled":false,"rental_uris":{"android":"levelo://app?vid=22a05297-e340-4c8d-bcc3-8a0476149340","ios":"levelo://app?vid=22a05297-e340-4c8d-bcc3-8a0476149340"},"vehicle_type_id":"4","last_reported":1746137355,"current_range_meters":6800,"station_id":"ce4bhch2rcd13ifvqeug","pricing_plan_id":"cebpf4jnsgd1na2vs0mg"},{"bike_id":"f78e6e2a-8107-47fb-b969-25345ac001d6","system_id":"levelo_inurba_marseille","lat":43.30077,"lon":5.37805,"is_reserved":false,"is_disabled":false,"rental_uris":{"android":"levelo://app?vid=f78e6e2a-8107-47fb-b969-25345ac001d6","ios":"levelo://app?vid=f78e6e2a-8107-47fb-b969-25345ac001d6"},"vehicle_type_id":"4","last_reported":1746137355,"current_range_meters":6800,"station_id":"","pricing_plan_id":"cebpf4jnsgd1na2vs0mg"},{"bike_id":"473c2a05-a4f5-48f9-a574-317e7a92cdce","system_id":"levelo_inurba_marseille","lat":43.2693,"lon":5.38904,"is_reserved":false,"is_disabled":false,"rental_uris":{"android":"levelo://app?vid=473c2a05-a4f5-48f9-a574-317e7a92cdce","ios":"levelo://app?vid=473c2a05-a4f5-48f9-a574-317e7a92cdce"},"vehicle_type_id":"4","last_reported":1746137355,"current_range_meters":6800,"station_id":"ce4bhhh2rcd13ifvqfl0","pricing_plan_id":"cebpf4jnsgd1na2vs0mg"},{"bike_id":"8b8a7521-6380-408e-8650-f4890e8f6c38","system_id":"levelo_inurba_marseille","lat":43.29628,"lon":5.40607,"is_reserved":false,"is_disabled":false,"rental_uris":{"android":"levelo://app?vid=8b8a7521-6380-408e-8650-f4890e8f6c38","ios":"levelo://app?vid=8b8a7521-6380-408e-8650-f4890e8f6c38"},"vehicle_type_id":"4","last_reported":1746137355,"current_range_meters":6800,"station_id":"ce4bh0h2rcd13ifvqd60","pricing_plan_id":"cebpf4jnsgd1na2vs0mg"},{"bike_id":"2bc7685c-3ffa-492e-ac40-bca1c401b590","system_id":"levelo_inurba_marseille","lat":43.26815,"lon":5.40268,"is_reserved":false,"is_disabled":false,"rental_uris":{"android":"levelo://app?vid=2bc7685c-3ffa-492e-ac40-bca1c401b590","ios":"levelo://app?vid=2bc7685c-3ffa-492e-ac40-bca1c401b590"},"vehicle_type_id":"4","last_reported":1746137355,"current_range_meters":6800,"station_id":"ce501612rcd8frsf0b60","pricing_plan_id":"cebpf4jnsgd1na2vs0mg"},{"bike_id":"0840f843-3a67-4e05-a048-29d3d9d53dba","system_id":"levelo_inurba_marseille","lat":43.25715,"lon":5.41116,"is_reserved":false,"is_disabled":false,"rental_uris":{"android":"levelo://app?vid=0840f843-3a67-4e05-a048-29d3d9d53dba","ios":"levelo://app?vid=0840f843-3a67-4e05-a048-29d3d9d53dba"},"vehicle_type_id":"4","last_reported":1746137355,"current_range_meters":7200,"station_id":"ce4bhkp2rcd13ifvqgd0","pricing_plan_id":"cebpf4jnsgd1na2vs0mg"},{"bike_id":"215bdf6f-59e9-4581-ab6a-3306c221d929","system_id":"levelo_inurba_marseille","lat":43.24567,"lon":5.39839,"is_reserved":false,"is_disabled":false,"rental_uris":{"android":"levelo://app?vid=215bdf6f-59e9-4581-ab6a-3306c221d929","ios":"levelo://app?vid=215bdf6f-59e9-4581-ab6a-3306c221d929"},"vehicle_type_id":"4","last_reported":1746137355,"current_range_meters":7200,"station_id":"","pricing_plan_id":"cebpf4jnsgd1na2vs0mg"},{"bike_id":"a9c243d0-02f4-49a0-85d6-9e32713170f4","system_id":"levelo_inurba_marseille","lat":43.30325,"lon":5.40439,"is_reserved":false,"is_disabled":false,"rental_uris":{"android":"levelo://app?vid=a9c243d0-02f4-49a0-85d6-9e32713170f4","ios":"levelo://app?vid=a9c243d0-02f4-49a0-85d6-9e32713170f4"},"vehicle_type_id":"4","last_reported":1746137355,"current_range_meters":7200,"station_id":"ce4bh012rcd13ifvqd10","pricing_plan_id":"cebpf4jnsgd1na2vs0mg"},{"bike_id":"fee7396b-8d6a-4ad5-8af7-947693171efd","system_id":"levelo_inurba_marseille","lat":43.27076,"lon":5.42266,"is_reserved":false,"is_disabled":false,"rental_uris":{"android":"levelo://app?vid=fee7396b-8d6a-4ad5-8af7-947693171efd","ios":"levelo://app?vid=fee7396b-8d6a-4ad5-8af7-947693171efd"},"vehicle_type_id":"4","last_reported":1746137355,"current_range_meters":7200,"station_id":"ce4bhk92rcd13ifvqgb0","pricing_plan_id":"cebpf4jnsgd1na2vs0mg"},{"bike_id":"a81055f7-1eff-48ba-88d3-ed4ea2495466","system_id":"levelo_inurba_marseille","lat":43.29869,"lon":5.39733,"is_reserved":false,"is_disabled":false,"rental_uris":{"android":"levelo://app?vid=a81055f7-1eff-48ba-88d3-ed4ea2495466","ios":"levelo://app?vid=a81055f7-1eff-48ba-88d3-ed4ea2495466"},"vehicle_type_id":"4","last_reported":1746137355,"current_range_meters":7200,"station_id":"ce4bh0h2rcd13ifvqd50","pricing_plan_id":"cebpf4jnsgd1na2vs0mg"},{"bike_id":"67fd2aef-8e49-4f36-806c-5355bf2a2b9d","system_id":"levelo_inurba_marseille","lat":43.30322,"lon":5.40442,"is_reserved":false,"is_disabled":false,"rental_uris":{"android":"levelo://app?vid=67fd2aef-8e49-4f36-806c-5355bf2a2b9d","ios":"levelo://app?vid=67fd2aef-8e49-4f36-806c-5355bf2a2b9d"},"vehicle_type_id":"4","last_reported":1746137355,"current_range_meters":7200,"station_id":"ce4bh012rcd13ifvqd10","pricing_plan_id":"cebpf4jnsgd1na2vs0mg"},{"bike_id":"9f8aab7a-0eca-468e-a137-a26d60d3b420","system_id":"levelo_inurba_marseille","lat":43.33603,"lon":5.41033,"is_reserved":false,"is_disabled":false,"rental_uris":{"android":"levelo://app?vid=9f8aab7a-0eca-468e-a137-a26d60d3b420","ios":"levelo://app?vid=9f8aab7a-0eca-468e-a137-a26d60d3b420"},"vehicle_type_id":"4","last_reported":1746137355,"current_range_meters":7200,"station_id":"ce4bhqh2rcd13ifvqhmg","pricing_plan_id":"cebpf4jnsgd1na2vs0mg"},{"bike_id":"47de6562-ba72-42e5-ace3-2d5a54c7c0d3","system_id":"levelo_inurba_marseille","lat":43.27945,"lon":5.41037,"is_reserved":false,"is_disabled":true,"rental_uris":{"android":"levelo://app?vid=47de6562-ba72-42e5-ace3-2d5a54c7c0d3","ios":"levelo://app?vid=47de6562-ba72-42e5-ace3-2d5a54c7c0d3"},"vehicle_type_id":"4","last_reported":1746137355,"current_range_meters":8000,"station_id":"ce4bhnp2rcd13ifvqh0g","pricing_plan_id":"cebpf4jnsgd1na2vs0mg"},{"bike_id":"222932ed-8f88-430a-aee3-8284f10b8fa3","system_id":"levelo_inurba_marseille","lat":43.23155,"lon":5.43702,"is_reserved":false,"is_disabled":false,"rental_uris":{"android":"levelo://app?vid=222932ed-8f88-430a-aee3-8284f10b8fa3","ios":"levelo://app?vid=222932ed-8f88-430a-aee3-8284f10b8fa3"},"vehicle_type_id":"4","last_reported":1746137355,"current_range_meters":8000,"station_id":"ce4bhmp2rcd13ifvqgog","pricing_plan_id":"cebpf4jnsgd1na2vs0mg"},{"bike_id":"cacd0fa5-b257-4272-badb-f83e7da00dcc","system_id":"levelo_inurba_marseille","lat":43.27174,"lon":5.40992,"is_reserved":false,"is_disabled":false,"rental_uris":{"android":"levelo://app?vid=cacd0fa5-b257-4272-badb-f83e7da00dcc","ios":"levelo://app?vid=cacd0fa5-b257-4272-badb-f83e7da00dcc"},"vehicle_type_id":"4","last_reported":1746137355,"current_range_meters":8000,"station_id":"ce4bhl12rcd13ifvqgf0","pricing_plan_id":"cebpf4jnsgd1na2vs0mg"},{"bike_id":"00dcb552-68f9-481e-b124-c88493e6df0b","system_id":"levelo_inurba_marseille","lat":43.30544,"lon":5.38427,"is_reserved":false,"is_disabled":false,"rental_uris":{"android":"levelo://app?vid=00dcb552-68f9-481e-b124-c88493e6df0b","ios":"levelo://app?vid=00dcb552-68f9-481e-b124-c88493e6df0b"},"vehicle_type_id":"4","last_reported":1746137355,"current_range_meters":8000,"station_id":"ce4bgg92rcd13ifvqb30","pricing_plan_id":"cebpf4jnsgd1na2vs0mg"},{"bike_id":"45a897a0-8804-4925-8a62-c0e8fec569a8","system_id":"levelo_inurba_marseille","lat":43.23968,"lon":5.36622,"is_reserved":false,"is_disabled":true,"rental_uris":{"android":"levelo://app?vid=45a897a0-8804-4925-8a62-c0e8fec569a8","ios":"levelo://app?vid=45a897a0-8804-4925-8a62-c0e8fec569a8"},"vehicle_type_id":"4","last_reported":1746137355,"current_range_meters":8000,"station_id":"ce4bhi12rcd13ifvqfp0","pricing_plan_id":"cebpf4jnsgd1na2vs0mg"},{"bike_id":"52205601-555c-4739-a85c-4dfdb09c3ab3","system_id":"levelo_inurba_marseille","lat":43.31347,"lon":5.36711,"is_reserved":false,"is_disabled":false,"rental_uris":{"android":"levelo://app?vid=52205601-555c-4739-a85c-4dfdb09c3ab3","ios":"levelo://app?vid=52205601-555c-4739-a85c-4dfdb09c3ab3"},"vehicle_type_id":"4","last_reported":1746137355,"current_range_meters":8000,"station_id":"ce4bgr92rcd13ifvqc6g","pricing_plan_id":"cebpf4jnsgd1na2vs0mg"},{"bike_id":"32b1c66e-97f2-4159-bc5c-adb5dbd2bd9d","system_id":"levelo_inurba_marseille","lat":43.30311,"lon":5.36891,"is_reserved":false,"is_disabled":false,"rental_uris":{"android":"levelo://app?vid=32b1c66e-97f2-4159-bc5c-adb5dbd2bd9d","ios":"levelo://app?vid=32b1c66e-97f2-4159-bc5c-adb5dbd2bd9d"},"vehicle_type_id":"4","last_reported":1746137355,"current_range_meters":8400,"station_id":"ce4bgqh2rcd13ifvqc5g","pricing_plan_id":"cebpf4jnsgd1na2vs0mg"},{"bike_id":"74528bab-13a3-4e83-afaf-fd0bdc05f01b","system_id":"levelo_inurba_marseille","lat":43.29882,"lon":5.39736,"is_reserved":false,"is_disabled":false,"rental_uris":{"android":"levelo://app?vid=74528bab-13a3-4e83-afaf-fd0bdc05f01b","ios":"levelo://app?vid=74528bab-13a3-4e83-afaf-fd0bdc05f01b"},"vehicle_type_id":"4","last_reported":1746137355,"current_range_meters":8400,"station_id":"ce4bh0h2rcd13ifvqd50","pricing_plan_id":"cebpf4jnsgd1na2vs0mg"},{"bike_id":"1102c4c7-ce21-4dcb-870c-532f5d870782","system_id":"levelo_inurba_marseille","lat":43.33605,"lon":5.41031,"is_reserved":false,"is_disabled":false,"rental_uris":{"android":"levelo://app?vid=1102c4c7-ce21-4dcb-870c-532f5d870782","ios":"levelo://app?vid=1102c4c7-ce21-4dcb-870c-532f5d870782"},"vehicle_type_id":"4","last_reported":1746137355,"current_range_meters":8000,"station_id":"ce4bhqh2rcd13ifvqhmg","pricing_plan_id":"cebpf4jnsgd1na2vs0mg"},{"bike_id":"44137701-96fd-466c-876b-72e95bfc3ab1","system_id":"levelo_inurba_marseille","lat":43.28154,"lon":5.42638,"is_reserved":false,"is_disabled":false,"rental_uris":{"android":"levelo://app?vid=44137701-96fd-466c-876b-72e95bfc3ab1","ios":"levelo://app?vid=44137701-96fd-466c-876b-72e95bfc3ab1"},"vehicle_type_id":"4","last_reported":1746137355,"current_range_meters":8400,"station_id":"ce4bhnh2rcd13ifvqgug","pricing_plan_id":"cebpf4jnsgd1na2vs0mg"},{"bike_id":"8273f306-3c1f-4399-b7cd-5bd1010cf5af","system_id":"levelo_inurba_marseille","lat":43.29246,"lon":5.40903,"is_reserved":false,"is_disabled":false,"rental_uris":{"android":"levelo://app?vid=8273f306-3c1f-4399-b7cd-5bd1010cf5af","ios":"levelo://app?vid=8273f306-3c1f-4399-b7cd-5bd1010cf5af"},"vehicle_type_id":"4","last_reported":1746137355,"current_range_meters":8400,"station_id":"ce4bh192rcd13ifvqdc0","pricing_plan_id":"cebpf4jnsgd1na2vs0mg"},{"bike_id":"a9c86641-8cf3-44f3-9f29-864c90cd7cfd","system_id":"levelo_inurba_marseille","lat":43.27681,"lon":5.38898,"is_reserved":false,"is_disabled":false,"rental_uris":{"android":"levelo://app?vid=a9c86641-8cf3-44f3-9f29-864c90cd7cfd","ios":"levelo://app?vid=a9c86641-8cf3-44f3-9f29-864c90cd7cfd"},"vehicle_type_id":"4","last_reported":1746137355,"current_range_meters":8000,"station_id":"ce4bhi12rcd13ifvqfo0","pricing_plan_id":"cebpf4jnsgd1na2vs0mg"},{"bike_id":"499d1cdf-2c67-45d2-84d4-85f13a0e2ba8","system_id":"levelo_inurba_marseille","lat":43.31995,"lon":5.38164,"is_reserved":false,"is_disabled":false,"rental_uris":{"android":"levelo://app?vid=499d1cdf-2c67-45d2-84d4-85f13a0e2ba8","ios":"levelo://app?vid=499d1cdf-2c67-45d2-84d4-85f13a0e2ba8"},"vehicle_type_id":"4","last_reported":1746137355,"current_range_meters":8400,"station_id":"ce4bhr12rcd13ifvqhpg","pricing_plan_id":"cebpf4jnsgd1na2vs0mg"},{"bike_id":"a34bf19e-c7f6-4370-8afa-d15d095d482c","system_id":"levelo_inurba_marseille","lat":43.279565,"lon":5.41029,"is_reserved":false,"is_disabled":false,"rental_uris":{"android":"levelo://app?vid=a34bf19e-c7f6-4370-8afa-d15d095d482c","ios":"levelo://app?vid=a34bf19e-c7f6-4370-8afa-d15d095d482c"},"vehicle_type_id":"4","last_reported":1746137355,"current_range_meters":8400,"station_id":"ce4bhnp2rcd13ifvqh0g","pricing_plan_id":"cebpf4jnsgd1na2vs0mg"},{"bike_id":"92c9c34a-2661-40c7-b42b-42a1687057dd","system_id":"levelo_inurba_marseille","lat":43.211972,"lon":5.350731,"is_reserved":false,"is_disabled":true,"rental_uris":{"android":"levelo://app?vid=92c9c34a-2661-40c7-b42b-42a1687057dd","ios":"levelo://app?vid=92c9c34a-2661-40c7-b42b-42a1687057dd"},"vehicle_type_id":"4","last_reported":1746137355,"current_range_meters":8800,"station_id":"st_cvj6sg6p6f1abm77japg","pricing_plan_id":"cebpf4jnsgd1na2vs0mg"},{"bike_id":"65a92264-a32d-4911-ad5e-307139719f38","system_id":"levelo_inurba_marseille","lat":43.30929,"lon":5.40158,"is_reserved":false,"is_disabled":false,"rental_uris":{"android":"levelo://app?vid=65a92264-a32d-4911-ad5e-307139719f38","ios":"levelo://app?vid=65a92264-a32d-4911-ad5e-307139719f38"},"vehicle_type_id":"4","last_reported":1746137355,"current_range_meters":8800,"station_id":"ce4bgvp2rcd13ifvqct0","pricing_plan_id":"cebpf4jnsgd1na2vs0mg"},{"bike_id":"51ef9827-05d4-4f72-abc3-c6fec8c5a095","system_id":"levelo_inurba_marseille","lat":43.23162,"lon":5.43668,"is_reserved":false,"is_disabled":false,"rental_uris":{"android":"levelo://app?vid=51ef9827-05d4-4f72-abc3-c6fec8c5a095","ios":"levelo://app?vid=51ef9827-05d4-4f72-abc3-c6fec8c5a095"},"vehicle_type_id":"4","last_reported":1746137355,"current_range_meters":8800,"station_id":"ce4bhmp2rcd13ifvqgog","pricing_plan_id":"cebpf4jnsgd1na2vs0mg"},{"bike_id":"1ea83f91-cead-42af-afdd-8d2cab331ff6","system_id":"levelo_inurba_marseille","lat":43.27961,"lon":5.40055,"is_reserved":false,"is_disabled":false,"rental_uris":{"android":"levelo://app?vid=1ea83f91-cead-42af-afdd-8d2cab331ff6","ios":"levelo://app?vid=1ea83f91-cead-42af-afdd-8d2cab331ff6"},"vehicle_type_id":"4","last_reported":1746137355,"current_range_meters":8800,"station_id":"","pricing_plan_id":"cebpf4jnsgd1na2vs0mg"},{"bike_id":"3feaa426-1b63-49b9-8277-2dd1cca318cf","system_id":"levelo_inurba_marseille","lat":43.30042,"lon":5.40071,"is_reserved":false,"is_disabled":false,"rental_uris":{"android":"levelo://app?vid=3feaa426-1b63-49b9-8277-2dd1cca318cf","ios":"levelo://app?vid=3feaa426-1b63-49b9-8277-2dd1cca318cf"},"vehicle_type_id":"4","last_reported":1746137355,"current_range_meters":8800,"station_id":"","pricing_plan_id":"cebpf4jnsgd1na2vs0mg"},{"bike_id":"8bfe638b-bd03-4393-8865-f467d86b9180","system_id":"levelo_inurba_marseille","lat":43.2996,"lon":5.41315,"is_reserved":false,"is_disabled":false,"rental_uris":{"android":"levelo://app?vid=8bfe638b-bd03-4393-8865-f467d86b9180","ios":"levelo://app?vid=8bfe638b-bd03-4393-8865-f467d86b9180"},"vehicle_type_id":"4","last_reported":1746137355,"current_range_meters":8800,"station_id":"ce4bhp12rcd13ifvqh9g","pricing_plan_id":"cebpf4jnsgd1na2vs0mg"},{"bike_id":"2e5e7fab-f1e0-4b30-bf97-3890895a344d","system_id":"levelo_inurba_marseille","lat":43.29872,"lon":5.39726,"is_reserved":false,"is_disabled":false,"rental_uris":{"android":"levelo://app?vid=2e5e7fab-f1e0-4b30-bf97-3890895a344d","ios":"levelo://app?vid=2e5e7fab-f1e0-4b30-bf97-3890895a344d"},"vehicle_type_id":"4","last_reported":1746137355,"current_range_meters":8800,"station_id":"ce4bh0h2rcd13ifvqd50","pricing_plan_id":"cebpf4jnsgd1na2vs0mg"},{"bike_id":"08ae6229-5a47-4c4c-99ac-4ba6243e9cfe","system_id":"levelo_inurba_marseille","lat":43.23051,"lon":5.35477,"is_reserved":false,"is_disabled":true,"rental_uris":{"android":"levelo://app?vid=08ae6229-5a47-4c4c-99ac-4ba6243e9cfe","ios":"levelo://app?vid=08ae6229-5a47-4c4c-99ac-4ba6243e9cfe"},"vehicle_type_id":"4","last_reported":1746137355,"current_range_meters":8800,"station_id":"cpo3342slgdg3j2ifvpg","pricing_plan_id":"cebpf4jnsgd1na2vs0mg"},{"bike_id":"93dad334-9f21-4a50-99cb-c86648baef08","system_id":"levelo_inurba_marseille","lat":43.31325,"lon":5.39683,"is_reserved":false,"is_disabled":false,"rental_uris":{"android":"levelo://app?vid=93dad334-9f21-4a50-99cb-c86648baef08","ios":"levelo://app?vid=93dad334-9f21-4a50-99cb-c86648baef08"},"vehicle_type_id":"4","last_reported":1746137355,"current_range_meters":9200,"station_id":"ce4bgvp2rcd13ifvqcu0","pricing_plan_id":"cebpf4jnsgd1na2vs0mg"},{"bike_id":"2fa76595-008d-4c0f-83c4-7d3eccff5cfc","system_id":"levelo_inurba_marseille","lat":43.28111,"lon":5.37846,"is_reserved":false,"is_disabled":false,"rental_uris":{"android":"levelo://app?vid=2fa76595-008d-4c0f-83c4-7d3eccff5cfc","ios":"levelo://app?vid=2fa76595-008d-4c0f-83c4-7d3eccff5cfc"},"vehicle_type_id":"4","last_reported":1746137355,"current_range_meters":9200,"station_id":"ce4bha12rcd13ifvqee0","pricing_plan_id":"cebpf4jnsgd1na2vs0mg"},{"bike_id":"7e132c50-74c0-4acb-8c19-27749c53321e","system_id":"levelo_inurba_marseille","lat":43.29867,"lon":5.39744,"is_reserved":false,"is_disabled":false,"rental_uris":{"android":"levelo://app?vid=7e132c50-74c0-4acb-8c19-27749c53321e","ios":"levelo://app?vid=7e132c50-74c0-4acb-8c19-27749c53321e"},"vehicle_type_id":"4","last_reported":1746137355,"current_range_meters":9200,"station_id":"ce4bh0h2rcd13ifvqd50","pricing_plan_id":"cebpf4jnsgd1na2vs0mg"},{"bike_id":"0585aee3-4fd2-4100-ace9-3ab20275013d","system_id":"levelo_inurba_marseille","lat":43.28698,"lon":5.39993,"is_reserved":false,"is_disabled":false,"rental_uris":{"android":"levelo://app?vid=0585aee3-4fd2-4100-ace9-3ab20275013d","ios":"levelo://app?vid=0585aee3-4fd2-4100-ace9-3ab20275013d"},"vehicle_type_id":"4","last_reported":1746137355,"current_range_meters":9200,"station_id":"ce4bho92rcd13ifvqh3g","pricing_plan_id":"cebpf4jnsgd1na2vs0mg"},{"bike_id":"d6a44c8a-00f2-43bd-8ad6-45ab7f30af70","system_id":"levelo_inurba_marseille","lat":43.2871,"lon":5.39999,"is_reserved":false,"is_disabled":false,"rental_uris":{"android":"levelo://app?vid=d6a44c8a-00f2-43bd-8ad6-45ab7f30af70","ios":"levelo://app?vid=d6a44c8a-00f2-43bd-8ad6-45ab7f30af70"},"vehicle_type_id":"4","last_reported":1746137355,"current_range_meters":9200,"station_id":"ce4bho92rcd13ifvqh3g","pricing_plan_id":"cebpf4jnsgd1na2vs0mg"},{"bike_id":"d90a9f6a-dcc7-4188-90fd-9982aa485cbb","system_id":"levelo_inurba_marseille","lat":43.24359,"lon":5.371,"is_reserved":false,"is_disabled":true,"rental_uris":{"android":"levelo://app?vid=d90a9f6a-dcc7-4188-90fd-9982aa485cbb","ios":"levelo://app?vid=d90a9f6a-dcc7-4188-90fd-9982aa485cbb"},"vehicle_type_id":"4","last_reported":1746137355,"current_range_meters":9200,"station_id":"ce4bhhh2rcd13ifvqfk0","pricing_plan_id":"cebpf4jnsgd1na2vs0mg"},{"bike_id":"8c14a9dd-9596-4c54-9b10-cae5d57b4d1b","system_id":"levelo_inurba_marseille","lat":43.32406,"lon":5.39036,"is_reserved":false,"is_disabled":true,"rental_uris":{"android":"levelo://app?vid=8c14a9dd-9596-4c54-9b10-cae5d57b4d1b","ios":"levelo://app?vid=8c14a9dd-9596-4c54-9b10-cae5d57b4d1b"},"vehicle_type_id":"4","last_reported":1746137355,"current_range_meters":9200,"station_id":"","pricing_plan_id":"cebpf4jnsgd1na2vs0mg"},{"bike_id":"93d289ea-53ab-4021-98bf-9e6ca2063079","system_id":"levelo_inurba_marseille","lat":43.30424,"lon":5.397492,"is_reserved":false,"is_disabled":false,"rental_uris":{"android":"levelo://app?vid=93d289ea-53ab-4021-98bf-9e6ca2063079","ios":"levelo://app?vid=93d289ea-53ab-4021-98bf-9e6ca2063079"},"vehicle_type_id":"4","last_reported":1746137355,"current_range_meters":9200,"station_id":"ce4bh092rcd13ifvqd20","pricing_plan_id":"cebpf4jnsgd1na2vs0mg"},{"bike_id":"68d44f0d-e8f4-4c59-9647-f88c98316d16","system_id":"levelo_inurba_marseille","lat":43.30638,"lon":5.40052,"is_reserved":false,"is_disabled":false,"rental_uris":{"android":"levelo://app?vid=68d44f0d-e8f4-4c59-9647-f88c98316d16","ios":"levelo://app?vid=68d44f0d-e8f4-4c59-9647-f88c98316d16"},"vehicle_type_id":"4","last_reported":1746137355,"current_range_meters":9200,"station_id":"ce4bh112rcd13ifvqda0","pricing_plan_id":"cebpf4jnsgd1na2vs0mg"},{"bike_id":"6ec79724-695f-4466-b4f4-7a3dea399050","system_id":"levelo_inurba_marseille","lat":43.270681,"lon":5.422774,"is_reserved":false,"is_disabled":false,"rental_uris":{"android":"levelo://app?vid=6ec79724-695f-4466-b4f4-7a3dea399050","ios":"levelo://app?vid=6ec79724-695f-4466-b4f4-7a3dea399050"},"vehicle_type_id":"4","last_reported":1746137355,"current_range_meters":9200,"station_id":"ce4bhk92rcd13ifvqgb0","pricing_plan_id":"cebpf4jnsgd1na2vs0mg"},{"bike_id":"f2476cf5-18ae-43ae-8380-39d39ed5971f","system_id":"levelo_inurba_marseille","lat":43.31135,"lon":5.37769,"is_reserved":false,"is_disabled":false,"rental_uris":{"android":"levelo://app?vid=f2476cf5-18ae-43ae-8380-39d39ed5971f","ios":"levelo://app?vid=f2476cf5-18ae-43ae-8380-39d39ed5971f"},"vehicle_type_id":"4","last_reported":1746137355,"current_range_meters":9200,"station_id":"ce4bgt92rcd13ifvqcg0","pricing_plan_id":"cebpf4jnsgd1na2vs0mg"},{"bike_id":"1a0e9be5-bd4f-4026-be47-4bf333aa540c","system_id":"levelo_inurba_marseille","lat":43.28468,"lon":5.39181,"is_reserved":false,"is_disabled":true,"rental_uris":{"android":"levelo://app?vid=1a0e9be5-bd4f-4026-be47-4bf333aa540c","ios":"levelo://app?vid=1a0e9be5-bd4f-4026-be47-4bf333aa540c"},"vehicle_type_id":"4","last_reported":1746137355,"current_range_meters":9200,"station_id":"ce4bhoh2rcd13ifvqh5g","pricing_plan_id":"cebpf4jnsgd1na2vs0mg"},{"bike_id":"3c92b329-9752-444f-a0f7-ffacbc896c0e","system_id":"levelo_inurba_marseille","lat":43.28699,"lon":5.39982,"is_reserved":false,"is_disabled":false,"rental_uris":{"android":"levelo://app?vid=3c92b329-9752-444f-a0f7-ffacbc896c0e","ios":"levelo://app?vid=3c92b329-9752-444f-a0f7-ffacbc896c0e"},"vehicle_type_id":"4","last_reported":1746137355,"current_range_meters":9600,"station_id":"ce4bho92rcd13ifvqh3g","pricing_plan_id":"cebpf4jnsgd1na2vs0mg"},{"bike_id":"ec15cf0c-8146-4bc1-844a-6eb9757e3d6b","system_id":"levelo_inurba_marseille","lat":43.29279,"lon":5.40133,"is_reserved":false,"is_disabled":false,"rental_uris":{"android":"levelo://app?vid=ec15cf0c-8146-4bc1-844a-6eb9757e3d6b","ios":"levelo://app?vid=ec15cf0c-8146-4bc1-844a-6eb9757e3d6b"},"vehicle_type_id":"4","last_reported":1746137355,"current_range_meters":9600,"station_id":"ce4bh312rcd13ifvqdk0","pricing_plan_id":"cebpf4jnsgd1na2vs0mg"},{"bike_id":"be456527-6b15-4d45-9584-9f70290eb771","system_id":"levelo_inurba_marseille","lat":43.30935,"lon":5.40154,"is_reserved":false,"is_disabled":false,"rental_uris":{"android":"levelo://app?vid=be456527-6b15-4d45-9584-9f70290eb771","ios":"levelo://app?vid=be456527-6b15-4d45-9584-9f70290eb771"},"vehicle_type_id":"4","last_reported":1746137355,"current_range_meters":9600,"station_id":"ce4bgvp2rcd13ifvqct0","pricing_plan_id":"cebpf4jnsgd1na2vs0mg"},{"bike_id":"9ec970ff-6af0-4292-9f82-92592b9e4471","system_id":"levelo_inurba_marseille","lat":43.28421,"lon":5.37509,"is_reserved":false,"is_disabled":false,"rental_uris":{"android":"levelo://app?vid=9ec970ff-6af0-4292-9f82-92592b9e4471","ios":"levelo://app?vid=9ec970ff-6af0-4292-9f82-92592b9e4471"},"vehicle_type_id":"4","last_reported":1746137355,"current_range_meters":9600,"station_id":"ce4bh412rcd13ifvqds0","pricing_plan_id":"cebpf4jnsgd1na2vs0mg"},{"bike_id":"e0c69642-153a-4cdf-94dd-e50d7657b75d","system_id":"levelo_inurba_marseille","lat":43.31671,"lon":5.40471,"is_reserved":false,"is_disabled":false,"rental_uris":{"android":"levelo://app?vid=e0c69642-153a-4cdf-94dd-e50d7657b75d","ios":"levelo://app?vid=e0c69642-153a-4cdf-94dd-e50d7657b75d"},"vehicle_type_id":"4","last_reported":1746137355,"current_range_meters":9600,"station_id":"ce4bh012rcd13ifvqd00","pricing_plan_id":"cebpf4jnsgd1na2vs0mg"},{"bike_id":"eee52347-d889-4f66-a2a0-e8ba23120ae4","system_id":"levelo_inurba_marseille","lat":43.24182,"lon":5.39725,"is_reserved":false,"is_disabled":false,"rental_uris":{"android":"levelo://app?vid=eee52347-d889-4f66-a2a0-e8ba23120ae4","ios":"levelo://app?vid=eee52347-d889-4f66-a2a0-e8ba23120ae4"},"vehicle_type_id":"4","last_reported":1746137355,"current_range_meters":9600,"station_id":"ce4bhn12rcd13ifvqgpg","pricing_plan_id":"cebpf4jnsgd1na2vs0mg"},{"bike_id":"336c64ae-b42e-48e2-bb76-fcdb101c49df","system_id":"levelo_inurba_marseille","lat":43.26677,"lon":5.38263,"is_reserved":false,"is_disabled":false,"rental_uris":{"android":"levelo://app?vid=336c64ae-b42e-48e2-bb76-fcdb101c49df","ios":"levelo://app?vid=336c64ae-b42e-48e2-bb76-fcdb101c49df"},"vehicle_type_id":"4","last_reported":1746137355,"current_range_meters":9200,"station_id":"ce4bhg92rcd13ifvqf90","pricing_plan_id":"cebpf4jnsgd1na2vs0mg"},{"bike_id":"2df3c7e7-6f24-4b35-8876-4ea421331109","system_id":"levelo_inurba_marseille","lat":43.25075,"lon":5.40377,"is_reserved":false,"is_disabled":true,"rental_uris":{"android":"levelo://app?vid=2df3c7e7-6f24-4b35-8876-4ea421331109","ios":"levelo://app?vid=2df3c7e7-6f24-4b35-8876-4ea421331109"},"vehicle_type_id":"4","last_reported":1746137355,"current_range_meters":9600,"station_id":"","pricing_plan_id":"cebpf4jnsgd1na2vs0mg"},{"bike_id":"20677bec-f723-4a98-9582-28d71c43bf6e","system_id":"levelo_inurba_marseille","lat":43.23155,"lon":5.4371,"is_reserved":false,"is_disabled":false,"rental_uris":{"android":"levelo://app?vid=20677bec-f723-4a98-9582-28d71c43bf6e","ios":"levelo://app?vid=20677bec-f723-4a98-9582-28d71c43bf6e"},"vehicle_type_id":"4","last_reported":1746137355,"current_range_meters":9600,"station_id":"ce4bhmp2rcd13ifvqgog","pricing_plan_id":"cebpf4jnsgd1na2vs0mg"},{"bike_id":"e96c6114-6a4b-4332-a152-934cf511941a","system_id":"levelo_inurba_marseille","lat":43.2792,"lon":5.39576,"is_reserved":false,"is_disabled":false,"rental_uris":{"android":"levelo://app?vid=e96c6114-6a4b-4332-a152-934cf511941a","ios":"levelo://app?vid=e96c6114-6a4b-4332-a152-934cf511941a"},"vehicle_type_id":"4","last_reported":1746137355,"current_range_meters":9600,"station_id":"ce4bhf92rcd13ifvqf40","pricing_plan_id":"cebpf4jnsgd1na2vs0mg"},{"bike_id":"f7649288-9ca5-4ea3-8721-55824ad710ad","system_id":"levelo_inurba_marseille","lat":43.30548,"lon":5.38427,"is_reserved":false,"is_disabled":false,"rental_uris":{"android":"levelo://app?vid=f7649288-9ca5-4ea3-8721-55824ad710ad","ios":"levelo://app?vid=f7649288-9ca5-4ea3-8721-55824ad710ad"},"vehicle_type_id":"4","last_reported":1746137355,"current_range_meters":9600,"station_id":"ce4bgg92rcd13ifvqb30","pricing_plan_id":"cebpf4jnsgd1na2vs0mg"},{"bike_id":"1e63c5de-3c5a-4333-8936-ffe7ed3b92b1","system_id":"levelo_inurba_marseille","lat":43.30262,"lon":5.40077,"is_reserved":false,"is_disabled":false,"rental_uris":{"android":"levelo://app?vid=1e63c5de-3c5a-4333-8936-ffe7ed3b92b1","ios":"levelo://app?vid=1e63c5de-3c5a-4333-8936-ffe7ed3b92b1"},"vehicle_type_id":"4","last_reported":1746137355,"current_range_meters":9600,"station_id":"ce4bgvh2rcd13ifvqcs0","pricing_plan_id":"cebpf4jnsgd1na2vs0mg"},{"bike_id":"7971fe93-5f1d-4a59-8508-b415e64fcb18","system_id":"levelo_inurba_marseille","lat":43.30927,"lon":5.37394,"is_reserved":false,"is_disabled":false,"rental_uris":{"android":"levelo://app?vid=7971fe93-5f1d-4a59-8508-b415e64fcb18","ios":"levelo://app?vid=7971fe93-5f1d-4a59-8508-b415e64fcb18"},"vehicle_type_id":"4","last_reported":1746137355,"current_range_meters":9600,"station_id":"","pricing_plan_id":"cebpf4jnsgd1na2vs0mg"},{"bike_id":"a35c3ffc-4e10-4f38-94fb-c7be8d2fb030","system_id":"levelo_inurba_marseille","lat":43.316654,"lon":5.395672,"is_reserved":false,"is_disabled":false,"rental_uris":{"android":"levelo://app?vid=a35c3ffc-4e10-4f38-94fb-c7be8d2fb030","ios":"levelo://app?vid=a35c3ffc-4e10-4f38-94fb-c7be8d2fb030"},"vehicle_type_id":"4","last_reported":1746137355,"current_range_meters":10000,"station_id":"","pricing_plan_id":"cebpf4jnsgd1na2vs0mg"},{"bike_id":"0275921f-ce6e-42c6-b9cc-724455ffabca","system_id":"levelo_inurba_marseille","lat":43.25713,"lon":5.41093,"is_reserved":false,"is_disabled":false,"rental_uris":{"android":"levelo://app?vid=0275921f-ce6e-42c6-b9cc-724455ffabca","ios":"levelo://app?vid=0275921f-ce6e-42c6-b9cc-724455ffabca"},"vehicle_type_id":"4","last_reported":1746137355,"current_range_meters":10000,"station_id":"ce4bhkp2rcd13ifvqgd0","pricing_plan_id":"cebpf4jnsgd1na2vs0mg"},{"bike_id":"31c74a1c-33bb-491a-8ee1-a777fe94090b","system_id":"levelo_inurba_marseille","lat":43.28077,"lon":5.39655,"is_reserved":false,"is_disabled":false,"rental_uris":{"android":"levelo://app?vid=31c74a1c-33bb-491a-8ee1-a777fe94090b","ios":"levelo://app?vid=31c74a1c-33bb-491a-8ee1-a777fe94090b"},"vehicle_type_id":"4","last_reported":1746137355,"current_range_meters":10800,"station_id":"ce4bho12rcd13ifvqh2g","pricing_plan_id":"cebpf4jnsgd1na2vs0mg"},{"bike_id":"c440f09b-0fd2-4ddf-94bc-65676d4467f1","system_id":"levelo_inurba_marseille","lat":43.23143,"lon":5.43714,"is_reserved":false,"is_disabled":false,"rental_uris":{"android":"levelo://app?vid=c440f09b-0fd2-4ddf-94bc-65676d4467f1","ios":"levelo://app?vid=c440f09b-0fd2-4ddf-94bc-65676d4467f1"},"vehicle_type_id":"4","last_reported":1746137355,"current_range_meters":11200,"station_id":"ce4bhmp2rcd13ifvqgog","pricing_plan_id":"cebpf4jnsgd1na2vs0mg"},{"bike_id":"6408a017-cb1d-4e23-9508-f49121914cfc","system_id":"levelo_inurba_marseille","lat":43.28703,"lon":5.39976,"is_reserved":false,"is_disabled":false,"rental_uris":{"android":"levelo://app?vid=6408a017-cb1d-4e23-9508-f49121914cfc","ios":"levelo://app?vid=6408a017-cb1d-4e23-9508-f49121914cfc"},"vehicle_type_id":"4","last_reported":1746137355,"current_range_meters":10800,"station_id":"ce4bho92rcd13ifvqh3g","pricing_plan_id":"cebpf4jnsgd1na2vs0mg"},{"bike_id":"4e06d3e6-2b20-4e7b-aea6-0ad1ac5e1edf","system_id":"levelo_inurba_marseille","lat":43.32556,"lon":5.41449,"is_reserved":false,"is_disabled":false,"rental_uris":{"android":"levelo://app?vid=4e06d3e6-2b20-4e7b-aea6-0ad1ac5e1edf","ios":"levelo://app?vid=4e06d3e6-2b20-4e7b-aea6-0ad1ac5e1edf"},"vehicle_type_id":"4","last_reported":1746137355,"current_range_meters":10800,"station_id":"ce4bhq12rcd13ifvqhhg","pricing_plan_id":"cebpf4jnsgd1na2vs0mg"},{"bike_id":"f3d36354-fb65-4d90-83eb-303e5363ade6","system_id":"levelo_inurba_marseille","lat":43.31271,"lon":5.40168,"is_reserved":false,"is_disabled":false,"rental_uris":{"android":"levelo://app?vid=f3d36354-fb65-4d90-83eb-303e5363ade6","ios":"levelo://app?vid=f3d36354-fb65-4d90-83eb-303e5363ade6"},"vehicle_type_id":"4","last_reported":1746137355,"current_range_meters":10800,"station_id":"ce4bh092rcd13ifvqd30","pricing_plan_id":"cebpf4jnsgd1na2vs0mg"},{"bike_id":"41b15ddf-1454-4d83-8188-53d37f91586a","system_id":"levelo_inurba_marseille","lat":43.30325,"lon":5.4044,"is_reserved":false,"is_disabled":false,"rental_uris":{"android":"levelo://app?vid=41b15ddf-1454-4d83-8188-53d37f91586a","ios":"levelo://app?vid=41b15ddf-1454-4d83-8188-53d37f91586a"},"vehicle_type_id":"4","last_reported":1746137355,"current_range_meters":10800,"station_id":"ce4bh012rcd13ifvqd10","pricing_plan_id":"cebpf4jnsgd1na2vs0mg"},{"bike_id":"d2fd2180-e73e-4220-869a-026232ab3e8c","system_id":"levelo_inurba_marseille","lat":43.29292,"lon":5.40139,"is_reserved":false,"is_disabled":false,"rental_uris":{"android":"levelo://app?vid=d2fd2180-e73e-4220-869a-026232ab3e8c","ios":"levelo://app?vid=d2fd2180-e73e-4220-869a-026232ab3e8c"},"vehicle_type_id":"4","last_reported":1746137355,"current_range_meters":10800,"station_id":"ce4bh312rcd13ifvqdk0","pricing_plan_id":"cebpf4jnsgd1na2vs0mg"},{"bike_id":"6c5a82b1-d8fb-4884-908f-31a2369ec978","system_id":"levelo_inurba_marseille","lat":43.28421,"lon":5.37514,"is_reserved":false,"is_disabled":false,"rental_uris":{"android":"levelo://app?vid=6c5a82b1-d8fb-4884-908f-31a2369ec978","ios":"levelo://app?vid=6c5a82b1-d8fb-4884-908f-31a2369ec978"},"vehicle_type_id":"4","last_reported":1746137355,"current_range_meters":10800,"station_id":"ce4bh412rcd13ifvqds0","pricing_plan_id":"cebpf4jnsgd1na2vs0mg"},{"bike_id":"c0a5ee56-6f43-441c-97c4-100fe7548229","system_id":"levelo_inurba_marseille","lat":43.31378,"lon":5.38508,"is_reserved":false,"is_disabled":true,"rental_uris":{"android":"levelo://app?vid=c0a5ee56-6f43-441c-97c4-100fe7548229","ios":"levelo://app?vid=c0a5ee56-6f43-441c-97c4-100fe7548229"},"vehicle_type_id":"4","last_reported":1746137355,"current_range_meters":10800,"station_id":"ce4bgt92rcd13ifvqcf0","pricing_plan_id":"cebpf4jnsgd1na2vs0mg"},{"bike_id":"bbf9e4cc-b882-48f9-860d-7aefa48464b2","system_id":"levelo_inurba_marseille","lat":43.27899,"lon":5.37995,"is_reserved":false,"is_disabled":false,"rental_uris":{"android":"levelo://app?vid=bbf9e4cc-b882-48f9-860d-7aefa48464b2","ios":"levelo://app?vid=bbf9e4cc-b882-48f9-860d-7aefa48464b2"},"vehicle_type_id":"4","last_reported":1746137355,"current_range_meters":10800,"station_id":"ce4bhf92rcd13ifvqf50","pricing_plan_id":"cebpf4jnsgd1na2vs0mg"},{"bike_id":"1b61f6b8-8932-4ec4-a8b8-400684432f3c","system_id":"levelo_inurba_marseille","lat":43.26681,"lon":5.38269,"is_reserved":false,"is_disabled":false,"rental_uris":{"android":"levelo://app?vid=1b61f6b8-8932-4ec4-a8b8-400684432f3c","ios":"levelo://app?vid=1b61f6b8-8932-4ec4-a8b8-400684432f3c"},"vehicle_type_id":"4","last_reported":1746137355,"current_range_meters":10800,"station_id":"ce4bhg92rcd13ifvqf90","pricing_plan_id":"cebpf4jnsgd1na2vs0mg"},{"bike_id":"be70671b-b483-40ea-9c5d-a8672556d811","system_id":"levelo_inurba_marseille","lat":43.27062,"lon":5.40259,"is_reserved":false,"is_disabled":false,"rental_uris":{"android":"levelo://app?vid=be70671b-b483-40ea-9c5d-a8672556d811","ios":"levelo://app?vid=be70671b-b483-40ea-9c5d-a8672556d811"},"vehicle_type_id":"4","last_reported":1746137355,"current_range_meters":10800,"station_id":"ce4bhk92rcd13ifvqgc0","pricing_plan_id":"cebpf4jnsgd1na2vs0mg"},{"bike_id":"d6abeb16-84a9-40bb-b744-79a9bc147836","system_id":"levelo_inurba_marseille","lat":43.30328,"lon":5.40435,"is_reserved":false,"is_disabled":false,"rental_uris":{"android":"levelo://app?vid=d6abeb16-84a9-40bb-b744-79a9bc147836","ios":"levelo://app?vid=d6abeb16-84a9-40bb-b744-79a9bc147836"},"vehicle_type_id":"4","last_reported":1746137355,"current_range_meters":10800,"station_id":"ce4bh012rcd13ifvqd10","pricing_plan_id":"cebpf4jnsgd1na2vs0mg"},{"bike_id":"a92f8123-132d-4ae3-a470-30b14cc8adc7","system_id":"levelo_inurba_marseille","lat":43.2926,"lon":5.40158,"is_reserved":false,"is_disabled":false,"rental_uris":{"android":"levelo://app?vid=a92f8123-132d-4ae3-a470-30b14cc8adc7","ios":"levelo://app?vid=a92f8123-132d-4ae3-a470-30b14cc8adc7"},"vehicle_type_id":"4","last_reported":1746137355,"current_range_meters":10800,"station_id":"ce4bh312rcd13ifvqdk0","pricing_plan_id":"cebpf4jnsgd1na2vs0mg"},{"bike_id":"7b6befc3-4833-44db-a59f-fce35f535509","system_id":"levelo_inurba_marseille","lat":43.308027,"lon":5.381573,"is_reserved":false,"is_disabled":false,"rental_uris":{"android":"levelo://app?vid=7b6befc3-4833-44db-a59f-fce35f535509","ios":"levelo://app?vid=7b6befc3-4833-44db-a59f-fce35f535509"},"vehicle_type_id":"4","last_reported":1746137355,"current_range_meters":10800,"station_id":"ce4bgt12rcd13ifvqce0","pricing_plan_id":"cebpf4jnsgd1na2vs0mg"},{"bike_id":"7f3e5a55-eb17-449b-9a20-cc477d2084eb","system_id":"levelo_inurba_marseille","lat":43.30602,"lon":5.37236,"is_reserved":false,"is_disabled":false,"rental_uris":{"android":"levelo://app?vid=7f3e5a55-eb17-449b-9a20-cc477d2084eb","ios":"levelo://app?vid=7f3e5a55-eb17-449b-9a20-cc477d2084eb"},"vehicle_type_id":"4","last_reported":1746137355,"current_range_meters":10800,"station_id":"ce4bgqh2rcd13ifvqc4g","pricing_plan_id":"cebpf4jnsgd1na2vs0mg"},{"bike_id":"4a6851f9-34fb-48f6-8387-4b9c13325bed","system_id":"levelo_inurba_marseille","lat":43.3149,"lon":5.37309,"is_reserved":false,"is_disabled":false,"rental_uris":{"android":"levelo://app?vid=4a6851f9-34fb-48f6-8387-4b9c13325bed","ios":"levelo://app?vid=4a6851f9-34fb-48f6-8387-4b9c13325bed"},"vehicle_type_id":"4","last_reported":1746137355,"current_range_meters":10800,"station_id":"ce4bgt12rcd13ifvqcd0","pricing_plan_id":"cebpf4jnsgd1na2vs0mg"},{"bike_id":"579f3ff0-5a5b-45cb-baa0-e568c1cd8ec3","system_id":"levelo_inurba_marseille","lat":43.29258,"lon":5.40916,"is_reserved":false,"is_disabled":false,"rental_uris":{"android":"levelo://app?vid=579f3ff0-5a5b-45cb-baa0-e568c1cd8ec3","ios":"levelo://app?vid=579f3ff0-5a5b-45cb-baa0-e568c1cd8ec3"},"vehicle_type_id":"4","last_reported":1746137355,"current_range_meters":11200,"station_id":"ce4bh192rcd13ifvqdc0","pricing_plan_id":"cebpf4jnsgd1na2vs0mg"},{"bike_id":"b4c6dcac-f892-4aa8-b0ef-5da31e4ea582","system_id":"levelo_inurba_marseille","lat":43.30643,"lon":5.40066,"is_reserved":false,"is_disabled":false,"rental_uris":{"android":"levelo://app?vid=b4c6dcac-f892-4aa8-b0ef-5da31e4ea582","ios":"levelo://app?vid=b4c6dcac-f892-4aa8-b0ef-5da31e4ea582"},"vehicle_type_id":"4","last_reported":1746137355,"current_range_meters":11200,"station_id":"ce4bh112rcd13ifvqda0","pricing_plan_id":"cebpf4jnsgd1na2vs0mg"},{"bike_id":"34191fd7-5919-4eef-abef-2b39f3ae32a4","system_id":"levelo_inurba_marseille","lat":43.29333,"lon":5.386811,"is_reserved":false,"is_disabled":false,"rental_uris":{"android":"levelo://app?vid=34191fd7-5919-4eef-abef-2b39f3ae32a4","ios":"levelo://app?vid=34191fd7-5919-4eef-abef-2b39f3ae32a4"},"vehicle_type_id":"4","last_reported":1746137355,"current_range_meters":11200,"station_id":"","pricing_plan_id":"cebpf4jnsgd1na2vs0mg"},{"bike_id":"73de5af1-bf79-433a-a20c-6899488a09e7","system_id":"levelo_inurba_marseille","lat":43.29337,"lon":5.372,"is_reserved":false,"is_disabled":true,"rental_uris":{"android":"levelo://app?vid=73de5af1-bf79-433a-a20c-6899488a09e7","ios":"levelo://app?vid=73de5af1-bf79-433a-a20c-6899488a09e7"},"vehicle_type_id":"4","last_reported":1746137355,"current_range_meters":11200,"station_id":"ce4bgh92rcd13ifvqb40","pricing_plan_id":"cebpf4jnsgd1na2vs0mg"},{"bike_id":"bf0ded13-567f-4376-9241-fab3660dc401","system_id":"levelo_inurba_marseille","lat":43.23157,"lon":5.43701,"is_reserved":false,"is_disabled":false,"rental_uris":{"android":"levelo://app?vid=bf0ded13-567f-4376-9241-fab3660dc401","ios":"levelo://app?vid=bf0ded13-567f-4376-9241-fab3660dc401"},"vehicle_type_id":"4","last_reported":1746137355,"current_range_meters":11200,"station_id":"ce4bhmp2rcd13ifvqgog","pricing_plan_id":"cebpf4jnsgd1na2vs0mg"},{"bike_id":"b62d203c-de64-4ac0-9f74-148e08ef4fd9","system_id":"levelo_inurba_marseille","lat":43.28854,"lon":5.35839,"is_reserved":false,"is_disabled":false,"rental_uris":{"android":"levelo://app?vid=b62d203c-de64-4ac0-9f74-148e08ef4fd9","ios":"levelo://app?vid=b62d203c-de64-4ac0-9f74-148e08ef4fd9"},"vehicle_type_id":"4","last_reported":1746137355,"current_range_meters":11200,"station_id":"ce4bhb12rcd13ifvqem0","pricing_plan_id":"cebpf4jnsgd1na2vs0mg"},{"bike_id":"7b881d79-9218-41c5-8665-9975f167b1f2","system_id":"levelo_inurba_marseille","lat":43.30535,"lon":5.38437,"is_reserved":false,"is_disabled":false,"rental_uris":{"android":"levelo://app?vid=7b881d79-9218-41c5-8665-9975f167b1f2","ios":"levelo://app?vid=7b881d79-9218-41c5-8665-9975f167b1f2"},"vehicle_type_id":"4","last_reported":1746137355,"current_range_meters":11600,"station_id":"ce4bgg92rcd13ifvqb30","pricing_plan_id":"cebpf4jnsgd1na2vs0mg"},{"bike_id":"5646eef8-71a4-4c6e-af3a-c51edb43f2a7","system_id":"levelo_inurba_marseille","lat":43.27993,"lon":5.41662,"is_reserved":false,"is_disabled":false,"rental_uris":{"android":"levelo://app?vid=5646eef8-71a4-4c6e-af3a-c51edb43f2a7","ios":"levelo://app?vid=5646eef8-71a4-4c6e-af3a-c51edb43f2a7"},"vehicle_type_id":"4","last_reported":1746137355,"current_range_meters":11600,"station_id":"ce4bho12rcd13ifvqh1g","pricing_plan_id":"cebpf4jnsgd1na2vs0mg"},{"bike_id":"315aa944-5595-4b5e-98d8-177f739d8d53","system_id":"levelo_inurba_marseille","lat":43.23152,"lon":5.43706,"is_reserved":false,"is_disabled":false,"rental_uris":{"android":"levelo://app?vid=315aa944-5595-4b5e-98d8-177f739d8d53","ios":"levelo://app?vid=315aa944-5595-4b5e-98d8-177f739d8d53"},"vehicle_type_id":"4","last_reported":1746137355,"current_range_meters":11600,"station_id":"ce4bhmp2rcd13ifvqgog","pricing_plan_id":"cebpf4jnsgd1na2vs0mg"},{"bike_id":"ef4d2cbc-e352-44b0-b0cc-89e71c9f9396","system_id":"levelo_inurba_marseille","lat":43.27369,"lon":5.3625,"is_reserved":false,"is_disabled":false,"rental_uris":{"android":"levelo://app?vid=ef4d2cbc-e352-44b0-b0cc-89e71c9f9396","ios":"levelo://app?vid=ef4d2cbc-e352-44b0-b0cc-89e71c9f9396"},"vehicle_type_id":"4","last_reported":1746137355,"current_range_meters":11600,"station_id":"ce4bhbh2rcd13ifvqeo0","pricing_plan_id":"cebpf4jnsgd1na2vs0mg"},{"bike_id":"fd07a340-a32b-44cc-824b-9474cc171177","system_id":"levelo_inurba_marseille","lat":43.28163,"lon":5.42641,"is_reserved":false,"is_disabled":false,"rental_uris":{"android":"levelo://app?vid=fd07a340-a32b-44cc-824b-9474cc171177","ios":"levelo://app?vid=fd07a340-a32b-44cc-824b-9474cc171177"},"vehicle_type_id":"4","last_reported":1746137355,"current_range_meters":11600,"station_id":"ce4bhnh2rcd13ifvqgug","pricing_plan_id":"cebpf4jnsgd1na2vs0mg"},{"bike_id":"928f6b8d-8b67-47d8-9d6d-e8eb981d2821","system_id":"levelo_inurba_marseille","lat":43.24663,"lon":5.38163,"is_reserved":false,"is_disabled":false,"rental_uris":{"android":"levelo://app?vid=928f6b8d-8b67-47d8-9d6d-e8eb981d2821","ios":"levelo://app?vid=928f6b8d-8b67-47d8-9d6d-e8eb981d2821"},"vehicle_type_id":"4","last_reported":1746137355,"current_range_meters":11600,"station_id":"ce4bhih2rcd13ifvqfr0","pricing_plan_id":"cebpf4jnsgd1na2vs0mg"},{"bike_id":"e1f7a599-4c1d-4705-9c1c-4c1d626a21b8","system_id":"levelo_inurba_marseille","lat":43.29865,"lon":5.39738,"is_reserved":false,"is_disabled":false,"rental_uris":{"android":"levelo://app?vid=e1f7a599-4c1d-4705-9c1c-4c1d626a21b8","ios":"levelo://app?vid=e1f7a599-4c1d-4705-9c1c-4c1d626a21b8"},"vehicle_type_id":"4","last_reported":1746137355,"current_range_meters":11600,"station_id":"ce4bh0h2rcd13ifvqd50","pricing_plan_id":"cebpf4jnsgd1na2vs0mg"},{"bike_id":"cba93bf4-d818-454b-925b-1e93ec515284","system_id":"levelo_inurba_marseille","lat":43.293,"lon":5.40106,"is_reserved":false,"is_disabled":false,"rental_uris":{"android":"levelo://app?vid=cba93bf4-d818-454b-925b-1e93ec515284","ios":"levelo://app?vid=cba93bf4-d818-454b-925b-1e93ec515284"},"vehicle_type_id":"4","last_reported":1746137355,"current_range_meters":11600,"station_id":"ce4bh312rcd13ifvqdk0","pricing_plan_id":"cebpf4jnsgd1na2vs0mg"},{"bike_id":"3e43c125-5323-4099-ab30-27ea243fe9db","system_id":"levelo_inurba_marseille","lat":43.31095,"lon":5.38367,"is_reserved":false,"is_disabled":false,"rental_uris":{"android":"levelo://app?vid=3e43c125-5323-4099-ab30-27ea243fe9db","ios":"levelo://app?vid=3e43c125-5323-4099-ab30-27ea243fe9db"},"vehicle_type_id":"4","last_reported":1746137355,"current_range_meters":11600,"station_id":"ce4bgv92rcd13ifvqcr0","pricing_plan_id":"cebpf4jnsgd1na2vs0mg"},{"bike_id":"f0aaa783-5973-447c-a491-82a9df2d6a40","system_id":"levelo_inurba_marseille","lat":43.2623,"lon":5.40451,"is_reserved":false,"is_disabled":false,"rental_uris":{"android":"levelo://app?vid=f0aaa783-5973-447c-a491-82a9df2d6a40","ios":"levelo://app?vid=f0aaa783-5973-447c-a491-82a9df2d6a40"},"vehicle_type_id":"4","last_reported":1746137355,"current_range_meters":11600,"station_id":"ce4bhmh2rcd13ifvqgmg","pricing_plan_id":"cebpf4jnsgd1na2vs0mg"},{"bike_id":"5e783dca-e9bd-4f97-a67f-f3c52ee23fb9","system_id":"levelo_inurba_marseille","lat":43.296214,"lon":5.377067,"is_reserved":false,"is_disabled":true,"rental_uris":{"android":"levelo://app?vid=5e783dca-e9bd-4f97-a67f-f3c52ee23fb9","ios":"levelo://app?vid=5e783dca-e9bd-4f97-a67f-f3c52ee23fb9"},"vehicle_type_id":"4","last_reported":1746137355,"current_range_meters":12000,"station_id":"","pricing_plan_id":"cebpf4jnsgd1na2vs0mg"},{"bike_id":"4cc784ea-d4ef-45c4-a5c1-eeef04e1a7f8","system_id":"levelo_inurba_marseille","lat":43.27998,"lon":5.4001,"is_reserved":false,"is_disabled":false,"rental_uris":{"android":"levelo://app?vid=4cc784ea-d4ef-45c4-a5c1-eeef04e1a7f8","ios":"levelo://app?vid=4cc784ea-d4ef-45c4-a5c1-eeef04e1a7f8"},"vehicle_type_id":"4","last_reported":1746137355,"current_range_meters":12000,"station_id":"ce4bho92rcd13ifvqh4g","pricing_plan_id":"cebpf4jnsgd1na2vs0mg"},{"bike_id":"d2917865-c7ed-418c-8e76-6cf228a7e046","system_id":"levelo_inurba_marseille","lat":43.30253,"lon":5.40084,"is_reserved":false,"is_disabled":false,"rental_uris":{"android":"levelo://app?vid=d2917865-c7ed-418c-8e76-6cf228a7e046","ios":"levelo://app?vid=d2917865-c7ed-418c-8e76-6cf228a7e046"},"vehicle_type_id":"4","last_reported":1746137355,"current_range_meters":12000,"station_id":"ce4bgvh2rcd13ifvqcs0","pricing_plan_id":"cebpf4jnsgd1na2vs0mg"},{"bike_id":"35b2ed04-1000-45a2-811b-21527953f742","system_id":"levelo_inurba_marseille","lat":43.28075,"lon":5.39651,"is_reserved":false,"is_disabled":false,"rental_uris":{"android":"levelo://app?vid=35b2ed04-1000-45a2-811b-21527953f742","ios":"levelo://app?vid=35b2ed04-1000-45a2-811b-21527953f742"},"vehicle_type_id":"4","last_reported":1746137355,"current_range_meters":12000,"station_id":"ce4bho12rcd13ifvqh2g","pricing_plan_id":"cebpf4jnsgd1na2vs0mg"},{"bike_id":"56f543c3-cb38-4272-a4e5-cab053dcc3e0","system_id":"levelo_inurba_marseille","lat":43.291966,"lon":5.392961,"is_reserved":false,"is_disabled":true,"rental_uris":{"android":"levelo://app?vid=56f543c3-cb38-4272-a4e5-cab053dcc3e0","ios":"levelo://app?vid=56f543c3-cb38-4272-a4e5-cab053dcc3e0"},"vehicle_type_id":"4","last_reported":1746137355,"current_range_meters":12000,"station_id":"ce4bhbh2rcd13ifvqeo0","pricing_plan_id":"cebpf4jnsgd1na2vs0mg"},{"bike_id":"3f8bea75-f1b7-42a9-9ff5-4986c0552272","system_id":"levelo_inurba_marseille","lat":43.21735,"lon":5.34608,"is_reserved":false,"is_disabled":true,"rental_uris":{"android":"levelo://app?vid=3f8bea75-f1b7-42a9-9ff5-4986c0552272","ios":"levelo://app?vid=3f8bea75-f1b7-42a9-9ff5-4986c0552272"},"vehicle_type_id":"4","last_reported":1746137355,"current_range_meters":12000,"station_id":"st_cvj6r9ubvosntc0bgbag","pricing_plan_id":"cebpf4jnsgd1na2vs0mg"},{"bike_id":"c7c7a92b-c148-41bb-b985-b3d124e5c071","system_id":"levelo_inurba_marseille","lat":43.24814,"lon":5.37454,"is_reserved":false,"is_disabled":true,"rental_uris":{"android":"levelo://app?vid=c7c7a92b-c148-41bb-b985-b3d124e5c071","ios":"levelo://app?vid=c7c7a92b-c148-41bb-b985-b3d124e5c071"},"vehicle_type_id":"4","last_reported":1746137355,"current_range_meters":12400,"station_id":"ce4bhgh2rcd13ifvqfb0","pricing_plan_id":"cebpf4jnsgd1na2vs0mg"},{"bike_id":"045b2767-67d3-41b7-8618-6d27646a5585","system_id":"levelo_inurba_marseille","lat":43.31339,"lon":5.39686,"is_reserved":false,"is_disabled":false,"rental_uris":{"android":"levelo://app?vid=045b2767-67d3-41b7-8618-6d27646a5585","ios":"levelo://app?vid=045b2767-67d3-41b7-8618-6d27646a5585"},"vehicle_type_id":"4","last_reported":1746137355,"current_range_meters":12400,"station_id":"ce4bgvp2rcd13ifvqcu0","pricing_plan_id":"cebpf4jnsgd1na2vs0mg"},{"bike_id":"3d0d5d9e-a325-4dfd-bf25-01348bc24cdd","system_id":"levelo_inurba_marseille","lat":43.28863,"lon":5.39303,"is_reserved":false,"is_disabled":false,"rental_uris":{"android":"levelo://app?vid=3d0d5d9e-a325-4dfd-bf25-01348bc24cdd","ios":"levelo://app?vid=3d0d5d9e-a325-4dfd-bf25-01348bc24cdd"},"vehicle_type_id":"4","last_reported":1746137355,"current_range_meters":12400,"station_id":"ce4bh2p2rcd13ifvqdi0","pricing_plan_id":"cebpf4jnsgd1na2vs0mg"},{"bike_id":"e67b03f2-4a83-4778-bb82-411130436f27","system_id":"levelo_inurba_marseille","lat":43.27844,"lon":5.39208,"is_reserved":false,"is_disabled":false,"rental_uris":{"android":"levelo://app?vid=e67b03f2-4a83-4778-bb82-411130436f27","ios":"levelo://app?vid=e67b03f2-4a83-4778-bb82-411130436f27"},"vehicle_type_id":"4","last_reported":1746137355,"current_range_meters":12800,"station_id":"ce4bhjp2rcd13ifvqga0","pricing_plan_id":"cebpf4jnsgd1na2vs0mg"},{"bike_id":"5ce5a92f-2072-4e8c-8483-5f453ebe476a","system_id":"levelo_inurba_marseille","lat":43.23149,"lon":5.43701,"is_reserved":false,"is_disabled":false,"rental_uris":{"android":"levelo://app?vid=5ce5a92f-2072-4e8c-8483-5f453ebe476a","ios":"levelo://app?vid=5ce5a92f-2072-4e8c-8483-5f453ebe476a"},"vehicle_type_id":"4","last_reported":1746137355,"current_range_meters":12800,"station_id":"ce4bhmp2rcd13ifvqgog","pricing_plan_id":"cebpf4jnsgd1na2vs0mg"},{"bike_id":"27af1986-c75b-4d08-b960-d4807e940267","system_id":"levelo_inurba_marseille","lat":43.27979,"lon":5.38692,"is_reserved":false,"is_disabled":false,"rental_uris":{"android":"levelo://app?vid=27af1986-c75b-4d08-b960-d4807e940267","ios":"levelo://app?vid=27af1986-c75b-4d08-b960-d4807e940267"},"vehicle_type_id":"4","last_reported":1746137355,"current_range_meters":12800,"station_id":"ce4bhg12rcd13ifvqf80","pricing_plan_id":"cebpf4jnsgd1na2vs0mg"},{"bike_id":"0b9ac188-19a7-4ad4-8279-34f1318ce56d","system_id":"levelo_inurba_marseille","lat":43.3128,"lon":5.37756,"is_reserved":false,"is_disabled":false,"rental_uris":{"android":"levelo://app?vid=0b9ac188-19a7-4ad4-8279-34f1318ce56d","ios":"levelo://app?vid=0b9ac188-19a7-4ad4-8279-34f1318ce56d"},"vehicle_type_id":"4","last_reported":1746137355,"current_range_meters":12800,"station_id":"","pricing_plan_id":"cebpf4jnsgd1na2vs0mg"},{"bike_id":"f7a91b2e-c59c-4729-aa34-37788daada89","system_id":"levelo_inurba_marseille","lat":43.2927,"lon":5.40118,"is_reserved":false,"is_disabled":false,"rental_uris":{"android":"levelo://app?vid=f7a91b2e-c59c-4729-aa34-37788daada89","ios":"levelo://app?vid=f7a91b2e-c59c-4729-aa34-37788daada89"},"vehicle_type_id":"4","last_reported":1746137355,"current_range_meters":12800,"station_id":"ce4bh312rcd13ifvqdk0","pricing_plan_id":"cebpf4jnsgd1na2vs0mg"},{"bike_id":"e952cd5a-47b6-4f5a-9d91-6a2626ee4762","system_id":"levelo_inurba_marseille","lat":43.28668,"lon":5.38659,"is_reserved":false,"is_disabled":false,"rental_uris":{"android":"levelo://app?vid=e952cd5a-47b6-4f5a-9d91-6a2626ee4762","ios":"levelo://app?vid=e952cd5a-47b6-4f5a-9d91-6a2626ee4762"},"vehicle_type_id":"4","last_reported":1746137355,"current_range_meters":12800,"station_id":"ce4bh492rcd13ifvqdug","pricing_plan_id":"cebpf4jnsgd1na2vs0mg"},{"bike_id":"78e3a516-3b43-4a65-88ee-19e41444cd3f","system_id":"levelo_inurba_marseille","lat":43.26612,"lon":5.38993,"is_reserved":false,"is_disabled":false,"rental_uris":{"android":"levelo://app?vid=78e3a516-3b43-4a65-88ee-19e41444cd3f","ios":"levelo://app?vid=78e3a516-3b43-4a65-88ee-19e41444cd3f"},"vehicle_type_id":"4","last_reported":1746137355,"current_range_meters":12800,"station_id":"","pricing_plan_id":"cebpf4jnsgd1na2vs0mg"},{"bike_id":"61bd96e4-a343-47cf-a9bb-dcf4820b5bf4","system_id":"levelo_inurba_marseille","lat":43.24074,"lon":5.37758,"is_reserved":false,"is_disabled":false,"rental_uris":{"android":"levelo://app?vid=61bd96e4-a343-47cf-a9bb-dcf4820b5bf4","ios":"levelo://app?vid=61bd96e4-a343-47cf-a9bb-dcf4820b5bf4"},"vehicle_type_id":"4","last_reported":1746137355,"current_range_meters":13600,"station_id":"ce4bhnp2rcd13ifvqgvg","pricing_plan_id":"cebpf4jnsgd1na2vs0mg"},{"bike_id":"df869c6e-30aa-4a10-bddb-7cd36ccc4eae","system_id":"levelo_inurba_marseille","lat":43.29894,"lon":5.43668,"is_reserved":false,"is_disabled":false,"rental_uris":{"android":"levelo://app?vid=df869c6e-30aa-4a10-bddb-7cd36ccc4eae","ios":"levelo://app?vid=df869c6e-30aa-4a10-bddb-7cd36ccc4eae"},"vehicle_type_id":"4","last_reported":1746137355,"current_range_meters":13600,"station_id":"ce4bhpp2rcd13ifvqhfg","pricing_plan_id":"cebpf4jnsgd1na2vs0mg"},{"bike_id":"af1a8bf0-afa9-477f-8fdb-edb6d2bce68a","system_id":"levelo_inurba_marseille","lat":43.31874,"lon":5.40737,"is_reserved":false,"is_disabled":false,"rental_uris":{"android":"levelo://app?vid=af1a8bf0-afa9-477f-8fdb-edb6d2bce68a","ios":"levelo://app?vid=af1a8bf0-afa9-477f-8fdb-edb6d2bce68a"},"vehicle_type_id":"4","last_reported":1746137355,"current_range_meters":13600,"station_id":"ce4bhq12rcd13ifvqhig","pricing_plan_id":"cebpf4jnsgd1na2vs0mg"},{"bike_id":"4cc2b011-81f2-4910-af9d-0052ec928815","system_id":"levelo_inurba_marseille","lat":43.304,"lon":5.42465,"is_reserved":false,"is_disabled":false,"rental_uris":{"android":"levelo://app?vid=4cc2b011-81f2-4910-af9d-0052ec928815","ios":"levelo://app?vid=4cc2b011-81f2-4910-af9d-0052ec928815"},"vehicle_type_id":"4","last_reported":1746137355,"current_range_meters":13600,"station_id":"ce4bghh2rcd13ifvqb60","pricing_plan_id":"cebpf4jnsgd1na2vs0mg"},{"bike_id":"2ae39ac1-aa30-4096-aaf7-7bc2d7533749","system_id":"levelo_inurba_marseille","lat":43.3237,"lon":5.36773,"is_reserved":false,"is_disabled":false,"rental_uris":{"android":"levelo://app?vid=2ae39ac1-aa30-4096-aaf7-7bc2d7533749","ios":"levelo://app?vid=2ae39ac1-aa30-4096-aaf7-7bc2d7533749"},"vehicle_type_id":"4","last_reported":1746137355,"current_range_meters":13600,"station_id":"ce4bhsh2rcd13ifvqi2g","pricing_plan_id":"cebpf4jnsgd1na2vs0mg"},{"bike_id":"d5b5fc88-15cf-47b2-89c6-38929084bc48","system_id":"levelo_inurba_marseille","lat":43.30598,"lon":5.37214,"is_reserved":false,"is_disabled":false,"rental_uris":{"android":"levelo://app?vid=d5b5fc88-15cf-47b2-89c6-38929084bc48","ios":"levelo://app?vid=d5b5fc88-15cf-47b2-89c6-38929084bc48"},"vehicle_type_id":"4","last_reported":1746137355,"current_range_meters":14000,"station_id":"ce4bgqh2rcd13ifvqc4g","pricing_plan_id":"cebpf4jnsgd1na2vs0mg"},{"bike_id":"5e42932d-36b4-483b-9c9b-c827c87444e7","system_id":"levelo_inurba_marseille","lat":43.31359,"lon":5.38493,"is_reserved":false,"is_disabled":false,"rental_uris":{"android":"levelo://app?vid=5e42932d-36b4-483b-9c9b-c827c87444e7","ios":"levelo://app?vid=5e42932d-36b4-483b-9c9b-c827c87444e7"},"vehicle_type_id":"4","last_reported":1746137355,"current_range_meters":13600,"station_id":"ce4bgt92rcd13ifvqcf0","pricing_plan_id":"cebpf4jnsgd1na2vs0mg"},{"bike_id":"51c95771-a2d7-48dc-8a12-9ea2338fec3a","system_id":"levelo_inurba_marseille","lat":43.29281,"lon":5.4012,"is_reserved":false,"is_disabled":false,"rental_uris":{"android":"levelo://app?vid=51c95771-a2d7-48dc-8a12-9ea2338fec3a","ios":"levelo://app?vid=51c95771-a2d7-48dc-8a12-9ea2338fec3a"},"vehicle_type_id":"4","last_reported":1746137355,"current_range_meters":14000,"station_id":"ce4bh312rcd13ifvqdk0","pricing_plan_id":"cebpf4jnsgd1na2vs0mg"},{"bike_id":"dd7aedfd-e3d8-4f73-8265-cc39385aff60","system_id":"levelo_inurba_marseille","lat":43.27954,"lon":5.41032,"is_reserved":false,"is_disabled":false,"rental_uris":{"android":"levelo://app?vid=dd7aedfd-e3d8-4f73-8265-cc39385aff60","ios":"levelo://app?vid=dd7aedfd-e3d8-4f73-8265-cc39385aff60"},"vehicle_type_id":"4","last_reported":1746137355,"current_range_meters":14000,"station_id":"ce4bhnp2rcd13ifvqh0g","pricing_plan_id":"cebpf4jnsgd1na2vs0mg"},{"bike_id":"18786350-b4b0-4aa7-a735-e90121ab0bf5","system_id":"levelo_inurba_marseille","lat":43.30927,"lon":5.37188,"is_reserved":false,"is_disabled":false,"rental_uris":{"android":"levelo://app?vid=18786350-b4b0-4aa7-a735-e90121ab0bf5","ios":"levelo://app?vid=18786350-b4b0-4aa7-a735-e90121ab0bf5"},"vehicle_type_id":"4","last_reported":1746137355,"current_range_meters":13600,"station_id":"ce4bguh2rcd13ifvqckg","pricing_plan_id":"cebpf4jnsgd1na2vs0mg"},{"bike_id":"281c3102-ec18-4b11-beb0-047e912bb68e","system_id":"levelo_inurba_marseille","lat":43.29575,"lon":5.39971,"is_reserved":false,"is_disabled":false,"rental_uris":{"android":"levelo://app?vid=281c3102-ec18-4b11-beb0-047e912bb68e","ios":"levelo://app?vid=281c3102-ec18-4b11-beb0-047e912bb68e"},"vehicle_type_id":"4","last_reported":1746137355,"current_range_meters":14000,"station_id":"ce4bh312rcd13ifvqdj0","pricing_plan_id":"cebpf4jnsgd1na2vs0mg"},{"bike_id":"0c9a8767-a71f-4ef0-b390-c3b7e9c632a8","system_id":"levelo_inurba_marseille","lat":43.21235,"lon":5.35098,"is_reserved":false,"is_disabled":true,"rental_uris":{"android":"levelo://app?vid=0c9a8767-a71f-4ef0-b390-c3b7e9c632a8","ios":"levelo://app?vid=0c9a8767-a71f-4ef0-b390-c3b7e9c632a8"},"vehicle_type_id":"4","last_reported":1746137355,"current_range_meters":14400,"station_id":"","pricing_plan_id":"cebpf4jnsgd1na2vs0mg"},{"bike_id":"f0db5fa2-ee3c-4f34-b509-0ff042a196f7","system_id":"levelo_inurba_marseille","lat":43.29337,"lon":5.40154,"is_reserved":false,"is_disabled":false,"rental_uris":{"android":"levelo://app?vid=f0db5fa2-ee3c-4f34-b509-0ff042a196f7","ios":"levelo://app?vid=f0db5fa2-ee3c-4f34-b509-0ff042a196f7"},"vehicle_type_id":"4","last_reported":1746137355,"current_range_meters":14400,"station_id":"","pricing_plan_id":"cebpf4jnsgd1na2vs0mg"},{"bike_id":"1150b152-40dd-4fde-897f-601bd653c215","system_id":"levelo_inurba_marseille","lat":43.28699,"lon":5.37391,"is_reserved":false,"is_disabled":false,"rental_uris":{"android":"levelo://app?vid=1150b152-40dd-4fde-897f-601bd653c215","ios":"levelo://app?vid=1150b152-40dd-4fde-897f-601bd653c215"},"vehicle_type_id":"4","last_reported":1746137355,"current_range_meters":14400,"station_id":"ce4bh3p2rcd13ifvqdq0","pricing_plan_id":"cebpf4jnsgd1na2vs0mg"},{"bike_id":"63578c6a-88ee-4a0b-9fdb-a498c9341711","system_id":"levelo_inurba_marseille","lat":43.274947,"lon":5.424488,"is_reserved":false,"is_disabled":false,"rental_uris":{"android":"levelo://app?vid=63578c6a-88ee-4a0b-9fdb-a498c9341711","ios":"levelo://app?vid=63578c6a-88ee-4a0b-9fdb-a498c9341711"},"vehicle_type_id":"4","last_reported":1746137355,"current_range_meters":14800,"station_id":"ce4bhn92rcd13ifvqgrg","pricing_plan_id":"cebpf4jnsgd1na2vs0mg"},{"bike_id":"342622fe-c786-4197-855e-939f6c6764a3","system_id":"levelo_inurba_marseille","lat":43.28728,"lon":5.40011,"is_reserved":false,"is_disabled":false,"rental_uris":{"android":"levelo://app?vid=342622fe-c786-4197-855e-939f6c6764a3","ios":"levelo://app?vid=342622fe-c786-4197-855e-939f6c6764a3"},"vehicle_type_id":"4","last_reported":1746137355,"current_range_meters":14800,"station_id":"ce4bho92rcd13ifvqh3g","pricing_plan_id":"cebpf4jnsgd1na2vs0mg"},{"bike_id":"2fe95463-9ed5-4ed4-9dcb-cd28274829cb","system_id":"levelo_inurba_marseille","lat":43.28155,"lon":5.42634,"is_reserved":false,"is_disabled":false,"rental_uris":{"android":"levelo://app?vid=2fe95463-9ed5-4ed4-9dcb-cd28274829cb","ios":"levelo://app?vid=2fe95463-9ed5-4ed4-9dcb-cd28274829cb"},"vehicle_type_id":"4","last_reported":1746137355,"current_range_meters":14400,"station_id":"ce4bhnh2rcd13ifvqgug","pricing_plan_id":"cebpf4jnsgd1na2vs0mg"},{"bike_id":"27ae44ab-4467-45ef-b0d1-8bfc33f0de73","system_id":"levelo_inurba_marseille","lat":43.28711,"lon":5.39987,"is_reserved":false,"is_disabled":false,"rental_uris":{"android":"levelo://app?vid=27ae44ab-4467-45ef-b0d1-8bfc33f0de73","ios":"levelo://app?vid=27ae44ab-4467-45ef-b0d1-8bfc33f0de73"},"vehicle_type_id":"4","last_reported":1746137355,"current_range_meters":15200,"station_id":"ce4bho92rcd13ifvqh3g","pricing_plan_id":"cebpf4jnsgd1na2vs0mg"},{"bike_id":"f9eae9cb-3e30-4f98-9b5d-ec7d6955b1e9","system_id":"levelo_inurba_marseille","lat":43.31702,"lon":5.40499,"is_reserved":false,"is_disabled":false,"rental_uris":{"android":"levelo://app?vid=f9eae9cb-3e30-4f98-9b5d-ec7d6955b1e9","ios":"levelo://app?vid=f9eae9cb-3e30-4f98-9b5d-ec7d6955b1e9"},"vehicle_type_id":"4","last_reported":1746137355,"current_range_meters":16000,"station_id":"ce4bh012rcd13ifvqd00","pricing_plan_id":"cebpf4jnsgd1na2vs0mg"},{"bike_id":"67058a6a-1199-4119-a8f8-bd3080f44de1","system_id":"levelo_inurba_marseille","lat":43.30256,"lon":5.40041,"is_reserved":false,"is_disabled":false,"rental_uris":{"android":"levelo://app?vid=67058a6a-1199-4119-a8f8-bd3080f44de1","ios":"levelo://app?vid=67058a6a-1199-4119-a8f8-bd3080f44de1"},"vehicle_type_id":"4","last_reported":1746137355,"current_range_meters":15200,"station_id":"ce4bgvh2rcd13ifvqcs0","pricing_plan_id":"cebpf4jnsgd1na2vs0mg"},{"bike_id":"b70d6dd7-db26-425e-af7f-d24732bf1da0","system_id":"levelo_inurba_marseille","lat":43.30664,"lon":5.4006,"is_reserved":false,"is_disabled":false,"rental_uris":{"android":"levelo://app?vid=b70d6dd7-db26-425e-af7f-d24732bf1da0","ios":"levelo://app?vid=b70d6dd7-db26-425e-af7f-d24732bf1da0"},"vehicle_type_id":"4","last_reported":1746137355,"current_range_meters":15200,"station_id":"ce4bh112rcd13ifvqda0","pricing_plan_id":"cebpf4jnsgd1na2vs0mg"},{"bike_id":"8a0058ae-d47a-4696-afcc-53a66a14ba3f","system_id":"levelo_inurba_marseille","lat":43.299009,"lon":5.436657,"is_reserved":false,"is_disabled":false,"rental_uris":{"android":"levelo://app?vid=8a0058ae-d47a-4696-afcc-53a66a14ba3f","ios":"levelo://app?vid=8a0058ae-d47a-4696-afcc-53a66a14ba3f"},"vehicle_type_id":"4","last_reported":1746137355,"current_range_meters":16000,"station_id":"ce4bhpp2rcd13ifvqhfg","pricing_plan_id":"cebpf4jnsgd1na2vs0mg"},{"bike_id":"8a53bf42-acb8-4be5-ad1b-38650f6ba791","system_id":"levelo_inurba_marseille","lat":43.29974,"lon":5.36566,"is_reserved":false,"is_disabled":true,"rental_uris":{"android":"levelo://app?vid=8a53bf42-acb8-4be5-ad1b-38650f6ba791","ios":"levelo://app?vid=8a53bf42-acb8-4be5-ad1b-38650f6ba791"},"vehicle_type_id":"4","last_reported":1746137355,"current_range_meters":16000,"station_id":"","pricing_plan_id":"cebpf4jnsgd1na2vs0mg"},{"bike_id":"e70e6937-93f0-4736-a2bd-2815ca5c0c90","system_id":"levelo_inurba_marseille","lat":43.29305,"lon":5.37181,"is_reserved":false,"is_disabled":true,"rental_uris":{"android":"levelo://app?vid=e70e6937-93f0-4736-a2bd-2815ca5c0c90","ios":"levelo://app?vid=e70e6937-93f0-4736-a2bd-2815ca5c0c90"},"vehicle_type_id":"4","last_reported":1746137355,"current_range_meters":16000,"station_id":"ce4bgh92rcd13ifvqb40","pricing_plan_id":"cebpf4jnsgd1na2vs0mg"},{"bike_id":"1c94f752-ee7f-428e-bea8-26ff579422e0","system_id":"levelo_inurba_marseille","lat":43.28711,"lon":5.39976,"is_reserved":false,"is_disabled":false,"rental_uris":{"android":"levelo://app?vid=1c94f752-ee7f-428e-bea8-26ff579422e0","ios":"levelo://app?vid=1c94f752-ee7f-428e-bea8-26ff579422e0"},"vehicle_type_id":"4","last_reported":1746137355,"current_range_meters":16000,"station_id":"ce4bho92rcd13ifvqh3g","pricing_plan_id":"cebpf4jnsgd1na2vs0mg"},{"bike_id":"4c355f31-bbab-40c6-a093-ac50f3e75f95","system_id":"levelo_inurba_marseille","lat":43.26227,"lon":5.40452,"is_reserved":false,"is_disabled":false,"rental_uris":{"android":"levelo://app?vid=4c355f31-bbab-40c6-a093-ac50f3e75f95","ios":"levelo://app?vid=4c355f31-bbab-40c6-a093-ac50f3e75f95"},"vehicle_type_id":"4","last_reported":1746137355,"current_range_meters":16000,"station_id":"ce4bhmh2rcd13ifvqgmg","pricing_plan_id":"cebpf4jnsgd1na2vs0mg"},{"bike_id":"aaa7361e-2aed-4ab5-b86b-b5d18c767d33","system_id":"levelo_inurba_marseille","lat":43.29929,"lon":5.39489,"is_reserved":false,"is_disabled":true,"rental_uris":{"android":"levelo://app?vid=aaa7361e-2aed-4ab5-b86b-b5d18c767d33","ios":"levelo://app?vid=aaa7361e-2aed-4ab5-b86b-b5d18c767d33"},"vehicle_type_id":"4","last_reported":1746137355,"current_range_meters":16000,"station_id":"","pricing_plan_id":"cebpf4jnsgd1na2vs0mg"},{"bike_id":"ccab6500-56b5-4496-b3fc-395af8a70315","system_id":"levelo_inurba_marseille","lat":43.27836,"lon":5.39208,"is_reserved":false,"is_disabled":false,"rental_uris":{"android":"levelo://app?vid=ccab6500-56b5-4496-b3fc-395af8a70315","ios":"levelo://app?vid=ccab6500-56b5-4496-b3fc-395af8a70315"},"vehicle_type_id":"4","last_reported":1746137355,"current_range_meters":16000,"station_id":"ce4bhjp2rcd13ifvqga0","pricing_plan_id":"cebpf4jnsgd1na2vs0mg"},{"bike_id":"7bd7c79e-5190-4568-b102-e02604e33904","system_id":"levelo_inurba_marseille","lat":43.30234,"lon":5.40518,"is_reserved":false,"is_disabled":false,"rental_uris":{"android":"levelo://app?vid=7bd7c79e-5190-4568-b102-e02604e33904","ios":"levelo://app?vid=7bd7c79e-5190-4568-b102-e02604e33904"},"vehicle_type_id":"4","last_reported":1746137355,"current_range_meters":16000,"station_id":"","pricing_plan_id":"cebpf4jnsgd1na2vs0mg"},{"bike_id":"3c376cd3-a6e1-4153-b98d-ae36ec38c259","system_id":"levelo_inurba_marseille","lat":43.28691,"lon":5.39973,"is_reserved":false,"is_disabled":false,"rental_uris":{"android":"levelo://app?vid=3c376cd3-a6e1-4153-b98d-ae36ec38c259","ios":"levelo://app?vid=3c376cd3-a6e1-4153-b98d-ae36ec38c259"},"vehicle_type_id":"4","last_reported":1746137355,"current_range_meters":16000,"station_id":"ce4bho92rcd13ifvqh3g","pricing_plan_id":"cebpf4jnsgd1na2vs0mg"},{"bike_id":"846ba4ce-0b98-4d2a-b5e3-0d1b619e2327","system_id":"levelo_inurba_marseille","lat":43.308884,"lon":5.396298,"is_reserved":false,"is_disabled":false,"rental_uris":{"android":"levelo://app?vid=846ba4ce-0b98-4d2a-b5e3-0d1b619e2327","ios":"levelo://app?vid=846ba4ce-0b98-4d2a-b5e3-0d1b619e2327"},"vehicle_type_id":"4","last_reported":1746137355,"current_range_meters":16000,"station_id":"ce4bh012rcd13ifvqcv0","pricing_plan_id":"cebpf4jnsgd1na2vs0mg"},{"bike_id":"8a98d962-578d-444b-a5bb-91a62b69d98d","system_id":"levelo_inurba_marseille","lat":43.211921,"lon":5.350829,"is_reserved":false,"is_disabled":true,"rental_uris":{"android":"levelo://app?vid=8a98d962-578d-444b-a5bb-91a62b69d98d","ios":"levelo://app?vid=8a98d962-578d-444b-a5bb-91a62b69d98d"},"vehicle_type_id":"4","last_reported":1746137355,"current_range_meters":16400,"station_id":"st_cvj6sg6p6f1abm77japg","pricing_plan_id":"cebpf4jnsgd1na2vs0mg"},{"bike_id":"2033c1c4-40c4-48b4-8076-35891725f3ad","system_id":"levelo_inurba_marseille","lat":43.29808,"lon":5.40401,"is_reserved":false,"is_disabled":false,"rental_uris":{"android":"levelo://app?vid=2033c1c4-40c4-48b4-8076-35891725f3ad","ios":"levelo://app?vid=2033c1c4-40c4-48b4-8076-35891725f3ad"},"vehicle_type_id":"4","last_reported":1746137355,"current_range_meters":16400,"station_id":"ce4bh112rcd13ifvqd90","pricing_plan_id":"cebpf4jnsgd1na2vs0mg"},{"bike_id":"03f5b910-d1d5-49c8-a7a4-67a333daaa2e","system_id":"levelo_inurba_marseille","lat":43.32548,"lon":5.41442,"is_reserved":false,"is_disabled":false,"rental_uris":{"android":"levelo://app?vid=03f5b910-d1d5-49c8-a7a4-67a333daaa2e","ios":"levelo://app?vid=03f5b910-d1d5-49c8-a7a4-67a333daaa2e"},"vehicle_type_id":"4","last_reported":1746137355,"current_range_meters":16400,"station_id":"ce4bhq12rcd13ifvqhhg","pricing_plan_id":"cebpf4jnsgd1na2vs0mg"},{"bike_id":"9d9a92a0-a52c-4fdc-8730-8ef98a3dc703","system_id":"levelo_inurba_marseille","lat":43.311282,"lon":5.37754,"is_reserved":false,"is_disabled":false,"rental_uris":{"android":"levelo://app?vid=9d9a92a0-a52c-4fdc-8730-8ef98a3dc703","ios":"levelo://app?vid=9d9a92a0-a52c-4fdc-8730-8ef98a3dc703"},"vehicle_type_id":"4","last_reported":1746137355,"current_range_meters":16400,"station_id":"ce4bgt92rcd13ifvqcg0","pricing_plan_id":"cebpf4jnsgd1na2vs0mg"},{"bike_id":"2bbadc02-40b7-4b1b-b86d-d0f654fd8a3c","system_id":"levelo_inurba_marseille","lat":43.28708,"lon":5.39956,"is_reserved":false,"is_disabled":false,"rental_uris":{"android":"levelo://app?vid=2bbadc02-40b7-4b1b-b86d-d0f654fd8a3c","ios":"levelo://app?vid=2bbadc02-40b7-4b1b-b86d-d0f654fd8a3c"},"vehicle_type_id":"4","last_reported":1746137355,"current_range_meters":16400,"station_id":"ce4bho92rcd13ifvqh3g","pricing_plan_id":"cebpf4jnsgd1na2vs0mg"},{"bike_id":"9bcd8d01-aa98-4a10-aefa-7ddccc99cf02","system_id":"levelo_inurba_marseille","lat":43.31886,"lon":5.40735,"is_reserved":false,"is_disabled":false,"rental_uris":{"android":"levelo://app?vid=9bcd8d01-aa98-4a10-aefa-7ddccc99cf02","ios":"levelo://app?vid=9bcd8d01-aa98-4a10-aefa-7ddccc99cf02"},"vehicle_type_id":"4","last_reported":1746137355,"current_range_meters":16400,"station_id":"ce4bhq12rcd13ifvqhig","pricing_plan_id":"cebpf4jnsgd1na2vs0mg"},{"bike_id":"6623491d-b23e-494a-b8f5-05f0c8a0d399","system_id":"levelo_inurba_marseille","lat":43.303314,"lon":5.404328,"is_reserved":false,"is_disabled":false,"rental_uris":{"android":"levelo://app?vid=6623491d-b23e-494a-b8f5-05f0c8a0d399","ios":"levelo://app?vid=6623491d-b23e-494a-b8f5-05f0c8a0d399"},"vehicle_type_id":"4","last_reported":1746137355,"current_range_meters":16400,"station_id":"ce4bh012rcd13ifvqd10","pricing_plan_id":"cebpf4jnsgd1na2vs0mg"},{"bike_id":"8eaf1a40-f55c-4c75-bd44-09c1f5d729d9","system_id":"levelo_inurba_marseille","lat":43.28707,"lon":5.37382,"is_reserved":false,"is_disabled":false,"rental_uris":{"android":"levelo://app?vid=8eaf1a40-f55c-4c75-bd44-09c1f5d729d9","ios":"levelo://app?vid=8eaf1a40-f55c-4c75-bd44-09c1f5d729d9"},"vehicle_type_id":"4","last_reported":1746137355,"current_range_meters":16400,"station_id":"ce4bh3p2rcd13ifvqdq0","pricing_plan_id":"cebpf4jnsgd1na2vs0mg"},{"bike_id":"ac132c29-f819-4d62-974c-5c055342f4f0","system_id":"levelo_inurba_marseille","lat":43.21792,"lon":5.34591,"is_reserved":false,"is_disabled":true,"rental_uris":{"android":"levelo://app?vid=ac132c29-f819-4d62-974c-5c055342f4f0","ios":"levelo://app?vid=ac132c29-f819-4d62-974c-5c055342f4f0"},"vehicle_type_id":"4","last_reported":1746137355,"current_range_meters":16800,"station_id":"","pricing_plan_id":"cebpf4jnsgd1na2vs0mg"},{"bike_id":"61ada823-7afc-4bae-8219-f47e25313745","system_id":"levelo_inurba_marseille","lat":43.25715,"lon":5.41803,"is_reserved":false,"is_disabled":false,"rental_uris":{"android":"levelo://app?vid=61ada823-7afc-4bae-8219-f47e25313745","ios":"levelo://app?vid=61ada823-7afc-4bae-8219-f47e25313745"},"vehicle_type_id":"4","last_reported":1746137355,"current_range_meters":16800,"station_id":"","pricing_plan_id":"cebpf4jnsgd1na2vs0mg"},{"bike_id":"c9892a14-219a-494b-ad6a-04d13e2c2524","system_id":"levelo_inurba_marseille","lat":43.30612,"lon":5.37186,"is_reserved":false,"is_disabled":false,"rental_uris":{"android":"levelo://app?vid=c9892a14-219a-494b-ad6a-04d13e2c2524","ios":"levelo://app?vid=c9892a14-219a-494b-ad6a-04d13e2c2524"},"vehicle_type_id":"4","last_reported":1746137355,"current_range_meters":16800,"station_id":"ce4bgqh2rcd13ifvqc4g","pricing_plan_id":"cebpf4jnsgd1na2vs0mg"},{"bike_id":"924ebe6f-d3da-412d-b51d-9e4065478efe","system_id":"levelo_inurba_marseille","lat":43.32539,"lon":5.41458,"is_reserved":false,"is_disabled":false,"rental_uris":{"android":"levelo://app?vid=924ebe6f-d3da-412d-b51d-9e4065478efe","ios":"levelo://app?vid=924ebe6f-d3da-412d-b51d-9e4065478efe"},"vehicle_type_id":"4","last_reported":1746137355,"current_range_meters":16800,"station_id":"ce4bhq12rcd13ifvqhhg","pricing_plan_id":"cebpf4jnsgd1na2vs0mg"},{"bike_id":"43570242-c8cc-43fc-a26a-28bd415865fa","system_id":"levelo_inurba_marseille","lat":43.3251,"lon":5.36548,"is_reserved":false,"is_disabled":false,"rental_uris":{"android":"levelo://app?vid=43570242-c8cc-43fc-a26a-28bd415865fa","ios":"levelo://app?vid=43570242-c8cc-43fc-a26a-28bd415865fa"},"vehicle_type_id":"4","last_reported":1746137355,"current_range_meters":16800,"station_id":"ce4bhs12rcd13ifvqhvg","pricing_plan_id":"cebpf4jnsgd1na2vs0mg"},{"bike_id":"7fd80a67-7a4b-4131-aa61-22a40255ad15","system_id":"levelo_inurba_marseille","lat":43.31672,"lon":5.37751,"is_reserved":false,"is_disabled":true,"rental_uris":{"android":"levelo://app?vid=7fd80a67-7a4b-4131-aa61-22a40255ad15","ios":"levelo://app?vid=7fd80a67-7a4b-4131-aa61-22a40255ad15"},"vehicle_type_id":"4","last_reported":1746137355,"current_range_meters":16800,"station_id":"ce4bgth2rcd13ifvqch0","pricing_plan_id":"cebpf4jnsgd1na2vs0mg"},{"bike_id":"dea0cfb2-dc6f-4e03-84b4-8ee7ba9ad665","system_id":"levelo_inurba_marseille","lat":43.323652,"lon":5.38879,"is_reserved":false,"is_disabled":false,"rental_uris":{"android":"levelo://app?vid=dea0cfb2-dc6f-4e03-84b4-8ee7ba9ad665","ios":"levelo://app?vid=dea0cfb2-dc6f-4e03-84b4-8ee7ba9ad665"},"vehicle_type_id":"4","last_reported":1746137355,"current_range_meters":16800,"station_id":"ce4bhqp2rcd13ifvqhog","pricing_plan_id":"cebpf4jnsgd1na2vs0mg"},{"bike_id":"b28918cc-9bda-43a9-b823-d205bfafd8ab","system_id":"levelo_inurba_marseille","lat":43.30406,"lon":5.4128,"is_reserved":false,"is_disabled":false,"rental_uris":{"android":"levelo://app?vid=b28918cc-9bda-43a9-b823-d205bfafd8ab","ios":"levelo://app?vid=b28918cc-9bda-43a9-b823-d205bfafd8ab"},"vehicle_type_id":"4","last_reported":1746137355,"current_range_meters":16400,"station_id":"ce4bhop2rcd13ifvqh8g","pricing_plan_id":"cebpf4jnsgd1na2vs0mg"},{"bike_id":"a441347f-6d3e-4ecb-8bf6-73429dab05ee","system_id":"levelo_inurba_marseille","lat":43.30931,"lon":5.40151,"is_reserved":false,"is_disabled":false,"rental_uris":{"android":"levelo://app?vid=a441347f-6d3e-4ecb-8bf6-73429dab05ee","ios":"levelo://app?vid=a441347f-6d3e-4ecb-8bf6-73429dab05ee"},"vehicle_type_id":"4","last_reported":1746137355,"current_range_meters":16800,"station_id":"ce4bgvp2rcd13ifvqct0","pricing_plan_id":"cebpf4jnsgd1na2vs0mg"},{"bike_id":"885ebf4c-7013-4e58-b94d-f7c2f633c0e9","system_id":"levelo_inurba_marseille","lat":43.29897,"lon":5.43672,"is_reserved":false,"is_disabled":false,"rental_uris":{"android":"levelo://app?vid=885ebf4c-7013-4e58-b94d-f7c2f633c0e9","ios":"levelo://app?vid=885ebf4c-7013-4e58-b94d-f7c2f633c0e9"},"vehicle_type_id":"4","last_reported":1746137355,"current_range_meters":16800,"station_id":"ce4bhpp2rcd13ifvqhfg","pricing_plan_id":"cebpf4jnsgd1na2vs0mg"},{"bike_id":"1a710e59-eec6-412d-95d0-5dcd1afcb648","system_id":"levelo_inurba_marseille","lat":43.31364,"lon":5.36694,"is_reserved":false,"is_disabled":false,"rental_uris":{"android":"levelo://app?vid=1a710e59-eec6-412d-95d0-5dcd1afcb648","ios":"levelo://app?vid=1a710e59-eec6-412d-95d0-5dcd1afcb648"},"vehicle_type_id":"4","last_reported":1746137355,"current_range_meters":16400,"station_id":"ce4bgr92rcd13ifvqc6g","pricing_plan_id":"cebpf4jnsgd1na2vs0mg"},{"bike_id":"fff0f618-c472-4903-b0b7-8ffe7b6a8352","system_id":"levelo_inurba_marseille","lat":43.30592,"lon":5.37239,"is_reserved":false,"is_disabled":false,"rental_uris":{"android":"levelo://app?vid=fff0f618-c472-4903-b0b7-8ffe7b6a8352","ios":"levelo://app?vid=fff0f618-c472-4903-b0b7-8ffe7b6a8352"},"vehicle_type_id":"4","last_reported":1746137355,"current_range_meters":17200,"station_id":"ce4bgqh2rcd13ifvqc4g","pricing_plan_id":"cebpf4jnsgd1na2vs0mg"},{"bike_id":"5f561c59-7ec5-491c-9a09-18773e003a96","system_id":"levelo_inurba_marseille","lat":43.30601,"lon":5.37223,"is_reserved":false,"is_disabled":false,"rental_uris":{"android":"levelo://app?vid=5f561c59-7ec5-491c-9a09-18773e003a96","ios":"levelo://app?vid=5f561c59-7ec5-491c-9a09-18773e003a96"},"vehicle_type_id":"4","last_reported":1746137355,"current_range_meters":17200,"station_id":"ce4bgqh2rcd13ifvqc4g","pricing_plan_id":"cebpf4jnsgd1na2vs0mg"},{"bike_id":"af4d5264-7576-40e2-99d8-3c7659230624","system_id":"levelo_inurba_marseille","lat":43.26932,"lon":5.38914,"is_reserved":false,"is_disabled":false,"rental_uris":{"android":"levelo://app?vid=af4d5264-7576-40e2-99d8-3c7659230624","ios":"levelo://app?vid=af4d5264-7576-40e2-99d8-3c7659230624"},"vehicle_type_id":"4","last_reported":1746137355,"current_range_meters":17200,"station_id":"ce4bhhh2rcd13ifvqfl0","pricing_plan_id":"cebpf4jnsgd1na2vs0mg"},{"bike_id":"8e4b47ad-3377-48d7-9c7b-500d2fc41ffa","system_id":"levelo_inurba_marseille","lat":43.33611,"lon":5.41036,"is_reserved":false,"is_disabled":false,"rental_uris":{"android":"levelo://app?vid=8e4b47ad-3377-48d7-9c7b-500d2fc41ffa","ios":"levelo://app?vid=8e4b47ad-3377-48d7-9c7b-500d2fc41ffa"},"vehicle_type_id":"4","last_reported":1746137355,"current_range_meters":17600,"station_id":"ce4bhqh2rcd13ifvqhmg","pricing_plan_id":"cebpf4jnsgd1na2vs0mg"},{"bike_id":"fea90467-7b9b-451d-849d-003674ab8347","system_id":"levelo_inurba_marseille","lat":43.27209,"lon":5.39191,"is_reserved":false,"is_disabled":true,"rental_uris":{"android":"levelo://app?vid=fea90467-7b9b-451d-849d-003674ab8347","ios":"levelo://app?vid=fea90467-7b9b-451d-849d-003674ab8347"},"vehicle_type_id":"4","last_reported":1746137355,"current_range_meters":17200,"station_id":"ce4bhhp2rcd13ifvqfm0","pricing_plan_id":"cebpf4jnsgd1na2vs0mg"},{"bike_id":"da658829-0fa2-41f3-ad48-9d30aae08333","system_id":"levelo_inurba_marseille","lat":43.30542,"lon":5.39946,"is_reserved":false,"is_disabled":false,"rental_uris":{"android":"levelo://app?vid=da658829-0fa2-41f3-ad48-9d30aae08333","ios":"levelo://app?vid=da658829-0fa2-41f3-ad48-9d30aae08333"},"vehicle_type_id":"4","last_reported":1746137355,"current_range_meters":17200,"station_id":"","pricing_plan_id":"cebpf4jnsgd1na2vs0mg"},{"bike_id":"38b512de-66ad-4824-8d38-f5b32115b646","system_id":"levelo_inurba_marseille","lat":43.30885,"lon":5.39615,"is_reserved":false,"is_disabled":false,"rental_uris":{"android":"levelo://app?vid=38b512de-66ad-4824-8d38-f5b32115b646","ios":"levelo://app?vid=38b512de-66ad-4824-8d38-f5b32115b646"},"vehicle_type_id":"4","last_reported":1746137355,"current_range_meters":17200,"station_id":"ce4bh012rcd13ifvqcv0","pricing_plan_id":"cebpf4jnsgd1na2vs0mg"},{"bike_id":"b5f431d2-6627-435a-971a-a344e82f47c9","system_id":"levelo_inurba_marseille","lat":43.30934,"lon":5.40147,"is_reserved":false,"is_disabled":false,"rental_uris":{"android":"levelo://app?vid=b5f431d2-6627-435a-971a-a344e82f47c9","ios":"levelo://app?vid=b5f431d2-6627-435a-971a-a344e82f47c9"},"vehicle_type_id":"4","last_reported":1746137355,"current_range_meters":17200,"station_id":"ce4bgvp2rcd13ifvqct0","pricing_plan_id":"cebpf4jnsgd1na2vs0mg"},{"bike_id":"5df0f82b-f3fc-4428-8539-f9699aeaf67f","system_id":"levelo_inurba_marseille","lat":43.29267,"lon":5.40131,"is_reserved":false,"is_disabled":false,"rental_uris":{"android":"levelo://app?vid=5df0f82b-f3fc-4428-8539-f9699aeaf67f","ios":"levelo://app?vid=5df0f82b-f3fc-4428-8539-f9699aeaf67f"},"vehicle_type_id":"4","last_reported":1746137355,"current_range_meters":17200,"station_id":"ce4bh312rcd13ifvqdk0","pricing_plan_id":"cebpf4jnsgd1na2vs0mg"},{"bike_id":"00eaf16b-f9d2-4f43-83fa-193b0fbbbfe8","system_id":"levelo_inurba_marseille","lat":43.30545,"lon":5.38428,"is_reserved":false,"is_disabled":false,"rental_uris":{"android":"levelo://app?vid=00eaf16b-f9d2-4f43-83fa-193b0fbbbfe8","ios":"levelo://app?vid=00eaf16b-f9d2-4f43-83fa-193b0fbbbfe8"},"vehicle_type_id":"4","last_reported":1746137355,"current_range_meters":17200,"station_id":"ce4bgg92rcd13ifvqb30","pricing_plan_id":"cebpf4jnsgd1na2vs0mg"},{"bike_id":"69992bdf-1ec2-4a5c-acfb-0951b585c476","system_id":"levelo_inurba_marseille","lat":43.31343,"lon":5.36711,"is_reserved":false,"is_disabled":false,"rental_uris":{"android":"levelo://app?vid=69992bdf-1ec2-4a5c-acfb-0951b585c476","ios":"levelo://app?vid=69992bdf-1ec2-4a5c-acfb-0951b585c476"},"vehicle_type_id":"4","last_reported":1746137355,"current_range_meters":17200,"station_id":"ce4bgr92rcd13ifvqc6g","pricing_plan_id":"cebpf4jnsgd1na2vs0mg"},{"bike_id":"7d7dbd5b-55e5-4f58-831a-5431af0d5543","system_id":"levelo_inurba_marseille","lat":43.25116,"lon":5.40318,"is_reserved":false,"is_disabled":false,"rental_uris":{"android":"levelo://app?vid=7d7dbd5b-55e5-4f58-831a-5431af0d5543","ios":"levelo://app?vid=7d7dbd5b-55e5-4f58-831a-5431af0d5543"},"vehicle_type_id":"4","last_reported":1746137355,"current_range_meters":17600,"station_id":"ce4bhlh2rcd13ifvqgig","pricing_plan_id":"cebpf4jnsgd1na2vs0mg"},{"bike_id":"cdb5c586-f81c-4772-a04f-234da526a0f6","system_id":"levelo_inurba_marseille","lat":43.28115,"lon":5.37858,"is_reserved":false,"is_disabled":false,"rental_uris":{"android":"levelo://app?vid=cdb5c586-f81c-4772-a04f-234da526a0f6","ios":"levelo://app?vid=cdb5c586-f81c-4772-a04f-234da526a0f6"},"vehicle_type_id":"4","last_reported":1746137355,"current_range_meters":17600,"station_id":"ce4bha12rcd13ifvqee0","pricing_plan_id":"cebpf4jnsgd1na2vs0mg"},{"bike_id":"2bc95b1b-bdcb-40d6-b304-8b84fb2bac92","system_id":"levelo_inurba_marseille","lat":43.30652,"lon":5.40054,"is_reserved":false,"is_disabled":false,"rental_uris":{"android":"levelo://app?vid=2bc95b1b-bdcb-40d6-b304-8b84fb2bac92","ios":"levelo://app?vid=2bc95b1b-bdcb-40d6-b304-8b84fb2bac92"},"vehicle_type_id":"4","last_reported":1746137355,"current_range_meters":17600,"station_id":"ce4bh112rcd13ifvqda0","pricing_plan_id":"cebpf4jnsgd1na2vs0mg"},{"bike_id":"ef7f07b6-1fd9-432a-a9f2-2b92a583f3b4","system_id":"levelo_inurba_marseille","lat":43.31715,"lon":5.43703,"is_reserved":false,"is_disabled":false,"rental_uris":{"android":"levelo://app?vid=ef7f07b6-1fd9-432a-a9f2-2b92a583f3b4","ios":"levelo://app?vid=ef7f07b6-1fd9-432a-a9f2-2b92a583f3b4"},"vehicle_type_id":"4","last_reported":1746137355,"current_range_meters":17600,"station_id":"ce4bhp92rcd13ifvqhcg","pricing_plan_id":"cebpf4jnsgd1na2vs0mg"},{"bike_id":"2df5fd02-87ab-45e1-835c-dba4ad09927e","system_id":"levelo_inurba_marseille","lat":43.28699,"lon":5.399898,"is_reserved":false,"is_disabled":false,"rental_uris":{"android":"levelo://app?vid=2df5fd02-87ab-45e1-835c-dba4ad09927e","ios":"levelo://app?vid=2df5fd02-87ab-45e1-835c-dba4ad09927e"},"vehicle_type_id":"4","last_reported":1746137355,"current_range_meters":18000,"station_id":"ce4bho92rcd13ifvqh3g","pricing_plan_id":"cebpf4jnsgd1na2vs0mg"},{"bike_id":"1f22c15d-b78e-4d56-9dde-efc3259eb434","system_id":"levelo_inurba_marseille","lat":43.2784,"lon":5.39208,"is_reserved":false,"is_disabled":false,"rental_uris":{"android":"levelo://app?vid=1f22c15d-b78e-4d56-9dde-efc3259eb434","ios":"levelo://app?vid=1f22c15d-b78e-4d56-9dde-efc3259eb434"},"vehicle_type_id":"4","last_reported":1746137355,"current_range_meters":18000,"station_id":"ce4bhjp2rcd13ifvqga0","pricing_plan_id":"cebpf4jnsgd1na2vs0mg"},{"bike_id":"4b2069b6-a1e2-411d-a04c-bc77d00af722","system_id":"levelo_inurba_marseille","lat":43.28569,"lon":5.39486,"is_reserved":false,"is_disabled":false,"rental_uris":{"android":"levelo://app?vid=4b2069b6-a1e2-411d-a04c-bc77d00af722","ios":"levelo://app?vid=4b2069b6-a1e2-411d-a04c-bc77d00af722"},"vehicle_type_id":"4","last_reported":1746137355,"current_range_meters":18000,"station_id":"ce4bh292rcd13ifvqdg0","pricing_plan_id":"cebpf4jnsgd1na2vs0mg"},{"bike_id":"2a0c8c6a-1af9-46e4-80b1-9e4c2597499d","system_id":"levelo_inurba_marseille","lat":43.30599,"lon":5.37216,"is_reserved":false,"is_disabled":false,"rental_uris":{"android":"levelo://app?vid=2a0c8c6a-1af9-46e4-80b1-9e4c2597499d","ios":"levelo://app?vid=2a0c8c6a-1af9-46e4-80b1-9e4c2597499d"},"vehicle_type_id":"4","last_reported":1746137355,"current_range_meters":18000,"station_id":"ce4bgqh2rcd13ifvqc4g","pricing_plan_id":"cebpf4jnsgd1na2vs0mg"},{"bike_id":"14498fc5-0949-4dab-96dd-86f8d2d8b6ad","system_id":"levelo_inurba_marseille","lat":43.310845,"lon":5.424223,"is_reserved":false,"is_disabled":false,"rental_uris":{"android":"levelo://app?vid=14498fc5-0949-4dab-96dd-86f8d2d8b6ad","ios":"levelo://app?vid=14498fc5-0949-4dab-96dd-86f8d2d8b6ad"},"vehicle_type_id":"4","last_reported":1746137355,"current_range_meters":18000,"station_id":"ce4bhp92rcd13ifvqhag","pricing_plan_id":"cebpf4jnsgd1na2vs0mg"},{"bike_id":"62fc1478-ce03-4adc-b678-8c16d589c336","system_id":"levelo_inurba_marseille","lat":43.3112,"lon":5.37757,"is_reserved":false,"is_disabled":false,"rental_uris":{"android":"levelo://app?vid=62fc1478-ce03-4adc-b678-8c16d589c336","ios":"levelo://app?vid=62fc1478-ce03-4adc-b678-8c16d589c336"},"vehicle_type_id":"4","last_reported":1746137355,"current_range_meters":18000,"station_id":"ce4bgt92rcd13ifvqcg0","pricing_plan_id":"cebpf4jnsgd1na2vs0mg"},{"bike_id":"fc4c4e12-8bd1-4978-b004-eee184fc087d","system_id":"levelo_inurba_marseille","lat":43.31687,"lon":5.40429,"is_reserved":false,"is_disabled":false,"rental_uris":{"android":"levelo://app?vid=fc4c4e12-8bd1-4978-b004-eee184fc087d","ios":"levelo://app?vid=fc4c4e12-8bd1-4978-b004-eee184fc087d"},"vehicle_type_id":"4","last_reported":1746137355,"current_range_meters":18000,"station_id":"ce4bh012rcd13ifvqd00","pricing_plan_id":"cebpf4jnsgd1na2vs0mg"},{"bike_id":"ce95be70-9be6-4135-bbf9-03ec2dc887f0","system_id":"levelo_inurba_marseille","lat":43.32285,"lon":5.38282,"is_reserved":false,"is_disabled":false,"rental_uris":{"android":"levelo://app?vid=ce95be70-9be6-4135-bbf9-03ec2dc887f0","ios":"levelo://app?vid=ce95be70-9be6-4135-bbf9-03ec2dc887f0"},"vehicle_type_id":"4","last_reported":1746137355,"current_range_meters":18000,"station_id":"ce4bhr12rcd13ifvqhqg","pricing_plan_id":"cebpf4jnsgd1na2vs0mg"},{"bike_id":"145d0b24-35be-4a46-91fe-a8aa44de497b","system_id":"levelo_inurba_marseille","lat":43.25119,"lon":5.4032,"is_reserved":false,"is_disabled":false,"rental_uris":{"android":"levelo://app?vid=145d0b24-35be-4a46-91fe-a8aa44de497b","ios":"levelo://app?vid=145d0b24-35be-4a46-91fe-a8aa44de497b"},"vehicle_type_id":"4","last_reported":1746137355,"current_range_meters":18000,"station_id":"ce4bhlh2rcd13ifvqgig","pricing_plan_id":"cebpf4jnsgd1na2vs0mg"},{"bike_id":"75708ece-d584-448e-9f9c-fa19c69ca95b","system_id":"levelo_inurba_marseille","lat":43.251225,"lon":5.403197,"is_reserved":false,"is_disabled":false,"rental_uris":{"android":"levelo://app?vid=75708ece-d584-448e-9f9c-fa19c69ca95b","ios":"levelo://app?vid=75708ece-d584-448e-9f9c-fa19c69ca95b"},"vehicle_type_id":"4","last_reported":1746137355,"current_range_meters":18800,"station_id":"ce4bhlh2rcd13ifvqgig","pricing_plan_id":"cebpf4jnsgd1na2vs0mg"},