{"last_updated":1730819385,"ttl":60,"version":"2.2","data":{"bikes":[{"bike_id":"3ff20acc-fac4-484f-997e-58495762fd3d","system_id":"levelo_inurba_marseille","lat":43.32656,"lon":5.40995,"is_reserved":false,"is_disabled":false,"rental_uris":{"android":"levelo://app?vid=3ff20acc-fac4-484f-997e-58495762fd3d","ios":"levelo://app?vid=3ff20acc-fac4-484f-997e-58495762fd3d"},"vehicle_type_id":"4","last_reported":1730819385,"current_range_meters":14000,"station_id":"ce4bhpp2rcd13ifvqhgg","pricing_plan_id":"cebpf4jnsgd1na2vs0mg"},{"bike_id":"dc471b95-6995-431b-ac79-6c433768b500","system_id":"levelo_inurba_marseille","lat":43.27832,"lon":5.39219,"is_reserved":false,"is_disabled":false,"rental_uris":{"android":"levelo://app?vid=dc471b95-6995-431b-ac79-6c433768b500","ios":"levelo://app?vid=dc471b95-6995-431b-ac79-6c433768b500"},"vehicle_type_id":"4","last_reported":1730819385,"current_range_meters":39200,"station_id":"ce4bhjp2rcd13ifvqga0","pricing_plan_id":"cebpf4jnsgd1na2vs0mg"},{"bike_id":"b564df92-2505-47ed-837e-f41cd5b8d8f4","system_id":"levelo_inurba_marseille","lat":43.25086,"lon":5.39529,"is_reserved":false,"is_disabled":false,"rental_uris":{"android":"levelo://app?vid=b564df92-2505-47ed-837e-f41cd5b8d8f4","ios":"levelo://app?vid=b564df92-2505-47ed-837e-f41cd5b8d8f4"},"vehicle_type_id":"4","last_reported":1730819385,"current_range_meters":11600,"station_id":"ce4bhm12rcd13ifvqgkg","pricing_plan_id":"cebpf4jnsgd1na2vs0mg"},{"bike_id":"3675d184-4550-4970-9661-d3d7f50009e5","system_id":"levelo_inurba_marseille","lat":43.313467,"lon":5.367103,"is_reserved":false,"is_disabled":false,"rental_uris":{"android":"levelo://app?vid=3675d184-4550-4970-9661-d3d7f50009e5","ios":"levelo://app?vid=3675d184-4550-4970-9661-d3d7f50009e5"},"vehicle_type_id":"4","last_reported":1730819385,"current_range_meters":22000,"station_id":"ce4bgr92rcd13ifvqc6g","pricing_plan_id":"cebpf4jnsgd1na2vs0mg"},{"bike_id":"2f421261-a528-4395-8a49-c894b9963f0b","system_id":"levelo_inurba_marseille","lat":43.30128,"lon":5.39895,"is_reserved":false,"is_disabled":false,"rental_uris":{"android":"levelo://app?vid=2f421261-a528-4395-8a49-c894b9963f0b","ios":"levelo://app?vid=2f421261-a528-4395-8a49-c894b9963f0b"},"vehicle_type_id":"4","last_reported":1730819385,"current_range_meters":26800,"station_id":"ce4bh0h2rcd13ifvqd40","pricing_plan_id":"cebpf4jnsgd1na2vs0mg"},{"bike_id":"9da73121-e555-4ea3-a869-dd18bdf76051","system_id":"levelo_inurba_marseille","lat":43.29259,"lon":5.36648,"is_reserved":false,"is_disabled":false,"rental_uris":{"android":"levelo://app?vid=9da73121-e555-4ea3-a869-dd18bdf76051","ios":"levelo://app?vid=9da73121-e555-4ea3-a869-dd18bdf76051"},"vehicle_type_id":"4","last_reported":1730819385,"current_range_meters":31200,"station_id":"","pricing_plan_id":"cebpf4jnsgd1na2vs0mg"},{"bike_id":"d2e1ed5f-7842-424f-a5e8-75a9df0949fd","system_id":"levelo_inurba_marseille","lat":43.27997,"lon":5.41661,"is_reserved":false,"is_disabled":false,"rental_uris":{"android":"levelo://app?vid=d2e1ed5f-7842-424f-a5e8-75a9df0949fd","ios":"levelo://app?vid=d2e1ed5f-7842-424f-a5e8-75a9df0949fd"},"vehicle_type_id":"4","last_reported":1730819385,"current_range_meters":26800,"station_id":"ce4bho12rcd13ifvqh1g","pricing_plan_id":"cebpf4jnsgd1na2vs0mg"},{"bike_id":"47188366-9ba1-4e2e-907e-c2a5c3fd8c31","system_id":"levelo_inurba_marseille","lat":43.31362,"lon":5.36708,"is_reserved":false,"is_disabled":false,"rental_uris":{"android":"levelo://app?vid=47188366-9ba1-4e2e-907e-c2a5c3fd8c31","ios":"levelo://app?vid=47188366-9ba1-4e2e-907e-c2a5c3fd8c31"},"vehicle_type_id":"4","last_reported":1730819385,"current_range_meters":38800,"station_id":"ce4bgr92rcd13ifvqc6g","pricing_plan_id":"cebpf4jnsgd1na2vs0mg"},{"bike_id":"81f6b4c0-466f-469e-9440-cacd811d84f3","system_id":"levelo_inurba_marseille","lat":43.24082,"lon":5.37742,"is_reserved":false,"is_disabled":false,"rental_uris":{"android":"levelo://app?vid=81f6b4c0-466f-469e-9440-cacd811d84f3","ios":"levelo://app?vid=81f6b4c0-466f-469e-9440-cacd811d84f3"},"vehicle_type_id":"4","last_reported":1730819385,"current_range_meters":14800,"station_id":"ce4bhnp2rcd13ifvqgvg","pricing_plan_id":"cebpf4jnsgd1na2vs0mg"},{"bike_id":"ff35898a-eff7-4da6-a7ae-99088d6b1e1f","system_id":"levelo_inurba_marseille","lat":43.24992,"lon":5.38935,"is_reserved":false,"is_disabled":false,"rental_uris":{"android":"levelo://app?vid=ff35898a-eff7-4da6-a7ae-99088d6b1e1f","ios":"levelo://app?vid=ff35898a-eff7-4da6-a7ae-99088d6b1e1f"},"vehicle_type_id":"4","last_reported":1730819385,"current_range_meters":17600,"station_id":"ce4bhgp2rcd13ifvqfd0","pricing_plan_id":"cebpf4jnsgd1na2vs0mg"},{"bike_id":"af09d799-a9df-41c4-b436-c13d61a733ed","system_id":"levelo_inurba_marseille","lat":43.2988,"lon":5.3973,"is_reserved":false,"is_disabled":false,"rental_uris":{"android":"levelo://app?vid=af09d799-a9df-41c4-b436-c13d61a733ed","ios":"levelo://app?vid=af09d799-a9df-41c4-b436-c13d61a733ed"},"vehicle_type_id":"4","last_reported":1730819385,"current_range_meters":38800,"station_id":"ce4bh0h2rcd13ifvqd50","pricing_plan_id":"cebpf4jnsgd1na2vs0mg"},{"bike_id":"f1f7cb4e-c7e1-453d-9b9e-a27ce70b6f2c","system_id":"levelo_inurba_marseille","lat":43.28849,"lon":5.39305,"is_reserved":false,"is_disabled":false,"rental_uris":{"android":"levelo://app?vid=f1f7cb4e-c7e1-453d-9b9e-a27ce70b6f2c","ios":"levelo://app?vid=f1f7cb4e-c7e1-453d-9b9e-a27ce70b6f2c"},"vehicle_type_id":"4","last_reported":1730819385,"current_range_meters":8800,"station_id":"ce4bh2p2rcd13ifvqdi0","pricing_plan_id":"cebpf4jnsgd1na2vs0mg"},{"bike_id":"4147bbfb-4b14-4aca-b782-8ec6c0473609","system_id":"levelo_inurba_marseille","lat":43.23598,"lon":5.403473,"is_reserved":false,"is_disabled":false,"rental_uris":{"android":"levelo://app?vid=4147bbfb-4b14-4aca-b782-8ec6c0473609","ios":"levelo://app?vid=4147bbfb-4b14-4aca-b782-8ec6c0473609"},"vehicle_type_id":"4","last_reported":1730819385,"current_range_meters":8000,"station_id":"","pricing_plan_id":"cebpf4jnsgd1na2vs0mg"},{"bike_id":"485245ca-c96f-4de3-900d-6703dd4751d3","system_id":"levelo_inurba_marseille","lat":43.27995,"lon":5.4166,"is_reserved":false,"is_disabled":false,"rental_uris":{"android":"levelo://app?vid=485245ca-c96f-4de3-900d-6703dd4751d3","ios":"levelo://app?vid=485245ca-c96f-4de3-900d-6703dd4751d3"},"vehicle_type_id":"4","last_reported":1730819385,"current_range_meters":22400,"station_id":"ce4bho12rcd13ifvqh1g","pricing_plan_id":"cebpf4jnsgd1na2vs0mg"},{"bike_id":"fa66adb8-19da-4b56-aeb9-ccf1206b3e1e","system_id":"levelo_inurba_marseille","lat":43.32369,"lon":5.3677,"is_reserved":false,"is_disabled":false,"rental_uris":{"android":"levelo://app?vid=fa66adb8-19da-4b56-aeb9-ccf1206b3e1e","ios":"levelo://app?vid=fa66adb8-19da-4b56-aeb9-ccf1206b3e1e"},"vehicle_type_id":"4","last_reported":1730819385,"current_range_meters":34000,"station_id":"ce4bhsh2rcd13ifvqi2g","pricing_plan_id":"cebpf4jnsgd1na2vs0mg"},{"bike_id":"7a86bd00-3142-474a-805c-1ea625cc93e7","system_id":"levelo_inurba_marseille","lat":43.3088,"lon":5.39651,"is_reserved":false,"is_disabled":false,"rental_uris":{"android":"levelo://app?vid=7a86bd00-3142-474a-805c-1ea625cc93e7","ios":"levelo://app?vid=7a86bd00-3142-474a-805c-1ea625cc93e7"},"vehicle_type_id":"4","last_reported":1730819385,"current_range_meters":28000,"station_id":"ce4bh012rcd13ifvqcv0","pricing_plan_id":"cebpf4jnsgd1na2vs0mg"},{"bike_id":"2163408b-addd-4c14-980d-0d8f2369a6bb","system_id":"levelo_inurba_marseille","lat":43.27204,"lon":5.39178,"is_reserved":false,"is_disabled":false,"rental_uris":{"android":"levelo://app?vid=2163408b-addd-4c14-980d-0d8f2369a6bb","ios":"levelo://app?vid=2163408b-addd-4c14-980d-0d8f2369a6bb"},"vehicle_type_id":"4","last_reported":1730819385,"current_range_meters":24000,"station_id":"ce4bhhp2rcd13ifvqfm0","pricing_plan_id":"cebpf4jnsgd1na2vs0mg"},{"bike_id":"a7d914e2-9978-4ed1-9150-9e9054391d47","system_id":"levelo_inurba_marseille","lat":43.25111,"lon":5.40325,"is_reserved":false,"is_disabled":false,"rental_uris":{"android":"levelo://app?vid=a7d914e2-9978-4ed1-9150-9e9054391d47","ios":"levelo://app?vid=a7d914e2-9978-4ed1-9150-9e9054391d47"},"vehicle_type_id":"4","last_reported":1730819385,"current_range_meters":16000,"station_id":"ce4bhlh2rcd13ifvqgig","pricing_plan_id":"cebpf4jnsgd1na2vs0mg"},{"bike_id":"228dc7fc-1f06-43b0-9fef-1bc0d3b00180","system_id":"levelo_inurba_marseille","lat":43.3108,"lon":5.42432,"is_reserved":false,"is_disabled":false,"rental_uris":{"android":"levelo://app?vid=228dc7fc-1f06-43b0-9fef-1bc0d3b00180","ios":"levelo://app?vid=228dc7fc-1f06-43b0-9fef-1bc0d3b00180"},"vehicle_type_id":"4","last_reported":1730819385,"current_range_meters":24400,"station_id":"ce4bhp92rcd13ifvqhag","pricing_plan_id":"cebpf4jnsgd1na2vs0mg"},{"bike_id":"5ad3f732-7e23-4ad9-b57d-10c8736d4e8f","system_id":"levelo_inurba_marseille","lat":43.32482,"lon":5.36571,"is_reserved":false,"is_disabled":false,"rental_uris":{"android":"levelo://app?vid=5ad3f732-7e23-4ad9-b57d-10c8736d4e8f","ios":"levelo://app?vid=5ad3f732-7e23-4ad9-b57d-10c8736d4e8f"},"vehicle_type_id":"4","last_reported":1730819385,"current_range_meters":18000,"station_id":"ce4bhs12rcd13ifvqhvg","pricing_plan_id":"cebpf4jnsgd1na2vs0mg"},{"bike_id":"81849ddd-5569-4074-96df-48d4d5dfe474","system_id":"levelo_inurba_marseille","lat":43.34143,"lon":5.40907,"is_reserved":false,"is_disabled":false,"rental_uris":{"android":"levelo://app?vid=81849ddd-5569-4074-96df-48d4d5dfe474","ios":"levelo://app?vid=81849ddd-5569-4074-96df-48d4d5dfe474"},"vehicle_type_id":"4","last_reported":1730819385,"current_range_meters":38800,"station_id":"ce4bhqh2rcd13ifvqhlg","pricing_plan_id":"cebpf4jnsgd1na2vs0mg"},{"bike_id":"a0b76f41-59fc-4a6b-861a-43a84a9e7078","system_id":"levelo_inurba_marseille","lat":43.30883,"lon":5.39648,"is_reserved":false,"is_disabled":false,"rental_uris":{"android":"levelo://app?vid=a0b76f41-59fc-4a6b-861a-43a84a9e7078","ios":"levelo://app?vid=a0b76f41-59fc-4a6b-861a-43a84a9e7078"},"vehicle_type_id":"4","last_reported":1730819385,"current_range_meters":39200,"station_id":"ce4bh012rcd13ifvqcv0","pricing_plan_id":"cebpf4jnsgd1na2vs0mg"},{"bike_id":"35d46972-faca-4525-a2d2-3f928f24f16c","system_id":"levelo_inurba_marseille","lat":43.24168,"lon":5.36402,"is_reserved":false,"is_disabled":false,"rental_uris":{"android":"levelo://app?vid=35d46972-faca-4525-a2d2-3f928f24f16c","ios":"levelo://app?vid=35d46972-faca-4525-a2d2-3f928f24f16c"},"vehicle_type_id":"4","last_reported":1730819385,"current_range_meters":36800,"station_id":"cpo36qri1sfpv3e86is0","pricing_plan_id":"cebpf4jnsgd1na2vs0mg"},{"bike_id":"3da4622c-c31c-40d3-8aab-c802043c4fb2","system_id":"levelo_inurba_marseille","lat":43.24074,"lon":5.37751,"is_reserved":false,"is_disabled":false,"rental_uris":{"android":"levelo://app?vid=3da4622c-c31c-40d3-8aab-c802043c4fb2","ios":"levelo://app?vid=3da4622c-c31c-40d3-8aab-c802043c4fb2"},"vehicle_type_id":"4","last_reported":1730819385,"current_range_meters":39200,"station_id":"ce4bhnp2rcd13ifvqgvg","pricing_plan_id":"cebpf4jnsgd1na2vs0mg"},{"bike_id":"5dd69277-f902-4ac3-b3c9-3d10695ffbfc","system_id":"levelo_inurba_marseille","lat":43.30086,"lon":5.39072,"is_reserved":false,"is_disabled":false,"rental_uris":{"android":"levelo://app?vid=5dd69277-f902-4ac3-b3c9-3d10695ffbfc","ios":"levelo://app?vid=5dd69277-f902-4ac3-b3c9-3d10695ffbfc"},"vehicle_type_id":"4","last_reported":1730819385,"current_range_meters":36800,"station_id":"ce4bh192rcd13ifvqdb0","pricing_plan_id":"cebpf4jnsgd1na2vs0mg"},{"bike_id":"2c0e31bc-4c36-4147-bfa1-5a31b0a75009","system_id":"levelo_inurba_marseille","lat":43.29223,"lon":5.36052,"is_reserved":false,"is_disabled":false,"rental_uris":{"android":"levelo://app?vid=2c0e31bc-4c36-4147-bfa1-5a31b0a75009","ios":"levelo://app?vid=2c0e31bc-4c36-4147-bfa1-5a31b0a75009"},"vehicle_type_id":"4","last_reported":1730819385,"current_range_meters":38000,"station_id":"ce4bhbh2rcd13ifvqeqg","pricing_plan_id":"cebpf4jnsgd1na2vs0mg"},{"bike_id":"d68dcc90-423f-4108-9fee-9e697effa791","system_id":"levelo_inurba_marseille","lat":43.24075,"lon":5.37761,"is_reserved":false,"is_disabled":false,"rental_uris":{"android":"levelo://app?vid=d68dcc90-423f-4108-9fee-9e697effa791","ios":"levelo://app?vid=d68dcc90-423f-4108-9fee-9e697effa791"},"vehicle_type_id":"4","last_reported":1730819385,"current_range_meters":35200,"station_id":"ce4bhnp2rcd13ifvqgvg","pricing_plan_id":"cebpf4jnsgd1na2vs0mg"},{"bike_id":"d01dcea9-20b3-40b7-997a-4c8f92a44f03","system_id":"levelo_inurba_marseille","lat":43.2919,"lon":5.35819,"is_reserved":false,"is_disabled":false,"rental_uris":{"android":"levelo://app?vid=d01dcea9-20b3-40b7-997a-4c8f92a44f03","ios":"levelo://app?vid=d01dcea9-20b3-40b7-997a-4c8f92a44f03"},"vehicle_type_id":"4","last_reported":1730819385,"current_range_meters":10800,"station_id":"ce4bhb12rcd13ifvqel0","pricing_plan_id":"cebpf4jnsgd1na2vs0mg"},{"bike_id":"ddfa70a9-9d32-48ef-99b7-f4cb9b41791d","system_id":"levelo_inurba_marseille","lat":43.24068,"lon":5.37755,"is_reserved":false,"is_disabled":false,"rental_uris":{"android":"levelo://app?vid=ddfa70a9-9d32-48ef-99b7-f4cb9b41791d","ios":"levelo://app?vid=ddfa70a9-9d32-48ef-99b7-f4cb9b41791d"},"vehicle_type_id":"4","last_reported":1730819385,"current_range_meters":9200,"station_id":"ce4bhnp2rcd13ifvqgvg","pricing_plan_id":"cebpf4jnsgd1na2vs0mg"},{"bike_id":"4f340f38-9133-4860-a747-a193197922b7","system_id":"levelo_inurba_marseille","lat":43.29615,"lon":5.37732,"is_reserved":false,"is_disabled":false,"rental_uris":{"android":"levelo://app?vid=4f340f38-9133-4860-a747-a193197922b7","ios":"levelo://app?vid=4f340f38-9133-4860-a747-a193197922b7"},"vehicle_type_id":"4","last_reported":1730819385,"current_range_meters":38400,"station_id":"ce4bgi92rcd13ifvqb90","pricing_plan_id":"cebpf4jnsgd1na2vs0mg"},{"bike_id":"51b0cc7e-772d-41e9-97a0-b689f0d0604e","system_id":"levelo_inurba_marseille","lat":43.31332,"lon":5.36727,"is_reserved":false,"is_disabled":false,"rental_uris":{"android":"levelo://app?vid=51b0cc7e-772d-41e9-97a0-b689f0d0604e","ios":"levelo://app?vid=51b0cc7e-772d-41e9-97a0-b689f0d0604e"},"vehicle_type_id":"4","last_reported":1730819385,"current_range_meters":38400,"station_id":"ce4bgr92rcd13ifvqc6g","pricing_plan_id":"cebpf4jnsgd1na2vs0mg"},{"bike_id":"46c4ccb3-6093-4bb4-b793-aa3d3d868d27","system_id":"levelo_inurba_marseille","lat":43.273763,"lon":5.362578,"is_reserved":false,"is_disabled":false,"rental_uris":{"android":"levelo://app?vid=46c4ccb3-6093-4bb4-b793-aa3d3d868d27","ios":"levelo://app?vid=46c4ccb3-6093-4bb4-b793-aa3d3d868d27"},"vehicle_type_id":"4","last_reported":1730819385,"current_range_meters":22400,"station_id":"ce4bhbh2rcd13ifvqeo0","pricing_plan_id":"cebpf4jnsgd1na2vs0mg"},{"bike_id":"b7714781-d668-438d-8d4e-7166167a7e37","system_id":"levelo_inurba_marseille","lat":43.23182,"lon":5.39981,"is_reserved":false,"is_disabled":false,"rental_uris":{"android":"levelo://app?vid=b7714781-d668-438d-8d4e-7166167a7e37","ios":"levelo://app?vid=b7714781-d668-438d-8d4e-7166167a7e37"},"vehicle_type_id":"4","last_reported":1730819385,"current_range_meters":26000,"station_id":"ce4bhn12rcd13ifvqgqg","pricing_plan_id":"cebpf4jnsgd1na2vs0mg"},{"bike_id":"a0bf2373-c535-4a1a-87d4-543381e36de5","system_id":"levelo_inurba_marseille","lat":43.28105,"lon":5.37836,"is_reserved":false,"is_disabled":false,"rental_uris":{"android":"levelo://app?vid=a0bf2373-c535-4a1a-87d4-543381e36de5","ios":"levelo://app?vid=a0bf2373-c535-4a1a-87d4-543381e36de5"},"vehicle_type_id":"4","last_reported":1730819385,"current_range_meters":18800,"station_id":"ce4bha12rcd13ifvqee0","pricing_plan_id":"cebpf4jnsgd1na2vs0mg"},{"bike_id":"f12f8e28-db20-484f-852b-432023147ae9","system_id":"levelo_inurba_marseille","lat":43.31694,"lon":5.40469,"is_reserved":false,"is_disabled":false,"rental_uris":{"android":"levelo://app?vid=f12f8e28-db20-484f-852b-432023147ae9","ios":"levelo://app?vid=f12f8e28-db20-484f-852b-432023147ae9"},"vehicle_type_id":"4","last_reported":1730819385,"current_range_meters":38800,"station_id":"ce4bh012rcd13ifvqd00","pricing_plan_id":"cebpf4jnsgd1na2vs0mg"},{"bike_id":"66763ec3-12b4-4cea-8c5a-281777e2d641","system_id":"levelo_inurba_marseille","lat":43.27917,"lon":5.39577,"is_reserved":false,"is_disabled":false,"rental_uris":{"android":"levelo://app?vid=66763ec3-12b4-4cea-8c5a-281777e2d641","ios":"levelo://app?vid=66763ec3-12b4-4cea-8c5a-281777e2d641"},"vehicle_type_id":"4","last_reported":1730819385,"current_range_meters":12400,"station_id":"ce4bhf92rcd13ifvqf40","pricing_plan_id":"cebpf4jnsgd1na2vs0mg"},{"bike_id":"30a5d233-5952-4e23-89ea-0df46bf15fff","system_id":"levelo_inurba_marseille","lat":43.32659,"lon":5.40993,"is_reserved":false,"is_disabled":false,"rental_uris":{"android":"levelo://app?vid=30a5d233-5952-4e23-89ea-0df46bf15fff","ios":"levelo://app?vid=30a5d233-5952-4e23-89ea-0df46bf15fff"},"vehicle_type_id":"4","last_reported":1730819385,"current_range_meters":19200,"station_id":"ce4bhpp2rcd13ifvqhgg","pricing_plan_id":"cebpf4jnsgd1na2vs0mg"},{"bike_id":"bbacf2f5-f404-4556-9a36-3b785fd95699","system_id":"levelo_inurba_marseille","lat":43.31224,"lon":5.36848,"is_reserved":false,"is_disabled":false,"rental_uris":{"android":"levelo://app?vid=bbacf2f5-f404-4556-9a36-3b785fd95699","ios":"levelo://app?vid=bbacf2f5-f404-4556-9a36-3b785fd95699"},"vehicle_type_id":"4","last_reported":1730819385,"current_range_meters":38800,"station_id":"ce4bgl92rcd13ifvqbq0","pricing_plan_id":"cebpf4jnsgd1na2vs0mg"},{"bike_id":"0fb9819f-f5ed-4bc1-9006-4b1ad7d9b36e","system_id":"levelo_inurba_marseille","lat":43.32477,"lon":5.36579,"is_reserved":false,"is_disabled":false,"rental_uris":{"android":"levelo://app?vid=0fb9819f-f5ed-4bc1-9006-4b1ad7d9b36e","ios":"levelo://app?vid=0fb9819f-f5ed-4bc1-9006-4b1ad7d9b36e"},"vehicle_type_id":"4","last_reported":1730819385,"current_range_meters":12400,"station_id":"ce4bhs12rcd13ifvqhvg","pricing_plan_id":"cebpf4jnsgd1na2vs0mg"},{"bike_id":"42163e3e-5009-401f-a1ce-f09eb7e2a510","system_id":"levelo_inurba_marseille","lat":43.31323,"lon":5.39699,"is_reserved":false,"is_disabled":false,"rental_uris":{"android":"levelo://app?vid=42163e3e-5009-401f-a1ce-f09eb7e2a510","ios":"levelo://app?vid=42163e3e-5009-401f-a1ce-f09eb7e2a510"},"vehicle_type_id":"4","last_reported":1730819385,"current_range_meters":39200,"station_id":"ce4bgvp2rcd13ifvqcu0","pricing_plan_id":"cebpf4jnsgd1na2vs0mg"},{"bike_id":"80c2ac0f-679e-467a-a1cd-db279f9f8bf2","system_id":"levelo_inurba_marseille","lat":43.28847,"lon":5.39337,"is_reserved":false,"is_disabled":false,"rental_uris":{"android":"levelo://app?vid=80c2ac0f-679e-467a-a1cd-db279f9f8bf2","ios":"levelo://app?vid=80c2ac0f-679e-467a-a1cd-db279f9f8bf2"},"vehicle_type_id":"4","last_reported":1730819385,"current_range_meters":8000,"station_id":"ce4bh2p2rcd13ifvqdi0","pricing_plan_id":"cebpf4jnsgd1na2vs0mg"},{"bike_id":"5a193493-88e6-49a7-8b04-a10572619a84","system_id":"levelo_inurba_marseille","lat":43.32049,"lon":5.41546,"is_reserved":false,"is_disabled":false,"rental_uris":{"android":"levelo://app?vid=5a193493-88e6-49a7-8b04-a10572619a84","ios":"levelo://app?vid=5a193493-88e6-49a7-8b04-a10572619a84"},"vehicle_type_id":"4","last_reported":1730819385,"current_range_meters":38400,"station_id":"ce4bhq92rcd13ifvqhkg","pricing_plan_id":"cebpf4jnsgd1na2vs0mg"},{"bike_id":"92cce589-c60b-43c6-b4d1-5b81657c9280","system_id":"levelo_inurba_marseille","lat":43.30884,"lon":5.39642,"is_reserved":false,"is_disabled":false,"rental_uris":{"android":"levelo://app?vid=92cce589-c60b-43c6-b4d1-5b81657c9280","ios":"levelo://app?vid=92cce589-c60b-43c6-b4d1-5b81657c9280"},"vehicle_type_id":"4","last_reported":1730819385,"current_range_meters":27600,"station_id":"ce4bh012rcd13ifvqcv0","pricing_plan_id":"cebpf4jnsgd1na2vs0mg"},{"bike_id":"037eaf0f-9112-47d3-aa8d-7a0ef0d58625","system_id":"levelo_inurba_marseille","lat":43.24167,"lon":5.36388,"is_reserved":false,"is_disabled":false,"rental_uris":{"android":"levelo://app?vid=037eaf0f-9112-47d3-aa8d-7a0ef0d58625","ios":"levelo://app?vid=037eaf0f-9112-47d3-aa8d-7a0ef0d58625"},"vehicle_type_id":"4","last_reported":1730819385,"current_range_meters":37600,"station_id":"cpo36qri1sfpv3e86is0","pricing_plan_id":"cebpf4jnsgd1na2vs0mg"},{"bike_id":"897c072c-0d21-44b6-b843-663f492b8dc4","system_id":"levelo_inurba_marseille","lat":43.25113,"lon":5.40323,"is_reserved":false,"is_disabled":false,"rental_uris":{"android":"levelo://app?vid=897c072c-0d21-44b6-b843-663f492b8dc4","ios":"levelo://app?vid=897c072c-0d21-44b6-b843-663f492b8dc4"},"vehicle_type_id":"4","last_reported":1730819385,"current_range_meters":38800,"station_id":"ce4bhlh2rcd13ifvqgig","pricing_plan_id":"cebpf4jnsgd1na2vs0mg"},{"bike_id":"a6db009e-4816-427d-9119-b93763dc9b3e","system_id":"levelo_inurba_marseille","lat":43.29036,"lon":5.3756,"is_reserved":false,"is_disabled":false,"rental_uris":{"android":"levelo://app?vid=a6db009e-4816-427d-9119-b93763dc9b3e","ios":"levelo://app?vid=a6db009e-4816-427d-9119-b93763dc9b3e"},"vehicle_type_id":"4","last_reported":1730819385,"current_range_meters":38400,"station_id":"ce4bh692rcd13ifvqe90","pricing_plan_id":"cebpf4jnsgd1na2vs0mg"},{"bike_id":"8d73d407-d8b0-4d37-baa7-1360aee28216","system_id":"levelo_inurba_marseille","lat":43.29036,"lon":5.37562,"is_reserved":false,"is_disabled":false,"rental_uris":{"android":"levelo://app?vid=8d73d407-d8b0-4d37-baa7-1360aee28216","ios":"levelo://app?vid=8d73d407-d8b0-4d37-baa7-1360aee28216"},"vehicle_type_id":"4","last_reported":1730819385,"current_range_meters":37600,"station_id":"ce4bh692rcd13ifvqe90","pricing_plan_id":"cebpf4jnsgd1na2vs0mg"},{"bike_id":"61795143-2f1b-42cf-b4c0-a09e32c0b4b0","system_id":"levelo_inurba_marseille","lat":43.292053,"lon":5.358821,"is_reserved":false,"is_disabled":false,"rental_uris":{"android":"levelo://app?vid=61795143-2f1b-42cf-b4c0-a09e32c0b4b0","ios":"levelo://app?vid=61795143-2f1b-42cf-b4c0-a09e32c0b4b0"},"vehicle_type_id":"4","last_reported":1730819385,"current_range_meters":22000,"station_id":"ce4bhb12rcd13ifvqel0","pricing_plan_id":"cebpf4jnsgd1na2vs0mg"},{"bike_id":"acdea68a-7783-4908-bf21-09a59a510c29","system_id":"levelo_inurba_marseille","lat":43.31352,"lon":5.36735,"is_reserved":false,"is_disabled":false,"rental_uris":{"android":"levelo://app?vid=acdea68a-7783-4908-bf21-09a59a510c29","ios":"levelo://app?vid=acdea68a-7783-4908-bf21-09a59a510c29"},"vehicle_type_id":"4","last_reported":1730819385,"current_range_meters":24400,"station_id":"ce4bgr92rcd13ifvqc6g","pricing_plan_id":"cebpf4jnsgd1na2vs0mg"},{"bike_id":"639640f3-500d-4fb5-a8a7-8eb9153b5ced","system_id":"levelo_inurba_marseille","lat":43.298615,"lon":5.397294,"is_reserved":false,"is_disabled":false,"rental_uris":{"android":"levelo://app?vid=639640f3-500d-4fb5-a8a7-8eb9153b5ced","ios":"levelo://app?vid=639640f3-500d-4fb5-a8a7-8eb9153b5ced"},"vehicle_type_id":"4","last_reported":1730819385,"current_range_meters":8000,"station_id":"ce4bh0h2rcd13ifvqd50","pricing_plan_id":"cebpf4jnsgd1na2vs0mg"},{"bike_id":"2208cd18-b7e1-4d15-8a96-477d4e7ba53c","system_id":"levelo_inurba_marseille","lat":43.29896,"lon":5.43665,"is_reserved":false,"is_disabled":false,"rental_uris":{"android":"levelo://app?vid=2208cd18-b7e1-4d15-8a96-477d4e7ba53c","ios":"levelo://app?vid=2208cd18-b7e1-4d15-8a96-477d4e7ba53c"},"vehicle_type_id":"4","last_reported":1730819385,"current_range_meters":33200,"station_id":"ce4bhpp2rcd13ifvqhfg","pricing_plan_id":"cebpf4jnsgd1na2vs0mg"},{"bike_id":"0ff3f770-9614-4246-857d-4d0c92bda923","system_id":"levelo_inurba_marseille","lat":43.31221,"lon":5.36862,"is_reserved":false,"is_disabled":false,"rental_uris":{"android":"levelo://app?vid=0ff3f770-9614-4246-857d-4d0c92bda923","ios":"levelo://app?vid=0ff3f770-9614-4246-857d-4d0c92bda923"},"vehicle_type_id":"4","last_reported":1730819385,"current_range_meters":18000,"station_id":"ce4bgl92rcd13ifvqbq0","pricing_plan_id":"cebpf4jnsgd1na2vs0mg"},{"bike_id":"7136708c-95fa-4d0b-bd2d-9a9cbac37cfa","system_id":"levelo_inurba_marseille","lat":43.2987,"lon":5.38918,"is_reserved":false,"is_disabled":false,"rental_uris":{"android":"levelo://app?vid=7136708c-95fa-4d0b-bd2d-9a9cbac37cfa","ios":"levelo://app?vid=7136708c-95fa-4d0b-bd2d-9a9cbac37cfa"},"vehicle_type_id":"4","last_reported":1730819385,"current_range_meters":28400,"station_id":"ce4bh392rcd13ifvqdl0","pricing_plan_id":"cebpf4jnsgd1na2vs0mg"},{"bike_id":"89bbc737-1a0d-4b95-81d6-637e227eb3bc","system_id":"levelo_inurba_marseille","lat":43.32045,"lon":5.41556,"is_reserved":false,"is_disabled":false,"rental_uris":{"android":"levelo://app?vid=89bbc737-1a0d-4b95-81d6-637e227eb3bc","ios":"levelo://app?vid=89bbc737-1a0d-4b95-81d6-637e227eb3bc"},"vehicle_type_id":"4","last_reported":1730819385,"current_range_meters":38400,"station_id":"ce4bhq92rcd13ifvqhkg","pricing_plan_id":"cebpf4jnsgd1na2vs0mg"},{"bike_id":"0b9562ff-9204-4ea2-87ba-1b7fd38a10e2","system_id":"levelo_inurba_marseille","lat":43.25863,"lon":5.39899,"is_reserved":false,"is_disabled":false,"rental_uris":{"android":"levelo://app?vid=0b9562ff-9204-4ea2-87ba-1b7fd38a10e2","ios":"levelo://app?vid=0b9562ff-9204-4ea2-87ba-1b7fd38a10e2"},"vehicle_type_id":"4","last_reported":1730819385,"current_range_meters":28400,"station_id":"ce4bhl92rcd13ifvqghg","pricing_plan_id":"cebpf4jnsgd1na2vs0mg"},{"bike_id":"01308cce-3395-43cf-a8fa-5d21c2b9dcd5","system_id":"levelo_inurba_marseille","lat":43.29,"lon":5.35609,"is_reserved":false,"is_disabled":false,"rental_uris":{"android":"levelo://app?vid=01308cce-3395-43cf-a8fa-5d21c2b9dcd5","ios":"levelo://app?vid=01308cce-3395-43cf-a8fa-5d21c2b9dcd5"},"vehicle_type_id":"4","last_reported":1730819385,"current_range_meters":12000,"station_id":"ce4bhb92rcd13ifvqen0","pricing_plan_id":"cebpf4jnsgd1na2vs0mg"},{"bike_id":"fc370af9-4723-4589-bd34-43e0e367fb35","system_id":"levelo_inurba_marseille","lat":43.26805,"lon":5.40262,"is_reserved":false,"is_disabled":false,"rental_uris":{"android":"levelo://app?vid=fc370af9-4723-4589-bd34-43e0e367fb35","ios":"levelo://app?vid=fc370af9-4723-4589-bd34-43e0e367fb35"},"vehicle_type_id":"4","last_reported":1730819385,"current_range_meters":38800,"station_id":"ce501612rcd8frsf0b60","pricing_plan_id":"cebpf4jnsgd1na2vs0mg"},{"bike_id":"2f1ed348-6b9e-4fe0-bb86-e945ca93fcc3","system_id":"levelo_inurba_marseille","lat":43.3014,"lon":5.381065,"is_reserved":false,"is_disabled":false,"rental_uris":{"android":"levelo://app?vid=2f1ed348-6b9e-4fe0-bb86-e945ca93fcc3","ios":"levelo://app?vid=2f1ed348-6b9e-4fe0-bb86-e945ca93fcc3"},"vehicle_type_id":"4","last_reported":1730819385,"current_range_meters":6400,"station_id":"ce4bgjp2rcd13ifvqbh0","pricing_plan_id":"cebpf4jnsgd1na2vs0mg"},{"bike_id":"9144c157-634d-4240-9c41-6d80b65ff913","system_id":"levelo_inurba_marseille","lat":43.30538,"lon":5.3653,"is_reserved":false,"is_disabled":false,"rental_uris":{"android":"levelo://app?vid=9144c157-634d-4240-9c41-6d80b65ff913","ios":"levelo://app?vid=9144c157-634d-4240-9c41-6d80b65ff913"},"vehicle_type_id":"4","last_reported":1730819385,"current_range_meters":30000,"station_id":"ce4bgs12rcd13ifvqcag","pricing_plan_id":"cebpf4jnsgd1na2vs0mg"},{"bike_id":"de9bc7da-0805-4f2e-a638-6f594e31fc19","system_id":"levelo_inurba_marseille","lat":43.23152,"lon":5.43703,"is_reserved":false,"is_disabled":false,"rental_uris":{"android":"levelo://app?vid=de9bc7da-0805-4f2e-a638-6f594e31fc19","ios":"levelo://app?vid=de9bc7da-0805-4f2e-a638-6f594e31fc19"},"vehicle_type_id":"4","last_reported":1730819385,"current_range_meters":21600,"station_id":"ce4bhmp2rcd13ifvqgog","pricing_plan_id":"cebpf4jnsgd1na2vs0mg"},{"bike_id":"327d5b02-2c8e-47d2-9ffb-de47f92b0dcc","system_id":"levelo_inurba_marseille","lat":43.25581,"lon":5.3824,"is_reserved":false,"is_disabled":false,"rental_uris":{"android":"levelo://app?vid=327d5b02-2c8e-47d2-9ffb-de47f92b0dcc","ios":"levelo://app?vid=327d5b02-2c8e-47d2-9ffb-de47f92b0dcc"},"vehicle_type_id":"4","last_reported":1730819385,"current_range_meters":16800,"station_id":"ce4bhih2rcd13ifvqfs0","pricing_plan_id":"cebpf4jnsgd1na2vs0mg"},{"bike_id":"f5de9bbd-d9e2-4264-97ea-fc1237242918","system_id":"levelo_inurba_marseille","lat":43.293701,"lon":5.388826,"is_reserved":false,"is_disabled":false,"rental_uris":{"android":"levelo://app?vid=f5de9bbd-d9e2-4264-97ea-fc1237242918","ios":"levelo://app?vid=f5de9bbd-d9e2-4264-97ea-fc1237242918"},"vehicle_type_id":"4","last_reported":1730819385,"current_range_meters":20400,"station_id":"ce4bh292rcd13ifvqdg0","pricing_plan_id":"cebpf4jnsgd1na2vs0mg"},{"bike_id":"6edcb5d2-dbf0-49f4-9f8b-5d93ccae943e","system_id":"levelo_inurba_marseille","lat":43.279058,"lon":5.380141,"is_reserved":false,"is_disabled":false,"rental_uris":{"android":"levelo://app?vid=6edcb5d2-dbf0-49f4-9f8b-5d93ccae943e","ios":"levelo://app?vid=6edcb5d2-dbf0-49f4-9f8b-5d93ccae943e"},"vehicle_type_id":"4","last_reported":1730819385,"current_range_meters":28000,"station_id":"ce4bhf92rcd13ifvqf50","pricing_plan_id":"cebpf4jnsgd1na2vs0mg"},{"bike_id":"f38b74f1-091f-4a53-be86-f11ff6a2b03b","system_id":"levelo_inurba_marseille","lat":43.24075,"lon":5.37749,"is_reserved":false,"is_disabled":false,"rental_uris":{"android":"levelo://app?vid=f38b74f1-091f-4a53-be86-f11ff6a2b03b","ios":"levelo://app?vid=f38b74f1-091f-4a53-be86-f11ff6a2b03b"},"vehicle_type_id":"4","last_reported":1730819385,"current_range_meters":36000,"station_id":"ce4bhnp2rcd13ifvqgvg","pricing_plan_id":"cebpf4jnsgd1na2vs0mg"},{"bike_id":"4e658723-c4b6-4282-9868-0cfb48a0be2e","system_id":"levelo_inurba_marseille","lat":43.29864,"lon":5.39736,"is_reserved":false,"is_disabled":false,"rental_uris":{"android":"levelo://app?vid=4e658723-c4b6-4282-9868-0cfb48a0be2e","ios":"levelo://app?vid=4e658723-c4b6-4282-9868-0cfb48a0be2e"},"vehicle_type_id":"4","last_reported":1730819385,"current_range_meters":36000,"station_id":"ce4bh0h2rcd13ifvqd50","pricing_plan_id":"cebpf4jnsgd1na2vs0mg"},{"bike_id":"8fd80f08-482a-4456-a82a-b7aa1b9d0616","system_id":"levelo_inurba_marseille","lat":43.29925,"lon":5.37461,"is_reserved":false,"is_disabled":false,"rental_uris":{"android":"levelo://app?vid=8fd80f08-482a-4456-a82a-b7aa1b9d0616","ios":"levelo://app?vid=8fd80f08-482a-4456-a82a-b7aa1b9d0616"},"vehicle_type_id":"4","last_reported":1730819385,"current_range_meters":38400,"station_id":"ce4bgjh2rcd13ifvqbg0","pricing_plan_id":"cebpf4jnsgd1na2vs0mg"},{"bike_id":"5eeefd11-649c-499f-9856-2a20cd33e6cb","system_id":"levelo_inurba_marseille","lat":43.30544,"lon":5.36707,"is_reserved":false,"is_disabled":false,"rental_uris":{"android":"levelo://app?vid=5eeefd11-649c-499f-9856-2a20cd33e6cb","ios":"levelo://app?vid=5eeefd11-649c-499f-9856-2a20cd33e6cb"},"vehicle_type_id":"4","last_reported":1730819385,"current_range_meters":10000,"station_id":"ce4bgrp2rcd13ifvqc9g","pricing_plan_id":"cebpf4jnsgd1na2vs0mg"},{"bike_id":"6025b22c-cc70-4829-8bb8-d8ee07a71061","system_id":"levelo_inurba_marseille","lat":43.28612,"lon":5.35102,"is_reserved":false,"is_disabled":false,"rental_uris":{"android":"levelo://app?vid=6025b22c-cc70-4829-8bb8-d8ee07a71061","ios":"levelo://app?vid=6025b22c-cc70-4829-8bb8-d8ee07a71061"},"vehicle_type_id":"4","last_reported":1730819385,"current_range_meters":33600,"station_id":"ce4bhch2rcd13ifvqeug","pricing_plan_id":"cebpf4jnsgd1na2vs0mg"},{"bike_id":"75614e8f-b465-42ec-8e0c-d2df1e0b26a4","system_id":"levelo_inurba_marseille","lat":43.28461,"lon":5.35887,"is_reserved":false,"is_disabled":false,"rental_uris":{"android":"levelo://app?vid=75614e8f-b465-42ec-8e0c-d2df1e0b26a4","ios":"levelo://app?vid=75614e8f-b465-42ec-8e0c-d2df1e0b26a4"},"vehicle_type_id":"4","last_reported":1730819385,"current_range_meters":30800,"station_id":"ce4bhah2rcd13ifvqei0","pricing_plan_id":"cebpf4jnsgd1na2vs0mg"},{"bike_id":"7d3664b4-0626-4764-becb-c1d4188a8bfd","system_id":"levelo_inurba_marseille","lat":43.29159,"lon":5.37163,"is_reserved":false,"is_disabled":false,"rental_uris":{"android":"levelo://app?vid=7d3664b4-0626-4764-becb-c1d4188a8bfd","ios":"levelo://app?vid=7d3664b4-0626-4764-becb-c1d4188a8bfd"},"vehicle_type_id":"4","last_reported":1730819385,"current_range_meters":38800,"station_id":"ce4bha92rcd13ifvqeh0","pricing_plan_id":"cebpf4jnsgd1na2vs0mg"},{"bike_id":"490bda0d-525d-48fa-a681-6c1404c76d50","system_id":"levelo_inurba_marseille","lat":43.30134,"lon":5.37423,"is_reserved":false,"is_disabled":false,"rental_uris":{"android":"levelo://app?vid=490bda0d-525d-48fa-a681-6c1404c76d50","ios":"levelo://app?vid=490bda0d-525d-48fa-a681-6c1404c76d50"},"vehicle_type_id":"4","last_reported":1730819385,"current_range_meters":38000,"station_id":"ce4bgs92rcd13ifvqcc0","pricing_plan_id":"cebpf4jnsgd1na2vs0mg"},{"bike_id":"0d4888fd-e939-45ae-8c3e-fa6af5519a69","system_id":"levelo_inurba_marseille","lat":43.30604,"lon":5.37219,"is_reserved":false,"is_disabled":false,"rental_uris":{"android":"levelo://app?vid=0d4888fd-e939-45ae-8c3e-fa6af5519a69","ios":"levelo://app?vid=0d4888fd-e939-45ae-8c3e-fa6af5519a69"},"vehicle_type_id":"4","last_reported":1730819385,"current_range_meters":26800,"station_id":"ce4bgqh2rcd13ifvqc4g","pricing_plan_id":"cebpf4jnsgd1na2vs0mg"},{"bike_id":"0922aad4-e1cf-45e9-931c-9fe99f701714","system_id":"levelo_inurba_marseille","lat":43.280033,"lon":5.400111,"is_reserved":false,"is_disabled":false,"rental_uris":{"android":"levelo://app?vid=0922aad4-e1cf-45e9-931c-9fe99f701714","ios":"levelo://app?vid=0922aad4-e1cf-45e9-931c-9fe99f701714"},"vehicle_type_id":"4","last_reported":1730819385,"current_range_meters":15200,"station_id":"ce4bho92rcd13ifvqh4g","pricing_plan_id":"cebpf4jnsgd1na2vs0mg"},{"bike_id":"d112ef64-8345-40dc-a437-a0aa8c5bd57d","system_id":"levelo_inurba_marseille","lat":43.30543,"lon":5.36712,"is_reserved":false,"is_disabled":false,"rental_uris":{"android":"levelo://app?vid=d112ef64-8345-40dc-a437-a0aa8c5bd57d","ios":"levelo://app?vid=d112ef64-8345-40dc-a437-a0aa8c5bd57d"},"vehicle_type_id":"4","last_reported":1730819385,"current_range_meters":39200,"station_id":"ce4bgrp2rcd13ifvqc9g","pricing_plan_id":"cebpf4jnsgd1na2vs0mg"},{"bike_id":"00db643c-5868-4206-be55-7a08f1b86e96","system_id":"levelo_inurba_marseille","lat":43.23177,"lon":5.39986,"is_reserved":false,"is_disabled":false,"rental_uris":{"android":"levelo://app?vid=00db643c-5868-4206-be55-7a08f1b86e96","ios":"levelo://app?vid=00db643c-5868-4206-be55-7a08f1b86e96"},"vehicle_type_id":"4","last_reported":1730819385,"current_range_meters":19200,"station_id":"ce4bhn12rcd13ifvqgqg","pricing_plan_id":"cebpf4jnsgd1na2vs0mg"},{"bike_id":"95c41f09-f17b-42c2-a7d2-78a386dfd590","system_id":"levelo_inurba_marseille","lat":43.28411,"lon":5.34975,"is_reserved":false,"is_disabled":false,"rental_uris":{"android":"levelo://app?vid=95c41f09-f17b-42c2-a7d2-78a386dfd590","ios":"levelo://app?vid=95c41f09-f17b-42c2-a7d2-78a386dfd590"},"vehicle_type_id":"4","last_reported":1730819385,"current_range_meters":8000,"station_id":"ce4bhbh2rcd13ifvqepg","pricing_plan_id":"cebpf4jnsgd1na2vs0mg"},{"bike_id":"488df1b2-1aa6-4f37-8476-cedbcfc6f803","system_id":"levelo_inurba_marseille","lat":43.29259,"lon":5.38439,"is_reserved":false,"is_disabled":false,"rental_uris":{"android":"levelo://app?vid=488df1b2-1aa6-4f37-8476-cedbcfc6f803","ios":"levelo://app?vid=488df1b2-1aa6-4f37-8476-cedbcfc6f803"},"vehicle_type_id":"4","last_reported":1730819385,"current_range_meters":2800,"station_id":"ce4bh692rcd13ifvqea0","pricing_plan_id":"cebpf4jnsgd1na2vs0mg"},{"bike_id":"adf94568-f560-4501-938c-780d1b506fa8","system_id":"levelo_inurba_marseille","lat":43.31381,"lon":5.36691,"is_reserved":false,"is_disabled":false,"rental_uris":{"android":"levelo://app?vid=adf94568-f560-4501-938c-780d1b506fa8","ios":"levelo://app?vid=adf94568-f560-4501-938c-780d1b506fa8"},"vehicle_type_id":"4","last_reported":1730819385,"current_range_meters":33600,"station_id":"ce4bgr92rcd13ifvqc6g","pricing_plan_id":"cebpf4jnsgd1na2vs0mg"},{"bike_id":"2561b6b2-9bfd-4f52-910f-3667bac113f7","system_id":"levelo_inurba_marseille","lat":43.29876,"lon":5.38909,"is_reserved":false,"is_disabled":false,"rental_uris":{"android":"levelo://app?vid=2561b6b2-9bfd-4f52-910f-3667bac113f7","ios":"levelo://app?vid=2561b6b2-9bfd-4f52-910f-3667bac113f7"},"vehicle_type_id":"4","last_reported":1730819385,"current_range_meters":32800,"station_id":"ce4bh392rcd13ifvqdl0","pricing_plan_id":"cebpf4jnsgd1na2vs0mg"},{"bike_id":"41fd4415-10ca-4172-bbf3-d69b0e1022f9","system_id":"levelo_inurba_marseille","lat":43.283081,"lon":5.399515,"is_reserved":false,"is_disabled":false,"rental_uris":{"android":"levelo://app?vid=41fd4415-10ca-4172-bbf3-d69b0e1022f9","ios":"levelo://app?vid=41fd4415-10ca-4172-bbf3-d69b0e1022f9"},"vehicle_type_id":"4","last_reported":1730819385,"current_range_meters":6000,"station_id":"ce4bhnh2rcd13ifvqgtg","pricing_plan_id":"cebpf4jnsgd1na2vs0mg"},{"bike_id":"d94cb513-c135-401c-aeca-0537d3accc9e","system_id":"levelo_inurba_marseille","lat":43.28455,"lon":5.35887,"is_reserved":false,"is_disabled":false,"rental_uris":{"android":"levelo://app?vid=d94cb513-c135-401c-aeca-0537d3accc9e","ios":"levelo://app?vid=d94cb513-c135-401c-aeca-0537d3accc9e"},"vehicle_type_id":"4","last_reported":1730819385,"current_range_meters":4000,"station_id":"ce4bhah2rcd13ifvqei0","pricing_plan_id":"cebpf4jnsgd1na2vs0mg"},{"bike_id":"a163ebcc-65a4-48e8-83d9-12e569221fbd","system_id":"levelo_inurba_marseille","lat":43.24085,"lon":5.37749,"is_reserved":false,"is_disabled":false,"rental_uris":{"android":"levelo://app?vid=a163ebcc-65a4-48e8-83d9-12e569221fbd","ios":"levelo://app?vid=a163ebcc-65a4-48e8-83d9-12e569221fbd"},"vehicle_type_id":"4","last_reported":1730819385,"current_range_meters":2800,"station_id":"ce4bhnp2rcd13ifvqgvg","pricing_plan_id":"cebpf4jnsgd1na2vs0mg"},{"bike_id":"29d1e818-8979-408f-ab3f-773829dc95ed","system_id":"levelo_inurba_marseille","lat":43.31994,"lon":5.3816,"is_reserved":false,"is_disabled":false,"rental_uris":{"android":"levelo://app?vid=29d1e818-8979-408f-ab3f-773829dc95ed","ios":"levelo://app?vid=29d1e818-8979-408f-ab3f-773829dc95ed"},"vehicle_type_id":"4","last_reported":1730819385,"current_range_meters":9200,"station_id":"ce4bhr12rcd13ifvqhpg","pricing_plan_id":"cebpf4jnsgd1na2vs0mg"},{"bike_id":"b9f50a61-fa4c-4d0c-891e-3faed939be4c","system_id":"levelo_inurba_marseille","lat":43.29971,"lon":5.37181,"is_reserved":false,"is_disabled":false,"rental_uris":{"android":"levelo://app?vid=b9f50a61-fa4c-4d0c-891e-3faed939be4c","ios":"levelo://app?vid=b9f50a61-fa4c-4d0c-891e-3faed939be4c"},"vehicle_type_id":"4","last_reported":1730819385,"current_range_meters":35200,"station_id":"ce4bgr92rcd13ifvqc7g","pricing_plan_id":"cebpf4jnsgd1na2vs0mg"},{"bike_id":"4a5f982a-5a20-4fc9-a572-c01b14cc819b","system_id":"levelo_inurba_marseille","lat":43.25577,"lon":5.38231,"is_reserved":false,"is_disabled":false,"rental_uris":{"android":"levelo://app?vid=4a5f982a-5a20-4fc9-a572-c01b14cc819b","ios":"levelo://app?vid=4a5f982a-5a20-4fc9-a572-c01b14cc819b"},"vehicle_type_id":"4","last_reported":1730819385,"current_range_meters":33200,"station_id":"ce4bhih2rcd13ifvqfs0","pricing_plan_id":"cebpf4jnsgd1na2vs0mg"},{"bike_id":"ad58724c-2fcc-482f-92fd-df51f8ca4512","system_id":"levelo_inurba_marseille","lat":43.30911,"lon":5.3685,"is_reserved":false,"is_disabled":false,"rental_uris":{"android":"levelo://app?vid=ad58724c-2fcc-482f-92fd-df51f8ca4512","ios":"levelo://app?vid=ad58724c-2fcc-482f-92fd-df51f8ca4512"},"vehicle_type_id":"4","last_reported":1730819385,"current_range_meters":24400,"station_id":"ce4bgn92rcd13ifvqbvg","pricing_plan_id":"cebpf4jnsgd1na2vs0mg"},{"bike_id":"dd39f9f1-9f84-4440-bed0-87ba7e20c7bd","system_id":"levelo_inurba_marseille","lat":43.27987,"lon":5.41664,"is_reserved":false,"is_disabled":false,"rental_uris":{"android":"levelo://app?vid=dd39f9f1-9f84-4440-bed0-87ba7e20c7bd","ios":"levelo://app?vid=dd39f9f1-9f84-4440-bed0-87ba7e20c7bd"},"vehicle_type_id":"4","last_reported":1730819385,"current_range_meters":38800,"station_id":"ce4bho12rcd13ifvqh1g","pricing_plan_id":"cebpf4jnsgd1na2vs0mg"},{"bike_id":"a6d8b7a2-b299-4a40-9a2b-f7c8bf78849b","system_id":"levelo_inurba_marseille","lat":43.30533,"lon":5.36532,"is_reserved":false,"is_disabled":false,"rental_uris":{"android":"levelo://app?vid=a6d8b7a2-b299-4a40-9a2b-f7c8bf78849b","ios":"levelo://app?vid=a6d8b7a2-b299-4a40-9a2b-f7c8bf78849b"},"vehicle_type_id":"4","last_reported":1730819385,"current_range_meters":24800,"station_id":"ce4bgs12rcd13ifvqcag","pricing_plan_id":"cebpf4jnsgd1na2vs0mg"},{"bike_id":"2dd40e8a-347a-4069-9f04-901c41b0a3c7","system_id":"levelo_inurba_marseille","lat":43.32104,"lon":5.36777,"is_reserved":false,"is_disabled":false,"rental_uris":{"android":"levelo://app?vid=2dd40e8a-347a-4069-9f04-901c41b0a3c7","ios":"levelo://app?vid=2dd40e8a-347a-4069-9f04-901c41b0a3c7"},"vehicle_type_id":"4","last_reported":1730819385,"current_range_meters":36400,"station_id":"ce4bhrh2rcd13ifvqhug","pricing_plan_id":"cebpf4jnsgd1na2vs0mg"},{"bike_id":"2e389483-7787-4149-b7f0-0165708a1590","system_id":"levelo_inurba_marseille","lat":43.29734,"lon":5.37685,"is_reserved":false,"is_disabled":false,"rental_uris":{"android":"levelo://app?vid=2e389483-7787-4149-b7f0-0165708a1590","ios":"levelo://app?vid=2e389483-7787-4149-b7f0-0165708a1590"},"vehicle_type_id":"4","last_reported":1730819385,"current_range_meters":30400,"station_id":"ce4bgkh2rcd13ifvqbl0","pricing_plan_id":"cebpf4jnsgd1na2vs0mg"},{"bike_id":"38526b2a-8697-4aef-a174-e0c1be19b7a7","system_id":"levelo_inurba_marseille","lat":43.28847,"lon":5.35884,"is_reserved":false,"is_disabled":false,"rental_uris":{"android":"levelo://app?vid=38526b2a-8697-4aef-a174-e0c1be19b7a7","ios":"levelo://app?vid=38526b2a-8697-4aef-a174-e0c1be19b7a7"},"vehicle_type_id":"4","last_reported":1730819385,"current_range_meters":16400,"station_id":"ce4bhb12rcd13ifvqem0","pricing_plan_id":"cebpf4jnsgd1na2vs0mg"},{"bike_id":"67dab935-1b71-438c-83ee-d4f8ffbef4c9","system_id":"levelo_inurba_marseille","lat":43.3247,"lon":5.36562,"is_reserved":false,"is_disabled":false,"rental_uris":{"android":"levelo://app?vid=67dab935-1b71-438c-83ee-d4f8ffbef4c9","ios":"levelo://app?vid=67dab935-1b71-438c-83ee-d4f8ffbef4c9"},"vehicle_type_id":"4","last_reported":1730819385,"current_range_meters":22800,"station_id":"ce4bhs12rcd13ifvqhvg","pricing_plan_id":"cebpf4jnsgd1na2vs0mg"},{"bike_id":"0f74818d-20d1-441e-99c3-0860b26793d6","system_id":"levelo_inurba_marseille","lat":43.27071,"lon":5.42285,"is_reserved":false,"is_disabled":false,"rental_uris":{"android":"levelo://app?vid=0f74818d-20d1-441e-99c3-0860b26793d6","ios":"levelo://app?vid=0f74818d-20d1-441e-99c3-0860b26793d6"},"vehicle_type_id":"4","last_reported":1730819385,"current_range_meters":28400,"station_id":"ce4bhk92rcd13ifvqgb0","pricing_plan_id":"cebpf4jnsgd1na2vs0mg"},{"bike_id":"c8a2d708-abe4-4e54-aedc-a081f8a474e1","system_id":"levelo_inurba_marseille","lat":43.24081,"lon":5.37754,"is_reserved":false,"is_disabled":false,"rental_uris":{"android":"levelo://app?vid=c8a2d708-abe4-4e54-aedc-a081f8a474e1","ios":"levelo://app?vid=c8a2d708-abe4-4e54-aedc-a081f8a474e1"},"vehicle_type_id":"4","last_reported":1730819385,"current_range_meters":28400,"station_id":"ce4bhnp2rcd13ifvqgvg","pricing_plan_id":"cebpf4jnsgd1na2vs0mg"},{"bike_id":"91250bf2-829d-44d4-9abc-97013f1fe234","system_id":"levelo_inurba_marseille","lat":43.23155,"lon":5.43711,"is_reserved":false,"is_disabled":false,"rental_uris":{"android":"levelo://app?vid=91250bf2-829d-44d4-9abc-97013f1fe234","ios":"levelo://app?vid=91250bf2-829d-44d4-9abc-97013f1fe234"},"vehicle_type_id":"4","last_reported":1730819385,"current_range_meters":13600,"station_id":"ce4bhmp2rcd13ifvqgog","pricing_plan_id":"cebpf4jnsgd1na2vs0mg"},{"bike_id":"c3a57e08-d20d-43d3-850b-28da6a2418ae","system_id":"levelo_inurba_marseille","lat":43.29166,"lon":5.37163,"is_reserved":false,"is_disabled":false,"rental_uris":{"android":"levelo://app?vid=c3a57e08-d20d-43d3-850b-28da6a2418ae","ios":"levelo://app?vid=c3a57e08-d20d-43d3-850b-28da6a2418ae"},"vehicle_type_id":"4","last_reported":1730819385,"current_range_meters":17200,"station_id":"ce4bha92rcd13ifvqeh0","pricing_plan_id":"cebpf4jnsgd1na2vs0mg"},{"bike_id":"64034af2-67ea-4876-bcba-e9667f90eda7","system_id":"levelo_inurba_marseille","lat":43.33718,"lon":5.39188,"is_reserved":false,"is_disabled":false,"rental_uris":{"android":"levelo://app?vid=64034af2-67ea-4876-bcba-e9667f90eda7","ios":"levelo://app?vid=64034af2-67ea-4876-bcba-e9667f90eda7"},"vehicle_type_id":"4","last_reported":1730819385,"current_range_meters":38800,"station_id":"ce4bhr92rcd13ifvqhsg","pricing_plan_id":"cebpf4jnsgd1na2vs0mg"},{"bike_id":"fb5de8d3-23b9-40b5-b63b-0d99b938d18d","system_id":"levelo_inurba_marseille","lat":43.29035,"lon":5.39968,"is_reserved":false,"is_disabled":false,"rental_uris":{"android":"levelo://app?vid=fb5de8d3-23b9-40b5-b63b-0d99b938d18d","ios":"levelo://app?vid=fb5de8d3-23b9-40b5-b63b-0d99b938d18d"},"vehicle_type_id":"4","last_reported":1730819385,"current_range_meters":36400,"station_id":"ce4bh392rcd13ifvqdm0","pricing_plan_id":"cebpf4jnsgd1na2vs0mg"},{"bike_id":"8f689a17-f0f1-4c2f-9b33-3b3c927da3e7","system_id":"levelo_inurba_marseille","lat":43.31998,"lon":5.38156,"is_reserved":false,"is_disabled":false,"rental_uris":{"android":"levelo://app?vid=8f689a17-f0f1-4c2f-9b33-3b3c927da3e7","ios":"levelo://app?vid=8f689a17-f0f1-4c2f-9b33-3b3c927da3e7"},"vehicle_type_id":"4","last_reported":1730819385,"current_range_meters":27200,"station_id":"ce4bhr12rcd13ifvqhpg","pricing_plan_id":"cebpf4jnsgd1na2vs0mg"},{"bike_id":"eda27d27-efec-4a79-9ad3-9cbb92208df3","system_id":"levelo_inurba_marseille","lat":43.25114,"lon":5.40322,"is_reserved":false,"is_disabled":false,"rental_uris":{"android":"levelo://app?vid=eda27d27-efec-4a79-9ad3-9cbb92208df3","ios":"levelo://app?vid=eda27d27-efec-4a79-9ad3-9cbb92208df3"},"vehicle_type_id":"4","last_reported":1730819385,"current_range_meters":27200,"station_id":"ce4bhlh2rcd13ifvqgig","pricing_plan_id":"cebpf4jnsgd1na2vs0mg"},{"bike_id":"0d6389f7-bab8-4ebf-ad74-7e0fecb405b9","system_id":"levelo_inurba_marseille","lat":43.31342,"lon":5.36714,"is_reserved":false,"is_disabled":false,"rental_uris":{"android":"levelo://app?vid=0d6389f7-bab8-4ebf-ad74-7e0fecb405b9","ios":"levelo://app?vid=0d6389f7-bab8-4ebf-ad74-7e0fecb405b9"},"vehicle_type_id":"4","last_reported":1730819385,"current_range_meters":34000,"station_id":"ce4bgr92rcd13ifvqc6g","pricing_plan_id":"cebpf4jnsgd1na2vs0mg"},{"bike_id":"ef51ee62-b89d-4892-a1d2-384f57a68e8d","system_id":"levelo_inurba_marseille","lat":43.28101,"lon":5.37837,"is_reserved":false,"is_disabled":false,"rental_uris":{"android":"levelo://app?vid=ef51ee62-b89d-4892-a1d2-384f57a68e8d","ios":"levelo://app?vid=ef51ee62-b89d-4892-a1d2-384f57a68e8d"},"vehicle_type_id":"4","last_reported":1730819385,"current_range_meters":24800,"station_id":"ce4bha12rcd13ifvqee0","pricing_plan_id":"cebpf4jnsgd1na2vs0mg"},{"bike_id":"2eac1b37-6523-49bd-a9dd-e97d9d8f39c0","system_id":"levelo_inurba_marseille","lat":43.31065,"lon":5.3835,"is_reserved":false,"is_disabled":false,"rental_uris":{"android":"levelo://app?vid=2eac1b37-6523-49bd-a9dd-e97d9d8f39c0","ios":"levelo://app?vid=2eac1b37-6523-49bd-a9dd-e97d9d8f39c0"},"vehicle_type_id":"4","last_reported":1730819385,"current_range_meters":16800,"station_id":"ce4bgv92rcd13ifvqcr0","pricing_plan_id":"cebpf4jnsgd1na2vs0mg"},{"bike_id":"5b65a68d-0c44-476e-ac69-d8ce523c0525","system_id":"levelo_inurba_marseille","lat":43.239767,"lon":5.366572,"is_reserved":false,"is_disabled":false,"rental_uris":{"android":"levelo://app?vid=5b65a68d-0c44-476e-ac69-d8ce523c0525","ios":"levelo://app?vid=5b65a68d-0c44-476e-ac69-d8ce523c0525"},"vehicle_type_id":"4","last_reported":1730819385,"current_range_meters":5600,"station_id":"ce4bhi12rcd13ifvqfp0","pricing_plan_id":"cebpf4jnsgd1na2vs0mg"},{"bike_id":"0e949c04-e158-4ddc-81f0-e2366f96c8f9","system_id":"levelo_inurba_marseille","lat":43.29256,"lon":5.40909,"is_reserved":false,"is_disabled":false,"rental_uris":{"android":"levelo://app?vid=0e949c04-e158-4ddc-81f0-e2366f96c8f9","ios":"levelo://app?vid=0e949c04-e158-4ddc-81f0-e2366f96c8f9"},"vehicle_type_id":"4","last_reported":1730819385,"current_range_meters":7200,"station_id":"ce4bh192rcd13ifvqdc0","pricing_plan_id":"cebpf4jnsgd1na2vs0mg"},{"bike_id":"061180dd-f566-4a51-a191-e208463c503b","system_id":"levelo_inurba_marseille","lat":43.25109,"lon":5.4032,"is_reserved":false,"is_disabled":false,"rental_uris":{"android":"levelo://app?vid=061180dd-f566-4a51-a191-e208463c503b","ios":"levelo://app?vid=061180dd-f566-4a51-a191-e208463c503b"},"vehicle_type_id":"4","last_reported":1730819385,"current_range_meters":4800,"station_id":"ce4bhlh2rcd13ifvqgig","pricing_plan_id":"cebpf4jnsgd1na2vs0mg"},{"bike_id":"3d6d4c0d-43af-4895-9642-46fc0331158e","system_id":"levelo_inurba_marseille","lat":43.29526,"lon":5.39051,"is_reserved":false,"is_disabled":false,"rental_uris":{"android":"levelo://app?vid=3d6d4c0d-43af-4895-9642-46fc0331158e","ios":"levelo://app?vid=3d6d4c0d-43af-4895-9642-46fc0331158e"},"vehicle_type_id":"4","last_reported":1730819385,"current_range_meters":8800,"station_id":"ce4bh3p2rcd13ifvqdp0","pricing_plan_id":"cebpf4jnsgd1na2vs0mg"},{"bike_id":"0e38a66d-102a-4f39-95b4-36dd246848d6","system_id":"levelo_inurba_marseille","lat":43.28402,"lon":5.37525,"is_reserved":false,"is_disabled":false,"rental_uris":{"android":"levelo://app?vid=0e38a66d-102a-4f39-95b4-36dd246848d6","ios":"levelo://app?vid=0e38a66d-102a-4f39-95b4-36dd246848d6"},"vehicle_type_id":"4","last_reported":1730819385,"current_range_meters":18000,"station_id":"ce4bh412rcd13ifvqds0","pricing_plan_id":"cebpf4jnsgd1na2vs0mg"},{"bike_id":"42603be7-d7f2-4b21-b69c-5b6747e355fe","system_id":"levelo_inurba_marseille","lat":43.28098,"lon":5.37847,"is_reserved":false,"is_disabled":false,"rental_uris":{"android":"levelo://app?vid=42603be7-d7f2-4b21-b69c-5b6747e355fe","ios":"levelo://app?vid=42603be7-d7f2-4b21-b69c-5b6747e355fe"},"vehicle_type_id":"4","last_reported":1730819385,"current_range_meters":37600,"station_id":"ce4bha12rcd13ifvqee0","pricing_plan_id":"cebpf4jnsgd1na2vs0mg"},{"bike_id":"7cc3df55-230a-447b-8ec3-8a31cb618fb6","system_id":"levelo_inurba_marseille","lat":43.29034,"lon":5.38652,"is_reserved":false,"is_disabled":false,"rental_uris":{"android":"levelo://app?vid=7cc3df55-230a-447b-8ec3-8a31cb618fb6","ios":"levelo://app?vid=7cc3df55-230a-447b-8ec3-8a31cb618fb6"},"vehicle_type_id":"4","last_reported":1730819385,"current_range_meters":27600,"station_id":"ce4bh4p2rcd13ifvqe0g","pricing_plan_id":"cebpf4jnsgd1na2vs0mg"},{"bike_id":"09742d54-82b0-47a3-93d5-b1cc4819f403","system_id":"levelo_inurba_marseille","lat":43.30437,"lon":5.38889,"is_reserved":false,"is_disabled":false,"rental_uris":{"android":"levelo://app?vid=09742d54-82b0-47a3-93d5-b1cc4819f403","ios":"levelo://app?vid=09742d54-82b0-47a3-93d5-b1cc4819f403"},"vehicle_type_id":"4","last_reported":1730819385,"current_range_meters":12800,"station_id":"ce4bgk12rcd13ifvqbi0","pricing_plan_id":"cebpf4jnsgd1na2vs0mg"},{"bike_id":"225c749a-6f56-4ff9-9ec7-1b609acad786","system_id":"levelo_inurba_marseille","lat":43.30321,"lon":5.36912,"is_reserved":false,"is_disabled":false,"rental_uris":{"android":"levelo://app?vid=225c749a-6f56-4ff9-9ec7-1b609acad786","ios":"levelo://app?vid=225c749a-6f56-4ff9-9ec7-1b609acad786"},"vehicle_type_id":"4","last_reported":1730819385,"current_range_meters":36400,"station_id":"ce4bgqh2rcd13ifvqc5g","pricing_plan_id":"cebpf4jnsgd1na2vs0mg"},{"bike_id":"16ae9290-db9a-4317-b34b-8b26fa9930fd","system_id":"levelo_inurba_marseille","lat":43.23151,"lon":5.43718,"is_reserved":false,"is_disabled":false,"rental_uris":{"android":"levelo://app?vid=16ae9290-db9a-4317-b34b-8b26fa9930fd","ios":"levelo://app?vid=16ae9290-db9a-4317-b34b-8b26fa9930fd"},"vehicle_type_id":"4","last_reported":1730819385,"current_range_meters":27600,"station_id":"ce4bhmp2rcd13ifvqgog","pricing_plan_id":"cebpf4jnsgd1na2vs0mg"},{"bike_id":"77f75c58-df77-4d1f-b372-5b5eed455101","system_id":"levelo_inurba_marseille","lat":43.30522,"lon":5.36544,"is_reserved":false,"is_disabled":false,"rental_uris":{"android":"levelo://app?vid=77f75c58-df77-4d1f-b372-5b5eed455101","ios":"levelo://app?vid=77f75c58-df77-4d1f-b372-5b5eed455101"},"vehicle_type_id":"4","last_reported":1730819385,"current_range_meters":38800,"station_id":"ce4bgs12rcd13ifvqcag","pricing_plan_id":"cebpf4jnsgd1na2vs0mg"},{"bike_id":"7db146eb-953b-4823-9026-61dde9c479eb","system_id":"levelo_inurba_marseille","lat":43.29632,"lon":5.40601,"is_reserved":false,"is_disabled":false,"rental_uris":{"android":"levelo://app?vid=7db146eb-953b-4823-9026-61dde9c479eb","ios":"levelo://app?vid=7db146eb-953b-4823-9026-61dde9c479eb"},"vehicle_type_id":"4","last_reported":1730819385,"current_range_meters":13600,"station_id":"ce4bhnh2rcd13ifvqgug","pricing_plan_id":"cebpf4jnsgd1na2vs0mg"},{"bike_id":"fe2a7ca2-6bcd-4713-a568-8142f6ee8d6b","system_id":"levelo_inurba_marseille","lat":43.27811,"lon":5.40711,"is_reserved":false,"is_disabled":false,"rental_uris":{"android":"levelo://app?vid=fe2a7ca2-6bcd-4713-a568-8142f6ee8d6b","ios":"levelo://app?vid=fe2a7ca2-6bcd-4713-a568-8142f6ee8d6b"},"vehicle_type_id":"4","last_reported":1730819385,"current_range_meters":38800,"station_id":"ce4bhnh2rcd13ifvqgtg","pricing_plan_id":"cebpf4jnsgd1na2vs0mg"},{"bike_id":"d7eba0bc-553a-47d4-8bc6-a467f428147a","system_id":"levelo_inurba_marseille","lat":43.31336,"lon":5.36738,"is_reserved":false,"is_disabled":false,"rental_uris":{"android":"levelo://app?vid=d7eba0bc-553a-47d4-8bc6-a467f428147a","ios":"levelo://app?vid=d7eba0bc-553a-47d4-8bc6-a467f428147a"},"vehicle_type_id":"4","last_reported":1730819385,"current_range_meters":28800,"station_id":"ce4bgr92rcd13ifvqc6g","pricing_plan_id":"cebpf4jnsgd1na2vs0mg"},{"bike_id":"ab4b8e09-ec0f-4862-8748-7cd7aa104d9d","system_id":"levelo_inurba_marseille","lat":43.27614,"lon":5.36116,"is_reserved":false,"is_disabled":false,"rental_uris":{"android":"levelo://app?vid=ab4b8e09-ec0f-4862-8748-7cd7aa104d9d","ios":"levelo://app?vid=ab4b8e09-ec0f-4862-8748-7cd7aa104d9d"},"vehicle_type_id":"4","last_reported":1730819385,"current_range_meters":12400,"station_id":"ce4bgj92rcd13ifvqbe0","pricing_plan_id":"cebpf4jnsgd1na2vs0mg"},{"bike_id":"bb254295-6b2f-47fa-b542-f768ed4879ee","system_id":"levelo_inurba_marseille","lat":43.23153,"lon":5.43708,"is_reserved":false,"is_disabled":false,"rental_uris":{"android":"levelo://app?vid=bb254295-6b2f-47fa-b542-f768ed4879ee","ios":"levelo://app?vid=bb254295-6b2f-47fa-b542-f768ed4879ee"},"vehicle_type_id":"4","last_reported":1730819385,"current_range_meters":16800,"station_id":"ce4bhmp2rcd13ifvqgog","pricing_plan_id":"cebpf4jnsgd1na2vs0mg"},{"bike_id":"f4647533-7284-4967-879a-23f2e6fe1dee","system_id":"levelo_inurba_marseille","lat":43.29893,"lon":5.43667,"is_reserved":false,"is_disabled":false,"rental_uris":{"android":"levelo://app?vid=f4647533-7284-4967-879a-23f2e6fe1dee","ios":"levelo://app?vid=f4647533-7284-4967-879a-23f2e6fe1dee"},"vehicle_type_id":"4","last_reported":1730819385,"current_range_meters":29600,"station_id":"ce4bhpp2rcd13ifvqhfg","pricing_plan_id":"cebpf4jnsgd1na2vs0mg"},{"bike_id":"ff667aa2-147a-4a47-b6ea-40549b50c928","system_id":"levelo_inurba_marseille","lat":43.23149,"lon":5.43722,"is_reserved":false,"is_disabled":false,"rental_uris":{"android":"levelo://app?vid=ff667aa2-147a-4a47-b6ea-40549b50c928","ios":"levelo://app?vid=ff667aa2-147a-4a47-b6ea-40549b50c928"},"vehicle_type_id":"4","last_reported":1730819385,"current_range_meters":31200,"station_id":"ce4bhmp2rcd13ifvqgog","pricing_plan_id":"cebpf4jnsgd1na2vs0mg"},{"bike_id":"6c1a2b09-8f53-497e-a60d-8582206babb2","system_id":"levelo_inurba_marseille","lat":43.29291,"lon":5.37461,"is_reserved":false,"is_disabled":false,"rental_uris":{"android":"levelo://app?vid=6c1a2b09-8f53-497e-a60d-8582206babb2","ios":"levelo://app?vid=6c1a2b09-8f53-497e-a60d-8582206babb2"},"vehicle_type_id":"4","last_reported":1730819385,"current_range_meters":17200,"station_id":"ce4bgi12rcd13ifvqb70","pricing_plan_id":"cebpf4jnsgd1na2vs0mg"},{"bike_id":"0a3c1a6b-eadc-4e53-adb5-ce60bbc39060","system_id":"levelo_inurba_marseille","lat":43.33029,"lon":5.39037,"is_reserved":false,"is_disabled":false,"rental_uris":{"android":"levelo://app?vid=0a3c1a6b-eadc-4e53-adb5-ce60bbc39060","ios":"levelo://app?vid=0a3c1a6b-eadc-4e53-adb5-ce60bbc39060"},"vehicle_type_id":"4","last_reported":1730819385,"current_range_meters":38800,"station_id":"ce4bhr92rcd13ifvqhrg","pricing_plan_id":"cebpf4jnsgd1na2vs0mg"},{"bike_id":"382cf05d-fc9a-4ebb-8bf2-64026cd9a29f","system_id":"levelo_inurba_marseille","lat":43.33761,"lon":5.37447,"is_reserved":false,"is_disabled":false,"rental_uris":{"android":"levelo://app?vid=382cf05d-fc9a-4ebb-8bf2-64026cd9a29f","ios":"levelo://app?vid=382cf05d-fc9a-4ebb-8bf2-64026cd9a29f"},"vehicle_type_id":"4","last_reported":1730819385,"current_range_meters":38800,"station_id":"","pricing_plan_id":"cebpf4jnsgd1na2vs0mg"},{"bike_id":"251772ae-8302-47dc-a3ff-f42375c6b649","system_id":"levelo_inurba_marseille","lat":43.29371,"lon":5.37839,"is_reserved":false,"is_disabled":false,"rental_uris":{"android":"levelo://app?vid=251772ae-8302-47dc-a3ff-f42375c6b649","ios":"levelo://app?vid=251772ae-8302-47dc-a3ff-f42375c6b649"},"vehicle_type_id":"4","last_reported":1730819385,"current_range_meters":28000,"station_id":"ce4bgjh2rcd13ifvqbf0","pricing_plan_id":"cebpf4jnsgd1na2vs0mg"},{"bike_id":"6282f0b2-e35c-4973-98d9-f2243b403b35","system_id":"levelo_inurba_marseille","lat":43.27205,"lon":5.39183,"is_reserved":false,"is_disabled":false,"rental_uris":{"android":"levelo://app?vid=6282f0b2-e35c-4973-98d9-f2243b403b35","ios":"levelo://app?vid=6282f0b2-e35c-4973-98d9-f2243b403b35"},"vehicle_type_id":"4","last_reported":1730819385,"current_range_meters":38800,"station_id":"ce4bhhp2rcd13ifvqfm0","pricing_plan_id":"cebpf4jnsgd1na2vs0mg"},{"bike_id":"05ac5baf-23d6-4b3f-986a-a54743343175","system_id":"levelo_inurba_marseille","lat":43.30093,"lon":5.39079,"is_reserved":false,"is_disabled":false,"rental_uris":{"android":"levelo://app?vid=05ac5baf-23d6-4b3f-986a-a54743343175","ios":"levelo://app?vid=05ac5baf-23d6-4b3f-986a-a54743343175"},"vehicle_type_id":"4","last_reported":1730819385,"current_range_meters":32000,"station_id":"ce4bh192rcd13ifvqdb0","pricing_plan_id":"cebpf4jnsgd1na2vs0mg"},{"bike_id":"c50677bd-2648-4b2c-a85d-fa9aec0be895","system_id":"levelo_inurba_marseille","lat":43.3055,"lon":5.36524,"is_reserved":false,"is_disabled":false,"rental_uris":{"android":"levelo://app?vid=c50677bd-2648-4b2c-a85d-fa9aec0be895","ios":"levelo://app?vid=c50677bd-2648-4b2c-a85d-fa9aec0be895"},"vehicle_type_id":"4","last_reported":1730819385,"current_range_meters":38800,"station_id":"ce4bgs12rcd13ifvqcag","pricing_plan_id":"cebpf4jnsgd1na2vs0mg"},{"bike_id":"e20042a3-679d-432e-bbad-615f69049412","system_id":"levelo_inurba_marseille","lat":43.2315,"lon":5.43708,"is_reserved":false,"is_disabled":false,"rental_uris":{"android":"levelo://app?vid=e20042a3-679d-432e-bbad-615f69049412","ios":"levelo://app?vid=e20042a3-679d-432e-bbad-615f69049412"},"vehicle_type_id":"4","last_reported":1730819385,"current_range_meters":26800,"station_id":"ce4bhmp2rcd13ifvqgog","pricing_plan_id":"cebpf4jnsgd1na2vs0mg"},{"bike_id":"20bd59eb-f49f-4ad5-8efe-23e69b48a448","system_id":"levelo_inurba_marseille","lat":43.30139,"lon":5.38772,"is_reserved":false,"is_disabled":false,"rental_uris":{"android":"levelo://app?vid=20bd59eb-f49f-4ad5-8efe-23e69b48a448","ios":"levelo://app?vid=20bd59eb-f49f-4ad5-8efe-23e69b48a448"},"vehicle_type_id":"4","last_reported":1730819385,"current_range_meters":38800,"station_id":"ce4bghh2rcd13ifvqb60","pricing_plan_id":"cebpf4jnsgd1na2vs0mg"},{"bike_id":"4f6385d7-3691-4902-a172-4652219474c3","system_id":"levelo_inurba_marseille","lat":43.27828,"lon":5.39203,"is_reserved":false,"is_disabled":false,"rental_uris":{"android":"levelo://app?vid=4f6385d7-3691-4902-a172-4652219474c3","ios":"levelo://app?vid=4f6385d7-3691-4902-a172-4652219474c3"},"vehicle_type_id":"4","last_reported":1730819385,"current_range_meters":38400,"station_id":"ce4bhjp2rcd13ifvqga0","pricing_plan_id":"cebpf4jnsgd1na2vs0mg"},{"bike_id":"3c168067-fce4-4bb7-accf-1d56fb8f03ce","system_id":"levelo_inurba_marseille","lat":43.29802,"lon":5.38088,"is_reserved":false,"is_disabled":false,"rental_uris":{"android":"levelo://app?vid=3c168067-fce4-4bb7-accf-1d56fb8f03ce","ios":"levelo://app?vid=3c168067-fce4-4bb7-accf-1d56fb8f03ce"},"vehicle_type_id":"4","last_reported":1730819385,"current_range_meters":2000,"station_id":"ce4bgip2rcd13ifvqbb0","pricing_plan_id":"cebpf4jnsgd1na2vs0mg"},{"bike_id":"5eb8d635-9462-4640-9079-6901e9631249","system_id":"levelo_inurba_marseille","lat":43.28403,"lon":5.37524,"is_reserved":false,"is_disabled":false,"rental_uris":{"android":"levelo://app?vid=5eb8d635-9462-4640-9079-6901e9631249","ios":"levelo://app?vid=5eb8d635-9462-4640-9079-6901e9631249"},"vehicle_type_id":"4","last_reported":1730819385,"current_range_meters":10000,"station_id":"ce4bh412rcd13ifvqds0","pricing_plan_id":"cebpf4jnsgd1na2vs0mg"},{"bike_id":"f6fac252-bcfe-4359-8cd8-84ee90eebb7d","system_id":"levelo_inurba_marseille","lat":43.30535,"lon":5.36544,"is_reserved":false,"is_disabled":false,"rental_uris":{"android":"levelo://app?vid=f6fac252-bcfe-4359-8cd8-84ee90eebb7d","ios":"levelo://app?vid=f6fac252-bcfe-4359-8cd8-84ee90eebb7d"},"vehicle_type_id":"4","last_reported":1730819385,"current_range_meters":38800,"station_id":"ce4bgs12rcd13ifvqcag","pricing_plan_id":"cebpf4jnsgd1na2vs0mg"},{"bike_id":"861c7895-d88c-4094-910f-bb7e63570646","system_id":"levelo_inurba_marseille","lat":43.32044,"lon":5.41536,"is_reserved":false,"is_disabled":false,"rental_uris":{"android":"levelo://app?vid=861c7895-d88c-4094-910f-bb7e63570646","ios":"levelo://app?vid=861c7895-d88c-4094-910f-bb7e63570646"},"vehicle_type_id":"4","last_reported":1730819385,"current_range_meters":38800,"station_id":"ce4bhq92rcd13ifvqhkg","pricing_plan_id":"cebpf4jnsgd1na2vs0mg"},{"bike_id":"610b0d0c-3930-46a1-8d7c-dbfb496d05de","system_id":"levelo_inurba_marseille","lat":43.27813,"lon":5.40705,"is_reserved":false,"is_disabled":false,"rental_uris":{"android":"levelo://app?vid=610b0d0c-3930-46a1-8d7c-dbfb496d05de","ios":"levelo://app?vid=610b0d0c-3930-46a1-8d7c-dbfb496d05de"},"vehicle_type_id":"4","last_reported":1730819385,"current_range_meters":38800,"station_id":"ce4bhnh2rcd13ifvqgtg","pricing_plan_id":"cebpf4jnsgd1na2vs0mg"},{"bike_id":"e6cc6796-e4dd-4cc1-b34a-bbce7925af16","system_id":"levelo_inurba_marseille","lat":43.24073,"lon":5.37759,"is_reserved":false,"is_disabled":false,"rental_uris":{"android":"levelo://app?vid=e6cc6796-e4dd-4cc1-b34a-bbce7925af16","ios":"levelo://app?vid=e6cc6796-e4dd-4cc1-b34a-bbce7925af16"},"vehicle_type_id":"4","last_reported":1730819385,"current_range_meters":24400,"station_id":"ce4bhnp2rcd13ifvqgvg","pricing_plan_id":"cebpf4jnsgd1na2vs0mg"},{"bike_id":"fc7e1c38-5ceb-4fb3-9afa-990ebfb95007","system_id":"levelo_inurba_marseille","lat":43.23147,"lon":5.43712,"is_reserved":false,"is_disabled":false,"rental_uris":{"android":"levelo://app?vid=fc7e1c38-5ceb-4fb3-9afa-990ebfb95007","ios":"levelo://app?vid=fc7e1c38-5ceb-4fb3-9afa-990ebfb95007"},"vehicle_type_id":"4","last_reported":1730819385,"current_range_meters":38800,"station_id":"ce4bhmp2rcd13ifvqgog","pricing_plan_id":"cebpf4jnsgd1na2vs0mg"},{"bike_id":"3aaf6731-8dbd-41db-b210-221834a11278","system_id":"levelo_inurba_marseille","lat":43.30134,"lon":5.3878,"is_reserved":false,"is_disabled":false,"rental_uris":{"android":"levelo://app?vid=3aaf6731-8dbd-41db-b210-221834a11278","ios":"levelo://app?vid=3aaf6731-8dbd-41db-b210-221834a11278"},"vehicle_type_id":"4","last_reported":1730819385,"current_range_meters":35200,"station_id":"ce4bghh2rcd13ifvqb60","pricing_plan_id":"cebpf4jnsgd1na2vs0mg"},{"bike_id":"576aca20-ef12-4ebb-bc95-03df28e626f8","system_id":"levelo_inurba_marseille","lat":43.2834,"lon":5.38106,"is_reserved":false,"is_disabled":false,"rental_uris":{"android":"levelo://app?vid=576aca20-ef12-4ebb-bc95-03df28e626f8","ios":"levelo://app?vid=576aca20-ef12-4ebb-bc95-03df28e626f8"},"vehicle_type_id":"4","last_reported":1730819385,"current_range_meters":19200,"station_id":"ce4bh412rcd13ifvqdr0","pricing_plan_id":"cebpf4jnsgd1na2vs0mg"},{"bike_id":"38fe7290-53bc-4ab0-8102-95fc1d631517","system_id":"levelo_inurba_marseille","lat":43.23198,"lon":5.35554,"is_reserved":false,"is_disabled":false,"rental_uris":{"android":"levelo://app?vid=38fe7290-53bc-4ab0-8102-95fc1d631517","ios":"levelo://app?vid=38fe7290-53bc-4ab0-8102-95fc1d631517"},"vehicle_type_id":"4","last_reported":1730819385,"current_range_meters":38800,"station_id":"ce4bhu92rcd13ifvqi70","pricing_plan_id":"cebpf4jnsgd1na2vs0mg"},{"bike_id":"21d20814-38b8-4f7f-9e7a-8106a3b44949","system_id":"levelo_inurba_marseille","lat":43.23147,"lon":5.43722,"is_reserved":false,"is_disabled":false,"rental_uris":{"android":"levelo://app?vid=21d20814-38b8-4f7f-9e7a-8106a3b44949","ios":"levelo://app?vid=21d20814-38b8-4f7f-9e7a-8106a3b44949"},"vehicle_type_id":"4","last_reported":1730819385,"current_range_meters":4400,"station_id":"ce4bhmp2rcd13ifvqgog","pricing_plan_id":"cebpf4jnsgd1na2vs0mg"},{"bike_id":"dbb1cb1c-36e3-43ea-a956-708ab3fe6097","system_id":"levelo_inurba_marseille","lat":43.30141,"lon":5.38777,"is_reserved":false,"is_disabled":false,"rental_uris":{"android":"levelo://app?vid=dbb1cb1c-36e3-43ea-a956-708ab3fe6097","ios":"levelo://app?vid=dbb1cb1c-36e3-43ea-a956-708ab3fe6097"},"vehicle_type_id":"4","last_reported":1730819385,"current_range_meters":34800,"station_id":"ce4bghh2rcd13ifvqb60","pricing_plan_id":"cebpf4jnsgd1na2vs0mg"},{"bike_id":"369472c3-acc5-4938-81f9-f88ddca97fe8","system_id":"levelo_inurba_marseille","lat":43.29798,"lon":5.38119,"is_reserved":false,"is_disabled":false,"rental_uris":{"android":"levelo://app?vid=369472c3-acc5-4938-81f9-f88ddca97fe8","ios":"levelo://app?vid=369472c3-acc5-4938-81f9-f88ddca97fe8"},"vehicle_type_id":"4","last_reported":1730819385,"current_range_meters":17200,"station_id":"ce4bgip2rcd13ifvqbb0","pricing_plan_id":"cebpf4jnsgd1na2vs0mg"},{"bike_id":"01b4e37b-0cb8-4d43-88a2-5497453585d2","system_id":"levelo_inurba_marseille","lat":43.29804,"lon":5.38105,"is_reserved":false,"is_disabled":false,"rental_uris":{"android":"levelo://app?vid=01b4e37b-0cb8-4d43-88a2-5497453585d2","ios":"levelo://app?vid=01b4e37b-0cb8-4d43-88a2-5497453585d2"},"vehicle_type_id":"4","last_reported":1730819385,"current_range_meters":10000,"station_id":"ce4bgip2rcd13ifvqbb0","pricing_plan_id":"cebpf4jnsgd1na2vs0mg"},{"bike_id":"45be6033-1a14-4e3a-b9fb-36bec224e229","system_id":"levelo_inurba_marseille","lat":43.27996,"lon":5.40005,"is_reserved":false,"is_disabled":false,"rental_uris":{"android":"levelo://app?vid=45be6033-1a14-4e3a-b9fb-36bec224e229","ios":"levelo://app?vid=45be6033-1a14-4e3a-b9fb-36bec224e229"},"vehicle_type_id":"4","last_reported":1730819385,"current_range_meters":28400,"station_id":"ce4bho92rcd13ifvqh4g","pricing_plan_id":"cebpf4jnsgd1na2vs0mg"},{"bike_id":"97acd89b-692e-4328-b6cb-2de2a6e5ce1b","system_id":"levelo_inurba_marseille","lat":43.30431,"lon":5.38898,"is_reserved":false,"is_disabled":false,"rental_uris":{"android":"levelo://app?vid=97acd89b-692e-4328-b6cb-2de2a6e5ce1b","ios":"levelo://app?vid=97acd89b-692e-4328-b6cb-2de2a6e5ce1b"},"vehicle_type_id":"4","last_reported":1730819385,"current_range_meters":31200,"station_id":"ce4bgk12rcd13ifvqbi0","pricing_plan_id":"cebpf4jnsgd1na2vs0mg"},{"bike_id":"231f3cf0-9b1f-470d-b100-e546fd6187dd","system_id":"levelo_inurba_marseille","lat":43.29293,"lon":5.3746,"is_reserved":false,"is_disabled":false,"rental_uris":{"android":"levelo://app?vid=231f3cf0-9b1f-470d-b100-e546fd6187dd","ios":"levelo://app?vid=231f3cf0-9b1f-470d-b100-e546fd6187dd"},"vehicle_type_id":"4","last_reported":1730819385,"current_range_meters":27600,"station_id":"ce4bgi12rcd13ifvqb70","pricing_plan_id":"cebpf4jnsgd1na2vs0mg"},{"bike_id":"e7874ce2-f692-46c5-87b4-56890b100158","system_id":"levelo_inurba_marseille","lat":43.23064,"lon":5.35496,"is_reserved":false,"is_disabled":false,"rental_uris":{"android":"levelo://app?vid=e7874ce2-f692-46c5-87b4-56890b100158","ios":"levelo://app?vid=e7874ce2-f692-46c5-87b4-56890b100158"},"vehicle_type_id":"4","last_reported":1730819385,"current_range_meters":38800,"station_id":"cpo3342slgdg3j2ifvpg","pricing_plan_id":"cebpf4jnsgd1na2vs0mg"},{"bike_id":"3e06d000-cb3f-4564-ba27-95e2673d7185","system_id":"levelo_inurba_marseille","lat":43.29609,"lon":5.37714,"is_reserved":false,"is_disabled":false,"rental_uris":{"android":"levelo://app?vid=3e06d000-cb3f-4564-ba27-95e2673d7185","ios":"levelo://app?vid=3e06d000-cb3f-4564-ba27-95e2673d7185"},"vehicle_type_id":"4","last_reported":1730819385,"current_range_meters":38000,"station_id":"ce4bgi92rcd13ifvqb90","pricing_plan_id":"cebpf4jnsgd1na2vs0mg"},{"bike_id":"53b9295e-684a-43f7-957a-0b7e7e8ad690","system_id":"levelo_inurba_marseille","lat":43.2736,"lon":5.3625,"is_reserved":false,"is_disabled":false,"rental_uris":{"android":"levelo://app?vid=53b9295e-684a-43f7-957a-0b7e7e8ad690","ios":"levelo://app?vid=53b9295e-684a-43f7-957a-0b7e7e8ad690"},"vehicle_type_id":"4","last_reported":1730819385,"current_range_meters":16000,"station_id":"ce4bhbh2rcd13ifvqeo0","pricing_plan_id":"cebpf4jnsgd1na2vs0mg"},{"bike_id":"da82ae2a-8f14-4db9-92b5-d07f49bba8a8","system_id":"levelo_inurba_marseille","lat":43.25584,"lon":5.38232,"is_reserved":false,"is_disabled":false,"rental_uris":{"android":"levelo://app?vid=da82ae2a-8f14-4db9-92b5-d07f49bba8a8","ios":"levelo://app?vid=da82ae2a-8f14-4db9-92b5-d07f49bba8a8"},"vehicle_type_id":"4","last_reported":1730819385,"current_range_meters":16800,"station_id":"ce4bhih2rcd13ifvqfs0","pricing_plan_id":"cebpf4jnsgd1na2vs0mg"},{"bike_id":"4a621970-b77d-4631-af47-1506bdf19a84","system_id":"levelo_inurba_marseille","lat":43.27971,"lon":5.3874,"is_reserved":false,"is_disabled":false,"rental_uris":{"android":"levelo://app?vid=4a621970-b77d-4631-af47-1506bdf19a84","ios":"levelo://app?vid=4a621970-b77d-4631-af47-1506bdf19a84"},"vehicle_type_id":"4","last_reported":1730819385,"current_range_meters":33200,"station_id":"ce4bhg12rcd13ifvqf80","pricing_plan_id":"cebpf4jnsgd1na2vs0mg"},{"bike_id":"06e49247-080c-419f-a994-d535fd8961c7","system_id":"levelo_inurba_marseille","lat":43.29876,"lon":5.39739,"is_reserved":false,"is_disabled":false,"rental_uris":{"android":"levelo://app?vid=06e49247-080c-419f-a994-d535fd8961c7","ios":"levelo://app?vid=06e49247-080c-419f-a994-d535fd8961c7"},"vehicle_type_id":"4","last_reported":1730819385,"current_range_meters":18800,"station_id":"ce4bh0h2rcd13ifvqd50","pricing_plan_id":"cebpf4jnsgd1na2vs0mg"},{"bike_id":"c00bea07-7fca-48ff-b2cb-06a7ad838c9c","system_id":"levelo_inurba_marseille","lat":43.3054,"lon":5.36548,"is_reserved":false,"is_disabled":false,"rental_uris":{"android":"levelo://app?vid=c00bea07-7fca-48ff-b2cb-06a7ad838c9c","ios":"levelo://app?vid=c00bea07-7fca-48ff-b2cb-06a7ad838c9c"},"vehicle_type_id":"4","last_reported":1730819385,"current_range_meters":38800,"station_id":"ce4bgs12rcd13ifvqcag","pricing_plan_id":"cebpf4jnsgd1na2vs0mg"},{"bike_id":"8ec7a0f8-0810-4f63-a3ea-9187f3130e04","system_id":"levelo_inurba_marseille","lat":43.28082,"lon":5.3966,"is_reserved":false,"is_disabled":false,"rental_uris":{"android":"levelo://app?vid=8ec7a0f8-0810-4f63-a3ea-9187f3130e04","ios":"levelo://app?vid=8ec7a0f8-0810-4f63-a3ea-9187f3130e04"},"vehicle_type_id":"4","last_reported":1730819385,"current_range_meters":26000,"station_id":"ce4bho12rcd13ifvqh2g","pricing_plan_id":"cebpf4jnsgd1na2vs0mg"},{"bike_id":"79263820-1081-4e72-ab82-53de7a28684f","system_id":"levelo_inurba_marseille","lat":43.29529,"lon":5.38546,"is_reserved":false,"is_disabled":false,"rental_uris":{"android":"levelo://app?vid=79263820-1081-4e72-ab82-53de7a28684f","ios":"levelo://app?vid=79263820-1081-4e72-ab82-53de7a28684f"},"vehicle_type_id":"4","last_reported":1730819385,"current_range_meters":27200,"station_id":"ce4bgih2rcd13ifvqba0","pricing_plan_id":"cebpf4jnsgd1na2vs0mg"},{"bike_id":"c6660c5c-3b3e-4729-9c1c-fe1a31ecd2e9","system_id":"levelo_inurba_marseille","lat":43.32478,"lon":5.36573,"is_reserved":false,"is_disabled":false,"rental_uris":{"android":"levelo://app?vid=c6660c5c-3b3e-4729-9c1c-fe1a31ecd2e9","ios":"levelo://app?vid=c6660c5c-3b3e-4729-9c1c-fe1a31ecd2e9"},"vehicle_type_id":"4","last_reported":1730819385,"current_range_meters":34000,"station_id":"ce4bhs12rcd13ifvqhvg","pricing_plan_id":"cebpf4jnsgd1na2vs0mg"},{"bike_id":"c2df6276-d0ea-475d-9ce8-c77644565570","system_id":"levelo_inurba_marseille","lat":43.33756,"lon":5.37434,"is_reserved":false,"is_disabled":false,"rental_uris":{"android":"levelo://app?vid=c2df6276-d0ea-475d-9ce8-c77644565570","ios":"levelo://app?vid=c2df6276-d0ea-475d-9ce8-c77644565570"},"vehicle_type_id":"4","last_reported":1730819385,"current_range_meters":36800,"station_id":"","pricing_plan_id":"cebpf4jnsgd1na2vs0mg"},{"bike_id":"526c40dd-476b-43b8-86bf-4b1f6a5392a8","system_id":"levelo_inurba_marseille","lat":43.28346,"lon":5.386307,"is_reserved":false,"is_disabled":false,"rental_uris":{"android":"levelo://app?vid=526c40dd-476b-43b8-86bf-4b1f6a5392a8","ios":"levelo://app?vid=526c40dd-476b-43b8-86bf-4b1f6a5392a8"},"vehicle_type_id":"4","last_reported":1730819385,"current_range_meters":25600,"station_id":"ce4bhop2rcd13ifvqh7g","pricing_plan_id":"cebpf4jnsgd1na2vs0mg"},{"bike_id":"79dc6371-9f69-4ba8-abf4-03c6ad162c4f","system_id":"levelo_inurba_marseille","lat":43.2993,"lon":5.36535,"is_reserved":false,"is_disabled":false,"rental_uris":{"android":"levelo://app?vid=79dc6371-9f69-4ba8-abf4-03c6ad162c4f","ios":"levelo://app?vid=79dc6371-9f69-4ba8-abf4-03c6ad162c4f"},"vehicle_type_id":"4","last_reported":1730819385,"current_range_meters":30400,"station_id":"ce4bgm92rcd13ifvqbr0","pricing_plan_id":"cebpf4jnsgd1na2vs0mg"},{"bike_id":"eab47ed5-f83a-4939-80d1-ff052743bdd1","system_id":"levelo_inurba_marseille","lat":43.32108,"lon":5.36774,"is_reserved":false,"is_disabled":false,"rental_uris":{"android":"levelo://app?vid=eab47ed5-f83a-4939-80d1-ff052743bdd1","ios":"levelo://app?vid=eab47ed5-f83a-4939-80d1-ff052743bdd1"},"vehicle_type_id":"4","last_reported":1730819385,"current_range_meters":30400,"station_id":"ce4bhrh2rcd13ifvqhug","pricing_plan_id":"cebpf4jnsgd1na2vs0mg"},{"bike_id":"ff8150f2-754e-44bc-9d6e-4492e2d81270","system_id":"levelo_inurba_marseille","lat":43.26953,"lon":5.38625,"is_reserved":false,"is_disabled":false,"rental_uris":{"android":"levelo://app?vid=ff8150f2-754e-44bc-9d6e-4492e2d81270","ios":"levelo://app?vid=ff8150f2-754e-44bc-9d6e-4492e2d81270"},"vehicle_type_id":"4","last_reported":1730819385,"current_range_meters":1600,"station_id":"ce4bhh92rcd13ifvqfh0","pricing_plan_id":"cebpf4jnsgd1na2vs0mg"},{"bike_id":"1c5605e4-6a20-44e3-b2ef-bf0ce9b1e84c","system_id":"levelo_inurba_marseille","lat":43.2987,"lon":5.39736,"is_reserved":false,"is_disabled":false,"rental_uris":{"android":"levelo://app?vid=1c5605e4-6a20-44e3-b2ef-bf0ce9b1e84c","ios":"levelo://app?vid=1c5605e4-6a20-44e3-b2ef-bf0ce9b1e84c"},"vehicle_type_id":"4","last_reported":1730819385,"current_range_meters":16400,"station_id":"ce4bh0h2rcd13ifvqd50","pricing_plan_id":"cebpf4jnsgd1na2vs0mg"},{"bike_id":"2fac616e-c10f-4b93-9777-09eb2ba8f7e5","system_id":"levelo_inurba_marseille","lat":43.32478,"lon":5.36569,"is_reserved":false,"is_disabled":false,"rental_uris":{"android":"levelo://app?vid=2fac616e-c10f-4b93-9777-09eb2ba8f7e5","ios":"levelo://app?vid=2fac616e-c10f-4b93-9777-09eb2ba8f7e5"},"vehicle_type_id":"4","last_reported":1730819385,"current_range_meters":38800,"station_id":"ce4bhs12rcd13ifvqhvg","pricing_plan_id":"cebpf4jnsgd1na2vs0mg"},{"bike_id":"a0220463-e9a5-4762-8125-312ce5dd61f0","system_id":"levelo_inurba_marseille","lat":43.25494,"lon":5.37652,"is_reserved":false,"is_disabled":false,"rental_uris":{"android":"levelo://app?vid=a0220463-e9a5-4762-8125-312ce5dd61f0","ios":"levelo://app?vid=a0220463-e9a5-4762-8125-312ce5dd61f0"},"vehicle_type_id":"4","last_reported":1730819385,"current_range_meters":16800,"station_id":"ce4bhh12rcd13ifvqff0","pricing_plan_id":"cebpf4jnsgd1na2vs0mg"},{"bike_id":"d209b447-cbb8-4ee8-b360-9577dfaa222f","system_id":"levelo_inurba_marseille","lat":43.23152,"lon":5.43719,"is_reserved":false,"is_disabled":false,"rental_uris":{"android":"levelo://app?vid=d209b447-cbb8-4ee8-b360-9577dfaa222f","ios":"levelo://app?vid=d209b447-cbb8-4ee8-b360-9577dfaa222f"},"vehicle_type_id":"4","last_reported":1730819385,"current_range_meters":16400,"station_id":"ce4bhmp2rcd13ifvqgog","pricing_plan_id":"cebpf4jnsgd1na2vs0mg"},{"bike_id":"f3ec276e-9291-4f79-afb4-5112f30eb835","system_id":"levelo_inurba_marseille","lat":43.25121,"lon":5.40325,"is_reserved":false,"is_disabled":false,"rental_uris":{"android":"levelo://app?vid=f3ec276e-9291-4f79-afb4-5112f30eb835","ios":"levelo://app?vid=f3ec276e-9291-4f79-afb4-5112f30eb835"},"vehicle_type_id":"4","last_reported":1730819385,"current_range_meters":38800,"station_id":"ce4bhlh2rcd13ifvqgig","pricing_plan_id":"cebpf4jnsgd1na2vs0mg"},{"bike_id":"9fcd000c-0593-40bb-8f4b-aa0f3def9822","system_id":"levelo_inurba_marseille","lat":43.288849,"lon":5.359844,"is_reserved":false,"is_disabled":false,"rental_uris":{"android":"levelo://app?vid=9fcd000c-0593-40bb-8f4b-aa0f3def9822","ios":"levelo://app?vid=9fcd000c-0593-40bb-8f4b-aa0f3def9822"},"vehicle_type_id":"4","last_reported":1730819385,"current_range_meters":14000,"station_id":"ce4bhb12rcd13ifvqem0","pricing_plan_id":"cebpf4jnsgd1na2vs0mg"},{"bike_id":"cb841f1b-8ec2-434a-a03b-a03c49d20874","system_id":"levelo_inurba_marseille","lat":43.27322,"lon":5.39088,"is_reserved":false,"is_disabled":false,"rental_uris":{"android":"levelo://app?vid=cb841f1b-8ec2-434a-a03b-a03c49d20874","ios":"levelo://app?vid=cb841f1b-8ec2-434a-a03b-a03c49d20874"},"vehicle_type_id":"4","last_reported":1730819385,"current_range_meters":16400,"station_id":"ce4bhgp2rcd13ifvqfe0","pricing_plan_id":"cebpf4jnsgd1na2vs0mg"},{"bike_id":"eccac564-897e-4462-9f23-85463feaf739","system_id":"levelo_inurba_marseille","lat":43.29916,"lon":5.3748,"is_reserved":false,"is_disabled":false,"rental_uris":{"android":"levelo://app?vid=eccac564-897e-4462-9f23-85463feaf739","ios":"levelo://app?vid=eccac564-897e-4462-9f23-85463feaf739"},"vehicle_type_id":"4","last_reported":1730819385,"current_range_meters":21600,"station_id":"ce4bgjh2rcd13ifvqbg0","pricing_plan_id":"cebpf4jnsgd1na2vs0mg"},{"bike_id":"dae3cb57-45eb-4cb2-9f40-56cb58a419e2","system_id":"levelo_inurba_marseille","lat":43.28105,"lon":5.37841,"is_reserved":false,"is_disabled":false,"rental_uris":{"android":"levelo://app?vid=dae3cb57-45eb-4cb2-9f40-56cb58a419e2","ios":"levelo://app?vid=dae3cb57-45eb-4cb2-9f40-56cb58a419e2"},"vehicle_type_id":"4","last_reported":1730819385,"current_range_meters":20000,"station_id":"ce4bha12rcd13ifvqee0","pricing_plan_id":"cebpf4jnsgd1na2vs0mg"},{"bike_id":"c4774159-8365-4552-8ea6-61491785d524","system_id":"levelo_inurba_marseille","lat":43.27998,"lon":5.41667,"is_reserved":false,"is_disabled":false,"rental_uris":{"android":"levelo://app?vid=c4774159-8365-4552-8ea6-61491785d524","ios":"levelo://app?vid=c4774159-8365-4552-8ea6-61491785d524"},"vehicle_type_id":"4","last_reported":1730819385,"current_range_meters":3200,"station_id":"ce4bho12rcd13ifvqh1g","pricing_plan_id":"cebpf4jnsgd1na2vs0mg"},{"bike_id":"1cd126ee-628e-47eb-9b7d-b2f5e89e599c","system_id":"levelo_inurba_marseille","lat":43.29072,"lon":5.37154,"is_reserved":false,"is_disabled":false,"rental_uris":{"android":"levelo://app?vid=1cd126ee-628e-47eb-9b7d-b2f5e89e599c","ios":"levelo://app?vid=1cd126ee-628e-47eb-9b7d-b2f5e89e599c"},"vehicle_type_id":"4","last_reported":1730819385,"current_range_meters":39200,"station_id":"ce4bh5p2rcd13ifvqe4g","pricing_plan_id":"cebpf4jnsgd1na2vs0mg"},{"bike_id":"17ac160f-5bde-4ba6-aa21-92d89e80d909","system_id":"levelo_inurba_marseille","lat":43.31075,"lon":5.38354,"is_reserved":false,"is_disabled":false,"rental_uris":{"android":"levelo://app?vid=17ac160f-5bde-4ba6-aa21-92d89e80d909","ios":"levelo://app?vid=17ac160f-5bde-4ba6-aa21-92d89e80d909"},"vehicle_type_id":"4","last_reported":1730819385,"current_range_meters":36400,"station_id":"ce4bgv92rcd13ifvqcr0","pricing_plan_id":"cebpf4jnsgd1na2vs0mg"},{"bike_id":"f403974f-c4cd-4379-a8de-5fba002f066c","system_id":"levelo_inurba_marseille","lat":43.30089,"lon":5.39064,"is_reserved":false,"is_disabled":false,"rental_uris":{"android":"levelo://app?vid=f403974f-c4cd-4379-a8de-5fba002f066c","ios":"levelo://app?vid=f403974f-c4cd-4379-a8de-5fba002f066c"},"vehicle_type_id":"4","last_reported":1730819385,"current_range_meters":27200,"station_id":"ce4bh192rcd13ifvqdb0","pricing_plan_id":"cebpf4jnsgd1na2vs0mg"},{"bike_id":"25ba88da-ff36-4998-a7af-4abb87c80882","system_id":"levelo_inurba_marseille","lat":43.2846,"lon":5.35889,"is_reserved":false,"is_disabled":false,"rental_uris":{"android":"levelo://app?vid=25ba88da-ff36-4998-a7af-4abb87c80882","ios":"levelo://app?vid=25ba88da-ff36-4998-a7af-4abb87c80882"},"vehicle_type_id":"4","last_reported":1730819385,"current_range_meters":17600,"station_id":"ce4bhah2rcd13ifvqei0","pricing_plan_id":"cebpf4jnsgd1na2vs0mg"},{"bike_id":"56ccd32a-0e12-4863-9eda-0882e19c9013","system_id":"levelo_inurba_marseille","lat":43.2678,"lon":5.39418,"is_reserved":false,"is_disabled":false,"rental_uris":{"android":"levelo://app?vid=56ccd32a-0e12-4863-9eda-0882e19c9013","ios":"levelo://app?vid=56ccd32a-0e12-4863-9eda-0882e19c9013"},"vehicle_type_id":"4","last_reported":1730819385,"current_range_meters":28800,"station_id":"ce4bhh12rcd13ifvqfg0","pricing_plan_id":"cebpf4jnsgd1na2vs0mg"},{"bike_id":"48316712-f8da-4a1d-b8ca-df973e06902a","system_id":"levelo_inurba_marseille","lat":43.30249,"lon":5.40074,"is_reserved":false,"is_disabled":false,"rental_uris":{"android":"levelo://app?vid=48316712-f8da-4a1d-b8ca-df973e06902a","ios":"levelo://app?vid=48316712-f8da-4a1d-b8ca-df973e06902a"},"vehicle_type_id":"4","last_reported":1730819385,"current_range_meters":22400,"station_id":"ce4bh112rcd13ifvqda0","pricing_plan_id":"cebpf4jnsgd1na2vs0mg"},{"bike_id":"fbe3f7e4-d7c4-444d-9f29-57814bee6bc7","system_id":"levelo_inurba_marseille","lat":43.28619,"lon":5.351,"is_reserved":false,"is_disabled":false,"rental_uris":{"android":"levelo://app?vid=fbe3f7e4-d7c4-444d-9f29-57814bee6bc7","ios":"levelo://app?vid=fbe3f7e4-d7c4-444d-9f29-57814bee6bc7"},"vehicle_type_id":"4","last_reported":1730819385,"current_range_meters":8800,"station_id":"ce4bhch2rcd13ifvqeug","pricing_plan_id":"cebpf4jnsgd1na2vs0mg"},{"bike_id":"213a6761-48d8-4a2b-9b0f-8fa0e9dbbd7d","system_id":"levelo_inurba_marseille","lat":43.24069,"lon":5.37765,"is_reserved":false,"is_disabled":false,"rental_uris":{"android":"levelo://app?vid=213a6761-48d8-4a2b-9b0f-8fa0e9dbbd7d","ios":"levelo://app?vid=213a6761-48d8-4a2b-9b0f-8fa0e9dbbd7d"},"vehicle_type_id":"4","last_reported":1730819385,"current_range_meters":30000,"station_id":"ce4bhnp2rcd13ifvqgvg","pricing_plan_id":"cebpf4jnsgd1na2vs0mg"},{"bike_id":"93a83a5c-0d3d-43a2-be24-e99a92c3575d","system_id":"levelo_inurba_marseille","lat":43.30902,"lon":5.36862,"is_reserved":false,"is_disabled":false,"rental_uris":{"android":"levelo://app?vid=93a83a5c-0d3d-43a2-be24-e99a92c3575d","ios":"levelo://app?vid=93a83a5c-0d3d-43a2-be24-e99a92c3575d"},"vehicle_type_id":"4","last_reported":1730819385,"current_range_meters":17200,"station_id":"ce4bgn92rcd13ifvqbvg","pricing_plan_id":"cebpf4jnsgd1na2vs0mg"},{"bike_id":"3032e26e-e547-4a64-8e35-4ac6102dacf7","system_id":"levelo_inurba_marseille","lat":43.28967,"lon":5.36619,"is_reserved":false,"is_disabled":false,"rental_uris":{"android":"levelo://app?vid=3032e26e-e547-4a64-8e35-4ac6102dacf7","ios":"levelo://app?vid=3032e26e-e547-4a64-8e35-4ac6102dacf7"},"vehicle_type_id":"4","last_reported":1730819385,"current_range_meters":6400,"station_id":"ce4bhap2rcd13ifvqek0","pricing_plan_id":"cebpf4jnsgd1na2vs0mg"},{"bike_id":"05f88113-4fbe-4ad2-bd75-9b041f9484b6","system_id":"levelo_inurba_marseille","lat":43.25107,"lon":5.40323,"is_reserved":false,"is_disabled":false,"rental_uris":{"android":"levelo://app?vid=05f88113-4fbe-4ad2-bd75-9b041f9484b6","ios":"levelo://app?vid=05f88113-4fbe-4ad2-bd75-9b041f9484b6"},"vehicle_type_id":"4","last_reported":1730819385,"current_range_meters":2800,"station_id":"ce4bhlh2rcd13ifvqgig","pricing_plan_id":"cebpf4jnsgd1na2vs0mg"},{"bike_id":"61fdf647-d58a-4fbd-bfc7-2b1b808d286c","system_id":"levelo_inurba_marseille","lat":43.33021,"lon":5.39045,"is_reserved":false,"is_disabled":false,"rental_uris":{"android":"levelo://app?vid=61fdf647-d58a-4fbd-bfc7-2b1b808d286c","ios":"levelo://app?vid=61fdf647-d58a-4fbd-bfc7-2b1b808d286c"},"vehicle_type_id":"4","last_reported":1730819385,"current_range_meters":12400,"station_id":"ce4bhr92rcd13ifvqhrg","pricing_plan_id":"cebpf4jnsgd1na2vs0mg"},{"bike_id":"c2457a11-f1d4-4f41-a53d-37a8ff85ebc6","system_id":"levelo_inurba_marseille","lat":43.33764,"lon":5.37441,"is_reserved":false,"is_disabled":false,"rental_uris":{"android":"levelo://app?vid=c2457a11-f1d4-4f41-a53d-37a8ff85ebc6","ios":"levelo://app?vid=c2457a11-f1d4-4f41-a53d-37a8ff85ebc6"},"vehicle_type_id":"4","last_reported":1730819385,"current_range_meters":25200,"station_id":"","pricing_plan_id":"cebpf4jnsgd1na2vs0mg"},{"bike_id":"04575049-e232-448b-97cc-f84df2aa6e6a","system_id":"levelo_inurba_marseille","lat":43.32488,"lon":5.36582,"is_reserved":false,"is_disabled":false,"rental_uris":{"android":"levelo://app?vid=04575049-e232-448b-97cc-f84df2aa6e6a","ios":"levelo://app?vid=04575049-e232-448b-97cc-f84df2aa6e6a"},"vehicle_type_id":"4","last_reported":1730819385,"current_range_meters":38800,"station_id":"ce4bhs12rcd13ifvqhvg","pricing_plan_id":"cebpf4jnsgd1na2vs0mg"},{"bike_id":"e19d78ba-846f-462f-a28d-df63b5c3d833","system_id":"levelo_inurba_marseille","lat":43.2998,"lon":5.37187,"is_reserved":false,"is_disabled":false,"rental_uris":{"android":"levelo://app?vid=e19d78ba-846f-462f-a28d-df63b5c3d833","ios":"levelo://app?vid=e19d78ba-846f-462f-a28d-df63b5c3d833"},"vehicle_type_id":"4","last_reported":1730819385,"current_range_meters":25600,"station_id":"ce4bgr92rcd13ifvqc7g","pricing_plan_id":"cebpf4jnsgd1na2vs0mg"},{"bike_id":"678e92a7-7e41-42c0-8834-49af7cd5117d","system_id":"levelo_inurba_marseille","lat":43.31704,"lon":5.43722,"is_reserved":false,"is_disabled":false,"rental_uris":{"android":"levelo://app?vid=678e92a7-7e41-42c0-8834-49af7cd5117d","ios":"levelo://app?vid=678e92a7-7e41-42c0-8834-49af7cd5117d"},"vehicle_type_id":"4","last_reported":1730819385,"current_range_meters":38400,"station_id":"ce4bhp92rcd13ifvqhcg","pricing_plan_id":"cebpf4jnsgd1na2vs0mg"},{"bike_id":"942fde1f-76dc-4b68-91ce-7bfb5e926096","system_id":"levelo_inurba_marseille","lat":43.25576,"lon":5.38229,"is_reserved":false,"is_disabled":false,"rental_uris":{"android":"levelo://app?vid=942fde1f-76dc-4b68-91ce-7bfb5e926096","ios":"levelo://app?vid=942fde1f-76dc-4b68-91ce-7bfb5e926096"},"vehicle_type_id":"4","last_reported":1730819385,"current_range_meters":35200,"station_id":"ce4bhgp2rcd13ifvqfd0","pricing_plan_id":"cebpf4jnsgd1na2vs0mg"},{"bike_id":"fa023c3b-e22c-4232-b06b-f645d44bbe7f","system_id":"levelo_inurba_marseille","lat":43.281067,"lon":5.351855,"is_reserved":false,"is_disabled":false,"rental_uris":{"android":"levelo://app?vid=fa023c3b-e22c-4232-b06b-f645d44bbe7f","ios":"levelo://app?vid=fa023c3b-e22c-4232-b06b-f645d44bbe7f"},"vehicle_type_id":"4","last_reported":1730819385,"current_range_meters":4800,"station_id":"ce4bhah2rcd13ifvqej0","pricing_plan_id":"cebpf4jnsgd1na2vs0mg"},{"bike_id":"c25ac7f9-6d4b-4292-8786-b4f165c717f2","system_id":"levelo_inurba_marseille","lat":43.27827,"lon":5.39206,"is_reserved":false,"is_disabled":false,"rental_uris":{"android":"levelo://app?vid=c25ac7f9-6d4b-4292-8786-b4f165c717f2","ios":"levelo://app?vid=c25ac7f9-6d4b-4292-8786-b4f165c717f2"},"vehicle_type_id":"4","last_reported":1730819385,"current_range_meters":38400,"station_id":"ce4bhjp2rcd13ifvqga0","pricing_plan_id":"cebpf4jnsgd1na2vs0mg"},{"bike_id":"6b0d0f7e-cbaa-4592-bcc6-bc9f2b73841c","system_id":"levelo_inurba_marseille","lat":43.27813,"lon":5.40713,"is_reserved":false,"is_disabled":false,"rental_uris":{"android":"levelo://app?vid=6b0d0f7e-cbaa-4592-bcc6-bc9f2b73841c","ios":"levelo://app?vid=6b0d0f7e-cbaa-4592-bcc6-bc9f2b73841c"},"vehicle_type_id":"4","last_reported":1730819385,"current_range_meters":36000,"station_id":"ce4bhnh2rcd13ifvqgtg","pricing_plan_id":"cebpf4jnsgd1na2vs0mg"},{"bike_id":"79aaefbf-eac4-4415-ab10-7fdbfd321960","system_id":"levelo_inurba_marseille","lat":43.306732,"lon":5.40122,"is_reserved":false,"is_disabled":false,"rental_uris":{"android":"levelo://app?vid=79aaefbf-eac4-4415-ab10-7fdbfd321960","ios":"levelo://app?vid=79aaefbf-eac4-4415-ab10-7fdbfd321960"},"vehicle_type_id":"4","last_reported":1730819385,"current_range_meters":24000,"station_id":"ce4bhph2rcd13ifvqhdg","pricing_plan_id":"cebpf4jnsgd1na2vs0mg"},{"bike_id":"314504e5-a39d-46f5-933a-e84e1e1a18cd","system_id":"levelo_inurba_marseille","lat":43.30913,"lon":5.36847,"is_reserved":false,"is_disabled":false,"rental_uris":{"android":"levelo://app?vid=314504e5-a39d-46f5-933a-e84e1e1a18cd","ios":"levelo://app?vid=314504e5-a39d-46f5-933a-e84e1e1a18cd"},"vehicle_type_id":"4","last_reported":1730819385,"current_range_meters":14400,"station_id":"ce4bgn92rcd13ifvqbvg","pricing_plan_id":"cebpf4jnsgd1na2vs0mg"},{"bike_id":"4b8ef592-ebba-4151-9566-05b35d8034de","system_id":"levelo_inurba_marseille","lat":43.24075,"lon":5.37758,"is_reserved":false,"is_disabled":false,"rental_uris":{"android":"levelo://app?vid=4b8ef592-ebba-4151-9566-05b35d8034de","ios":"levelo://app?vid=4b8ef592-ebba-4151-9566-05b35d8034de"},"vehicle_type_id":"4","last_reported":1730819385,"current_range_meters":27600,"station_id":"ce4bhnp2rcd13ifvqgvg","pricing_plan_id":"cebpf4jnsgd1na2vs0mg"},{"bike_id":"e6332214-5f28-47ba-bc9a-7fb720629e43","system_id":"levelo_inurba_marseille","lat":43.24804,"lon":5.37455,"is_reserved":false,"is_disabled":false,"rental_uris":{"android":"levelo://app?vid=e6332214-5f28-47ba-bc9a-7fb720629e43","ios":"levelo://app?vid=e6332214-5f28-47ba-bc9a-7fb720629e43"},"vehicle_type_id":"4","last_reported":1730819385,"current_range_meters":28400,"station_id":"ce4bhgh2rcd13ifvqfb0","pricing_plan_id":"cebpf4jnsgd1na2vs0mg"},{"bike_id":"d74360a7-cce2-4782-982b-e9593aa5d07d","system_id":"levelo_inurba_marseille","lat":43.31324,"lon":5.3969,"is_reserved":false,"is_disabled":false,"rental_uris":{"android":"levelo://app?vid=d74360a7-cce2-4782-982b-e9593aa5d07d","ios":"levelo://app?vid=d74360a7-cce2-4782-982b-e9593aa5d07d"},"vehicle_type_id":"4","last_reported":1730819385,"current_range_meters":36400,"station_id":"ce4bgvp2rcd13ifvqcu0","pricing_plan_id":"cebpf4jnsgd1na2vs0mg"},{"bike_id":"62bafaad-f624-4083-adfa-94a63f51e0e0","system_id":"levelo_inurba_marseille","lat":43.28406,"lon":5.37519,"is_reserved":false,"is_disabled":false,"rental_uris":{"android":"levelo://app?vid=62bafaad-f624-4083-adfa-94a63f51e0e0","ios":"levelo://app?vid=62bafaad-f624-4083-adfa-94a63f51e0e0"},"vehicle_type_id":"4","last_reported":1730819385,"current_range_meters":32000,"station_id":"ce4bh412rcd13ifvqds0","pricing_plan_id":"cebpf4jnsgd1na2vs0mg"},{"bike_id":"2e5b4eda-1e00-4de7-bf32-df40f4d56ed2","system_id":"levelo_inurba_marseille","lat":43.32477,"lon":5.36564,"is_reserved":false,"is_disabled":false,"rental_uris":{"android":"levelo://app?vid=2e5b4eda-1e00-4de7-bf32-df40f4d56ed2","ios":"levelo://app?vid=2e5b4eda-1e00-4de7-bf32-df40f4d56ed2"},"vehicle_type_id":"4","last_reported":1730819385,"current_range_meters":9200,"station_id":"ce4bhs12rcd13ifvqhvg","pricing_plan_id":"cebpf4jnsgd1na2vs0mg"},{"bike_id":"3b53297b-b345-45c6-b631-3a8ab72849f7","system_id":"levelo_inurba_marseille","lat":43.28978,"lon":5.37833,"is_reserved":false,"is_disabled":false,"rental_uris":{"android":"levelo://app?vid=3b53297b-b345-45c6-b631-3a8ab72849f7","ios":"levelo://app?vid=3b53297b-b345-45c6-b631-3a8ab72849f7"},"vehicle_type_id":"4","last_reported":1730819385,"current_range_meters":38800,"station_id":"ce4bh9p2rcd13ifvqed0","pricing_plan_id":"cebpf4jnsgd1na2vs0mg"},{"bike_id":"4fd336fb-ec63-4d09-84d4-45cf143f4508","system_id":"levelo_inurba_marseille","lat":43.31324,"lon":5.39695,"is_reserved":false,"is_disabled":false,"rental_uris":{"android":"levelo://app?vid=4fd336fb-ec63-4d09-84d4-45cf143f4508","ios":"levelo://app?vid=4fd336fb-ec63-4d09-84d4-45cf143f4508"},"vehicle_type_id":"4","last_reported":1730819385,"current_range_meters":38000,"station_id":"ce4bgvp2rcd13ifvqcu0","pricing_plan_id":"cebpf4jnsgd1na2vs0mg"},{"bike_id":"8c941800-34cc-4e89-8ad2-0b768395f319","system_id":"levelo_inurba_marseille","lat":43.32476,"lon":5.36566,"is_reserved":false,"is_disabled":false,"rental_uris":{"android":"levelo://app?vid=8c941800-34cc-4e89-8ad2-0b768395f319","ios":"levelo://app?vid=8c941800-34cc-4e89-8ad2-0b768395f319"},"vehicle_type_id":"4","last_reported":1730819385,"current_range_meters":18800,"station_id":"ce4bhs12rcd13ifvqhvg","pricing_plan_id":"cebpf4jnsgd1na2vs0mg"},{"bike_id":"32bf3dd1-2038-4d45-b588-0bd283fdfc6a","system_id":"levelo_inurba_marseille","lat":43.28705,"lon":5.37953,"is_reserved":false,"is_disabled":false,"rental_uris":{"android":"levelo://app?vid=32bf3dd1-2038-4d45-b588-0bd283fdfc6a","ios":"levelo://app?vid=32bf3dd1-2038-4d45-b588-0bd283fdfc6a"},"vehicle_type_id":"4","last_reported":1730819385,"current_range_meters":12000,"station_id":"ce4bh9p2rcd13ifvqec0","pricing_plan_id":"cebpf4jnsgd1na2vs0mg"},{"bike_id":"cd3bfcdf-9178-4b1e-9398-9b79700abcf7","system_id":"levelo_inurba_marseille","lat":43.30639,"lon":5.40099,"is_reserved":false,"is_disabled":false,"rental_uris":{"android":"levelo://app?vid=cd3bfcdf-9178-4b1e-9398-9b79700abcf7","ios":"levelo://app?vid=cd3bfcdf-9178-4b1e-9398-9b79700abcf7"},"vehicle_type_id":"4","last_reported":1730819385,"current_range_meters":27200,"station_id":"ce4bh112rcd13ifvqda0","pricing_plan_id":"cebpf4jnsgd1na2vs0mg"},{"bike_id":"b961c364-69f9-4b3b-a2e6-fc6563170e45","system_id":"levelo_inurba_marseille","lat":43.32474,"lon":5.36573,"is_reserved":false,"is_disabled":false,"rental_uris":{"android":"levelo://app?vid=b961c364-69f9-4b3b-a2e6-fc6563170e45","ios":"levelo://app?vid=b961c364-69f9-4b3b-a2e6-fc6563170e45"},"vehicle_type_id":"4","last_reported":1730819385,"current_range_meters":39200,"station_id":"ce4bhs12rcd13ifvqhvg","pricing_plan_id":"cebpf4jnsgd1na2vs0mg"},{"bike_id":"f499ee90-51c0-42ea-bee6-b8b5c260f80a","system_id":"levelo_inurba_marseille","lat":43.3205,"lon":5.41537,"is_reserved":false,"is_disabled":false,"rental_uris":{"android":"levelo://app?vid=f499ee90-51c0-42ea-bee6-b8b5c260f80a","ios":"levelo://app?vid=f499ee90-51c0-42ea-bee6-b8b5c260f80a"},"vehicle_type_id":"4","last_reported":1730819385,"current_range_meters":30800,"station_id":"ce4bhq92rcd13ifvqhkg","pricing_plan_id":"cebpf4jnsgd1na2vs0mg"},{"bike_id":"4bf42d90-fea5-4c4b-afaa-36a2e6dad89f","system_id":"levelo_inurba_marseille","lat":43.2502,"lon":5.37514,"is_reserved":false,"is_disabled":false,"rental_uris":{"android":"levelo://app?vid=4bf42d90-fea5-4c4b-afaa-36a2e6dad89f","ios":"levelo://app?vid=4bf42d90-fea5-4c4b-afaa-36a2e6dad89f"},"vehicle_type_id":"4","last_reported":1730819385,"current_range_meters":30000,"station_id":"ce4bhnp2rcd13ifvqgvg","pricing_plan_id":"cebpf4jnsgd1na2vs0mg"},{"bike_id":"eaa75120-457f-4f1e-a35e-9335a679a03f","system_id":"levelo_inurba_marseille","lat":43.30874,"lon":5.39652,"is_reserved":false,"is_disabled":false,"rental_uris":{"android":"levelo://app?vid=eaa75120-457f-4f1e-a35e-9335a679a03f","ios":"levelo://app?vid=eaa75120-457f-4f1e-a35e-9335a679a03f"},"vehicle_type_id":"4","last_reported":1730819385,"current_range_meters":34800,"station_id":"ce4bh012rcd13ifvqcv0","pricing_plan_id":"cebpf4jnsgd1na2vs0mg"},{"bike_id":"1a8c5844-8cbe-4fd1-a7f4-7b0efe210728","system_id":"levelo_inurba_marseille","lat":43.29166,"lon":5.42723,"is_reserved":false,"is_disabled":false,"rental_uris":{"android":"levelo://app?vid=1a8c5844-8cbe-4fd1-a7f4-7b0efe210728","ios":"levelo://app?vid=1a8c5844-8cbe-4fd1-a7f4-7b0efe210728"},"vehicle_type_id":"4","last_reported":1730819385,"current_range_meters":25600,"station_id":"","pricing_plan_id":"cebpf4jnsgd1na2vs0mg"},{"bike_id":"423d1f3d-987c-48a7-b6e4-291c35a196ff","system_id":"levelo_inurba_marseille","lat":43.302185,"lon":5.394586,"is_reserved":false,"is_disabled":false,"rental_uris":{"android":"levelo://app?vid=423d1f3d-987c-48a7-b6e4-291c35a196ff","ios":"levelo://app?vid=423d1f3d-987c-48a7-b6e4-291c35a196ff"},"vehicle_type_id":"4","last_reported":1730819385,"current_range_meters":38800,"station_id":"ce4bh0p2rcd13ifvqd70","pricing_plan_id":"cebpf4jnsgd1na2vs0mg"},{"bike_id":"e74fa1ef-347c-4f40-bd8c-c8d6660f0678","system_id":"levelo_inurba_marseille","lat":43.26026,"lon":5.3755,"is_reserved":false,"is_disabled":false,"rental_uris":{"android":"levelo://app?vid=e74fa1ef-347c-4f40-bd8c-c8d6660f0678","ios":"levelo://app?vid=e74fa1ef-347c-4f40-bd8c-c8d6660f0678"},"vehicle_type_id":"4","last_reported":1730819385,"current_range_meters":20800,"station_id":"ce4bhgh2rcd13ifvqfa0","pricing_plan_id":"cebpf4jnsgd1na2vs0mg"},{"bike_id":"64c47128-1ee4-402f-b470-f8fc92dec288","system_id":"levelo_inurba_marseille","lat":43.29987,"lon":5.37175,"is_reserved":false,"is_disabled":false,"rental_uris":{"android":"levelo://app?vid=64c47128-1ee4-402f-b470-f8fc92dec288","ios":"levelo://app?vid=64c47128-1ee4-402f-b470-f8fc92dec288"},"vehicle_type_id":"4","last_reported":1730819385,"current_range_meters":6800,"station_id":"ce4bgr92rcd13ifvqc7g","pricing_plan_id":"cebpf4jnsgd1na2vs0mg"},{"bike_id":"bb9e8456-a6ca-4918-954f-1eb3a85ae678","system_id":"levelo_inurba_marseille","lat":43.29613,"lon":5.3772,"is_reserved":false,"is_disabled":false,"rental_uris":{"android":"levelo://app?vid=bb9e8456-a6ca-4918-954f-1eb3a85ae678","ios":"levelo://app?vid=bb9e8456-a6ca-4918-954f-1eb3a85ae678"},"vehicle_type_id":"4","last_reported":1730819385,"current_range_meters":38800,"station_id":"ce4bgi92rcd13ifvqb90","pricing_plan_id":"cebpf4jnsgd1na2vs0mg"},{"bike_id":"8ff88794-cacf-4a53-9e45-df7b08a65929","system_id":"levelo_inurba_marseille","lat":43.31744,"lon":5.40071,"is_reserved":false,"is_disabled":false,"rental_uris":{"android":"levelo://app?vid=8ff88794-cacf-4a53-9e45-df7b08a65929","ios":"levelo://app?vid=8ff88794-cacf-4a53-9e45-df7b08a65929"},"vehicle_type_id":"4","last_reported":1730819385,"current_range_meters":38800,"station_id":"ce4bgvp2rcd13ifvqcu0","pricing_plan_id":"cebpf4jnsgd1na2vs0mg"},{"bike_id":"4d1236d2-ae35-4047-bc6d-107d0c877e41","system_id":"levelo_inurba_marseille","lat":43.32475,"lon":5.36563,"is_reserved":false,"is_disabled":false,"rental_uris":{"android":"levelo://app?vid=4d1236d2-ae35-4047-bc6d-107d0c877e41","ios":"levelo://app?vid=4d1236d2-ae35-4047-bc6d-107d0c877e41"},"vehicle_type_id":"4","last_reported":1730819385,"current_range_meters":18800,"station_id":"ce4bhs12rcd13ifvqhvg","pricing_plan_id":"cebpf4jnsgd1na2vs0mg"},{"bike_id":"bc575d2b-6dbe-4efe-b5ce-29ca67203081","system_id":"levelo_inurba_marseille","lat":43.24083,"lon":5.37744,"is_reserved":false,"is_disabled":false,"rental_uris":{"android":"levelo://app?vid=bc575d2b-6dbe-4efe-b5ce-29ca67203081","ios":"levelo://app?vid=bc575d2b-6dbe-4efe-b5ce-29ca67203081"},"vehicle_type_id":"4","last_reported":1730819385,"current_range_meters":38000,"station_id":"ce4bhnp2rcd13ifvqgvg","pricing_plan_id":"cebpf4jnsgd1na2vs0mg"},{"bike_id":"dd4d61c6-da78-4ab6-b3ab-7f4430580a39","system_id":"levelo_inurba_marseille","lat":43.28459,"lon":5.35893,"is_reserved":false,"is_disabled":false,"rental_uris":{"android":"levelo://app?vid=dd4d61c6-da78-4ab6-b3ab-7f4430580a39","ios":"levelo://app?vid=dd4d61c6-da78-4ab6-b3ab-7f4430580a39"},"vehicle_type_id":"4","last_reported":1730819385,"current_range_meters":16800,"station_id":"ce4bhah2rcd13ifvqei0","pricing_plan_id":"cebpf4jnsgd1na2vs0mg"},{"bike_id":"238160b0-c708-48f2-afd9-cfe16099d8ff","system_id":"levelo_inurba_marseille","lat":43.29098,"lon":5.38138,"is_reserved":false,"is_disabled":false,"rental_uris":{"android":"levelo://app?vid=238160b0-c708-48f2-afd9-cfe16099d8ff","ios":"levelo://app?vid=238160b0-c708-48f2-afd9-cfe16099d8ff"},"vehicle_type_id":"4","last_reported":1730819385,"current_range_meters":30000,"station_id":"ce4bh512rcd13ifvqe2g","pricing_plan_id":"cebpf4jnsgd1na2vs0mg"},