{"last_updated":1727467819,"ttl":60,"version":"2.2","data":{"bikes":[{"bike_id":"39ddebf9-b780-4b91-8fcd-597459aff4a1","system_id":"levelo_inurba_marseille","lat":43.30001,"lon":5.38254,"is_reserved":false,"is_disabled":false,"rental_uris":{"android":"levelo://app?vid=39ddebf9-b780-4b91-8fcd-597459aff4a1","ios":"levelo://app?vid=39ddebf9-b780-4b91-8fcd-597459aff4a1"},"vehicle_type_id":"4","last_reported":1727467819,"current_range_meters":19200,"station_id":"","pricing_plan_id":"cebpf4jnsgd1na2vs0mg"},{"bike_id":"88151c57-3034-4b4a-898d-65508e3bf298","system_id":"levelo_inurba_marseille","lat":43.29422,"lon":5.38625,"is_reserved":false,"is_disabled":false,"rental_uris":{"android":"levelo://app?vid=88151c57-3034-4b4a-898d-65508e3bf298","ios":"levelo://app?vid=88151c57-3034-4b4a-898d-65508e3bf298"},"vehicle_type_id":"4","last_reported":1727467819,"current_range_meters":37600,"station_id":"ce4bh2h2rcd13ifvqdh0","pricing_plan_id":"cebpf4jnsgd1na2vs0mg"},{"bike_id":"164c9b3b-9074-41db-859c-5f04ff019da0","system_id":"levelo_inurba_marseille","lat":43.336,"lon":5.41035,"is_reserved":false,"is_disabled":false,"rental_uris":{"android":"levelo://app?vid=164c9b3b-9074-41db-859c-5f04ff019da0","ios":"levelo://app?vid=164c9b3b-9074-41db-859c-5f04ff019da0"},"vehicle_type_id":"4","last_reported":1727467819,"current_range_meters":12800,"station_id":"ce4bhqh2rcd13ifvqhmg","pricing_plan_id":"cebpf4jnsgd1na2vs0mg"},{"bike_id":"425c7f50-b02a-4981-9823-0390475a207b","system_id":"levelo_inurba_marseille","lat":43.25499,"lon":5.37651,"is_reserved":false,"is_disabled":false,"rental_uris":{"android":"levelo://app?vid=425c7f50-b02a-4981-9823-0390475a207b","ios":"levelo://app?vid=425c7f50-b02a-4981-9823-0390475a207b"},"vehicle_type_id":"4","last_reported":1727467819,"current_range_meters":38000,"station_id":"ce4bhh12rcd13ifvqff0","pricing_plan_id":"cebpf4jnsgd1na2vs0mg"},{"bike_id":"23b8102d-7c10-402b-b6eb-c6705e9bafda","system_id":"levelo_inurba_marseille","lat":43.29539,"lon":5.39967,"is_reserved":false,"is_disabled":false,"rental_uris":{"android":"levelo://app?vid=23b8102d-7c10-402b-b6eb-c6705e9bafda","ios":"levelo://app?vid=23b8102d-7c10-402b-b6eb-c6705e9bafda"},"vehicle_type_id":"4","last_reported":1727467819,"current_range_meters":31200,"station_id":"ce4bh312rcd13ifvqdj0","pricing_plan_id":"cebpf4jnsgd1na2vs0mg"},{"bike_id":"a7a19a3a-9797-4b32-a0e4-f2a72c455a17","system_id":"levelo_inurba_marseille","lat":43.23186,"lon":5.40001,"is_reserved":false,"is_disabled":false,"rental_uris":{"android":"levelo://app?vid=a7a19a3a-9797-4b32-a0e4-f2a72c455a17","ios":"levelo://app?vid=a7a19a3a-9797-4b32-a0e4-f2a72c455a17"},"vehicle_type_id":"4","last_reported":1727467819,"current_range_meters":26800,"station_id":"ce4bhn12rcd13ifvqgqg","pricing_plan_id":"cebpf4jnsgd1na2vs0mg"},{"bike_id":"86480ced-3940-4b78-beab-71473379fe80","system_id":"levelo_inurba_marseille","lat":43.29262,"lon":5.3844,"is_reserved":false,"is_disabled":false,"rental_uris":{"android":"levelo://app?vid=86480ced-3940-4b78-beab-71473379fe80","ios":"levelo://app?vid=86480ced-3940-4b78-beab-71473379fe80"},"vehicle_type_id":"4","last_reported":1727467819,"current_range_meters":20800,"station_id":"ce4bh692rcd13ifvqea0","pricing_plan_id":"cebpf4jnsgd1na2vs0mg"},{"bike_id":"02752806-4206-4c1d-b67d-de13be1d9655","system_id":"levelo_inurba_marseille","lat":43.30875,"lon":5.372,"is_reserved":false,"is_disabled":false,"rental_uris":{"android":"levelo://app?vid=02752806-4206-4c1d-b67d-de13be1d9655","ios":"levelo://app?vid=02752806-4206-4c1d-b67d-de13be1d9655"},"vehicle_type_id":"4","last_reported":1727467819,"current_range_meters":30400,"station_id":"ce4bguh2rcd13ifvqckg","pricing_plan_id":"cebpf4jnsgd1na2vs0mg"},{"bike_id":"7cd8905d-093b-4290-aacc-4ffc1d38d99a","system_id":"levelo_inurba_marseille","lat":43.287292,"lon":5.379313,"is_reserved":false,"is_disabled":false,"rental_uris":{"android":"levelo://app?vid=7cd8905d-093b-4290-aacc-4ffc1d38d99a","ios":"levelo://app?vid=7cd8905d-093b-4290-aacc-4ffc1d38d99a"},"vehicle_type_id":"4","last_reported":1727467819,"current_range_meters":17200,"station_id":"ce4bh9p2rcd13ifvqec0","pricing_plan_id":"cebpf4jnsgd1na2vs0mg"},{"bike_id":"536e6358-203d-45da-b0c5-34d7e8e8be62","system_id":"levelo_inurba_marseille","lat":43.28075,"lon":5.39666,"is_reserved":false,"is_disabled":false,"rental_uris":{"android":"levelo://app?vid=536e6358-203d-45da-b0c5-34d7e8e8be62","ios":"levelo://app?vid=536e6358-203d-45da-b0c5-34d7e8e8be62"},"vehicle_type_id":"4","last_reported":1727467819,"current_range_meters":33600,"station_id":"ce4bho12rcd13ifvqh2g","pricing_plan_id":"cebpf4jnsgd1na2vs0mg"},{"bike_id":"9a0c48e7-187f-4ab3-98a0-20be92e9c854","system_id":"levelo_inurba_marseille","lat":43.26503,"lon":5.39542,"is_reserved":false,"is_disabled":false,"rental_uris":{"android":"levelo://app?vid=9a0c48e7-187f-4ab3-98a0-20be92e9c854","ios":"levelo://app?vid=9a0c48e7-187f-4ab3-98a0-20be92e9c854"},"vehicle_type_id":"4","last_reported":1727467819,"current_range_meters":8000,"station_id":"ce4bhi12rcd13ifvqfq0","pricing_plan_id":"cebpf4jnsgd1na2vs0mg"},{"bike_id":"1e4c98ad-c737-4b28-9fe1-68c5b23ee836","system_id":"levelo_inurba_marseille","lat":43.30557,"lon":5.38428,"is_reserved":false,"is_disabled":false,"rental_uris":{"android":"levelo://app?vid=1e4c98ad-c737-4b28-9fe1-68c5b23ee836","ios":"levelo://app?vid=1e4c98ad-c737-4b28-9fe1-68c5b23ee836"},"vehicle_type_id":"4","last_reported":1727467819,"current_range_meters":17200,"station_id":"ce4bgg92rcd13ifvqb30","pricing_plan_id":"cebpf4jnsgd1na2vs0mg"},{"bike_id":"70b8bbd4-b9e7-478f-ac4d-162e85affd14","system_id":"levelo_inurba_marseille","lat":43.28037,"lon":5.36953,"is_reserved":false,"is_disabled":false,"rental_uris":{"android":"levelo://app?vid=70b8bbd4-b9e7-478f-ac4d-162e85affd14","ios":"levelo://app?vid=70b8bbd4-b9e7-478f-ac4d-162e85affd14"},"vehicle_type_id":"4","last_reported":1727467819,"current_range_meters":6400,"station_id":"ce4bha12rcd13ifvqef0","pricing_plan_id":"cebpf4jnsgd1na2vs0mg"},{"bike_id":"2844160d-ea1d-4ca7-975f-0c113015ce9e","system_id":"levelo_inurba_marseille","lat":43.2465,"lon":5.38893,"is_reserved":false,"is_disabled":false,"rental_uris":{"android":"levelo://app?vid=2844160d-ea1d-4ca7-975f-0c113015ce9e","ios":"levelo://app?vid=2844160d-ea1d-4ca7-975f-0c113015ce9e"},"vehicle_type_id":"4","last_reported":1727467819,"current_range_meters":21600,"station_id":"ce4bhg12rcd13ifvqf60","pricing_plan_id":"cebpf4jnsgd1na2vs0mg"},{"bike_id":"399212e0-3454-41d4-bcd4-464c7c545a78","system_id":"levelo_inurba_marseille","lat":43.22925,"lon":5.3538,"is_reserved":false,"is_disabled":false,"rental_uris":{"android":"levelo://app?vid=399212e0-3454-41d4-bcd4-464c7c545a78","ios":"levelo://app?vid=399212e0-3454-41d4-bcd4-464c7c545a78"},"vehicle_type_id":"4","last_reported":1727467819,"current_range_meters":38800,"station_id":"cpo3532slgdg3j2ikp40","pricing_plan_id":"cebpf4jnsgd1na2vs0mg"},{"bike_id":"091b19f6-15a9-47d2-8c1c-5ad8e8097f76","system_id":"levelo_inurba_marseille","lat":43.30949,"lon":5.39035,"is_reserved":false,"is_disabled":false,"rental_uris":{"android":"levelo://app?vid=091b19f6-15a9-47d2-8c1c-5ad8e8097f76","ios":"levelo://app?vid=091b19f6-15a9-47d2-8c1c-5ad8e8097f76"},"vehicle_type_id":"4","last_reported":1727467819,"current_range_meters":20400,"station_id":"ce4bgup2rcd13ifvqco0","pricing_plan_id":"cebpf4jnsgd1na2vs0mg"},{"bike_id":"66d73b18-4c68-444d-b604-022a59e67ce2","system_id":"levelo_inurba_marseille","lat":43.29548,"lon":5.42289,"is_reserved":false,"is_disabled":false,"rental_uris":{"android":"levelo://app?vid=66d73b18-4c68-444d-b604-022a59e67ce2","ios":"levelo://app?vid=66d73b18-4c68-444d-b604-022a59e67ce2"},"vehicle_type_id":"4","last_reported":1727467819,"current_range_meters":14800,"station_id":"ce4bhph2rcd13ifvqhdg","pricing_plan_id":"cebpf4jnsgd1na2vs0mg"},{"bike_id":"7ec1c3e8-ff45-4f43-93d9-7981d666f20f","system_id":"levelo_inurba_marseille","lat":43.3089,"lon":5.39658,"is_reserved":false,"is_disabled":false,"rental_uris":{"android":"levelo://app?vid=7ec1c3e8-ff45-4f43-93d9-7981d666f20f","ios":"levelo://app?vid=7ec1c3e8-ff45-4f43-93d9-7981d666f20f"},"vehicle_type_id":"4","last_reported":1727467819,"current_range_meters":23200,"station_id":"ce4bh012rcd13ifvqcv0","pricing_plan_id":"cebpf4jnsgd1na2vs0mg"},{"bike_id":"2619bd3c-aafc-4790-adc9-09493075d381","system_id":"levelo_inurba_marseille","lat":43.31164,"lon":5.3872,"is_reserved":false,"is_disabled":false,"rental_uris":{"android":"levelo://app?vid=2619bd3c-aafc-4790-adc9-09493075d381","ios":"levelo://app?vid=2619bd3c-aafc-4790-adc9-09493075d381"},"vehicle_type_id":"4","last_reported":1727467819,"current_range_meters":21600,"station_id":"ce4bgv12rcd13ifvqcp0","pricing_plan_id":"cebpf4jnsgd1na2vs0mg"},{"bike_id":"cedc07a9-5694-452c-8a22-6ebdfd4f2894","system_id":"levelo_inurba_marseille","lat":43.25826,"lon":5.39432,"is_reserved":false,"is_disabled":false,"rental_uris":{"android":"levelo://app?vid=cedc07a9-5694-452c-8a22-6ebdfd4f2894","ios":"levelo://app?vid=cedc07a9-5694-452c-8a22-6ebdfd4f2894"},"vehicle_type_id":"4","last_reported":1727467819,"current_range_meters":9200,"station_id":"ce4bhip2rcd13ifvqft0","pricing_plan_id":"cebpf4jnsgd1na2vs0mg"},{"bike_id":"7168bfc2-657b-41f2-a4e0-10c61e0ab12c","system_id":"levelo_inurba_marseille","lat":43.29518,"lon":5.38936,"is_reserved":false,"is_disabled":false,"rental_uris":{"android":"levelo://app?vid=7168bfc2-657b-41f2-a4e0-10c61e0ab12c","ios":"levelo://app?vid=7168bfc2-657b-41f2-a4e0-10c61e0ab12c"},"vehicle_type_id":"4","last_reported":1727467819,"current_range_meters":14000,"station_id":"ce4bh3p2rcd13ifvqdp0","pricing_plan_id":"cebpf4jnsgd1na2vs0mg"},{"bike_id":"94fe8acf-f2b2-4369-9c9e-3981f2418028","system_id":"levelo_inurba_marseille","lat":43.33752,"lon":5.37361,"is_reserved":false,"is_disabled":false,"rental_uris":{"android":"levelo://app?vid=94fe8acf-f2b2-4369-9c9e-3981f2418028","ios":"levelo://app?vid=94fe8acf-f2b2-4369-9c9e-3981f2418028"},"vehicle_type_id":"4","last_reported":1727467819,"current_range_meters":25600,"station_id":"","pricing_plan_id":"cebpf4jnsgd1na2vs0mg"},{"bike_id":"9a562da3-7960-467a-a2f3-8cebb8794398","system_id":"levelo_inurba_marseille","lat":43.3171,"lon":5.43711,"is_reserved":false,"is_disabled":false,"rental_uris":{"android":"levelo://app?vid=9a562da3-7960-467a-a2f3-8cebb8794398","ios":"levelo://app?vid=9a562da3-7960-467a-a2f3-8cebb8794398"},"vehicle_type_id":"4","last_reported":1727467819,"current_range_meters":24800,"station_id":"ce4bhp92rcd13ifvqhcg","pricing_plan_id":"cebpf4jnsgd1na2vs0mg"},{"bike_id":"817c50ba-3481-4074-9b43-a8e1abf98d56","system_id":"levelo_inurba_marseille","lat":43.30932,"lon":5.40158,"is_reserved":false,"is_disabled":false,"rental_uris":{"android":"levelo://app?vid=817c50ba-3481-4074-9b43-a8e1abf98d56","ios":"levelo://app?vid=817c50ba-3481-4074-9b43-a8e1abf98d56"},"vehicle_type_id":"4","last_reported":1727467819,"current_range_meters":38800,"station_id":"ce4bgvp2rcd13ifvqct0","pricing_plan_id":"cebpf4jnsgd1na2vs0mg"},{"bike_id":"fb1b350b-9dbc-427c-aca3-8a9471f19aae","system_id":"levelo_inurba_marseille","lat":43.30545,"lon":5.36559,"is_reserved":false,"is_disabled":false,"rental_uris":{"android":"levelo://app?vid=fb1b350b-9dbc-427c-aca3-8a9471f19aae","ios":"levelo://app?vid=fb1b350b-9dbc-427c-aca3-8a9471f19aae"},"vehicle_type_id":"4","last_reported":1727467819,"current_range_meters":31200,"station_id":"ce4bgs12rcd13ifvqcag","pricing_plan_id":"cebpf4jnsgd1na2vs0mg"},{"bike_id":"6ab69009-f97f-4c46-9b52-37e57cc06b65","system_id":"levelo_inurba_marseille","lat":43.24387,"lon":5.37056,"is_reserved":false,"is_disabled":false,"rental_uris":{"android":"levelo://app?vid=6ab69009-f97f-4c46-9b52-37e57cc06b65","ios":"levelo://app?vid=6ab69009-f97f-4c46-9b52-37e57cc06b65"},"vehicle_type_id":"4","last_reported":1727467819,"current_range_meters":38000,"station_id":"ce4bhhh2rcd13ifvqfk0","pricing_plan_id":"cebpf4jnsgd1na2vs0mg"},{"bike_id":"9d7f27f1-59c9-407a-ab50-9301a82e6bf5","system_id":"levelo_inurba_marseille","lat":43.337444,"lon":5.374475,"is_reserved":false,"is_disabled":false,"rental_uris":{"android":"levelo://app?vid=9d7f27f1-59c9-407a-ab50-9301a82e6bf5","ios":"levelo://app?vid=9d7f27f1-59c9-407a-ab50-9301a82e6bf5"},"vehicle_type_id":"4","last_reported":1727467819,"current_range_meters":15200,"station_id":"","pricing_plan_id":"cebpf4jnsgd1na2vs0mg"},{"bike_id":"524b102d-87c5-4a9f-9d5a-b99a9321912f","system_id":"levelo_inurba_marseille","lat":43.29418,"lon":5.38625,"is_reserved":false,"is_disabled":false,"rental_uris":{"android":"levelo://app?vid=524b102d-87c5-4a9f-9d5a-b99a9321912f","ios":"levelo://app?vid=524b102d-87c5-4a9f-9d5a-b99a9321912f"},"vehicle_type_id":"4","last_reported":1727467819,"current_range_meters":12800,"station_id":"ce4bh2h2rcd13ifvqdh0","pricing_plan_id":"cebpf4jnsgd1na2vs0mg"},{"bike_id":"ae705ee4-ca6d-48ee-a5d1-799a12a5b9bc","system_id":"levelo_inurba_marseille","lat":43.29864,"lon":5.39742,"is_reserved":false,"is_disabled":false,"rental_uris":{"android":"levelo://app?vid=ae705ee4-ca6d-48ee-a5d1-799a12a5b9bc","ios":"levelo://app?vid=ae705ee4-ca6d-48ee-a5d1-799a12a5b9bc"},"vehicle_type_id":"4","last_reported":1727467819,"current_range_meters":17600,"station_id":"ce4bh0h2rcd13ifvqd50","pricing_plan_id":"cebpf4jnsgd1na2vs0mg"},{"bike_id":"00aacb55-4015-40b4-9cca-0f271229d686","system_id":"levelo_inurba_marseille","lat":43.29971,"lon":5.38492,"is_reserved":false,"is_disabled":false,"rental_uris":{"android":"levelo://app?vid=00aacb55-4015-40b4-9cca-0f271229d686","ios":"levelo://app?vid=00aacb55-4015-40b4-9cca-0f271229d686"},"vehicle_type_id":"4","last_reported":1727467819,"current_range_meters":32400,"station_id":"ce4bgj92rcd13ifvqbd0","pricing_plan_id":"cebpf4jnsgd1na2vs0mg"},{"bike_id":"fc7165fd-80a4-4306-98f7-c18548d70317","system_id":"levelo_inurba_marseille","lat":43.31993,"lon":5.38155,"is_reserved":false,"is_disabled":false,"rental_uris":{"android":"levelo://app?vid=fc7165fd-80a4-4306-98f7-c18548d70317","ios":"levelo://app?vid=fc7165fd-80a4-4306-98f7-c18548d70317"},"vehicle_type_id":"4","last_reported":1727467819,"current_range_meters":38800,"station_id":"ce4bhr12rcd13ifvqhpg","pricing_plan_id":"cebpf4jnsgd1na2vs0mg"},{"bike_id":"b62710f6-06b9-4106-9bdc-786b6529ac60","system_id":"levelo_inurba_marseille","lat":43.29071,"lon":5.37171,"is_reserved":false,"is_disabled":false,"rental_uris":{"android":"levelo://app?vid=b62710f6-06b9-4106-9bdc-786b6529ac60","ios":"levelo://app?vid=b62710f6-06b9-4106-9bdc-786b6529ac60"},"vehicle_type_id":"4","last_reported":1727467819,"current_range_meters":37600,"station_id":"ce4bh5p2rcd13ifvqe4g","pricing_plan_id":"cebpf4jnsgd1na2vs0mg"},{"bike_id":"7021bd12-9d93-4f1c-8309-cd951bcbce7b","system_id":"levelo_inurba_marseille","lat":43.29527,"lon":5.38557,"is_reserved":false,"is_disabled":false,"rental_uris":{"android":"levelo://app?vid=7021bd12-9d93-4f1c-8309-cd951bcbce7b","ios":"levelo://app?vid=7021bd12-9d93-4f1c-8309-cd951bcbce7b"},"vehicle_type_id":"4","last_reported":1727467819,"current_range_meters":5600,"station_id":"ce4bgih2rcd13ifvqba0","pricing_plan_id":"cebpf4jnsgd1na2vs0mg"},{"bike_id":"ae4fe272-7f81-4778-a390-9382bfec4407","system_id":"levelo_inurba_marseille","lat":43.29177,"lon":5.37162,"is_reserved":false,"is_disabled":false,"rental_uris":{"android":"levelo://app?vid=ae4fe272-7f81-4778-a390-9382bfec4407","ios":"levelo://app?vid=ae4fe272-7f81-4778-a390-9382bfec4407"},"vehicle_type_id":"4","last_reported":1727467819,"current_range_meters":6400,"station_id":"ce4bha92rcd13ifvqeh0","pricing_plan_id":"cebpf4jnsgd1na2vs0mg"},{"bike_id":"9932817c-2e79-4dd0-8725-589d669fce04","system_id":"levelo_inurba_marseille","lat":43.310699,"lon":5.383536,"is_reserved":false,"is_disabled":false,"rental_uris":{"android":"levelo://app?vid=9932817c-2e79-4dd0-8725-589d669fce04","ios":"levelo://app?vid=9932817c-2e79-4dd0-8725-589d669fce04"},"vehicle_type_id":"4","last_reported":1727467819,"current_range_meters":36000,"station_id":"ce4bgv92rcd13ifvqcr0","pricing_plan_id":"cebpf4jnsgd1na2vs0mg"},{"bike_id":"4f867354-a639-4f53-98a2-d2b3d3f12ea7","system_id":"levelo_inurba_marseille","lat":43.288493,"lon":5.393203,"is_reserved":false,"is_disabled":false,"rental_uris":{"android":"levelo://app?vid=4f867354-a639-4f53-98a2-d2b3d3f12ea7","ios":"levelo://app?vid=4f867354-a639-4f53-98a2-d2b3d3f12ea7"},"vehicle_type_id":"4","last_reported":1727467819,"current_range_meters":2800,"station_id":"ce4bh2p2rcd13ifvqdi0","pricing_plan_id":"cebpf4jnsgd1na2vs0mg"},{"bike_id":"b8e17eb0-e31f-4629-b51b-60be691f3e78","system_id":"levelo_inurba_marseille","lat":43.29311,"lon":5.37186,"is_reserved":false,"is_disabled":false,"rental_uris":{"android":"levelo://app?vid=b8e17eb0-e31f-4629-b51b-60be691f3e78","ios":"levelo://app?vid=b8e17eb0-e31f-4629-b51b-60be691f3e78"},"vehicle_type_id":"4","last_reported":1727467819,"current_range_meters":10000,"station_id":"ce4bgh92rcd13ifvqb40","pricing_plan_id":"cebpf4jnsgd1na2vs0mg"},{"bike_id":"02224f8c-d6bb-41b4-bc82-e278253b681c","system_id":"levelo_inurba_marseille","lat":43.31695,"lon":5.40475,"is_reserved":false,"is_disabled":false,"rental_uris":{"android":"levelo://app?vid=02224f8c-d6bb-41b4-bc82-e278253b681c","ios":"levelo://app?vid=02224f8c-d6bb-41b4-bc82-e278253b681c"},"vehicle_type_id":"4","last_reported":1727467819,"current_range_meters":38800,"station_id":"ce4bh012rcd13ifvqd00","pricing_plan_id":"cebpf4jnsgd1na2vs0mg"},{"bike_id":"b8bae6cc-7d26-425f-8d26-f35dbac90fff","system_id":"levelo_inurba_marseille","lat":43.2318,"lon":5.39993,"is_reserved":false,"is_disabled":false,"rental_uris":{"android":"levelo://app?vid=b8bae6cc-7d26-425f-8d26-f35dbac90fff","ios":"levelo://app?vid=b8bae6cc-7d26-425f-8d26-f35dbac90fff"},"vehicle_type_id":"4","last_reported":1727467819,"current_range_meters":24800,"station_id":"ce4bhn12rcd13ifvqgqg","pricing_plan_id":"cebpf4jnsgd1na2vs0mg"},{"bike_id":"3cb69089-2daf-46be-bd32-51ff7c39298a","system_id":"levelo_inurba_marseille","lat":43.32652,"lon":5.40979,"is_reserved":false,"is_disabled":false,"rental_uris":{"android":"levelo://app?vid=3cb69089-2daf-46be-bd32-51ff7c39298a","ios":"levelo://app?vid=3cb69089-2daf-46be-bd32-51ff7c39298a"},"vehicle_type_id":"4","last_reported":1727467819,"current_range_meters":38800,"station_id":"ce4bhpp2rcd13ifvqhgg","pricing_plan_id":"cebpf4jnsgd1na2vs0mg"},{"bike_id":"ae775227-904a-4704-946a-5e96698aef42","system_id":"levelo_inurba_marseille","lat":43.318897,"lon":5.407454,"is_reserved":false,"is_disabled":false,"rental_uris":{"android":"levelo://app?vid=ae775227-904a-4704-946a-5e96698aef42","ios":"levelo://app?vid=ae775227-904a-4704-946a-5e96698aef42"},"vehicle_type_id":"4","last_reported":1727467819,"current_range_meters":39200,"station_id":"ce4bhq12rcd13ifvqhig","pricing_plan_id":"cebpf4jnsgd1na2vs0mg"},{"bike_id":"d81964e5-3a92-4ac0-9b43-6d28c5ec2056","system_id":"levelo_inurba_marseille","lat":43.27374,"lon":5.36257,"is_reserved":false,"is_disabled":false,"rental_uris":{"android":"levelo://app?vid=d81964e5-3a92-4ac0-9b43-6d28c5ec2056","ios":"levelo://app?vid=d81964e5-3a92-4ac0-9b43-6d28c5ec2056"},"vehicle_type_id":"4","last_reported":1727467819,"current_range_meters":18000,"station_id":"ce4bhbh2rcd13ifvqeo0","pricing_plan_id":"cebpf4jnsgd1na2vs0mg"},{"bike_id":"39e7b324-346e-48db-9aea-c8d58eabd241","system_id":"levelo_inurba_marseille","lat":43.28428,"lon":5.35,"is_reserved":false,"is_disabled":false,"rental_uris":{"android":"levelo://app?vid=39e7b324-346e-48db-9aea-c8d58eabd241","ios":"levelo://app?vid=39e7b324-346e-48db-9aea-c8d58eabd241"},"vehicle_type_id":"4","last_reported":1727467819,"current_range_meters":31200,"station_id":"ce4bhbh2rcd13ifvqepg","pricing_plan_id":"cebpf4jnsgd1na2vs0mg"},{"bike_id":"a5a94771-7075-4aa1-a214-5d91993d8001","system_id":"levelo_inurba_marseille","lat":43.29522,"lon":5.38544,"is_reserved":false,"is_disabled":false,"rental_uris":{"android":"levelo://app?vid=a5a94771-7075-4aa1-a214-5d91993d8001","ios":"levelo://app?vid=a5a94771-7075-4aa1-a214-5d91993d8001"},"vehicle_type_id":"4","last_reported":1727467819,"current_range_meters":22000,"station_id":"ce4bgih2rcd13ifvqba0","pricing_plan_id":"cebpf4jnsgd1na2vs0mg"},{"bike_id":"85ae6037-b469-418d-be2d-0af8a6d000e6","system_id":"levelo_inurba_marseille","lat":43.29274,"lon":5.36844,"is_reserved":false,"is_disabled":false,"rental_uris":{"android":"levelo://app?vid=85ae6037-b469-418d-be2d-0af8a6d000e6","ios":"levelo://app?vid=85ae6037-b469-418d-be2d-0af8a6d000e6"},"vehicle_type_id":"4","last_reported":1727467819,"current_range_meters":34000,"station_id":"ce4bhbp2rcd13ifvqesg","pricing_plan_id":"cebpf4jnsgd1na2vs0mg"},{"bike_id":"cbdd1a1b-a72f-4ef7-aca2-9fcb33cfe7f5","system_id":"levelo_inurba_marseille","lat":43.23956,"lon":5.36631,"is_reserved":false,"is_disabled":false,"rental_uris":{"android":"levelo://app?vid=cbdd1a1b-a72f-4ef7-aca2-9fcb33cfe7f5","ios":"levelo://app?vid=cbdd1a1b-a72f-4ef7-aca2-9fcb33cfe7f5"},"vehicle_type_id":"4","last_reported":1727467819,"current_range_meters":38800,"station_id":"ce4bhi12rcd13ifvqfp0","pricing_plan_id":"cebpf4jnsgd1na2vs0mg"},{"bike_id":"9fa5d9e4-b8d8-4682-91e9-2cf3af29636d","system_id":"levelo_inurba_marseille","lat":43.291974,"lon":5.358186,"is_reserved":false,"is_disabled":false,"rental_uris":{"android":"levelo://app?vid=9fa5d9e4-b8d8-4682-91e9-2cf3af29636d","ios":"levelo://app?vid=9fa5d9e4-b8d8-4682-91e9-2cf3af29636d"},"vehicle_type_id":"4","last_reported":1727467819,"current_range_meters":37600,"station_id":"ce4bhb12rcd13ifvqel0","pricing_plan_id":"cebpf4jnsgd1na2vs0mg"},{"bike_id":"9be7e78a-5ae9-4816-8f08-2a9ec6aa0c32","system_id":"levelo_inurba_marseille","lat":43.25109,"lon":5.40325,"is_reserved":false,"is_disabled":false,"rental_uris":{"android":"levelo://app?vid=9be7e78a-5ae9-4816-8f08-2a9ec6aa0c32","ios":"levelo://app?vid=9be7e78a-5ae9-4816-8f08-2a9ec6aa0c32"},"vehicle_type_id":"4","last_reported":1727467819,"current_range_meters":12000,"station_id":"ce4bhlh2rcd13ifvqgig","pricing_plan_id":"cebpf4jnsgd1na2vs0mg"},{"bike_id":"bcb6edf7-9151-4592-942c-bb6ce226bab6","system_id":"levelo_inurba_marseille","lat":43.29034,"lon":5.38658,"is_reserved":false,"is_disabled":false,"rental_uris":{"android":"levelo://app?vid=bcb6edf7-9151-4592-942c-bb6ce226bab6","ios":"levelo://app?vid=bcb6edf7-9151-4592-942c-bb6ce226bab6"},"vehicle_type_id":"4","last_reported":1727467819,"current_range_meters":28000,"station_id":"ce4bh4p2rcd13ifvqe0g","pricing_plan_id":"cebpf4jnsgd1na2vs0mg"},{"bike_id":"e916024d-0c3b-4b92-aa97-6379b114f7e5","system_id":"levelo_inurba_marseille","lat":43.29916,"lon":5.37462,"is_reserved":false,"is_disabled":false,"rental_uris":{"android":"levelo://app?vid=e916024d-0c3b-4b92-aa97-6379b114f7e5","ios":"levelo://app?vid=e916024d-0c3b-4b92-aa97-6379b114f7e5"},"vehicle_type_id":"4","last_reported":1727467819,"current_range_meters":2800,"station_id":"ce4bgjh2rcd13ifvqbg0","pricing_plan_id":"cebpf4jnsgd1na2vs0mg"},{"bike_id":"9b31f7c2-4582-439a-99c5-8be874a75c71","system_id":"levelo_inurba_marseille","lat":43.30951,"lon":5.39039,"is_reserved":false,"is_disabled":false,"rental_uris":{"android":"levelo://app?vid=9b31f7c2-4582-439a-99c5-8be874a75c71","ios":"levelo://app?vid=9b31f7c2-4582-439a-99c5-8be874a75c71"},"vehicle_type_id":"4","last_reported":1727467819,"current_range_meters":36400,"station_id":"ce4bgup2rcd13ifvqco0","pricing_plan_id":"cebpf4jnsgd1na2vs0mg"},{"bike_id":"392bd197-a326-46b1-b4a8-a55f93e1327d","system_id":"levelo_inurba_marseille","lat":43.23181,"lon":5.39987,"is_reserved":false,"is_disabled":false,"rental_uris":{"android":"levelo://app?vid=392bd197-a326-46b1-b4a8-a55f93e1327d","ios":"levelo://app?vid=392bd197-a326-46b1-b4a8-a55f93e1327d"},"vehicle_type_id":"4","last_reported":1727467819,"current_range_meters":18800,"station_id":"ce4bhn12rcd13ifvqgqg","pricing_plan_id":"cebpf4jnsgd1na2vs0mg"},{"bike_id":"aa5f363f-095d-49c3-aca5-ed2bf87e6244","system_id":"levelo_inurba_marseille","lat":43.29258,"lon":5.38454,"is_reserved":false,"is_disabled":false,"rental_uris":{"android":"levelo://app?vid=aa5f363f-095d-49c3-aca5-ed2bf87e6244","ios":"levelo://app?vid=aa5f363f-095d-49c3-aca5-ed2bf87e6244"},"vehicle_type_id":"4","last_reported":1727467819,"current_range_meters":38800,"station_id":"ce4bh692rcd13ifvqea0","pricing_plan_id":"cebpf4jnsgd1na2vs0mg"},{"bike_id":"a15b60e8-4cb4-4798-8949-e232ce39b91f","system_id":"levelo_inurba_marseille","lat":43.2318,"lon":5.3999,"is_reserved":false,"is_disabled":false,"rental_uris":{"android":"levelo://app?vid=a15b60e8-4cb4-4798-8949-e232ce39b91f","ios":"levelo://app?vid=a15b60e8-4cb4-4798-8949-e232ce39b91f"},"vehicle_type_id":"4","last_reported":1727467819,"current_range_meters":4800,"station_id":"ce4bhn12rcd13ifvqgqg","pricing_plan_id":"cebpf4jnsgd1na2vs0mg"},{"bike_id":"4c5c31ad-b9da-4c45-b579-3ef3a7ef1d7c","system_id":"levelo_inurba_marseille","lat":43.3052,"lon":5.36719,"is_reserved":false,"is_disabled":false,"rental_uris":{"android":"levelo://app?vid=4c5c31ad-b9da-4c45-b579-3ef3a7ef1d7c","ios":"levelo://app?vid=4c5c31ad-b9da-4c45-b579-3ef3a7ef1d7c"},"vehicle_type_id":"4","last_reported":1727467819,"current_range_meters":19600,"station_id":"ce4bgrp2rcd13ifvqc9g","pricing_plan_id":"cebpf4jnsgd1na2vs0mg"},{"bike_id":"4d797336-783c-447d-a64e-d392f4d09aca","system_id":"levelo_inurba_marseille","lat":43.29531,"lon":5.38545,"is_reserved":false,"is_disabled":false,"rental_uris":{"android":"levelo://app?vid=4d797336-783c-447d-a64e-d392f4d09aca","ios":"levelo://app?vid=4d797336-783c-447d-a64e-d392f4d09aca"},"vehicle_type_id":"4","last_reported":1727467819,"current_range_meters":10000,"station_id":"ce4bgih2rcd13ifvqba0","pricing_plan_id":"cebpf4jnsgd1na2vs0mg"},{"bike_id":"17291eee-f1e8-444f-897d-64236aae520c","system_id":"levelo_inurba_marseille","lat":43.27375,"lon":5.36258,"is_reserved":false,"is_disabled":false,"rental_uris":{"android":"levelo://app?vid=17291eee-f1e8-444f-897d-64236aae520c","ios":"levelo://app?vid=17291eee-f1e8-444f-897d-64236aae520c"},"vehicle_type_id":"4","last_reported":1727467819,"current_range_meters":25200,"station_id":"ce4bhbh2rcd13ifvqeo0","pricing_plan_id":"cebpf4jnsgd1na2vs0mg"},{"bike_id":"c46caf16-9c18-4371-ac6c-67d2248af867","system_id":"levelo_inurba_marseille","lat":43.28659,"lon":5.36358,"is_reserved":false,"is_disabled":false,"rental_uris":{"android":"levelo://app?vid=c46caf16-9c18-4371-ac6c-67d2248af867","ios":"levelo://app?vid=c46caf16-9c18-4371-ac6c-67d2248af867"},"vehicle_type_id":"4","last_reported":1727467819,"current_range_meters":21600,"station_id":"ce4bhah2rcd13ifvqej0","pricing_plan_id":"cebpf4jnsgd1na2vs0mg"},{"bike_id":"b49b6190-dfb3-4ec2-85ff-34e213923976","system_id":"levelo_inurba_marseille","lat":43.29279,"lon":5.36848,"is_reserved":false,"is_disabled":false,"rental_uris":{"android":"levelo://app?vid=b49b6190-dfb3-4ec2-85ff-34e213923976","ios":"levelo://app?vid=b49b6190-dfb3-4ec2-85ff-34e213923976"},"vehicle_type_id":"4","last_reported":1727467819,"current_range_meters":18800,"station_id":"ce4bhbp2rcd13ifvqesg","pricing_plan_id":"cebpf4jnsgd1na2vs0mg"},{"bike_id":"78d87500-10a4-4df1-b4d7-b944513a46f4","system_id":"levelo_inurba_marseille","lat":43.29425,"lon":5.3863,"is_reserved":false,"is_disabled":false,"rental_uris":{"android":"levelo://app?vid=78d87500-10a4-4df1-b4d7-b944513a46f4","ios":"levelo://app?vid=78d87500-10a4-4df1-b4d7-b944513a46f4"},"vehicle_type_id":"4","last_reported":1727467819,"current_range_meters":9600,"station_id":"ce4bh2h2rcd13ifvqdh0","pricing_plan_id":"cebpf4jnsgd1na2vs0mg"},{"bike_id":"aa1af4ca-f829-4b85-a78e-90f7eb14766c","system_id":"levelo_inurba_marseille","lat":43.29423,"lon":5.38631,"is_reserved":false,"is_disabled":false,"rental_uris":{"android":"levelo://app?vid=aa1af4ca-f829-4b85-a78e-90f7eb14766c","ios":"levelo://app?vid=aa1af4ca-f829-4b85-a78e-90f7eb14766c"},"vehicle_type_id":"4","last_reported":1727467819,"current_range_meters":26000,"station_id":"ce4bh2h2rcd13ifvqdh0","pricing_plan_id":"cebpf4jnsgd1na2vs0mg"},{"bike_id":"10d10fb9-0759-453a-8d8c-f5e3c20a0828","system_id":"levelo_inurba_marseille","lat":43.31101,"lon":5.3777,"is_reserved":false,"is_disabled":false,"rental_uris":{"android":"levelo://app?vid=10d10fb9-0759-453a-8d8c-f5e3c20a0828","ios":"levelo://app?vid=10d10fb9-0759-453a-8d8c-f5e3c20a0828"},"vehicle_type_id":"4","last_reported":1727467819,"current_range_meters":33600,"station_id":"ce4bgt92rcd13ifvqcg0","pricing_plan_id":"cebpf4jnsgd1na2vs0mg"},{"bike_id":"c4196df6-0364-4a92-8a26-a3ef21b251d4","system_id":"levelo_inurba_marseille","lat":43.32366,"lon":5.38885,"is_reserved":false,"is_disabled":false,"rental_uris":{"android":"levelo://app?vid=c4196df6-0364-4a92-8a26-a3ef21b251d4","ios":"levelo://app?vid=c4196df6-0364-4a92-8a26-a3ef21b251d4"},"vehicle_type_id":"4","last_reported":1727467819,"current_range_meters":6800,"station_id":"ce4bhqp2rcd13ifvqhog","pricing_plan_id":"cebpf4jnsgd1na2vs0mg"},{"bike_id":"c30853c8-b61a-4085-98d1-cc2786e876c2","system_id":"levelo_inurba_marseille","lat":43.31326,"lon":5.39693,"is_reserved":false,"is_disabled":false,"rental_uris":{"android":"levelo://app?vid=c30853c8-b61a-4085-98d1-cc2786e876c2","ios":"levelo://app?vid=c30853c8-b61a-4085-98d1-cc2786e876c2"},"vehicle_type_id":"4","last_reported":1727467819,"current_range_meters":38800,"station_id":"ce4bgvp2rcd13ifvqcu0","pricing_plan_id":"cebpf4jnsgd1na2vs0mg"},{"bike_id":"638c8d28-034f-42f3-a51f-cd96f91eef50","system_id":"levelo_inurba_marseille","lat":43.31186,"lon":5.38716,"is_reserved":false,"is_disabled":false,"rental_uris":{"android":"levelo://app?vid=638c8d28-034f-42f3-a51f-cd96f91eef50","ios":"levelo://app?vid=638c8d28-034f-42f3-a51f-cd96f91eef50"},"vehicle_type_id":"4","last_reported":1727467819,"current_range_meters":38800,"station_id":"ce4bgv12rcd13ifvqcp0","pricing_plan_id":"cebpf4jnsgd1na2vs0mg"},{"bike_id":"f1cff38b-7529-43da-8edf-a17851036559","system_id":"levelo_inurba_marseille","lat":43.32659,"lon":5.41003,"is_reserved":false,"is_disabled":false,"rental_uris":{"android":"levelo://app?vid=f1cff38b-7529-43da-8edf-a17851036559","ios":"levelo://app?vid=f1cff38b-7529-43da-8edf-a17851036559"},"vehicle_type_id":"4","last_reported":1727467819,"current_range_meters":14400,"station_id":"ce4bhpp2rcd13ifvqhgg","pricing_plan_id":"cebpf4jnsgd1na2vs0mg"},{"bike_id":"0a8fe6ef-f5da-4b08-a547-2fc6dee7de76","system_id":"levelo_inurba_marseille","lat":43.33739,"lon":5.37468,"is_reserved":false,"is_disabled":false,"rental_uris":{"android":"levelo://app?vid=0a8fe6ef-f5da-4b08-a547-2fc6dee7de76","ios":"levelo://app?vid=0a8fe6ef-f5da-4b08-a547-2fc6dee7de76"},"vehicle_type_id":"4","last_reported":1727467819,"current_range_meters":28000,"station_id":"","pricing_plan_id":"cebpf4jnsgd1na2vs0mg"},{"bike_id":"aa11dc64-e890-490e-ba81-00fbd2e953c7","system_id":"levelo_inurba_marseille","lat":43.2804,"lon":5.36955,"is_reserved":false,"is_disabled":false,"rental_uris":{"android":"levelo://app?vid=aa11dc64-e890-490e-ba81-00fbd2e953c7","ios":"levelo://app?vid=aa11dc64-e890-490e-ba81-00fbd2e953c7"},"vehicle_type_id":"4","last_reported":1727467819,"current_range_meters":27200,"station_id":"ce4bha12rcd13ifvqef0","pricing_plan_id":"cebpf4jnsgd1na2vs0mg"},{"bike_id":"105d6434-9a31-4ca0-8ce3-34c78572111b","system_id":"levelo_inurba_marseille","lat":43.29418,"lon":5.38624,"is_reserved":false,"is_disabled":false,"rental_uris":{"android":"levelo://app?vid=105d6434-9a31-4ca0-8ce3-34c78572111b","ios":"levelo://app?vid=105d6434-9a31-4ca0-8ce3-34c78572111b"},"vehicle_type_id":"4","last_reported":1727467819,"current_range_meters":7200,"station_id":"ce4bh2h2rcd13ifvqdh0","pricing_plan_id":"cebpf4jnsgd1na2vs0mg"},{"bike_id":"290d4d65-4c21-4c59-9a71-f66e0ff31b7d","system_id":"levelo_inurba_marseille","lat":43.29004,"lon":5.35614,"is_reserved":false,"is_disabled":false,"rental_uris":{"android":"levelo://app?vid=290d4d65-4c21-4c59-9a71-f66e0ff31b7d","ios":"levelo://app?vid=290d4d65-4c21-4c59-9a71-f66e0ff31b7d"},"vehicle_type_id":"4","last_reported":1727467819,"current_range_meters":15200,"station_id":"ce4bhb92rcd13ifvqen0","pricing_plan_id":"cebpf4jnsgd1na2vs0mg"},{"bike_id":"ae9abc3a-92f5-4526-b792-0cf3e53de28a","system_id":"levelo_inurba_marseille","lat":43.30886,"lon":5.39646,"is_reserved":false,"is_disabled":false,"rental_uris":{"android":"levelo://app?vid=ae9abc3a-92f5-4526-b792-0cf3e53de28a","ios":"levelo://app?vid=ae9abc3a-92f5-4526-b792-0cf3e53de28a"},"vehicle_type_id":"4","last_reported":1727467819,"current_range_meters":38800,"station_id":"ce4bh012rcd13ifvqcv0","pricing_plan_id":"cebpf4jnsgd1na2vs0mg"},{"bike_id":"37a705aa-121e-4223-a552-5fa31d8ea818","system_id":"levelo_inurba_marseille","lat":43.30292,"lon":5.37694,"is_reserved":false,"is_disabled":false,"rental_uris":{"android":"levelo://app?vid=37a705aa-121e-4223-a552-5fa31d8ea818","ios":"levelo://app?vid=37a705aa-121e-4223-a552-5fa31d8ea818"},"vehicle_type_id":"4","last_reported":1727467819,"current_range_meters":18800,"station_id":"ce4bguh2rcd13ifvqcj0","pricing_plan_id":"cebpf4jnsgd1na2vs0mg"},{"bike_id":"f8fc95e8-73b3-4804-b0bf-1e5f9e44ba7f","system_id":"levelo_inurba_marseille","lat":43.28617,"lon":5.35104,"is_reserved":false,"is_disabled":false,"rental_uris":{"android":"levelo://app?vid=f8fc95e8-73b3-4804-b0bf-1e5f9e44ba7f","ios":"levelo://app?vid=f8fc95e8-73b3-4804-b0bf-1e5f9e44ba7f"},"vehicle_type_id":"4","last_reported":1727467819,"current_range_meters":8800,"station_id":"ce4bhch2rcd13ifvqeug","pricing_plan_id":"cebpf4jnsgd1na2vs0mg"},{"bike_id":"5fec7d2d-c183-4094-8ee6-a43ea8259487","system_id":"levelo_inurba_marseille","lat":43.28833,"lon":5.392814,"is_reserved":false,"is_disabled":false,"rental_uris":{"android":"levelo://app?vid=5fec7d2d-c183-4094-8ee6-a43ea8259487","ios":"levelo://app?vid=5fec7d2d-c183-4094-8ee6-a43ea8259487"},"vehicle_type_id":"4","last_reported":1727467819,"current_range_meters":33600,"station_id":"ce4bh2p2rcd13ifvqdi0","pricing_plan_id":"cebpf4jnsgd1na2vs0mg"},{"bike_id":"a0ebd1a8-3212-4bab-8ef4-c2105f6d530b","system_id":"levelo_inurba_marseille","lat":43.29529,"lon":5.39031,"is_reserved":false,"is_disabled":false,"rental_uris":{"android":"levelo://app?vid=a0ebd1a8-3212-4bab-8ef4-c2105f6d530b","ios":"levelo://app?vid=a0ebd1a8-3212-4bab-8ef4-c2105f6d530b"},"vehicle_type_id":"4","last_reported":1727467819,"current_range_meters":38000,"station_id":"ce4bh3p2rcd13ifvqdp0","pricing_plan_id":"cebpf4jnsgd1na2vs0mg"},{"bike_id":"082dd033-1d2e-4aad-abef-8710026c02a2","system_id":"levelo_inurba_marseille","lat":43.31277,"lon":5.40172,"is_reserved":false,"is_disabled":false,"rental_uris":{"android":"levelo://app?vid=082dd033-1d2e-4aad-abef-8710026c02a2","ios":"levelo://app?vid=082dd033-1d2e-4aad-abef-8710026c02a2"},"vehicle_type_id":"4","last_reported":1727467819,"current_range_meters":28000,"station_id":"ce4bh092rcd13ifvqd30","pricing_plan_id":"cebpf4jnsgd1na2vs0mg"},{"bike_id":"de34854c-1434-4e41-a756-ebdc6f7ad715","system_id":"levelo_inurba_marseille","lat":43.29535,"lon":5.38542,"is_reserved":false,"is_disabled":false,"rental_uris":{"android":"levelo://app?vid=de34854c-1434-4e41-a756-ebdc6f7ad715","ios":"levelo://app?vid=de34854c-1434-4e41-a756-ebdc6f7ad715"},"vehicle_type_id":"4","last_reported":1727467819,"current_range_meters":8800,"station_id":"ce4bgih2rcd13ifvqba0","pricing_plan_id":"cebpf4jnsgd1na2vs0mg"},{"bike_id":"e2937fe9-4cff-46d7-975f-cebc0e51f25c","system_id":"levelo_inurba_marseille","lat":43.28702,"lon":5.37398,"is_reserved":false,"is_disabled":false,"rental_uris":{"android":"levelo://app?vid=e2937fe9-4cff-46d7-975f-cebc0e51f25c","ios":"levelo://app?vid=e2937fe9-4cff-46d7-975f-cebc0e51f25c"},"vehicle_type_id":"4","last_reported":1727467819,"current_range_meters":13600,"station_id":"ce4bh3p2rcd13ifvqdq0","pricing_plan_id":"cebpf4jnsgd1na2vs0mg"},{"bike_id":"ab2feb23-4a73-4605-8279-f110cab2ed2c","system_id":"levelo_inurba_marseille","lat":43.3095,"lon":5.39042,"is_reserved":false,"is_disabled":false,"rental_uris":{"android":"levelo://app?vid=ab2feb23-4a73-4605-8279-f110cab2ed2c","ios":"levelo://app?vid=ab2feb23-4a73-4605-8279-f110cab2ed2c"},"vehicle_type_id":"4","last_reported":1727467819,"current_range_meters":8400,"station_id":"ce4bgup2rcd13ifvqco0","pricing_plan_id":"cebpf4jnsgd1na2vs0mg"},{"bike_id":"d8f796e3-24cd-492a-a841-9234a782c30f","system_id":"levelo_inurba_marseille","lat":43.29533,"lon":5.38542,"is_reserved":false,"is_disabled":false,"rental_uris":{"android":"levelo://app?vid=d8f796e3-24cd-492a-a841-9234a782c30f","ios":"levelo://app?vid=d8f796e3-24cd-492a-a841-9234a782c30f"},"vehicle_type_id":"4","last_reported":1727467819,"current_range_meters":20400,"station_id":"ce4bgih2rcd13ifvqba0","pricing_plan_id":"cebpf4jnsgd1na2vs0mg"},{"bike_id":"02a8e509-765e-489c-81ad-6dfdb2cef40f","system_id":"levelo_inurba_marseille","lat":43.28939,"lon":5.36643,"is_reserved":false,"is_disabled":false,"rental_uris":{"android":"levelo://app?vid=02a8e509-765e-489c-81ad-6dfdb2cef40f","ios":"levelo://app?vid=02a8e509-765e-489c-81ad-6dfdb2cef40f"},"vehicle_type_id":"4","last_reported":1727467819,"current_range_meters":9600,"station_id":"ce4bhap2rcd13ifvqek0","pricing_plan_id":"cebpf4jnsgd1na2vs0mg"},{"bike_id":"ba83472b-397a-4c6e-be22-c8d3384f6910","system_id":"levelo_inurba_marseille","lat":43.32286,"lon":5.38272,"is_reserved":false,"is_disabled":false,"rental_uris":{"android":"levelo://app?vid=ba83472b-397a-4c6e-be22-c8d3384f6910","ios":"levelo://app?vid=ba83472b-397a-4c6e-be22-c8d3384f6910"},"vehicle_type_id":"4","last_reported":1727467819,"current_range_meters":38800,"station_id":"ce4bhr12rcd13ifvqhqg","pricing_plan_id":"cebpf4jnsgd1na2vs0mg"},{"bike_id":"cd9d20f8-e1e6-46ff-a0df-9e27f06f3539","system_id":"levelo_inurba_marseille","lat":43.31881,"lon":5.40737,"is_reserved":false,"is_disabled":false,"rental_uris":{"android":"levelo://app?vid=cd9d20f8-e1e6-46ff-a0df-9e27f06f3539","ios":"levelo://app?vid=cd9d20f8-e1e6-46ff-a0df-9e27f06f3539"},"vehicle_type_id":"4","last_reported":1727467819,"current_range_meters":18800,"station_id":"ce4bhq12rcd13ifvqhig","pricing_plan_id":"cebpf4jnsgd1na2vs0mg"},{"bike_id":"201177f7-715a-4950-b83b-63c9af4c250f","system_id":"levelo_inurba_marseille","lat":43.23181,"lon":5.39999,"is_reserved":false,"is_disabled":false,"rental_uris":{"android":"levelo://app?vid=201177f7-715a-4950-b83b-63c9af4c250f","ios":"levelo://app?vid=201177f7-715a-4950-b83b-63c9af4c250f"},"vehicle_type_id":"4","last_reported":1727467819,"current_range_meters":38400,"station_id":"ce4bhn12rcd13ifvqgqg","pricing_plan_id":"cebpf4jnsgd1na2vs0mg"},{"bike_id":"d775db31-7730-4a49-8dd7-f1f6bc7391c4","system_id":"levelo_inurba_marseille","lat":43.25114,"lon":5.40322,"is_reserved":false,"is_disabled":false,"rental_uris":{"android":"levelo://app?vid=d775db31-7730-4a49-8dd7-f1f6bc7391c4","ios":"levelo://app?vid=d775db31-7730-4a49-8dd7-f1f6bc7391c4"},"vehicle_type_id":"4","last_reported":1727467819,"current_range_meters":2800,"station_id":"ce4bhlh2rcd13ifvqgig","pricing_plan_id":"cebpf4jnsgd1na2vs0mg"},{"bike_id":"ec8fde83-0f24-4850-8976-43e98a5611e2","system_id":"levelo_inurba_marseille","lat":43.3088,"lon":5.39652,"is_reserved":false,"is_disabled":false,"rental_uris":{"android":"levelo://app?vid=ec8fde83-0f24-4850-8976-43e98a5611e2","ios":"levelo://app?vid=ec8fde83-0f24-4850-8976-43e98a5611e2"},"vehicle_type_id":"4","last_reported":1727467819,"current_range_meters":14400,"station_id":"ce4bh012rcd13ifvqcv0","pricing_plan_id":"cebpf4jnsgd1na2vs0mg"},{"bike_id":"4810133d-2f0e-45b1-b933-8a60399257b1","system_id":"levelo_inurba_marseille","lat":43.303154,"lon":5.386496,"is_reserved":false,"is_disabled":false,"rental_uris":{"android":"levelo://app?vid=4810133d-2f0e-45b1-b933-8a60399257b1","ios":"levelo://app?vid=4810133d-2f0e-45b1-b933-8a60399257b1"},"vehicle_type_id":"4","last_reported":1727467819,"current_range_meters":37600,"station_id":"ce4bgt12rcd13ifvqce0","pricing_plan_id":"cebpf4jnsgd1na2vs0mg"},{"bike_id":"ad25d5ed-11e9-41fa-99da-f0e0e961a19c","system_id":"levelo_inurba_marseille","lat":43.31325,"lon":5.39698,"is_reserved":false,"is_disabled":false,"rental_uris":{"android":"levelo://app?vid=ad25d5ed-11e9-41fa-99da-f0e0e961a19c","ios":"levelo://app?vid=ad25d5ed-11e9-41fa-99da-f0e0e961a19c"},"vehicle_type_id":"4","last_reported":1727467819,"current_range_meters":24000,"station_id":"ce4bgvp2rcd13ifvqcu0","pricing_plan_id":"cebpf4jnsgd1na2vs0mg"},{"bike_id":"de24970a-506a-4fc7-98b3-d6cfa3e24e86","system_id":"levelo_inurba_marseille","lat":43.23154,"lon":5.43708,"is_reserved":false,"is_disabled":false,"rental_uris":{"android":"levelo://app?vid=de24970a-506a-4fc7-98b3-d6cfa3e24e86","ios":"levelo://app?vid=de24970a-506a-4fc7-98b3-d6cfa3e24e86"},"vehicle_type_id":"4","last_reported":1727467819,"current_range_meters":19600,"station_id":"ce4bhmp2rcd13ifvqgog","pricing_plan_id":"cebpf4jnsgd1na2vs0mg"},{"bike_id":"8361c707-238b-41e9-8906-ccd16435a47e","system_id":"levelo_inurba_marseille","lat":43.28574,"lon":5.3927,"is_reserved":false,"is_disabled":false,"rental_uris":{"android":"levelo://app?vid=8361c707-238b-41e9-8906-ccd16435a47e","ios":"levelo://app?vid=8361c707-238b-41e9-8906-ccd16435a47e"},"vehicle_type_id":"4","last_reported":1727467819,"current_range_meters":36000,"station_id":"ce4bha92rcd13ifvqeh0","pricing_plan_id":"cebpf4jnsgd1na2vs0mg"},{"bike_id":"c8d0798d-5743-40fe-b732-6ed2a8ba0dc3","system_id":"levelo_inurba_marseille","lat":43.28484,"lon":5.38435,"is_reserved":false,"is_disabled":false,"rental_uris":{"android":"levelo://app?vid=c8d0798d-5743-40fe-b732-6ed2a8ba0dc3","ios":"levelo://app?vid=c8d0798d-5743-40fe-b732-6ed2a8ba0dc3"},"vehicle_type_id":"4","last_reported":1727467819,"current_range_meters":8000,"station_id":"ce4bh512rcd13ifvqe3g","pricing_plan_id":"cebpf4jnsgd1na2vs0mg"},{"bike_id":"21cd9748-3292-44f5-9949-31b4e3d04086","system_id":"levelo_inurba_marseille","lat":43.31268,"lon":5.40176,"is_reserved":false,"is_disabled":false,"rental_uris":{"android":"levelo://app?vid=21cd9748-3292-44f5-9949-31b4e3d04086","ios":"levelo://app?vid=21cd9748-3292-44f5-9949-31b4e3d04086"},"vehicle_type_id":"4","last_reported":1727467819,"current_range_meters":38800,"station_id":"ce4bh092rcd13ifvqd30","pricing_plan_id":"cebpf4jnsgd1na2vs0mg"},{"bike_id":"0deb0198-7529-4419-8cbd-c256d5c93e93","system_id":"levelo_inurba_marseille","lat":43.22928,"lon":5.3538,"is_reserved":false,"is_disabled":false,"rental_uris":{"android":"levelo://app?vid=0deb0198-7529-4419-8cbd-c256d5c93e93","ios":"levelo://app?vid=0deb0198-7529-4419-8cbd-c256d5c93e93"},"vehicle_type_id":"4","last_reported":1727467819,"current_range_meters":8800,"station_id":"cpo3532slgdg3j2ikp40","pricing_plan_id":"cebpf4jnsgd1na2vs0mg"},{"bike_id":"daa77e8d-2118-4888-9aa2-76db2396bd20","system_id":"levelo_inurba_marseille","lat":43.29525,"lon":5.37499,"is_reserved":false,"is_disabled":false,"rental_uris":{"android":"levelo://app?vid=daa77e8d-2118-4888-9aa2-76db2396bd20","ios":"levelo://app?vid=daa77e8d-2118-4888-9aa2-76db2396bd20"},"vehicle_type_id":"4","last_reported":1727467819,"current_range_meters":36000,"station_id":"ce4bgkp2rcd13ifvqbmg","pricing_plan_id":"cebpf4jnsgd1na2vs0mg"},{"bike_id":"e33f5a5a-9659-4e02-9564-66a83b15a241","system_id":"levelo_inurba_marseille","lat":43.29027,"lon":5.38648,"is_reserved":false,"is_disabled":false,"rental_uris":{"android":"levelo://app?vid=e33f5a5a-9659-4e02-9564-66a83b15a241","ios":"levelo://app?vid=e33f5a5a-9659-4e02-9564-66a83b15a241"},"vehicle_type_id":"4","last_reported":1727467819,"current_range_meters":8800,"station_id":"ce4bh4p2rcd13ifvqe0g","pricing_plan_id":"cebpf4jnsgd1na2vs0mg"},{"bike_id":"744a8639-95a4-41c2-ad17-a874f5318ae5","system_id":"levelo_inurba_marseille","lat":43.29788,"lon":5.39345,"is_reserved":false,"is_disabled":false,"rental_uris":{"android":"levelo://app?vid=744a8639-95a4-41c2-ad17-a874f5318ae5","ios":"levelo://app?vid=744a8639-95a4-41c2-ad17-a874f5318ae5"},"vehicle_type_id":"4","last_reported":1727467819,"current_range_meters":21600,"station_id":"chh1huq6cuj3fo74tm60","pricing_plan_id":"cebpf4jnsgd1na2vs0mg"},{"bike_id":"7ef0203e-738c-49fc-91eb-13413ad1c21f","system_id":"levelo_inurba_marseille","lat":43.29269,"lon":5.38445,"is_reserved":false,"is_disabled":false,"rental_uris":{"android":"levelo://app?vid=7ef0203e-738c-49fc-91eb-13413ad1c21f","ios":"levelo://app?vid=7ef0203e-738c-49fc-91eb-13413ad1c21f"},"vehicle_type_id":"4","last_reported":1727467819,"current_range_meters":9600,"station_id":"ce4bh692rcd13ifvqea0","pricing_plan_id":"cebpf4jnsgd1na2vs0mg"},{"bike_id":"645f0009-bdb5-4fd0-aca2-e2fb7c8a8f4e","system_id":"levelo_inurba_marseille","lat":43.31123,"lon":5.3779,"is_reserved":false,"is_disabled":false,"rental_uris":{"android":"levelo://app?vid=645f0009-bdb5-4fd0-aca2-e2fb7c8a8f4e","ios":"levelo://app?vid=645f0009-bdb5-4fd0-aca2-e2fb7c8a8f4e"},"vehicle_type_id":"4","last_reported":1727467819,"current_range_meters":38800,"station_id":"ce4bgt92rcd13ifvqcg0","pricing_plan_id":"cebpf4jnsgd1na2vs0mg"},{"bike_id":"8407dfdd-27d7-41e9-92a2-6e84a0e72e60","system_id":"levelo_inurba_marseille","lat":43.29522,"lon":5.39054,"is_reserved":false,"is_disabled":false,"rental_uris":{"android":"levelo://app?vid=8407dfdd-27d7-41e9-92a2-6e84a0e72e60","ios":"levelo://app?vid=8407dfdd-27d7-41e9-92a2-6e84a0e72e60"},"vehicle_type_id":"4","last_reported":1727467819,"current_range_meters":4000,"station_id":"ce4bh3p2rcd13ifvqdp0","pricing_plan_id":"cebpf4jnsgd1na2vs0mg"},{"bike_id":"bc013da5-5ae4-41c5-b63d-f7a59a7e5346","system_id":"levelo_inurba_marseille","lat":43.28852,"lon":5.35839,"is_reserved":false,"is_disabled":false,"rental_uris":{"android":"levelo://app?vid=bc013da5-5ae4-41c5-b63d-f7a59a7e5346","ios":"levelo://app?vid=bc013da5-5ae4-41c5-b63d-f7a59a7e5346"},"vehicle_type_id":"4","last_reported":1727467819,"current_range_meters":39200,"station_id":"ce4bhb12rcd13ifvqem0","pricing_plan_id":"cebpf4jnsgd1na2vs0mg"},{"bike_id":"916009af-837a-466c-958a-66fe2cfb1bdd","system_id":"levelo_inurba_marseille","lat":43.25721,"lon":5.4111,"is_reserved":false,"is_disabled":false,"rental_uris":{"android":"levelo://app?vid=916009af-837a-466c-958a-66fe2cfb1bdd","ios":"levelo://app?vid=916009af-837a-466c-958a-66fe2cfb1bdd"},"vehicle_type_id":"4","last_reported":1727467819,"current_range_meters":15200,"station_id":"ce4bhkp2rcd13ifvqgd0","pricing_plan_id":"cebpf4jnsgd1na2vs0mg"},{"bike_id":"0eaceb3e-d0ca-4ba3-95c5-7e8ff87c5c80","system_id":"levelo_inurba_marseille","lat":43.28037,"lon":5.36961,"is_reserved":false,"is_disabled":false,"rental_uris":{"android":"levelo://app?vid=0eaceb3e-d0ca-4ba3-95c5-7e8ff87c5c80","ios":"levelo://app?vid=0eaceb3e-d0ca-4ba3-95c5-7e8ff87c5c80"},"vehicle_type_id":"4","last_reported":1727467819,"current_range_meters":25600,"station_id":"ce4bha12rcd13ifvqef0","pricing_plan_id":"cebpf4jnsgd1na2vs0mg"},{"bike_id":"ae811018-bf5b-4e7e-9168-9173ef4135d6","system_id":"levelo_inurba_marseille","lat":43.28383,"lon":5.37298,"is_reserved":false,"is_disabled":false,"rental_uris":{"android":"levelo://app?vid=ae811018-bf5b-4e7e-9168-9173ef4135d6","ios":"levelo://app?vid=ae811018-bf5b-4e7e-9168-9173ef4135d6"},"vehicle_type_id":"4","last_reported":1727467819,"current_range_meters":20000,"station_id":"","pricing_plan_id":"cebpf4jnsgd1na2vs0mg"},{"bike_id":"6c21c2c1-4919-43f7-b2e0-953c97362507","system_id":"levelo_inurba_marseille","lat":43.300718,"lon":5.365987,"is_reserved":false,"is_disabled":false,"rental_uris":{"android":"levelo://app?vid=6c21c2c1-4919-43f7-b2e0-953c97362507","ios":"levelo://app?vid=6c21c2c1-4919-43f7-b2e0-953c97362507"},"vehicle_type_id":"4","last_reported":1727467819,"current_range_meters":20400,"station_id":"ce4bha12rcd13ifvqee0","pricing_plan_id":"cebpf4jnsgd1na2vs0mg"},{"bike_id":"cf611ef8-2f0a-4fa3-acb0-2dbc5e3c131f","system_id":"levelo_inurba_marseille","lat":43.28941,"lon":5.36637,"is_reserved":false,"is_disabled":false,"rental_uris":{"android":"levelo://app?vid=cf611ef8-2f0a-4fa3-acb0-2dbc5e3c131f","ios":"levelo://app?vid=cf611ef8-2f0a-4fa3-acb0-2dbc5e3c131f"},"vehicle_type_id":"4","last_reported":1727467819,"current_range_meters":24400,"station_id":"ce4bhap2rcd13ifvqek0","pricing_plan_id":"cebpf4jnsgd1na2vs0mg"},{"bike_id":"68fc233c-8a28-4057-a1a0-e032e295ac1d","system_id":"levelo_inurba_marseille","lat":43.29557,"lon":5.42296,"is_reserved":false,"is_disabled":false,"rental_uris":{"android":"levelo://app?vid=68fc233c-8a28-4057-a1a0-e032e295ac1d","ios":"levelo://app?vid=68fc233c-8a28-4057-a1a0-e032e295ac1d"},"vehicle_type_id":"4","last_reported":1727467819,"current_range_meters":18000,"station_id":"ce4bhph2rcd13ifvqhdg","pricing_plan_id":"cebpf4jnsgd1na2vs0mg"},{"bike_id":"4d1a9658-ee35-422f-a6cb-14259e928eed","system_id":"levelo_inurba_marseille","lat":43.31083,"lon":5.40132,"is_reserved":false,"is_disabled":false,"rental_uris":{"android":"levelo://app?vid=4d1a9658-ee35-422f-a6cb-14259e928eed","ios":"levelo://app?vid=4d1a9658-ee35-422f-a6cb-14259e928eed"},"vehicle_type_id":"4","last_reported":1727467819,"current_range_meters":11600,"station_id":"","pricing_plan_id":"cebpf4jnsgd1na2vs0mg"},{"bike_id":"c63b3c7f-edb0-4e9d-b1b9-2eca9e823637","system_id":"levelo_inurba_marseille","lat":43.288459,"lon":5.38463,"is_reserved":false,"is_disabled":false,"rental_uris":{"android":"levelo://app?vid=c63b3c7f-edb0-4e9d-b1b9-2eca9e823637","ios":"levelo://app?vid=c63b3c7f-edb0-4e9d-b1b9-2eca9e823637"},"vehicle_type_id":"4","last_reported":1727467819,"current_range_meters":6400,"station_id":"ce4bh612rcd13ifvqe6g","pricing_plan_id":"cebpf4jnsgd1na2vs0mg"},{"bike_id":"8c95607a-d68d-4758-8e29-d746ae0f9d56","system_id":"levelo_inurba_marseille","lat":43.309,"lon":5.36852,"is_reserved":false,"is_disabled":false,"rental_uris":{"android":"levelo://app?vid=8c95607a-d68d-4758-8e29-d746ae0f9d56","ios":"levelo://app?vid=8c95607a-d68d-4758-8e29-d746ae0f9d56"},"vehicle_type_id":"4","last_reported":1727467819,"current_range_meters":37600,"station_id":"ce4bgn92rcd13ifvqbvg","pricing_plan_id":"cebpf4jnsgd1na2vs0mg"},{"bike_id":"fc351b53-839c-43c5-907e-b25d242736a8","system_id":"levelo_inurba_marseille","lat":43.26061,"lon":5.39396,"is_reserved":false,"is_disabled":false,"rental_uris":{"android":"levelo://app?vid=fc351b53-839c-43c5-907e-b25d242736a8","ios":"levelo://app?vid=fc351b53-839c-43c5-907e-b25d242736a8"},"vehicle_type_id":"4","last_reported":1727467819,"current_range_meters":24400,"station_id":"ce4bhh92rcd13ifvqfj0","pricing_plan_id":"cebpf4jnsgd1na2vs0mg"},{"bike_id":"52a8cffc-711f-4785-88b3-496d30cd6c4b","system_id":"levelo_inurba_marseille","lat":43.27814,"lon":5.40714,"is_reserved":false,"is_disabled":false,"rental_uris":{"android":"levelo://app?vid=52a8cffc-711f-4785-88b3-496d30cd6c4b","ios":"levelo://app?vid=52a8cffc-711f-4785-88b3-496d30cd6c4b"},"vehicle_type_id":"4","last_reported":1727467819,"current_range_meters":38800,"station_id":"ce4bhnh2rcd13ifvqgtg","pricing_plan_id":"cebpf4jnsgd1na2vs0mg"},{"bike_id":"53c6f2e0-e31f-4bd2-9188-53b83254ae09","system_id":"levelo_inurba_marseille","lat":43.31071,"lon":5.38355,"is_reserved":false,"is_disabled":false,"rental_uris":{"android":"levelo://app?vid=53c6f2e0-e31f-4bd2-9188-53b83254ae09","ios":"levelo://app?vid=53c6f2e0-e31f-4bd2-9188-53b83254ae09"},"vehicle_type_id":"4","last_reported":1727467819,"current_range_meters":6800,"station_id":"ce4bgv92rcd13ifvqcr0","pricing_plan_id":"cebpf4jnsgd1na2vs0mg"},{"bike_id":"83ef2629-081b-4f2e-aa68-4129edd6791e","system_id":"levelo_inurba_marseille","lat":43.29414,"lon":5.38628,"is_reserved":false,"is_disabled":false,"rental_uris":{"android":"levelo://app?vid=83ef2629-081b-4f2e-aa68-4129edd6791e","ios":"levelo://app?vid=83ef2629-081b-4f2e-aa68-4129edd6791e"},"vehicle_type_id":"4","last_reported":1727467819,"current_range_meters":38000,"station_id":"ce4bh2h2rcd13ifvqdh0","pricing_plan_id":"cebpf4jnsgd1na2vs0mg"},{"bike_id":"ce13001c-eda7-4717-aac4-68b45e2406a6","system_id":"levelo_inurba_marseille","lat":43.31995,"lon":5.38159,"is_reserved":false,"is_disabled":false,"rental_uris":{"android":"levelo://app?vid=ce13001c-eda7-4717-aac4-68b45e2406a6","ios":"levelo://app?vid=ce13001c-eda7-4717-aac4-68b45e2406a6"},"vehicle_type_id":"4","last_reported":1727467819,"current_range_meters":26000,"station_id":"ce4bhr12rcd13ifvqhpg","pricing_plan_id":"cebpf4jnsgd1na2vs0mg"},{"bike_id":"24feb5ad-6e7e-4661-bebb-8818660b86da","system_id":"levelo_inurba_marseille","lat":43.30957,"lon":5.39046,"is_reserved":false,"is_disabled":false,"rental_uris":{"android":"levelo://app?vid=24feb5ad-6e7e-4661-bebb-8818660b86da","ios":"levelo://app?vid=24feb5ad-6e7e-4661-bebb-8818660b86da"},"vehicle_type_id":"4","last_reported":1727467819,"current_range_meters":25600,"station_id":"ce4bgup2rcd13ifvqco0","pricing_plan_id":"cebpf4jnsgd1na2vs0mg"},{"bike_id":"a6a8658c-f679-4e9f-b123-07188255b169","system_id":"levelo_inurba_marseille","lat":43.289943,"lon":5.37587,"is_reserved":false,"is_disabled":false,"rental_uris":{"android":"levelo://app?vid=a6a8658c-f679-4e9f-b123-07188255b169","ios":"levelo://app?vid=a6a8658c-f679-4e9f-b123-07188255b169"},"vehicle_type_id":"4","last_reported":1727467819,"current_range_meters":32000,"station_id":"ce4bh692rcd13ifvqe90","pricing_plan_id":"cebpf4jnsgd1na2vs0mg"},{"bike_id":"b73674bb-ea5f-496a-8220-189b29e88438","system_id":"levelo_inurba_marseille","lat":43.2738,"lon":5.36265,"is_reserved":false,"is_disabled":false,"rental_uris":{"android":"levelo://app?vid=b73674bb-ea5f-496a-8220-189b29e88438","ios":"levelo://app?vid=b73674bb-ea5f-496a-8220-189b29e88438"},"vehicle_type_id":"4","last_reported":1727467819,"current_range_meters":14800,"station_id":"ce4bhbh2rcd13ifvqeo0","pricing_plan_id":"cebpf4jnsgd1na2vs0mg"},{"bike_id":"b765b8a4-12ad-4ede-bc59-e20c7c19cad2","system_id":"levelo_inurba_marseille","lat":43.29099,"lon":5.3814,"is_reserved":false,"is_disabled":false,"rental_uris":{"android":"levelo://app?vid=b765b8a4-12ad-4ede-bc59-e20c7c19cad2","ios":"levelo://app?vid=b765b8a4-12ad-4ede-bc59-e20c7c19cad2"},"vehicle_type_id":"4","last_reported":1727467819,"current_range_meters":3200,"station_id":"ce4bh512rcd13ifvqe2g","pricing_plan_id":"cebpf4jnsgd1na2vs0mg"},{"bike_id":"03143213-72bc-489e-9472-bee4e1ff9d6d","system_id":"levelo_inurba_marseille","lat":43.31355,"lon":5.38497,"is_reserved":false,"is_disabled":false,"rental_uris":{"android":"levelo://app?vid=03143213-72bc-489e-9472-bee4e1ff9d6d","ios":"levelo://app?vid=03143213-72bc-489e-9472-bee4e1ff9d6d"},"vehicle_type_id":"4","last_reported":1727467819,"current_range_meters":24400,"station_id":"ce4bgt92rcd13ifvqcf0","pricing_plan_id":"cebpf4jnsgd1na2vs0mg"},{"bike_id":"5a497672-f1df-4da1-9c77-1ea97a56b9d5","system_id":"levelo_inurba_marseille","lat":43.29021,"lon":5.3864,"is_reserved":false,"is_disabled":false,"rental_uris":{"android":"levelo://app?vid=5a497672-f1df-4da1-9c77-1ea97a56b9d5","ios":"levelo://app?vid=5a497672-f1df-4da1-9c77-1ea97a56b9d5"},"vehicle_type_id":"4","last_reported":1727467819,"current_range_meters":16800,"station_id":"ce4bh4p2rcd13ifvqe0g","pricing_plan_id":"cebpf4jnsgd1na2vs0mg"},{"bike_id":"419258ae-4dde-4486-953c-ac30f33f30b2","system_id":"levelo_inurba_marseille","lat":43.30143,"lon":5.37419,"is_reserved":false,"is_disabled":false,"rental_uris":{"android":"levelo://app?vid=419258ae-4dde-4486-953c-ac30f33f30b2","ios":"levelo://app?vid=419258ae-4dde-4486-953c-ac30f33f30b2"},"vehicle_type_id":"4","last_reported":1727467819,"current_range_meters":6000,"station_id":"ce4bgs92rcd13ifvqcc0","pricing_plan_id":"cebpf4jnsgd1na2vs0mg"},{"bike_id":"5379eb60-93b5-496b-9719-fe385f527a88","system_id":"levelo_inurba_marseille","lat":43.2586,"lon":5.39901,"is_reserved":false,"is_disabled":false,"rental_uris":{"android":"levelo://app?vid=5379eb60-93b5-496b-9719-fe385f527a88","ios":"levelo://app?vid=5379eb60-93b5-496b-9719-fe385f527a88"},"vehicle_type_id":"4","last_reported":1727467819,"current_range_meters":8000,"station_id":"ce4bhl92rcd13ifvqghg","pricing_plan_id":"cebpf4jnsgd1na2vs0mg"},{"bike_id":"19883538-544b-4210-8417-5d9b5d22156b","system_id":"levelo_inurba_marseille","lat":43.26805,"lon":5.40272,"is_reserved":false,"is_disabled":false,"rental_uris":{"android":"levelo://app?vid=19883538-544b-4210-8417-5d9b5d22156b","ios":"levelo://app?vid=19883538-544b-4210-8417-5d9b5d22156b"},"vehicle_type_id":"4","last_reported":1727467819,"current_range_meters":39200,"station_id":"ce501612rcd8frsf0b60","pricing_plan_id":"cebpf4jnsgd1na2vs0mg"},{"bike_id":"a08fb3b8-4918-45de-881a-b82a35ef0d2b","system_id":"levelo_inurba_marseille","lat":43.25828,"lon":5.39441,"is_reserved":false,"is_disabled":false,"rental_uris":{"android":"levelo://app?vid=a08fb3b8-4918-45de-881a-b82a35ef0d2b","ios":"levelo://app?vid=a08fb3b8-4918-45de-881a-b82a35ef0d2b"},"vehicle_type_id":"4","last_reported":1727467819,"current_range_meters":27200,"station_id":"ce4bhip2rcd13ifvqft0","pricing_plan_id":"cebpf4jnsgd1na2vs0mg"},{"bike_id":"d277fab4-5d7b-4c5a-9f3d-ca3974840de6","system_id":"levelo_inurba_marseille","lat":43.31173,"lon":5.3872,"is_reserved":false,"is_disabled":false,"rental_uris":{"android":"levelo://app?vid=d277fab4-5d7b-4c5a-9f3d-ca3974840de6","ios":"levelo://app?vid=d277fab4-5d7b-4c5a-9f3d-ca3974840de6"},"vehicle_type_id":"4","last_reported":1727467819,"current_range_meters":10000,"station_id":"ce4bgv12rcd13ifvqcp0","pricing_plan_id":"cebpf4jnsgd1na2vs0mg"},{"bike_id":"a22c3c5f-aaca-4d61-8278-f1801ba75371","system_id":"levelo_inurba_marseille","lat":43.247375,"lon":5.381494,"is_reserved":false,"is_disabled":false,"rental_uris":{"android":"levelo://app?vid=a22c3c5f-aaca-4d61-8278-f1801ba75371","ios":"levelo://app?vid=a22c3c5f-aaca-4d61-8278-f1801ba75371"},"vehicle_type_id":"4","last_reported":1727467819,"current_range_meters":36400,"station_id":"","pricing_plan_id":"cebpf4jnsgd1na2vs0mg"},{"bike_id":"bec1c3f6-2559-4ca8-b92f-f18b3981d91c","system_id":"levelo_inurba_marseille","lat":43.29417,"lon":5.38634,"is_reserved":false,"is_disabled":false,"rental_uris":{"android":"levelo://app?vid=bec1c3f6-2559-4ca8-b92f-f18b3981d91c","ios":"levelo://app?vid=bec1c3f6-2559-4ca8-b92f-f18b3981d91c"},"vehicle_type_id":"4","last_reported":1727467819,"current_range_meters":37600,"station_id":"ce4bh2h2rcd13ifvqdh0","pricing_plan_id":"cebpf4jnsgd1na2vs0mg"},{"bike_id":"d5a75546-f976-4b4e-95e4-b4bc3247ac7d","system_id":"levelo_inurba_marseille","lat":43.27377,"lon":5.36259,"is_reserved":false,"is_disabled":false,"rental_uris":{"android":"levelo://app?vid=d5a75546-f976-4b4e-95e4-b4bc3247ac7d","ios":"levelo://app?vid=d5a75546-f976-4b4e-95e4-b4bc3247ac7d"},"vehicle_type_id":"4","last_reported":1727467819,"current_range_meters":12000,"station_id":"ce4bhbh2rcd13ifvqeo0","pricing_plan_id":"cebpf4jnsgd1na2vs0mg"},{"bike_id":"e8394f53-ad6d-4807-b679-5193e1242268","system_id":"levelo_inurba_marseille","lat":43.31748,"lon":5.39023,"is_reserved":false,"is_disabled":false,"rental_uris":{"android":"levelo://app?vid=e8394f53-ad6d-4807-b679-5193e1242268","ios":"levelo://app?vid=e8394f53-ad6d-4807-b679-5193e1242268"},"vehicle_type_id":"4","last_reported":1727467819,"current_range_meters":3200,"station_id":"ce4bhqp2rcd13ifvqhng","pricing_plan_id":"cebpf4jnsgd1na2vs0mg"},{"bike_id":"c540adaf-5273-42a8-8516-1a52fb1f4d8f","system_id":"levelo_inurba_marseille","lat":43.25503,"lon":5.37652,"is_reserved":false,"is_disabled":false,"rental_uris":{"android":"levelo://app?vid=c540adaf-5273-42a8-8516-1a52fb1f4d8f","ios":"levelo://app?vid=c540adaf-5273-42a8-8516-1a52fb1f4d8f"},"vehicle_type_id":"4","last_reported":1727467819,"current_range_meters":39200,"station_id":"ce4bhh12rcd13ifvqff0","pricing_plan_id":"cebpf4jnsgd1na2vs0mg"},{"bike_id":"388bb608-55ab-4f5f-995b-d90f0d479466","system_id":"levelo_inurba_marseille","lat":43.29528,"lon":5.38546,"is_reserved":false,"is_disabled":false,"rental_uris":{"android":"levelo://app?vid=388bb608-55ab-4f5f-995b-d90f0d479466","ios":"levelo://app?vid=388bb608-55ab-4f5f-995b-d90f0d479466"},"vehicle_type_id":"4","last_reported":1727467819,"current_range_meters":13600,"station_id":"ce4bgih2rcd13ifvqba0","pricing_plan_id":"cebpf4jnsgd1na2vs0mg"},{"bike_id":"108521b4-d2ba-4851-86b3-ebd78c9034f0","system_id":"levelo_inurba_marseille","lat":43.30863,"lon":5.3685,"is_reserved":false,"is_disabled":false,"rental_uris":{"android":"levelo://app?vid=108521b4-d2ba-4851-86b3-ebd78c9034f0","ios":"levelo://app?vid=108521b4-d2ba-4851-86b3-ebd78c9034f0"},"vehicle_type_id":"4","last_reported":1727467819,"current_range_meters":14400,"station_id":"ce4bgn92rcd13ifvqbvg","pricing_plan_id":"cebpf4jnsgd1na2vs0mg"},{"bike_id":"29910bcc-132d-4c64-8ac3-821343437bc6","system_id":"levelo_inurba_marseille","lat":43.31361,"lon":5.38502,"is_reserved":false,"is_disabled":false,"rental_uris":{"android":"levelo://app?vid=29910bcc-132d-4c64-8ac3-821343437bc6","ios":"levelo://app?vid=29910bcc-132d-4c64-8ac3-821343437bc6"},"vehicle_type_id":"4","last_reported":1727467819,"current_range_meters":38800,"station_id":"ce4bgt92rcd13ifvqcf0","pricing_plan_id":"cebpf4jnsgd1na2vs0mg"},{"bike_id":"34f7f495-0508-4033-88f6-426b655fc5a0","system_id":"levelo_inurba_marseille","lat":43.22933,"lon":5.35379,"is_reserved":false,"is_disabled":false,"rental_uris":{"android":"levelo://app?vid=34f7f495-0508-4033-88f6-426b655fc5a0","ios":"levelo://app?vid=34f7f495-0508-4033-88f6-426b655fc5a0"},"vehicle_type_id":"4","last_reported":1727467819,"current_range_meters":36800,"station_id":"cpo3532slgdg3j2ikp40","pricing_plan_id":"cebpf4jnsgd1na2vs0mg"},{"bike_id":"8d201471-b542-43fa-b1b9-05a17e86c330","system_id":"levelo_inurba_marseille","lat":43.31364,"lon":5.38493,"is_reserved":false,"is_disabled":false,"rental_uris":{"android":"levelo://app?vid=8d201471-b542-43fa-b1b9-05a17e86c330","ios":"levelo://app?vid=8d201471-b542-43fa-b1b9-05a17e86c330"},"vehicle_type_id":"4","last_reported":1727467819,"current_range_meters":36400,"station_id":"ce4bgt92rcd13ifvqcf0","pricing_plan_id":"cebpf4jnsgd1na2vs0mg"},{"bike_id":"f45653af-11a8-49f5-a0ff-cda8383083f7","system_id":"levelo_inurba_marseille","lat":43.31219,"lon":5.36867,"is_reserved":false,"is_disabled":false,"rental_uris":{"android":"levelo://app?vid=f45653af-11a8-49f5-a0ff-cda8383083f7","ios":"levelo://app?vid=f45653af-11a8-49f5-a0ff-cda8383083f7"},"vehicle_type_id":"4","last_reported":1727467819,"current_range_meters":8000,"station_id":"ce4bgl92rcd13ifvqbq0","pricing_plan_id":"cebpf4jnsgd1na2vs0mg"},{"bike_id":"46cb4c95-37d4-45bd-a039-ccc6e7c70916","system_id":"levelo_inurba_marseille","lat":43.29532,"lon":5.3854,"is_reserved":false,"is_disabled":false,"rental_uris":{"android":"levelo://app?vid=46cb4c95-37d4-45bd-a039-ccc6e7c70916","ios":"levelo://app?vid=46cb4c95-37d4-45bd-a039-ccc6e7c70916"},"vehicle_type_id":"4","last_reported":1727467819,"current_range_meters":38000,"station_id":"ce4bgih2rcd13ifvqba0","pricing_plan_id":"cebpf4jnsgd1na2vs0mg"},{"bike_id":"0d5db94b-37df-46f2-94a7-f5d492883c52","system_id":"levelo_inurba_marseille","lat":43.30952,"lon":5.39038,"is_reserved":false,"is_disabled":false,"rental_uris":{"android":"levelo://app?vid=0d5db94b-37df-46f2-94a7-f5d492883c52","ios":"levelo://app?vid=0d5db94b-37df-46f2-94a7-f5d492883c52"},"vehicle_type_id":"4","last_reported":1727467819,"current_range_meters":22400,"station_id":"ce4bgip2rcd13ifvqbb0","pricing_plan_id":"cebpf4jnsgd1na2vs0mg"},{"bike_id":"cc27a154-f336-45ef-a412-7e268fbf2217","system_id":"levelo_inurba_marseille","lat":43.29554,"lon":5.42278,"is_reserved":false,"is_disabled":false,"rental_uris":{"android":"levelo://app?vid=cc27a154-f336-45ef-a412-7e268fbf2217","ios":"levelo://app?vid=cc27a154-f336-45ef-a412-7e268fbf2217"},"vehicle_type_id":"4","last_reported":1727467819,"current_range_meters":8800,"station_id":"ce4bhph2rcd13ifvqhdg","pricing_plan_id":"cebpf4jnsgd1na2vs0mg"},{"bike_id":"2988b1da-e672-45a3-81d6-2ab6d67ab647","system_id":"levelo_inurba_marseille","lat":43.3229,"lon":5.38268,"is_reserved":false,"is_disabled":false,"rental_uris":{"android":"levelo://app?vid=2988b1da-e672-45a3-81d6-2ab6d67ab647","ios":"levelo://app?vid=2988b1da-e672-45a3-81d6-2ab6d67ab647"},"vehicle_type_id":"4","last_reported":1727467819,"current_range_meters":39200,"station_id":"ce4bhr12rcd13ifvqhqg","pricing_plan_id":"cebpf4jnsgd1na2vs0mg"},{"bike_id":"dfc6713b-cb1a-4c7a-91b2-3e26e8b2b20c","system_id":"levelo_inurba_marseille","lat":43.31075,"lon":5.38356,"is_reserved":false,"is_disabled":false,"rental_uris":{"android":"levelo://app?vid=dfc6713b-cb1a-4c7a-91b2-3e26e8b2b20c","ios":"levelo://app?vid=dfc6713b-cb1a-4c7a-91b2-3e26e8b2b20c"},"vehicle_type_id":"4","last_reported":1727467819,"current_range_meters":24400,"station_id":"ce4bgv92rcd13ifvqcr0","pricing_plan_id":"cebpf4jnsgd1na2vs0mg"},{"bike_id":"04ed5a84-daca-49ee-add4-06d3bff73c3c","system_id":"levelo_inurba_marseille","lat":43.285289,"lon":5.390569,"is_reserved":false,"is_disabled":false,"rental_uris":{"android":"levelo://app?vid=04ed5a84-daca-49ee-add4-06d3bff73c3c","ios":"levelo://app?vid=04ed5a84-daca-49ee-add4-06d3bff73c3c"},"vehicle_type_id":"4","last_reported":1727467819,"current_range_meters":5600,"station_id":"","pricing_plan_id":"cebpf4jnsgd1na2vs0mg"},{"bike_id":"dcd7646c-9731-4b4e-a7c3-ba4548734412","system_id":"levelo_inurba_marseille","lat":43.337444,"lon":5.374475,"is_reserved":false,"is_disabled":false,"rental_uris":{"android":"levelo://app?vid=dcd7646c-9731-4b4e-a7c3-ba4548734412","ios":"levelo://app?vid=dcd7646c-9731-4b4e-a7c3-ba4548734412"},"vehicle_type_id":"4","last_reported":1727467819,"current_range_meters":33600,"station_id":"","pricing_plan_id":"cebpf4jnsgd1na2vs0mg"},{"bike_id":"ebe01908-fd16-48dd-b727-aff921a35ecc","system_id":"levelo_inurba_marseille","lat":43.31232,"lon":5.36868,"is_reserved":false,"is_disabled":false,"rental_uris":{"android":"levelo://app?vid=ebe01908-fd16-48dd-b727-aff921a35ecc","ios":"levelo://app?vid=ebe01908-fd16-48dd-b727-aff921a35ecc"},"vehicle_type_id":"4","last_reported":1727467819,"current_range_meters":29600,"station_id":"ce4bgl92rcd13ifvqbq0","pricing_plan_id":"cebpf4jnsgd1na2vs0mg"},{"bike_id":"bfbf4f18-53d1-4909-b857-d46f4f245f74","system_id":"levelo_inurba_marseille","lat":43.29257,"lon":5.38447,"is_reserved":false,"is_disabled":false,"rental_uris":{"android":"levelo://app?vid=bfbf4f18-53d1-4909-b857-d46f4f245f74","ios":"levelo://app?vid=bfbf4f18-53d1-4909-b857-d46f4f245f74"},"vehicle_type_id":"4","last_reported":1727467819,"current_range_meters":33200,"station_id":"ce4bh692rcd13ifvqea0","pricing_plan_id":"cebpf4jnsgd1na2vs0mg"},{"bike_id":"cf2b5c88-ba52-4fde-a378-46c9ff72e196","system_id":"levelo_inurba_marseille","lat":43.289337,"lon":5.366417,"is_reserved":false,"is_disabled":false,"rental_uris":{"android":"levelo://app?vid=cf2b5c88-ba52-4fde-a378-46c9ff72e196","ios":"levelo://app?vid=cf2b5c88-ba52-4fde-a378-46c9ff72e196"},"vehicle_type_id":"4","last_reported":1727467819,"current_range_meters":6400,"station_id":"ce4bhap2rcd13ifvqek0","pricing_plan_id":"cebpf4jnsgd1na2vs0mg"},{"bike_id":"8cdfa3c6-f7a3-40bd-95e5-72d83246a46b","system_id":"levelo_inurba_marseille","lat":43.23183,"lon":5.39991,"is_reserved":false,"is_disabled":false,"rental_uris":{"android":"levelo://app?vid=8cdfa3c6-f7a3-40bd-95e5-72d83246a46b","ios":"levelo://app?vid=8cdfa3c6-f7a3-40bd-95e5-72d83246a46b"},"vehicle_type_id":"4","last_reported":1727467819,"current_range_meters":38800,"station_id":"ce4bhn12rcd13ifvqgqg","pricing_plan_id":"cebpf4jnsgd1na2vs0mg"},{"bike_id":"b2ac7fc2-52ea-44de-8fbc-65400a0917f7","system_id":"levelo_inurba_marseille","lat":43.30579,"lon":5.37089,"is_reserved":false,"is_disabled":false,"rental_uris":{"android":"levelo://app?vid=b2ac7fc2-52ea-44de-8fbc-65400a0917f7","ios":"levelo://app?vid=b2ac7fc2-52ea-44de-8fbc-65400a0917f7"},"vehicle_type_id":"4","last_reported":1727467819,"current_range_meters":8800,"station_id":"","pricing_plan_id":"cebpf4jnsgd1na2vs0mg"},{"bike_id":"5c0c6233-8464-4d55-a462-c9165dcba121","system_id":"levelo_inurba_marseille","lat":43.28033,"lon":5.36943,"is_reserved":false,"is_disabled":false,"rental_uris":{"android":"levelo://app?vid=5c0c6233-8464-4d55-a462-c9165dcba121","ios":"levelo://app?vid=5c0c6233-8464-4d55-a462-c9165dcba121"},"vehicle_type_id":"4","last_reported":1727467819,"current_range_meters":38000,"station_id":"ce4bha12rcd13ifvqef0","pricing_plan_id":"cebpf4jnsgd1na2vs0mg"},{"bike_id":"18f7362c-d2d6-46aa-8fe9-afa06a6ba624","system_id":"levelo_inurba_marseille","lat":43.318848,"lon":5.407397,"is_reserved":false,"is_disabled":false,"rental_uris":{"android":"levelo://app?vid=18f7362c-d2d6-46aa-8fe9-afa06a6ba624","ios":"levelo://app?vid=18f7362c-d2d6-46aa-8fe9-afa06a6ba624"},"vehicle_type_id":"4","last_reported":1727467819,"current_range_meters":30800,"station_id":"ce4bhq12rcd13ifvqhig","pricing_plan_id":"cebpf4jnsgd1na2vs0mg"},{"bike_id":"993528d0-7153-4fc1-8ab5-6eeb3da65c22","system_id":"levelo_inurba_marseille","lat":43.28657,"lon":5.36355,"is_reserved":false,"is_disabled":false,"rental_uris":{"android":"levelo://app?vid=993528d0-7153-4fc1-8ab5-6eeb3da65c22","ios":"levelo://app?vid=993528d0-7153-4fc1-8ab5-6eeb3da65c22"},"vehicle_type_id":"4","last_reported":1727467819,"current_range_meters":22800,"station_id":"ce4bhah2rcd13ifvqej0","pricing_plan_id":"cebpf4jnsgd1na2vs0mg"},{"bike_id":"eba05926-f17e-4e29-8a11-eba8ae48bf9d","system_id":"levelo_inurba_marseille","lat":43.30209,"lon":5.39474,"is_reserved":false,"is_disabled":false,"rental_uris":{"android":"levelo://app?vid=eba05926-f17e-4e29-8a11-eba8ae48bf9d","ios":"levelo://app?vid=eba05926-f17e-4e29-8a11-eba8ae48bf9d"},"vehicle_type_id":"4","last_reported":1727467819,"current_range_meters":38800,"station_id":"ce4bh0p2rcd13ifvqd70","pricing_plan_id":"cebpf4jnsgd1na2vs0mg"},{"bike_id":"d0464e4e-9dbc-4e77-ac14-a780809035ad","system_id":"levelo_inurba_marseille","lat":43.29256,"lon":5.38453,"is_reserved":false,"is_disabled":false,"rental_uris":{"android":"levelo://app?vid=d0464e4e-9dbc-4e77-ac14-a780809035ad","ios":"levelo://app?vid=d0464e4e-9dbc-4e77-ac14-a780809035ad"},"vehicle_type_id":"4","last_reported":1727467819,"current_range_meters":39200,"station_id":"ce4bh692rcd13ifvqea0","pricing_plan_id":"cebpf4jnsgd1na2vs0mg"},{"bike_id":"4a46afb6-faf1-41a6-bb05-44de756ed509","system_id":"levelo_inurba_marseille","lat":43.31575,"lon":5.40302,"is_reserved":false,"is_disabled":false,"rental_uris":{"android":"levelo://app?vid=4a46afb6-faf1-41a6-bb05-44de756ed509","ios":"levelo://app?vid=4a46afb6-faf1-41a6-bb05-44de756ed509"},"vehicle_type_id":"4","last_reported":1727467819,"current_range_meters":20000,"station_id":"","pricing_plan_id":"cebpf4jnsgd1na2vs0mg"},{"bike_id":"e55535e6-ba93-47a9-84a7-1256789d7763","system_id":"levelo_inurba_marseille","lat":43.29275,"lon":5.38452,"is_reserved":false,"is_disabled":false,"rental_uris":{"android":"levelo://app?vid=e55535e6-ba93-47a9-84a7-1256789d7763","ios":"levelo://app?vid=e55535e6-ba93-47a9-84a7-1256789d7763"},"vehicle_type_id":"4","last_reported":1727467819,"current_range_meters":38000,"station_id":"ce4bh692rcd13ifvqea0","pricing_plan_id":"cebpf4jnsgd1na2vs0mg"},{"bike_id":"983d7f66-9483-4b4a-a508-1e8548050abc","system_id":"levelo_inurba_marseille","lat":43.23189,"lon":5.39993,"is_reserved":false,"is_disabled":false,"rental_uris":{"android":"levelo://app?vid=983d7f66-9483-4b4a-a508-1e8548050abc","ios":"levelo://app?vid=983d7f66-9483-4b4a-a508-1e8548050abc"},"vehicle_type_id":"4","last_reported":1727467819,"current_range_meters":38400,"station_id":"ce4bhn12rcd13ifvqgqg","pricing_plan_id":"cebpf4jnsgd1na2vs0mg"},{"bike_id":"f6448d45-5795-46ea-b37a-ec13a35a9013","system_id":"levelo_inurba_marseille","lat":43.28711,"lon":5.37393,"is_reserved":false,"is_disabled":false,"rental_uris":{"android":"levelo://app?vid=f6448d45-5795-46ea-b37a-ec13a35a9013","ios":"levelo://app?vid=f6448d45-5795-46ea-b37a-ec13a35a9013"},"vehicle_type_id":"4","last_reported":1727467819,"current_range_meters":15200,"station_id":"ce4bh3p2rcd13ifvqdq0","pricing_plan_id":"cebpf4jnsgd1na2vs0mg"},{"bike_id":"6e772b00-ca24-42d1-9570-c408d82d013b","system_id":"levelo_inurba_marseille","lat":43.29196,"lon":5.35812,"is_reserved":false,"is_disabled":false,"rental_uris":{"android":"levelo://app?vid=6e772b00-ca24-42d1-9570-c408d82d013b","ios":"levelo://app?vid=6e772b00-ca24-42d1-9570-c408d82d013b"},"vehicle_type_id":"4","last_reported":1727467819,"current_range_meters":18800,"station_id":"ce4bhb12rcd13ifvqel0","pricing_plan_id":"cebpf4jnsgd1na2vs0mg"},{"bike_id":"4012b5b6-bacb-4f23-b98f-8343a4f5ef35","system_id":"levelo_inurba_marseille","lat":43.31131,"lon":5.3778,"is_reserved":false,"is_disabled":false,"rental_uris":{"android":"levelo://app?vid=4012b5b6-bacb-4f23-b98f-8343a4f5ef35","ios":"levelo://app?vid=4012b5b6-bacb-4f23-b98f-8343a4f5ef35"},"vehicle_type_id":"4","last_reported":1727467819,"current_range_meters":33600,"station_id":"ce4bgt92rcd13ifvqcg0","pricing_plan_id":"cebpf4jnsgd1na2vs0mg"},{"bike_id":"971f938f-51cb-4601-86c6-be6ff9e4855e","system_id":"levelo_inurba_marseille","lat":43.30965,"lon":5.39046,"is_reserved":false,"is_disabled":false,"rental_uris":{"android":"levelo://app?vid=971f938f-51cb-4601-86c6-be6ff9e4855e","ios":"levelo://app?vid=971f938f-51cb-4601-86c6-be6ff9e4855e"},"vehicle_type_id":"4","last_reported":1727467819,"current_range_meters":16400,"station_id":"ce4bgup2rcd13ifvqco0","pricing_plan_id":"cebpf4jnsgd1na2vs0mg"},{"bike_id":"59ed1976-6411-45f0-888c-c6180d9e91e3","system_id":"levelo_inurba_marseille","lat":43.296233,"lon":5.400137,"is_reserved":false,"is_disabled":false,"rental_uris":{"android":"levelo://app?vid=59ed1976-6411-45f0-888c-c6180d9e91e3","ios":"levelo://app?vid=59ed1976-6411-45f0-888c-c6180d9e91e3"},"vehicle_type_id":"4","last_reported":1727467819,"current_range_meters":30000,"station_id":"","pricing_plan_id":"cebpf4jnsgd1na2vs0mg"},{"bike_id":"6bc3d31b-cd12-404f-8128-33d6db4b9461","system_id":"levelo_inurba_marseille","lat":43.2737,"lon":5.3626,"is_reserved":false,"is_disabled":false,"rental_uris":{"android":"levelo://app?vid=6bc3d31b-cd12-404f-8128-33d6db4b9461","ios":"levelo://app?vid=6bc3d31b-cd12-404f-8128-33d6db4b9461"},"vehicle_type_id":"4","last_reported":1727467819,"current_range_meters":38800,"station_id":"ce4bhbh2rcd13ifvqeo0","pricing_plan_id":"cebpf4jnsgd1na2vs0mg"},{"bike_id":"1c0b0200-b28a-4eb3-bf1a-ffd6b3250005","system_id":"levelo_inurba_marseille","lat":43.23181,"lon":5.39997,"is_reserved":false,"is_disabled":false,"rental_uris":{"android":"levelo://app?vid=1c0b0200-b28a-4eb3-bf1a-ffd6b3250005","ios":"levelo://app?vid=1c0b0200-b28a-4eb3-bf1a-ffd6b3250005"},"vehicle_type_id":"4","last_reported":1727467819,"current_range_meters":10000,"station_id":"ce4bhn12rcd13ifvqgqg","pricing_plan_id":"cebpf4jnsgd1na2vs0mg"},{"bike_id":"79d296e2-c7b8-4213-856c-4a9859dbe60f","system_id":"levelo_inurba_marseille","lat":43.26777,"lon":5.38939,"is_reserved":false,"is_disabled":false,"rental_uris":{"android":"levelo://app?vid=79d296e2-c7b8-4213-856c-4a9859dbe60f","ios":"levelo://app?vid=79d296e2-c7b8-4213-856c-4a9859dbe60f"},"vehicle_type_id":"4","last_reported":1727467819,"current_range_meters":8000,"station_id":"ce4bhgp2rcd13ifvqfd0","pricing_plan_id":"cebpf4jnsgd1na2vs0mg"},{"bike_id":"b3cab539-938e-4b9a-9984-69ec9f811d29","system_id":"levelo_inurba_marseille","lat":43.23186,"lon":5.39985,"is_reserved":false,"is_disabled":false,"rental_uris":{"android":"levelo://app?vid=b3cab539-938e-4b9a-9984-69ec9f811d29","ios":"levelo://app?vid=b3cab539-938e-4b9a-9984-69ec9f811d29"},"vehicle_type_id":"4","last_reported":1727467819,"current_range_meters":38800,"station_id":"ce4bhn12rcd13ifvqgqg","pricing_plan_id":"cebpf4jnsgd1na2vs0mg"},{"bike_id":"55f4413b-d25d-406c-8a0e-5492caaa9b66","system_id":"levelo_inurba_marseille","lat":43.24586,"lon":5.38018,"is_reserved":false,"is_disabled":false,"rental_uris":{"android":"levelo://app?vid=55f4413b-d25d-406c-8a0e-5492caaa9b66","ios":"levelo://app?vid=55f4413b-d25d-406c-8a0e-5492caaa9b66"},"vehicle_type_id":"4","last_reported":1727467819,"current_range_meters":38000,"station_id":"ce4bhih2rcd13ifvqfr0","pricing_plan_id":"cebpf4jnsgd1na2vs0mg"},{"bike_id":"934a7cbd-de3c-4074-bc6b-aa81397593d7","system_id":"levelo_inurba_marseille","lat":43.24669,"lon":5.3816,"is_reserved":false,"is_disabled":false,"rental_uris":{"android":"levelo://app?vid=934a7cbd-de3c-4074-bc6b-aa81397593d7","ios":"levelo://app?vid=934a7cbd-de3c-4074-bc6b-aa81397593d7"},"vehicle_type_id":"4","last_reported":1727467819,"current_range_meters":19600,"station_id":"ce4bhih2rcd13ifvqfr0","pricing_plan_id":"cebpf4jnsgd1na2vs0mg"},{"bike_id":"a4f5af3a-a846-410c-90e4-aa3ae945c557","system_id":"levelo_inurba_marseille","lat":43.26938,"lon":5.40252,"is_reserved":false,"is_disabled":false,"rental_uris":{"android":"levelo://app?vid=a4f5af3a-a846-410c-90e4-aa3ae945c557","ios":"levelo://app?vid=a4f5af3a-a846-410c-90e4-aa3ae945c557"},"vehicle_type_id":"4","last_reported":1727467819,"current_range_meters":38800,"station_id":"cjm6bp8fraef2m0cb0m0","pricing_plan_id":"cebpf4jnsgd1na2vs0mg"},{"bike_id":"079a71fc-cacc-46a5-8f9c-f995650e68ce","system_id":"levelo_inurba_marseille","lat":43.29281,"lon":5.38444,"is_reserved":false,"is_disabled":false,"rental_uris":{"android":"levelo://app?vid=079a71fc-cacc-46a5-8f9c-f995650e68ce","ios":"levelo://app?vid=079a71fc-cacc-46a5-8f9c-f995650e68ce"},"vehicle_type_id":"4","last_reported":1727467819,"current_range_meters":7200,"station_id":"ce4bh692rcd13ifvqea0","pricing_plan_id":"cebpf4jnsgd1na2vs0mg"},{"bike_id":"88be1982-2b52-472f-8bb6-8e170d93e804","system_id":"levelo_inurba_marseille","lat":43.30648,"lon":5.40101,"is_reserved":false,"is_disabled":false,"rental_uris":{"android":"levelo://app?vid=88be1982-2b52-472f-8bb6-8e170d93e804","ios":"levelo://app?vid=88be1982-2b52-472f-8bb6-8e170d93e804"},"vehicle_type_id":"4","last_reported":1727467819,"current_range_meters":6800,"station_id":"ce4bh112rcd13ifvqda0","pricing_plan_id":"cebpf4jnsgd1na2vs0mg"},{"bike_id":"629c1db9-09b4-4e56-87fb-472b5f9d2487","system_id":"levelo_inurba_marseille","lat":43.31327,"lon":5.39696,"is_reserved":false,"is_disabled":false,"rental_uris":{"android":"levelo://app?vid=629c1db9-09b4-4e56-87fb-472b5f9d2487","ios":"levelo://app?vid=629c1db9-09b4-4e56-87fb-472b5f9d2487"},"vehicle_type_id":"4","last_reported":1727467819,"current_range_meters":38800,"station_id":"ce4bgvp2rcd13ifvqcu0","pricing_plan_id":"cebpf4jnsgd1na2vs0mg"},{"bike_id":"8c5ef1ae-ffd7-4d8d-89da-798263facd29","system_id":"levelo_inurba_marseille","lat":43.28938,"lon":5.36641,"is_reserved":false,"is_disabled":false,"rental_uris":{"android":"levelo://app?vid=8c5ef1ae-ffd7-4d8d-89da-798263facd29","ios":"levelo://app?vid=8c5ef1ae-ffd7-4d8d-89da-798263facd29"},"vehicle_type_id":"4","last_reported":1727467819,"current_range_meters":16000,"station_id":"ce4bhap2rcd13ifvqek0","pricing_plan_id":"cebpf4jnsgd1na2vs0mg"},{"bike_id":"a67896f8-358e-421a-a0eb-0e8aa0cf9ff9","system_id":"levelo_inurba_marseille","lat":43.29266,"lon":5.38448,"is_reserved":false,"is_disabled":false,"rental_uris":{"android":"levelo://app?vid=a67896f8-358e-421a-a0eb-0e8aa0cf9ff9","ios":"levelo://app?vid=a67896f8-358e-421a-a0eb-0e8aa0cf9ff9"},"vehicle_type_id":"4","last_reported":1727467819,"current_range_meters":28400,"station_id":"ce4bh692rcd13ifvqea0","pricing_plan_id":"cebpf4jnsgd1na2vs0mg"},{"bike_id":"17df6cb7-9806-4348-8544-4e67d396303b","system_id":"levelo_inurba_marseille","lat":43.22932,"lon":5.35382,"is_reserved":false,"is_disabled":false,"rental_uris":{"android":"levelo://app?vid=17df6cb7-9806-4348-8544-4e67d396303b","ios":"levelo://app?vid=17df6cb7-9806-4348-8544-4e67d396303b"},"vehicle_type_id":"4","last_reported":1727467819,"current_range_meters":38800,"station_id":"cpo3532slgdg3j2ikp40","pricing_plan_id":"cebpf4jnsgd1na2vs0mg"},{"bike_id":"eab9298e-4baa-4a49-a182-4f74b0b1212b","system_id":"levelo_inurba_marseille","lat":43.292664,"lon":5.409063,"is_reserved":false,"is_disabled":false,"rental_uris":{"android":"levelo://app?vid=eab9298e-4baa-4a49-a182-4f74b0b1212b","ios":"levelo://app?vid=eab9298e-4baa-4a49-a182-4f74b0b1212b"},"vehicle_type_id":"4","last_reported":1727467819,"current_range_meters":3200,"station_id":"ce4bh192rcd13ifvqdc0","pricing_plan_id":"cebpf4jnsgd1na2vs0mg"},{"bike_id":"1203d1df-317e-49d9-bc53-7c991c18be94","system_id":"levelo_inurba_marseille","lat":43.28946,"lon":5.36401,"is_reserved":false,"is_disabled":false,"rental_uris":{"android":"levelo://app?vid=1203d1df-317e-49d9-bc53-7c991c18be94","ios":"levelo://app?vid=1203d1df-317e-49d9-bc53-7c991c18be94"},"vehicle_type_id":"4","last_reported":1727467819,"current_range_meters":38800,"station_id":"ce4bhc92rcd13ifvqetg","pricing_plan_id":"cebpf4jnsgd1na2vs0mg"},{"bike_id":"581e06e4-eb8a-4e84-a1fb-fee822d8e8af","system_id":"levelo_inurba_marseille","lat":43.2917,"lon":5.37169,"is_reserved":false,"is_disabled":false,"rental_uris":{"android":"levelo://app?vid=581e06e4-eb8a-4e84-a1fb-fee822d8e8af","ios":"levelo://app?vid=581e06e4-eb8a-4e84-a1fb-fee822d8e8af"},"vehicle_type_id":"4","last_reported":1727467819,"current_range_meters":22800,"station_id":"ce4bha92rcd13ifvqeh0","pricing_plan_id":"cebpf4jnsgd1na2vs0mg"},{"bike_id":"79b6f484-1c9e-4fae-a990-12cca34d70d2","system_id":"levelo_inurba_marseille","lat":43.32334,"lon":5.40621,"is_reserved":false,"is_disabled":false,"rental_uris":{"android":"levelo://app?vid=79b6f484-1c9e-4fae-a990-12cca34d70d2","ios":"levelo://app?vid=79b6f484-1c9e-4fae-a990-12cca34d70d2"},"vehicle_type_id":"4","last_reported":1727467819,"current_range_meters":36000,"station_id":"ce4bhq92rcd13ifvqhjg","pricing_plan_id":"cebpf4jnsgd1na2vs0mg"},{"bike_id":"5037a3ab-cc8a-40fc-8925-431f3046eb1e","system_id":"levelo_inurba_marseille","lat":43.28943,"lon":5.3639,"is_reserved":false,"is_disabled":false,"rental_uris":{"android":"levelo://app?vid=5037a3ab-cc8a-40fc-8925-431f3046eb1e","ios":"levelo://app?vid=5037a3ab-cc8a-40fc-8925-431f3046eb1e"},"vehicle_type_id":"4","last_reported":1727467819,"current_range_meters":24800,"station_id":"ce4bhc92rcd13ifvqetg","pricing_plan_id":"cebpf4jnsgd1na2vs0mg"},{"bike_id":"deefc719-7051-4874-baff-a0d17d659b55","system_id":"levelo_inurba_marseille","lat":43.29258,"lon":5.38446,"is_reserved":false,"is_disabled":false,"rental_uris":{"android":"levelo://app?vid=deefc719-7051-4874-baff-a0d17d659b55","ios":"levelo://app?vid=deefc719-7051-4874-baff-a0d17d659b55"},"vehicle_type_id":"4","last_reported":1727467819,"current_range_meters":17200,"station_id":"ce4bh692rcd13ifvqea0","pricing_plan_id":"cebpf4jnsgd1na2vs0mg"},{"bike_id":"745c4e55-1df6-46a1-bc40-738f3bbf3216","system_id":"levelo_inurba_marseille","lat":43.25111,"lon":5.4032,"is_reserved":false,"is_disabled":false,"rental_uris":{"android":"levelo://app?vid=745c4e55-1df6-46a1-bc40-738f3bbf3216","ios":"levelo://app?vid=745c4e55-1df6-46a1-bc40-738f3bbf3216"},"vehicle_type_id":"4","last_reported":1727467819,"current_range_meters":36000,"station_id":"ce4bhlh2rcd13ifvqgig","pricing_plan_id":"cebpf4jnsgd1na2vs0mg"},{"bike_id":"c2f6d82b-e00d-4d4b-9f53-71c05afc522f","system_id":"levelo_inurba_marseille","lat":43.31889,"lon":5.40742,"is_reserved":false,"is_disabled":false,"rental_uris":{"android":"levelo://app?vid=c2f6d82b-e00d-4d4b-9f53-71c05afc522f","ios":"levelo://app?vid=c2f6d82b-e00d-4d4b-9f53-71c05afc522f"},"vehicle_type_id":"4","last_reported":1727467819,"current_range_meters":38800,"station_id":"ce4bhq12rcd13ifvqhig","pricing_plan_id":"cebpf4jnsgd1na2vs0mg"},{"bike_id":"962b7c6e-c905-4df1-a55f-75a89b1ed0b6","system_id":"levelo_inurba_marseille","lat":43.31884,"lon":5.40744,"is_reserved":false,"is_disabled":false,"rental_uris":{"android":"levelo://app?vid=962b7c6e-c905-4df1-a55f-75a89b1ed0b6","ios":"levelo://app?vid=962b7c6e-c905-4df1-a55f-75a89b1ed0b6"},"vehicle_type_id":"4","last_reported":1727467819,"current_range_meters":22400,"station_id":"ce4bhq12rcd13ifvqhig","pricing_plan_id":"cebpf4jnsgd1na2vs0mg"},{"bike_id":"ef6e029d-11c4-46c6-8860-3feee4829cd0","system_id":"levelo_inurba_marseille","lat":43.26802,"lon":5.40268,"is_reserved":false,"is_disabled":false,"rental_uris":{"android":"levelo://app?vid=ef6e029d-11c4-46c6-8860-3feee4829cd0","ios":"levelo://app?vid=ef6e029d-11c4-46c6-8860-3feee4829cd0"},"vehicle_type_id":"4","last_reported":1727467819,"current_range_meters":38800,"station_id":"ce501612rcd8frsf0b60","pricing_plan_id":"cebpf4jnsgd1na2vs0mg"},{"bike_id":"e6fa5d98-7be7-45f9-b84c-792382bbca76","system_id":"levelo_inurba_marseille","lat":43.29531,"lon":5.38554,"is_reserved":false,"is_disabled":false,"rental_uris":{"android":"levelo://app?vid=e6fa5d98-7be7-45f9-b84c-792382bbca76","ios":"levelo://app?vid=e6fa5d98-7be7-45f9-b84c-792382bbca76"},"vehicle_type_id":"4","last_reported":1727467819,"current_range_meters":38000,"station_id":"ce4bgih2rcd13ifvqba0","pricing_plan_id":"cebpf4jnsgd1na2vs0mg"},{"bike_id":"e6e703c2-0504-49e3-81e4-dcc109bb6ff2","system_id":"levelo_inurba_marseille","lat":43.29549,"lon":5.39395,"is_reserved":false,"is_disabled":false,"rental_uris":{"android":"levelo://app?vid=e6e703c2-0504-49e3-81e4-dcc109bb6ff2","ios":"levelo://app?vid=e6e703c2-0504-49e3-81e4-dcc109bb6ff2"},"vehicle_type_id":"4","last_reported":1727467819,"current_range_meters":30800,"station_id":"ce4bh292rcd13ifvqdf0","pricing_plan_id":"cebpf4jnsgd1na2vs0mg"},{"bike_id":"09c27873-3058-4d81-ab9f-20da31a90615","system_id":"levelo_inurba_marseille","lat":43.32111,"lon":5.3678,"is_reserved":false,"is_disabled":false,"rental_uris":{"android":"levelo://app?vid=09c27873-3058-4d81-ab9f-20da31a90615","ios":"levelo://app?vid=09c27873-3058-4d81-ab9f-20da31a90615"},"vehicle_type_id":"4","last_reported":1727467819,"current_range_meters":32400,"station_id":"ce4bhrh2rcd13ifvqhug","pricing_plan_id":"cebpf4jnsgd1na2vs0mg"},{"bike_id":"c4cd5567-df5e-4387-b892-0571fdc57add","system_id":"levelo_inurba_marseille","lat":43.32662,"lon":5.40988,"is_reserved":false,"is_disabled":false,"rental_uris":{"android":"levelo://app?vid=c4cd5567-df5e-4387-b892-0571fdc57add","ios":"levelo://app?vid=c4cd5567-df5e-4387-b892-0571fdc57add"},"vehicle_type_id":"4","last_reported":1727467819,"current_range_meters":10800,"station_id":"ce4bhpp2rcd13ifvqhgg","pricing_plan_id":"cebpf4jnsgd1na2vs0mg"},{"bike_id":"2d55bc31-f3d0-492c-9e89-8393ebb1ce80","system_id":"levelo_inurba_marseille","lat":43.24662,"lon":5.38163,"is_reserved":false,"is_disabled":false,"rental_uris":{"android":"levelo://app?vid=2d55bc31-f3d0-492c-9e89-8393ebb1ce80","ios":"levelo://app?vid=2d55bc31-f3d0-492c-9e89-8393ebb1ce80"},"vehicle_type_id":"4","last_reported":1727467819,"current_range_meters":13600,"station_id":"ce4bhih2rcd13ifvqfr0","pricing_plan_id":"cebpf4jnsgd1na2vs0mg"},{"bike_id":"2b301aa2-4399-4823-ad3e-0c03809dfc5d","system_id":"levelo_inurba_marseille","lat":43.2604,"lon":5.38204,"is_reserved":false,"is_disabled":false,"rental_uris":{"android":"levelo://app?vid=2b301aa2-4399-4823-ad3e-0c03809dfc5d","ios":"levelo://app?vid=2b301aa2-4399-4823-ad3e-0c03809dfc5d"},"vehicle_type_id":"4","last_reported":1727467819,"current_range_meters":31200,"station_id":"","pricing_plan_id":"cebpf4jnsgd1na2vs0mg"},{"bike_id":"d004eb76-e559-4689-a7fa-170f2b8b65e0","system_id":"levelo_inurba_marseille","lat":43.26684,"lon":5.38272,"is_reserved":false,"is_disabled":false,"rental_uris":{"android":"levelo://app?vid=d004eb76-e559-4689-a7fa-170f2b8b65e0","ios":"levelo://app?vid=d004eb76-e559-4689-a7fa-170f2b8b65e0"},"vehicle_type_id":"4","last_reported":1727467819,"current_range_meters":4400,"station_id":"ce4bhg92rcd13ifvqf90","pricing_plan_id":"cebpf4jnsgd1na2vs0mg"},{"bike_id":"d49c88b9-8274-437c-8b0a-a85d2cbdf994","system_id":"levelo_inurba_marseille","lat":43.27557,"lon":5.3843,"is_reserved":false,"is_disabled":false,"rental_uris":{"android":"levelo://app?vid=d49c88b9-8274-437c-8b0a-a85d2cbdf994","ios":"levelo://app?vid=d49c88b9-8274-437c-8b0a-a85d2cbdf994"},"vehicle_type_id":"4","last_reported":1727467819,"current_range_meters":38000,"station_id":"ce4bhh92rcd13ifvqfi0","pricing_plan_id":"cebpf4jnsgd1na2vs0mg"},{"bike_id":"d250b42f-93ee-4275-9f57-a61e6463a969","system_id":"levelo_inurba_marseille","lat":43.313307,"lon":5.39712,"is_reserved":false,"is_disabled":false,"rental_uris":{"android":"levelo://app?vid=d250b42f-93ee-4275-9f57-a61e6463a969","ios":"levelo://app?vid=d250b42f-93ee-4275-9f57-a61e6463a969"},"vehicle_type_id":"4","last_reported":1727467819,"current_range_meters":33600,"station_id":"ce4bgvp2rcd13ifvqcu0","pricing_plan_id":"cebpf4jnsgd1na2vs0mg"},{"bike_id":"2d6c59cf-936d-4e8b-9e99-2f547f2a3e48","system_id":"levelo_inurba_marseille","lat":43.32295,"lon":5.38269,"is_reserved":false,"is_disabled":false,"rental_uris":{"android":"levelo://app?vid=2d6c59cf-936d-4e8b-9e99-2f547f2a3e48","ios":"levelo://app?vid=2d6c59cf-936d-4e8b-9e99-2f547f2a3e48"},"vehicle_type_id":"4","last_reported":1727467819,"current_range_meters":12000,"station_id":"ce4bhr12rcd13ifvqhqg","pricing_plan_id":"cebpf4jnsgd1na2vs0mg"},{"bike_id":"38d6acfc-8b53-4e03-9391-e038e5d0df4f","system_id":"levelo_inurba_marseille","lat":43.29534,"lon":5.38547,"is_reserved":false,"is_disabled":false,"rental_uris":{"android":"levelo://app?vid=38d6acfc-8b53-4e03-9391-e038e5d0df4f","ios":"levelo://app?vid=38d6acfc-8b53-4e03-9391-e038e5d0df4f"},"vehicle_type_id":"4","last_reported":1727467819,"current_range_meters":6400,"station_id":"ce4bgih2rcd13ifvqba0","pricing_plan_id":"cebpf4jnsgd1na2vs0mg"},{"bike_id":"93c01cbd-65ef-4111-9cc4-6cd2286d7bc4","system_id":"levelo_inurba_marseille","lat":43.29025,"lon":5.38647,"is_reserved":false,"is_disabled":false,"rental_uris":{"android":"levelo://app?vid=93c01cbd-65ef-4111-9cc4-6cd2286d7bc4","ios":"levelo://app?vid=93c01cbd-65ef-4111-9cc4-6cd2286d7bc4"},"vehicle_type_id":"4","last_reported":1727467819,"current_range_meters":3200,"station_id":"ce4bh4p2rcd13ifvqe0g","pricing_plan_id":"cebpf4jnsgd1na2vs0mg"},{"bike_id":"5d9007bb-a613-45fc-bd0d-75080227ffd3","system_id":"levelo_inurba_marseille","lat":43.27375,"lon":5.36263,"is_reserved":false,"is_disabled":false,"rental_uris":{"android":"levelo://app?vid=5d9007bb-a613-45fc-bd0d-75080227ffd3","ios":"levelo://app?vid=5d9007bb-a613-45fc-bd0d-75080227ffd3"},"vehicle_type_id":"4","last_reported":1727467819,"current_range_meters":22400,"station_id":"ce4bhbh2rcd13ifvqeo0","pricing_plan_id":"cebpf4jnsgd1na2vs0mg"},{"bike_id":"538dbf62-195e-422e-b072-ea9f25957046","system_id":"levelo_inurba_marseille","lat":43.30955,"lon":5.39038,"is_reserved":false,"is_disabled":false,"rental_uris":{"android":"levelo://app?vid=538dbf62-195e-422e-b072-ea9f25957046","ios":"levelo://app?vid=538dbf62-195e-422e-b072-ea9f25957046"},"vehicle_type_id":"4","last_reported":1727467819,"current_range_meters":26800,"station_id":"ce4bgup2rcd13ifvqco0","pricing_plan_id":"cebpf4jnsgd1na2vs0mg"},{"bike_id":"2a64eb20-d668-4200-b03e-5886c56d568b","system_id":"levelo_inurba_marseille","lat":43.29196,"lon":5.35816,"is_reserved":false,"is_disabled":false,"rental_uris":{"android":"levelo://app?vid=2a64eb20-d668-4200-b03e-5886c56d568b","ios":"levelo://app?vid=2a64eb20-d668-4200-b03e-5886c56d568b"},"vehicle_type_id":"4","last_reported":1727467819,"current_range_meters":2800,"station_id":"ce4bhs12rcd13ifvqhvg","pricing_plan_id":"cebpf4jnsgd1na2vs0mg"},{"bike_id":"81ec0644-d52f-4056-a44c-cdbb3ea96c82","system_id":"levelo_inurba_marseille","lat":43.29532,"lon":5.38548,"is_reserved":false,"is_disabled":false,"rental_uris":{"android":"levelo://app?vid=81ec0644-d52f-4056-a44c-cdbb3ea96c82","ios":"levelo://app?vid=81ec0644-d52f-4056-a44c-cdbb3ea96c82"},"vehicle_type_id":"4","last_reported":1727467819,"current_range_meters":21600,"station_id":"ce4bgih2rcd13ifvqba0","pricing_plan_id":"cebpf4jnsgd1na2vs0mg"},{"bike_id":"4cbb6185-3bc2-4b46-a935-0e4772fbaa0e","system_id":"levelo_inurba_marseille","lat":43.29569,"lon":5.39969,"is_reserved":false,"is_disabled":false,"rental_uris":{"android":"levelo://app?vid=4cbb6185-3bc2-4b46-a935-0e4772fbaa0e","ios":"levelo://app?vid=4cbb6185-3bc2-4b46-a935-0e4772fbaa0e"},"vehicle_type_id":"4","last_reported":1727467819,"current_range_meters":38800,"station_id":"ce4bh312rcd13ifvqdj0","pricing_plan_id":"cebpf4jnsgd1na2vs0mg"},{"bike_id":"be252fc1-920c-4264-85b7-b50f1b3dc841","system_id":"levelo_inurba_marseille","lat":43.29897,"lon":5.43672,"is_reserved":false,"is_disabled":false,"rental_uris":{"android":"levelo://app?vid=be252fc1-920c-4264-85b7-b50f1b3dc841","ios":"levelo://app?vid=be252fc1-920c-4264-85b7-b50f1b3dc841"},"vehicle_type_id":"4","last_reported":1727467819,"current_range_meters":20000,"station_id":"ce4bhpp2rcd13ifvqhfg","pricing_plan_id":"cebpf4jnsgd1na2vs0mg"},{"bike_id":"dcd1e56c-4f4b-48cb-ba81-8068e06e5fa9","system_id":"levelo_inurba_marseille","lat":43.26032,"lon":5.37551,"is_reserved":false,"is_disabled":false,"rental_uris":{"android":"levelo://app?vid=dcd1e56c-4f4b-48cb-ba81-8068e06e5fa9","ios":"levelo://app?vid=dcd1e56c-4f4b-48cb-ba81-8068e06e5fa9"},"vehicle_type_id":"4","last_reported":1727467819,"current_range_meters":12800,"station_id":"ce4bhgh2rcd13ifvqfa0","pricing_plan_id":"cebpf4jnsgd1na2vs0mg"},{"bike_id":"55bcd724-8b74-4eef-aeb7-00497b30a792","system_id":"levelo_inurba_marseille","lat":43.23189,"lon":5.39987,"is_reserved":false,"is_disabled":false,"rental_uris":{"android":"levelo://app?vid=55bcd724-8b74-4eef-aeb7-00497b30a792","ios":"levelo://app?vid=55bcd724-8b74-4eef-aeb7-00497b30a792"},"vehicle_type_id":"4","last_reported":1727467819,"current_range_meters":37600,"station_id":"ce4bhn12rcd13ifvqgqg","pricing_plan_id":"cebpf4jnsgd1na2vs0mg"},{"bike_id":"278ae4bc-a614-4fec-a004-dae40e30090b","system_id":"levelo_inurba_marseille","lat":43.25497,"lon":5.37653,"is_reserved":false,"is_disabled":false,"rental_uris":{"android":"levelo://app?vid=278ae4bc-a614-4fec-a004-dae40e30090b","ios":"levelo://app?vid=278ae4bc-a614-4fec-a004-dae40e30090b"},"vehicle_type_id":"4","last_reported":1727467819,"current_range_meters":3200,"station_id":"ce4bhh12rcd13ifvqff0","pricing_plan_id":"cebpf4jnsgd1na2vs0mg"},{"bike_id":"501af3ed-513f-4b86-9c7c-4248e2ca2c28","system_id":"levelo_inurba_marseille","lat":43.29263,"lon":5.38435,"is_reserved":false,"is_disabled":false,"rental_uris":{"android":"levelo://app?vid=501af3ed-513f-4b86-9c7c-4248e2ca2c28","ios":"levelo://app?vid=501af3ed-513f-4b86-9c7c-4248e2ca2c28"},"vehicle_type_id":"4","last_reported":1727467819,"current_range_meters":20800,"station_id":"ce4bh692rcd13ifvqea0","pricing_plan_id":"cebpf4jnsgd1na2vs0mg"},{"bike_id":"507b7989-ee2f-432e-a370-37482c52af83","system_id":"levelo_inurba_marseille","lat":43.29415,"lon":5.38632,"is_reserved":false,"is_disabled":false,"rental_uris":{"android":"levelo://app?vid=507b7989-ee2f-432e-a370-37482c52af83","ios":"levelo://app?vid=507b7989-ee2f-432e-a370-37482c52af83"},"vehicle_type_id":"4","last_reported":1727467819,"current_range_meters":9200,"station_id":"ce4bh2h2rcd13ifvqdh0","pricing_plan_id":"cebpf4jnsgd1na2vs0mg"},{"bike_id":"8d110f5b-d7bf-4ce6-98ec-c64675f7d4f7","system_id":"levelo_inurba_marseille","lat":43.326595,"lon":5.409931,"is_reserved":false,"is_disabled":false,"rental_uris":{"android":"levelo://app?vid=8d110f5b-d7bf-4ce6-98ec-c64675f7d4f7","ios":"levelo://app?vid=8d110f5b-d7bf-4ce6-98ec-c64675f7d4f7"},"vehicle_type_id":"4","last_reported":1727467819,"current_range_meters":38800,"station_id":"ce4bhpp2rcd13ifvqhgg","pricing_plan_id":"cebpf4jnsgd1na2vs0mg"},{"bike_id":"99e2368b-891f-48d9-9cd4-ece45cf4e607","system_id":"levelo_inurba_marseille","lat":43.23963,"lon":5.36635,"is_reserved":false,"is_disabled":false,"rental_uris":{"android":"levelo://app?vid=99e2368b-891f-48d9-9cd4-ece45cf4e607","ios":"levelo://app?vid=99e2368b-891f-48d9-9cd4-ece45cf4e607"},"vehicle_type_id":"4","last_reported":1727467819,"current_range_meters":35200,"station_id":"ce4bhi12rcd13ifvqfp0","pricing_plan_id":"cebpf4jnsgd1na2vs0mg"},{"bike_id":"4c1fa5e3-e9b9-491e-8554-2bcdbefb9049","system_id":"levelo_inurba_marseille","lat":43.2465,"lon":5.38901,"is_reserved":false,"is_disabled":false,"rental_uris":{"android":"levelo://app?vid=4c1fa5e3-e9b9-491e-8554-2bcdbefb9049","ios":"levelo://app?vid=4c1fa5e3-e9b9-491e-8554-2bcdbefb9049"},"vehicle_type_id":"4","last_reported":1727467819,"current_range_meters":17200,"station_id":"ce4bhg12rcd13ifvqf60","pricing_plan_id":"cebpf4jnsgd1na2vs0mg"},{"bike_id":"1385f870-7a4b-4e87-81cd-24ec1db2637f","system_id":"levelo_inurba_marseille","lat":43.30952,"lon":5.39023,"is_reserved":false,"is_disabled":false,"rental_uris":{"android":"levelo://app?vid=1385f870-7a4b-4e87-81cd-24ec1db2637f","ios":"levelo://app?vid=1385f870-7a4b-4e87-81cd-24ec1db2637f"},"vehicle_type_id":"4","last_reported":1727467819,"current_range_meters":28000,"station_id":"ce4bgup2rcd13ifvqco0","pricing_plan_id":"cebpf4jnsgd1na2vs0mg"},{"bike_id":"bcbfebeb-ac6b-4088-abda-4da992671506","system_id":"levelo_inurba_marseille","lat":43.2931,"lon":5.37175,"is_reserved":false,"is_disabled":false,"rental_uris":{"android":"levelo://app?vid=bcbfebeb-ac6b-4088-abda-4da992671506","ios":"levelo://app?vid=bcbfebeb-ac6b-4088-abda-4da992671506"},"vehicle_type_id":"4","last_reported":1727467819,"current_range_meters":8400,"station_id":"ce4bgh92rcd13ifvqb40","pricing_plan_id":"cebpf4jnsgd1na2vs0mg"},{"bike_id":"159069a7-7cde-4cfb-80a4-86bd898209c5","system_id":"levelo_inurba_marseille","lat":43.25503,"lon":5.37652,"is_reserved":false,"is_disabled":false,"rental_uris":{"android":"levelo://app?vid=159069a7-7cde-4cfb-80a4-86bd898209c5","ios":"levelo://app?vid=159069a7-7cde-4cfb-80a4-86bd898209c5"},"vehicle_type_id":"4","last_reported":1727467819,"current_range_meters":25200,"station_id":"ce4bhh12rcd13ifvqff0","pricing_plan_id":"cebpf4jnsgd1na2vs0mg"},{"bike_id":"75a42aa6-8e5b-466f-8b3e-1cf997c79002","system_id":"levelo_inurba_marseille","lat":43.29539,"lon":5.38542,"is_reserved":false,"is_disabled":false,"rental_uris":{"android":"levelo://app?vid=75a42aa6-8e5b-466f-8b3e-1cf997c79002","ios":"levelo://app?vid=75a42aa6-8e5b-466f-8b3e-1cf997c79002"},"vehicle_type_id":"4","last_reported":1727467819,"current_range_meters":34000,"station_id":"ce4bgih2rcd13ifvqba0","pricing_plan_id":"cebpf4jnsgd1na2vs0mg"},{"bike_id":"5c49bc68-f3a5-4d26-a17d-0e57283fdecd","system_id":"levelo_inurba_marseille","lat":43.31186,"lon":5.38712,"is_reserved":false,"is_disabled":false,"rental_uris":{"android":"levelo://app?vid=5c49bc68-f3a5-4d26-a17d-0e57283fdecd","ios":"levelo://app?vid=5c49bc68-f3a5-4d26-a17d-0e57283fdecd"},"vehicle_type_id":"4","last_reported":1727467819,"current_range_meters":38800,"station_id":"ce4bgv12rcd13ifvqcp0","pricing_plan_id":"cebpf4jnsgd1na2vs0mg"},{"bike_id":"a5049852-a37e-4f21-9b1d-1e7724ede637","system_id":"levelo_inurba_marseille","lat":43.2872,"lon":5.37948,"is_reserved":false,"is_disabled":false,"rental_uris":{"android":"levelo://app?vid=a5049852-a37e-4f21-9b1d-1e7724ede637","ios":"levelo://app?vid=a5049852-a37e-4f21-9b1d-1e7724ede637"},"vehicle_type_id":"4","last_reported":1727467819,"current_range_meters":32400,"station_id":"ce4bh9p2rcd13ifvqec0","pricing_plan_id":"cebpf4jnsgd1na2vs0mg"},{"bike_id":"9b36721f-e72f-4f0a-8809-e4cbb7e7ffdf","system_id":"levelo_inurba_marseille","lat":43.2683,"lon":5.4111,"is_reserved":false,"is_disabled":false,"rental_uris":{"android":"levelo://app?vid=9b36721f-e72f-4f0a-8809-e4cbb7e7ffdf","ios":"levelo://app?vid=9b36721f-e72f-4f0a-8809-e4cbb7e7ffdf"},"vehicle_type_id":"4","last_reported":1727467819,"current_range_meters":33200,"station_id":"","pricing_plan_id":"cebpf4jnsgd1na2vs0mg"},{"bike_id":"7f6874b5-1f49-405f-871b-546f3f061716","system_id":"levelo_inurba_marseille","lat":43.3127,"lon":5.40185,"is_reserved":false,"is_disabled":false,"rental_uris":{"android":"levelo://app?vid=7f6874b5-1f49-405f-871b-546f3f061716","ios":"levelo://app?vid=7f6874b5-1f49-405f-871b-546f3f061716"},"vehicle_type_id":"4","last_reported":1727467819,"current_range_meters":8000,"station_id":"ce4bh092rcd13ifvqd30","pricing_plan_id":"cebpf4jnsgd1na2vs0mg"},{"bike_id":"074f8bf0-f3da-4755-8f03-c3a9d8137d07","system_id":"levelo_inurba_marseille","lat":43.26954,"lon":5.38632,"is_reserved":false,"is_disabled":false,"rental_uris":{"android":"levelo://app?vid=074f8bf0-f3da-4755-8f03-c3a9d8137d07","ios":"levelo://app?vid=074f8bf0-f3da-4755-8f03-c3a9d8137d07"},"vehicle_type_id":"4","last_reported":1727467819,"current_range_meters":38000,"station_id":"ce4bhh92rcd13ifvqfh0","pricing_plan_id":"cebpf4jnsgd1na2vs0mg"},