{"last_updated":1731913838,"ttl":60,"version":"2.2","data":{"bikes":[{"bike_id":"0b7c5f06-aba8-466c-ab07-7fd25d62a756","system_id":"levelo_inurba_marseille","lat":43.30469,"lon":5.37911,"is_reserved":false,"is_disabled":false,"rental_uris":{"android":"levelo://app?vid=0b7c5f06-aba8-466c-ab07-7fd25d62a756","ios":"levelo://app?vid=0b7c5f06-aba8-466c-ab07-7fd25d62a756"},"vehicle_type_id":"4","last_reported":1731913838,"current_range_meters":7200,"station_id":"ce4bgup2rcd13ifvqcn0","pricing_plan_id":"cebpf4jnsgd1na2vs0mg"},{"bike_id":"4dcf46ca-97d3-4646-8193-7170ea46e339","system_id":"levelo_inurba_marseille","lat":43.24081,"lon":5.37759,"is_reserved":false,"is_disabled":false,"rental_uris":{"android":"levelo://app?vid=4dcf46ca-97d3-4646-8193-7170ea46e339","ios":"levelo://app?vid=4dcf46ca-97d3-4646-8193-7170ea46e339"},"vehicle_type_id":"4","last_reported":1731913838,"current_range_meters":6800,"station_id":"ce4bhnp2rcd13ifvqgvg","pricing_plan_id":"cebpf4jnsgd1na2vs0mg"},{"bike_id":"ffe82358-94e8-461e-850e-3a6078b9cd88","system_id":"levelo_inurba_marseille","lat":43.31882,"lon":5.40737,"is_reserved":false,"is_disabled":false,"rental_uris":{"android":"levelo://app?vid=ffe82358-94e8-461e-850e-3a6078b9cd88","ios":"levelo://app?vid=ffe82358-94e8-461e-850e-3a6078b9cd88"},"vehicle_type_id":"4","last_reported":1731913838,"current_range_meters":14000,"station_id":"ce4bhq12rcd13ifvqhig","pricing_plan_id":"cebpf4jnsgd1na2vs0mg"},{"bike_id":"9d3506a7-93b0-481a-a9f4-f87ba4b5a00d","system_id":"levelo_inurba_marseille","lat":43.24078,"lon":5.37756,"is_reserved":false,"is_disabled":false,"rental_uris":{"android":"levelo://app?vid=9d3506a7-93b0-481a-a9f4-f87ba4b5a00d","ios":"levelo://app?vid=9d3506a7-93b0-481a-a9f4-f87ba4b5a00d"},"vehicle_type_id":"4","last_reported":1731913838,"current_range_meters":14000,"station_id":"ce4bhnp2rcd13ifvqgvg","pricing_plan_id":"cebpf4jnsgd1na2vs0mg"},{"bike_id":"40c887d2-7f76-4228-a54c-9f0b1eba2a08","system_id":"levelo_inurba_marseille","lat":43.30459,"lon":5.37905,"is_reserved":false,"is_disabled":false,"rental_uris":{"android":"levelo://app?vid=40c887d2-7f76-4228-a54c-9f0b1eba2a08","ios":"levelo://app?vid=40c887d2-7f76-4228-a54c-9f0b1eba2a08"},"vehicle_type_id":"4","last_reported":1731913838,"current_range_meters":17600,"station_id":"ce4bgup2rcd13ifvqcn0","pricing_plan_id":"cebpf4jnsgd1na2vs0mg"},{"bike_id":"e4d4b6a3-efd8-4f6a-b18f-9e5609305c48","system_id":"levelo_inurba_marseille","lat":43.25592,"lon":5.38242,"is_reserved":false,"is_disabled":false,"rental_uris":{"android":"levelo://app?vid=e4d4b6a3-efd8-4f6a-b18f-9e5609305c48","ios":"levelo://app?vid=e4d4b6a3-efd8-4f6a-b18f-9e5609305c48"},"vehicle_type_id":"4","last_reported":1731913838,"current_range_meters":9600,"station_id":"ce4bhih2rcd13ifvqfs0","pricing_plan_id":"cebpf4jnsgd1na2vs0mg"},{"bike_id":"0672d165-d197-4474-bbec-2df95543fd2f","system_id":"levelo_inurba_marseille","lat":43.298991,"lon":5.436576,"is_reserved":false,"is_disabled":false,"rental_uris":{"android":"levelo://app?vid=0672d165-d197-4474-bbec-2df95543fd2f","ios":"levelo://app?vid=0672d165-d197-4474-bbec-2df95543fd2f"},"vehicle_type_id":"4","last_reported":1731913838,"current_range_meters":38400,"station_id":"ce4bhpp2rcd13ifvqhfg","pricing_plan_id":"cebpf4jnsgd1na2vs0mg"},{"bike_id":"0abafd50-d6f0-4ae1-8b2e-e1936ed5039b","system_id":"levelo_inurba_marseille","lat":43.29785,"lon":5.41341,"is_reserved":false,"is_disabled":false,"rental_uris":{"android":"levelo://app?vid=0abafd50-d6f0-4ae1-8b2e-e1936ed5039b","ios":"levelo://app?vid=0abafd50-d6f0-4ae1-8b2e-e1936ed5039b"},"vehicle_type_id":"4","last_reported":1731913838,"current_range_meters":4800,"station_id":"","pricing_plan_id":"cebpf4jnsgd1na2vs0mg"},{"bike_id":"a14ae796-43da-4eca-a404-39208a1610f1","system_id":"levelo_inurba_marseille","lat":43.27496,"lon":5.42447,"is_reserved":false,"is_disabled":false,"rental_uris":{"android":"levelo://app?vid=a14ae796-43da-4eca-a404-39208a1610f1","ios":"levelo://app?vid=a14ae796-43da-4eca-a404-39208a1610f1"},"vehicle_type_id":"4","last_reported":1731913838,"current_range_meters":7200,"station_id":"ce4bhn92rcd13ifvqgrg","pricing_plan_id":"cebpf4jnsgd1na2vs0mg"},{"bike_id":"1a1fece6-24ee-48c7-97db-f2cc78ba1021","system_id":"levelo_inurba_marseille","lat":43.30149,"lon":5.38079,"is_reserved":false,"is_disabled":false,"rental_uris":{"android":"levelo://app?vid=1a1fece6-24ee-48c7-97db-f2cc78ba1021","ios":"levelo://app?vid=1a1fece6-24ee-48c7-97db-f2cc78ba1021"},"vehicle_type_id":"4","last_reported":1731913838,"current_range_meters":15200,"station_id":"ce4bgjp2rcd13ifvqbh0","pricing_plan_id":"cebpf4jnsgd1na2vs0mg"},{"bike_id":"8a7790ec-4774-462c-8a4d-166c8cf2570f","system_id":"levelo_inurba_marseille","lat":43.31883,"lon":5.40741,"is_reserved":false,"is_disabled":false,"rental_uris":{"android":"levelo://app?vid=8a7790ec-4774-462c-8a4d-166c8cf2570f","ios":"levelo://app?vid=8a7790ec-4774-462c-8a4d-166c8cf2570f"},"vehicle_type_id":"4","last_reported":1731913838,"current_range_meters":35600,"station_id":"ce4bhq12rcd13ifvqhig","pricing_plan_id":"cebpf4jnsgd1na2vs0mg"},{"bike_id":"d8168399-7f51-43a0-919a-82c36d2fe8f4","system_id":"levelo_inurba_marseille","lat":43.30151,"lon":5.38086,"is_reserved":false,"is_disabled":false,"rental_uris":{"android":"levelo://app?vid=d8168399-7f51-43a0-919a-82c36d2fe8f4","ios":"levelo://app?vid=d8168399-7f51-43a0-919a-82c36d2fe8f4"},"vehicle_type_id":"4","last_reported":1731913838,"current_range_meters":20800,"station_id":"ce4bgjp2rcd13ifvqbh0","pricing_plan_id":"cebpf4jnsgd1na2vs0mg"},{"bike_id":"4c167bc3-2964-4625-adc0-c92e539ad80f","system_id":"levelo_inurba_marseille","lat":43.28297,"lon":5.40803,"is_reserved":false,"is_disabled":false,"rental_uris":{"android":"levelo://app?vid=4c167bc3-2964-4625-adc0-c92e539ad80f","ios":"levelo://app?vid=4c167bc3-2964-4625-adc0-c92e539ad80f"},"vehicle_type_id":"4","last_reported":1731913838,"current_range_meters":30400,"station_id":"","pricing_plan_id":"cebpf4jnsgd1na2vs0mg"},{"bike_id":"cb064133-3f06-4410-8bf2-e4b719d1acd8","system_id":"levelo_inurba_marseille","lat":43.28945,"lon":5.36406,"is_reserved":false,"is_disabled":false,"rental_uris":{"android":"levelo://app?vid=cb064133-3f06-4410-8bf2-e4b719d1acd8","ios":"levelo://app?vid=cb064133-3f06-4410-8bf2-e4b719d1acd8"},"vehicle_type_id":"4","last_reported":1731913838,"current_range_meters":28000,"station_id":"ce4bhc92rcd13ifvqetg","pricing_plan_id":"cebpf4jnsgd1na2vs0mg"},{"bike_id":"91089654-3498-4d52-975f-3e50b134cfcc","system_id":"levelo_inurba_marseille","lat":43.32485,"lon":5.36564,"is_reserved":false,"is_disabled":false,"rental_uris":{"android":"levelo://app?vid=91089654-3498-4d52-975f-3e50b134cfcc","ios":"levelo://app?vid=91089654-3498-4d52-975f-3e50b134cfcc"},"vehicle_type_id":"4","last_reported":1731913838,"current_range_meters":38800,"station_id":"ce4bhs12rcd13ifvqhvg","pricing_plan_id":"cebpf4jnsgd1na2vs0mg"},{"bike_id":"853a1166-61cc-42b2-9e7f-3b747ea4f57f","system_id":"levelo_inurba_marseille","lat":43.29572,"lon":5.42304,"is_reserved":false,"is_disabled":false,"rental_uris":{"android":"levelo://app?vid=853a1166-61cc-42b2-9e7f-3b747ea4f57f","ios":"levelo://app?vid=853a1166-61cc-42b2-9e7f-3b747ea4f57f"},"vehicle_type_id":"4","last_reported":1731913838,"current_range_meters":38800,"station_id":"ce4bhph2rcd13ifvqhdg","pricing_plan_id":"cebpf4jnsgd1na2vs0mg"},{"bike_id":"2dee49ce-519e-46ae-a73b-e2b9369760e1","system_id":"levelo_inurba_marseille","lat":43.30161,"lon":5.38087,"is_reserved":false,"is_disabled":false,"rental_uris":{"android":"levelo://app?vid=2dee49ce-519e-46ae-a73b-e2b9369760e1","ios":"levelo://app?vid=2dee49ce-519e-46ae-a73b-e2b9369760e1"},"vehicle_type_id":"4","last_reported":1731913838,"current_range_meters":25200,"station_id":"ce4bgjp2rcd13ifvqbh0","pricing_plan_id":"cebpf4jnsgd1na2vs0mg"},{"bike_id":"6b0ea79e-cb12-4a50-9845-e4686b3cacc8","system_id":"levelo_inurba_marseille","lat":43.295751,"lon":5.399791,"is_reserved":false,"is_disabled":false,"rental_uris":{"android":"levelo://app?vid=6b0ea79e-cb12-4a50-9845-e4686b3cacc8","ios":"levelo://app?vid=6b0ea79e-cb12-4a50-9845-e4686b3cacc8"},"vehicle_type_id":"4","last_reported":1731913838,"current_range_meters":6000,"station_id":"","pricing_plan_id":"cebpf4jnsgd1na2vs0mg"},{"bike_id":"3f800a6f-f68c-44b3-9b44-d6ed9e01470f","system_id":"levelo_inurba_marseille","lat":43.3016,"lon":5.38085,"is_reserved":false,"is_disabled":false,"rental_uris":{"android":"levelo://app?vid=3f800a6f-f68c-44b3-9b44-d6ed9e01470f","ios":"levelo://app?vid=3f800a6f-f68c-44b3-9b44-d6ed9e01470f"},"vehicle_type_id":"4","last_reported":1731913838,"current_range_meters":9200,"station_id":"ce4bgjp2rcd13ifvqbh0","pricing_plan_id":"cebpf4jnsgd1na2vs0mg"},{"bike_id":"132757cb-a715-4d3e-8780-49093854f45d","system_id":"levelo_inurba_marseille","lat":43.261805,"lon":5.404768,"is_reserved":false,"is_disabled":false,"rental_uris":{"android":"levelo://app?vid=132757cb-a715-4d3e-8780-49093854f45d","ios":"levelo://app?vid=132757cb-a715-4d3e-8780-49093854f45d"},"vehicle_type_id":"4","last_reported":1731913838,"current_range_meters":38800,"station_id":"ce4bhkp2rcd13ifvqgd0","pricing_plan_id":"cebpf4jnsgd1na2vs0mg"},{"bike_id":"e0b967c0-b35f-4934-9248-f55c41b4f08b","system_id":"levelo_inurba_marseille","lat":43.28151,"lon":5.4422,"is_reserved":false,"is_disabled":false,"rental_uris":{"android":"levelo://app?vid=e0b967c0-b35f-4934-9248-f55c41b4f08b","ios":"levelo://app?vid=e0b967c0-b35f-4934-9248-f55c41b4f08b"},"vehicle_type_id":"4","last_reported":1731913838,"current_range_meters":4400,"station_id":"","pricing_plan_id":"cebpf4jnsgd1na2vs0mg"},{"bike_id":"0b0fd377-c634-4007-aebd-de4df2fd8703","system_id":"levelo_inurba_marseille","lat":43.27916,"lon":5.39579,"is_reserved":false,"is_disabled":false,"rental_uris":{"android":"levelo://app?vid=0b0fd377-c634-4007-aebd-de4df2fd8703","ios":"levelo://app?vid=0b0fd377-c634-4007-aebd-de4df2fd8703"},"vehicle_type_id":"4","last_reported":1731913838,"current_range_meters":37600,"station_id":"ce4bhf92rcd13ifvqf40","pricing_plan_id":"cebpf4jnsgd1na2vs0mg"},{"bike_id":"d61c8a52-528d-46d9-b1fb-db8c6ca71e05","system_id":"levelo_inurba_marseille","lat":43.24166,"lon":5.36394,"is_reserved":false,"is_disabled":false,"rental_uris":{"android":"levelo://app?vid=d61c8a52-528d-46d9-b1fb-db8c6ca71e05","ios":"levelo://app?vid=d61c8a52-528d-46d9-b1fb-db8c6ca71e05"},"vehicle_type_id":"4","last_reported":1731913838,"current_range_meters":17200,"station_id":"cpo36qri1sfpv3e86is0","pricing_plan_id":"cebpf4jnsgd1na2vs0mg"},{"bike_id":"edc74a5a-a2f9-40ea-8ab5-318557b79161","system_id":"levelo_inurba_marseille","lat":43.30076,"lon":5.38829,"is_reserved":false,"is_disabled":false,"rental_uris":{"android":"levelo://app?vid=edc74a5a-a2f9-40ea-8ab5-318557b79161","ios":"levelo://app?vid=edc74a5a-a2f9-40ea-8ab5-318557b79161"},"vehicle_type_id":"4","last_reported":1731913838,"current_range_meters":24800,"station_id":"ce4bgt12rcd13ifvqce0","pricing_plan_id":"cebpf4jnsgd1na2vs0mg"},{"bike_id":"5be600ff-958a-4031-9ec8-d554b363a204","system_id":"levelo_inurba_marseille","lat":43.24076,"lon":5.37759,"is_reserved":false,"is_disabled":false,"rental_uris":{"android":"levelo://app?vid=5be600ff-958a-4031-9ec8-d554b363a204","ios":"levelo://app?vid=5be600ff-958a-4031-9ec8-d554b363a204"},"vehicle_type_id":"4","last_reported":1731913838,"current_range_meters":16400,"station_id":"ce4bhnp2rcd13ifvqgvg","pricing_plan_id":"cebpf4jnsgd1na2vs0mg"},{"bike_id":"4305c1d1-ca62-4e47-ac96-b9970d6e957d","system_id":"levelo_inurba_marseille","lat":43.231952,"lon":5.355514,"is_reserved":false,"is_disabled":false,"rental_uris":{"android":"levelo://app?vid=4305c1d1-ca62-4e47-ac96-b9970d6e957d","ios":"levelo://app?vid=4305c1d1-ca62-4e47-ac96-b9970d6e957d"},"vehicle_type_id":"4","last_reported":1731913838,"current_range_meters":38400,"station_id":"ce4bhu92rcd13ifvqi70","pricing_plan_id":"cebpf4jnsgd1na2vs0mg"},{"bike_id":"2bd3ae1c-22d2-4b0f-9fd7-42d6b84fc3a3","system_id":"levelo_inurba_marseille","lat":43.33604,"lon":5.41035,"is_reserved":false,"is_disabled":false,"rental_uris":{"android":"levelo://app?vid=2bd3ae1c-22d2-4b0f-9fd7-42d6b84fc3a3","ios":"levelo://app?vid=2bd3ae1c-22d2-4b0f-9fd7-42d6b84fc3a3"},"vehicle_type_id":"4","last_reported":1731913838,"current_range_meters":12400,"station_id":"ce4bhqh2rcd13ifvqhmg","pricing_plan_id":"cebpf4jnsgd1na2vs0mg"},{"bike_id":"79b76398-f4aa-422b-b325-2360d07a8784","system_id":"levelo_inurba_marseille","lat":43.3373,"lon":5.39183,"is_reserved":false,"is_disabled":false,"rental_uris":{"android":"levelo://app?vid=79b76398-f4aa-422b-b325-2360d07a8784","ios":"levelo://app?vid=79b76398-f4aa-422b-b325-2360d07a8784"},"vehicle_type_id":"4","last_reported":1731913838,"current_range_meters":38400,"station_id":"ce4bhr92rcd13ifvqhsg","pricing_plan_id":"cebpf4jnsgd1na2vs0mg"},{"bike_id":"f798bde2-23ab-436e-9cfc-12427ee64d75","system_id":"levelo_inurba_marseille","lat":43.30469,"lon":5.37907,"is_reserved":false,"is_disabled":false,"rental_uris":{"android":"levelo://app?vid=f798bde2-23ab-436e-9cfc-12427ee64d75","ios":"levelo://app?vid=f798bde2-23ab-436e-9cfc-12427ee64d75"},"vehicle_type_id":"4","last_reported":1731913838,"current_range_meters":38800,"station_id":"ce4bgup2rcd13ifvqcn0","pricing_plan_id":"cebpf4jnsgd1na2vs0mg"},{"bike_id":"f547dc2a-7341-4371-8e50-941333da4743","system_id":"levelo_inurba_marseille","lat":43.24081,"lon":5.37757,"is_reserved":false,"is_disabled":false,"rental_uris":{"android":"levelo://app?vid=f547dc2a-7341-4371-8e50-941333da4743","ios":"levelo://app?vid=f547dc2a-7341-4371-8e50-941333da4743"},"vehicle_type_id":"4","last_reported":1731913838,"current_range_meters":27200,"station_id":"ce4bhnp2rcd13ifvqgvg","pricing_plan_id":"cebpf4jnsgd1na2vs0mg"},{"bike_id":"3ba2b2e1-3c95-4de7-915d-86cf8ebac199","system_id":"levelo_inurba_marseille","lat":43.23151,"lon":5.43723,"is_reserved":false,"is_disabled":false,"rental_uris":{"android":"levelo://app?vid=3ba2b2e1-3c95-4de7-915d-86cf8ebac199","ios":"levelo://app?vid=3ba2b2e1-3c95-4de7-915d-86cf8ebac199"},"vehicle_type_id":"4","last_reported":1731913838,"current_range_meters":27600,"station_id":"ce4bhmp2rcd13ifvqgog","pricing_plan_id":"cebpf4jnsgd1na2vs0mg"},{"bike_id":"10140b18-eaf5-4434-bfaa-f120d28b51e8","system_id":"levelo_inurba_marseille","lat":43.27323,"lon":5.39073,"is_reserved":false,"is_disabled":false,"rental_uris":{"android":"levelo://app?vid=10140b18-eaf5-4434-bfaa-f120d28b51e8","ios":"levelo://app?vid=10140b18-eaf5-4434-bfaa-f120d28b51e8"},"vehicle_type_id":"4","last_reported":1731913838,"current_range_meters":34800,"station_id":"ce4bhgp2rcd13ifvqfe0","pricing_plan_id":"cebpf4jnsgd1na2vs0mg"},{"bike_id":"d2f0f3fe-5594-42dd-8e69-8cdbebee7e7d","system_id":"levelo_inurba_marseille","lat":43.23152,"lon":5.43716,"is_reserved":false,"is_disabled":false,"rental_uris":{"android":"levelo://app?vid=d2f0f3fe-5594-42dd-8e69-8cdbebee7e7d","ios":"levelo://app?vid=d2f0f3fe-5594-42dd-8e69-8cdbebee7e7d"},"vehicle_type_id":"4","last_reported":1731913838,"current_range_meters":17600,"station_id":"ce4bhmp2rcd13ifvqgog","pricing_plan_id":"cebpf4jnsgd1na2vs0mg"},{"bike_id":"2c4874ef-9abd-4400-8cd7-bafe971a0da7","system_id":"levelo_inurba_marseille","lat":43.26682,"lon":5.38272,"is_reserved":false,"is_disabled":false,"rental_uris":{"android":"levelo://app?vid=2c4874ef-9abd-4400-8cd7-bafe971a0da7","ios":"levelo://app?vid=2c4874ef-9abd-4400-8cd7-bafe971a0da7"},"vehicle_type_id":"4","last_reported":1731913838,"current_range_meters":38000,"station_id":"ce4bhg92rcd13ifvqf90","pricing_plan_id":"cebpf4jnsgd1na2vs0mg"},{"bike_id":"e0c06d7f-6c9a-4d47-aebf-1f4d87b9a208","system_id":"levelo_inurba_marseille","lat":43.24076,"lon":5.37758,"is_reserved":false,"is_disabled":false,"rental_uris":{"android":"levelo://app?vid=e0c06d7f-6c9a-4d47-aebf-1f4d87b9a208","ios":"levelo://app?vid=e0c06d7f-6c9a-4d47-aebf-1f4d87b9a208"},"vehicle_type_id":"4","last_reported":1731913838,"current_range_meters":29600,"station_id":"ce4bhnp2rcd13ifvqgvg","pricing_plan_id":"cebpf4jnsgd1na2vs0mg"},{"bike_id":"20b8bb00-4fa4-49d3-b00f-f353e411e243","system_id":"levelo_inurba_marseille","lat":43.27069,"lon":5.42279,"is_reserved":false,"is_disabled":false,"rental_uris":{"android":"levelo://app?vid=20b8bb00-4fa4-49d3-b00f-f353e411e243","ios":"levelo://app?vid=20b8bb00-4fa4-49d3-b00f-f353e411e243"},"vehicle_type_id":"4","last_reported":1731913838,"current_range_meters":8800,"station_id":"ce4bhk92rcd13ifvqgb0","pricing_plan_id":"cebpf4jnsgd1na2vs0mg"},{"bike_id":"5f89f61e-343d-4cfe-8829-222555f36d01","system_id":"levelo_inurba_marseille","lat":43.31354,"lon":5.36719,"is_reserved":false,"is_disabled":false,"rental_uris":{"android":"levelo://app?vid=5f89f61e-343d-4cfe-8829-222555f36d01","ios":"levelo://app?vid=5f89f61e-343d-4cfe-8829-222555f36d01"},"vehicle_type_id":"4","last_reported":1731913838,"current_range_meters":20000,"station_id":"ce4bgr92rcd13ifvqc6g","pricing_plan_id":"cebpf4jnsgd1na2vs0mg"},{"bike_id":"843e9cf8-cb36-40cc-a9bb-d3ba7a303f37","system_id":"levelo_inurba_marseille","lat":43.27492,"lon":5.42454,"is_reserved":false,"is_disabled":false,"rental_uris":{"android":"levelo://app?vid=843e9cf8-cb36-40cc-a9bb-d3ba7a303f37","ios":"levelo://app?vid=843e9cf8-cb36-40cc-a9bb-d3ba7a303f37"},"vehicle_type_id":"4","last_reported":1731913838,"current_range_meters":17600,"station_id":"ce4bhn92rcd13ifvqgrg","pricing_plan_id":"cebpf4jnsgd1na2vs0mg"},{"bike_id":"cf5ea393-3b59-4a1e-9b6d-8606af277bcc","system_id":"levelo_inurba_marseille","lat":43.25578,"lon":5.38245,"is_reserved":false,"is_disabled":false,"rental_uris":{"android":"levelo://app?vid=cf5ea393-3b59-4a1e-9b6d-8606af277bcc","ios":"levelo://app?vid=cf5ea393-3b59-4a1e-9b6d-8606af277bcc"},"vehicle_type_id":"4","last_reported":1731913838,"current_range_meters":25200,"station_id":"ce4bhih2rcd13ifvqfs0","pricing_plan_id":"cebpf4jnsgd1na2vs0mg"},{"bike_id":"d69a917e-f2d6-4ead-8fe4-e1c217bba902","system_id":"levelo_inurba_marseille","lat":43.28426,"lon":5.34997,"is_reserved":false,"is_disabled":false,"rental_uris":{"android":"levelo://app?vid=d69a917e-f2d6-4ead-8fe4-e1c217bba902","ios":"levelo://app?vid=d69a917e-f2d6-4ead-8fe4-e1c217bba902"},"vehicle_type_id":"4","last_reported":1731913838,"current_range_meters":38800,"station_id":"ce4bhbh2rcd13ifvqepg","pricing_plan_id":"cebpf4jnsgd1na2vs0mg"},{"bike_id":"80816f7c-a777-4db4-b7fa-352512681aa8","system_id":"levelo_inurba_marseille","lat":43.247637,"lon":5.374182,"is_reserved":false,"is_disabled":false,"rental_uris":{"android":"levelo://app?vid=80816f7c-a777-4db4-b7fa-352512681aa8","ios":"levelo://app?vid=80816f7c-a777-4db4-b7fa-352512681aa8"},"vehicle_type_id":"4","last_reported":1731913838,"current_range_meters":7200,"station_id":"ce4bhgh2rcd13ifvqfb0","pricing_plan_id":"cebpf4jnsgd1na2vs0mg"},{"bike_id":"5cad086e-cb7b-4491-81b8-b4839c9d4e1f","system_id":"levelo_inurba_marseille","lat":43.3361,"lon":5.41027,"is_reserved":false,"is_disabled":false,"rental_uris":{"android":"levelo://app?vid=5cad086e-cb7b-4491-81b8-b4839c9d4e1f","ios":"levelo://app?vid=5cad086e-cb7b-4491-81b8-b4839c9d4e1f"},"vehicle_type_id":"4","last_reported":1731913838,"current_range_meters":36800,"station_id":"ce4bhqh2rcd13ifvqhmg","pricing_plan_id":"cebpf4jnsgd1na2vs0mg"},{"bike_id":"8c43ec51-a327-446e-8cf3-4b92e82d4a0c","system_id":"levelo_inurba_marseille","lat":43.31344,"lon":5.36714,"is_reserved":false,"is_disabled":false,"rental_uris":{"android":"levelo://app?vid=8c43ec51-a327-446e-8cf3-4b92e82d4a0c","ios":"levelo://app?vid=8c43ec51-a327-446e-8cf3-4b92e82d4a0c"},"vehicle_type_id":"4","last_reported":1731913838,"current_range_meters":24400,"station_id":"ce4bgr92rcd13ifvqc6g","pricing_plan_id":"cebpf4jnsgd1na2vs0mg"},{"bike_id":"2c916808-1103-40df-bd9a-a6bf4818d9cd","system_id":"levelo_inurba_marseille","lat":43.31349,"lon":5.36717,"is_reserved":false,"is_disabled":false,"rental_uris":{"android":"levelo://app?vid=2c916808-1103-40df-bd9a-a6bf4818d9cd","ios":"levelo://app?vid=2c916808-1103-40df-bd9a-a6bf4818d9cd"},"vehicle_type_id":"4","last_reported":1731913838,"current_range_meters":38400,"station_id":"ce4bgr92rcd13ifvqc6g","pricing_plan_id":"cebpf4jnsgd1na2vs0mg"},{"bike_id":"a6332be3-8b9e-4e6b-bc13-d37dc7c963c9","system_id":"levelo_inurba_marseille","lat":43.27492,"lon":5.4245,"is_reserved":false,"is_disabled":false,"rental_uris":{"android":"levelo://app?vid=a6332be3-8b9e-4e6b-bc13-d37dc7c963c9","ios":"levelo://app?vid=a6332be3-8b9e-4e6b-bc13-d37dc7c963c9"},"vehicle_type_id":"4","last_reported":1731913838,"current_range_meters":20000,"station_id":"ce4bhn92rcd13ifvqgrg","pricing_plan_id":"cebpf4jnsgd1na2vs0mg"},{"bike_id":"f9a03401-7713-439c-a74d-a2e5d319320a","system_id":"levelo_inurba_marseille","lat":43.30398,"lon":5.3753,"is_reserved":false,"is_disabled":false,"rental_uris":{"android":"levelo://app?vid=f9a03401-7713-439c-a74d-a2e5d319320a","ios":"levelo://app?vid=f9a03401-7713-439c-a74d-a2e5d319320a"},"vehicle_type_id":"4","last_reported":1731913838,"current_range_meters":35200,"station_id":"","pricing_plan_id":"cebpf4jnsgd1na2vs0mg"},{"bike_id":"45205ee9-cb47-47b7-a38e-bdd41a7b1f9e","system_id":"levelo_inurba_marseille","lat":43.29023,"lon":5.38148,"is_reserved":false,"is_disabled":false,"rental_uris":{"android":"levelo://app?vid=45205ee9-cb47-47b7-a38e-bdd41a7b1f9e","ios":"levelo://app?vid=45205ee9-cb47-47b7-a38e-bdd41a7b1f9e"},"vehicle_type_id":"4","last_reported":1731913838,"current_range_meters":33200,"station_id":"ce4bh4p2rcd13ifvqe1g","pricing_plan_id":"cebpf4jnsgd1na2vs0mg"},{"bike_id":"b2646ee9-72ce-4bc4-84b6-657c079cbaa9","system_id":"levelo_inurba_marseille","lat":43.24075,"lon":5.37761,"is_reserved":false,"is_disabled":false,"rental_uris":{"android":"levelo://app?vid=b2646ee9-72ce-4bc4-84b6-657c079cbaa9","ios":"levelo://app?vid=b2646ee9-72ce-4bc4-84b6-657c079cbaa9"},"vehicle_type_id":"4","last_reported":1731913838,"current_range_meters":25600,"station_id":"ce4bhnp2rcd13ifvqgvg","pricing_plan_id":"cebpf4jnsgd1na2vs0mg"},{"bike_id":"c5ee65dc-6106-4bfb-84f7-eb39ccbfb2cb","system_id":"levelo_inurba_marseille","lat":43.29798,"lon":5.38093,"is_reserved":false,"is_disabled":false,"rental_uris":{"android":"levelo://app?vid=c5ee65dc-6106-4bfb-84f7-eb39ccbfb2cb","ios":"levelo://app?vid=c5ee65dc-6106-4bfb-84f7-eb39ccbfb2cb"},"vehicle_type_id":"4","last_reported":1731913838,"current_range_meters":38800,"station_id":"ce4bgip2rcd13ifvqbb0","pricing_plan_id":"cebpf4jnsgd1na2vs0mg"},{"bike_id":"b9f213d4-a1f6-4778-9a68-76858ca17756","system_id":"levelo_inurba_marseille","lat":43.29972,"lon":5.38487,"is_reserved":false,"is_disabled":false,"rental_uris":{"android":"levelo://app?vid=b9f213d4-a1f6-4778-9a68-76858ca17756","ios":"levelo://app?vid=b9f213d4-a1f6-4778-9a68-76858ca17756"},"vehicle_type_id":"4","last_reported":1731913838,"current_range_meters":2800,"station_id":"ce4bgj92rcd13ifvqbd0","pricing_plan_id":"cebpf4jnsgd1na2vs0mg"},{"bike_id":"f493fbd1-a6d2-46e7-bd5f-a282c47329e6","system_id":"levelo_inurba_marseille","lat":43.29899,"lon":5.43674,"is_reserved":false,"is_disabled":false,"rental_uris":{"android":"levelo://app?vid=f493fbd1-a6d2-46e7-bd5f-a282c47329e6","ios":"levelo://app?vid=f493fbd1-a6d2-46e7-bd5f-a282c47329e6"},"vehicle_type_id":"4","last_reported":1731913838,"current_range_meters":38400,"station_id":"ce4bhpp2rcd13ifvqhfg","pricing_plan_id":"cebpf4jnsgd1na2vs0mg"},{"bike_id":"8700b163-9d6d-4ba4-8f67-8f73e2fafd13","system_id":"levelo_inurba_marseille","lat":43.24069,"lon":5.37763,"is_reserved":false,"is_disabled":false,"rental_uris":{"android":"levelo://app?vid=8700b163-9d6d-4ba4-8f67-8f73e2fafd13","ios":"levelo://app?vid=8700b163-9d6d-4ba4-8f67-8f73e2fafd13"},"vehicle_type_id":"4","last_reported":1731913838,"current_range_meters":35600,"station_id":"ce4bhnp2rcd13ifvqgvg","pricing_plan_id":"cebpf4jnsgd1na2vs0mg"},{"bike_id":"48e90251-4c99-4221-94b4-db4f2a3f2788","system_id":"levelo_inurba_marseille","lat":43.26568,"lon":5.39008,"is_reserved":false,"is_disabled":false,"rental_uris":{"android":"levelo://app?vid=48e90251-4c99-4221-94b4-db4f2a3f2788","ios":"levelo://app?vid=48e90251-4c99-4221-94b4-db4f2a3f2788"},"vehicle_type_id":"4","last_reported":1731913838,"current_range_meters":26000,"station_id":"ce4bhe12rcd13ifvqf30","pricing_plan_id":"cebpf4jnsgd1na2vs0mg"},{"bike_id":"6b0c80ce-aa66-46e5-b76b-a1f522bd9826","system_id":"levelo_inurba_marseille","lat":43.29048,"lon":5.39959,"is_reserved":false,"is_disabled":false,"rental_uris":{"android":"levelo://app?vid=6b0c80ce-aa66-46e5-b76b-a1f522bd9826","ios":"levelo://app?vid=6b0c80ce-aa66-46e5-b76b-a1f522bd9826"},"vehicle_type_id":"4","last_reported":1731913838,"current_range_meters":38800,"station_id":"ce4bh392rcd13ifvqdm0","pricing_plan_id":"cebpf4jnsgd1na2vs0mg"},{"bike_id":"ef5f4295-3e3f-4a64-b261-a523b322f88b","system_id":"levelo_inurba_marseille","lat":43.29024,"lon":5.38641,"is_reserved":false,"is_disabled":false,"rental_uris":{"android":"levelo://app?vid=ef5f4295-3e3f-4a64-b261-a523b322f88b","ios":"levelo://app?vid=ef5f4295-3e3f-4a64-b261-a523b322f88b"},"vehicle_type_id":"4","last_reported":1731913838,"current_range_meters":19200,"station_id":"ce4bh4p2rcd13ifvqe0g","pricing_plan_id":"cebpf4jnsgd1na2vs0mg"},{"bike_id":"fc132bbd-9ef2-44f2-a355-90b11d53552d","system_id":"levelo_inurba_marseille","lat":43.30464,"lon":5.37901,"is_reserved":false,"is_disabled":false,"rental_uris":{"android":"levelo://app?vid=fc132bbd-9ef2-44f2-a355-90b11d53552d","ios":"levelo://app?vid=fc132bbd-9ef2-44f2-a355-90b11d53552d"},"vehicle_type_id":"4","last_reported":1731913838,"current_range_meters":20000,"station_id":"ce4bgup2rcd13ifvqcn0","pricing_plan_id":"cebpf4jnsgd1na2vs0mg"},{"bike_id":"01272bd5-a2c0-44b6-b76e-87cd305d9451","system_id":"levelo_inurba_marseille","lat":43.33025,"lon":5.39042,"is_reserved":false,"is_disabled":false,"rental_uris":{"android":"levelo://app?vid=01272bd5-a2c0-44b6-b76e-87cd305d9451","ios":"levelo://app?vid=01272bd5-a2c0-44b6-b76e-87cd305d9451"},"vehicle_type_id":"4","last_reported":1731913838,"current_range_meters":10000,"station_id":"ce4bhr92rcd13ifvqhrg","pricing_plan_id":"cebpf4jnsgd1na2vs0mg"},{"bike_id":"7694d120-882b-4df8-9318-0f76e5aee323","system_id":"levelo_inurba_marseille","lat":43.29804,"lon":5.37737,"is_reserved":false,"is_disabled":false,"rental_uris":{"android":"levelo://app?vid=7694d120-882b-4df8-9318-0f76e5aee323","ios":"levelo://app?vid=7694d120-882b-4df8-9318-0f76e5aee323"},"vehicle_type_id":"4","last_reported":1731913838,"current_range_meters":30800,"station_id":"","pricing_plan_id":"cebpf4jnsgd1na2vs0mg"},{"bike_id":"096d49de-e11f-4ddf-83fa-c1f06cb7cf63","system_id":"levelo_inurba_marseille","lat":43.26564,"lon":5.39005,"is_reserved":false,"is_disabled":false,"rental_uris":{"android":"levelo://app?vid=096d49de-e11f-4ddf-83fa-c1f06cb7cf63","ios":"levelo://app?vid=096d49de-e11f-4ddf-83fa-c1f06cb7cf63"},"vehicle_type_id":"4","last_reported":1731913838,"current_range_meters":37600,"station_id":"ce4bhe12rcd13ifvqf30","pricing_plan_id":"cebpf4jnsgd1na2vs0mg"},{"bike_id":"207044c4-7a19-4856-9dac-36ca8a156e98","system_id":"levelo_inurba_marseille","lat":43.28931,"lon":5.39628,"is_reserved":false,"is_disabled":false,"rental_uris":{"android":"levelo://app?vid=207044c4-7a19-4856-9dac-36ca8a156e98","ios":"levelo://app?vid=207044c4-7a19-4856-9dac-36ca8a156e98"},"vehicle_type_id":"4","last_reported":1731913838,"current_range_meters":38000,"station_id":"ce4bh3h2rcd13ifvqdn0","pricing_plan_id":"cebpf4jnsgd1na2vs0mg"},{"bike_id":"c7dbea43-7746-411b-b427-c64f870162d9","system_id":"levelo_inurba_marseille","lat":43.33738,"lon":5.37453,"is_reserved":false,"is_disabled":false,"rental_uris":{"android":"levelo://app?vid=c7dbea43-7746-411b-b427-c64f870162d9","ios":"levelo://app?vid=c7dbea43-7746-411b-b427-c64f870162d9"},"vehicle_type_id":"4","last_reported":1731913838,"current_range_meters":38800,"station_id":"","pricing_plan_id":"cebpf4jnsgd1na2vs0mg"},{"bike_id":"34a06db6-9e13-4f79-a05d-13923f1e619b","system_id":"levelo_inurba_marseille","lat":43.30461,"lon":5.37915,"is_reserved":false,"is_disabled":false,"rental_uris":{"android":"levelo://app?vid=34a06db6-9e13-4f79-a05d-13923f1e619b","ios":"levelo://app?vid=34a06db6-9e13-4f79-a05d-13923f1e619b"},"vehicle_type_id":"4","last_reported":1731913838,"current_range_meters":36000,"station_id":"ce4bgup2rcd13ifvqcn0","pricing_plan_id":"cebpf4jnsgd1na2vs0mg"},{"bike_id":"e5f9452a-3076-4360-9a50-e34709eee37d","system_id":"levelo_inurba_marseille","lat":43.29597,"lon":5.38101,"is_reserved":false,"is_disabled":false,"rental_uris":{"android":"levelo://app?vid=e5f9452a-3076-4360-9a50-e34709eee37d","ios":"levelo://app?vid=e5f9452a-3076-4360-9a50-e34709eee37d"},"vehicle_type_id":"4","last_reported":1731913838,"current_range_meters":34800,"station_id":"ce4bgl12rcd13ifvqbo0","pricing_plan_id":"cebpf4jnsgd1na2vs0mg"},{"bike_id":"cb3165b9-4890-480d-ae63-784fba188dfc","system_id":"levelo_inurba_marseille","lat":43.2707,"lon":5.42278,"is_reserved":false,"is_disabled":false,"rental_uris":{"android":"levelo://app?vid=cb3165b9-4890-480d-ae63-784fba188dfc","ios":"levelo://app?vid=cb3165b9-4890-480d-ae63-784fba188dfc"},"vehicle_type_id":"4","last_reported":1731913838,"current_range_meters":39200,"station_id":"ce4bhk92rcd13ifvqgb0","pricing_plan_id":"cebpf4jnsgd1na2vs0mg"},{"bike_id":"e255a41c-fb0d-4289-92d3-782765fbd7ee","system_id":"levelo_inurba_marseille","lat":43.31526,"lon":5.38034,"is_reserved":false,"is_disabled":false,"rental_uris":{"android":"levelo://app?vid=e255a41c-fb0d-4289-92d3-782765fbd7ee","ios":"levelo://app?vid=e255a41c-fb0d-4289-92d3-782765fbd7ee"},"vehicle_type_id":"4","last_reported":1731913838,"current_range_meters":38800,"station_id":"ce4bhsp2rcd13ifvqi50","pricing_plan_id":"cebpf4jnsgd1na2vs0mg"},{"bike_id":"5938f129-0be9-4612-acac-86791f6673ad","system_id":"levelo_inurba_marseille","lat":43.28204,"lon":5.44373,"is_reserved":false,"is_disabled":false,"rental_uris":{"android":"levelo://app?vid=5938f129-0be9-4612-acac-86791f6673ad","ios":"levelo://app?vid=5938f129-0be9-4612-acac-86791f6673ad"},"vehicle_type_id":"4","last_reported":1731913838,"current_range_meters":9200,"station_id":"","pricing_plan_id":"cebpf4jnsgd1na2vs0mg"},{"bike_id":"4ddda77b-3169-4448-8e06-10231f4b4780","system_id":"levelo_inurba_marseille","lat":43.2408,"lon":5.37752,"is_reserved":false,"is_disabled":false,"rental_uris":{"android":"levelo://app?vid=4ddda77b-3169-4448-8e06-10231f4b4780","ios":"levelo://app?vid=4ddda77b-3169-4448-8e06-10231f4b4780"},"vehicle_type_id":"4","last_reported":1731913838,"current_range_meters":26800,"station_id":"ce4bhnp2rcd13ifvqgvg","pricing_plan_id":"cebpf4jnsgd1na2vs0mg"},{"bike_id":"0a42f816-2cce-4ecb-9202-f9bf3ba8de5a","system_id":"levelo_inurba_marseille","lat":43.3302,"lon":5.39037,"is_reserved":false,"is_disabled":false,"rental_uris":{"android":"levelo://app?vid=0a42f816-2cce-4ecb-9202-f9bf3ba8de5a","ios":"levelo://app?vid=0a42f816-2cce-4ecb-9202-f9bf3ba8de5a"},"vehicle_type_id":"4","last_reported":1731913838,"current_range_meters":35600,"station_id":"ce4bhr92rcd13ifvqhrg","pricing_plan_id":"cebpf4jnsgd1na2vs0mg"},{"bike_id":"3c2a74aa-3e64-42a9-9a08-f13350de454e","system_id":"levelo_inurba_marseille","lat":43.28155,"lon":5.42642,"is_reserved":false,"is_disabled":false,"rental_uris":{"android":"levelo://app?vid=3c2a74aa-3e64-42a9-9a08-f13350de454e","ios":"levelo://app?vid=3c2a74aa-3e64-42a9-9a08-f13350de454e"},"vehicle_type_id":"4","last_reported":1731913838,"current_range_meters":38000,"station_id":"ce4bhnh2rcd13ifvqgug","pricing_plan_id":"cebpf4jnsgd1na2vs0mg"},{"bike_id":"a5c6397b-4773-4673-8f19-a09873f0e2b0","system_id":"levelo_inurba_marseille","lat":43.30286,"lon":5.37699,"is_reserved":false,"is_disabled":false,"rental_uris":{"android":"levelo://app?vid=a5c6397b-4773-4673-8f19-a09873f0e2b0","ios":"levelo://app?vid=a5c6397b-4773-4673-8f19-a09873f0e2b0"},"vehicle_type_id":"4","last_reported":1731913838,"current_range_meters":38000,"station_id":"ce4bguh2rcd13ifvqcj0","pricing_plan_id":"cebpf4jnsgd1na2vs0mg"},{"bike_id":"2ebd9175-cad8-4437-a84e-f133cb9cca2f","system_id":"levelo_inurba_marseille","lat":43.26499,"lon":5.39537,"is_reserved":false,"is_disabled":false,"rental_uris":{"android":"levelo://app?vid=2ebd9175-cad8-4437-a84e-f133cb9cca2f","ios":"levelo://app?vid=2ebd9175-cad8-4437-a84e-f133cb9cca2f"},"vehicle_type_id":"4","last_reported":1731913838,"current_range_meters":19600,"station_id":"ce4bhi12rcd13ifvqfq0","pricing_plan_id":"cebpf4jnsgd1na2vs0mg"},{"bike_id":"5a19b76a-bc9e-4d10-a22e-a9a8b5ef4c47","system_id":"levelo_inurba_marseille","lat":43.24074,"lon":5.37761,"is_reserved":false,"is_disabled":false,"rental_uris":{"android":"levelo://app?vid=5a19b76a-bc9e-4d10-a22e-a9a8b5ef4c47","ios":"levelo://app?vid=5a19b76a-bc9e-4d10-a22e-a9a8b5ef4c47"},"vehicle_type_id":"4","last_reported":1731913838,"current_range_meters":28800,"station_id":"ce4bhnp2rcd13ifvqgvg","pricing_plan_id":"cebpf4jnsgd1na2vs0mg"},{"bike_id":"5ed22230-ed97-489b-a6af-ba06152c21b7","system_id":"levelo_inurba_marseille","lat":43.23153,"lon":5.43723,"is_reserved":false,"is_disabled":false,"rental_uris":{"android":"levelo://app?vid=5ed22230-ed97-489b-a6af-ba06152c21b7","ios":"levelo://app?vid=5ed22230-ed97-489b-a6af-ba06152c21b7"},"vehicle_type_id":"4","last_reported":1731913838,"current_range_meters":18000,"station_id":"ce4bhmp2rcd13ifvqgog","pricing_plan_id":"cebpf4jnsgd1na2vs0mg"},{"bike_id":"88a6fc2c-cbf5-49bb-92b4-8f6aed2214e8","system_id":"levelo_inurba_marseille","lat":43.29271,"lon":5.40127,"is_reserved":false,"is_disabled":false,"rental_uris":{"android":"levelo://app?vid=88a6fc2c-cbf5-49bb-92b4-8f6aed2214e8","ios":"levelo://app?vid=88a6fc2c-cbf5-49bb-92b4-8f6aed2214e8"},"vehicle_type_id":"4","last_reported":1731913838,"current_range_meters":30000,"station_id":"ce4bh312rcd13ifvqdk0","pricing_plan_id":"cebpf4jnsgd1na2vs0mg"},{"bike_id":"12867844-fa2a-41b2-8d74-706d4ef15909","system_id":"levelo_inurba_marseille","lat":43.33766,"lon":5.37439,"is_reserved":false,"is_disabled":false,"rental_uris":{"android":"levelo://app?vid=12867844-fa2a-41b2-8d74-706d4ef15909","ios":"levelo://app?vid=12867844-fa2a-41b2-8d74-706d4ef15909"},"vehicle_type_id":"4","last_reported":1731913838,"current_range_meters":29600,"station_id":"","pricing_plan_id":"cebpf4jnsgd1na2vs0mg"},{"bike_id":"3a0d9b37-37c7-476f-92e9-1f769b9cb5b2","system_id":"levelo_inurba_marseille","lat":43.30448,"lon":5.38895,"is_reserved":false,"is_disabled":false,"rental_uris":{"android":"levelo://app?vid=3a0d9b37-37c7-476f-92e9-1f769b9cb5b2","ios":"levelo://app?vid=3a0d9b37-37c7-476f-92e9-1f769b9cb5b2"},"vehicle_type_id":"4","last_reported":1731913838,"current_range_meters":30400,"station_id":"ce4bgk12rcd13ifvqbi0","pricing_plan_id":"cebpf4jnsgd1na2vs0mg"},{"bike_id":"df01f0ae-f8a0-427b-9365-8c328a176037","system_id":"levelo_inurba_marseille","lat":43.3254,"lon":5.41429,"is_reserved":false,"is_disabled":false,"rental_uris":{"android":"levelo://app?vid=df01f0ae-f8a0-427b-9365-8c328a176037","ios":"levelo://app?vid=df01f0ae-f8a0-427b-9365-8c328a176037"},"vehicle_type_id":"4","last_reported":1731913838,"current_range_meters":24400,"station_id":"ce4bhq12rcd13ifvqhhg","pricing_plan_id":"cebpf4jnsgd1na2vs0mg"},{"bike_id":"5a9704f3-fb36-482c-9b5e-70977a2c766e","system_id":"levelo_inurba_marseille","lat":43.3079,"lon":5.37648,"is_reserved":false,"is_disabled":false,"rental_uris":{"android":"levelo://app?vid=5a9704f3-fb36-482c-9b5e-70977a2c766e","ios":"levelo://app?vid=5a9704f3-fb36-482c-9b5e-70977a2c766e"},"vehicle_type_id":"4","last_reported":1731913838,"current_range_meters":38800,"station_id":"ce4bgv92rcd13ifvqcq0","pricing_plan_id":"cebpf4jnsgd1na2vs0mg"},{"bike_id":"74c63f9b-8786-4c37-9ae7-64360acdde5e","system_id":"levelo_inurba_marseille","lat":43.29558,"lon":5.42288,"is_reserved":false,"is_disabled":false,"rental_uris":{"android":"levelo://app?vid=74c63f9b-8786-4c37-9ae7-64360acdde5e","ios":"levelo://app?vid=74c63f9b-8786-4c37-9ae7-64360acdde5e"},"vehicle_type_id":"4","last_reported":1731913838,"current_range_meters":39200,"station_id":"ce4bhph2rcd13ifvqhdg","pricing_plan_id":"cebpf4jnsgd1na2vs0mg"},{"bike_id":"f5a042e4-9244-45ca-a000-cfabc5edd18a","system_id":"levelo_inurba_marseille","lat":43.27071,"lon":5.42279,"is_reserved":false,"is_disabled":false,"rental_uris":{"android":"levelo://app?vid=f5a042e4-9244-45ca-a000-cfabc5edd18a","ios":"levelo://app?vid=f5a042e4-9244-45ca-a000-cfabc5edd18a"},"vehicle_type_id":"4","last_reported":1731913838,"current_range_meters":9200,"station_id":"ce4bhk92rcd13ifvqgb0","pricing_plan_id":"cebpf4jnsgd1na2vs0mg"},{"bike_id":"10808265-c82e-4663-ad34-00454e769817","system_id":"levelo_inurba_marseille","lat":43.23187,"lon":5.3999,"is_reserved":false,"is_disabled":false,"rental_uris":{"android":"levelo://app?vid=10808265-c82e-4663-ad34-00454e769817","ios":"levelo://app?vid=10808265-c82e-4663-ad34-00454e769817"},"vehicle_type_id":"4","last_reported":1731913838,"current_range_meters":27600,"station_id":"ce4bhn12rcd13ifvqgqg","pricing_plan_id":"cebpf4jnsgd1na2vs0mg"},{"bike_id":"65f8f3a7-7ec6-4f5b-9258-c870e54d1cd4","system_id":"levelo_inurba_marseille","lat":43.3233,"lon":5.40625,"is_reserved":false,"is_disabled":false,"rental_uris":{"android":"levelo://app?vid=65f8f3a7-7ec6-4f5b-9258-c870e54d1cd4","ios":"levelo://app?vid=65f8f3a7-7ec6-4f5b-9258-c870e54d1cd4"},"vehicle_type_id":"4","last_reported":1731913838,"current_range_meters":30800,"station_id":"ce4bhq92rcd13ifvqhjg","pricing_plan_id":"cebpf4jnsgd1na2vs0mg"},{"bike_id":"01f70dcc-3b71-42a9-99e3-d9c5e617c69e","system_id":"levelo_inurba_marseille","lat":43.30468,"lon":5.3791,"is_reserved":false,"is_disabled":false,"rental_uris":{"android":"levelo://app?vid=01f70dcc-3b71-42a9-99e3-d9c5e617c69e","ios":"levelo://app?vid=01f70dcc-3b71-42a9-99e3-d9c5e617c69e"},"vehicle_type_id":"4","last_reported":1731913838,"current_range_meters":6000,"station_id":"ce4bgup2rcd13ifvqcn0","pricing_plan_id":"cebpf4jnsgd1na2vs0mg"},{"bike_id":"f6b35d7a-55ba-44c7-8036-2112240a6b79","system_id":"levelo_inurba_marseille","lat":43.27072,"lon":5.4228,"is_reserved":false,"is_disabled":false,"rental_uris":{"android":"levelo://app?vid=f6b35d7a-55ba-44c7-8036-2112240a6b79","ios":"levelo://app?vid=f6b35d7a-55ba-44c7-8036-2112240a6b79"},"vehicle_type_id":"4","last_reported":1731913838,"current_range_meters":6400,"station_id":"ce4bhk92rcd13ifvqgb0","pricing_plan_id":"cebpf4jnsgd1na2vs0mg"},{"bike_id":"79df55e6-eb64-4d92-a39e-e9e018dec933","system_id":"levelo_inurba_marseille","lat":43.29033,"lon":5.39955,"is_reserved":false,"is_disabled":false,"rental_uris":{"android":"levelo://app?vid=79df55e6-eb64-4d92-a39e-e9e018dec933","ios":"levelo://app?vid=79df55e6-eb64-4d92-a39e-e9e018dec933"},"vehicle_type_id":"4","last_reported":1731913838,"current_range_meters":19200,"station_id":"ce4bh392rcd13ifvqdm0","pricing_plan_id":"cebpf4jnsgd1na2vs0mg"},{"bike_id":"8f019a78-c493-4f9d-a72d-a75fc0e36210","system_id":"levelo_inurba_marseille","lat":43.2407,"lon":5.37759,"is_reserved":false,"is_disabled":false,"rental_uris":{"android":"levelo://app?vid=8f019a78-c493-4f9d-a72d-a75fc0e36210","ios":"levelo://app?vid=8f019a78-c493-4f9d-a72d-a75fc0e36210"},"vehicle_type_id":"4","last_reported":1731913838,"current_range_meters":27600,"station_id":"ce4bhnp2rcd13ifvqgvg","pricing_plan_id":"cebpf4jnsgd1na2vs0mg"},{"bike_id":"af5b6f30-c1ae-41a8-8658-805682fdccfa","system_id":"levelo_inurba_marseille","lat":43.27493,"lon":5.42454,"is_reserved":false,"is_disabled":false,"rental_uris":{"android":"levelo://app?vid=af5b6f30-c1ae-41a8-8658-805682fdccfa","ios":"levelo://app?vid=af5b6f30-c1ae-41a8-8658-805682fdccfa"},"vehicle_type_id":"4","last_reported":1731913838,"current_range_meters":26800,"station_id":"ce4bhn92rcd13ifvqgrg","pricing_plan_id":"cebpf4jnsgd1na2vs0mg"},{"bike_id":"ae3d8785-0513-435c-a567-6470169f1725","system_id":"levelo_inurba_marseille","lat":43.29791,"lon":5.381,"is_reserved":false,"is_disabled":false,"rental_uris":{"android":"levelo://app?vid=ae3d8785-0513-435c-a567-6470169f1725","ios":"levelo://app?vid=ae3d8785-0513-435c-a567-6470169f1725"},"vehicle_type_id":"4","last_reported":1731913838,"current_range_meters":3600,"station_id":"ce4bgip2rcd13ifvqbb0","pricing_plan_id":"cebpf4jnsgd1na2vs0mg"},{"bike_id":"bec56b94-4d7b-4994-859b-bb682d5c422a","system_id":"levelo_inurba_marseille","lat":43.305921,"lon":5.393488,"is_reserved":false,"is_disabled":false,"rental_uris":{"android":"levelo://app?vid=bec56b94-4d7b-4994-859b-bb682d5c422a","ios":"levelo://app?vid=bec56b94-4d7b-4994-859b-bb682d5c422a"},"vehicle_type_id":"4","last_reported":1731913838,"current_range_meters":38800,"station_id":"ce4bh0p2rcd13ifvqd80","pricing_plan_id":"cebpf4jnsgd1na2vs0mg"},{"bike_id":"7fc447f5-ebcb-4c80-af77-ec1c99891b16","system_id":"levelo_inurba_marseille","lat":43.29097,"lon":5.38159,"is_reserved":false,"is_disabled":false,"rental_uris":{"android":"levelo://app?vid=7fc447f5-ebcb-4c80-af77-ec1c99891b16","ios":"levelo://app?vid=7fc447f5-ebcb-4c80-af77-ec1c99891b16"},"vehicle_type_id":"4","last_reported":1731913838,"current_range_meters":18000,"station_id":"ce4bh512rcd13ifvqe2g","pricing_plan_id":"cebpf4jnsgd1na2vs0mg"},{"bike_id":"f78e874f-2bcc-46c3-917b-baae845142a0","system_id":"levelo_inurba_marseille","lat":43.27491,"lon":5.42455,"is_reserved":false,"is_disabled":false,"rental_uris":{"android":"levelo://app?vid=f78e874f-2bcc-46c3-917b-baae845142a0","ios":"levelo://app?vid=f78e874f-2bcc-46c3-917b-baae845142a0"},"vehicle_type_id":"4","last_reported":1731913838,"current_range_meters":37600,"station_id":"ce4bhn92rcd13ifvqgrg","pricing_plan_id":"cebpf4jnsgd1na2vs0mg"},{"bike_id":"1aa2fc41-7de5-4738-9974-a62516d320d4","system_id":"levelo_inurba_marseille","lat":43.29036,"lon":5.39969,"is_reserved":false,"is_disabled":false,"rental_uris":{"android":"levelo://app?vid=1aa2fc41-7de5-4738-9974-a62516d320d4","ios":"levelo://app?vid=1aa2fc41-7de5-4738-9974-a62516d320d4"},"vehicle_type_id":"4","last_reported":1731913838,"current_range_meters":21600,"station_id":"ce4bh392rcd13ifvqdm0","pricing_plan_id":"cebpf4jnsgd1na2vs0mg"},{"bike_id":"7c0a99e4-82bf-4b66-8512-fe3f58563314","system_id":"levelo_inurba_marseille","lat":43.30158,"lon":5.38089,"is_reserved":false,"is_disabled":false,"rental_uris":{"android":"levelo://app?vid=7c0a99e4-82bf-4b66-8512-fe3f58563314","ios":"levelo://app?vid=7c0a99e4-82bf-4b66-8512-fe3f58563314"},"vehicle_type_id":"4","last_reported":1731913838,"current_range_meters":8400,"station_id":"ce4bgjp2rcd13ifvqbh0","pricing_plan_id":"cebpf4jnsgd1na2vs0mg"},{"bike_id":"e73206b1-cfd7-4ecb-ba5a-91c351b433ae","system_id":"levelo_inurba_marseille","lat":43.33602,"lon":5.41021,"is_reserved":false,"is_disabled":false,"rental_uris":{"android":"levelo://app?vid=e73206b1-cfd7-4ecb-ba5a-91c351b433ae","ios":"levelo://app?vid=e73206b1-cfd7-4ecb-ba5a-91c351b433ae"},"vehicle_type_id":"4","last_reported":1731913838,"current_range_meters":34000,"station_id":"ce4bhqh2rcd13ifvqhmg","pricing_plan_id":"cebpf4jnsgd1na2vs0mg"},{"bike_id":"ec76ba2e-0129-4ec1-a161-2d5b14c1b9f5","system_id":"levelo_inurba_marseille","lat":43.29798,"lon":5.38122,"is_reserved":false,"is_disabled":false,"rental_uris":{"android":"levelo://app?vid=ec76ba2e-0129-4ec1-a161-2d5b14c1b9f5","ios":"levelo://app?vid=ec76ba2e-0129-4ec1-a161-2d5b14c1b9f5"},"vehicle_type_id":"4","last_reported":1731913838,"current_range_meters":36800,"station_id":"ce4bgip2rcd13ifvqbb0","pricing_plan_id":"cebpf4jnsgd1na2vs0mg"},{"bike_id":"3368b5ef-1d3a-4ea6-ae1b-b7ea13ec07ad","system_id":"levelo_inurba_marseille","lat":43.3078,"lon":5.37658,"is_reserved":false,"is_disabled":false,"rental_uris":{"android":"levelo://app?vid=3368b5ef-1d3a-4ea6-ae1b-b7ea13ec07ad","ios":"levelo://app?vid=3368b5ef-1d3a-4ea6-ae1b-b7ea13ec07ad"},"vehicle_type_id":"4","last_reported":1731913838,"current_range_meters":38800,"station_id":"ce4bgv92rcd13ifvqcq0","pricing_plan_id":"cebpf4jnsgd1na2vs0mg"},{"bike_id":"1d693591-3c26-4ab7-90d0-0f7cf28af51c","system_id":"levelo_inurba_marseille","lat":43.277313,"lon":5.42076,"is_reserved":false,"is_disabled":false,"rental_uris":{"android":"levelo://app?vid=1d693591-3c26-4ab7-90d0-0f7cf28af51c","ios":"levelo://app?vid=1d693591-3c26-4ab7-90d0-0f7cf28af51c"},"vehicle_type_id":"4","last_reported":1731913838,"current_range_meters":38800,"station_id":"","pricing_plan_id":"cebpf4jnsgd1na2vs0mg"},{"bike_id":"8670051b-f022-4429-b0af-75a0bd731d27","system_id":"levelo_inurba_marseille","lat":43.2558,"lon":5.38234,"is_reserved":false,"is_disabled":false,"rental_uris":{"android":"levelo://app?vid=8670051b-f022-4429-b0af-75a0bd731d27","ios":"levelo://app?vid=8670051b-f022-4429-b0af-75a0bd731d27"},"vehicle_type_id":"4","last_reported":1731913838,"current_range_meters":29600,"station_id":"ce4bhih2rcd13ifvqfs0","pricing_plan_id":"cebpf4jnsgd1na2vs0mg"},{"bike_id":"8cdbbb9d-e54c-4963-8b6c-ba5d001805cc","system_id":"levelo_inurba_marseille","lat":43.28157,"lon":5.44224,"is_reserved":false,"is_disabled":false,"rental_uris":{"android":"levelo://app?vid=8cdbbb9d-e54c-4963-8b6c-ba5d001805cc","ios":"levelo://app?vid=8cdbbb9d-e54c-4963-8b6c-ba5d001805cc"},"vehicle_type_id":"4","last_reported":1731913838,"current_range_meters":31200,"station_id":"","pricing_plan_id":"cebpf4jnsgd1na2vs0mg"},{"bike_id":"9be5a211-20b5-4e12-893d-5f064242cd68","system_id":"levelo_inurba_marseille","lat":43.28933,"lon":5.36642,"is_reserved":false,"is_disabled":false,"rental_uris":{"android":"levelo://app?vid=9be5a211-20b5-4e12-893d-5f064242cd68","ios":"levelo://app?vid=9be5a211-20b5-4e12-893d-5f064242cd68"},"vehicle_type_id":"4","last_reported":1731913838,"current_range_meters":28400,"station_id":"ce4bhap2rcd13ifvqek0","pricing_plan_id":"cebpf4jnsgd1na2vs0mg"},{"bike_id":"d05b3963-9867-4401-8a5f-9e0e2e6b18c3","system_id":"levelo_inurba_marseille","lat":43.30477,"lon":5.37909,"is_reserved":false,"is_disabled":false,"rental_uris":{"android":"levelo://app?vid=d05b3963-9867-4401-8a5f-9e0e2e6b18c3","ios":"levelo://app?vid=d05b3963-9867-4401-8a5f-9e0e2e6b18c3"},"vehicle_type_id":"4","last_reported":1731913838,"current_range_meters":38000,"station_id":"ce4bgup2rcd13ifvqcn0","pricing_plan_id":"cebpf4jnsgd1na2vs0mg"},{"bike_id":"8ce5dbaa-df05-44e8-ae7c-821c21e9553b","system_id":"levelo_inurba_marseille","lat":43.28942,"lon":5.36409,"is_reserved":false,"is_disabled":false,"rental_uris":{"android":"levelo://app?vid=8ce5dbaa-df05-44e8-ae7c-821c21e9553b","ios":"levelo://app?vid=8ce5dbaa-df05-44e8-ae7c-821c21e9553b"},"vehicle_type_id":"4","last_reported":1731913838,"current_range_meters":38400,"station_id":"ce4bhc92rcd13ifvqetg","pricing_plan_id":"cebpf4jnsgd1na2vs0mg"},{"bike_id":"d2ff0aec-6c3e-45b3-81d2-669da85e38b7","system_id":"levelo_inurba_marseille","lat":43.28342,"lon":5.3812,"is_reserved":false,"is_disabled":false,"rental_uris":{"android":"levelo://app?vid=d2ff0aec-6c3e-45b3-81d2-669da85e38b7","ios":"levelo://app?vid=d2ff0aec-6c3e-45b3-81d2-669da85e38b7"},"vehicle_type_id":"4","last_reported":1731913838,"current_range_meters":20400,"station_id":"ce4bh412rcd13ifvqdr0","pricing_plan_id":"cebpf4jnsgd1na2vs0mg"},{"bike_id":"c483694c-438e-462f-90c6-ccb355245e72","system_id":"levelo_inurba_marseille","lat":43.29298,"lon":5.37443,"is_reserved":false,"is_disabled":false,"rental_uris":{"android":"levelo://app?vid=c483694c-438e-462f-90c6-ccb355245e72","ios":"levelo://app?vid=c483694c-438e-462f-90c6-ccb355245e72"},"vehicle_type_id":"4","last_reported":1731913838,"current_range_meters":32800,"station_id":"ce4bgi12rcd13ifvqb70","pricing_plan_id":"cebpf4jnsgd1na2vs0mg"},{"bike_id":"61728bbe-48e5-47b1-bba3-b5069e3f257a","system_id":"levelo_inurba_marseille","lat":43.29573,"lon":5.39988,"is_reserved":false,"is_disabled":false,"rental_uris":{"android":"levelo://app?vid=61728bbe-48e5-47b1-bba3-b5069e3f257a","ios":"levelo://app?vid=61728bbe-48e5-47b1-bba3-b5069e3f257a"},"vehicle_type_id":"4","last_reported":1731913838,"current_range_meters":30000,"station_id":"ce4bh312rcd13ifvqdj0","pricing_plan_id":"cebpf4jnsgd1na2vs0mg"},{"bike_id":"ea152aa9-505a-42a6-bd71-48052765bae5","system_id":"levelo_inurba_marseille","lat":43.29233,"lon":5.36634,"is_reserved":false,"is_disabled":false,"rental_uris":{"android":"levelo://app?vid=ea152aa9-505a-42a6-bd71-48052765bae5","ios":"levelo://app?vid=ea152aa9-505a-42a6-bd71-48052765bae5"},"vehicle_type_id":"4","last_reported":1731913838,"current_range_meters":2800,"station_id":"","pricing_plan_id":"cebpf4jnsgd1na2vs0mg"},{"bike_id":"fbbd9324-d093-47d7-87c5-b091e856f102","system_id":"levelo_inurba_marseille","lat":43.30809,"lon":5.38157,"is_reserved":false,"is_disabled":false,"rental_uris":{"android":"levelo://app?vid=fbbd9324-d093-47d7-87c5-b091e856f102","ios":"levelo://app?vid=fbbd9324-d093-47d7-87c5-b091e856f102"},"vehicle_type_id":"4","last_reported":1731913838,"current_range_meters":18800,"station_id":"ce4bgt12rcd13ifvqce0","pricing_plan_id":"cebpf4jnsgd1na2vs0mg"},{"bike_id":"20c2a3ef-5802-4bf3-806a-29ad3c9e8e37","system_id":"levelo_inurba_marseille","lat":43.24083,"lon":5.3775,"is_reserved":false,"is_disabled":false,"rental_uris":{"android":"levelo://app?vid=20c2a3ef-5802-4bf3-806a-29ad3c9e8e37","ios":"levelo://app?vid=20c2a3ef-5802-4bf3-806a-29ad3c9e8e37"},"vehicle_type_id":"4","last_reported":1731913838,"current_range_meters":36400,"station_id":"ce4bhnp2rcd13ifvqgvg","pricing_plan_id":"cebpf4jnsgd1na2vs0mg"},{"bike_id":"bdf5ac8c-4d35-410c-856b-e84106599846","system_id":"levelo_inurba_marseille","lat":43.30469,"lon":5.37913,"is_reserved":false,"is_disabled":false,"rental_uris":{"android":"levelo://app?vid=bdf5ac8c-4d35-410c-856b-e84106599846","ios":"levelo://app?vid=bdf5ac8c-4d35-410c-856b-e84106599846"},"vehicle_type_id":"4","last_reported":1731913838,"current_range_meters":35600,"station_id":"ce4bgup2rcd13ifvqcn0","pricing_plan_id":"cebpf4jnsgd1na2vs0mg"},{"bike_id":"966376c7-72d6-45e3-8040-0682659e7136","system_id":"levelo_inurba_marseille","lat":43.27157,"lon":5.39159,"is_reserved":false,"is_disabled":false,"rental_uris":{"android":"levelo://app?vid=966376c7-72d6-45e3-8040-0682659e7136","ios":"levelo://app?vid=966376c7-72d6-45e3-8040-0682659e7136"},"vehicle_type_id":"4","last_reported":1731913838,"current_range_meters":38400,"station_id":"ce4bhh12rcd13ifvqfg0","pricing_plan_id":"cebpf4jnsgd1na2vs0mg"},{"bike_id":"50abe4cd-ce0d-48c2-a420-2794dce1ae91","system_id":"levelo_inurba_marseille","lat":43.29882,"lon":5.39735,"is_reserved":false,"is_disabled":false,"rental_uris":{"android":"levelo://app?vid=50abe4cd-ce0d-48c2-a420-2794dce1ae91","ios":"levelo://app?vid=50abe4cd-ce0d-48c2-a420-2794dce1ae91"},"vehicle_type_id":"4","last_reported":1731913838,"current_range_meters":32800,"station_id":"ce4bh0h2rcd13ifvqd50","pricing_plan_id":"cebpf4jnsgd1na2vs0mg"},{"bike_id":"2340cb86-c374-404b-8be0-bf4efc611cee","system_id":"levelo_inurba_marseille","lat":43.33617,"lon":5.41044,"is_reserved":false,"is_disabled":false,"rental_uris":{"android":"levelo://app?vid=2340cb86-c374-404b-8be0-bf4efc611cee","ios":"levelo://app?vid=2340cb86-c374-404b-8be0-bf4efc611cee"},"vehicle_type_id":"4","last_reported":1731913838,"current_range_meters":16400,"station_id":"ce4bhqh2rcd13ifvqhmg","pricing_plan_id":"cebpf4jnsgd1na2vs0mg"},{"bike_id":"ce249102-5132-45ee-9b83-fc2ea0c15102","system_id":"levelo_inurba_marseille","lat":43.231579,"lon":5.437095,"is_reserved":false,"is_disabled":false,"rental_uris":{"android":"levelo://app?vid=ce249102-5132-45ee-9b83-fc2ea0c15102","ios":"levelo://app?vid=ce249102-5132-45ee-9b83-fc2ea0c15102"},"vehicle_type_id":"4","last_reported":1731913838,"current_range_meters":27200,"station_id":"ce4bhmp2rcd13ifvqgog","pricing_plan_id":"cebpf4jnsgd1na2vs0mg"},{"bike_id":"4f01fa73-c9c0-4fc0-986b-b2a94d270e4a","system_id":"levelo_inurba_marseille","lat":43.302519,"lon":5.400883,"is_reserved":false,"is_disabled":false,"rental_uris":{"android":"levelo://app?vid=4f01fa73-c9c0-4fc0-986b-b2a94d270e4a","ios":"levelo://app?vid=4f01fa73-c9c0-4fc0-986b-b2a94d270e4a"},"vehicle_type_id":"4","last_reported":1731913838,"current_range_meters":6800,"station_id":"ce4bgvh2rcd13ifvqcs0","pricing_plan_id":"cebpf4jnsgd1na2vs0mg"},{"bike_id":"6d757fef-4f26-43f9-ac2c-ffab39bf7dae","system_id":"levelo_inurba_marseille","lat":43.32249,"lon":5.36901,"is_reserved":false,"is_disabled":false,"rental_uris":{"android":"levelo://app?vid=6d757fef-4f26-43f9-ac2c-ffab39bf7dae","ios":"levelo://app?vid=6d757fef-4f26-43f9-ac2c-ffab39bf7dae"},"vehicle_type_id":"4","last_reported":1731913838,"current_range_meters":11600,"station_id":"","pricing_plan_id":"cebpf4jnsgd1na2vs0mg"},{"bike_id":"eb92cc01-aef5-43e0-8aa2-27a91887f00c","system_id":"levelo_inurba_marseille","lat":43.29285,"lon":5.40126,"is_reserved":false,"is_disabled":false,"rental_uris":{"android":"levelo://app?vid=eb92cc01-aef5-43e0-8aa2-27a91887f00c","ios":"levelo://app?vid=eb92cc01-aef5-43e0-8aa2-27a91887f00c"},"vehicle_type_id":"4","last_reported":1731913838,"current_range_meters":33600,"station_id":"ce4bh312rcd13ifvqdk0","pricing_plan_id":"cebpf4jnsgd1na2vs0mg"},{"bike_id":"250baacc-16ca-4248-a285-691ee29a779c","system_id":"levelo_inurba_marseille","lat":43.28153,"lon":5.42648,"is_reserved":false,"is_disabled":false,"rental_uris":{"android":"levelo://app?vid=250baacc-16ca-4248-a285-691ee29a779c","ios":"levelo://app?vid=250baacc-16ca-4248-a285-691ee29a779c"},"vehicle_type_id":"4","last_reported":1731913838,"current_range_meters":24000,"station_id":"ce4bhnh2rcd13ifvqgug","pricing_plan_id":"cebpf4jnsgd1na2vs0mg"},{"bike_id":"1ede608c-8dec-484d-9315-76e0e8eb111a","system_id":"levelo_inurba_marseille","lat":43.24079,"lon":5.37759,"is_reserved":false,"is_disabled":false,"rental_uris":{"android":"levelo://app?vid=1ede608c-8dec-484d-9315-76e0e8eb111a","ios":"levelo://app?vid=1ede608c-8dec-484d-9315-76e0e8eb111a"},"vehicle_type_id":"4","last_reported":1731913838,"current_range_meters":38400,"station_id":"ce4bhnp2rcd13ifvqgvg","pricing_plan_id":"cebpf4jnsgd1na2vs0mg"},{"bike_id":"c21f3614-1870-4cfd-a917-d8a30c4cb6d9","system_id":"levelo_inurba_marseille","lat":43.28475,"lon":5.38574,"is_reserved":false,"is_disabled":false,"rental_uris":{"android":"levelo://app?vid=c21f3614-1870-4cfd-a917-d8a30c4cb6d9","ios":"levelo://app?vid=c21f3614-1870-4cfd-a917-d8a30c4cb6d9"},"vehicle_type_id":"4","last_reported":1731913838,"current_range_meters":27200,"station_id":"ce4bh8p2rcd13ifvqeb0","pricing_plan_id":"cebpf4jnsgd1na2vs0mg"},{"bike_id":"a47a0e65-fdf7-4923-b080-78ac3685b96a","system_id":"levelo_inurba_marseille","lat":43.24083,"lon":5.37748,"is_reserved":false,"is_disabled":false,"rental_uris":{"android":"levelo://app?vid=a47a0e65-fdf7-4923-b080-78ac3685b96a","ios":"levelo://app?vid=a47a0e65-fdf7-4923-b080-78ac3685b96a"},"vehicle_type_id":"4","last_reported":1731913838,"current_range_meters":35600,"station_id":"ce4bhnp2rcd13ifvqgvg","pricing_plan_id":"cebpf4jnsgd1na2vs0mg"},{"bike_id":"6b8c4514-cb85-4a2a-9925-6fb4153b9632","system_id":"levelo_inurba_marseille","lat":43.29551,"lon":5.42288,"is_reserved":false,"is_disabled":false,"rental_uris":{"android":"levelo://app?vid=6b8c4514-cb85-4a2a-9925-6fb4153b9632","ios":"levelo://app?vid=6b8c4514-cb85-4a2a-9925-6fb4153b9632"},"vehicle_type_id":"4","last_reported":1731913838,"current_range_meters":32400,"station_id":"ce4bhph2rcd13ifvqhdg","pricing_plan_id":"cebpf4jnsgd1na2vs0mg"},{"bike_id":"cc67dd01-e7d7-4ac0-819a-389c381e84e0","system_id":"levelo_inurba_marseille","lat":43.29269,"lon":5.40136,"is_reserved":false,"is_disabled":false,"rental_uris":{"android":"levelo://app?vid=cc67dd01-e7d7-4ac0-819a-389c381e84e0","ios":"levelo://app?vid=cc67dd01-e7d7-4ac0-819a-389c381e84e0"},"vehicle_type_id":"4","last_reported":1731913838,"current_range_meters":11600,"station_id":"ce4bh312rcd13ifvqdk0","pricing_plan_id":"cebpf4jnsgd1na2vs0mg"},{"bike_id":"74a98861-d6be-47db-94fa-21441fdd6108","system_id":"levelo_inurba_marseille","lat":43.27496,"lon":5.42455,"is_reserved":false,"is_disabled":false,"rental_uris":{"android":"levelo://app?vid=74a98861-d6be-47db-94fa-21441fdd6108","ios":"levelo://app?vid=74a98861-d6be-47db-94fa-21441fdd6108"},"vehicle_type_id":"4","last_reported":1731913838,"current_range_meters":13600,"station_id":"ce4bhn92rcd13ifvqgrg","pricing_plan_id":"cebpf4jnsgd1na2vs0mg"},{"bike_id":"139a9c37-6b2f-43a0-9a41-400224b43309","system_id":"levelo_inurba_marseille","lat":43.24078,"lon":5.37758,"is_reserved":false,"is_disabled":false,"rental_uris":{"android":"levelo://app?vid=139a9c37-6b2f-43a0-9a41-400224b43309","ios":"levelo://app?vid=139a9c37-6b2f-43a0-9a41-400224b43309"},"vehicle_type_id":"4","last_reported":1731913838,"current_range_meters":27200,"station_id":"ce4bhnp2rcd13ifvqgvg","pricing_plan_id":"cebpf4jnsgd1na2vs0mg"},{"bike_id":"dd86eea8-a331-4e74-b4fc-cc5fc9aa6251","system_id":"levelo_inurba_marseille","lat":43.305382,"lon":5.384208,"is_reserved":false,"is_disabled":false,"rental_uris":{"android":"levelo://app?vid=dd86eea8-a331-4e74-b4fc-cc5fc9aa6251","ios":"levelo://app?vid=dd86eea8-a331-4e74-b4fc-cc5fc9aa6251"},"vehicle_type_id":"4","last_reported":1731913838,"current_range_meters":36800,"station_id":"ce4bgg92rcd13ifvqb30","pricing_plan_id":"cebpf4jnsgd1na2vs0mg"},{"bike_id":"65ad3404-ca16-4ff6-a3da-345d3f802f80","system_id":"levelo_inurba_marseille","lat":43.24181,"lon":5.39733,"is_reserved":false,"is_disabled":false,"rental_uris":{"android":"levelo://app?vid=65ad3404-ca16-4ff6-a3da-345d3f802f80","ios":"levelo://app?vid=65ad3404-ca16-4ff6-a3da-345d3f802f80"},"vehicle_type_id":"4","last_reported":1731913838,"current_range_meters":28400,"station_id":"ce4bhn12rcd13ifvqgpg","pricing_plan_id":"cebpf4jnsgd1na2vs0mg"},{"bike_id":"560057b5-38ed-41d2-8363-c423745ab422","system_id":"levelo_inurba_marseille","lat":43.28152,"lon":5.42642,"is_reserved":false,"is_disabled":false,"rental_uris":{"android":"levelo://app?vid=560057b5-38ed-41d2-8363-c423745ab422","ios":"levelo://app?vid=560057b5-38ed-41d2-8363-c423745ab422"},"vehicle_type_id":"4","last_reported":1731913838,"current_range_meters":37600,"station_id":"ce4bhnh2rcd13ifvqgug","pricing_plan_id":"cebpf4jnsgd1na2vs0mg"},{"bike_id":"5d4e2dc7-724c-466d-821f-689c5300916f","system_id":"levelo_inurba_marseille","lat":43.27495,"lon":5.42453,"is_reserved":false,"is_disabled":false,"rental_uris":{"android":"levelo://app?vid=5d4e2dc7-724c-466d-821f-689c5300916f","ios":"levelo://app?vid=5d4e2dc7-724c-466d-821f-689c5300916f"},"vehicle_type_id":"4","last_reported":1731913838,"current_range_meters":26800,"station_id":"ce4bhn92rcd13ifvqgrg","pricing_plan_id":"cebpf4jnsgd1na2vs0mg"},{"bike_id":"329c0d7e-3d2f-49ae-87d7-c8d8f5ee1ef8","system_id":"levelo_inurba_marseille","lat":43.29844,"lon":5.36268,"is_reserved":false,"is_disabled":false,"rental_uris":{"android":"levelo://app?vid=329c0d7e-3d2f-49ae-87d7-c8d8f5ee1ef8","ios":"levelo://app?vid=329c0d7e-3d2f-49ae-87d7-c8d8f5ee1ef8"},"vehicle_type_id":"4","last_reported":1731913838,"current_range_meters":8000,"station_id":"ce4bgpp2rcd13ifvqc3g","pricing_plan_id":"cebpf4jnsgd1na2vs0mg"},{"bike_id":"2b238d72-8129-40b8-a647-76de4a951ae7","system_id":"levelo_inurba_marseille","lat":43.24082,"lon":5.37753,"is_reserved":false,"is_disabled":false,"rental_uris":{"android":"levelo://app?vid=2b238d72-8129-40b8-a647-76de4a951ae7","ios":"levelo://app?vid=2b238d72-8129-40b8-a647-76de4a951ae7"},"vehicle_type_id":"4","last_reported":1731913838,"current_range_meters":29600,"station_id":"ce4bhnp2rcd13ifvqgvg","pricing_plan_id":"cebpf4jnsgd1na2vs0mg"},{"bike_id":"756e6efe-a3c3-44a4-afb4-9b895a088a93","system_id":"levelo_inurba_marseille","lat":43.30799,"lon":5.4353,"is_reserved":false,"is_disabled":false,"rental_uris":{"android":"levelo://app?vid=756e6efe-a3c3-44a4-afb4-9b895a088a93","ios":"levelo://app?vid=756e6efe-a3c3-44a4-afb4-9b895a088a93"},"vehicle_type_id":"4","last_reported":1731913838,"current_range_meters":36800,"station_id":"ce4bhph2rcd13ifvqheg","pricing_plan_id":"cebpf4jnsgd1na2vs0mg"},{"bike_id":"7bed65b6-ec31-4e31-973c-3ab231b4cc8c","system_id":"levelo_inurba_marseille","lat":43.29042,"lon":5.39963,"is_reserved":false,"is_disabled":false,"rental_uris":{"android":"levelo://app?vid=7bed65b6-ec31-4e31-973c-3ab231b4cc8c","ios":"levelo://app?vid=7bed65b6-ec31-4e31-973c-3ab231b4cc8c"},"vehicle_type_id":"4","last_reported":1731913838,"current_range_meters":38800,"station_id":"ce4bh392rcd13ifvqdm0","pricing_plan_id":"cebpf4jnsgd1na2vs0mg"},{"bike_id":"7c4762ad-f49d-4eef-9d08-9dfd4b66a9ca","system_id":"levelo_inurba_marseille","lat":43.28944,"lon":5.36636,"is_reserved":false,"is_disabled":false,"rental_uris":{"android":"levelo://app?vid=7c4762ad-f49d-4eef-9d08-9dfd4b66a9ca","ios":"levelo://app?vid=7c4762ad-f49d-4eef-9d08-9dfd4b66a9ca"},"vehicle_type_id":"4","last_reported":1731913838,"current_range_meters":28000,"station_id":"ce4bhap2rcd13ifvqek0","pricing_plan_id":"cebpf4jnsgd1na2vs0mg"},{"bike_id":"e8c0402c-dfc2-4ad4-8223-18898cbb4324","system_id":"levelo_inurba_marseille","lat":43.29166,"lon":5.37164,"is_reserved":false,"is_disabled":false,"rental_uris":{"android":"levelo://app?vid=e8c0402c-dfc2-4ad4-8223-18898cbb4324","ios":"levelo://app?vid=e8c0402c-dfc2-4ad4-8223-18898cbb4324"},"vehicle_type_id":"4","last_reported":1731913838,"current_range_meters":10000,"station_id":"ce4bha92rcd13ifvqeh0","pricing_plan_id":"cebpf4jnsgd1na2vs0mg"},{"bike_id":"6a8eb21a-2c73-4f07-924b-4f287394a42c","system_id":"levelo_inurba_marseille","lat":43.28939,"lon":5.36644,"is_reserved":false,"is_disabled":false,"rental_uris":{"android":"levelo://app?vid=6a8eb21a-2c73-4f07-924b-4f287394a42c","ios":"levelo://app?vid=6a8eb21a-2c73-4f07-924b-4f287394a42c"},"vehicle_type_id":"4","last_reported":1731913838,"current_range_meters":34800,"station_id":"ce4bhap2rcd13ifvqek0","pricing_plan_id":"cebpf4jnsgd1na2vs0mg"},{"bike_id":"5cb7f118-0392-4fe3-b80b-10a0fe2c0ae0","system_id":"levelo_inurba_marseille","lat":43.298,"lon":5.38086,"is_reserved":false,"is_disabled":false,"rental_uris":{"android":"levelo://app?vid=5cb7f118-0392-4fe3-b80b-10a0fe2c0ae0","ios":"levelo://app?vid=5cb7f118-0392-4fe3-b80b-10a0fe2c0ae0"},"vehicle_type_id":"4","last_reported":1731913838,"current_range_meters":21600,"station_id":"ce4bgip2rcd13ifvqbb0","pricing_plan_id":"cebpf4jnsgd1na2vs0mg"},{"bike_id":"42577732-b5e3-4ee1-9187-b64b0cc1857d","system_id":"levelo_inurba_marseille","lat":43.289337,"lon":5.396307,"is_reserved":false,"is_disabled":false,"rental_uris":{"android":"levelo://app?vid=42577732-b5e3-4ee1-9187-b64b0cc1857d","ios":"levelo://app?vid=42577732-b5e3-4ee1-9187-b64b0cc1857d"},"vehicle_type_id":"4","last_reported":1731913838,"current_range_meters":26000,"station_id":"ce4bhdp2rcd13ifvqf20","pricing_plan_id":"cebpf4jnsgd1na2vs0mg"},{"bike_id":"aa1298a1-2453-4873-ab0e-6f99dd6e96bb","system_id":"levelo_inurba_marseille","lat":43.33023,"lon":5.39041,"is_reserved":false,"is_disabled":false,"rental_uris":{"android":"levelo://app?vid=aa1298a1-2453-4873-ab0e-6f99dd6e96bb","ios":"levelo://app?vid=aa1298a1-2453-4873-ab0e-6f99dd6e96bb"},"vehicle_type_id":"4","last_reported":1731913838,"current_range_meters":10000,"station_id":"ce4bhr92rcd13ifvqhrg","pricing_plan_id":"cebpf4jnsgd1na2vs0mg"},{"bike_id":"8b5bf4f1-e6a0-4745-a305-c6af6e004e7d","system_id":"levelo_inurba_marseille","lat":43.33605,"lon":5.41036,"is_reserved":false,"is_disabled":false,"rental_uris":{"android":"levelo://app?vid=8b5bf4f1-e6a0-4745-a305-c6af6e004e7d","ios":"levelo://app?vid=8b5bf4f1-e6a0-4745-a305-c6af6e004e7d"},"vehicle_type_id":"4","last_reported":1731913838,"current_range_meters":25600,"station_id":"ce4bhqh2rcd13ifvqhmg","pricing_plan_id":"cebpf4jnsgd1na2vs0mg"},{"bike_id":"7c98e0a9-8a05-4c51-84e1-8e2ad06176a0","system_id":"levelo_inurba_marseille","lat":43.325404,"lon":5.414245,"is_reserved":false,"is_disabled":false,"rental_uris":{"android":"levelo://app?vid=7c98e0a9-8a05-4c51-84e1-8e2ad06176a0","ios":"levelo://app?vid=7c98e0a9-8a05-4c51-84e1-8e2ad06176a0"},"vehicle_type_id":"4","last_reported":1731913838,"current_range_meters":36800,"station_id":"ce4bhq12rcd13ifvqhhg","pricing_plan_id":"cebpf4jnsgd1na2vs0mg"},{"bike_id":"dbf4a046-ec4b-42a2-89d2-1a2f6e4b54e9","system_id":"levelo_inurba_marseille","lat":43.3127,"lon":5.40162,"is_reserved":false,"is_disabled":false,"rental_uris":{"android":"levelo://app?vid=dbf4a046-ec4b-42a2-89d2-1a2f6e4b54e9","ios":"levelo://app?vid=dbf4a046-ec4b-42a2-89d2-1a2f6e4b54e9"},"vehicle_type_id":"4","last_reported":1731913838,"current_range_meters":38800,"station_id":"ce4bh092rcd13ifvqd30","pricing_plan_id":"cebpf4jnsgd1na2vs0mg"},{"bike_id":"c33577fd-b8c9-4bc5-897b-b187d9c8af63","system_id":"levelo_inurba_marseille","lat":43.30151,"lon":5.38086,"is_reserved":false,"is_disabled":false,"rental_uris":{"android":"levelo://app?vid=c33577fd-b8c9-4bc5-897b-b187d9c8af63","ios":"levelo://app?vid=c33577fd-b8c9-4bc5-897b-b187d9c8af63"},"vehicle_type_id":"4","last_reported":1731913838,"current_range_meters":38800,"station_id":"ce4bgjp2rcd13ifvqbh0","pricing_plan_id":"cebpf4jnsgd1na2vs0mg"},{"bike_id":"4beecdfb-03a6-4977-b6f7-92a42eebb219","system_id":"levelo_inurba_marseille","lat":43.28419,"lon":5.34985,"is_reserved":false,"is_disabled":false,"rental_uris":{"android":"levelo://app?vid=4beecdfb-03a6-4977-b6f7-92a42eebb219","ios":"levelo://app?vid=4beecdfb-03a6-4977-b6f7-92a42eebb219"},"vehicle_type_id":"4","last_reported":1731913838,"current_range_meters":30000,"station_id":"ce4bhbh2rcd13ifvqepg","pricing_plan_id":"cebpf4jnsgd1na2vs0mg"},{"bike_id":"1b441a5d-fcf3-4cb1-9707-fd87ad14e96d","system_id":"levelo_inurba_marseille","lat":43.24068,"lon":5.37769,"is_reserved":false,"is_disabled":false,"rental_uris":{"android":"levelo://app?vid=1b441a5d-fcf3-4cb1-9707-fd87ad14e96d","ios":"levelo://app?vid=1b441a5d-fcf3-4cb1-9707-fd87ad14e96d"},"vehicle_type_id":"4","last_reported":1731913838,"current_range_meters":14000,"station_id":"ce4bhnp2rcd13ifvqgvg","pricing_plan_id":"cebpf4jnsgd1na2vs0mg"},{"bike_id":"5f606a05-470c-4591-a469-38f93f2ee8ee","system_id":"levelo_inurba_marseille","lat":43.30474,"lon":5.37912,"is_reserved":false,"is_disabled":false,"rental_uris":{"android":"levelo://app?vid=5f606a05-470c-4591-a469-38f93f2ee8ee","ios":"levelo://app?vid=5f606a05-470c-4591-a469-38f93f2ee8ee"},"vehicle_type_id":"4","last_reported":1731913838,"current_range_meters":28000,"station_id":"ce4bgup2rcd13ifvqcn0","pricing_plan_id":"cebpf4jnsgd1na2vs0mg"},{"bike_id":"22ea48db-755d-43c3-a7d2-0beff01815d8","system_id":"levelo_inurba_marseille","lat":43.337634,"lon":5.374378,"is_reserved":false,"is_disabled":false,"rental_uris":{"android":"levelo://app?vid=22ea48db-755d-43c3-a7d2-0beff01815d8","ios":"levelo://app?vid=22ea48db-755d-43c3-a7d2-0beff01815d8"},"vehicle_type_id":"4","last_reported":1731913838,"current_range_meters":5600,"station_id":"","pricing_plan_id":"cebpf4jnsgd1na2vs0mg"},{"bike_id":"aecc4287-c06e-47b4-9b3c-ac3c29f50e28","system_id":"levelo_inurba_marseille","lat":43.2903,"lon":5.38651,"is_reserved":false,"is_disabled":false,"rental_uris":{"android":"levelo://app?vid=aecc4287-c06e-47b4-9b3c-ac3c29f50e28","ios":"levelo://app?vid=aecc4287-c06e-47b4-9b3c-ac3c29f50e28"},"vehicle_type_id":"4","last_reported":1731913838,"current_range_meters":32400,"station_id":"ce4bh4p2rcd13ifvqe0g","pricing_plan_id":"cebpf4jnsgd1na2vs0mg"},{"bike_id":"47896e4a-0277-494a-829f-7496dab7852d","system_id":"levelo_inurba_marseille","lat":43.29793,"lon":5.3811,"is_reserved":false,"is_disabled":false,"rental_uris":{"android":"levelo://app?vid=47896e4a-0277-494a-829f-7496dab7852d","ios":"levelo://app?vid=47896e4a-0277-494a-829f-7496dab7852d"},"vehicle_type_id":"4","last_reported":1731913838,"current_range_meters":31200,"station_id":"ce4bgip2rcd13ifvqbb0","pricing_plan_id":"cebpf4jnsgd1na2vs0mg"},{"bike_id":"8891eb82-3520-475e-82b8-b1c307e8095a","system_id":"levelo_inurba_marseille","lat":43.33019,"lon":5.3903,"is_reserved":false,"is_disabled":false,"rental_uris":{"android":"levelo://app?vid=8891eb82-3520-475e-82b8-b1c307e8095a","ios":"levelo://app?vid=8891eb82-3520-475e-82b8-b1c307e8095a"},"vehicle_type_id":"4","last_reported":1731913838,"current_range_meters":24800,"station_id":"ce4bhr92rcd13ifvqhrg","pricing_plan_id":"cebpf4jnsgd1na2vs0mg"},{"bike_id":"d5e12ea9-baf0-44b2-89c6-7631d364c62f","system_id":"levelo_inurba_marseille","lat":43.2583,"lon":5.39435,"is_reserved":false,"is_disabled":false,"rental_uris":{"android":"levelo://app?vid=d5e12ea9-baf0-44b2-89c6-7631d364c62f","ios":"levelo://app?vid=d5e12ea9-baf0-44b2-89c6-7631d364c62f"},"vehicle_type_id":"4","last_reported":1731913838,"current_range_meters":36400,"station_id":"ce4bhip2rcd13ifvqft0","pricing_plan_id":"cebpf4jnsgd1na2vs0mg"},{"bike_id":"7b6580a3-d9c9-42ef-addf-9187ef7f83c4","system_id":"levelo_inurba_marseille","lat":43.30469,"lon":5.37897,"is_reserved":false,"is_disabled":false,"rental_uris":{"android":"levelo://app?vid=7b6580a3-d9c9-42ef-addf-9187ef7f83c4","ios":"levelo://app?vid=7b6580a3-d9c9-42ef-addf-9187ef7f83c4"},"vehicle_type_id":"4","last_reported":1731913838,"current_range_meters":9600,"station_id":"ce4bgup2rcd13ifvqcn0","pricing_plan_id":"cebpf4jnsgd1na2vs0mg"},{"bike_id":"29ec188a-f565-4617-9a87-d26899076666","system_id":"levelo_inurba_marseille","lat":43.29175,"lon":5.39946,"is_reserved":false,"is_disabled":false,"rental_uris":{"android":"levelo://app?vid=29ec188a-f565-4617-9a87-d26899076666","ios":"levelo://app?vid=29ec188a-f565-4617-9a87-d26899076666"},"vehicle_type_id":"4","last_reported":1731913838,"current_range_meters":24400,"station_id":"ce4bh392rcd13ifvqdm0","pricing_plan_id":"cebpf4jnsgd1na2vs0mg"},{"bike_id":"ca655f3b-8380-4045-b3f8-8acaa0e83ede","system_id":"levelo_inurba_marseille","lat":43.33739,"lon":5.37423,"is_reserved":false,"is_disabled":false,"rental_uris":{"android":"levelo://app?vid=ca655f3b-8380-4045-b3f8-8acaa0e83ede","ios":"levelo://app?vid=ca655f3b-8380-4045-b3f8-8acaa0e83ede"},"vehicle_type_id":"4","last_reported":1731913838,"current_range_meters":29600,"station_id":"","pricing_plan_id":"cebpf4jnsgd1na2vs0mg"},{"bike_id":"865b2cd9-fd95-4061-9985-6507061a9150","system_id":"levelo_inurba_marseille","lat":43.27825,"lon":5.39206,"is_reserved":false,"is_disabled":false,"rental_uris":{"android":"levelo://app?vid=865b2cd9-fd95-4061-9985-6507061a9150","ios":"levelo://app?vid=865b2cd9-fd95-4061-9985-6507061a9150"},"vehicle_type_id":"4","last_reported":1731913838,"current_range_meters":38000,"station_id":"ce4bhjp2rcd13ifvqga0","pricing_plan_id":"cebpf4jnsgd1na2vs0mg"},{"bike_id":"a6b8c285-acc9-4039-9531-1aae39136a33","system_id":"levelo_inurba_marseille","lat":43.312042,"lon":5.367348,"is_reserved":false,"is_disabled":false,"rental_uris":{"android":"levelo://app?vid=a6b8c285-acc9-4039-9531-1aae39136a33","ios":"levelo://app?vid=a6b8c285-acc9-4039-9531-1aae39136a33"},"vehicle_type_id":"4","last_reported":1731913838,"current_range_meters":6800,"station_id":"","pricing_plan_id":"cebpf4jnsgd1na2vs0mg"},{"bike_id":"8732dc48-0ead-4fbf-abd3-bc444cb9a620","system_id":"levelo_inurba_marseille","lat":43.32114,"lon":5.3678,"is_reserved":false,"is_disabled":false,"rental_uris":{"android":"levelo://app?vid=8732dc48-0ead-4fbf-abd3-bc444cb9a620","ios":"levelo://app?vid=8732dc48-0ead-4fbf-abd3-bc444cb9a620"},"vehicle_type_id":"4","last_reported":1731913838,"current_range_meters":38000,"station_id":"ce4bhrh2rcd13ifvqhug","pricing_plan_id":"cebpf4jnsgd1na2vs0mg"},{"bike_id":"b3d912f0-09f7-443a-9b4e-81657f6bc4fd","system_id":"levelo_inurba_marseille","lat":43.24069,"lon":5.37766,"is_reserved":false,"is_disabled":false,"rental_uris":{"android":"levelo://app?vid=b3d912f0-09f7-443a-9b4e-81657f6bc4fd","ios":"levelo://app?vid=b3d912f0-09f7-443a-9b4e-81657f6bc4fd"},"vehicle_type_id":"4","last_reported":1731913838,"current_range_meters":27200,"station_id":"ce4bhnp2rcd13ifvqgvg","pricing_plan_id":"cebpf4jnsgd1na2vs0mg"},{"bike_id":"3e8f8de7-3ee6-4a31-b72b-08490f801121","system_id":"levelo_inurba_marseille","lat":43.278175,"lon":5.407155,"is_reserved":false,"is_disabled":false,"rental_uris":{"android":"levelo://app?vid=3e8f8de7-3ee6-4a31-b72b-08490f801121","ios":"levelo://app?vid=3e8f8de7-3ee6-4a31-b72b-08490f801121"},"vehicle_type_id":"4","last_reported":1731913838,"current_range_meters":36800,"station_id":"ce4bhnh2rcd13ifvqgtg","pricing_plan_id":"cebpf4jnsgd1na2vs0mg"},{"bike_id":"71f13507-0980-42f0-ae7a-bd3bf2600327","system_id":"levelo_inurba_marseille","lat":43.23186,"lon":5.39979,"is_reserved":false,"is_disabled":false,"rental_uris":{"android":"levelo://app?vid=71f13507-0980-42f0-ae7a-bd3bf2600327","ios":"levelo://app?vid=71f13507-0980-42f0-ae7a-bd3bf2600327"},"vehicle_type_id":"4","last_reported":1731913838,"current_range_meters":38000,"station_id":"ce4bhn12rcd13ifvqgqg","pricing_plan_id":"cebpf4jnsgd1na2vs0mg"},{"bike_id":"9af3cdec-4f63-4439-b320-1cf5e6351989","system_id":"levelo_inurba_marseille","lat":43.26304,"lon":5.37391,"is_reserved":false,"is_disabled":false,"rental_uris":{"android":"levelo://app?vid=9af3cdec-4f63-4439-b320-1cf5e6351989","ios":"levelo://app?vid=9af3cdec-4f63-4439-b320-1cf5e6351989"},"vehicle_type_id":"4","last_reported":1731913838,"current_range_meters":27600,"station_id":"","pricing_plan_id":"cebpf4jnsgd1na2vs0mg"},{"bike_id":"8c19b2d4-a3cd-45ab-a3d3-1f5f9c12afc6","system_id":"levelo_inurba_marseille","lat":43.3036,"lon":5.38585,"is_reserved":false,"is_disabled":false,"rental_uris":{"android":"levelo://app?vid=8c19b2d4-a3cd-45ab-a3d3-1f5f9c12afc6","ios":"levelo://app?vid=8c19b2d4-a3cd-45ab-a3d3-1f5f9c12afc6"},"vehicle_type_id":"4","last_reported":1731913838,"current_range_meters":35200,"station_id":"","pricing_plan_id":"cebpf4jnsgd1na2vs0mg"},{"bike_id":"aecb0585-6748-4522-8433-9a08ac38f104","system_id":"levelo_inurba_marseille","lat":43.30152,"lon":5.38075,"is_reserved":false,"is_disabled":false,"rental_uris":{"android":"levelo://app?vid=aecb0585-6748-4522-8433-9a08ac38f104","ios":"levelo://app?vid=aecb0585-6748-4522-8433-9a08ac38f104"},"vehicle_type_id":"4","last_reported":1731913838,"current_range_meters":38000,"station_id":"ce4bgjp2rcd13ifvqbh0","pricing_plan_id":"cebpf4jnsgd1na2vs0mg"},{"bike_id":"05ccbef7-43cf-4daa-af4c-483d919c0c14","system_id":"levelo_inurba_marseille","lat":43.2417,"lon":5.36396,"is_reserved":false,"is_disabled":false,"rental_uris":{"android":"levelo://app?vid=05ccbef7-43cf-4daa-af4c-483d919c0c14","ios":"levelo://app?vid=05ccbef7-43cf-4daa-af4c-483d919c0c14"},"vehicle_type_id":"4","last_reported":1731913838,"current_range_meters":32000,"station_id":"cpo36qri1sfpv3e86is0","pricing_plan_id":"cebpf4jnsgd1na2vs0mg"},{"bike_id":"4c25b533-6a82-4040-9d4a-8a16c7e39d17","system_id":"levelo_inurba_marseille","lat":43.26979,"lon":5.38647,"is_reserved":false,"is_disabled":false,"rental_uris":{"android":"levelo://app?vid=4c25b533-6a82-4040-9d4a-8a16c7e39d17","ios":"levelo://app?vid=4c25b533-6a82-4040-9d4a-8a16c7e39d17"},"vehicle_type_id":"4","last_reported":1731913838,"current_range_meters":18000,"station_id":"ce4bhh92rcd13ifvqfh0","pricing_plan_id":"cebpf4jnsgd1na2vs0mg"},{"bike_id":"c51f4d7b-b912-4619-a0f6-68e640c96bcd","system_id":"levelo_inurba_marseille","lat":43.313843,"lon":5.368173,"is_reserved":false,"is_disabled":false,"rental_uris":{"android":"levelo://app?vid=c51f4d7b-b912-4619-a0f6-68e640c96bcd","ios":"levelo://app?vid=c51f4d7b-b912-4619-a0f6-68e640c96bcd"},"vehicle_type_id":"4","last_reported":1731913838,"current_range_meters":24800,"station_id":"ce4bgr92rcd13ifvqc6g","pricing_plan_id":"cebpf4jnsgd1na2vs0mg"},{"bike_id":"92ac4858-87d6-4ceb-8f6e-004635a816a8","system_id":"levelo_inurba_marseille","lat":43.27789,"lon":5.40729,"is_reserved":false,"is_disabled":false,"rental_uris":{"android":"levelo://app?vid=92ac4858-87d6-4ceb-8f6e-004635a816a8","ios":"levelo://app?vid=92ac4858-87d6-4ceb-8f6e-004635a816a8"},"vehicle_type_id":"4","last_reported":1731913838,"current_range_meters":24000,"station_id":"ce4bhnh2rcd13ifvqgtg","pricing_plan_id":"cebpf4jnsgd1na2vs0mg"},{"bike_id":"eb628f90-9415-4f42-92cf-2fe66daf4acb","system_id":"levelo_inurba_marseille","lat":43.27948,"lon":5.41047,"is_reserved":false,"is_disabled":false,"rental_uris":{"android":"levelo://app?vid=eb628f90-9415-4f42-92cf-2fe66daf4acb","ios":"levelo://app?vid=eb628f90-9415-4f42-92cf-2fe66daf4acb"},"vehicle_type_id":"4","last_reported":1731913838,"current_range_meters":38800,"station_id":"ce4bhnp2rcd13ifvqh0g","pricing_plan_id":"cebpf4jnsgd1na2vs0mg"},{"bike_id":"bf5881fa-4d9d-4dc8-b253-41223199274e","system_id":"levelo_inurba_marseille","lat":43.24646,"lon":5.388896,"is_reserved":false,"is_disabled":false,"rental_uris":{"android":"levelo://app?vid=bf5881fa-4d9d-4dc8-b253-41223199274e","ios":"levelo://app?vid=bf5881fa-4d9d-4dc8-b253-41223199274e"},"vehicle_type_id":"4","last_reported":1731913838,"current_range_meters":30000,"station_id":"ce4bhn12rcd13ifvqgpg","pricing_plan_id":"cebpf4jnsgd1na2vs0mg"},{"bike_id":"f0807c37-aebe-482f-bd78-e37a651ba71c","system_id":"levelo_inurba_marseille","lat":43.31174,"lon":5.40111,"is_reserved":false,"is_disabled":false,"rental_uris":{"android":"levelo://app?vid=f0807c37-aebe-482f-bd78-e37a651ba71c","ios":"levelo://app?vid=f0807c37-aebe-482f-bd78-e37a651ba71c"},"vehicle_type_id":"4","last_reported":1731913838,"current_range_meters":9200,"station_id":"","pricing_plan_id":"cebpf4jnsgd1na2vs0mg"},{"bike_id":"ec2351d1-10f8-43e0-aebc-df5382abbad8","system_id":"levelo_inurba_marseille","lat":43.23154,"lon":5.43723,"is_reserved":false,"is_disabled":false,"rental_uris":{"android":"levelo://app?vid=ec2351d1-10f8-43e0-aebc-df5382abbad8","ios":"levelo://app?vid=ec2351d1-10f8-43e0-aebc-df5382abbad8"},"vehicle_type_id":"4","last_reported":1731913838,"current_range_meters":22400,"station_id":"ce4bhmp2rcd13ifvqgog","pricing_plan_id":"cebpf4jnsgd1na2vs0mg"},{"bike_id":"7465bc4b-7341-47ef-959d-45c0a1d37e4c","system_id":"levelo_inurba_marseille","lat":43.24079,"lon":5.37731,"is_reserved":false,"is_disabled":false,"rental_uris":{"android":"levelo://app?vid=7465bc4b-7341-47ef-959d-45c0a1d37e4c","ios":"levelo://app?vid=7465bc4b-7341-47ef-959d-45c0a1d37e4c"},"vehicle_type_id":"4","last_reported":1731913838,"current_range_meters":25600,"station_id":"ce4bhnp2rcd13ifvqgvg","pricing_plan_id":"cebpf4jnsgd1na2vs0mg"},{"bike_id":"ed47ee70-605c-4ebe-b492-11cf3d5ceed1","system_id":"levelo_inurba_marseille","lat":43.31712,"lon":5.43709,"is_reserved":false,"is_disabled":false,"rental_uris":{"android":"levelo://app?vid=ed47ee70-605c-4ebe-b492-11cf3d5ceed1","ios":"levelo://app?vid=ed47ee70-605c-4ebe-b492-11cf3d5ceed1"},"vehicle_type_id":"4","last_reported":1731913838,"current_range_meters":38000,"station_id":"ce4bhp92rcd13ifvqhcg","pricing_plan_id":"cebpf4jnsgd1na2vs0mg"},{"bike_id":"a84f5389-258d-4508-9c0f-32ee5d326b43","system_id":"levelo_inurba_marseille","lat":43.33767,"lon":5.37475,"is_reserved":false,"is_disabled":false,"rental_uris":{"android":"levelo://app?vid=a84f5389-258d-4508-9c0f-32ee5d326b43","ios":"levelo://app?vid=a84f5389-258d-4508-9c0f-32ee5d326b43"},"vehicle_type_id":"4","last_reported":1731913838,"current_range_meters":26000,"station_id":"","pricing_plan_id":"cebpf4jnsgd1na2vs0mg"},{"bike_id":"b9c318e7-376c-4fa6-84aa-7dff96dfb532","system_id":"levelo_inurba_marseille","lat":43.30153,"lon":5.38086,"is_reserved":false,"is_disabled":false,"rental_uris":{"android":"levelo://app?vid=b9c318e7-376c-4fa6-84aa-7dff96dfb532","ios":"levelo://app?vid=b9c318e7-376c-4fa6-84aa-7dff96dfb532"},"vehicle_type_id":"4","last_reported":1731913838,"current_range_meters":9200,"station_id":"ce4bgjp2rcd13ifvqbh0","pricing_plan_id":"cebpf4jnsgd1na2vs0mg"},{"bike_id":"27236fc1-35de-4e6d-a04b-30e5573b8e74","system_id":"levelo_inurba_marseille","lat":43.29276,"lon":5.36849,"is_reserved":false,"is_disabled":false,"rental_uris":{"android":"levelo://app?vid=27236fc1-35de-4e6d-a04b-30e5573b8e74","ios":"levelo://app?vid=27236fc1-35de-4e6d-a04b-30e5573b8e74"},"vehicle_type_id":"4","last_reported":1731913838,"current_range_meters":28800,"station_id":"ce4bhbp2rcd13ifvqesg","pricing_plan_id":"cebpf4jnsgd1na2vs0mg"},{"bike_id":"8f426890-14c3-4f84-af0e-ede85f28b7aa","system_id":"levelo_inurba_marseille","lat":43.23149,"lon":5.4372,"is_reserved":false,"is_disabled":false,"rental_uris":{"android":"levelo://app?vid=8f426890-14c3-4f84-af0e-ede85f28b7aa","ios":"levelo://app?vid=8f426890-14c3-4f84-af0e-ede85f28b7aa"},"vehicle_type_id":"4","last_reported":1731913838,"current_range_meters":20000,"station_id":"ce4bhmp2rcd13ifvqgog","pricing_plan_id":"cebpf4jnsgd1na2vs0mg"},{"bike_id":"090ee16d-d915-4e55-a092-3526860b8952","system_id":"levelo_inurba_marseille","lat":43.26781,"lon":5.39418,"is_reserved":false,"is_disabled":false,"rental_uris":{"android":"levelo://app?vid=090ee16d-d915-4e55-a092-3526860b8952","ios":"levelo://app?vid=090ee16d-d915-4e55-a092-3526860b8952"},"vehicle_type_id":"4","last_reported":1731913838,"current_range_meters":38800,"station_id":"ce4bhh12rcd13ifvqfg0","pricing_plan_id":"cebpf4jnsgd1na2vs0mg"},{"bike_id":"ba4cfa6b-d262-4c5f-ad80-f1c569b77562","system_id":"levelo_inurba_marseille","lat":43.2572,"lon":5.41113,"is_reserved":false,"is_disabled":false,"rental_uris":{"android":"levelo://app?vid=ba4cfa6b-d262-4c5f-ad80-f1c569b77562","ios":"levelo://app?vid=ba4cfa6b-d262-4c5f-ad80-f1c569b77562"},"vehicle_type_id":"4","last_reported":1731913838,"current_range_meters":38000,"station_id":"ce4bhkp2rcd13ifvqgd0","pricing_plan_id":"cebpf4jnsgd1na2vs0mg"},{"bike_id":"65711c52-e7af-48e8-a24a-499d1791509a","system_id":"levelo_inurba_marseille","lat":43.29273,"lon":5.40115,"is_reserved":false,"is_disabled":false,"rental_uris":{"android":"levelo://app?vid=65711c52-e7af-48e8-a24a-499d1791509a","ios":"levelo://app?vid=65711c52-e7af-48e8-a24a-499d1791509a"},"vehicle_type_id":"4","last_reported":1731913838,"current_range_meters":27200,"station_id":"ce4bh312rcd13ifvqdk0","pricing_plan_id":"cebpf4jnsgd1na2vs0mg"},{"bike_id":"95b7222f-eb18-4b6a-8fe7-103e91bfc300","system_id":"levelo_inurba_marseille","lat":43.3265,"lon":5.40995,"is_reserved":false,"is_disabled":false,"rental_uris":{"android":"levelo://app?vid=95b7222f-eb18-4b6a-8fe7-103e91bfc300","ios":"levelo://app?vid=95b7222f-eb18-4b6a-8fe7-103e91bfc300"},"vehicle_type_id":"4","last_reported":1731913838,"current_range_meters":37600,"station_id":"ce4bhpp2rcd13ifvqhgg","pricing_plan_id":"cebpf4jnsgd1na2vs0mg"},{"bike_id":"2278ff27-67f2-4840-a242-2d6ee755536b","system_id":"levelo_inurba_marseille","lat":43.32487,"lon":5.36568,"is_reserved":false,"is_disabled":false,"rental_uris":{"android":"levelo://app?vid=2278ff27-67f2-4840-a242-2d6ee755536b","ios":"levelo://app?vid=2278ff27-67f2-4840-a242-2d6ee755536b"},"vehicle_type_id":"4","last_reported":1731913838,"current_range_meters":38800,"station_id":"ce4bhs12rcd13ifvqhvg","pricing_plan_id":"cebpf4jnsgd1na2vs0mg"},{"bike_id":"70bce780-771f-4c17-812f-060c6d1434d0","system_id":"levelo_inurba_marseille","lat":43.32658,"lon":5.40991,"is_reserved":false,"is_disabled":false,"rental_uris":{"android":"levelo://app?vid=70bce780-771f-4c17-812f-060c6d1434d0","ios":"levelo://app?vid=70bce780-771f-4c17-812f-060c6d1434d0"},"vehicle_type_id":"4","last_reported":1731913838,"current_range_meters":38000,"station_id":"ce4bhpp2rcd13ifvqhgg","pricing_plan_id":"cebpf4jnsgd1na2vs0mg"},{"bike_id":"c940eeaf-f04c-485a-9e51-e2aea0f9aac1","system_id":"levelo_inurba_marseille","lat":43.25109,"lon":5.40319,"is_reserved":false,"is_disabled":false,"rental_uris":{"android":"levelo://app?vid=c940eeaf-f04c-485a-9e51-e2aea0f9aac1","ios":"levelo://app?vid=c940eeaf-f04c-485a-9e51-e2aea0f9aac1"},"vehicle_type_id":"4","last_reported":1731913838,"current_range_meters":28800,"station_id":"cjm6bp8fraef2m0cb0m0","pricing_plan_id":"cebpf4jnsgd1na2vs0mg"},{"bike_id":"dc8dad01-cc55-4373-afd4-60bf47846071","system_id":"levelo_inurba_marseille","lat":43.29569,"lon":5.39974,"is_reserved":false,"is_disabled":false,"rental_uris":{"android":"levelo://app?vid=dc8dad01-cc55-4373-afd4-60bf47846071","ios":"levelo://app?vid=dc8dad01-cc55-4373-afd4-60bf47846071"},"vehicle_type_id":"4","last_reported":1731913838,"current_range_meters":36400,"station_id":"ce4bh312rcd13ifvqdj0","pricing_plan_id":"cebpf4jnsgd1na2vs0mg"},{"bike_id":"522e9503-b872-48f2-8fb5-d8348a9df819","system_id":"levelo_inurba_marseille","lat":43.31683,"lon":5.40471,"is_reserved":false,"is_disabled":false,"rental_uris":{"android":"levelo://app?vid=522e9503-b872-48f2-8fb5-d8348a9df819","ios":"levelo://app?vid=522e9503-b872-48f2-8fb5-d8348a9df819"},"vehicle_type_id":"4","last_reported":1731913838,"current_range_meters":25600,"station_id":"ce4bh012rcd13ifvqd00","pricing_plan_id":"cebpf4jnsgd1na2vs0mg"},{"bike_id":"aa6d6dd4-02af-4837-b7da-eda7b2534a85","system_id":"levelo_inurba_marseille","lat":43.30148,"lon":5.3808,"is_reserved":false,"is_disabled":false,"rental_uris":{"android":"levelo://app?vid=aa6d6dd4-02af-4837-b7da-eda7b2534a85","ios":"levelo://app?vid=aa6d6dd4-02af-4837-b7da-eda7b2534a85"},"vehicle_type_id":"4","last_reported":1731913838,"current_range_meters":20400,"station_id":"ce4bgjp2rcd13ifvqbh0","pricing_plan_id":"cebpf4jnsgd1na2vs0mg"},{"bike_id":"4c568693-c3dd-4d81-aed1-f86f3fc8e6d6","system_id":"levelo_inurba_marseille","lat":43.2417,"lon":5.36398,"is_reserved":false,"is_disabled":false,"rental_uris":{"android":"levelo://app?vid=4c568693-c3dd-4d81-aed1-f86f3fc8e6d6","ios":"levelo://app?vid=4c568693-c3dd-4d81-aed1-f86f3fc8e6d6"},"vehicle_type_id":"4","last_reported":1731913838,"current_range_meters":30400,"station_id":"cpo36qri1sfpv3e86is0","pricing_plan_id":"cebpf4jnsgd1na2vs0mg"},{"bike_id":"3cc1ea47-c169-427d-8e2b-1934c4fa5cf3","system_id":"levelo_inurba_marseille","lat":43.31208,"lon":5.38643,"is_reserved":false,"is_disabled":false,"rental_uris":{"android":"levelo://app?vid=3cc1ea47-c169-427d-8e2b-1934c4fa5cf3","ios":"levelo://app?vid=3cc1ea47-c169-427d-8e2b-1934c4fa5cf3"},"vehicle_type_id":"4","last_reported":1731913838,"current_range_meters":14800,"station_id":"ce4bgv12rcd13ifvqcp0","pricing_plan_id":"cebpf4jnsgd1na2vs0mg"},{"bike_id":"cb748eee-36fc-425b-bffb-e7ab2e92cba5","system_id":"levelo_inurba_marseille","lat":43.23189,"lon":5.39978,"is_reserved":false,"is_disabled":false,"rental_uris":{"android":"levelo://app?vid=cb748eee-36fc-425b-bffb-e7ab2e92cba5","ios":"levelo://app?vid=cb748eee-36fc-425b-bffb-e7ab2e92cba5"},"vehicle_type_id":"4","last_reported":1731913838,"current_range_meters":32400,"station_id":"ce4bhn12rcd13ifvqgqg","pricing_plan_id":"cebpf4jnsgd1na2vs0mg"},{"bike_id":"d69c5ed3-648a-4b09-b25d-14677f3dab39","system_id":"levelo_inurba_marseille","lat":43.29268,"lon":5.40132,"is_reserved":false,"is_disabled":false,"rental_uris":{"android":"levelo://app?vid=d69c5ed3-648a-4b09-b25d-14677f3dab39","ios":"levelo://app?vid=d69c5ed3-648a-4b09-b25d-14677f3dab39"},"vehicle_type_id":"4","last_reported":1731913838,"current_range_meters":30000,"station_id":"ce4bh312rcd13ifvqdk0","pricing_plan_id":"cebpf4jnsgd1na2vs0mg"},{"bike_id":"b591509b-ef57-4d5a-9dad-e9d4a79cb07c","system_id":"levelo_inurba_marseille","lat":43.30462,"lon":5.37905,"is_reserved":false,"is_disabled":false,"rental_uris":{"android":"levelo://app?vid=b591509b-ef57-4d5a-9dad-e9d4a79cb07c","ios":"levelo://app?vid=b591509b-ef57-4d5a-9dad-e9d4a79cb07c"},"vehicle_type_id":"4","last_reported":1731913838,"current_range_meters":39200,"station_id":"ce4bgup2rcd13ifvqcn0","pricing_plan_id":"cebpf4jnsgd1na2vs0mg"},{"bike_id":"6fe8590f-e391-4325-bdde-177e28f31a3e","system_id":"levelo_inurba_marseille","lat":43.33738,"lon":5.39187,"is_reserved":false,"is_disabled":false,"rental_uris":{"android":"levelo://app?vid=6fe8590f-e391-4325-bdde-177e28f31a3e","ios":"levelo://app?vid=6fe8590f-e391-4325-bdde-177e28f31a3e"},"vehicle_type_id":"4","last_reported":1731913838,"current_range_meters":38000,"station_id":"ce4bhr92rcd13ifvqhsg","pricing_plan_id":"cebpf4jnsgd1na2vs0mg"},{"bike_id":"9e0fe9ed-dad6-4dfe-8841-c783d6cac338","system_id":"levelo_inurba_marseille","lat":43.24085,"lon":5.37749,"is_reserved":false,"is_disabled":false,"rental_uris":{"android":"levelo://app?vid=9e0fe9ed-dad6-4dfe-8841-c783d6cac338","ios":"levelo://app?vid=9e0fe9ed-dad6-4dfe-8841-c783d6cac338"},"vehicle_type_id":"4","last_reported":1731913838,"current_range_meters":20000,"station_id":"ce4bhnp2rcd13ifvqgvg","pricing_plan_id":"cebpf4jnsgd1na2vs0mg"},{"bike_id":"80021477-a82e-4788-93f9-a1be5b876083","system_id":"levelo_inurba_marseille","lat":43.27499,"lon":5.42449,"is_reserved":false,"is_disabled":false,"rental_uris":{"android":"levelo://app?vid=80021477-a82e-4788-93f9-a1be5b876083","ios":"levelo://app?vid=80021477-a82e-4788-93f9-a1be5b876083"},"vehicle_type_id":"4","last_reported":1731913838,"current_range_meters":22800,"station_id":"ce4bhn92rcd13ifvqgrg","pricing_plan_id":"cebpf4jnsgd1na2vs0mg"},{"bike_id":"022f478e-da93-4eda-9d1b-2d0e36905c07","system_id":"levelo_inurba_marseille","lat":43.33756,"lon":5.37424,"is_reserved":false,"is_disabled":false,"rental_uris":{"android":"levelo://app?vid=022f478e-da93-4eda-9d1b-2d0e36905c07","ios":"levelo://app?vid=022f478e-da93-4eda-9d1b-2d0e36905c07"},"vehicle_type_id":"4","last_reported":1731913838,"current_range_meters":8000,"station_id":"","pricing_plan_id":"cebpf4jnsgd1na2vs0mg"},{"bike_id":"a8fcf094-5fe5-49b4-9267-632c49b4795f","system_id":"levelo_inurba_marseille","lat":43.24074,"lon":5.37756,"is_reserved":false,"is_disabled":false,"rental_uris":{"android":"levelo://app?vid=a8fcf094-5fe5-49b4-9267-632c49b4795f","ios":"levelo://app?vid=a8fcf094-5fe5-49b4-9267-632c49b4795f"},"vehicle_type_id":"4","last_reported":1731913838,"current_range_meters":19600,"station_id":"ce4bhnp2rcd13ifvqgvg","pricing_plan_id":"cebpf4jnsgd1na2vs0mg"},{"bike_id":"3c7108fb-85fe-43b6-95ce-e6a5e6d34b1a","system_id":"levelo_inurba_marseille","lat":43.33743,"lon":5.39186,"is_reserved":false,"is_disabled":false,"rental_uris":{"android":"levelo://app?vid=3c7108fb-85fe-43b6-95ce-e6a5e6d34b1a","ios":"levelo://app?vid=3c7108fb-85fe-43b6-95ce-e6a5e6d34b1a"},"vehicle_type_id":"4","last_reported":1731913838,"current_range_meters":25600,"station_id":"ce4bhr92rcd13ifvqhsg","pricing_plan_id":"cebpf4jnsgd1na2vs0mg"},{"bike_id":"6c6995ef-4f22-4696-82be-3b8534849911","system_id":"levelo_inurba_marseille","lat":43.28974,"lon":5.37842,"is_reserved":false,"is_disabled":false,"rental_uris":{"android":"levelo://app?vid=6c6995ef-4f22-4696-82be-3b8534849911","ios":"levelo://app?vid=6c6995ef-4f22-4696-82be-3b8534849911"},"vehicle_type_id":"4","last_reported":1731913838,"current_range_meters":38400,"station_id":"ce4bh9p2rcd13ifvqed0","pricing_plan_id":"cebpf4jnsgd1na2vs0mg"},{"bike_id":"bb0448af-76c6-41e2-82ae-02a80cf88ad1","system_id":"levelo_inurba_marseille","lat":43.29586,"lon":5.38105,"is_reserved":false,"is_disabled":false,"rental_uris":{"android":"levelo://app?vid=bb0448af-76c6-41e2-82ae-02a80cf88ad1","ios":"levelo://app?vid=bb0448af-76c6-41e2-82ae-02a80cf88ad1"},"vehicle_type_id":"4","last_reported":1731913838,"current_range_meters":10800,"station_id":"ce4bgl12rcd13ifvqbo0","pricing_plan_id":"cebpf4jnsgd1na2vs0mg"},{"bike_id":"29b44a50-8a2f-4b96-bb4c-0f37c012e526","system_id":"levelo_inurba_marseille","lat":43.28343,"lon":5.38116,"is_reserved":false,"is_disabled":false,"rental_uris":{"android":"levelo://app?vid=29b44a50-8a2f-4b96-bb4c-0f37c012e526","ios":"levelo://app?vid=29b44a50-8a2f-4b96-bb4c-0f37c012e526"},"vehicle_type_id":"4","last_reported":1731913838,"current_range_meters":18000,"station_id":"ce4bh412rcd13ifvqdr0","pricing_plan_id":"cebpf4jnsgd1na2vs0mg"},{"bike_id":"264d4ccb-6cb7-4402-a07c-ab581cd79e7e","system_id":"levelo_inurba_marseille","lat":43.26215,"lon":5.37439,"is_reserved":false,"is_disabled":false,"rental_uris":{"android":"levelo://app?vid=264d4ccb-6cb7-4402-a07c-ab581cd79e7e","ios":"levelo://app?vid=264d4ccb-6cb7-4402-a07c-ab581cd79e7e"},"vehicle_type_id":"4","last_reported":1731913838,"current_range_meters":34000,"station_id":"ce4bhgp2rcd13ifvqfc0","pricing_plan_id":"cebpf4jnsgd1na2vs0mg"},{"bike_id":"43155b5a-94b8-41f8-b3fe-ed8339ffbcce","system_id":"levelo_inurba_marseille","lat":43.27487,"lon":5.42463,"is_reserved":false,"is_disabled":false,"rental_uris":{"android":"levelo://app?vid=43155b5a-94b8-41f8-b3fe-ed8339ffbcce","ios":"levelo://app?vid=43155b5a-94b8-41f8-b3fe-ed8339ffbcce"},"vehicle_type_id":"4","last_reported":1731913838,"current_range_meters":38000,"station_id":"ce4bhn92rcd13ifvqgrg","pricing_plan_id":"cebpf4jnsgd1na2vs0mg"},{"bike_id":"1672a453-97b4-46ab-a570-cc7138ae4621","system_id":"levelo_inurba_marseille","lat":43.29258,"lon":5.38451,"is_reserved":false,"is_disabled":false,"rental_uris":{"android":"levelo://app?vid=1672a453-97b4-46ab-a570-cc7138ae4621","ios":"levelo://app?vid=1672a453-97b4-46ab-a570-cc7138ae4621"},"vehicle_type_id":"4","last_reported":1731913838,"current_range_meters":21600,"station_id":"ce4bh692rcd13ifvqea0","pricing_plan_id":"cebpf4jnsgd1na2vs0mg"},{"bike_id":"5a83965a-4ad6-4bcb-9014-086e1d307317","system_id":"levelo_inurba_marseille","lat":43.30594,"lon":5.3936,"is_reserved":false,"is_disabled":false,"rental_uris":{"android":"levelo://app?vid=5a83965a-4ad6-4bcb-9014-086e1d307317","ios":"levelo://app?vid=5a83965a-4ad6-4bcb-9014-086e1d307317"},"vehicle_type_id":"4","last_reported":1731913838,"current_range_meters":28400,"station_id":"ce4bh0p2rcd13ifvqd80","pricing_plan_id":"cebpf4jnsgd1na2vs0mg"},{"bike_id":"cfc417db-eb20-46fa-87f4-fca85d0c4d1d","system_id":"levelo_inurba_marseille","lat":43.27493,"lon":5.42453,"is_reserved":false,"is_disabled":false,"rental_uris":{"android":"levelo://app?vid=cfc417db-eb20-46fa-87f4-fca85d0c4d1d","ios":"levelo://app?vid=cfc417db-eb20-46fa-87f4-fca85d0c4d1d"},"vehicle_type_id":"4","last_reported":1731913838,"current_range_meters":21600,"station_id":"ce4bhn92rcd13ifvqgrg","pricing_plan_id":"cebpf4jnsgd1na2vs0mg"},{"bike_id":"dd8571da-06f6-4a0b-b260-41968a730493","system_id":"levelo_inurba_marseille","lat":43.29291,"lon":5.40121,"is_reserved":false,"is_disabled":false,"rental_uris":{"android":"levelo://app?vid=dd8571da-06f6-4a0b-b260-41968a730493","ios":"levelo://app?vid=dd8571da-06f6-4a0b-b260-41968a730493"},"vehicle_type_id":"4","last_reported":1731913838,"current_range_meters":35200,"station_id":"ce4bh312rcd13ifvqdk0","pricing_plan_id":"cebpf4jnsgd1na2vs0mg"},{"bike_id":"c836664f-b395-468c-a338-2bd168fe8302","system_id":"levelo_inurba_marseille","lat":43.292973,"lon":5.374658,"is_reserved":false,"is_disabled":false,"rental_uris":{"android":"levelo://app?vid=c836664f-b395-468c-a338-2bd168fe8302","ios":"levelo://app?vid=c836664f-b395-468c-a338-2bd168fe8302"},"vehicle_type_id":"4","last_reported":1731913838,"current_range_meters":38000,"station_id":"ce4bhc92rcd13ifvqetg","pricing_plan_id":"cebpf4jnsgd1na2vs0mg"},{"bike_id":"2db6bd29-7ed1-4e85-8f76-220f03552613","system_id":"levelo_inurba_marseille","lat":43.28289,"lon":5.35063,"is_reserved":false,"is_disabled":false,"rental_uris":{"android":"levelo://app?vid=2db6bd29-7ed1-4e85-8f76-220f03552613","ios":"levelo://app?vid=2db6bd29-7ed1-4e85-8f76-220f03552613"},"vehicle_type_id":"4","last_reported":1731913838,"current_range_meters":24400,"station_id":"ce4bhbp2rcd13ifvqerg","pricing_plan_id":"cebpf4jnsgd1na2vs0mg"},{"bike_id":"0716bab9-bb6d-43eb-8259-3defd4bc47ab","system_id":"levelo_inurba_marseille","lat":43.31272,"lon":5.40176,"is_reserved":false,"is_disabled":false,"rental_uris":{"android":"levelo://app?vid=0716bab9-bb6d-43eb-8259-3defd4bc47ab","ios":"levelo://app?vid=0716bab9-bb6d-43eb-8259-3defd4bc47ab"},"vehicle_type_id":"4","last_reported":1731913838,"current_range_meters":37600,"station_id":"ce4bh092rcd13ifvqd30","pricing_plan_id":"cebpf4jnsgd1na2vs0mg"},{"bike_id":"a3d98d77-92cc-4a58-b469-0632bebf6c0a","system_id":"levelo_inurba_marseille","lat":43.24418,"lon":5.40329,"is_reserved":false,"is_disabled":false,"rental_uris":{"android":"levelo://app?vid=a3d98d77-92cc-4a58-b469-0632bebf6c0a","ios":"levelo://app?vid=a3d98d77-92cc-4a58-b469-0632bebf6c0a"},"vehicle_type_id":"4","last_reported":1731913838,"current_range_meters":3600,"station_id":"","pricing_plan_id":"cebpf4jnsgd1na2vs0mg"},{"bike_id":"184105c4-069d-4818-8142-3034aad128b1","system_id":"levelo_inurba_marseille","lat":43.30082,"lon":5.39077,"is_reserved":false,"is_disabled":false,"rental_uris":{"android":"levelo://app?vid=184105c4-069d-4818-8142-3034aad128b1","ios":"levelo://app?vid=184105c4-069d-4818-8142-3034aad128b1"},"vehicle_type_id":"4","last_reported":1731913838,"current_range_meters":8800,"station_id":"ce4bh192rcd13ifvqdb0","pricing_plan_id":"cebpf4jnsgd1na2vs0mg"},{"bike_id":"d31a5fa5-4d20-4216-9562-3d91b448f9f1","system_id":"levelo_inurba_marseille","lat":43.30539,"lon":5.36555,"is_reserved":false,"is_disabled":false,"rental_uris":{"android":"levelo://app?vid=d31a5fa5-4d20-4216-9562-3d91b448f9f1","ios":"levelo://app?vid=d31a5fa5-4d20-4216-9562-3d91b448f9f1"},"vehicle_type_id":"4","last_reported":1731913838,"current_range_meters":18000,"station_id":"ce4bgs12rcd13ifvqcag","pricing_plan_id":"cebpf4jnsgd1na2vs0mg"},{"bike_id":"69d7719d-6825-423a-a3f9-766b86458100","system_id":"levelo_inurba_marseille","lat":43.291595,"lon":5.371912,"is_reserved":false,"is_disabled":false,"rental_uris":{"android":"levelo://app?vid=69d7719d-6825-423a-a3f9-766b86458100","ios":"levelo://app?vid=69d7719d-6825-423a-a3f9-766b86458100"},"vehicle_type_id":"4","last_reported":1731913838,"current_range_meters":16400,"station_id":"ce4bgjh2rcd13ifvqbg0","pricing_plan_id":"cebpf4jnsgd1na2vs0mg"},{"bike_id":"446434b0-2b97-4d2a-bb77-24a9f08ea6a8","system_id":"levelo_inurba_marseille","lat":43.29618,"lon":5.37173,"is_reserved":false,"is_disabled":false,"rental_uris":{"android":"levelo://app?vid=446434b0-2b97-4d2a-bb77-24a9f08ea6a8","ios":"levelo://app?vid=446434b0-2b97-4d2a-bb77-24a9f08ea6a8"},"vehicle_type_id":"4","last_reported":1731913838,"current_range_meters":38800,"station_id":"ce4bgnh2rcd13ifvqc0g","pricing_plan_id":"cebpf4jnsgd1na2vs0mg"},{"bike_id":"b32db045-6b2e-4b43-b641-9974c7ea47ea","system_id":"levelo_inurba_marseille","lat":43.30896,"lon":5.396625,"is_reserved":false,"is_disabled":false,"rental_uris":{"android":"levelo://app?vid=b32db045-6b2e-4b43-b641-9974c7ea47ea","ios":"levelo://app?vid=b32db045-6b2e-4b43-b641-9974c7ea47ea"},"vehicle_type_id":"4","last_reported":1731913838,"current_range_meters":24000,"station_id":"ce4bh392rcd13ifvqdm0","pricing_plan_id":"cebpf4jnsgd1na2vs0mg"},{"bike_id":"90bb2cae-4339-46de-973d-1d239b082c40","system_id":"levelo_inurba_marseille","lat":43.23184,"lon":5.39996,"is_reserved":false,"is_disabled":false,"rental_uris":{"android":"levelo://app?vid=90bb2cae-4339-46de-973d-1d239b082c40","ios":"levelo://app?vid=90bb2cae-4339-46de-973d-1d239b082c40"},"vehicle_type_id":"4","last_reported":1731913838,"current_range_meters":13600,"station_id":"ce4bhn12rcd13ifvqgqg","pricing_plan_id":"cebpf4jnsgd1na2vs0mg"},{"bike_id":"23e53495-ae33-4057-b2d0-3015b344b775","system_id":"levelo_inurba_marseille","lat":43.29798,"lon":5.40398,"is_reserved":false,"is_disabled":false,"rental_uris":{"android":"levelo://app?vid=23e53495-ae33-4057-b2d0-3015b344b775","ios":"levelo://app?vid=23e53495-ae33-4057-b2d0-3015b344b775"},"vehicle_type_id":"4","last_reported":1731913838,"current_range_meters":16800,"station_id":"ce4bh112rcd13ifvqd90","pricing_plan_id":"cebpf4jnsgd1na2vs0mg"},{"bike_id":"abdcdef1-5d4c-4ce8-8241-134be5e81e98","system_id":"levelo_inurba_marseille","lat":43.281462,"lon":5.426482,"is_reserved":false,"is_disabled":false,"rental_uris":{"android":"levelo://app?vid=abdcdef1-5d4c-4ce8-8241-134be5e81e98","ios":"levelo://app?vid=abdcdef1-5d4c-4ce8-8241-134be5e81e98"},"vehicle_type_id":"4","last_reported":1731913838,"current_range_meters":22400,"station_id":"ce4bhnh2rcd13ifvqgug","pricing_plan_id":"cebpf4jnsgd1na2vs0mg"},{"bike_id":"d8d0bb1f-7702-4932-be79-af1a2a1b70f3","system_id":"levelo_inurba_marseille","lat":43.28151,"lon":5.42634,"is_reserved":false,"is_disabled":false,"rental_uris":{"android":"levelo://app?vid=d8d0bb1f-7702-4932-be79-af1a2a1b70f3","ios":"levelo://app?vid=d8d0bb1f-7702-4932-be79-af1a2a1b70f3"},"vehicle_type_id":"4","last_reported":1731913838,"current_range_meters":38400,"station_id":"ce4bhnh2rcd13ifvqgug","pricing_plan_id":"cebpf4jnsgd1na2vs0mg"},{"bike_id":"cd132fb3-f299-47dc-82ae-58e54b44f6c7","system_id":"levelo_inurba_marseille","lat":43.33773,"lon":5.37424,"is_reserved":false,"is_disabled":false,"rental_uris":{"android":"levelo://app?vid=cd132fb3-f299-47dc-82ae-58e54b44f6c7","ios":"levelo://app?vid=cd132fb3-f299-47dc-82ae-58e54b44f6c7"},