{"last_updated":1685559875,"ttl":30,"version":"2.2","data":{"bikes":[{"bike_id":"a03e9a4c-f316-4ac9-8bd3-4e58fcc53501","system_id":"levelo_inurba_marseille","lat":43.312239,"lon":5.368562,"is_reserved":false,"is_disabled":false,"rental_uris":{"android":"levelo://app?vid=a03e9a4c-f316-4ac9-8bd3-4e58fcc53501","ios":"levelo://app?vid=a03e9a4c-f316-4ac9-8bd3-4e58fcc53501"},"vehicle_type_id":"4","last_reported":1685559876,"current_range_meters":10000,"station_id":"ce4bgl92rcd13ifvqbq0","pricing_plan_id":"free"},{"bike_id":"dc4ac442-35d1-47fb-a3d4-0ff7a853443a","system_id":"levelo_inurba_marseille","lat":43.309076,"lon":5.368465,"is_reserved":false,"is_disabled":false,"rental_uris":{"android":"levelo://app?vid=dc4ac442-35d1-47fb-a3d4-0ff7a853443a","ios":"levelo://app?vid=dc4ac442-35d1-47fb-a3d4-0ff7a853443a"},"vehicle_type_id":"4","last_reported":1685559876,"current_range_meters":14400,"station_id":"ce4bgn92rcd13ifvqbvg","pricing_plan_id":"free"},{"bike_id":"80fae448-9a5e-414e-9e50-9c142a8ff8c0","system_id":"levelo_inurba_marseille","lat":43.314811,"lon":5.373104,"is_reserved":false,"is_disabled":false,"rental_uris":{"android":"levelo://app?vid=80fae448-9a5e-414e-9e50-9c142a8ff8c0","ios":"levelo://app?vid=80fae448-9a5e-414e-9e50-9c142a8ff8c0"},"vehicle_type_id":"4","last_reported":1685559876,"current_range_meters":25200,"station_id":"ce4bgt12rcd13ifvqcd0","pricing_plan_id":"free"},{"bike_id":"c72e543d-4127-409e-9bef-39f1c52b9341","system_id":"levelo_inurba_marseille","lat":43.314811,"lon":5.373104,"is_reserved":false,"is_disabled":false,"rental_uris":{"android":"levelo://app?vid=c72e543d-4127-409e-9bef-39f1c52b9341","ios":"levelo://app?vid=c72e543d-4127-409e-9bef-39f1c52b9341"},"vehicle_type_id":"4","last_reported":1685559876,"current_range_meters":31200,"station_id":"ce4bgt12rcd13ifvqcd0","pricing_plan_id":"free"},{"bike_id":"7cab63a5-d9e9-4869-8052-c9bae06387b0","system_id":"levelo_inurba_marseille","lat":43.314811,"lon":5.373104,"is_reserved":false,"is_disabled":false,"rental_uris":{"android":"levelo://app?vid=7cab63a5-d9e9-4869-8052-c9bae06387b0","ios":"levelo://app?vid=7cab63a5-d9e9-4869-8052-c9bae06387b0"},"vehicle_type_id":"4","last_reported":1685559876,"current_range_meters":7600,"station_id":"ce4bgt12rcd13ifvqcd0","pricing_plan_id":"free"},{"bike_id":"31376484-6a04-4188-835a-210c41b8d35e","system_id":"levelo_inurba_marseille","lat":43.314811,"lon":5.373104,"is_reserved":false,"is_disabled":false,"rental_uris":{"android":"levelo://app?vid=31376484-6a04-4188-835a-210c41b8d35e","ios":"levelo://app?vid=31376484-6a04-4188-835a-210c41b8d35e"},"vehicle_type_id":"4","last_reported":1685559876,"current_range_meters":12800,"station_id":"ce4bgt12rcd13ifvqcd0","pricing_plan_id":"free"},{"bike_id":"d810ce61-c5eb-4ff0-b0d8-d029158f24e4","system_id":"levelo_inurba_marseille","lat":43.31499,"lon":5.37305,"is_reserved":false,"is_disabled":false,"rental_uris":{"android":"levelo://app?vid=d810ce61-c5eb-4ff0-b0d8-d029158f24e4","ios":"levelo://app?vid=d810ce61-c5eb-4ff0-b0d8-d029158f24e4"},"vehicle_type_id":"4","last_reported":1685559876,"current_range_meters":0,"station_id":"ce4bgt12rcd13ifvqcd0","pricing_plan_id":"free"},{"bike_id":"e71b5fc8-3769-4095-a62d-8f22200ec6d6","system_id":"levelo_inurba_marseille","lat":43.314811,"lon":5.373104,"is_reserved":false,"is_disabled":false,"rental_uris":{"android":"levelo://app?vid=e71b5fc8-3769-4095-a62d-8f22200ec6d6","ios":"levelo://app?vid=e71b5fc8-3769-4095-a62d-8f22200ec6d6"},"vehicle_type_id":"4","last_reported":1685559876,"current_range_meters":29200,"station_id":"ce4bgt12rcd13ifvqcd0","pricing_plan_id":"free"},{"bike_id":"f69a3f8a-adab-435a-ad98-4302ca7a3c35","system_id":"levelo_inurba_marseille","lat":43.31723,"lon":5.37087,"is_reserved":false,"is_disabled":false,"rental_uris":{"android":"levelo://app?vid=f69a3f8a-adab-435a-ad98-4302ca7a3c35","ios":"levelo://app?vid=f69a3f8a-adab-435a-ad98-4302ca7a3c35"},"vehicle_type_id":"4","last_reported":1685559876,"current_range_meters":16400,"station_id":"","pricing_plan_id":"free"},{"bike_id":"7e3a3019-1fce-4cba-926e-dcfb46e2287a","system_id":"levelo_inurba_marseille","lat":43.308614,"lon":5.372098,"is_reserved":false,"is_disabled":false,"rental_uris":{"android":"levelo://app?vid=7e3a3019-1fce-4cba-926e-dcfb46e2287a","ios":"levelo://app?vid=7e3a3019-1fce-4cba-926e-dcfb46e2287a"},"vehicle_type_id":"4","last_reported":1685559876,"current_range_meters":6400,"station_id":"ce4bguh2rcd13ifvqckg","pricing_plan_id":"free"},{"bike_id":"474d2b6e-e9b8-445d-923a-a6dff2fd4911","system_id":"levelo_inurba_marseille","lat":43.305368,"lon":5.367343,"is_reserved":false,"is_disabled":false,"rental_uris":{"android":"levelo://app?vid=474d2b6e-e9b8-445d-923a-a6dff2fd4911","ios":"levelo://app?vid=474d2b6e-e9b8-445d-923a-a6dff2fd4911"},"vehicle_type_id":"4","last_reported":1685559876,"current_range_meters":1200,"station_id":"ce4bgrp2rcd13ifvqc9g","pricing_plan_id":"free"},{"bike_id":"2e436361-2164-4679-b061-d77fbd415422","system_id":"levelo_inurba_marseille","lat":43.31871,"lon":5.37396,"is_reserved":false,"is_disabled":false,"rental_uris":{"android":"levelo://app?vid=2e436361-2164-4679-b061-d77fbd415422","ios":"levelo://app?vid=2e436361-2164-4679-b061-d77fbd415422"},"vehicle_type_id":"4","last_reported":1685559876,"current_range_meters":22000,"station_id":"","pricing_plan_id":"free"},{"bike_id":"025b4cd9-30a2-4d37-ae02-d0e8a97a43e9","system_id":"levelo_inurba_marseille","lat":43.311131,"lon":5.377651,"is_reserved":false,"is_disabled":false,"rental_uris":{"android":"levelo://app?vid=025b4cd9-30a2-4d37-ae02-d0e8a97a43e9","ios":"levelo://app?vid=025b4cd9-30a2-4d37-ae02-d0e8a97a43e9"},"vehicle_type_id":"4","last_reported":1685559876,"current_range_meters":10000,"station_id":"ce4bgt92rcd13ifvqcg0","pricing_plan_id":"free"},{"bike_id":"dc58f958-a228-4b35-be48-7e9ec1791273","system_id":"levelo_inurba_marseille","lat":43.317075,"lon":5.377367,"is_reserved":false,"is_disabled":false,"rental_uris":{"android":"levelo://app?vid=dc58f958-a228-4b35-be48-7e9ec1791273","ios":"levelo://app?vid=dc58f958-a228-4b35-be48-7e9ec1791273"},"vehicle_type_id":"4","last_reported":1685559876,"current_range_meters":4000,"station_id":"ce4bgth2rcd13ifvqch0","pricing_plan_id":"free"},{"bike_id":"bb71de6f-d9c5-42cf-a45c-d3f8d33deaa4","system_id":"levelo_inurba_marseille","lat":43.317075,"lon":5.377367,"is_reserved":false,"is_disabled":false,"rental_uris":{"android":"levelo://app?vid=bb71de6f-d9c5-42cf-a45c-d3f8d33deaa4","ios":"levelo://app?vid=bb71de6f-d9c5-42cf-a45c-d3f8d33deaa4"},"vehicle_type_id":"4","last_reported":1685559876,"current_range_meters":17600,"station_id":"ce4bgth2rcd13ifvqch0","pricing_plan_id":"free"},{"bike_id":"997919aa-2218-4b0d-ab25-41179850189a","system_id":"levelo_inurba_marseille","lat":43.30441,"lon":5.37103,"is_reserved":false,"is_disabled":false,"rental_uris":{"android":"levelo://app?vid=997919aa-2218-4b0d-ab25-41179850189a","ios":"levelo://app?vid=997919aa-2218-4b0d-ab25-41179850189a"},"vehicle_type_id":"4","last_reported":1685559876,"current_range_meters":3200,"station_id":"","pricing_plan_id":"free"},{"bike_id":"20fb1e6b-ef22-41d8-9250-11513a095df8","system_id":"levelo_inurba_marseille","lat":43.31002,"lon":5.38021,"is_reserved":false,"is_disabled":false,"rental_uris":{"android":"levelo://app?vid=20fb1e6b-ef22-41d8-9250-11513a095df8","ios":"levelo://app?vid=20fb1e6b-ef22-41d8-9250-11513a095df8"},"vehicle_type_id":"4","last_reported":1685559876,"current_range_meters":7600,"station_id":"","pricing_plan_id":"free"},{"bike_id":"894daf06-3b1b-48f4-8dc8-ebb8ac0730a4","system_id":"levelo_inurba_marseille","lat":43.301939,"lon":5.366286,"is_reserved":false,"is_disabled":false,"rental_uris":{"android":"levelo://app?vid=894daf06-3b1b-48f4-8dc8-ebb8ac0730a4","ios":"levelo://app?vid=894daf06-3b1b-48f4-8dc8-ebb8ac0730a4"},"vehicle_type_id":"4","last_reported":1685559876,"current_range_meters":26000,"station_id":"ce4bgrh2rcd13ifvqc8g","pricing_plan_id":"free"},{"bike_id":"7a8cd430-dd37-4a8d-b5ff-3141c9f698f4","system_id":"levelo_inurba_marseille","lat":43.31803,"lon":5.38151,"is_reserved":false,"is_disabled":false,"rental_uris":{"android":"levelo://app?vid=7a8cd430-dd37-4a8d-b5ff-3141c9f698f4","ios":"levelo://app?vid=7a8cd430-dd37-4a8d-b5ff-3141c9f698f4"},"vehicle_type_id":"4","last_reported":1685559876,"current_range_meters":4000,"station_id":"","pricing_plan_id":"free"},{"bike_id":"c4276daf-0211-485f-a822-26c3ab061cf5","system_id":"levelo_inurba_marseille","lat":43.30207,"lon":5.37443,"is_reserved":false,"is_disabled":false,"rental_uris":{"android":"levelo://app?vid=c4276daf-0211-485f-a822-26c3ab061cf5","ios":"levelo://app?vid=c4276daf-0211-485f-a822-26c3ab061cf5"},"vehicle_type_id":"4","last_reported":1685559876,"current_range_meters":13200,"station_id":"","pricing_plan_id":"free"},{"bike_id":"a608eb4a-1121-492f-8445-08c05e0a3f81","system_id":"levelo_inurba_marseille","lat":43.30057,"lon":5.36564,"is_reserved":false,"is_disabled":false,"rental_uris":{"android":"levelo://app?vid=a608eb4a-1121-492f-8445-08c05e0a3f81","ios":"levelo://app?vid=a608eb4a-1121-492f-8445-08c05e0a3f81"},"vehicle_type_id":"4","last_reported":1685559876,"current_range_meters":12400,"station_id":"","pricing_plan_id":"free"},{"bike_id":"e01879d8-a1ae-4492-94f9-0b5e4185c0af","system_id":"levelo_inurba_marseille","lat":43.3163,"lon":5.38328,"is_reserved":false,"is_disabled":false,"rental_uris":{"android":"levelo://app?vid=e01879d8-a1ae-4492-94f9-0b5e4185c0af","ios":"levelo://app?vid=e01879d8-a1ae-4492-94f9-0b5e4185c0af"},"vehicle_type_id":"4","last_reported":1685559876,"current_range_meters":0,"station_id":"","pricing_plan_id":"free"},{"bike_id":"d81a4dd2-5496-4ddd-ba80-4324dc22f878","system_id":"levelo_inurba_marseille","lat":43.31628,"lon":5.38329,"is_reserved":false,"is_disabled":false,"rental_uris":{"android":"levelo://app?vid=d81a4dd2-5496-4ddd-ba80-4324dc22f878","ios":"levelo://app?vid=d81a4dd2-5496-4ddd-ba80-4324dc22f878"},"vehicle_type_id":"4","last_reported":1685559876,"current_range_meters":22800,"station_id":"","pricing_plan_id":"free"},{"bike_id":"8122b6a2-1897-433f-8d73-049d77b58160","system_id":"levelo_inurba_marseille","lat":43.319935,"lon":5.381699,"is_reserved":false,"is_disabled":false,"rental_uris":{"android":"levelo://app?vid=8122b6a2-1897-433f-8d73-049d77b58160","ios":"levelo://app?vid=8122b6a2-1897-433f-8d73-049d77b58160"},"vehicle_type_id":"4","last_reported":1685559876,"current_range_meters":2400,"station_id":"ce4bhr12rcd13ifvqhpg","pricing_plan_id":"free"},{"bike_id":"9c4eb06a-e32f-4fed-8974-3a073e4fe459","system_id":"levelo_inurba_marseille","lat":43.319935,"lon":5.381699,"is_reserved":false,"is_disabled":false,"rental_uris":{"android":"levelo://app?vid=9c4eb06a-e32f-4fed-8974-3a073e4fe459","ios":"levelo://app?vid=9c4eb06a-e32f-4fed-8974-3a073e4fe459"},"vehicle_type_id":"4","last_reported":1685559876,"current_range_meters":9200,"station_id":"ce4bhr12rcd13ifvqhpg","pricing_plan_id":"free"},{"bike_id":"110165db-17fd-4468-a490-93eed0feb247","system_id":"levelo_inurba_marseille","lat":43.313571,"lon":5.384829,"is_reserved":false,"is_disabled":false,"rental_uris":{"android":"levelo://app?vid=110165db-17fd-4468-a490-93eed0feb247","ios":"levelo://app?vid=110165db-17fd-4468-a490-93eed0feb247"},"vehicle_type_id":"4","last_reported":1685559876,"current_range_meters":28400,"station_id":"ce4bgt92rcd13ifvqcf0","pricing_plan_id":"free"},{"bike_id":"93214e67-cfd9-4d01-b265-771895cd848d","system_id":"levelo_inurba_marseille","lat":43.299222,"lon":5.365554,"is_reserved":false,"is_disabled":false,"rental_uris":{"android":"levelo://app?vid=93214e67-cfd9-4d01-b265-771895cd848d","ios":"levelo://app?vid=93214e67-cfd9-4d01-b265-771895cd848d"},"vehicle_type_id":"4","last_reported":1685559876,"current_range_meters":4800,"station_id":"ce4bgm92rcd13ifvqbr0","pricing_plan_id":"free"},{"bike_id":"3027e284-88b9-4215-aecd-db142eff9f97","system_id":"levelo_inurba_marseille","lat":43.29852,"lon":5.3629,"is_reserved":false,"is_disabled":false,"rental_uris":{"android":"levelo://app?vid=3027e284-88b9-4215-aecd-db142eff9f97","ios":"levelo://app?vid=3027e284-88b9-4215-aecd-db142eff9f97"},"vehicle_type_id":"4","last_reported":1685559876,"current_range_meters":2800,"station_id":"ce4bgpp2rcd13ifvqc3g","pricing_plan_id":"free"},{"bike_id":"74d7ece4-a6c9-4f08-9637-4ee955288696","system_id":"levelo_inurba_marseille","lat":43.299243,"lon":5.374807,"is_reserved":false,"is_disabled":false,"rental_uris":{"android":"levelo://app?vid=74d7ece4-a6c9-4f08-9637-4ee955288696","ios":"levelo://app?vid=74d7ece4-a6c9-4f08-9637-4ee955288696"},"vehicle_type_id":"4","last_reported":1685559876,"current_range_meters":22000,"station_id":"ce4bgjh2rcd13ifvqbg0","pricing_plan_id":"free"},{"bike_id":"edad9f2f-c540-422f-96a2-e1548543bf21","system_id":"levelo_inurba_marseille","lat":43.311722,"lon":5.387247,"is_reserved":false,"is_disabled":false,"rental_uris":{"android":"levelo://app?vid=edad9f2f-c540-422f-96a2-e1548543bf21","ios":"levelo://app?vid=edad9f2f-c540-422f-96a2-e1548543bf21"},"vehicle_type_id":"4","last_reported":1685559876,"current_range_meters":8400,"station_id":"ce4bgv12rcd13ifvqcp0","pricing_plan_id":"free"},{"bike_id":"fd718ae2-bd99-428e-bbb7-a79d5a12d726","system_id":"levelo_inurba_marseille","lat":43.30172,"lon":5.38047,"is_reserved":false,"is_disabled":false,"rental_uris":{"android":"levelo://app?vid=fd718ae2-bd99-428e-bbb7-a79d5a12d726","ios":"levelo://app?vid=fd718ae2-bd99-428e-bbb7-a79d5a12d726"},"vehicle_type_id":"4","last_reported":1685559876,"current_range_meters":12800,"station_id":"","pricing_plan_id":"free"},{"bike_id":"5ec1af7e-3e15-4499-bd04-88dfa83311bc","system_id":"levelo_inurba_marseille","lat":43.32828,"lon":5.36679,"is_reserved":false,"is_disabled":false,"rental_uris":{"android":"levelo://app?vid=5ec1af7e-3e15-4499-bd04-88dfa83311bc","ios":"levelo://app?vid=5ec1af7e-3e15-4499-bd04-88dfa83311bc"},"vehicle_type_id":"4","last_reported":1685559876,"current_range_meters":13600,"station_id":"ce4bhs92rcd13ifvqi0g","pricing_plan_id":"free"},{"bike_id":"c9316b70-94cd-473b-93f3-cc378c0b41a4","system_id":"levelo_inurba_marseille","lat":43.32832,"lon":5.36681,"is_reserved":false,"is_disabled":false,"rental_uris":{"android":"levelo://app?vid=c9316b70-94cd-473b-93f3-cc378c0b41a4","ios":"levelo://app?vid=c9316b70-94cd-473b-93f3-cc378c0b41a4"},"vehicle_type_id":"4","last_reported":1685559876,"current_range_meters":9200,"station_id":"ce4bhs92rcd13ifvqi0g","pricing_plan_id":"free"},{"bike_id":"557f3ae7-970b-42ee-a4be-1ca5bdc13c11","system_id":"levelo_inurba_marseille","lat":43.32832,"lon":5.36679,"is_reserved":false,"is_disabled":false,"rental_uris":{"android":"levelo://app?vid=557f3ae7-970b-42ee-a4be-1ca5bdc13c11","ios":"levelo://app?vid=557f3ae7-970b-42ee-a4be-1ca5bdc13c11"},"vehicle_type_id":"4","last_reported":1685559876,"current_range_meters":18000,"station_id":"ce4bhs92rcd13ifvqi0g","pricing_plan_id":"free"},{"bike_id":"0989bea8-7a0d-421a-8660-550234e86241","system_id":"levelo_inurba_marseille","lat":43.32833,"lon":5.36676,"is_reserved":false,"is_disabled":false,"rental_uris":{"android":"levelo://app?vid=0989bea8-7a0d-421a-8660-550234e86241","ios":"levelo://app?vid=0989bea8-7a0d-421a-8660-550234e86241"},"vehicle_type_id":"4","last_reported":1685559876,"current_range_meters":19200,"station_id":"ce4bhs92rcd13ifvqi0g","pricing_plan_id":"free"},{"bike_id":"7c009b87-e835-4534-bfc0-40404c5c0199","system_id":"levelo_inurba_marseille","lat":43.32836,"lon":5.36684,"is_reserved":false,"is_disabled":false,"rental_uris":{"android":"levelo://app?vid=7c009b87-e835-4534-bfc0-40404c5c0199","ios":"levelo://app?vid=7c009b87-e835-4534-bfc0-40404c5c0199"},"vehicle_type_id":"4","last_reported":1685559876,"current_range_meters":19600,"station_id":"ce4bhs92rcd13ifvqi0g","pricing_plan_id":"free"},{"bike_id":"8c831443-7c11-494f-bd59-cd62383b4d6b","system_id":"levelo_inurba_marseille","lat":43.29632,"lon":5.36856,"is_reserved":false,"is_disabled":false,"rental_uris":{"android":"levelo://app?vid=8c831443-7c11-494f-bd59-cd62383b4d6b","ios":"levelo://app?vid=8c831443-7c11-494f-bd59-cd62383b4d6b"},"vehicle_type_id":"4","last_reported":1685559876,"current_range_meters":26800,"station_id":"","pricing_plan_id":"free"},{"bike_id":"2b283800-9478-4d81-9a0b-bb2d49152c8e","system_id":"levelo_inurba_marseille","lat":43.29573,"lon":5.367355,"is_reserved":false,"is_disabled":false,"rental_uris":{"android":"levelo://app?vid=2b283800-9478-4d81-9a0b-bb2d49152c8e","ios":"levelo://app?vid=2b283800-9478-4d81-9a0b-bb2d49152c8e"},"vehicle_type_id":"4","last_reported":1685559876,"current_range_meters":400,"station_id":"ce4bgph2rcd13ifvqc2g","pricing_plan_id":"free"},{"bike_id":"877428dd-6e71-4f2b-bed7-c82fe6fc5bff","system_id":"levelo_inurba_marseille","lat":43.296921,"lon":5.376579,"is_reserved":false,"is_disabled":false,"rental_uris":{"android":"levelo://app?vid=877428dd-6e71-4f2b-bed7-c82fe6fc5bff","ios":"levelo://app?vid=877428dd-6e71-4f2b-bed7-c82fe6fc5bff"},"vehicle_type_id":"4","last_reported":1685559876,"current_range_meters":2000,"station_id":"ce4bgkh2rcd13ifvqbl0","pricing_plan_id":"free"},{"bike_id":"ff79cac9-a0c2-47f5-bca3-f4edf658c89e","system_id":"levelo_inurba_marseille","lat":43.317557,"lon":5.390173,"is_reserved":false,"is_disabled":false,"rental_uris":{"android":"levelo://app?vid=ff79cac9-a0c2-47f5-bca3-f4edf658c89e","ios":"levelo://app?vid=ff79cac9-a0c2-47f5-bca3-f4edf658c89e"},"vehicle_type_id":"4","last_reported":1685559876,"current_range_meters":1600,"station_id":"ce4bhqp2rcd13ifvqhng","pricing_plan_id":"free"},{"bike_id":"4b267e26-2f55-4cdc-9bd9-970d121ad656","system_id":"levelo_inurba_marseille","lat":43.31763,"lon":5.39015,"is_reserved":false,"is_disabled":false,"rental_uris":{"android":"levelo://app?vid=4b267e26-2f55-4cdc-9bd9-970d121ad656","ios":"levelo://app?vid=4b267e26-2f55-4cdc-9bd9-970d121ad656"},"vehicle_type_id":"4","last_reported":1685559876,"current_range_meters":3200,"station_id":"ce4bhqp2rcd13ifvqhng","pricing_plan_id":"free"},{"bike_id":"36ae8566-3707-41ea-8f0f-31c724853eee","system_id":"levelo_inurba_marseille","lat":43.31756,"lon":5.3902,"is_reserved":false,"is_disabled":false,"rental_uris":{"android":"levelo://app?vid=36ae8566-3707-41ea-8f0f-31c724853eee","ios":"levelo://app?vid=36ae8566-3707-41ea-8f0f-31c724853eee"},"vehicle_type_id":"4","last_reported":1685559876,"current_range_meters":19600,"station_id":"ce4bhqp2rcd13ifvqhng","pricing_plan_id":"free"},{"bike_id":"f770f405-5f96-48f1-a8f7-d86863a7c3e8","system_id":"levelo_inurba_marseille","lat":43.31759,"lon":5.3902,"is_reserved":false,"is_disabled":false,"rental_uris":{"android":"levelo://app?vid=f770f405-5f96-48f1-a8f7-d86863a7c3e8","ios":"levelo://app?vid=f770f405-5f96-48f1-a8f7-d86863a7c3e8"},"vehicle_type_id":"4","last_reported":1685559876,"current_range_meters":800,"station_id":"ce4bhqp2rcd13ifvqhng","pricing_plan_id":"free"},{"bike_id":"24d7c452-539e-4cc3-ab45-8c4c9b9f593b","system_id":"levelo_inurba_marseille","lat":43.298037,"lon":5.381066,"is_reserved":false,"is_disabled":false,"rental_uris":{"android":"levelo://app?vid=24d7c452-539e-4cc3-ab45-8c4c9b9f593b","ios":"levelo://app?vid=24d7c452-539e-4cc3-ab45-8c4c9b9f593b"},"vehicle_type_id":"4","last_reported":1685559876,"current_range_meters":0,"station_id":"ce4bgip2rcd13ifvqbb0","pricing_plan_id":"free"},{"bike_id":"225eea88-aad5-4ffc-8ba3-94f015cc99c5","system_id":"levelo_inurba_marseille","lat":43.30428,"lon":5.38889,"is_reserved":false,"is_disabled":false,"rental_uris":{"android":"levelo://app?vid=225eea88-aad5-4ffc-8ba3-94f015cc99c5","ios":"levelo://app?vid=225eea88-aad5-4ffc-8ba3-94f015cc99c5"},"vehicle_type_id":"4","last_reported":1685559876,"current_range_meters":800,"station_id":"ce4bgk12rcd13ifvqbi0","pricing_plan_id":"free"},{"bike_id":"02575f4f-efb7-4360-b77e-a564d024eb36","system_id":"levelo_inurba_marseille","lat":43.304274,"lon":5.388873,"is_reserved":false,"is_disabled":false,"rental_uris":{"android":"levelo://app?vid=02575f4f-efb7-4360-b77e-a564d024eb36","ios":"levelo://app?vid=02575f4f-efb7-4360-b77e-a564d024eb36"},"vehicle_type_id":"4","last_reported":1685559876,"current_range_meters":21200,"station_id":"ce4bgk12rcd13ifvqbi0","pricing_plan_id":"free"},{"bike_id":"f34ff7f0-55e4-4297-b2f6-f29e6a93cac2","system_id":"levelo_inurba_marseille","lat":43.30432,"lon":5.38895,"is_reserved":false,"is_disabled":false,"rental_uris":{"android":"levelo://app?vid=f34ff7f0-55e4-4297-b2f6-f29e6a93cac2","ios":"levelo://app?vid=f34ff7f0-55e4-4297-b2f6-f29e6a93cac2"},"vehicle_type_id":"4","last_reported":1685559876,"current_range_meters":0,"station_id":"ce4bgk12rcd13ifvqbi0","pricing_plan_id":"free"},{"bike_id":"e8b9d93c-8f03-4b0b-93ff-94b907eef17a","system_id":"levelo_inurba_marseille","lat":43.299717,"lon":5.384845,"is_reserved":false,"is_disabled":false,"rental_uris":{"android":"levelo://app?vid=e8b9d93c-8f03-4b0b-93ff-94b907eef17a","ios":"levelo://app?vid=e8b9d93c-8f03-4b0b-93ff-94b907eef17a"},"vehicle_type_id":"4","last_reported":1685559876,"current_range_meters":6000,"station_id":"ce4bgj92rcd13ifvqbd0","pricing_plan_id":"free"},{"bike_id":"5c1ae803-bb83-4405-b753-5d2604b52519","system_id":"levelo_inurba_marseille","lat":43.305059,"lon":5.391047,"is_reserved":false,"is_disabled":false,"rental_uris":{"android":"levelo://app?vid=5c1ae803-bb83-4405-b753-5d2604b52519","ios":"levelo://app?vid=5c1ae803-bb83-4405-b753-5d2604b52519"},"vehicle_type_id":"4","last_reported":1685559876,"current_range_meters":7200,"station_id":"","pricing_plan_id":"free"},{"bike_id":"bd3d7178-6daa-4b22-b9a0-679e8b7fd598","system_id":"levelo_inurba_marseille","lat":43.32367,"lon":5.388836,"is_reserved":false,"is_disabled":false,"rental_uris":{"android":"levelo://app?vid=bd3d7178-6daa-4b22-b9a0-679e8b7fd598","ios":"levelo://app?vid=bd3d7178-6daa-4b22-b9a0-679e8b7fd598"},"vehicle_type_id":"4","last_reported":1685559876,"current_range_meters":19200,"station_id":"ce4bhqp2rcd13ifvqhog","pricing_plan_id":"free"},{"bike_id":"44437fa6-a312-44d3-bb14-1b6ba0aa8ca4","system_id":"levelo_inurba_marseille","lat":43.32367,"lon":5.388836,"is_reserved":false,"is_disabled":false,"rental_uris":{"android":"levelo://app?vid=44437fa6-a312-44d3-bb14-1b6ba0aa8ca4","ios":"levelo://app?vid=44437fa6-a312-44d3-bb14-1b6ba0aa8ca4"},"vehicle_type_id":"4","last_reported":1685559876,"current_range_meters":12000,"station_id":"ce4bhqp2rcd13ifvqhog","pricing_plan_id":"free"},{"bike_id":"8a8eb0b7-fc16-44b6-96e6-eb923e795629","system_id":"levelo_inurba_marseille","lat":43.32367,"lon":5.38885,"is_reserved":false,"is_disabled":false,"rental_uris":{"android":"levelo://app?vid=8a8eb0b7-fc16-44b6-96e6-eb923e795629","ios":"levelo://app?vid=8a8eb0b7-fc16-44b6-96e6-eb923e795629"},"vehicle_type_id":"4","last_reported":1685559876,"current_range_meters":4000,"station_id":"ce4bhqp2rcd13ifvqhog","pricing_plan_id":"free"},{"bike_id":"b5e9e569-c439-4b18-ba24-e286ad7418a4","system_id":"levelo_inurba_marseille","lat":43.293249,"lon":5.371578,"is_reserved":false,"is_disabled":false,"rental_uris":{"android":"levelo://app?vid=b5e9e569-c439-4b18-ba24-e286ad7418a4","ios":"levelo://app?vid=b5e9e569-c439-4b18-ba24-e286ad7418a4"},"vehicle_type_id":"4","last_reported":1685559876,"current_range_meters":16800,"station_id":"ce4bgh92rcd13ifvqb40","pricing_plan_id":"free"},{"bike_id":"840adaba-3a05-42fa-a275-3f04f65d329a","system_id":"levelo_inurba_marseille","lat":43.292749,"lon":5.368398,"is_reserved":false,"is_disabled":false,"rental_uris":{"android":"levelo://app?vid=840adaba-3a05-42fa-a275-3f04f65d329a","ios":"levelo://app?vid=840adaba-3a05-42fa-a275-3f04f65d329a"},"vehicle_type_id":"4","last_reported":1685559876,"current_range_meters":9600,"station_id":"ce4bhbp2rcd13ifvqesg","pricing_plan_id":"free"},{"bike_id":"ecb32283-a8d2-4b5b-ac45-5e33b7a94fd0","system_id":"levelo_inurba_marseille","lat":43.293249,"lon":5.371578,"is_reserved":false,"is_disabled":false,"rental_uris":{"android":"levelo://app?vid=ecb32283-a8d2-4b5b-ac45-5e33b7a94fd0","ios":"levelo://app?vid=ecb32283-a8d2-4b5b-ac45-5e33b7a94fd0"},"vehicle_type_id":"4","last_reported":1685559876,"current_range_meters":8000,"station_id":"ce4bgh92rcd13ifvqb40","pricing_plan_id":"free"},{"bike_id":"77f12ab2-4662-49d9-89e3-2da5d1fb17dc","system_id":"levelo_inurba_marseille","lat":43.29274,"lon":5.36839,"is_reserved":false,"is_disabled":false,"rental_uris":{"android":"levelo://app?vid=77f12ab2-4662-49d9-89e3-2da5d1fb17dc","ios":"levelo://app?vid=77f12ab2-4662-49d9-89e3-2da5d1fb17dc"},"vehicle_type_id":"4","last_reported":1685559876,"current_range_meters":3600,"station_id":"ce4bhbp2rcd13ifvqesg","pricing_plan_id":"free"},{"bike_id":"d13b3a47-2b0a-4505-bee8-e0e2b7d69117","system_id":"levelo_inurba_marseille","lat":43.29757,"lon":5.38525,"is_reserved":false,"is_disabled":false,"rental_uris":{"android":"levelo://app?vid=d13b3a47-2b0a-4505-bee8-e0e2b7d69117","ios":"levelo://app?vid=d13b3a47-2b0a-4505-bee8-e0e2b7d69117"},"vehicle_type_id":"4","last_reported":1685559876,"current_range_meters":22000,"station_id":"","pricing_plan_id":"free"},{"bike_id":"f0d14302-eb1b-47ad-bfff-838e93df201d","system_id":"levelo_inurba_marseille","lat":43.293009,"lon":5.374584,"is_reserved":false,"is_disabled":false,"rental_uris":{"android":"levelo://app?vid=f0d14302-eb1b-47ad-bfff-838e93df201d","ios":"levelo://app?vid=f0d14302-eb1b-47ad-bfff-838e93df201d"},"vehicle_type_id":"4","last_reported":1685559876,"current_range_meters":0,"station_id":"ce4bgi12rcd13ifvqb70","pricing_plan_id":"free"},{"bike_id":"b9a2d956-2434-4323-b91f-246bfffce791","system_id":"levelo_inurba_marseille","lat":43.30301,"lon":5.39215,"is_reserved":false,"is_disabled":false,"rental_uris":{"android":"levelo://app?vid=b9a2d956-2434-4323-b91f-246bfffce791","ios":"levelo://app?vid=b9a2d956-2434-4323-b91f-246bfffce791"},"vehicle_type_id":"4","last_reported":1685559876,"current_range_meters":6000,"station_id":"ce4bgkh2rcd13ifvqbk0","pricing_plan_id":"free"},{"bike_id":"58847a0c-a425-4beb-b6a8-4725abadc163","system_id":"levelo_inurba_marseille","lat":43.292311,"lon":5.360731,"is_reserved":false,"is_disabled":false,"rental_uris":{"android":"levelo://app?vid=58847a0c-a425-4beb-b6a8-4725abadc163","ios":"levelo://app?vid=58847a0c-a425-4beb-b6a8-4725abadc163"},"vehicle_type_id":"4","last_reported":1685559876,"current_range_meters":800,"station_id":"ce4bhbh2rcd13ifvqeqg","pricing_plan_id":"free"},{"bike_id":"bbbd4472-66d9-4ce0-9f8b-91e121bd8c20","system_id":"levelo_inurba_marseille","lat":43.2936,"lon":5.37835,"is_reserved":false,"is_disabled":false,"rental_uris":{"android":"levelo://app?vid=bbbd4472-66d9-4ce0-9f8b-91e121bd8c20","ios":"levelo://app?vid=bbbd4472-66d9-4ce0-9f8b-91e121bd8c20"},"vehicle_type_id":"4","last_reported":1685559876,"current_range_meters":0,"station_id":"ce4bgjh2rcd13ifvqbf0","pricing_plan_id":"free"},{"bike_id":"c47960fe-fdd7-4f21-96ec-e857e2fd1ea8","system_id":"levelo_inurba_marseille","lat":43.30085,"lon":5.390856,"is_reserved":false,"is_disabled":false,"rental_uris":{"android":"levelo://app?vid=c47960fe-fdd7-4f21-96ec-e857e2fd1ea8","ios":"levelo://app?vid=c47960fe-fdd7-4f21-96ec-e857e2fd1ea8"},"vehicle_type_id":"4","last_reported":1685559876,"current_range_meters":27600,"station_id":"ce4bh192rcd13ifvqdb0","pricing_plan_id":"free"},{"bike_id":"fd1359be-a27d-4b39-badd-a62c71348b0d","system_id":"levelo_inurba_marseille","lat":43.300852,"lon":5.390859,"is_reserved":false,"is_disabled":false,"rental_uris":{"android":"levelo://app?vid=fd1359be-a27d-4b39-badd-a62c71348b0d","ios":"levelo://app?vid=fd1359be-a27d-4b39-badd-a62c71348b0d"},"vehicle_type_id":"4","last_reported":1685559876,"current_range_meters":10000,"station_id":"ce4bh192rcd13ifvqdb0","pricing_plan_id":"free"},{"bike_id":"0e619178-2427-4edb-83b6-717ed8aa0a37","system_id":"levelo_inurba_marseille","lat":43.298764,"lon":5.388973,"is_reserved":false,"is_disabled":false,"rental_uris":{"android":"levelo://app?vid=0e619178-2427-4edb-83b6-717ed8aa0a37","ios":"levelo://app?vid=0e619178-2427-4edb-83b6-717ed8aa0a37"},"vehicle_type_id":"4","last_reported":1685559876,"current_range_meters":6400,"station_id":"ce4bh392rcd13ifvqdl0","pricing_plan_id":"free"},{"bike_id":"d7a39ad4-b024-42ee-b071-56489df0d5a1","system_id":"levelo_inurba_marseille","lat":43.33225,"lon":5.37862,"is_reserved":false,"is_disabled":false,"rental_uris":{"android":"levelo://app?vid=d7a39ad4-b024-42ee-b071-56489df0d5a1","ios":"levelo://app?vid=d7a39ad4-b024-42ee-b071-56489df0d5a1"},"vehicle_type_id":"4","last_reported":1685559876,"current_range_meters":800,"station_id":"","pricing_plan_id":"free"},{"bike_id":"23c55797-9e3c-4150-9d5b-e9adb70d0b26","system_id":"levelo_inurba_marseille","lat":43.2988,"lon":5.38909,"is_reserved":false,"is_disabled":false,"rental_uris":{"android":"levelo://app?vid=23c55797-9e3c-4150-9d5b-e9adb70d0b26","ios":"levelo://app?vid=23c55797-9e3c-4150-9d5b-e9adb70d0b26"},"vehicle_type_id":"4","last_reported":1685559876,"current_range_meters":14800,"station_id":"ce4bh392rcd13ifvqdl0","pricing_plan_id":"free"},{"bike_id":"b0872dc3-355d-4744-a032-1ed89173ae2b","system_id":"levelo_inurba_marseille","lat":43.313291,"lon":5.396838,"is_reserved":false,"is_disabled":false,"rental_uris":{"android":"levelo://app?vid=b0872dc3-355d-4744-a032-1ed89173ae2b","ios":"levelo://app?vid=b0872dc3-355d-4744-a032-1ed89173ae2b"},"vehicle_type_id":"4","last_reported":1685559876,"current_range_meters":6800,"station_id":"ce4bgvp2rcd13ifvqcu0","pricing_plan_id":"free"},{"bike_id":"5b1155f9-9f98-4f89-bdcf-34ff32bf4ddb","system_id":"levelo_inurba_marseille","lat":43.31915,"lon":5.39559,"is_reserved":false,"is_disabled":false,"rental_uris":{"android":"levelo://app?vid=5b1155f9-9f98-4f89-bdcf-34ff32bf4ddb","ios":"levelo://app?vid=5b1155f9-9f98-4f89-bdcf-34ff32bf4ddb"},"vehicle_type_id":"4","last_reported":1685559876,"current_range_meters":10800,"station_id":"","pricing_plan_id":"free"},{"bike_id":"84125dcd-4e7d-4d8c-bd73-b8aecc39155a","system_id":"levelo_inurba_marseille","lat":43.313291,"lon":5.396838,"is_reserved":false,"is_disabled":false,"rental_uris":{"android":"levelo://app?vid=84125dcd-4e7d-4d8c-bd73-b8aecc39155a","ios":"levelo://app?vid=84125dcd-4e7d-4d8c-bd73-b8aecc39155a"},"vehicle_type_id":"4","last_reported":1685559876,"current_range_meters":22000,"station_id":"ce4bgvp2rcd13ifvqcu0","pricing_plan_id":"free"},{"bike_id":"fb0495df-2457-4d16-a4df-cec803e64723","system_id":"levelo_inurba_marseille","lat":43.291994,"lon":5.357886,"is_reserved":false,"is_disabled":false,"rental_uris":{"android":"levelo://app?vid=fb0495df-2457-4d16-a4df-cec803e64723","ios":"levelo://app?vid=fb0495df-2457-4d16-a4df-cec803e64723"},"vehicle_type_id":"4","last_reported":1685559876,"current_range_meters":14400,"station_id":"ce4bhb12rcd13ifvqel0","pricing_plan_id":"free"},{"bike_id":"0538d822-832a-447c-89e3-3fddf8859bce","system_id":"levelo_inurba_marseille","lat":43.291994,"lon":5.357886,"is_reserved":false,"is_disabled":false,"rental_uris":{"android":"levelo://app?vid=0538d822-832a-447c-89e3-3fddf8859bce","ios":"levelo://app?vid=0538d822-832a-447c-89e3-3fddf8859bce"},"vehicle_type_id":"4","last_reported":1685559876,"current_range_meters":24800,"station_id":"ce4bhb12rcd13ifvqel0","pricing_plan_id":"free"},{"bike_id":"3ab8caf9-fe11-4ee3-b6c8-0c9189545599","system_id":"levelo_inurba_marseille","lat":43.29529,"lon":5.385581,"is_reserved":false,"is_disabled":false,"rental_uris":{"android":"levelo://app?vid=3ab8caf9-fe11-4ee3-b6c8-0c9189545599","ios":"levelo://app?vid=3ab8caf9-fe11-4ee3-b6c8-0c9189545599"},"vehicle_type_id":"4","last_reported":1685559876,"current_range_meters":0,"station_id":"ce4bgih2rcd13ifvqba0","pricing_plan_id":"free"},{"bike_id":"39cd0a0a-1a97-4a43-8b62-546262c833ee","system_id":"levelo_inurba_marseille","lat":43.29529,"lon":5.385581,"is_reserved":false,"is_disabled":false,"rental_uris":{"android":"levelo://app?vid=39cd0a0a-1a97-4a43-8b62-546262c833ee","ios":"levelo://app?vid=39cd0a0a-1a97-4a43-8b62-546262c833ee"},"vehicle_type_id":"4","last_reported":1685559876,"current_range_meters":2800,"station_id":"ce4bgih2rcd13ifvqba0","pricing_plan_id":"free"},{"bike_id":"68cd073f-c7ac-400c-ae34-c3bdf344f7cd","system_id":"levelo_inurba_marseille","lat":43.290779,"lon":5.371482,"is_reserved":false,"is_disabled":false,"rental_uris":{"android":"levelo://app?vid=68cd073f-c7ac-400c-ae34-c3bdf344f7cd","ios":"levelo://app?vid=68cd073f-c7ac-400c-ae34-c3bdf344f7cd"},"vehicle_type_id":"4","last_reported":1685559876,"current_range_meters":24400,"station_id":"ce4bh5p2rcd13ifvqe4g","pricing_plan_id":"free"},{"bike_id":"0a7a7235-ca49-470d-9534-3c512998a802","system_id":"levelo_inurba_marseille","lat":43.294153,"lon":5.386305,"is_reserved":false,"is_disabled":false,"rental_uris":{"android":"levelo://app?vid=0a7a7235-ca49-470d-9534-3c512998a802","ios":"levelo://app?vid=0a7a7235-ca49-470d-9534-3c512998a802"},"vehicle_type_id":"4","last_reported":1685559876,"current_range_meters":3200,"station_id":"ce4bh2h2rcd13ifvqdh0","pricing_plan_id":"free"},{"bike_id":"f8c0f4aa-8a44-4bb3-b815-e2909443b8e0","system_id":"levelo_inurba_marseille","lat":43.290327,"lon":5.375711,"is_reserved":false,"is_disabled":false,"rental_uris":{"android":"levelo://app?vid=f8c0f4aa-8a44-4bb3-b815-e2909443b8e0","ios":"levelo://app?vid=f8c0f4aa-8a44-4bb3-b815-e2909443b8e0"},"vehicle_type_id":"4","last_reported":1685559876,"current_range_meters":400,"station_id":"ce4bh692rcd13ifvqe90","pricing_plan_id":"free"},{"bike_id":"46d4e777-18e1-4490-9ada-7fc69be13a63","system_id":"levelo_inurba_marseille","lat":43.29417,"lon":5.38625,"is_reserved":false,"is_disabled":false,"rental_uris":{"android":"levelo://app?vid=46d4e777-18e1-4490-9ada-7fc69be13a63","ios":"levelo://app?vid=46d4e777-18e1-4490-9ada-7fc69be13a63"},"vehicle_type_id":"4","last_reported":1685559876,"current_range_meters":19200,"station_id":"ce4bh2h2rcd13ifvqdh0","pricing_plan_id":"free"},{"bike_id":"0fef9d24-9b3c-462c-b94d-47b873207143","system_id":"levelo_inurba_marseille","lat":43.294162,"lon":5.386292,"is_reserved":false,"is_disabled":false,"rental_uris":{"android":"levelo://app?vid=0fef9d24-9b3c-462c-b94d-47b873207143","ios":"levelo://app?vid=0fef9d24-9b3c-462c-b94d-47b873207143"},"vehicle_type_id":"4","last_reported":1685559876,"current_range_meters":5600,"station_id":"ce4bh2h2rcd13ifvqdh0","pricing_plan_id":"free"},{"bike_id":"a33bd27d-9dad-4052-8b7e-2ca9018c3205","system_id":"levelo_inurba_marseille","lat":43.289184,"lon":5.366408,"is_reserved":false,"is_disabled":false,"rental_uris":{"android":"levelo://app?vid=a33bd27d-9dad-4052-8b7e-2ca9018c3205","ios":"levelo://app?vid=a33bd27d-9dad-4052-8b7e-2ca9018c3205"},"vehicle_type_id":"4","last_reported":1685559876,"current_range_meters":1600,"station_id":"ce4bhap2rcd13ifvqek0","pricing_plan_id":"free"},{"bike_id":"5097489b-c941-48a4-bfd5-d80a38eb4f28","system_id":"levelo_inurba_marseille","lat":43.289184,"lon":5.366408,"is_reserved":false,"is_disabled":false,"rental_uris":{"android":"levelo://app?vid=5097489b-c941-48a4-bfd5-d80a38eb4f28","ios":"levelo://app?vid=5097489b-c941-48a4-bfd5-d80a38eb4f28"},"vehicle_type_id":"4","last_reported":1685559876,"current_range_meters":18000,"station_id":"ce4bhap2rcd13ifvqek0","pricing_plan_id":"free"},{"bike_id":"21dd3cd9-71b9-438f-9a40-2d6a49b29f9b","system_id":"levelo_inurba_marseille","lat":43.294162,"lon":5.386292,"is_reserved":false,"is_disabled":false,"rental_uris":{"android":"levelo://app?vid=21dd3cd9-71b9-438f-9a40-2d6a49b29f9b","ios":"levelo://app?vid=21dd3cd9-71b9-438f-9a40-2d6a49b29f9b"},"vehicle_type_id":"4","last_reported":1685559876,"current_range_meters":3200,"station_id":"ce4bh2h2rcd13ifvqdh0","pricing_plan_id":"free"},{"bike_id":"a17b5da3-5ded-4319-8fb4-f07d2aa8e295","system_id":"levelo_inurba_marseille","lat":43.290327,"lon":5.375711,"is_reserved":false,"is_disabled":false,"rental_uris":{"android":"levelo://app?vid=a17b5da3-5ded-4319-8fb4-f07d2aa8e295","ios":"levelo://app?vid=a17b5da3-5ded-4319-8fb4-f07d2aa8e295"},"vehicle_type_id":"4","last_reported":1685559876,"current_range_meters":28800,"station_id":"ce4bh692rcd13ifvqe90","pricing_plan_id":"free"},{"bike_id":"772473ec-3d2c-4253-844b-c77be1da3150","system_id":"levelo_inurba_marseille","lat":43.289184,"lon":5.366408,"is_reserved":false,"is_disabled":false,"rental_uris":{"android":"levelo://app?vid=772473ec-3d2c-4253-844b-c77be1da3150","ios":"levelo://app?vid=772473ec-3d2c-4253-844b-c77be1da3150"},"vehicle_type_id":"4","last_reported":1685559876,"current_range_meters":21200,"station_id":"ce4bhap2rcd13ifvqek0","pricing_plan_id":"free"},{"bike_id":"5dc09008-9e94-4aa1-b95b-94a13d1a2d48","system_id":"levelo_inurba_marseille","lat":43.289184,"lon":5.366408,"is_reserved":false,"is_disabled":false,"rental_uris":{"android":"levelo://app?vid=5dc09008-9e94-4aa1-b95b-94a13d1a2d48","ios":"levelo://app?vid=5dc09008-9e94-4aa1-b95b-94a13d1a2d48"},"vehicle_type_id":"4","last_reported":1685559876,"current_range_meters":8800,"station_id":"ce4bhap2rcd13ifvqek0","pricing_plan_id":"free"},{"bike_id":"1049fd3c-61ad-4eef-a74e-b2f2b0bb5505","system_id":"levelo_inurba_marseille","lat":43.289184,"lon":5.366408,"is_reserved":false,"is_disabled":false,"rental_uris":{"android":"levelo://app?vid=1049fd3c-61ad-4eef-a74e-b2f2b0bb5505","ios":"levelo://app?vid=1049fd3c-61ad-4eef-a74e-b2f2b0bb5505"},"vehicle_type_id":"4","last_reported":1685559876,"current_range_meters":2400,"station_id":"ce4bhap2rcd13ifvqek0","pricing_plan_id":"free"},{"bike_id":"4cffe551-31a4-41be-903e-5624bc0ad10b","system_id":"levelo_inurba_marseille","lat":43.289184,"lon":5.366408,"is_reserved":false,"is_disabled":false,"rental_uris":{"android":"levelo://app?vid=4cffe551-31a4-41be-903e-5624bc0ad10b","ios":"levelo://app?vid=4cffe551-31a4-41be-903e-5624bc0ad10b"},"vehicle_type_id":"4","last_reported":1685559876,"current_range_meters":4000,"station_id":"ce4bhap2rcd13ifvqek0","pricing_plan_id":"free"},{"bike_id":"15032fdb-e0be-4d75-bc53-af6b76f45445","system_id":"levelo_inurba_marseille","lat":43.289184,"lon":5.366408,"is_reserved":false,"is_disabled":false,"rental_uris":{"android":"levelo://app?vid=15032fdb-e0be-4d75-bc53-af6b76f45445","ios":"levelo://app?vid=15032fdb-e0be-4d75-bc53-af6b76f45445"},"vehicle_type_id":"4","last_reported":1685559876,"current_range_meters":11600,"station_id":"ce4bhap2rcd13ifvqek0","pricing_plan_id":"free"},{"bike_id":"e4dc9e53-7503-4a4c-8c43-f49a00c79ada","system_id":"levelo_inurba_marseille","lat":43.329862,"lon":5.389192,"is_reserved":false,"is_disabled":false,"rental_uris":{"android":"levelo://app?vid=e4dc9e53-7503-4a4c-8c43-f49a00c79ada","ios":"levelo://app?vid=e4dc9e53-7503-4a4c-8c43-f49a00c79ada"},"vehicle_type_id":"4","last_reported":1685559876,"current_range_meters":14400,"station_id":"","pricing_plan_id":"free"},{"bike_id":"1f8c3c3c-62c6-4324-8a8a-6bd029135ffa","system_id":"levelo_inurba_marseille","lat":43.292644,"lon":5.384257,"is_reserved":false,"is_disabled":false,"rental_uris":{"android":"levelo://app?vid=1f8c3c3c-62c6-4324-8a8a-6bd029135ffa","ios":"levelo://app?vid=1f8c3c3c-62c6-4324-8a8a-6bd029135ffa"},"vehicle_type_id":"4","last_reported":1685559876,"current_range_meters":21200,"station_id":"ce4bh692rcd13ifvqea0","pricing_plan_id":"free"},{"bike_id":"5e7cfe82-b67e-4aed-b26e-1023b68a2fdd","system_id":"levelo_inurba_marseille","lat":43.305994,"lon":5.393687,"is_reserved":false,"is_disabled":false,"rental_uris":{"android":"levelo://app?vid=5e7cfe82-b67e-4aed-b26e-1023b68a2fdd","ios":"levelo://app?vid=5e7cfe82-b67e-4aed-b26e-1023b68a2fdd"},"vehicle_type_id":"4","last_reported":1685559876,"current_range_meters":16400,"station_id":"ce4bh0p2rcd13ifvqd80","pricing_plan_id":"free"},{"bike_id":"4b8c0362-ea9c-42ef-bfbd-87eb5113fe21","system_id":"levelo_inurba_marseille","lat":43.304296,"lon":5.397513,"is_reserved":false,"is_disabled":false,"rental_uris":{"android":"levelo://app?vid=4b8c0362-ea9c-42ef-bfbd-87eb5113fe21","ios":"levelo://app?vid=4b8c0362-ea9c-42ef-bfbd-87eb5113fe21"},"vehicle_type_id":"4","last_reported":1685559876,"current_range_meters":9200,"station_id":"ce4bh092rcd13ifvqd20","pricing_plan_id":"free"},{"bike_id":"381b875f-3796-4181-9e36-a050c116acd0","system_id":"levelo_inurba_marseille","lat":43.292642,"lon":5.384254,"is_reserved":false,"is_disabled":false,"rental_uris":{"android":"levelo://app?vid=381b875f-3796-4181-9e36-a050c116acd0","ios":"levelo://app?vid=381b875f-3796-4181-9e36-a050c116acd0"},"vehicle_type_id":"4","last_reported":1685559876,"current_range_meters":800,"station_id":"ce4bh692rcd13ifvqea0","pricing_plan_id":"free"},{"bike_id":"3523b3c6-c3db-407f-93af-33da713c8b0b","system_id":"levelo_inurba_marseille","lat":43.33045,"lon":5.38915,"is_reserved":false,"is_disabled":false,"rental_uris":{"android":"levelo://app?vid=3523b3c6-c3db-407f-93af-33da713c8b0b","ios":"levelo://app?vid=3523b3c6-c3db-407f-93af-33da713c8b0b"},"vehicle_type_id":"4","last_reported":1685559876,"current_range_meters":0,"station_id":"ce4bhr92rcd13ifvqhrg","pricing_plan_id":"free"},{"bike_id":"e61e4c95-8a63-47af-8142-7de9fbfc5a6e","system_id":"levelo_inurba_marseille","lat":43.33048,"lon":5.38916,"is_reserved":false,"is_disabled":false,"rental_uris":{"android":"levelo://app?vid=e61e4c95-8a63-47af-8142-7de9fbfc5a6e","ios":"levelo://app?vid=e61e4c95-8a63-47af-8142-7de9fbfc5a6e"},"vehicle_type_id":"4","last_reported":1685559876,"current_range_meters":6000,"station_id":"ce4bhr92rcd13ifvqhrg","pricing_plan_id":"free"},{"bike_id":"8da7bbf6-b999-4b8f-8628-f7bfa76d9363","system_id":"levelo_inurba_marseille","lat":43.3305,"lon":5.38915,"is_reserved":false,"is_disabled":false,"rental_uris":{"android":"levelo://app?vid=8da7bbf6-b999-4b8f-8628-f7bfa76d9363","ios":"levelo://app?vid=8da7bbf6-b999-4b8f-8628-f7bfa76d9363"},"vehicle_type_id":"4","last_reported":1685559876,"current_range_meters":22800,"station_id":"ce4bhr92rcd13ifvqhrg","pricing_plan_id":"free"},{"bike_id":"141ce822-3a7e-4dcc-8218-25efcd3ee44f","system_id":"levelo_inurba_marseille","lat":43.295169,"lon":5.390426,"is_reserved":false,"is_disabled":false,"rental_uris":{"android":"levelo://app?vid=141ce822-3a7e-4dcc-8218-25efcd3ee44f","ios":"levelo://app?vid=141ce822-3a7e-4dcc-8218-25efcd3ee44f"},"vehicle_type_id":"4","last_reported":1685559876,"current_range_meters":4000,"station_id":"ce4bh3p2rcd13ifvqdp0","pricing_plan_id":"free"},{"bike_id":"9c75315b-0f8f-4084-a93f-536ac9db37ab","system_id":"levelo_inurba_marseille","lat":43.297814,"lon":5.393513,"is_reserved":false,"is_disabled":false,"rental_uris":{"android":"levelo://app?vid=9c75315b-0f8f-4084-a93f-536ac9db37ab","ios":"levelo://app?vid=9c75315b-0f8f-4084-a93f-536ac9db37ab"},"vehicle_type_id":"4","last_reported":1685559876,"current_range_meters":8400,"station_id":"chh1huq6cuj3fo74tm60","pricing_plan_id":"free"},{"bike_id":"35664ad7-f9cf-4cf4-b386-82012e420d50","system_id":"levelo_inurba_marseille","lat":43.297814,"lon":5.393513,"is_reserved":false,"is_disabled":false,"rental_uris":{"android":"levelo://app?vid=35664ad7-f9cf-4cf4-b386-82012e420d50","ios":"levelo://app?vid=35664ad7-f9cf-4cf4-b386-82012e420d50"},"vehicle_type_id":"4","last_reported":1685559876,"current_range_meters":11200,"station_id":"chh1huq6cuj3fo74tm60","pricing_plan_id":"free"},{"bike_id":"c330c321-3859-48b1-b74b-0188dc4fa66a","system_id":"levelo_inurba_marseille","lat":43.290094,"lon":5.381264,"is_reserved":false,"is_disabled":false,"rental_uris":{"android":"levelo://app?vid=c330c321-3859-48b1-b74b-0188dc4fa66a","ios":"levelo://app?vid=c330c321-3859-48b1-b74b-0188dc4fa66a"},"vehicle_type_id":"4","last_reported":1685559876,"current_range_meters":6400,"station_id":"ce4bh4p2rcd13ifvqe1g","pricing_plan_id":"free"},{"bike_id":"141c14ea-594b-43ee-894e-8c44af1dcd73","system_id":"levelo_inurba_marseille","lat":43.33741,"lon":5.37457,"is_reserved":false,"is_disabled":false,"rental_uris":{"android":"levelo://app?vid=141c14ea-594b-43ee-894e-8c44af1dcd73","ios":"levelo://app?vid=141c14ea-594b-43ee-894e-8c44af1dcd73"},"vehicle_type_id":"4","last_reported":1685559876,"current_range_meters":24400,"station_id":"","pricing_plan_id":"free"},{"bike_id":"c7942551-36a2-48f0-86d3-473949af1ed6","system_id":"levelo_inurba_marseille","lat":43.33748,"lon":5.3743,"is_reserved":false,"is_disabled":false,"rental_uris":{"android":"levelo://app?vid=c7942551-36a2-48f0-86d3-473949af1ed6","ios":"levelo://app?vid=c7942551-36a2-48f0-86d3-473949af1ed6"},"vehicle_type_id":"4","last_reported":1685559876,"current_range_meters":29600,"station_id":"","pricing_plan_id":"free"},{"bike_id":"d8112de5-3496-43cb-8ba9-437621514779","system_id":"levelo_inurba_marseille","lat":43.33749,"lon":5.37438,"is_reserved":false,"is_disabled":false,"rental_uris":{"android":"levelo://app?vid=d8112de5-3496-43cb-8ba9-437621514779","ios":"levelo://app?vid=d8112de5-3496-43cb-8ba9-437621514779"},"vehicle_type_id":"4","last_reported":1685559876,"current_range_meters":29600,"station_id":"","pricing_plan_id":"free"},{"bike_id":"44a82d51-7a0d-4fbf-a325-fa35b7e6e19e","system_id":"levelo_inurba_marseille","lat":43.33751,"lon":5.37442,"is_reserved":false,"is_disabled":false,"rental_uris":{"android":"levelo://app?vid=44a82d51-7a0d-4fbf-a325-fa35b7e6e19e","ios":"levelo://app?vid=44a82d51-7a0d-4fbf-a325-fa35b7e6e19e"},"vehicle_type_id":"4","last_reported":1685559876,"current_range_meters":28400,"station_id":"","pricing_plan_id":"free"},{"bike_id":"124b13d2-6454-4e12-b0c9-1fa204d1f78c","system_id":"levelo_inurba_marseille","lat":43.33758,"lon":5.3743,"is_reserved":false,"is_disabled":false,"rental_uris":{"android":"levelo://app?vid=124b13d2-6454-4e12-b0c9-1fa204d1f78c","ios":"levelo://app?vid=124b13d2-6454-4e12-b0c9-1fa204d1f78c"},"vehicle_type_id":"4","last_reported":1685559876,"current_range_meters":28800,"station_id":"","pricing_plan_id":"free"},{"bike_id":"6e22d9d1-08b9-43bf-8efb-c62ead4b6932","system_id":"levelo_inurba_marseille","lat":43.33759,"lon":5.37427,"is_reserved":false,"is_disabled":false,"rental_uris":{"android":"levelo://app?vid=6e22d9d1-08b9-43bf-8efb-c62ead4b6932","ios":"levelo://app?vid=6e22d9d1-08b9-43bf-8efb-c62ead4b6932"},"vehicle_type_id":"4","last_reported":1685559876,"current_range_meters":31200,"station_id":"","pricing_plan_id":"free"},{"bike_id":"556c6db1-2600-4c2b-9521-aae8453517c1","system_id":"levelo_inurba_marseille","lat":43.33758,"lon":5.37437,"is_reserved":false,"is_disabled":false,"rental_uris":{"android":"levelo://app?vid=556c6db1-2600-4c2b-9521-aae8453517c1","ios":"levelo://app?vid=556c6db1-2600-4c2b-9521-aae8453517c1"},"vehicle_type_id":"4","last_reported":1685559876,"current_range_meters":5200,"station_id":"","pricing_plan_id":"free"},{"bike_id":"c1da147f-158b-4733-bb7b-fe75e1162cb9","system_id":"levelo_inurba_marseille","lat":43.33762,"lon":5.37453,"is_reserved":false,"is_disabled":false,"rental_uris":{"android":"levelo://app?vid=c1da147f-158b-4733-bb7b-fe75e1162cb9","ios":"levelo://app?vid=c1da147f-158b-4733-bb7b-fe75e1162cb9"},"vehicle_type_id":"4","last_reported":1685559876,"current_range_meters":30400,"station_id":"","pricing_plan_id":"free"},{"bike_id":"6d678481-0e0b-436a-aa94-9d12fa2c91f5","system_id":"levelo_inurba_marseille","lat":43.33772,"lon":5.3742,"is_reserved":false,"is_disabled":false,"rental_uris":{"android":"levelo://app?vid=6d678481-0e0b-436a-aa94-9d12fa2c91f5","ios":"levelo://app?vid=6d678481-0e0b-436a-aa94-9d12fa2c91f5"},"vehicle_type_id":"4","last_reported":1685559876,"current_range_meters":30000,"station_id":"","pricing_plan_id":"free"},{"bike_id":"bb799a97-3014-4dcf-b257-d4025dc1546d","system_id":"levelo_inurba_marseille","lat":43.3378,"lon":5.37428,"is_reserved":false,"is_disabled":false,"rental_uris":{"android":"levelo://app?vid=bb799a97-3014-4dcf-b257-d4025dc1546d","ios":"levelo://app?vid=bb799a97-3014-4dcf-b257-d4025dc1546d"},"vehicle_type_id":"4","last_reported":1685559876,"current_range_meters":24800,"station_id":"","pricing_plan_id":"free"},{"bike_id":"be70abc3-9b45-4799-9578-b8b91a7f51b2","system_id":"levelo_inurba_marseille","lat":43.28727,"lon":5.3709,"is_reserved":false,"is_disabled":false,"rental_uris":{"android":"levelo://app?vid=be70abc3-9b45-4799-9578-b8b91a7f51b2","ios":"levelo://app?vid=be70abc3-9b45-4799-9578-b8b91a7f51b2"},"vehicle_type_id":"4","last_reported":1685559876,"current_range_meters":25600,"station_id":"","pricing_plan_id":"free"},{"bike_id":"7919d80d-26ce-4c56-a275-f7e97e11ac60","system_id":"levelo_inurba_marseille","lat":43.301934,"lon":5.399245,"is_reserved":false,"is_disabled":false,"rental_uris":{"android":"levelo://app?vid=7919d80d-26ce-4c56-a275-f7e97e11ac60","ios":"levelo://app?vid=7919d80d-26ce-4c56-a275-f7e97e11ac60"},"vehicle_type_id":"4","last_reported":1685559876,"current_range_meters":10800,"station_id":"","pricing_plan_id":"free"},{"bike_id":"45bae6c4-f0d0-4460-9f78-cc35c8b82f80","system_id":"levelo_inurba_marseille","lat":43.28701,"lon":5.37381,"is_reserved":false,"is_disabled":false,"rental_uris":{"android":"levelo://app?vid=45bae6c4-f0d0-4460-9f78-cc35c8b82f80","ios":"levelo://app?vid=45bae6c4-f0d0-4460-9f78-cc35c8b82f80"},"vehicle_type_id":"4","last_reported":1685559876,"current_range_meters":28000,"station_id":"","pricing_plan_id":"free"},{"bike_id":"39e010b7-1a0d-4554-80c5-a9821e22c901","system_id":"levelo_inurba_marseille","lat":43.286591,"lon":5.363346,"is_reserved":false,"is_disabled":false,"rental_uris":{"android":"levelo://app?vid=39e010b7-1a0d-4554-80c5-a9821e22c901","ios":"levelo://app?vid=39e010b7-1a0d-4554-80c5-a9821e22c901"},"vehicle_type_id":"4","last_reported":1685559876,"current_range_meters":800,"station_id":"ce4bhah2rcd13ifvqej0","pricing_plan_id":"free"},{"bike_id":"8c69e759-627b-4381-85a1-dbbb2e58a01e","system_id":"levelo_inurba_marseille","lat":43.286593,"lon":5.363346,"is_reserved":false,"is_disabled":false,"rental_uris":{"android":"levelo://app?vid=8c69e759-627b-4381-85a1-dbbb2e58a01e","ios":"levelo://app?vid=8c69e759-627b-4381-85a1-dbbb2e58a01e"},"vehicle_type_id":"4","last_reported":1685559876,"current_range_meters":14800,"station_id":"ce4bhah2rcd13ifvqej0","pricing_plan_id":"free"},{"bike_id":"88639a9a-64cd-4656-8c7c-7d00a74b3fd6","system_id":"levelo_inurba_marseille","lat":43.298681,"lon":5.397225,"is_reserved":false,"is_disabled":false,"rental_uris":{"android":"levelo://app?vid=88639a9a-64cd-4656-8c7c-7d00a74b3fd6","ios":"levelo://app?vid=88639a9a-64cd-4656-8c7c-7d00a74b3fd6"},"vehicle_type_id":"4","last_reported":1685559876,"current_range_meters":30400,"station_id":"ce4bh0h2rcd13ifvqd50","pricing_plan_id":"free"},{"bike_id":"00826fa9-bdae-4287-ab20-d106d2e5d966","system_id":"levelo_inurba_marseille","lat":43.286591,"lon":5.363346,"is_reserved":false,"is_disabled":false,"rental_uris":{"android":"levelo://app?vid=00826fa9-bdae-4287-ab20-d106d2e5d966","ios":"levelo://app?vid=00826fa9-bdae-4287-ab20-d106d2e5d966"},"vehicle_type_id":"4","last_reported":1685559876,"current_range_meters":28800,"station_id":"ce4bhah2rcd13ifvqej0","pricing_plan_id":"free"},{"bike_id":"d535c997-c3cd-4e9d-83d9-9b0be1b22ab9","system_id":"levelo_inurba_marseille","lat":43.286591,"lon":5.363346,"is_reserved":false,"is_disabled":false,"rental_uris":{"android":"levelo://app?vid=d535c997-c3cd-4e9d-83d9-9b0be1b22ab9","ios":"levelo://app?vid=d535c997-c3cd-4e9d-83d9-9b0be1b22ab9"},"vehicle_type_id":"4","last_reported":1685559876,"current_range_meters":4800,"station_id":"ce4bhah2rcd13ifvqej0","pricing_plan_id":"free"},{"bike_id":"6e1df285-ed02-4a6d-be37-9800cabc0617","system_id":"levelo_inurba_marseille","lat":43.29531,"lon":5.39403,"is_reserved":false,"is_disabled":false,"rental_uris":{"android":"levelo://app?vid=6e1df285-ed02-4a6d-be37-9800cabc0617","ios":"levelo://app?vid=6e1df285-ed02-4a6d-be37-9800cabc0617"},"vehicle_type_id":"4","last_reported":1685559876,"current_range_meters":18000,"station_id":"ce4bh292rcd13ifvqdf0","pricing_plan_id":"free"},{"bike_id":"b5b8644b-3979-4699-ba1c-24b5ab8a1089","system_id":"levelo_inurba_marseille","lat":43.286039,"lon":5.370679,"is_reserved":false,"is_disabled":false,"rental_uris":{"android":"levelo://app?vid=b5b8644b-3979-4699-ba1c-24b5ab8a1089","ios":"levelo://app?vid=b5b8644b-3979-4699-ba1c-24b5ab8a1089"},"vehicle_type_id":"4","last_reported":1685559876,"current_range_meters":3200,"station_id":"ce4bht12rcd13ifvqi60","pricing_plan_id":"free"},{"bike_id":"768dc0e7-4552-491d-8156-e70fc8cf870b","system_id":"levelo_inurba_marseille","lat":43.29509,"lon":5.39408,"is_reserved":false,"is_disabled":false,"rental_uris":{"android":"levelo://app?vid=768dc0e7-4552-491d-8156-e70fc8cf870b","ios":"levelo://app?vid=768dc0e7-4552-491d-8156-e70fc8cf870b"},"vehicle_type_id":"4","last_reported":1685559876,"current_range_meters":30400,"station_id":"ce4bh292rcd13ifvqdf0","pricing_plan_id":"free"},{"bike_id":"5f467b18-ddf4-4178-93a5-2f4218836553","system_id":"levelo_inurba_marseille","lat":43.302759,"lon":5.400793,"is_reserved":false,"is_disabled":false,"rental_uris":{"android":"levelo://app?vid=5f467b18-ddf4-4178-93a5-2f4218836553","ios":"levelo://app?vid=5f467b18-ddf4-4178-93a5-2f4218836553"},"vehicle_type_id":"4","last_reported":1685559876,"current_range_meters":26800,"station_id":"ce4bgvh2rcd13ifvqcs0","pricing_plan_id":"free"},{"bike_id":"175c4d96-5f92-45db-9f5b-a68f67bd76c5","system_id":"levelo_inurba_marseille","lat":43.3025,"lon":5.40065,"is_reserved":false,"is_disabled":false,"rental_uris":{"android":"levelo://app?vid=175c4d96-5f92-45db-9f5b-a68f67bd76c5","ios":"levelo://app?vid=175c4d96-5f92-45db-9f5b-a68f67bd76c5"},"vehicle_type_id":"4","last_reported":1685559876,"current_range_meters":2000,"station_id":"","pricing_plan_id":"free"},{"bike_id":"de0bbe5d-1352-4495-9fc1-d04f85151a40","system_id":"levelo_inurba_marseille","lat":43.29022,"lon":5.38639,"is_reserved":false,"is_disabled":false,"rental_uris":{"android":"levelo://app?vid=de0bbe5d-1352-4495-9fc1-d04f85151a40","ios":"levelo://app?vid=de0bbe5d-1352-4495-9fc1-d04f85151a40"},"vehicle_type_id":"4","last_reported":1685559876,"current_range_meters":14000,"station_id":"","pricing_plan_id":"free"},{"bike_id":"ddbfe616-03c8-4f77-b838-83ebec52b2f5","system_id":"levelo_inurba_marseille","lat":43.286039,"lon":5.370679,"is_reserved":false,"is_disabled":false,"rental_uris":{"android":"levelo://app?vid=ddbfe616-03c8-4f77-b838-83ebec52b2f5","ios":"levelo://app?vid=ddbfe616-03c8-4f77-b838-83ebec52b2f5"},"vehicle_type_id":"4","last_reported":1685559876,"current_range_meters":8800,"station_id":"ce4bht12rcd13ifvqi60","pricing_plan_id":"free"},{"bike_id":"90335e88-bb53-48cb-aeba-1953dceae85f","system_id":"levelo_inurba_marseille","lat":43.286039,"lon":5.370679,"is_reserved":false,"is_disabled":false,"rental_uris":{"android":"levelo://app?vid=90335e88-bb53-48cb-aeba-1953dceae85f","ios":"levelo://app?vid=90335e88-bb53-48cb-aeba-1953dceae85f"},"vehicle_type_id":"4","last_reported":1685559876,"current_range_meters":400,"station_id":"ce4bht12rcd13ifvqi60","pricing_plan_id":"free"},{"bike_id":"3b4bae20-0fa8-4631-b9a3-24b3af12ce2b","system_id":"levelo_inurba_marseille","lat":43.286039,"lon":5.370679,"is_reserved":false,"is_disabled":false,"rental_uris":{"android":"levelo://app?vid=3b4bae20-0fa8-4631-b9a3-24b3af12ce2b","ios":"levelo://app?vid=3b4bae20-0fa8-4631-b9a3-24b3af12ce2b"},"vehicle_type_id":"4","last_reported":1685559876,"current_range_meters":9600,"station_id":"ce4bht12rcd13ifvqi60","pricing_plan_id":"free"},{"bike_id":"8c4af601-9c22-4631-bb12-bc8548320315","system_id":"levelo_inurba_marseille","lat":43.287184,"lon":5.37937,"is_reserved":false,"is_disabled":false,"rental_uris":{"android":"levelo://app?vid=8c4af601-9c22-4631-bb12-bc8548320315","ios":"levelo://app?vid=8c4af601-9c22-4631-bb12-bc8548320315"},"vehicle_type_id":"4","last_reported":1685559876,"current_range_meters":14000,"station_id":"ce4bh9p2rcd13ifvqec0","pricing_plan_id":"free"},{"bike_id":"7e40e400-c735-479c-8619-3fcfa27f6645","system_id":"levelo_inurba_marseille","lat":43.287185,"lon":5.379373,"is_reserved":false,"is_disabled":false,"rental_uris":{"android":"levelo://app?vid=7e40e400-c735-479c-8619-3fcfa27f6645","ios":"levelo://app?vid=7e40e400-c735-479c-8619-3fcfa27f6645"},"vehicle_type_id":"4","last_reported":1685559876,"current_range_meters":6400,"station_id":"ce4bh9p2rcd13ifvqec0","pricing_plan_id":"free"},{"bike_id":"b4a6ef95-c27e-42b0-92c4-a5c4b672b8ae","system_id":"levelo_inurba_marseille","lat":43.287184,"lon":5.37937,"is_reserved":false,"is_disabled":false,"rental_uris":{"android":"levelo://app?vid=b4a6ef95-c27e-42b0-92c4-a5c4b672b8ae","ios":"levelo://app?vid=b4a6ef95-c27e-42b0-92c4-a5c4b672b8ae"},"vehicle_type_id":"4","last_reported":1685559876,"current_range_meters":31600,"station_id":"ce4bh9p2rcd13ifvqec0","pricing_plan_id":"free"},{"bike_id":"4c44211f-50d9-4fb5-903e-5e8a7cdbdd4a","system_id":"levelo_inurba_marseille","lat":43.316523,"lon":5.404367,"is_reserved":false,"is_disabled":false,"rental_uris":{"android":"levelo://app?vid=4c44211f-50d9-4fb5-903e-5e8a7cdbdd4a","ios":"levelo://app?vid=4c44211f-50d9-4fb5-903e-5e8a7cdbdd4a"},"vehicle_type_id":"4","last_reported":1685559876,"current_range_meters":4800,"station_id":"ce4bh012rcd13ifvqd00","pricing_plan_id":"free"},{"bike_id":"bff91eae-6023-48e2-bb1b-e8aca893a79e","system_id":"levelo_inurba_marseille","lat":43.316523,"lon":5.404367,"is_reserved":false,"is_disabled":false,"rental_uris":{"android":"levelo://app?vid=bff91eae-6023-48e2-bb1b-e8aca893a79e","ios":"levelo://app?vid=bff91eae-6023-48e2-bb1b-e8aca893a79e"},"vehicle_type_id":"4","last_reported":1685559876,"current_range_meters":15200,"station_id":"ce4bh012rcd13ifvqd00","pricing_plan_id":"free"},{"bike_id":"2791305c-c3f9-4d49-b165-c3e4d4b4f460","system_id":"levelo_inurba_marseille","lat":43.316523,"lon":5.404367,"is_reserved":false,"is_disabled":false,"rental_uris":{"android":"levelo://app?vid=2791305c-c3f9-4d49-b165-c3e4d4b4f460","ios":"levelo://app?vid=2791305c-c3f9-4d49-b165-c3e4d4b4f460"},"vehicle_type_id":"4","last_reported":1685559876,"current_range_meters":9200,"station_id":"ce4bh012rcd13ifvqd00","pricing_plan_id":"free"},{"bike_id":"04c83b4d-e038-4c84-9eb5-d4b080a79d94","system_id":"levelo_inurba_marseille","lat":43.316523,"lon":5.404367,"is_reserved":false,"is_disabled":false,"rental_uris":{"android":"levelo://app?vid=04c83b4d-e038-4c84-9eb5-d4b080a79d94","ios":"levelo://app?vid=04c83b4d-e038-4c84-9eb5-d4b080a79d94"},"vehicle_type_id":"4","last_reported":1685559876,"current_range_meters":5200,"station_id":"ce4bh012rcd13ifvqd00","pricing_plan_id":"free"},{"bike_id":"83ed5cae-f74e-40bd-9963-678c2975ee29","system_id":"levelo_inurba_marseille","lat":43.29201,"lon":5.39315,"is_reserved":false,"is_disabled":false,"rental_uris":{"android":"levelo://app?vid=83ed5cae-f74e-40bd-9963-678c2975ee29","ios":"levelo://app?vid=83ed5cae-f74e-40bd-9963-678c2975ee29"},"vehicle_type_id":"4","last_reported":1685559876,"current_range_meters":21600,"station_id":"ce4bh192rcd13ifvqdd0","pricing_plan_id":"free"},{"bike_id":"ab4c2abb-cce2-4bc2-ac0d-9582898f3984","system_id":"levelo_inurba_marseille","lat":43.291994,"lon":5.392907,"is_reserved":false,"is_disabled":false,"rental_uris":{"android":"levelo://app?vid=ab4c2abb-cce2-4bc2-ac0d-9582898f3984","ios":"levelo://app?vid=ab4c2abb-cce2-4bc2-ac0d-9582898f3984"},"vehicle_type_id":"4","last_reported":1685559876,"current_range_meters":27600,"station_id":"ce4bh192rcd13ifvqdd0","pricing_plan_id":"free"},{"bike_id":"f2d209cb-ca1f-4a06-a7dd-e0cecc8153c1","system_id":"levelo_inurba_marseille","lat":43.284534,"lon":5.358662,"is_reserved":false,"is_disabled":false,"rental_uris":{"android":"levelo://app?vid=f2d209cb-ca1f-4a06-a7dd-e0cecc8153c1","ios":"levelo://app?vid=f2d209cb-ca1f-4a06-a7dd-e0cecc8153c1"},"vehicle_type_id":"4","last_reported":1685559876,"current_range_meters":6000,"station_id":"ce4bhah2rcd13ifvqei0","pricing_plan_id":"free"},{"bike_id":"f50cbb75-bd61-40d1-8b38-2288df237d39","system_id":"levelo_inurba_marseille","lat":43.285856,"lon":5.350771,"is_reserved":false,"is_disabled":false,"rental_uris":{"android":"levelo://app?vid=f50cbb75-bd61-40d1-8b38-2288df237d39","ios":"levelo://app?vid=f50cbb75-bd61-40d1-8b38-2288df237d39"},"vehicle_type_id":"4","last_reported":1685559876,"current_range_meters":7600,"station_id":"ce4bhch2rcd13ifvqeug","pricing_plan_id":"free"},{"bike_id":"82bfcf52-1c02-4e05-9766-0352c3e587d8","system_id":"levelo_inurba_marseille","lat":43.28617,"lon":5.35104,"is_reserved":false,"is_disabled":false,"rental_uris":{"android":"levelo://app?vid=82bfcf52-1c02-4e05-9766-0352c3e587d8","ios":"levelo://app?vid=82bfcf52-1c02-4e05-9766-0352c3e587d8"},"vehicle_type_id":"4","last_reported":1685559876,"current_range_meters":2000,"station_id":"","pricing_plan_id":"free"},{"bike_id":"ad917f70-bfac-400c-abe3-3cdbceecd0ed","system_id":"levelo_inurba_marseille","lat":43.285856,"lon":5.350771,"is_reserved":false,"is_disabled":false,"rental_uris":{"android":"levelo://app?vid=ad917f70-bfac-400c-abe3-3cdbceecd0ed","ios":"levelo://app?vid=ad917f70-bfac-400c-abe3-3cdbceecd0ed"},"vehicle_type_id":"4","last_reported":1685559876,"current_range_meters":2800,"station_id":"ce4bhch2rcd13ifvqeug","pricing_plan_id":"free"},{"bike_id":"8e5a96ea-84a9-4ba9-90ec-01fe941cafcc","system_id":"levelo_inurba_marseille","lat":43.285856,"lon":5.350771,"is_reserved":false,"is_disabled":false,"rental_uris":{"android":"levelo://app?vid=8e5a96ea-84a9-4ba9-90ec-01fe941cafcc","ios":"levelo://app?vid=8e5a96ea-84a9-4ba9-90ec-01fe941cafcc"},"vehicle_type_id":"4","last_reported":1685559876,"current_range_meters":16400,"station_id":"ce4bhch2rcd13ifvqeug","pricing_plan_id":"free"},{"bike_id":"9ab40f86-6b36-41d6-a0f7-9990925dda80","system_id":"levelo_inurba_marseille","lat":43.26681,"lon":5.382694,"is_reserved":false,"is_disabled":false,"rental_uris":{"android":"levelo://app?vid=9ab40f86-6b36-41d6-a0f7-9990925dda80","ios":"levelo://app?vid=9ab40f86-6b36-41d6-a0f7-9990925dda80"},"vehicle_type_id":"4","last_reported":1685559876,"current_range_meters":25200,"station_id":"ce4bhg92rcd13ifvqf90","pricing_plan_id":"free"},{"bike_id":"d463a253-bb36-4652-b5ff-01ec706b40e5","system_id":"levelo_inurba_marseille","lat":43.295713,"lon":5.399639,"is_reserved":false,"is_disabled":false,"rental_uris":{"android":"levelo://app?vid=d463a253-bb36-4652-b5ff-01ec706b40e5","ios":"levelo://app?vid=d463a253-bb36-4652-b5ff-01ec706b40e5"},"vehicle_type_id":"4","last_reported":1685559876,"current_range_meters":1200,"station_id":"ce4bh312rcd13ifvqdj0","pricing_plan_id":"free"},{"bike_id":"00b9aab4-42c1-48c3-bc66-40c23fc1b34a","system_id":"levelo_inurba_marseille","lat":43.295713,"lon":5.399639,"is_reserved":false,"is_disabled":false,"rental_uris":{"android":"levelo://app?vid=00b9aab4-42c1-48c3-bc66-40c23fc1b34a","ios":"levelo://app?vid=00b9aab4-42c1-48c3-bc66-40c23fc1b34a"},"vehicle_type_id":"4","last_reported":1685559876,"current_range_meters":9200,"station_id":"ce4bh312rcd13ifvqdj0","pricing_plan_id":"free"},{"bike_id":"6b526eb4-1d7a-424e-b370-0d12cfeef144","system_id":"levelo_inurba_marseille","lat":43.286595,"lon":5.386795,"is_reserved":false,"is_disabled":false,"rental_uris":{"android":"levelo://app?vid=6b526eb4-1d7a-424e-b370-0d12cfeef144","ios":"levelo://app?vid=6b526eb4-1d7a-424e-b370-0d12cfeef144"},"vehicle_type_id":"4","last_reported":1685559876,"current_range_meters":0,"station_id":"ce4bh492rcd13ifvqdug","pricing_plan_id":"free"},{"bike_id":"344f3926-a6a1-4ef4-904c-0a41ade4bde2","system_id":"levelo_inurba_marseille","lat":43.286595,"lon":5.386795,"is_reserved":false,"is_disabled":false,"rental_uris":{"android":"levelo://app?vid=344f3926-a6a1-4ef4-904c-0a41ade4bde2","ios":"levelo://app?vid=344f3926-a6a1-4ef4-904c-0a41ade4bde2"},"vehicle_type_id":"4","last_reported":1685559876,"current_range_meters":5200,"station_id":"ce4bh492rcd13ifvqdug","pricing_plan_id":"free"},{"bike_id":"5df871e9-80d6-4175-966d-d1ced8a5ad6c","system_id":"levelo_inurba_marseille","lat":43.32697,"lon":5.40373,"is_reserved":false,"is_disabled":false,"rental_uris":{"android":"levelo://app?vid=5df871e9-80d6-4175-966d-d1ced8a5ad6c","ios":"levelo://app?vid=5df871e9-80d6-4175-966d-d1ced8a5ad6c"},"vehicle_type_id":"4","last_reported":1685559876,"current_range_meters":28800,"station_id":"","pricing_plan_id":"free"},{"bike_id":"a0d5de94-7867-47cb-b685-ce6cac9d1de8","system_id":"levelo_inurba_marseille","lat":43.284787,"lon":5.384116,"is_reserved":false,"is_disabled":false,"rental_uris":{"android":"levelo://app?vid=a0d5de94-7867-47cb-b685-ce6cac9d1de8","ios":"levelo://app?vid=a0d5de94-7867-47cb-b685-ce6cac9d1de8"},"vehicle_type_id":"4","last_reported":1685559876,"current_range_meters":12400,"station_id":"ce4bh512rcd13ifvqe3g","pricing_plan_id":"free"},{"bike_id":"7fa8b4e8-edbd-4099-b5e4-2400d58894f1","system_id":"levelo_inurba_marseille","lat":43.284793,"lon":5.384119,"is_reserved":false,"is_disabled":false,"rental_uris":{"android":"levelo://app?vid=7fa8b4e8-edbd-4099-b5e4-2400d58894f1","ios":"levelo://app?vid=7fa8b4e8-edbd-4099-b5e4-2400d58894f1"},"vehicle_type_id":"4","last_reported":1685559876,"current_range_meters":0,"station_id":"ce4bh512rcd13ifvqe3g","pricing_plan_id":"free"},{"bike_id":"030bbf52-543c-4f9a-b39c-70a3d1769048","system_id":"levelo_inurba_marseille","lat":43.284787,"lon":5.384116,"is_reserved":false,"is_disabled":false,"rental_uris":{"android":"levelo://app?vid=030bbf52-543c-4f9a-b39c-70a3d1769048","ios":"levelo://app?vid=030bbf52-543c-4f9a-b39c-70a3d1769048"},"vehicle_type_id":"4","last_reported":1685559876,"current_range_meters":7200,"station_id":"ce4bh512rcd13ifvqe3g","pricing_plan_id":"free"},{"bike_id":"47a664ec-c230-424b-983b-aef629a66f29","system_id":"levelo_inurba_marseille","lat":43.28467,"lon":5.38412,"is_reserved":false,"is_disabled":false,"rental_uris":{"android":"levelo://app?vid=47a664ec-c230-424b-983b-aef629a66f29","ios":"levelo://app?vid=47a664ec-c230-424b-983b-aef629a66f29"},"vehicle_type_id":"4","last_reported":1685559876,"current_range_meters":0,"station_id":"ce4bh512rcd13ifvqe3g","pricing_plan_id":"free"},{"bike_id":"e565c435-15c1-47b1-89c0-b9343a1956e4","system_id":"levelo_inurba_marseille","lat":43.283498,"lon":5.380948,"is_reserved":false,"is_disabled":false,"rental_uris":{"android":"levelo://app?vid=e565c435-15c1-47b1-89c0-b9343a1956e4","ios":"levelo://app?vid=e565c435-15c1-47b1-89c0-b9343a1956e4"},"vehicle_type_id":"4","last_reported":1685559876,"current_range_meters":6000,"station_id":"ce4bh412rcd13ifvqdr0","pricing_plan_id":"free"},{"bike_id":"5268763b-1380-4336-a223-698145d64b79","system_id":"levelo_inurba_marseille","lat":43.284209,"lon":5.349719,"is_reserved":false,"is_disabled":false,"rental_uris":{"android":"levelo://app?vid=5268763b-1380-4336-a223-698145d64b79","ios":"levelo://app?vid=5268763b-1380-4336-a223-698145d64b79"},"vehicle_type_id":"4","last_reported":1685559876,"current_range_meters":27600,"station_id":"ce4bhbh2rcd13ifvqepg","pricing_plan_id":"free"},{"bike_id":"b349f4b0-5830-451d-b8ad-c5ed2f9c7011","system_id":"levelo_inurba_marseille","lat":43.284217,"lon":5.349697,"is_reserved":false,"is_disabled":false,"rental_uris":{"android":"levelo://app?vid=b349f4b0-5830-451d-b8ad-c5ed2f9c7011","ios":"levelo://app?vid=b349f4b0-5830-451d-b8ad-c5ed2f9c7011"},"vehicle_type_id":"4","last_reported":1685559876,"current_range_meters":7200,"station_id":"ce4bhbh2rcd13ifvqepg","pricing_plan_id":"free"},{"bike_id":"270d04b2-1f8c-4b04-963e-4e273737ffed","system_id":"levelo_inurba_marseille","lat":43.296263,"lon":5.40601,"is_reserved":false,"is_disabled":false,"rental_uris":{"android":"levelo://app?vid=270d04b2-1f8c-4b04-963e-4e273737ffed","ios":"levelo://app?vid=270d04b2-1f8c-4b04-963e-4e273737ffed"},"vehicle_type_id":"4","last_reported":1685559876,"current_range_meters":0,"station_id":"ce4bh0h2rcd13ifvqd60","pricing_plan_id":"free"},{"bike_id":"a42f1d39-88c5-48c5-bfd4-d7b4e35b045d","system_id":"levelo_inurba_marseille","lat":43.282754,"lon":5.350519,"is_reserved":false,"is_disabled":false,"rental_uris":{"android":"levelo://app?vid=a42f1d39-88c5-48c5-bfd4-d7b4e35b045d","ios":"levelo://app?vid=a42f1d39-88c5-48c5-bfd4-d7b4e35b045d"},"vehicle_type_id":"4","last_reported":1685559876,"current_range_meters":12800,"station_id":"ce4bhbp2rcd13ifvqerg","pricing_plan_id":"free"},{"bike_id":"a572c9f1-95d2-4679-aaeb-454db0af22d2","system_id":"levelo_inurba_marseille","lat":43.282754,"lon":5.350519,"is_reserved":false,"is_disabled":false,"rental_uris":{"android":"levelo://app?vid=a572c9f1-95d2-4679-aaeb-454db0af22d2","ios":"levelo://app?vid=a572c9f1-95d2-4679-aaeb-454db0af22d2"},"vehicle_type_id":"4","last_reported":1685559876,"current_range_meters":8400,"station_id":"ce4bhbp2rcd13ifvqerg","pricing_plan_id":"free"},{"bike_id":"1a50fe55-58d4-4477-b617-b326e2a7a605","system_id":"levelo_inurba_marseille","lat":43.28039,"lon":5.369297,"is_reserved":false,"is_disabled":false,"rental_uris":{"android":"levelo://app?vid=1a50fe55-58d4-4477-b617-b326e2a7a605","ios":"levelo://app?vid=1a50fe55-58d4-4477-b617-b326e2a7a605"},"vehicle_type_id":"4","last_reported":1685559876,"current_range_meters":27200,"station_id":"ce4bha12rcd13ifvqef0","pricing_plan_id":"free"},{"bike_id":"ef96b259-4ff2-4502-a467-43d7edac6ad2","system_id":"levelo_inurba_marseille","lat":43.28039,"lon":5.369297,"is_reserved":false,"is_disabled":false,"rental_uris":{"android":"levelo://app?vid=ef96b259-4ff2-4502-a467-43d7edac6ad2","ios":"levelo://app?vid=ef96b259-4ff2-4502-a467-43d7edac6ad2"},"vehicle_type_id":"4","last_reported":1685559876,"current_range_meters":16000,"station_id":"ce4bha12rcd13ifvqef0","pricing_plan_id":"free"},{"bike_id":"5149f031-ad70-4944-a1a3-cec9f2411d20","system_id":"levelo_inurba_marseille","lat":43.28039,"lon":5.369297,"is_reserved":false,"is_disabled":false,"rental_uris":{"android":"levelo://app?vid=5149f031-ad70-4944-a1a3-cec9f2411d20","ios":"levelo://app?vid=5149f031-ad70-4944-a1a3-cec9f2411d20"},"vehicle_type_id":"4","last_reported":1685559876,"current_range_meters":14000,"station_id":"ce4bha12rcd13ifvqef0","pricing_plan_id":"free"},{"bike_id":"17d1cdc3-bde6-42e7-b767-6bc6e004325a","system_id":"levelo_inurba_marseille","lat":43.280382,"lon":5.369291,"is_reserved":false,"is_disabled":false,"rental_uris":{"android":"levelo://app?vid=17d1cdc3-bde6-42e7-b767-6bc6e004325a","ios":"levelo://app?vid=17d1cdc3-bde6-42e7-b767-6bc6e004325a"},"vehicle_type_id":"4","last_reported":1685559876,"current_range_meters":24800,"station_id":"ce4bha12rcd13ifvqef0","pricing_plan_id":"free"},{"bike_id":"ac88fa66-0478-4e7e-8f23-b87bc9bb127d","system_id":"levelo_inurba_marseille","lat":43.296263,"lon":5.40601,"is_reserved":false,"is_disabled":false,"rental_uris":{"android":"levelo://app?vid=ac88fa66-0478-4e7e-8f23-b87bc9bb127d","ios":"levelo://app?vid=ac88fa66-0478-4e7e-8f23-b87bc9bb127d"},"vehicle_type_id":"4","last_reported":1685559876,"current_range_meters":3200,"station_id":"ce4bh0h2rcd13ifvqd60","pricing_plan_id":"free"},{"bike_id":"6d4dad9f-6dfd-4c51-bc93-ffb5d56ead3e","system_id":"levelo_inurba_marseille","lat":43.281044,"lon":5.378308,"is_reserved":false,"is_disabled":false,"rental_uris":{"android":"levelo://app?vid=6d4dad9f-6dfd-4c51-bc93-ffb5d56ead3e","ios":"levelo://app?vid=6d4dad9f-6dfd-4c51-bc93-ffb5d56ead3e"},"vehicle_type_id":"4","last_reported":1685559876,"current_range_meters":16800,"station_id":"ce4bha12rcd13ifvqee0","pricing_plan_id":"free"},{"bike_id":"487d32e7-0d2e-4f2b-8219-05756dfc1b9b","system_id":"levelo_inurba_marseille","lat":43.32621,"lon":5.40926,"is_reserved":false,"is_disabled":false,"rental_uris":{"android":"levelo://app?vid=487d32e7-0d2e-4f2b-8219-05756dfc1b9b","ios":"levelo://app?vid=487d32e7-0d2e-4f2b-8219-05756dfc1b9b"},"vehicle_type_id":"4","last_reported":1685559876,"current_range_meters":30400,"station_id":"","pricing_plan_id":"free"},{"bike_id":"5288a41a-b81d-4877-8b96-c664e8432afd","system_id":"levelo_inurba_marseille","lat":43.3263,"lon":5.40928,"is_reserved":false,"is_disabled":false,"rental_uris":{"android":"levelo://app?vid=5288a41a-b81d-4877-8b96-c664e8432afd","ios":"levelo://app?vid=5288a41a-b81d-4877-8b96-c664e8432afd"},"vehicle_type_id":"4","last_reported":1685559876,"current_range_meters":24000,"station_id":"","pricing_plan_id":"free"},{"bike_id":"3b6ceb24-05aa-4ff7-9627-07d06cccd75c","system_id":"levelo_inurba_marseille","lat":43.285742,"lon":5.395004,"is_reserved":false,"is_disabled":false,"rental_uris":{"android":"levelo://app?vid=3b6ceb24-05aa-4ff7-9627-07d06cccd75c","ios":"levelo://app?vid=3b6ceb24-05aa-4ff7-9627-07d06cccd75c"},"vehicle_type_id":"4","last_reported":1685559876,"current_range_meters":1200,"station_id":"ce4bh292rcd13ifvqdg0","pricing_plan_id":"free"},{"bike_id":"e020f005-3c3f-4b77-844d-1b01f8b25fd8","system_id":"levelo_inurba_marseille","lat":43.304188,"lon":5.412904,"is_reserved":false,"is_disabled":false,"rental_uris":{"android":"levelo://app?vid=e020f005-3c3f-4b77-844d-1b01f8b25fd8","ios":"levelo://app?vid=e020f005-3c3f-4b77-844d-1b01f8b25fd8"},"vehicle_type_id":"4","last_reported":1685559876,"current_range_meters":19200,"station_id":"ce4bhop2rcd13ifvqh8g","pricing_plan_id":"free"},{"bike_id":"3d6935a7-1636-439e-8f98-02e6efceac05","system_id":"levelo_inurba_marseille","lat":43.304188,"lon":5.412904,"is_reserved":false,"is_disabled":false,"rental_uris":{"android":"levelo://app?vid=3d6935a7-1636-439e-8f98-02e6efceac05","ios":"levelo://app?vid=3d6935a7-1636-439e-8f98-02e6efceac05"},"vehicle_type_id":"4","last_reported":1685559876,"current_range_meters":6400,"station_id":"ce4bhop2rcd13ifvqh8g","pricing_plan_id":"free"},{"bike_id":"d172a3e9-5711-4f2c-9958-1e904bfde297","system_id":"levelo_inurba_marseille","lat":43.27944,"lon":5.37941,"is_reserved":false,"is_disabled":false,"rental_uris":{"android":"levelo://app?vid=d172a3e9-5711-4f2c-9958-1e904bfde297","ios":"levelo://app?vid=d172a3e9-5711-4f2c-9958-1e904bfde297"},"vehicle_type_id":"4","last_reported":1685559876,"current_range_meters":2400,"station_id":"","pricing_plan_id":"free"},{"bike_id":"c6048c7c-2837-48b9-98df-7d42be2948ab","system_id":"levelo_inurba_marseille","lat":43.27906,"lon":5.38013,"is_reserved":false,"is_disabled":false,"rental_uris":{"android":"levelo://app?vid=c6048c7c-2837-48b9-98df-7d42be2948ab","ios":"levelo://app?vid=c6048c7c-2837-48b9-98df-7d42be2948ab"},"vehicle_type_id":"4","last_reported":1685559876,"current_range_meters":16800,"station_id":"","pricing_plan_id":"free"},{"bike_id":"ffc72560-4563-4723-aa74-e9045fa3cd60","system_id":"levelo_inurba_marseille","lat":43.241782,"lon":5.397261,"is_reserved":false,"is_disabled":false,"rental_uris":{"android":"levelo://app?vid=ffc72560-4563-4723-aa74-e9045fa3cd60","ios":"levelo://app?vid=ffc72560-4563-4723-aa74-e9045fa3cd60"},"vehicle_type_id":"4","last_reported":1685559876,"current_range_meters":15600,"station_id":"ce4bhn12rcd13ifvqgpg","pricing_plan_id":"free"},{"bike_id":"c68c4f80-5956-48f8-846e-9582e0907ea8","system_id":"levelo_inurba_marseille","lat":43.27901,"lon":5.38013,"is_reserved":false,"is_disabled":false,"rental_uris":{"android":"levelo://app?vid=c68c4f80-5956-48f8-846e-9582e0907ea8","ios":"levelo://app?vid=c68c4f80-5956-48f8-846e-9582e0907ea8"},"vehicle_type_id":"4","last_reported":1685559876,"current_range_meters":13200,"station_id":"","pricing_plan_id":"free"},{"bike_id":"1a2a0539-a3a3-4329-8bcb-0d9456d4ff78","system_id":"levelo_inurba_marseille","lat":43.287154,"lon":5.399979,"is_reserved":false,"is_disabled":false,"rental_uris":{"android":"levelo://app?vid=1a2a0539-a3a3-4329-8bcb-0d9456d4ff78","ios":"levelo://app?vid=1a2a0539-a3a3-4329-8bcb-0d9456d4ff78"},"vehicle_type_id":"4","last_reported":1685559876,"current_range_meters":2400,"station_id":"ce4bho92rcd13ifvqh3g","pricing_plan_id":"free"},{"bike_id":"dd602990-43c8-44cd-95ed-5d1a0457189b","system_id":"levelo_inurba_marseille","lat":43.320422,"lon":5.415433,"is_reserved":false,"is_disabled":false,"rental_uris":{"android":"levelo://app?vid=dd602990-43c8-44cd-95ed-5d1a0457189b","ios":"levelo://app?vid=dd602990-43c8-44cd-95ed-5d1a0457189b"},"vehicle_type_id":"4","last_reported":1685559876,"current_range_meters":29200,"station_id":"","pricing_plan_id":"free"},{"bike_id":"a877f224-802e-4f36-8f50-c9a8eab27236","system_id":"levelo_inurba_marseille","lat":43.279742,"lon":5.38744,"is_reserved":false,"is_disabled":false,"rental_uris":{"android":"levelo://app?vid=a877f224-802e-4f36-8f50-c9a8eab27236","ios":"levelo://app?vid=a877f224-802e-4f36-8f50-c9a8eab27236"},"vehicle_type_id":"4","last_reported":1685559876,"current_range_meters":3600,"station_id":"ce4bhg12rcd13ifvqf80","pricing_plan_id":"free"},{"bike_id":"fc0c2cd1-47cc-4366-b24d-d18948bd6469","system_id":"levelo_inurba_marseille","lat":43.299577,"lon":5.413277,"is_reserved":false,"is_disabled":false,"rental_uris":{"android":"levelo://app?vid=fc0c2cd1-47cc-4366-b24d-d18948bd6469","ios":"levelo://app?vid=fc0c2cd1-47cc-4366-b24d-d18948bd6469"},"vehicle_type_id":"4","last_reported":1685559876,"current_range_meters":11200,"station_id":"ce4bhp12rcd13ifvqh9g","pricing_plan_id":"free"},{"bike_id":"4afba0bc-100b-405b-880e-494daee52a33","system_id":"levelo_inurba_marseille","lat":43.279742,"lon":5.38744,"is_reserved":false,"is_disabled":false,"rental_uris":{"android":"levelo://app?vid=4afba0bc-100b-405b-880e-494daee52a33","ios":"levelo://app?vid=4afba0bc-100b-405b-880e-494daee52a33"},"vehicle_type_id":"4","last_reported":1685559876,"current_range_meters":31200,"station_id":"ce4bhg12rcd13ifvqf80","pricing_plan_id":"free"},{"bike_id":"3698970e-5400-4526-958f-b404076a3263","system_id":"levelo_inurba_marseille","lat":43.31975,"lon":5.41572,"is_reserved":false,"is_disabled":false,"rental_uris":{"android":"levelo://app?vid=3698970e-5400-4526-958f-b404076a3263","ios":"levelo://app?vid=3698970e-5400-4526-958f-b404076a3263"},"vehicle_type_id":"4","last_reported":1685559876,"current_range_meters":29200,"station_id":"","pricing_plan_id":"free"},{"bike_id":"6831c670-6fa1-48e4-9870-e13279e17df3","system_id":"levelo_inurba_marseille","lat":43.320045,"lon":5.415046,"is_reserved":false,"is_disabled":false,"rental_uris":{"android":"levelo://app?vid=6831c670-6fa1-48e4-9870-e13279e17df3","ios":"levelo://app?vid=6831c670-6fa1-48e4-9870-e13279e17df3"},"vehicle_type_id":"4","last_reported":1685559876,"current_range_meters":26400,"station_id":"ce4bhq92rcd13ifvqhkg","pricing_plan_id":"free"},{"bike_id":"3a067f70-1532-4df4-a28c-27743a235ef4","system_id":"levelo_inurba_marseille","lat":43.320291,"lon":5.41564,"is_reserved":false,"is_disabled":false,"rental_uris":{"android":"levelo://app?vid=3a067f70-1532-4df4-a28c-27743a235ef4","ios":"levelo://app?vid=3a067f70-1532-4df4-a28c-27743a235ef4"},"vehicle_type_id":"4","last_reported":1685559876,"current_range_meters":30400,"station_id":"","pricing_plan_id":"free"},{"bike_id":"872cc9b8-e4b4-4386-bfe7-b52a0149befc","system_id":"levelo_inurba_marseille","lat":43.279742,"lon":5.38744,"is_reserved":false,"is_disabled":false,"rental_uris":{"android":"levelo://app?vid=872cc9b8-e4b4-4386-bfe7-b52a0149befc","ios":"levelo://app?vid=872cc9b8-e4b4-4386-bfe7-b52a0149befc"},"vehicle_type_id":"4","last_reported":1685559876,"current_range_meters":800,"station_id":"ce4bhg12rcd13ifvqf80","pricing_plan_id":"free"},{"bike_id":"7fc6d43d-5248-4181-b14d-5c0a8953830f","system_id":"levelo_inurba_marseille","lat":43.320045,"lon":5.415046,"is_reserved":false,"is_disabled":false,"rental_uris":{"android":"levelo://app?vid=7fc6d43d-5248-4181-b14d-5c0a8953830f","ios":"levelo://app?vid=7fc6d43d-5248-4181-b14d-5c0a8953830f"},"vehicle_type_id":"4","last_reported":1685559876,"current_range_meters":28400,"station_id":"ce4bhq92rcd13ifvqhkg","pricing_plan_id":"free"},{"bike_id":"17bccdfb-4fa6-42dc-b442-7d2a2ed927df","system_id":"levelo_inurba_marseille","lat":43.279742,"lon":5.38744,"is_reserved":false,"is_disabled":false,"rental_uris":{"android":"levelo://app?vid=17bccdfb-4fa6-42dc-b442-7d2a2ed927df","ios":"levelo://app?vid=17bccdfb-4fa6-42dc-b442-7d2a2ed927df"},"vehicle_type_id":"4","last_reported":1685559876,"current_range_meters":3600,"station_id":"ce4bhg12rcd13ifvqf80","pricing_plan_id":"free"},{"bike_id":"54a5789f-230d-4d81-9866-d44b91d0297e","system_id":"levelo_inurba_marseille","lat":43.29804,"lon":5.4147,"is_reserved":false,"is_disabled":false,"rental_uris":{"android":"levelo://app?vid=54a5789f-230d-4d81-9866-d44b91d0297e","ios":"levelo://app?vid=54a5789f-230d-4d81-9866-d44b91d0297e"},"vehicle_type_id":"4","last_reported":1685559876,"current_range_meters":800,"station_id":"","pricing_plan_id":"free"},{"bike_id":"01d10ea7-4449-4ac5-89a0-70b5d8a6d724","system_id":"levelo_inurba_marseille","lat":43.278401,"lon":5.392152,"is_reserved":false,"is_disabled":false,"rental_uris":{"android":"levelo://app?vid=01d10ea7-4449-4ac5-89a0-70b5d8a6d724","ios":"levelo://app?vid=01d10ea7-4449-4ac5-89a0-70b5d8a6d724"},"vehicle_type_id":"4","last_reported":1685559876,"current_range_meters":9200,"station_id":"ce4bhjp2rcd13ifvqga0","pricing_plan_id":"free"},{"bike_id":"ddf1131e-e816-46c9-9279-214086f682e0","system_id":"levelo_inurba_marseille","lat":43.303837,"lon":5.418724,"is_reserved":false,"is_disabled":false,"rental_uris":{"android":"levelo://app?vid=ddf1131e-e816-46c9-9279-214086f682e0","ios":"levelo://app?vid=ddf1131e-e816-46c9-9279-214086f682e0"},"vehicle_type_id":"4","last_reported":1685559876,"current_range_meters":6800,"station_id":"ce4bhop2rcd13ifvqh7g","pricing_plan_id":"free"},{"bike_id":"62ef1cbb-27b0-4109-af85-23ec6bdfe10f","system_id":"levelo_inurba_marseille","lat":43.278354,"lon":5.391947,"is_reserved":false,"is_disabled":false,"rental_uris":{"android":"levelo://app?vid=62ef1cbb-27b0-4109-af85-23ec6bdfe10f","ios":"levelo://app?vid=62ef1cbb-27b0-4109-af85-23ec6bdfe10f"},"vehicle_type_id":"4","last_reported":1685559876,"current_range_meters":0,"station_id":"ce4bhjp2rcd13ifvqga0","pricing_plan_id":"free"},{"bike_id":"cc234879-9a85-4449-bfa3-9f802734799f","system_id":"levelo_inurba_marseille","lat":43.27386,"lon":5.36254,"is_reserved":false,"is_disabled":false,"rental_uris":{"android":"levelo://app?vid=cc234879-9a85-4449-bfa3-9f802734799f","ios":"levelo://app?vid=cc234879-9a85-4449-bfa3-9f802734799f"},"vehicle_type_id":"4","last_reported":1685559876,"current_range_meters":3200,"station_id":"ce4bhbh2rcd13ifvqeo0","pricing_plan_id":"free"},{"bike_id":"5fb1e1d4-c060-48c1-96d7-d6b09055a4a0","system_id":"levelo_inurba_marseille","lat":43.27377,"lon":5.36251,"is_reserved":false,"is_disabled":false,"rental_uris":{"android":"levelo://app?vid=5fb1e1d4-c060-48c1-96d7-d6b09055a4a0","ios":"levelo://app?vid=5fb1e1d4-c060-48c1-96d7-d6b09055a4a0"},"vehicle_type_id":"4","last_reported":1685559876,"current_range_meters":11200,"station_id":"ce4bhbh2rcd13ifvqeo0","pricing_plan_id":"free"},{"bike_id":"ab9b9128-2a1a-4090-8792-029501f45a74","system_id":"levelo_inurba_marseille","lat":43.27376,"lon":5.3626,"is_reserved":false,"is_disabled":false,"rental_uris":{"android":"levelo://app?vid=ab9b9128-2a1a-4090-8792-029501f45a74","ios":"levelo://app?vid=ab9b9128-2a1a-4090-8792-029501f45a74"},"vehicle_type_id":"4","last_reported":1685559876,"current_range_meters":31200,"station_id":"ce4bhbh2rcd13ifvqeo0","pricing_plan_id":"free"},{"bike_id":"42ba5a2f-3443-4143-b6e9-054a4a3be363","system_id":"levelo_inurba_marseille","lat":43.2757,"lon":5.38425,"is_reserved":false,"is_disabled":false,"rental_uris":{"android":"levelo://app?vid=42ba5a2f-3443-4143-b6e9-054a4a3be363","ios":"levelo://app?vid=42ba5a2f-3443-4143-b6e9-054a4a3be363"},"vehicle_type_id":"4","last_reported":1685559876,"current_range_meters":13200,"station_id":"","pricing_plan_id":"free"},{"bike_id":"04e1d14e-c348-4a9e-886f-594637492b31","system_id":"levelo_inurba_marseille","lat":43.33612,"lon":5.410321,"is_reserved":false,"is_disabled":false,"rental_uris":{"android":"levelo://app?vid=04e1d14e-c348-4a9e-886f-594637492b31","ios":"levelo://app?vid=04e1d14e-c348-4a9e-886f-594637492b31"},"vehicle_type_id":"4","last_reported":1685559876,"current_range_meters":20400,"station_id":"ce4bhqh2rcd13ifvqhmg","pricing_plan_id":"free"},{"bike_id":"1d3a6eff-d99d-4718-a9de-0f1c1782317c","system_id":"levelo_inurba_marseille","lat":43.33612,"lon":5.410321,"is_reserved":false,"is_disabled":false,"rental_uris":{"android":"levelo://app?vid=1d3a6eff-d99d-4718-a9de-0f1c1782317c","ios":"levelo://app?vid=1d3a6eff-d99d-4718-a9de-0f1c1782317c"},"vehicle_type_id":"4","last_reported":1685559876,"current_range_meters":18000,"station_id":"ce4bhqh2rcd13ifvqhmg","pricing_plan_id":"free"},{"bike_id":"098c7f05-31e4-42ec-b780-f3de39763eba","system_id":"levelo_inurba_marseille","lat":43.276769,"lon":5.388787,"is_reserved":false,"is_disabled":false,"rental_uris":{"android":"levelo://app?vid=098c7f05-31e4-42ec-b780-f3de39763eba","ios":"levelo://app?vid=098c7f05-31e4-42ec-b780-f3de39763eba"},"vehicle_type_id":"4","last_reported":1685559876,"current_range_meters":1600,"station_id":"ce4bhi12rcd13ifvqfo0","pricing_plan_id":"free"},{"bike_id":"c51ea07c-11ff-48a6-82ac-2b4a5d948562","system_id":"levelo_inurba_marseille","lat":43.276771,"lon":5.388799,"is_reserved":false,"is_disabled":false,"rental_uris":{"android":"levelo://app?vid=c51ea07c-11ff-48a6-82ac-2b4a5d948562","ios":"levelo://app?vid=c51ea07c-11ff-48a6-82ac-2b4a5d948562"},"vehicle_type_id":"4","last_reported":1685559876,"current_range_meters":6800,"station_id":"ce4bhi12rcd13ifvqfo0","pricing_plan_id":"free"},{"bike_id":"8e7693a4-b07a-40ba-a479-5e2df611fff1","system_id":"levelo_inurba_marseille","lat":43.317121,"lon":5.423936,"is_reserved":false,"is_disabled":false,"rental_uris":{"android":"levelo://app?vid=8e7693a4-b07a-40ba-a479-5e2df611fff1","ios":"levelo://app?vid=8e7693a4-b07a-40ba-a479-5e2df611fff1"},"vehicle_type_id":"4","last_reported":1685559876,"current_range_meters":22400,"station_id":"ce4bhp92rcd13ifvqhbg","pricing_plan_id":"free"},{"bike_id":"b20f50cf-315d-4e37-9295-bcccdf0456f1","system_id":"levelo_inurba_marseille","lat":43.310785,"lon":5.424305,"is_reserved":false,"is_disabled":false,"rental_uris":{"android":"levelo://app?vid=b20f50cf-315d-4e37-9295-bcccdf0456f1","ios":"levelo://app?vid=b20f50cf-315d-4e37-9295-bcccdf0456f1"},"vehicle_type_id":"4","last_reported":1685559876,"current_range_meters":8400,"station_id":"ce4bhp92rcd13ifvqhag","pricing_plan_id":"free"},{"bike_id":"7bb996a3-ba08-4c4f-bd56-99b561acf289","system_id":"levelo_inurba_marseille","lat":43.310785,"lon":5.424305,"is_reserved":false,"is_disabled":false,"rental_uris":{"android":"levelo://app?vid=7bb996a3-ba08-4c4f-bd56-99b561acf289","ios":"levelo://app?vid=7bb996a3-ba08-4c4f-bd56-99b561acf289"},"vehicle_type_id":"4","last_reported":1685559876,"current_range_meters":16800,"station_id":"ce4bhp92rcd13ifvqhag","pricing_plan_id":"free"},{"bike_id":"41514864-e104-4b1d-a21c-d9dcbf98d1b1","system_id":"levelo_inurba_marseille","lat":43.310785,"lon":5.424305,"is_reserved":false,"is_disabled":false,"rental_uris":{"android":"levelo://app?vid=41514864-e104-4b1d-a21c-d9dcbf98d1b1","ios":"levelo://app?vid=41514864-e104-4b1d-a21c-d9dcbf98d1b1"},"vehicle_type_id":"4","last_reported":1685559876,"current_range_meters":19600,"station_id":"ce4bhp92rcd13ifvqhag","pricing_plan_id":"free"},{"bike_id":"d2912307-fa62-4ac5-9ae5-7566f1d786a2","system_id":"levelo_inurba_marseille","lat":43.317121,"lon":5.423936,"is_reserved":false,"is_disabled":false,"rental_uris":{"android":"levelo://app?vid=d2912307-fa62-4ac5-9ae5-7566f1d786a2","ios":"levelo://app?vid=d2912307-fa62-4ac5-9ae5-7566f1d786a2"},"vehicle_type_id":"4","last_reported":1685559876,"current_range_meters":29200,"station_id":"ce4bhp92rcd13ifvqhbg","pricing_plan_id":"free"},{"bike_id":"823e8e1f-5c7f-4ba0-9712-d74c97a6f36b","system_id":"levelo_inurba_marseille","lat":43.273125,"lon":5.390731,"is_reserved":false,"is_disabled":false,"rental_uris":{"android":"levelo://app?vid=823e8e1f-5c7f-4ba0-9712-d74c97a6f36b","ios":"levelo://app?vid=823e8e1f-5c7f-4ba0-9712-d74c97a6f36b"},"vehicle_type_id":"4","last_reported":1685559876,"current_range_meters":5600,"station_id":"ce4bhgp2rcd13ifvqfe0","pricing_plan_id":"free"},{"bike_id":"263a53ed-c60e-4d5a-be2f-d4b242b9615a","system_id":"levelo_inurba_marseille","lat":43.304096,"lon":5.425385,"is_reserved":false,"is_disabled":false,"rental_uris":{"android":"levelo://app?vid=263a53ed-c60e-4d5a-be2f-d4b242b9615a","ios":"levelo://app?vid=263a53ed-c60e-4d5a-be2f-d4b242b9615a"},"vehicle_type_id":"4","last_reported":1685559876,"current_range_meters":0,"station_id":"ce4bhoh2rcd13ifvqh6g","pricing_plan_id":"free"},{"bike_id":"5407b7eb-5c0f-48b1-8416-a73bb75fe8d1","system_id":"levelo_inurba_marseille","lat":43.295523,"lon":5.422926,"is_reserved":false,"is_disabled":false,"rental_uris":{"android":"levelo://app?vid=5407b7eb-5c0f-48b1-8416-a73bb75fe8d1","ios":"levelo://app?vid=5407b7eb-5c0f-48b1-8416-a73bb75fe8d1"},"vehicle_type_id":"4","last_reported":1685559876,"current_range_meters":6800,"station_id":"ce4bhph2rcd13ifvqhdg","pricing_plan_id":"free"},{"bike_id":"0e1f5132-f84d-4cdb-8041-5713873257d1","system_id":"levelo_inurba_marseille","lat":43.295523,"lon":5.422926,"is_reserved":false,"is_disabled":false,"rental_uris":{"android":"levelo://app?vid=0e1f5132-f84d-4cdb-8041-5713873257d1","ios":"levelo://app?vid=0e1f5132-f84d-4cdb-8041-5713873257d1"},"vehicle_type_id":"4","last_reported":1685559876,"current_range_meters":1600,"station_id":"ce4bhph2rcd13ifvqhdg","pricing_plan_id":"free"},{"bike_id":"4e19a82e-4a03-466f-bc50-91ed1536e50d","system_id":"levelo_inurba_marseille","lat":43.278128,"lon":5.407195,"is_reserved":false,"is_disabled":false,"rental_uris":{"android":"levelo://app?vid=4e19a82e-4a03-466f-bc50-91ed1536e50d","ios":"levelo://app?vid=4e19a82e-4a03-466f-bc50-91ed1536e50d"},"vehicle_type_id":"4","last_reported":1685559876,"current_range_meters":0,"station_id":"ce4bhnh2rcd13ifvqgtg","pricing_plan_id":"free"},{"bike_id":"963a012e-4956-4fb7-a65b-27e6473f0c87","system_id":"levelo_inurba_marseille","lat":43.278128,"lon":5.407195,"is_reserved":false,"is_disabled":false,"rental_uris":{"android":"levelo://app?vid=963a012e-4956-4fb7-a65b-27e6473f0c87","ios":"levelo://app?vid=963a012e-4956-4fb7-a65b-27e6473f0c87"},"vehicle_type_id":"4","last_reported":1685559876,"current_range_meters":24000,"station_id":"ce4bhnh2rcd13ifvqgtg","pricing_plan_id":"free"},{"bike_id":"f81bffb4-f488-49eb-8402-e39770c99a39","system_id":"levelo_inurba_marseille","lat":43.278128,"lon":5.407195,"is_reserved":false,"is_disabled":false,"rental_uris":{"android":"levelo://app?vid=f81bffb4-f488-49eb-8402-e39770c99a39","ios":"levelo://app?vid=f81bffb4-f488-49eb-8402-e39770c99a39"},"vehicle_type_id":"4","last_reported":1685559876,"current_range_meters":400,"station_id":"ce4bhnh2rcd13ifvqgtg","pricing_plan_id":"free"},{"bike_id":"7acaa1f6-b04d-490b-ae65-8609466ffdd8","system_id":"levelo_inurba_marseille","lat":43.278128,"lon":5.407195,"is_reserved":false,"is_disabled":false,"rental_uris":{"android":"levelo://app?vid=7acaa1f6-b04d-490b-ae65-8609466ffdd8","ios":"levelo://app?vid=7acaa1f6-b04d-490b-ae65-8609466ffdd8"},"vehicle_type_id":"4","last_reported":1685559876,"current_range_meters":32000,"station_id":"ce4bhnh2rcd13ifvqgtg","pricing_plan_id":"free"},{"bike_id":"dd08facb-6ded-49ed-a6be-bff07afd8db5","system_id":"levelo_inurba_marseille","lat":43.27811,"lon":5.40715,"is_reserved":false,"is_disabled":false,"rental_uris":{"android":"levelo://app?vid=dd08facb-6ded-49ed-a6be-bff07afd8db5","ios":"levelo://app?vid=dd08facb-6ded-49ed-a6be-bff07afd8db5"},"vehicle_type_id":"4","last_reported":1685559876,"current_range_meters":2000,"station_id":"ce4bhnh2rcd13ifvqgtg","pricing_plan_id":"free"},{"bike_id":"ffb04764-3b0f-4e61-a89a-584872c965f8","system_id":"levelo_inurba_marseille","lat":43.278128,"lon":5.407195,"is_reserved":false,"is_disabled":false,"rental_uris":{"android":"levelo://app?vid=ffb04764-3b0f-4e61-a89a-584872c965f8","ios":"levelo://app?vid=ffb04764-3b0f-4e61-a89a-584872c965f8"},"vehicle_type_id":"4","last_reported":1685559876,"current_range_meters":26400,"station_id":"ce4bhnh2rcd13ifvqgtg","pricing_plan_id":"free"},{"bike_id":"c6c00686-df7e-4ac0-8ffd-1d4f30b8f69b","system_id":"levelo_inurba_marseille","lat":43.278128,"lon":5.407195,"is_reserved":false,"is_disabled":false,"rental_uris":{"android":"levelo://app?vid=c6c00686-df7e-4ac0-8ffd-1d4f30b8f69b","ios":"levelo://app?vid=c6c00686-df7e-4ac0-8ffd-1d4f30b8f69b"},"vehicle_type_id":"4","last_reported":1685559876,"current_range_meters":8000,"station_id":"ce4bhnh2rcd13ifvqgtg","pricing_plan_id":"free"},{"bike_id":"241af8f0-e607-45bf-9915-8755f917be78","system_id":"levelo_inurba_marseille","lat":43.278128,"lon":5.407195,"is_reserved":false,"is_disabled":false,"rental_uris":{"android":"levelo://app?vid=241af8f0-e607-45bf-9915-8755f917be78","ios":"levelo://app?vid=241af8f0-e607-45bf-9915-8755f917be78"},"vehicle_type_id":"4","last_reported":1685559876,"current_range_meters":22000,"station_id":"ce4bhnh2rcd13ifvqgtg","pricing_plan_id":"free"},{"bike_id":"27da7b1b-2907-4a16-8231-e2626b10a05f","system_id":"levelo_inurba_marseille","lat":43.27908,"lon":5.40927,"is_reserved":false,"is_disabled":false,"rental_uris":{"android":"levelo://app?vid=27da7b1b-2907-4a16-8231-e2626b10a05f","ios":"levelo://app?vid=27da7b1b-2907-4a16-8231-e2626b10a05f"},"vehicle_type_id":"4","last_reported":1685559876,"current_range_meters":0,"station_id":"","pricing_plan_id":"free"},{"bike_id":"2461faab-a7e7-4566-b1c2-9495fbac523f","system_id":"levelo_inurba_marseille","lat":43.265714,"lon":5.372891,"is_reserved":false,"is_disabled":false,"rental_uris":{"android":"levelo://app?vid=2461faab-a7e7-4566-b1c2-9495fbac523f","ios":"levelo://app?vid=2461faab-a7e7-4566-b1c2-9495fbac523f"},"vehicle_type_id":"4","last_reported":1685559876,"current_range_meters":1600,"station_id":"ce4bhg12rcd13ifvqf70","pricing_plan_id":"free"},{"bike_id":"86ee730f-b167-45bf-9603-e049a66d54c1","system_id":"levelo_inurba_marseille","lat":43.265714,"lon":5.372891,"is_reserved":false,"is_disabled":false,"rental_uris":{"android":"levelo://app?vid=86ee730f-b167-45bf-9603-e049a66d54c1","ios":"levelo://app?vid=86ee730f-b167-45bf-9603-e049a66d54c1"},"vehicle_type_id":"4","last_reported":1685559876,"current_range_meters":4800,"station_id":"ce4bhg12rcd13ifvqf70","pricing_plan_id":"free"},{"bike_id":"32ad165e-9e51-45b5-86ea-b33fb6868411","system_id":"levelo_inurba_marseille","lat":43.265714,"lon":5.372891,"is_reserved":false,"is_disabled":false,"rental_uris":{"android":"levelo://app?vid=32ad165e-9e51-45b5-86ea-b33fb6868411","ios":"levelo://app?vid=32ad165e-9e51-45b5-86ea-b33fb6868411"},"vehicle_type_id":"4","last_reported":1685559876,"current_range_meters":4000,"station_id":"ce4bhg12rcd13ifvqf70","pricing_plan_id":"free"},{"bike_id":"97f92444-dc7f-4ac8-885e-43ac50454dc0","system_id":"levelo_inurba_marseille","lat":43.31725,"lon":5.43318,"is_reserved":false,"is_disabled":false,"rental_uris":{"android":"levelo://app?vid=97f92444-dc7f-4ac8-885e-43ac50454dc0","ios":"levelo://app?vid=97f92444-dc7f-4ac8-885e-43ac50454dc0"},"vehicle_type_id":"4","last_reported":1685559876,"current_range_meters":0,"station_id":"","pricing_plan_id":"free"},{"bike_id":"dca53d99-25b2-4472-8bb9-abbe9a398ea8","system_id":"levelo_inurba_marseille","lat":43.27997,"lon":5.41656,"is_reserved":false,"is_disabled":false,"rental_uris":{"android":"levelo://app?vid=dca53d99-25b2-4472-8bb9-abbe9a398ea8","ios":"levelo://app?vid=dca53d99-25b2-4472-8bb9-abbe9a398ea8"},"vehicle_type_id":"4","last_reported":1685559876,"current_range_meters":17600,"station_id":"ce4bho12rcd13ifvqh1g","pricing_plan_id":"free"},{"bike_id":"1e0b85af-2321-4527-9531-6e337fc870de","system_id":"levelo_inurba_marseille","lat":43.27998,"lon":5.41659,"is_reserved":false,"is_disabled":false,"rental_uris":{"android":"levelo://app?vid=1e0b85af-2321-4527-9531-6e337fc870de","ios":"levelo://app?vid=1e0b85af-2321-4527-9531-6e337fc870de"},"vehicle_type_id":"4","last_reported":1685559876,"current_range_meters":8400,"station_id":"ce4bho12rcd13ifvqh1g","pricing_plan_id":"free"},{"bike_id":"7c45cce0-764a-4558-b07e-28e017521449","system_id":"levelo_inurba_marseille","lat":43.27989,"lon":5.41656,"is_reserved":false,"is_disabled":false,"rental_uris":{"android":"levelo://app?vid=7c45cce0-764a-4558-b07e-28e017521449","ios":"levelo://app?vid=7c45cce0-764a-4558-b07e-28e017521449"},"vehicle_type_id":"4","last_reported":1685559876,"current_range_meters":7600,"station_id":"ce4bho12rcd13ifvqh1g","pricing_plan_id":"free"},{"bike_id":"351ac37a-c6a1-455b-a8e2-3fc96b58e2cb","system_id":"levelo_inurba_marseille","lat":43.267966,"lon":5.393976,"is_reserved":false,"is_disabled":false,"rental_uris":{"android":"levelo://app?vid=351ac37a-c6a1-455b-a8e2-3fc96b58e2cb","ios":"levelo://app?vid=351ac37a-c6a1-455b-a8e2-3fc96b58e2cb"},"vehicle_type_id":"4","last_reported":1685559876,"current_range_meters":21600,"station_id":"ce4bhh12rcd13ifvqfg0","pricing_plan_id":"free"},{"bike_id":"9be91a05-acb2-4a85-9b2a-20bb2a52fa00","system_id":"levelo_inurba_marseille","lat":43.30805,"lon":5.43519,"is_reserved":false,"is_disabled":false,"rental_uris":{"android":"levelo://app?vid=9be91a05-acb2-4a85-9b2a-20bb2a52fa00","ios":"levelo://app?vid=9be91a05-acb2-4a85-9b2a-20bb2a52fa00"},"vehicle_type_id":"4","last_reported":1685559876,"current_range_meters":15600,"station_id":"","pricing_plan_id":"free"},{"bike_id":"3ae8206a-20cf-4d05-bcf9-8fb7b594bea8","system_id":"levelo_inurba_marseille","lat":43.308,"lon":5.43523,"is_reserved":false,"is_disabled":false,"rental_uris":{"android":"levelo://app?vid=3ae8206a-20cf-4d05-bcf9-8fb7b594bea8","ios":"levelo://app?vid=3ae8206a-20cf-4d05-bcf9-8fb7b594bea8"},"vehicle_type_id":"4","last_reported":1685559876,"current_range_meters":8400,"station_id":"","pricing_plan_id":"free"},{"bike_id":"ae7289d2-2ae0-450c-9a44-0a11cae73605","system_id":"levelo_inurba_marseille","lat":43.261782,"lon":5.374515,"is_reserved":false,"is_disabled":false,"rental_uris":{"android":"levelo://app?vid=ae7289d2-2ae0-450c-9a44-0a11cae73605","ios":"levelo://app?vid=ae7289d2-2ae0-450c-9a44-0a11cae73605"},"vehicle_type_id":"4","last_reported":1685559876,"current_range_meters":28800,"station_id":"ce4bhgp2rcd13ifvqfc0","pricing_plan_id":"free"},{"bike_id":"4c87aa70-8bcc-4392-9bd2-2d05aa79f69f","system_id":"levelo_inurba_marseille","lat":43.261782,"lon":5.374515,"is_reserved":false,"is_disabled":false,"rental_uris":{"android":"levelo://app?vid=4c87aa70-8bcc-4392-9bd2-2d05aa79f69f","ios":"levelo://app?vid=4c87aa70-8bcc-4392-9bd2-2d05aa79f69f"},"vehicle_type_id":"4","last_reported":1685559876,"current_range_meters":9600,"station_id":"ce4bhgp2rcd13ifvqfc0","pricing_plan_id":"free"},{"bike_id":"ba2cf7f8-8b25-46a5-8c83-7d937d08b123","system_id":"levelo_inurba_marseille","lat":43.261782,"lon":5.374515,"is_reserved":false,"is_disabled":false,"rental_uris":{"android":"levelo://app?vid=ba2cf7f8-8b25-46a5-8c83-7d937d08b123","ios":"levelo://app?vid=ba2cf7f8-8b25-46a5-8c83-7d937d08b123"},"vehicle_type_id":"4","last_reported":1685559876,"current_range_meters":4400,"station_id":"ce4bhgp2rcd13ifvqfc0","pricing_plan_id":"free"},{"bike_id":"2c4f6ec1-bbab-477f-b1b1-4b0bd2c4f302","system_id":"levelo_inurba_marseille","lat":43.2619,"lon":5.37519,"is_reserved":false,"is_disabled":false,"rental_uris":{"android":"levelo://app?vid=2c4f6ec1-bbab-477f-b1b1-4b0bd2c4f302","ios":"levelo://app?vid=2c4f6ec1-bbab-477f-b1b1-4b0bd2c4f302"},"vehicle_type_id":"4","last_reported":1685559876,"current_range_meters":17200,"station_id":"","pricing_plan_id":"free"},{"bike_id":"bb344a2b-f9f0-4fb9-a524-6218ed6314f5","system_id":"levelo_inurba_marseille","lat":43.260225,"lon":5.375455,"is_reserved":false,"is_disabled":false,"rental_uris":{"android":"levelo://app?vid=bb344a2b-f9f0-4fb9-a524-6218ed6314f5","ios":"levelo://app?vid=bb344a2b-f9f0-4fb9-a524-6218ed6314f5"},"vehicle_type_id":"4","last_reported":1685559876,"current_range_meters":20400,"station_id":"ce4bhgh2rcd13ifvqfa0","pricing_plan_id":"free"},{"bike_id":"5d4ea604-2546-41cd-9959-119f4fa133a4","system_id":"levelo_inurba_marseille","lat":43.2607,"lon":5.393983,"is_reserved":false,"is_disabled":false,"rental_uris":{"android":"levelo://app?vid=5d4ea604-2546-41cd-9959-119f4fa133a4","ios":"levelo://app?vid=5d4ea604-2546-41cd-9959-119f4fa133a4"},"vehicle_type_id":"4","last_reported":1685559876,"current_range_meters":22400,"station_id":"ce4bhh92rcd13ifvqfj0","pricing_plan_id":"free"},