{"last_updated":1704402401,"ttl":30,"version":"2.2","data":{"bikes":[{"bike_id":"d131011c-dec3-4507-b0d4-5aac847d1d78","system_id":"levelo_inurba_marseille","lat":43.313391,"lon":5.36706,"is_reserved":false,"is_disabled":false,"rental_uris":{"android":"levelo://app?vid=d131011c-dec3-4507-b0d4-5aac847d1d78","ios":"levelo://app?vid=d131011c-dec3-4507-b0d4-5aac847d1d78"},"vehicle_type_id":"4","last_reported":1704402401,"current_range_meters":26000,"station_id":"ce4bgr92rcd13ifvqc6g","pricing_plan_id":"free"},{"bike_id":"53c6de25-625c-4b59-9787-d78550753d7a","system_id":"levelo_inurba_marseille","lat":43.314811,"lon":5.373103,"is_reserved":false,"is_disabled":false,"rental_uris":{"android":"levelo://app?vid=53c6de25-625c-4b59-9787-d78550753d7a","ios":"levelo://app?vid=53c6de25-625c-4b59-9787-d78550753d7a"},"vehicle_type_id":"4","last_reported":1704402401,"current_range_meters":0,"station_id":"ce4bgt12rcd13ifvqcd0","pricing_plan_id":"free"},{"bike_id":"64468dc6-1328-45d5-9c14-a0e97cdb2d6a","system_id":"levelo_inurba_marseille","lat":43.305368,"lon":5.367343,"is_reserved":false,"is_disabled":false,"rental_uris":{"android":"levelo://app?vid=64468dc6-1328-45d5-9c14-a0e97cdb2d6a","ios":"levelo://app?vid=64468dc6-1328-45d5-9c14-a0e97cdb2d6a"},"vehicle_type_id":"4","last_reported":1704402401,"current_range_meters":2800,"station_id":"ce4bgrp2rcd13ifvqc9g","pricing_plan_id":"free"},{"bike_id":"4573ad02-fe87-446b-a714-a0405b396b0f","system_id":"levelo_inurba_marseille","lat":43.305989,"lon":5.37225,"is_reserved":false,"is_disabled":false,"rental_uris":{"android":"levelo://app?vid=4573ad02-fe87-446b-a714-a0405b396b0f","ios":"levelo://app?vid=4573ad02-fe87-446b-a714-a0405b396b0f"},"vehicle_type_id":"4","last_reported":1704402401,"current_range_meters":9600,"station_id":"ce4bgqh2rcd13ifvqc4g","pricing_plan_id":"free"},{"bike_id":"5611dd7f-fbdd-43a5-9553-e69d4d493df5","system_id":"levelo_inurba_marseille","lat":43.311125,"lon":5.377624,"is_reserved":false,"is_disabled":false,"rental_uris":{"android":"levelo://app?vid=5611dd7f-fbdd-43a5-9553-e69d4d493df5","ios":"levelo://app?vid=5611dd7f-fbdd-43a5-9553-e69d4d493df5"},"vehicle_type_id":"4","last_reported":1704402401,"current_range_meters":0,"station_id":"ce4bgt92rcd13ifvqcg0","pricing_plan_id":"free"},{"bike_id":"8f20fd1d-4b5f-4b10-8a6e-fe021223b97b","system_id":"levelo_inurba_marseille","lat":43.308337,"lon":5.376598,"is_reserved":false,"is_disabled":false,"rental_uris":{"android":"levelo://app?vid=8f20fd1d-4b5f-4b10-8a6e-fe021223b97b","ios":"levelo://app?vid=8f20fd1d-4b5f-4b10-8a6e-fe021223b97b"},"vehicle_type_id":"4","last_reported":1704402401,"current_range_meters":7600,"station_id":"ce4bgv92rcd13ifvqcq0","pricing_plan_id":"free"},{"bike_id":"2fe83b0f-eb02-4856-9559-2ec7a49fcb83","system_id":"levelo_inurba_marseille","lat":43.307945,"lon":5.376487,"is_reserved":false,"is_disabled":false,"rental_uris":{"android":"levelo://app?vid=2fe83b0f-eb02-4856-9559-2ec7a49fcb83","ios":"levelo://app?vid=2fe83b0f-eb02-4856-9559-2ec7a49fcb83"},"vehicle_type_id":"4","last_reported":1704402401,"current_range_meters":21200,"station_id":"ce4bgv92rcd13ifvqcq0","pricing_plan_id":"free"},{"bike_id":"c4e90871-bb94-4085-82dc-ccbd997a22ca","system_id":"levelo_inurba_marseille","lat":43.31522,"lon":5.379016,"is_reserved":false,"is_disabled":false,"rental_uris":{"android":"levelo://app?vid=c4e90871-bb94-4085-82dc-ccbd997a22ca","ios":"levelo://app?vid=c4e90871-bb94-4085-82dc-ccbd997a22ca"},"vehicle_type_id":"4","last_reported":1704402401,"current_range_meters":17600,"station_id":"","pricing_plan_id":"free"},{"bike_id":"b2f736b9-5add-4644-b351-74e3e3aa3500","system_id":"levelo_inurba_marseille","lat":43.31539,"lon":5.38024,"is_reserved":false,"is_disabled":false,"rental_uris":{"android":"levelo://app?vid=b2f736b9-5add-4644-b351-74e3e3aa3500","ios":"levelo://app?vid=b2f736b9-5add-4644-b351-74e3e3aa3500"},"vehicle_type_id":"4","last_reported":1704402401,"current_range_meters":22000,"station_id":"ce4bhsp2rcd13ifvqi50","pricing_plan_id":"free"},{"bike_id":"fa4f60e7-25fb-497b-b44c-51cbbbf42aa0","system_id":"levelo_inurba_marseille","lat":43.301939,"lon":5.366286,"is_reserved":false,"is_disabled":false,"rental_uris":{"android":"levelo://app?vid=fa4f60e7-25fb-497b-b44c-51cbbbf42aa0","ios":"levelo://app?vid=fa4f60e7-25fb-497b-b44c-51cbbbf42aa0"},"vehicle_type_id":"4","last_reported":1704402401,"current_range_meters":2800,"station_id":"ce4bgrh2rcd13ifvqc8g","pricing_plan_id":"free"},{"bike_id":"275c26d3-ae78-4dfd-8ae5-9ea38bca16b8","system_id":"levelo_inurba_marseille","lat":43.31372,"lon":5.383224,"is_reserved":false,"is_disabled":false,"rental_uris":{"android":"levelo://app?vid=275c26d3-ae78-4dfd-8ae5-9ea38bca16b8","ios":"levelo://app?vid=275c26d3-ae78-4dfd-8ae5-9ea38bca16b8"},"vehicle_type_id":"4","last_reported":1704402401,"current_range_meters":0,"station_id":"","pricing_plan_id":"free"},{"bike_id":"0183d854-f6cf-42f1-8ccb-2542cedac4d3","system_id":"levelo_inurba_marseille","lat":43.304606,"lon":5.379026,"is_reserved":false,"is_disabled":false,"rental_uris":{"android":"levelo://app?vid=0183d854-f6cf-42f1-8ccb-2542cedac4d3","ios":"levelo://app?vid=0183d854-f6cf-42f1-8ccb-2542cedac4d3"},"vehicle_type_id":"4","last_reported":1704402401,"current_range_meters":17200,"station_id":"ce4bgup2rcd13ifvqcn0","pricing_plan_id":"free"},{"bike_id":"152907c8-7c49-49cf-9963-9c9a3c579d2e","system_id":"levelo_inurba_marseille","lat":43.304606,"lon":5.379026,"is_reserved":false,"is_disabled":false,"rental_uris":{"android":"levelo://app?vid=152907c8-7c49-49cf-9963-9c9a3c579d2e","ios":"levelo://app?vid=152907c8-7c49-49cf-9963-9c9a3c579d2e"},"vehicle_type_id":"4","last_reported":1704402401,"current_range_meters":24000,"station_id":"ce4bgup2rcd13ifvqcn0","pricing_plan_id":"free"},{"bike_id":"519f7e8b-043e-473b-8cc5-b19d6887cd56","system_id":"levelo_inurba_marseille","lat":43.304606,"lon":5.379026,"is_reserved":false,"is_disabled":false,"rental_uris":{"android":"levelo://app?vid=519f7e8b-043e-473b-8cc5-b19d6887cd56","ios":"levelo://app?vid=519f7e8b-043e-473b-8cc5-b19d6887cd56"},"vehicle_type_id":"4","last_reported":1704402401,"current_range_meters":24000,"station_id":"ce4bgup2rcd13ifvqcn0","pricing_plan_id":"free"},{"bike_id":"78132a6a-b0e4-4a99-8bcd-32f635ca19da","system_id":"levelo_inurba_marseille","lat":43.304606,"lon":5.379026,"is_reserved":false,"is_disabled":false,"rental_uris":{"android":"levelo://app?vid=78132a6a-b0e4-4a99-8bcd-32f635ca19da","ios":"levelo://app?vid=78132a6a-b0e4-4a99-8bcd-32f635ca19da"},"vehicle_type_id":"4","last_reported":1704402401,"current_range_meters":29600,"station_id":"ce4bgup2rcd13ifvqcn0","pricing_plan_id":"free"},{"bike_id":"195c3652-a9e5-42a4-a7f1-2f5691074df1","system_id":"levelo_inurba_marseille","lat":43.304606,"lon":5.379026,"is_reserved":false,"is_disabled":false,"rental_uris":{"android":"levelo://app?vid=195c3652-a9e5-42a4-a7f1-2f5691074df1","ios":"levelo://app?vid=195c3652-a9e5-42a4-a7f1-2f5691074df1"},"vehicle_type_id":"4","last_reported":1704402401,"current_range_meters":28800,"station_id":"ce4bgup2rcd13ifvqcn0","pricing_plan_id":"free"},{"bike_id":"f060d2b6-58da-423e-b120-200ba0d12eec","system_id":"levelo_inurba_marseille","lat":43.304606,"lon":5.379026,"is_reserved":false,"is_disabled":false,"rental_uris":{"android":"levelo://app?vid=f060d2b6-58da-423e-b120-200ba0d12eec","ios":"levelo://app?vid=f060d2b6-58da-423e-b120-200ba0d12eec"},"vehicle_type_id":"4","last_reported":1704402401,"current_range_meters":24800,"station_id":"ce4bgup2rcd13ifvqcn0","pricing_plan_id":"free"},{"bike_id":"d9e7b2c9-3fe5-4642-84bc-fbb3e5d6faec","system_id":"levelo_inurba_marseille","lat":43.324771,"lon":5.36557,"is_reserved":false,"is_disabled":false,"rental_uris":{"android":"levelo://app?vid=d9e7b2c9-3fe5-4642-84bc-fbb3e5d6faec","ios":"levelo://app?vid=d9e7b2c9-3fe5-4642-84bc-fbb3e5d6faec"},"vehicle_type_id":"4","last_reported":1704402401,"current_range_meters":17600,"station_id":"ce4bhs12rcd13ifvqhvg","pricing_plan_id":"free"},{"bike_id":"8e9629d7-ce49-4c6d-bd5d-64abe898c91a","system_id":"levelo_inurba_marseille","lat":43.304606,"lon":5.379026,"is_reserved":false,"is_disabled":false,"rental_uris":{"android":"levelo://app?vid=8e9629d7-ce49-4c6d-bd5d-64abe898c91a","ios":"levelo://app?vid=8e9629d7-ce49-4c6d-bd5d-64abe898c91a"},"vehicle_type_id":"4","last_reported":1704402401,"current_range_meters":26000,"station_id":"ce4bgup2rcd13ifvqcn0","pricing_plan_id":"free"},{"bike_id":"16ea5f48-dbdb-43db-8a5d-9c12a1294194","system_id":"levelo_inurba_marseille","lat":43.324771,"lon":5.36557,"is_reserved":false,"is_disabled":false,"rental_uris":{"android":"levelo://app?vid=16ea5f48-dbdb-43db-8a5d-9c12a1294194","ios":"levelo://app?vid=16ea5f48-dbdb-43db-8a5d-9c12a1294194"},"vehicle_type_id":"4","last_reported":1704402401,"current_range_meters":25600,"station_id":"ce4bhs12rcd13ifvqhvg","pricing_plan_id":"free"},{"bike_id":"d7dea04c-b16e-44ab-89dd-805311b9280c","system_id":"levelo_inurba_marseille","lat":43.319929,"lon":5.381401,"is_reserved":false,"is_disabled":false,"rental_uris":{"android":"levelo://app?vid=d7dea04c-b16e-44ab-89dd-805311b9280c","ios":"levelo://app?vid=d7dea04c-b16e-44ab-89dd-805311b9280c"},"vehicle_type_id":"4","last_reported":1704402401,"current_range_meters":28800,"station_id":"ce4bhr12rcd13ifvqhpg","pricing_plan_id":"free"},{"bike_id":"a8f66612-75a3-4ac8-abc1-61ed5d7e6452","system_id":"levelo_inurba_marseille","lat":43.32001,"lon":5.38147,"is_reserved":false,"is_disabled":false,"rental_uris":{"android":"levelo://app?vid=a8f66612-75a3-4ac8-abc1-61ed5d7e6452","ios":"levelo://app?vid=a8f66612-75a3-4ac8-abc1-61ed5d7e6452"},"vehicle_type_id":"4","last_reported":1704402401,"current_range_meters":0,"station_id":"ce4bhr12rcd13ifvqhpg","pricing_plan_id":"free"},{"bike_id":"f1339662-51db-4ceb-9d62-c7891632b9a2","system_id":"levelo_inurba_marseille","lat":43.31998,"lon":5.38153,"is_reserved":false,"is_disabled":false,"rental_uris":{"android":"levelo://app?vid=f1339662-51db-4ceb-9d62-c7891632b9a2","ios":"levelo://app?vid=f1339662-51db-4ceb-9d62-c7891632b9a2"},"vehicle_type_id":"4","last_reported":1704402401,"current_range_meters":29200,"station_id":"ce4bhr12rcd13ifvqhpg","pricing_plan_id":"free"},{"bike_id":"e4e97c3a-21dd-481b-802d-cce9979f17ed","system_id":"levelo_inurba_marseille","lat":43.31999,"lon":5.38161,"is_reserved":false,"is_disabled":false,"rental_uris":{"android":"levelo://app?vid=e4e97c3a-21dd-481b-802d-cce9979f17ed","ios":"levelo://app?vid=e4e97c3a-21dd-481b-802d-cce9979f17ed"},"vehicle_type_id":"4","last_reported":1704402401,"current_range_meters":8000,"station_id":"ce4bhr12rcd13ifvqhpg","pricing_plan_id":"free"},{"bike_id":"bd810660-488e-4b2a-9763-51af1030a1fe","system_id":"levelo_inurba_marseille","lat":43.313571,"lon":5.384829,"is_reserved":false,"is_disabled":false,"rental_uris":{"android":"levelo://app?vid=bd810660-488e-4b2a-9763-51af1030a1fe","ios":"levelo://app?vid=bd810660-488e-4b2a-9763-51af1030a1fe"},"vehicle_type_id":"4","last_reported":1704402401,"current_range_meters":0,"station_id":"ce4bgt92rcd13ifvqcf0","pricing_plan_id":"free"},{"bike_id":"17504bde-947a-4cd6-98b3-9a4c66aca99b","system_id":"levelo_inurba_marseille","lat":43.313827,"lon":5.385007,"is_reserved":false,"is_disabled":false,"rental_uris":{"android":"levelo://app?vid=17504bde-947a-4cd6-98b3-9a4c66aca99b","ios":"levelo://app?vid=17504bde-947a-4cd6-98b3-9a4c66aca99b"},"vehicle_type_id":"4","last_reported":1704402401,"current_range_meters":12000,"station_id":"ce4bgt92rcd13ifvqcf0","pricing_plan_id":"free"},{"bike_id":"b22604ec-0c4b-41b4-a20e-38add68f7682","system_id":"levelo_inurba_marseille","lat":43.325671,"lon":5.374784,"is_reserved":false,"is_disabled":false,"rental_uris":{"android":"levelo://app?vid=b22604ec-0c4b-41b4-a20e-38add68f7682","ios":"levelo://app?vid=b22604ec-0c4b-41b4-a20e-38add68f7682"},"vehicle_type_id":"4","last_reported":1704402401,"current_range_meters":21200,"station_id":"","pricing_plan_id":"free"},{"bike_id":"eae8ec80-803a-4a5d-9623-c1eae58f4e37","system_id":"levelo_inurba_marseille","lat":43.305364,"lon":5.384119,"is_reserved":false,"is_disabled":false,"rental_uris":{"android":"levelo://app?vid=eae8ec80-803a-4a5d-9623-c1eae58f4e37","ios":"levelo://app?vid=eae8ec80-803a-4a5d-9623-c1eae58f4e37"},"vehicle_type_id":"4","last_reported":1704402401,"current_range_meters":21600,"station_id":"ce4bgg92rcd13ifvqb30","pricing_plan_id":"free"},{"bike_id":"87c84b51-3a48-46ae-8f73-552f37c2f601","system_id":"levelo_inurba_marseille","lat":43.311722,"lon":5.387247,"is_reserved":false,"is_disabled":false,"rental_uris":{"android":"levelo://app?vid=87c84b51-3a48-46ae-8f73-552f37c2f601","ios":"levelo://app?vid=87c84b51-3a48-46ae-8f73-552f37c2f601"},"vehicle_type_id":"4","last_reported":1704402401,"current_range_meters":4400,"station_id":"ce4bgv12rcd13ifvqcp0","pricing_plan_id":"free"},{"bike_id":"921e099e-9cf7-40ea-bb4e-f7b3d50d3bd5","system_id":"levelo_inurba_marseille","lat":43.311722,"lon":5.387247,"is_reserved":false,"is_disabled":false,"rental_uris":{"android":"levelo://app?vid=921e099e-9cf7-40ea-bb4e-f7b3d50d3bd5","ios":"levelo://app?vid=921e099e-9cf7-40ea-bb4e-f7b3d50d3bd5"},"vehicle_type_id":"4","last_reported":1704402401,"current_range_meters":8000,"station_id":"ce4bgv12rcd13ifvqcp0","pricing_plan_id":"free"},{"bike_id":"42417447-5269-42ab-b331-b7ee94937d8f","system_id":"levelo_inurba_marseille","lat":43.311722,"lon":5.387247,"is_reserved":false,"is_disabled":false,"rental_uris":{"android":"levelo://app?vid=42417447-5269-42ab-b331-b7ee94937d8f","ios":"levelo://app?vid=42417447-5269-42ab-b331-b7ee94937d8f"},"vehicle_type_id":"4","last_reported":1704402401,"current_range_meters":21200,"station_id":"ce4bgv12rcd13ifvqcp0","pricing_plan_id":"free"},{"bike_id":"6c146d87-b3cb-4393-a6d7-3ec3c3d00c74","system_id":"levelo_inurba_marseille","lat":43.311722,"lon":5.387247,"is_reserved":false,"is_disabled":false,"rental_uris":{"android":"levelo://app?vid=6c146d87-b3cb-4393-a6d7-3ec3c3d00c74","ios":"levelo://app?vid=6c146d87-b3cb-4393-a6d7-3ec3c3d00c74"},"vehicle_type_id":"4","last_reported":1704402401,"current_range_meters":6800,"station_id":"ce4bgv12rcd13ifvqcp0","pricing_plan_id":"free"},{"bike_id":"105f7b03-6a98-4998-ac5b-3a82c5178c26","system_id":"levelo_inurba_marseille","lat":43.311722,"lon":5.387247,"is_reserved":false,"is_disabled":false,"rental_uris":{"android":"levelo://app?vid=105f7b03-6a98-4998-ac5b-3a82c5178c26","ios":"levelo://app?vid=105f7b03-6a98-4998-ac5b-3a82c5178c26"},"vehicle_type_id":"4","last_reported":1704402401,"current_range_meters":30000,"station_id":"ce4bgv12rcd13ifvqcp0","pricing_plan_id":"free"},{"bike_id":"0bc7ad39-3608-4c43-89ec-85133441f01f","system_id":"levelo_inurba_marseille","lat":43.322872,"lon":5.382756,"is_reserved":false,"is_disabled":false,"rental_uris":{"android":"levelo://app?vid=0bc7ad39-3608-4c43-89ec-85133441f01f","ios":"levelo://app?vid=0bc7ad39-3608-4c43-89ec-85133441f01f"},"vehicle_type_id":"4","last_reported":1704402401,"current_range_meters":14400,"station_id":"ce4bhr12rcd13ifvqhqg","pricing_plan_id":"free"},{"bike_id":"f53e7a9d-7ee6-4428-85bd-3db5d7cc3975","system_id":"levelo_inurba_marseille","lat":43.322872,"lon":5.382756,"is_reserved":false,"is_disabled":false,"rental_uris":{"android":"levelo://app?vid=f53e7a9d-7ee6-4428-85bd-3db5d7cc3975","ios":"levelo://app?vid=f53e7a9d-7ee6-4428-85bd-3db5d7cc3975"},"vehicle_type_id":"4","last_reported":1704402401,"current_range_meters":31600,"station_id":"ce4bhr12rcd13ifvqhqg","pricing_plan_id":"free"},{"bike_id":"4c685cb6-62c0-4268-8ed5-b01f21429f68","system_id":"levelo_inurba_marseille","lat":43.322872,"lon":5.382756,"is_reserved":false,"is_disabled":false,"rental_uris":{"android":"levelo://app?vid=4c685cb6-62c0-4268-8ed5-b01f21429f68","ios":"levelo://app?vid=4c685cb6-62c0-4268-8ed5-b01f21429f68"},"vehicle_type_id":"4","last_reported":1704402401,"current_range_meters":15600,"station_id":"ce4bhr12rcd13ifvqhqg","pricing_plan_id":"free"},{"bike_id":"7e69bdeb-fe69-4483-8ee7-88c81ad264d9","system_id":"levelo_inurba_marseille","lat":43.322872,"lon":5.382756,"is_reserved":false,"is_disabled":false,"rental_uris":{"android":"levelo://app?vid=7e69bdeb-fe69-4483-8ee7-88c81ad264d9","ios":"levelo://app?vid=7e69bdeb-fe69-4483-8ee7-88c81ad264d9"},"vehicle_type_id":"4","last_reported":1704402401,"current_range_meters":27200,"station_id":"ce4bhr12rcd13ifvqhqg","pricing_plan_id":"free"},{"bike_id":"a6953f89-b867-47c2-a99f-949ca50d8a77","system_id":"levelo_inurba_marseille","lat":43.32825,"lon":5.36675,"is_reserved":false,"is_disabled":false,"rental_uris":{"android":"levelo://app?vid=a6953f89-b867-47c2-a99f-949ca50d8a77","ios":"levelo://app?vid=a6953f89-b867-47c2-a99f-949ca50d8a77"},"vehicle_type_id":"4","last_reported":1704402401,"current_range_meters":15600,"station_id":"ce4bhs92rcd13ifvqi0g","pricing_plan_id":"free"},{"bike_id":"1bb80286-6712-4d1f-985b-6846055ae321","system_id":"levelo_inurba_marseille","lat":43.328371,"lon":5.366909,"is_reserved":false,"is_disabled":false,"rental_uris":{"android":"levelo://app?vid=1bb80286-6712-4d1f-985b-6846055ae321","ios":"levelo://app?vid=1bb80286-6712-4d1f-985b-6846055ae321"},"vehicle_type_id":"4","last_reported":1704402401,"current_range_meters":0,"station_id":"ce4bhs92rcd13ifvqi0g","pricing_plan_id":"free"},{"bike_id":"40547a36-645f-4cc6-8bf9-232a8ea96bf6","system_id":"levelo_inurba_marseille","lat":43.328371,"lon":5.366909,"is_reserved":false,"is_disabled":false,"rental_uris":{"android":"levelo://app?vid=40547a36-645f-4cc6-8bf9-232a8ea96bf6","ios":"levelo://app?vid=40547a36-645f-4cc6-8bf9-232a8ea96bf6"},"vehicle_type_id":"4","last_reported":1704402401,"current_range_meters":8000,"station_id":"ce4bhs92rcd13ifvqi0g","pricing_plan_id":"free"},{"bike_id":"80bbfa94-3ee9-4de7-b681-88f4d29824bb","system_id":"levelo_inurba_marseille","lat":43.328371,"lon":5.366909,"is_reserved":false,"is_disabled":false,"rental_uris":{"android":"levelo://app?vid=80bbfa94-3ee9-4de7-b681-88f4d29824bb","ios":"levelo://app?vid=80bbfa94-3ee9-4de7-b681-88f4d29824bb"},"vehicle_type_id":"4","last_reported":1704402401,"current_range_meters":7200,"station_id":"ce4bhs92rcd13ifvqi0g","pricing_plan_id":"free"},{"bike_id":"95e60a05-c3f6-42d6-b8d8-8e09a3364abf","system_id":"levelo_inurba_marseille","lat":43.328371,"lon":5.366909,"is_reserved":false,"is_disabled":false,"rental_uris":{"android":"levelo://app?vid=95e60a05-c3f6-42d6-b8d8-8e09a3364abf","ios":"levelo://app?vid=95e60a05-c3f6-42d6-b8d8-8e09a3364abf"},"vehicle_type_id":"4","last_reported":1704402401,"current_range_meters":11200,"station_id":"ce4bhs92rcd13ifvqi0g","pricing_plan_id":"free"},{"bike_id":"4d6cbba3-2e55-4f7b-870f-2fed43f3ec1c","system_id":"levelo_inurba_marseille","lat":43.328344,"lon":5.366907,"is_reserved":false,"is_disabled":false,"rental_uris":{"android":"levelo://app?vid=4d6cbba3-2e55-4f7b-870f-2fed43f3ec1c","ios":"levelo://app?vid=4d6cbba3-2e55-4f7b-870f-2fed43f3ec1c"},"vehicle_type_id":"4","last_reported":1704402401,"current_range_meters":14800,"station_id":"ce4bhs92rcd13ifvqi0g","pricing_plan_id":"free"},{"bike_id":"370cccf7-c9ba-46c2-819b-c8e8cacc4c21","system_id":"levelo_inurba_marseille","lat":43.3277,"lon":5.37458,"is_reserved":false,"is_disabled":false,"rental_uris":{"android":"levelo://app?vid=370cccf7-c9ba-46c2-819b-c8e8cacc4c21","ios":"levelo://app?vid=370cccf7-c9ba-46c2-819b-c8e8cacc4c21"},"vehicle_type_id":"4","last_reported":1704402401,"current_range_meters":0,"station_id":"","pricing_plan_id":"free"},{"bike_id":"832b4af6-b563-4bcc-8f80-12f869ca9060","system_id":"levelo_inurba_marseille","lat":43.2968,"lon":5.37291,"is_reserved":false,"is_disabled":false,"rental_uris":{"android":"levelo://app?vid=832b4af6-b563-4bcc-8f80-12f869ca9060","ios":"levelo://app?vid=832b4af6-b563-4bcc-8f80-12f869ca9060"},"vehicle_type_id":"4","last_reported":1704402401,"current_range_meters":30000,"station_id":"ce4bgk12rcd13ifvqbj0","pricing_plan_id":"free"},{"bike_id":"d3661675-ef34-4363-8f5c-3f830c1dd761","system_id":"levelo_inurba_marseille","lat":43.296,"lon":5.36797,"is_reserved":false,"is_disabled":false,"rental_uris":{"android":"levelo://app?vid=d3661675-ef34-4363-8f5c-3f830c1dd761","ios":"levelo://app?vid=d3661675-ef34-4363-8f5c-3f830c1dd761"},"vehicle_type_id":"4","last_reported":1704402401,"current_range_meters":20400,"station_id":"","pricing_plan_id":"free"},{"bike_id":"42672ba1-1b6e-4b97-8e9f-22a1eb2cb4dc","system_id":"levelo_inurba_marseille","lat":43.309484,"lon":5.390317,"is_reserved":false,"is_disabled":false,"rental_uris":{"android":"levelo://app?vid=42672ba1-1b6e-4b97-8e9f-22a1eb2cb4dc","ios":"levelo://app?vid=42672ba1-1b6e-4b97-8e9f-22a1eb2cb4dc"},"vehicle_type_id":"4","last_reported":1704402401,"current_range_meters":12400,"station_id":"ce4bgup2rcd13ifvqco0","pricing_plan_id":"free"},{"bike_id":"5364ff76-1469-4e41-a001-3ec425a93233","system_id":"levelo_inurba_marseille","lat":43.317557,"lon":5.390173,"is_reserved":false,"is_disabled":false,"rental_uris":{"android":"levelo://app?vid=5364ff76-1469-4e41-a001-3ec425a93233","ios":"levelo://app?vid=5364ff76-1469-4e41-a001-3ec425a93233"},"vehicle_type_id":"4","last_reported":1704402401,"current_range_meters":30000,"station_id":"ce4bhqp2rcd13ifvqhng","pricing_plan_id":"free"},{"bike_id":"31c16e0a-dcd4-42dd-95fa-5f206f031518","system_id":"levelo_inurba_marseille","lat":43.304274,"lon":5.388873,"is_reserved":false,"is_disabled":false,"rental_uris":{"android":"levelo://app?vid=31c16e0a-dcd4-42dd-95fa-5f206f031518","ios":"levelo://app?vid=31c16e0a-dcd4-42dd-95fa-5f206f031518"},"vehicle_type_id":"4","last_reported":1704402401,"current_range_meters":2800,"station_id":"ce4bgk12rcd13ifvqbi0","pricing_plan_id":"free"},{"bike_id":"d60802d6-4f47-444a-b234-883690eec05b","system_id":"levelo_inurba_marseille","lat":43.33062,"lon":5.3627,"is_reserved":false,"is_disabled":false,"rental_uris":{"android":"levelo://app?vid=d60802d6-4f47-444a-b234-883690eec05b","ios":"levelo://app?vid=d60802d6-4f47-444a-b234-883690eec05b"},"vehicle_type_id":"4","last_reported":1704402401,"current_range_meters":6800,"station_id":"","pricing_plan_id":"free"},{"bike_id":"8c7289ec-98c6-4deb-8b07-b32d8d8ed9cf","system_id":"levelo_inurba_marseille","lat":43.299707,"lon":5.384859,"is_reserved":false,"is_disabled":false,"rental_uris":{"android":"levelo://app?vid=8c7289ec-98c6-4deb-8b07-b32d8d8ed9cf","ios":"levelo://app?vid=8c7289ec-98c6-4deb-8b07-b32d8d8ed9cf"},"vehicle_type_id":"4","last_reported":1704402401,"current_range_meters":13600,"station_id":"ce4bgj92rcd13ifvqbd0","pricing_plan_id":"free"},{"bike_id":"e5cec29a-8af2-4630-bac9-064e7d3d7fec","system_id":"levelo_inurba_marseille","lat":43.299707,"lon":5.384859,"is_reserved":false,"is_disabled":false,"rental_uris":{"android":"levelo://app?vid=e5cec29a-8af2-4630-bac9-064e7d3d7fec","ios":"levelo://app?vid=e5cec29a-8af2-4630-bac9-064e7d3d7fec"},"vehicle_type_id":"4","last_reported":1704402401,"current_range_meters":15600,"station_id":"ce4bgj92rcd13ifvqbd0","pricing_plan_id":"free"},{"bike_id":"b8f5b74b-9b3b-4741-a3ca-929b1987e27d","system_id":"levelo_inurba_marseille","lat":43.299717,"lon":5.384845,"is_reserved":false,"is_disabled":false,"rental_uris":{"android":"levelo://app?vid=b8f5b74b-9b3b-4741-a3ca-929b1987e27d","ios":"levelo://app?vid=b8f5b74b-9b3b-4741-a3ca-929b1987e27d"},"vehicle_type_id":"4","last_reported":1704402401,"current_range_meters":22000,"station_id":"ce4bgj92rcd13ifvqbd0","pricing_plan_id":"free"},{"bike_id":"130cc28e-e034-400a-af6c-4ed7c4d80240","system_id":"levelo_inurba_marseille","lat":43.299717,"lon":5.384845,"is_reserved":false,"is_disabled":false,"rental_uris":{"android":"levelo://app?vid=130cc28e-e034-400a-af6c-4ed7c4d80240","ios":"levelo://app?vid=130cc28e-e034-400a-af6c-4ed7c4d80240"},"vehicle_type_id":"4","last_reported":1704402401,"current_range_meters":24400,"station_id":"ce4bgj92rcd13ifvqbd0","pricing_plan_id":"free"},{"bike_id":"84a14480-5a5a-441d-9359-9368360e5447","system_id":"levelo_inurba_marseille","lat":43.299724,"lon":5.384848,"is_reserved":false,"is_disabled":false,"rental_uris":{"android":"levelo://app?vid=84a14480-5a5a-441d-9359-9368360e5447","ios":"levelo://app?vid=84a14480-5a5a-441d-9359-9368360e5447"},"vehicle_type_id":"4","last_reported":1704402401,"current_range_meters":19200,"station_id":"ce4bgj92rcd13ifvqbd0","pricing_plan_id":"free"},{"bike_id":"e0021f43-de18-4772-bbd0-459c38734811","system_id":"levelo_inurba_marseille","lat":43.323632,"lon":5.388817,"is_reserved":false,"is_disabled":false,"rental_uris":{"android":"levelo://app?vid=e0021f43-de18-4772-bbd0-459c38734811","ios":"levelo://app?vid=e0021f43-de18-4772-bbd0-459c38734811"},"vehicle_type_id":"4","last_reported":1704402401,"current_range_meters":8400,"station_id":"ce4bhqp2rcd13ifvqhog","pricing_plan_id":"free"},{"bike_id":"028a5017-6131-443f-a7fc-80671ad627e9","system_id":"levelo_inurba_marseille","lat":43.32367,"lon":5.388836,"is_reserved":false,"is_disabled":false,"rental_uris":{"android":"levelo://app?vid=028a5017-6131-443f-a7fc-80671ad627e9","ios":"levelo://app?vid=028a5017-6131-443f-a7fc-80671ad627e9"},"vehicle_type_id":"4","last_reported":1704402401,"current_range_meters":18800,"station_id":"ce4bhqp2rcd13ifvqhog","pricing_plan_id":"free"},{"bike_id":"8ed459c4-85ef-4f4f-808a-25f768d2eb94","system_id":"levelo_inurba_marseille","lat":43.32367,"lon":5.388836,"is_reserved":false,"is_disabled":false,"rental_uris":{"android":"levelo://app?vid=8ed459c4-85ef-4f4f-808a-25f768d2eb94","ios":"levelo://app?vid=8ed459c4-85ef-4f4f-808a-25f768d2eb94"},"vehicle_type_id":"4","last_reported":1704402401,"current_range_meters":8000,"station_id":"ce4bhqp2rcd13ifvqhog","pricing_plan_id":"free"},{"bike_id":"6e6aea2e-6746-425e-ae3f-e73f5c833249","system_id":"levelo_inurba_marseille","lat":43.31428,"lon":5.3936,"is_reserved":false,"is_disabled":false,"rental_uris":{"android":"levelo://app?vid=6e6aea2e-6746-425e-ae3f-e73f5c833249","ios":"levelo://app?vid=6e6aea2e-6746-425e-ae3f-e73f5c833249"},"vehicle_type_id":"4","last_reported":1704402401,"current_range_meters":30400,"station_id":"","pricing_plan_id":"free"},{"bike_id":"022b9adc-7b52-4e73-921e-89cfc53bdd44","system_id":"levelo_inurba_marseille","lat":43.292749,"lon":5.368402,"is_reserved":false,"is_disabled":false,"rental_uris":{"android":"levelo://app?vid=022b9adc-7b52-4e73-921e-89cfc53bdd44","ios":"levelo://app?vid=022b9adc-7b52-4e73-921e-89cfc53bdd44"},"vehicle_type_id":"4","last_reported":1704402401,"current_range_meters":0,"station_id":"ce4bhbp2rcd13ifvqesg","pricing_plan_id":"free"},{"bike_id":"08c51cb1-346c-4583-97c1-13384af841e3","system_id":"levelo_inurba_marseille","lat":43.293009,"lon":5.374584,"is_reserved":false,"is_disabled":false,"rental_uris":{"android":"levelo://app?vid=08c51cb1-346c-4583-97c1-13384af841e3","ios":"levelo://app?vid=08c51cb1-346c-4583-97c1-13384af841e3"},"vehicle_type_id":"4","last_reported":1704402401,"current_range_meters":0,"station_id":"ce4bgi12rcd13ifvqb70","pricing_plan_id":"free"},{"bike_id":"7bc84598-7a64-478b-aa32-2f0c22dd2e7e","system_id":"levelo_inurba_marseille","lat":43.305994,"lon":5.393687,"is_reserved":false,"is_disabled":false,"rental_uris":{"android":"levelo://app?vid=7bc84598-7a64-478b-aa32-2f0c22dd2e7e","ios":"levelo://app?vid=7bc84598-7a64-478b-aa32-2f0c22dd2e7e"},"vehicle_type_id":"4","last_reported":1704402401,"current_range_meters":3200,"station_id":"ce4bh0p2rcd13ifvqd80","pricing_plan_id":"free"},{"bike_id":"2d4fb21c-cb34-46bb-a3e5-203cf41bfc56","system_id":"levelo_inurba_marseille","lat":43.29289,"lon":5.37455,"is_reserved":false,"is_disabled":false,"rental_uris":{"android":"levelo://app?vid=2d4fb21c-cb34-46bb-a3e5-203cf41bfc56","ios":"levelo://app?vid=2d4fb21c-cb34-46bb-a3e5-203cf41bfc56"},"vehicle_type_id":"4","last_reported":1704402401,"current_range_meters":0,"station_id":"ce4bgi12rcd13ifvqb70","pricing_plan_id":"free"},{"bike_id":"b4aeb742-c8da-4fce-ba7f-2e107ffc2b2b","system_id":"levelo_inurba_marseille","lat":43.303002,"lon":5.392142,"is_reserved":false,"is_disabled":false,"rental_uris":{"android":"levelo://app?vid=b4aeb742-c8da-4fce-ba7f-2e107ffc2b2b","ios":"levelo://app?vid=b4aeb742-c8da-4fce-ba7f-2e107ffc2b2b"},"vehicle_type_id":"4","last_reported":1704402401,"current_range_meters":20400,"station_id":"ce4bgkh2rcd13ifvqbk0","pricing_plan_id":"free"},{"bike_id":"7c822283-8871-4f0a-8241-2a063ebfd254","system_id":"levelo_inurba_marseille","lat":43.2936,"lon":5.37835,"is_reserved":false,"is_disabled":false,"rental_uris":{"android":"levelo://app?vid=7c822283-8871-4f0a-8241-2a063ebfd254","ios":"levelo://app?vid=7c822283-8871-4f0a-8241-2a063ebfd254"},"vehicle_type_id":"4","last_reported":1704402401,"current_range_meters":2000,"station_id":"ce4bgjh2rcd13ifvqbf0","pricing_plan_id":"free"},{"bike_id":"e2e87e9f-9cf7-4cd1-a13f-8bfbe88e7fc0","system_id":"levelo_inurba_marseille","lat":43.302992,"lon":5.392136,"is_reserved":false,"is_disabled":false,"rental_uris":{"android":"levelo://app?vid=e2e87e9f-9cf7-4cd1-a13f-8bfbe88e7fc0","ios":"levelo://app?vid=e2e87e9f-9cf7-4cd1-a13f-8bfbe88e7fc0"},"vehicle_type_id":"4","last_reported":1704402401,"current_range_meters":18800,"station_id":"ce4bgkh2rcd13ifvqbk0","pricing_plan_id":"free"},{"bike_id":"73d52e0f-bc97-459b-bf94-c7d1045abcb8","system_id":"levelo_inurba_marseille","lat":43.302992,"lon":5.392136,"is_reserved":false,"is_disabled":false,"rental_uris":{"android":"levelo://app?vid=73d52e0f-bc97-459b-bf94-c7d1045abcb8","ios":"levelo://app?vid=73d52e0f-bc97-459b-bf94-c7d1045abcb8"},"vehicle_type_id":"4","last_reported":1704402401,"current_range_meters":27200,"station_id":"ce4bgkh2rcd13ifvqbk0","pricing_plan_id":"free"},{"bike_id":"9f5b4e5d-807f-4e3c-8d90-bbee9c4876f1","system_id":"levelo_inurba_marseille","lat":43.302992,"lon":5.392136,"is_reserved":false,"is_disabled":false,"rental_uris":{"android":"levelo://app?vid=9f5b4e5d-807f-4e3c-8d90-bbee9c4876f1","ios":"levelo://app?vid=9f5b4e5d-807f-4e3c-8d90-bbee9c4876f1"},"vehicle_type_id":"4","last_reported":1704402401,"current_range_meters":28800,"station_id":"ce4bgkh2rcd13ifvqbk0","pricing_plan_id":"free"},{"bike_id":"82e8ccf3-478f-4bc3-b5dd-23e766d57b9f","system_id":"levelo_inurba_marseille","lat":43.300852,"lon":5.390859,"is_reserved":false,"is_disabled":false,"rental_uris":{"android":"levelo://app?vid=82e8ccf3-478f-4bc3-b5dd-23e766d57b9f","ios":"levelo://app?vid=82e8ccf3-478f-4bc3-b5dd-23e766d57b9f"},"vehicle_type_id":"4","last_reported":1704402401,"current_range_meters":11600,"station_id":"ce4bh192rcd13ifvqdb0","pricing_plan_id":"free"},{"bike_id":"d012e41d-0735-464b-80f5-6300e9bd1f76","system_id":"levelo_inurba_marseille","lat":43.298718,"lon":5.389075,"is_reserved":false,"is_disabled":false,"rental_uris":{"android":"levelo://app?vid=d012e41d-0735-464b-80f5-6300e9bd1f76","ios":"levelo://app?vid=d012e41d-0735-464b-80f5-6300e9bd1f76"},"vehicle_type_id":"4","last_reported":1704402401,"current_range_meters":14800,"station_id":"","pricing_plan_id":"free"},{"bike_id":"74cfa131-7ff6-4ea6-a5e0-3feb6166db52","system_id":"levelo_inurba_marseille","lat":43.30883,"lon":5.3963,"is_reserved":false,"is_disabled":false,"rental_uris":{"android":"levelo://app?vid=74cfa131-7ff6-4ea6-a5e0-3feb6166db52","ios":"levelo://app?vid=74cfa131-7ff6-4ea6-a5e0-3feb6166db52"},"vehicle_type_id":"4","last_reported":1704402401,"current_range_meters":8400,"station_id":"ce4bh012rcd13ifvqcv0","pricing_plan_id":"free"},{"bike_id":"a753388a-0e85-430d-8610-c9b31a3b5a6d","system_id":"levelo_inurba_marseille","lat":43.308818,"lon":5.39633,"is_reserved":false,"is_disabled":false,"rental_uris":{"android":"levelo://app?vid=a753388a-0e85-430d-8610-c9b31a3b5a6d","ios":"levelo://app?vid=a753388a-0e85-430d-8610-c9b31a3b5a6d"},"vehicle_type_id":"4","last_reported":1704402401,"current_range_meters":0,"station_id":"ce4bh012rcd13ifvqcv0","pricing_plan_id":"free"},{"bike_id":"50958556-5743-43a2-bf6e-a96f7c88d7a3","system_id":"levelo_inurba_marseille","lat":43.309038,"lon":5.396546,"is_reserved":false,"is_disabled":false,"rental_uris":{"android":"levelo://app?vid=50958556-5743-43a2-bf6e-a96f7c88d7a3","ios":"levelo://app?vid=50958556-5743-43a2-bf6e-a96f7c88d7a3"},"vehicle_type_id":"4","last_reported":1704402401,"current_range_meters":11200,"station_id":"ce4bh012rcd13ifvqcv0","pricing_plan_id":"free"},{"bike_id":"1bb5b44e-8135-4eed-8e0d-96b161fbe2e7","system_id":"levelo_inurba_marseille","lat":43.30888,"lon":5.39642,"is_reserved":false,"is_disabled":false,"rental_uris":{"android":"levelo://app?vid=1bb5b44e-8135-4eed-8e0d-96b161fbe2e7","ios":"levelo://app?vid=1bb5b44e-8135-4eed-8e0d-96b161fbe2e7"},"vehicle_type_id":"4","last_reported":1704402401,"current_range_meters":20000,"station_id":"ce4bh012rcd13ifvqcv0","pricing_plan_id":"free"},{"bike_id":"ff5b9743-d87c-46c3-b94b-957aa3927e6c","system_id":"levelo_inurba_marseille","lat":43.313291,"lon":5.396838,"is_reserved":false,"is_disabled":false,"rental_uris":{"android":"levelo://app?vid=ff5b9743-d87c-46c3-b94b-957aa3927e6c","ios":"levelo://app?vid=ff5b9743-d87c-46c3-b94b-957aa3927e6c"},"vehicle_type_id":"4","last_reported":1704402401,"current_range_meters":800,"station_id":"ce4bgvp2rcd13ifvqcu0","pricing_plan_id":"free"},{"bike_id":"d870183d-edd2-443b-8023-0ed33540355a","system_id":"levelo_inurba_marseille","lat":43.308847,"lon":5.39644,"is_reserved":false,"is_disabled":false,"rental_uris":{"android":"levelo://app?vid=d870183d-edd2-443b-8023-0ed33540355a","ios":"levelo://app?vid=d870183d-edd2-443b-8023-0ed33540355a"},"vehicle_type_id":"4","last_reported":1704402401,"current_range_meters":13200,"station_id":"ce4bh012rcd13ifvqcv0","pricing_plan_id":"free"},{"bike_id":"76cd2679-6a3d-4a00-8fe2-53d47fffa510","system_id":"levelo_inurba_marseille","lat":43.30886,"lon":5.39645,"is_reserved":false,"is_disabled":false,"rental_uris":{"android":"levelo://app?vid=76cd2679-6a3d-4a00-8fe2-53d47fffa510","ios":"levelo://app?vid=76cd2679-6a3d-4a00-8fe2-53d47fffa510"},"vehicle_type_id":"4","last_reported":1704402401,"current_range_meters":9600,"station_id":"ce4bh012rcd13ifvqcv0","pricing_plan_id":"free"},{"bike_id":"5ebab81c-726c-4c7d-adb4-882019490576","system_id":"levelo_inurba_marseille","lat":43.313291,"lon":5.396838,"is_reserved":false,"is_disabled":false,"rental_uris":{"android":"levelo://app?vid=5ebab81c-726c-4c7d-adb4-882019490576","ios":"levelo://app?vid=5ebab81c-726c-4c7d-adb4-882019490576"},"vehicle_type_id":"4","last_reported":1704402401,"current_range_meters":31600,"station_id":"ce4bgvp2rcd13ifvqcu0","pricing_plan_id":"free"},{"bike_id":"a30ab2b9-d1da-4d38-9e85-f0d4ef57bea0","system_id":"levelo_inurba_marseille","lat":43.308782,"lon":5.396453,"is_reserved":false,"is_disabled":false,"rental_uris":{"android":"levelo://app?vid=a30ab2b9-d1da-4d38-9e85-f0d4ef57bea0","ios":"levelo://app?vid=a30ab2b9-d1da-4d38-9e85-f0d4ef57bea0"},"vehicle_type_id":"4","last_reported":1704402401,"current_range_meters":20000,"station_id":"ce4bh012rcd13ifvqcv0","pricing_plan_id":"free"},{"bike_id":"a1d4d6a9-131c-4e2d-8a0e-6c2a2e0e9747","system_id":"levelo_inurba_marseille","lat":43.313291,"lon":5.396838,"is_reserved":false,"is_disabled":false,"rental_uris":{"android":"levelo://app?vid=a1d4d6a9-131c-4e2d-8a0e-6c2a2e0e9747","ios":"levelo://app?vid=a1d4d6a9-131c-4e2d-8a0e-6c2a2e0e9747"},"vehicle_type_id":"4","last_reported":1704402401,"current_range_meters":17200,"station_id":"ce4bgvp2rcd13ifvqcu0","pricing_plan_id":"free"},{"bike_id":"11ebe11d-5eb5-4ea1-b905-a6590a77e53b","system_id":"levelo_inurba_marseille","lat":43.313291,"lon":5.396838,"is_reserved":false,"is_disabled":false,"rental_uris":{"android":"levelo://app?vid=11ebe11d-5eb5-4ea1-b905-a6590a77e53b","ios":"levelo://app?vid=11ebe11d-5eb5-4ea1-b905-a6590a77e53b"},"vehicle_type_id":"4","last_reported":1704402401,"current_range_meters":23200,"station_id":"ce4bgvp2rcd13ifvqcu0","pricing_plan_id":"free"},{"bike_id":"b4e7c387-7b82-4788-9c3b-dd60a0d6bec8","system_id":"levelo_inurba_marseille","lat":43.31329,"lon":5.39697,"is_reserved":false,"is_disabled":false,"rental_uris":{"android":"levelo://app?vid=b4e7c387-7b82-4788-9c3b-dd60a0d6bec8","ios":"levelo://app?vid=b4e7c387-7b82-4788-9c3b-dd60a0d6bec8"},"vehicle_type_id":"4","last_reported":1704402401,"current_range_meters":400,"station_id":"ce4bgvp2rcd13ifvqcu0","pricing_plan_id":"free"},{"bike_id":"66d8f7ad-719a-499d-acd6-21d9f9724ee3","system_id":"levelo_inurba_marseille","lat":43.308927,"lon":5.396541,"is_reserved":false,"is_disabled":false,"rental_uris":{"android":"levelo://app?vid=66d8f7ad-719a-499d-acd6-21d9f9724ee3","ios":"levelo://app?vid=66d8f7ad-719a-499d-acd6-21d9f9724ee3"},"vehicle_type_id":"4","last_reported":1704402401,"current_range_meters":10400,"station_id":"ce4bh012rcd13ifvqcv0","pricing_plan_id":"free"},{"bike_id":"f6eaddcf-25db-4c21-bb71-899890ca7423","system_id":"levelo_inurba_marseille","lat":43.30874,"lon":5.39652,"is_reserved":false,"is_disabled":false,"rental_uris":{"android":"levelo://app?vid=f6eaddcf-25db-4c21-bb71-899890ca7423","ios":"levelo://app?vid=f6eaddcf-25db-4c21-bb71-899890ca7423"},"vehicle_type_id":"4","last_reported":1704402401,"current_range_meters":14800,"station_id":"ce4bh012rcd13ifvqcv0","pricing_plan_id":"free"},{"bike_id":"0347b0ab-909a-459a-807b-e7bf1e8a1f1b","system_id":"levelo_inurba_marseille","lat":43.30888,"lon":5.39656,"is_reserved":false,"is_disabled":false,"rental_uris":{"android":"levelo://app?vid=0347b0ab-909a-459a-807b-e7bf1e8a1f1b","ios":"levelo://app?vid=0347b0ab-909a-459a-807b-e7bf1e8a1f1b"},"vehicle_type_id":"4","last_reported":1704402401,"current_range_meters":1600,"station_id":"ce4bh012rcd13ifvqcv0","pricing_plan_id":"free"},{"bike_id":"e6ca969b-0f70-4d96-9e33-9d689627e3cc","system_id":"levelo_inurba_marseille","lat":43.29529,"lon":5.385581,"is_reserved":false,"is_disabled":false,"rental_uris":{"android":"levelo://app?vid=e6ca969b-0f70-4d96-9e33-9d689627e3cc","ios":"levelo://app?vid=e6ca969b-0f70-4d96-9e33-9d689627e3cc"},"vehicle_type_id":"4","last_reported":1704402401,"current_range_meters":23200,"station_id":"ce4bgih2rcd13ifvqba0","pricing_plan_id":"free"},{"bike_id":"4a9311c4-4db5-4367-b1f7-d435bd185033","system_id":"levelo_inurba_marseille","lat":43.33273,"lon":5.37989,"is_reserved":false,"is_disabled":false,"rental_uris":{"android":"levelo://app?vid=4a9311c4-4db5-4367-b1f7-d435bd185033","ios":"levelo://app?vid=4a9311c4-4db5-4367-b1f7-d435bd185033"},"vehicle_type_id":"4","last_reported":1704402401,"current_range_meters":5200,"station_id":"","pricing_plan_id":"free"},{"bike_id":"680688ae-0dd0-4473-93c6-679e0d0fc41a","system_id":"levelo_inurba_marseille","lat":43.290624,"lon":5.359245,"is_reserved":false,"is_disabled":false,"rental_uris":{"android":"levelo://app?vid=680688ae-0dd0-4473-93c6-679e0d0fc41a","ios":"levelo://app?vid=680688ae-0dd0-4473-93c6-679e0d0fc41a"},"vehicle_type_id":"4","last_reported":1704402401,"current_range_meters":28800,"station_id":"ce4bha92rcd13ifvqeg0","pricing_plan_id":"free"},{"bike_id":"4b360742-3f79-4936-a353-05eb40f7b4ed","system_id":"levelo_inurba_marseille","lat":43.302008,"lon":5.394694,"is_reserved":false,"is_disabled":false,"rental_uris":{"android":"levelo://app?vid=4b360742-3f79-4936-a353-05eb40f7b4ed","ios":"levelo://app?vid=4b360742-3f79-4936-a353-05eb40f7b4ed"},"vehicle_type_id":"4","last_reported":1704402401,"current_range_meters":20400,"station_id":"ce4bh0p2rcd13ifvqd70","pricing_plan_id":"free"},{"bike_id":"91a7e4c5-1f72-4231-a06c-108f0cb70c7e","system_id":"levelo_inurba_marseille","lat":43.289184,"lon":5.366408,"is_reserved":false,"is_disabled":false,"rental_uris":{"android":"levelo://app?vid=91a7e4c5-1f72-4231-a06c-108f0cb70c7e","ios":"levelo://app?vid=91a7e4c5-1f72-4231-a06c-108f0cb70c7e"},"vehicle_type_id":"4","last_reported":1704402401,"current_range_meters":18000,"station_id":"ce4bhap2rcd13ifvqek0","pricing_plan_id":"free"},{"bike_id":"45bdde44-3207-418e-a769-9426a3ec9c15","system_id":"levelo_inurba_marseille","lat":43.289184,"lon":5.366408,"is_reserved":false,"is_disabled":false,"rental_uris":{"android":"levelo://app?vid=45bdde44-3207-418e-a769-9426a3ec9c15","ios":"levelo://app?vid=45bdde44-3207-418e-a769-9426a3ec9c15"},"vehicle_type_id":"4","last_reported":1704402401,"current_range_meters":11200,"station_id":"ce4bhap2rcd13ifvqek0","pricing_plan_id":"free"},{"bike_id":"9564858b-337d-42fb-bb9a-d87d542f734e","system_id":"levelo_inurba_marseille","lat":43.292644,"lon":5.384257,"is_reserved":false,"is_disabled":false,"rental_uris":{"android":"levelo://app?vid=9564858b-337d-42fb-bb9a-d87d542f734e","ios":"levelo://app?vid=9564858b-337d-42fb-bb9a-d87d542f734e"},"vehicle_type_id":"4","last_reported":1704402401,"current_range_meters":18000,"station_id":"ce4bh692rcd13ifvqea0","pricing_plan_id":"free"},{"bike_id":"e0645ca8-39c6-4745-bc29-134fbb1ea40f","system_id":"levelo_inurba_marseille","lat":43.290995,"lon":5.381361,"is_reserved":false,"is_disabled":false,"rental_uris":{"android":"levelo://app?vid=e0645ca8-39c6-4745-bc29-134fbb1ea40f","ios":"levelo://app?vid=e0645ca8-39c6-4745-bc29-134fbb1ea40f"},"vehicle_type_id":"4","last_reported":1704402401,"current_range_meters":18000,"station_id":"ce4bh512rcd13ifvqe2g","pricing_plan_id":"free"},{"bike_id":"dc75d7c3-19ec-4531-95b9-93e0de663e34","system_id":"levelo_inurba_marseille","lat":43.2979,"lon":5.393308,"is_reserved":false,"is_disabled":false,"rental_uris":{"android":"levelo://app?vid=dc75d7c3-19ec-4531-95b9-93e0de663e34","ios":"levelo://app?vid=dc75d7c3-19ec-4531-95b9-93e0de663e34"},"vehicle_type_id":"4","last_reported":1704402401,"current_range_meters":13600,"station_id":"chh1huq6cuj3fo74tm60","pricing_plan_id":"free"},{"bike_id":"a023d84b-11ca-49dd-9d6c-50372e788579","system_id":"levelo_inurba_marseille","lat":43.330442,"lon":5.389148,"is_reserved":false,"is_disabled":false,"rental_uris":{"android":"levelo://app?vid=a023d84b-11ca-49dd-9d6c-50372e788579","ios":"levelo://app?vid=a023d84b-11ca-49dd-9d6c-50372e788579"},"vehicle_type_id":"4","last_reported":1704402401,"current_range_meters":13200,"station_id":"ce4bhr92rcd13ifvqhrg","pricing_plan_id":"free"},{"bike_id":"7da19f74-ba7f-4bc9-841b-f11c963d1d8f","system_id":"levelo_inurba_marseille","lat":43.330442,"lon":5.389148,"is_reserved":false,"is_disabled":false,"rental_uris":{"android":"levelo://app?vid=7da19f74-ba7f-4bc9-841b-f11c963d1d8f","ios":"levelo://app?vid=7da19f74-ba7f-4bc9-841b-f11c963d1d8f"},"vehicle_type_id":"4","last_reported":1704402401,"current_range_meters":3200,"station_id":"ce4bhr92rcd13ifvqhrg","pricing_plan_id":"free"},{"bike_id":"e0bb97d7-f4db-49ab-a03c-a788a7e9f091","system_id":"levelo_inurba_marseille","lat":43.330442,"lon":5.389148,"is_reserved":false,"is_disabled":false,"rental_uris":{"android":"levelo://app?vid=e0bb97d7-f4db-49ab-a03c-a788a7e9f091","ios":"levelo://app?vid=e0bb97d7-f4db-49ab-a03c-a788a7e9f091"},"vehicle_type_id":"4","last_reported":1704402401,"current_range_meters":14000,"station_id":"ce4bhr92rcd13ifvqhrg","pricing_plan_id":"free"},{"bike_id":"a4544299-4117-4ba4-98ad-2dcd1cebe1e8","system_id":"levelo_inurba_marseille","lat":43.330442,"lon":5.389148,"is_reserved":false,"is_disabled":false,"rental_uris":{"android":"levelo://app?vid=a4544299-4117-4ba4-98ad-2dcd1cebe1e8","ios":"levelo://app?vid=a4544299-4117-4ba4-98ad-2dcd1cebe1e8"},"vehicle_type_id":"4","last_reported":1704402401,"current_range_meters":18800,"station_id":"ce4bhr92rcd13ifvqhrg","pricing_plan_id":"free"},{"bike_id":"a45508dc-3e20-4dc2-a3f2-c48092cac22d","system_id":"levelo_inurba_marseille","lat":43.330442,"lon":5.389148,"is_reserved":false,"is_disabled":false,"rental_uris":{"android":"levelo://app?vid=a45508dc-3e20-4dc2-a3f2-c48092cac22d","ios":"levelo://app?vid=a45508dc-3e20-4dc2-a3f2-c48092cac22d"},"vehicle_type_id":"4","last_reported":1704402401,"current_range_meters":30000,"station_id":"ce4bhr92rcd13ifvqhrg","pricing_plan_id":"free"},{"bike_id":"b4dc5f58-d698-47e4-9d04-a65a1aac924a","system_id":"levelo_inurba_marseille","lat":43.330442,"lon":5.389148,"is_reserved":false,"is_disabled":false,"rental_uris":{"android":"levelo://app?vid=b4dc5f58-d698-47e4-9d04-a65a1aac924a","ios":"levelo://app?vid=b4dc5f58-d698-47e4-9d04-a65a1aac924a"},"vehicle_type_id":"4","last_reported":1704402401,"current_range_meters":7600,"station_id":"ce4bhr92rcd13ifvqhrg","pricing_plan_id":"free"},{"bike_id":"3537c72e-affb-4603-a0d4-44c57db301e5","system_id":"levelo_inurba_marseille","lat":43.330442,"lon":5.389148,"is_reserved":false,"is_disabled":false,"rental_uris":{"android":"levelo://app?vid=3537c72e-affb-4603-a0d4-44c57db301e5","ios":"levelo://app?vid=3537c72e-affb-4603-a0d4-44c57db301e5"},"vehicle_type_id":"4","last_reported":1704402401,"current_range_meters":24800,"station_id":"ce4bhr92rcd13ifvqhrg","pricing_plan_id":"free"},{"bike_id":"dadba9f2-5ffb-42a8-a8ed-797ac4e0aef6","system_id":"levelo_inurba_marseille","lat":43.290094,"lon":5.381264,"is_reserved":false,"is_disabled":false,"rental_uris":{"android":"levelo://app?vid=dadba9f2-5ffb-42a8-a8ed-797ac4e0aef6","ios":"levelo://app?vid=dadba9f2-5ffb-42a8-a8ed-797ac4e0aef6"},"vehicle_type_id":"4","last_reported":1704402401,"current_range_meters":18400,"station_id":"ce4bh4p2rcd13ifvqe1g","pricing_plan_id":"free"},{"bike_id":"c0779735-56dc-49f1-8cb5-90ae1dcffbe4","system_id":"levelo_inurba_marseille","lat":43.29019,"lon":5.38126,"is_reserved":false,"is_disabled":false,"rental_uris":{"android":"levelo://app?vid=c0779735-56dc-49f1-8cb5-90ae1dcffbe4","ios":"levelo://app?vid=c0779735-56dc-49f1-8cb5-90ae1dcffbe4"},"vehicle_type_id":"4","last_reported":1704402401,"current_range_meters":5600,"station_id":"ce4bh4p2rcd13ifvqe1g","pricing_plan_id":"free"},{"bike_id":"fd2aaf73-cf25-443b-bfc7-7e669aeecf2a","system_id":"levelo_inurba_marseille","lat":43.2901,"lon":5.381269,"is_reserved":false,"is_disabled":false,"rental_uris":{"android":"levelo://app?vid=fd2aaf73-cf25-443b-bfc7-7e669aeecf2a","ios":"levelo://app?vid=fd2aaf73-cf25-443b-bfc7-7e669aeecf2a"},"vehicle_type_id":"4","last_reported":1704402401,"current_range_meters":12000,"station_id":"ce4bh4p2rcd13ifvqe1g","pricing_plan_id":"free"},{"bike_id":"869d6b6e-aa0f-4f4e-9d68-687b086c6e09","system_id":"levelo_inurba_marseille","lat":43.28856,"lon":5.358371,"is_reserved":false,"is_disabled":false,"rental_uris":{"android":"levelo://app?vid=869d6b6e-aa0f-4f4e-9d68-687b086c6e09","ios":"levelo://app?vid=869d6b6e-aa0f-4f4e-9d68-687b086c6e09"},"vehicle_type_id":"4","last_reported":1704402401,"current_range_meters":2000,"station_id":"ce4bhb12rcd13ifvqem0","pricing_plan_id":"free"},{"bike_id":"d7f84905-ff40-4d33-8210-adc247cf1b6c","system_id":"levelo_inurba_marseille","lat":43.28856,"lon":5.358371,"is_reserved":false,"is_disabled":false,"rental_uris":{"android":"levelo://app?vid=d7f84905-ff40-4d33-8210-adc247cf1b6c","ios":"levelo://app?vid=d7f84905-ff40-4d33-8210-adc247cf1b6c"},"vehicle_type_id":"4","last_reported":1704402401,"current_range_meters":5200,"station_id":"ce4bhb12rcd13ifvqem0","pricing_plan_id":"free"},{"bike_id":"cc44d7ae-ed2b-4cf0-9214-a00a98d75d27","system_id":"levelo_inurba_marseille","lat":43.28856,"lon":5.358371,"is_reserved":false,"is_disabled":false,"rental_uris":{"android":"levelo://app?vid=cc44d7ae-ed2b-4cf0-9214-a00a98d75d27","ios":"levelo://app?vid=cc44d7ae-ed2b-4cf0-9214-a00a98d75d27"},"vehicle_type_id":"4","last_reported":1704402401,"current_range_meters":9200,"station_id":"ce4bhb12rcd13ifvqem0","pricing_plan_id":"free"},{"bike_id":"b1f85b16-0aa9-4f72-8f1e-5042af9339aa","system_id":"levelo_inurba_marseille","lat":43.289184,"lon":5.366408,"is_reserved":false,"is_disabled":false,"rental_uris":{"android":"levelo://app?vid=b1f85b16-0aa9-4f72-8f1e-5042af9339aa","ios":"levelo://app?vid=b1f85b16-0aa9-4f72-8f1e-5042af9339aa"},"vehicle_type_id":"4","last_reported":1704402401,"current_range_meters":0,"station_id":"ce4bhap2rcd13ifvqek0","pricing_plan_id":"free"},{"bike_id":"3b57472c-5cca-4668-a829-9df7b57ac670","system_id":"levelo_inurba_marseille","lat":43.309371,"lon":5.401449,"is_reserved":false,"is_disabled":false,"rental_uris":{"android":"levelo://app?vid=3b57472c-5cca-4668-a829-9df7b57ac670","ios":"levelo://app?vid=3b57472c-5cca-4668-a829-9df7b57ac670"},"vehicle_type_id":"4","last_reported":1704402401,"current_range_meters":20000,"station_id":"ce4bgvp2rcd13ifvqct0","pricing_plan_id":"free"},{"bike_id":"b428d52f-c3e8-437e-a53e-70748dcc3d20","system_id":"levelo_inurba_marseille","lat":43.306511,"lon":5.400756,"is_reserved":false,"is_disabled":false,"rental_uris":{"android":"levelo://app?vid=b428d52f-c3e8-437e-a53e-70748dcc3d20","ios":"levelo://app?vid=b428d52f-c3e8-437e-a53e-70748dcc3d20"},"vehicle_type_id":"4","last_reported":1704402401,"current_range_meters":13200,"station_id":"ce4bh112rcd13ifvqda0","pricing_plan_id":"free"},{"bike_id":"7c8a3bd7-6d4e-4ade-8abf-f8d970c09b17","system_id":"levelo_inurba_marseille","lat":43.30645,"lon":5.40076,"is_reserved":false,"is_disabled":false,"rental_uris":{"android":"levelo://app?vid=7c8a3bd7-6d4e-4ade-8abf-f8d970c09b17","ios":"levelo://app?vid=7c8a3bd7-6d4e-4ade-8abf-f8d970c09b17"},"vehicle_type_id":"4","last_reported":1704402401,"current_range_meters":6800,"station_id":"ce4bh112rcd13ifvqda0","pricing_plan_id":"free"},{"bike_id":"5f300bb8-82fc-4283-a0ec-05ccb85a18ce","system_id":"levelo_inurba_marseille","lat":43.30642,"lon":5.401031,"is_reserved":false,"is_disabled":false,"rental_uris":{"android":"levelo://app?vid=5f300bb8-82fc-4283-a0ec-05ccb85a18ce","ios":"levelo://app?vid=5f300bb8-82fc-4283-a0ec-05ccb85a18ce"},"vehicle_type_id":"4","last_reported":1704402401,"current_range_meters":19200,"station_id":"ce4bh112rcd13ifvqda0","pricing_plan_id":"free"},{"bike_id":"38de82ba-9a22-4d1d-b18c-123321c3e8fe","system_id":"levelo_inurba_marseille","lat":43.33765,"lon":5.37485,"is_reserved":false,"is_disabled":false,"rental_uris":{"android":"levelo://app?vid=38de82ba-9a22-4d1d-b18c-123321c3e8fe","ios":"levelo://app?vid=38de82ba-9a22-4d1d-b18c-123321c3e8fe"},"vehicle_type_id":"4","last_reported":1704402401,"current_range_meters":27600,"station_id":"","pricing_plan_id":"free"},{"bike_id":"a38cb2cd-211a-406b-a45d-b2390548c22c","system_id":"levelo_inurba_marseille","lat":43.33766,"lon":5.37482,"is_reserved":false,"is_disabled":false,"rental_uris":{"android":"levelo://app?vid=a38cb2cd-211a-406b-a45d-b2390548c22c","ios":"levelo://app?vid=a38cb2cd-211a-406b-a45d-b2390548c22c"},"vehicle_type_id":"4","last_reported":1704402401,"current_range_meters":24800,"station_id":"","pricing_plan_id":"free"},{"bike_id":"b792685c-afde-44fb-bced-b32e53bcb3fe","system_id":"levelo_inurba_marseille","lat":43.301117,"lon":5.398795,"is_reserved":false,"is_disabled":false,"rental_uris":{"android":"levelo://app?vid=b792685c-afde-44fb-bced-b32e53bcb3fe","ios":"levelo://app?vid=b792685c-afde-44fb-bced-b32e53bcb3fe"},"vehicle_type_id":"4","last_reported":1704402401,"current_range_meters":4400,"station_id":"ce4bh0h2rcd13ifvqd40","pricing_plan_id":"free"},{"bike_id":"91f047d9-5543-43fb-992f-dcaca5f05d0a","system_id":"levelo_inurba_marseille","lat":43.28727,"lon":5.36078,"is_reserved":false,"is_disabled":false,"rental_uris":{"android":"levelo://app?vid=91f047d9-5543-43fb-992f-dcaca5f05d0a","ios":"levelo://app?vid=91f047d9-5543-43fb-992f-dcaca5f05d0a"},"vehicle_type_id":"4","last_reported":1704402401,"current_range_meters":21600,"station_id":"cki0cbj6b192h4jlfktg","pricing_plan_id":"free"},{"bike_id":"e17b8276-3034-479d-945d-f761197442a1","system_id":"levelo_inurba_marseille","lat":43.28715,"lon":5.37368,"is_reserved":false,"is_disabled":false,"rental_uris":{"android":"levelo://app?vid=e17b8276-3034-479d-945d-f761197442a1","ios":"levelo://app?vid=e17b8276-3034-479d-945d-f761197442a1"},"vehicle_type_id":"4","last_reported":1704402401,"current_range_meters":22000,"station_id":"ce4bh3p2rcd13ifvqdq0","pricing_plan_id":"free"},{"bike_id":"de4ddd09-30b1-4974-a212-d3a4f82a16ca","system_id":"levelo_inurba_marseille","lat":43.286591,"lon":5.363346,"is_reserved":false,"is_disabled":false,"rental_uris":{"android":"levelo://app?vid=de4ddd09-30b1-4974-a212-d3a4f82a16ca","ios":"levelo://app?vid=de4ddd09-30b1-4974-a212-d3a4f82a16ca"},"vehicle_type_id":"4","last_reported":1704402401,"current_range_meters":2800,"station_id":"ce4bhah2rcd13ifvqej0","pricing_plan_id":"free"},{"bike_id":"3b4a1bfa-d86d-479e-abd9-5f0c2478f88b","system_id":"levelo_inurba_marseille","lat":43.286593,"lon":5.363346,"is_reserved":false,"is_disabled":false,"rental_uris":{"android":"levelo://app?vid=3b4a1bfa-d86d-479e-abd9-5f0c2478f88b","ios":"levelo://app?vid=3b4a1bfa-d86d-479e-abd9-5f0c2478f88b"},"vehicle_type_id":"4","last_reported":1704402401,"current_range_meters":26800,"station_id":"ce4bhah2rcd13ifvqej0","pricing_plan_id":"free"},{"bike_id":"d74ef2ed-2c24-48e7-959f-29c3390f97ba","system_id":"levelo_inurba_marseille","lat":43.286961,"lon":5.373785,"is_reserved":false,"is_disabled":false,"rental_uris":{"android":"levelo://app?vid=d74ef2ed-2c24-48e7-959f-29c3390f97ba","ios":"levelo://app?vid=d74ef2ed-2c24-48e7-959f-29c3390f97ba"},"vehicle_type_id":"4","last_reported":1704402401,"current_range_meters":0,"station_id":"ce4bh3p2rcd13ifvqdq0","pricing_plan_id":"free"},{"bike_id":"af21b258-341f-418c-9535-fb14f400a8fb","system_id":"levelo_inurba_marseille","lat":43.295194,"lon":5.39397,"is_reserved":false,"is_disabled":false,"rental_uris":{"android":"levelo://app?vid=af21b258-341f-418c-9535-fb14f400a8fb","ios":"levelo://app?vid=af21b258-341f-418c-9535-fb14f400a8fb"},"vehicle_type_id":"4","last_reported":1704402401,"current_range_meters":20800,"station_id":"ce4bh292rcd13ifvqdf0","pricing_plan_id":"free"},{"bike_id":"57c097d9-f892-4a25-a6d4-67bed9ea7a07","system_id":"levelo_inurba_marseille","lat":43.302759,"lon":5.400793,"is_reserved":false,"is_disabled":false,"rental_uris":{"android":"levelo://app?vid=57c097d9-f892-4a25-a6d4-67bed9ea7a07","ios":"levelo://app?vid=57c097d9-f892-4a25-a6d4-67bed9ea7a07"},"vehicle_type_id":"4","last_reported":1704402401,"current_range_meters":29200,"station_id":"ce4bgvh2rcd13ifvqcs0","pricing_plan_id":"free"},{"bike_id":"985f91d1-9269-41ac-8c30-e54ed9657397","system_id":"levelo_inurba_marseille","lat":43.295194,"lon":5.39397,"is_reserved":false,"is_disabled":false,"rental_uris":{"android":"levelo://app?vid=985f91d1-9269-41ac-8c30-e54ed9657397","ios":"levelo://app?vid=985f91d1-9269-41ac-8c30-e54ed9657397"},"vehicle_type_id":"4","last_reported":1704402401,"current_range_meters":5200,"station_id":"ce4bh292rcd13ifvqdf0","pricing_plan_id":"free"},{"bike_id":"b7ed8332-8ad9-435b-9a38-74d0066ce4c9","system_id":"levelo_inurba_marseille","lat":43.289307,"lon":5.38406,"is_reserved":false,"is_disabled":false,"rental_uris":{"android":"levelo://app?vid=b7ed8332-8ad9-435b-9a38-74d0066ce4c9","ios":"levelo://app?vid=b7ed8332-8ad9-435b-9a38-74d0066ce4c9"},"vehicle_type_id":"4","last_reported":1704402401,"current_range_meters":3200,"station_id":"ce4bh612rcd13ifvqe6g","pricing_plan_id":"free"},{"bike_id":"ad62eb2c-6762-4e5c-93ee-634414fde058","system_id":"levelo_inurba_marseille","lat":43.289307,"lon":5.38406,"is_reserved":false,"is_disabled":false,"rental_uris":{"android":"levelo://app?vid=ad62eb2c-6762-4e5c-93ee-634414fde058","ios":"levelo://app?vid=ad62eb2c-6762-4e5c-93ee-634414fde058"},"vehicle_type_id":"4","last_reported":1704402401,"current_range_meters":15200,"station_id":"ce4bh612rcd13ifvqe6g","pricing_plan_id":"free"},{"bike_id":"43fbe77f-83b2-4950-b5a2-6927bf7ed9ed","system_id":"levelo_inurba_marseille","lat":43.302759,"lon":5.400793,"is_reserved":false,"is_disabled":false,"rental_uris":{"android":"levelo://app?vid=43fbe77f-83b2-4950-b5a2-6927bf7ed9ed","ios":"levelo://app?vid=43fbe77f-83b2-4950-b5a2-6927bf7ed9ed"},"vehicle_type_id":"4","last_reported":1704402401,"current_range_meters":24800,"station_id":"ce4bgvh2rcd13ifvqcs0","pricing_plan_id":"free"},{"bike_id":"2dfc78c4-bde6-40bb-b9dd-346600f91667","system_id":"levelo_inurba_marseille","lat":43.290345,"lon":5.38646,"is_reserved":false,"is_disabled":false,"rental_uris":{"android":"levelo://app?vid=2dfc78c4-bde6-40bb-b9dd-346600f91667","ios":"levelo://app?vid=2dfc78c4-bde6-40bb-b9dd-346600f91667"},"vehicle_type_id":"4","last_reported":1704402401,"current_range_meters":13200,"station_id":"ce4bh4p2rcd13ifvqe0g","pricing_plan_id":"free"},{"bike_id":"1bb56f2c-c2e7-432f-ac33-bb78aa08c4aa","system_id":"levelo_inurba_marseille","lat":43.290345,"lon":5.38646,"is_reserved":false,"is_disabled":false,"rental_uris":{"android":"levelo://app?vid=1bb56f2c-c2e7-432f-ac33-bb78aa08c4aa","ios":"levelo://app?vid=1bb56f2c-c2e7-432f-ac33-bb78aa08c4aa"},"vehicle_type_id":"4","last_reported":1704402401,"current_range_meters":29600,"station_id":"ce4bh4p2rcd13ifvqe0g","pricing_plan_id":"free"},{"bike_id":"93820d48-bb35-41ff-ac44-85170dcaa996","system_id":"levelo_inurba_marseille","lat":43.289307,"lon":5.38406,"is_reserved":false,"is_disabled":false,"rental_uris":{"android":"levelo://app?vid=93820d48-bb35-41ff-ac44-85170dcaa996","ios":"levelo://app?vid=93820d48-bb35-41ff-ac44-85170dcaa996"},"vehicle_type_id":"4","last_reported":1704402401,"current_range_meters":3600,"station_id":"ce4bh612rcd13ifvqe6g","pricing_plan_id":"free"},{"bike_id":"dadc0631-a521-4b28-94a2-8c502be54fa7","system_id":"levelo_inurba_marseille","lat":43.287185,"lon":5.379373,"is_reserved":false,"is_disabled":false,"rental_uris":{"android":"levelo://app?vid=dadc0631-a521-4b28-94a2-8c502be54fa7","ios":"levelo://app?vid=dadc0631-a521-4b28-94a2-8c502be54fa7"},"vehicle_type_id":"4","last_reported":1704402401,"current_range_meters":29200,"station_id":"ce4bh9p2rcd13ifvqec0","pricing_plan_id":"free"},{"bike_id":"316f8c3a-fb3a-4d21-aeaf-6f97e4316958","system_id":"levelo_inurba_marseille","lat":43.287184,"lon":5.37937,"is_reserved":false,"is_disabled":false,"rental_uris":{"android":"levelo://app?vid=316f8c3a-fb3a-4d21-aeaf-6f97e4316958","ios":"levelo://app?vid=316f8c3a-fb3a-4d21-aeaf-6f97e4316958"},"vehicle_type_id":"4","last_reported":1704402401,"current_range_meters":9200,"station_id":"ce4bh9p2rcd13ifvqec0","pricing_plan_id":"free"},{"bike_id":"ac5a3a51-b28a-494f-aa4e-7b756f4b8359","system_id":"levelo_inurba_marseille","lat":43.291994,"lon":5.392907,"is_reserved":false,"is_disabled":false,"rental_uris":{"android":"levelo://app?vid=ac5a3a51-b28a-494f-aa4e-7b756f4b8359","ios":"levelo://app?vid=ac5a3a51-b28a-494f-aa4e-7b756f4b8359"},"vehicle_type_id":"4","last_reported":1704402401,"current_range_meters":2800,"station_id":"ce4bh192rcd13ifvqdd0","pricing_plan_id":"free"},{"bike_id":"c17f655e-f237-4cc9-bcd0-3cf9dbfa7379","system_id":"levelo_inurba_marseille","lat":43.291994,"lon":5.392907,"is_reserved":false,"is_disabled":false,"rental_uris":{"android":"levelo://app?vid=c17f655e-f237-4cc9-bcd0-3cf9dbfa7379","ios":"levelo://app?vid=c17f655e-f237-4cc9-bcd0-3cf9dbfa7379"},"vehicle_type_id":"4","last_reported":1704402401,"current_range_meters":22400,"station_id":"ce4bh192rcd13ifvqdd0","pricing_plan_id":"free"},{"bike_id":"cf02d1ff-8e3c-4af0-87f2-3aed46071fef","system_id":"levelo_inurba_marseille","lat":43.291994,"lon":5.392907,"is_reserved":false,"is_disabled":false,"rental_uris":{"android":"levelo://app?vid=cf02d1ff-8e3c-4af0-87f2-3aed46071fef","ios":"levelo://app?vid=cf02d1ff-8e3c-4af0-87f2-3aed46071fef"},"vehicle_type_id":"4","last_reported":1704402401,"current_range_meters":26800,"station_id":"ce4bh192rcd13ifvqdd0","pricing_plan_id":"free"},{"bike_id":"84625161-a9f0-49d4-9543-6571148ee0f0","system_id":"levelo_inurba_marseille","lat":43.284538,"lon":5.358657,"is_reserved":false,"is_disabled":false,"rental_uris":{"android":"levelo://app?vid=84625161-a9f0-49d4-9543-6571148ee0f0","ios":"levelo://app?vid=84625161-a9f0-49d4-9543-6571148ee0f0"},"vehicle_type_id":"4","last_reported":1704402401,"current_range_meters":10800,"station_id":"ce4bhah2rcd13ifvqei0","pricing_plan_id":"free"},{"bike_id":"3f2d67b5-1b70-4dca-a662-d18b710194fe","system_id":"levelo_inurba_marseille","lat":43.29838,"lon":5.40162,"is_reserved":false,"is_disabled":false,"rental_uris":{"android":"levelo://app?vid=3f2d67b5-1b70-4dca-a662-d18b710194fe","ios":"levelo://app?vid=3f2d67b5-1b70-4dca-a662-d18b710194fe"},"vehicle_type_id":"4","last_reported":1704402401,"current_range_meters":11600,"station_id":"","pricing_plan_id":"free"},{"bike_id":"42123108-1de1-4581-88a4-002ed41b8771","system_id":"levelo_inurba_marseille","lat":43.283998,"lon":5.375062,"is_reserved":false,"is_disabled":false,"rental_uris":{"android":"levelo://app?vid=42123108-1de1-4581-88a4-002ed41b8771","ios":"levelo://app?vid=42123108-1de1-4581-88a4-002ed41b8771"},"vehicle_type_id":"4","last_reported":1704402401,"current_range_meters":11200,"station_id":"ce4bh412rcd13ifvqds0","pricing_plan_id":"free"},{"bike_id":"8ae0a585-6388-4c3c-be4e-6a32dc022a5f","system_id":"levelo_inurba_marseille","lat":43.283998,"lon":5.375062,"is_reserved":false,"is_disabled":false,"rental_uris":{"android":"levelo://app?vid=8ae0a585-6388-4c3c-be4e-6a32dc022a5f","ios":"levelo://app?vid=8ae0a585-6388-4c3c-be4e-6a32dc022a5f"},"vehicle_type_id":"4","last_reported":1704402401,"current_range_meters":29600,"station_id":"ce4bh412rcd13ifvqds0","pricing_plan_id":"free"},{"bike_id":"acc693d8-08a2-4ff7-9d20-89e89d9170f6","system_id":"levelo_inurba_marseille","lat":43.283998,"lon":5.375062,"is_reserved":false,"is_disabled":false,"rental_uris":{"android":"levelo://app?vid=acc693d8-08a2-4ff7-9d20-89e89d9170f6","ios":"levelo://app?vid=acc693d8-08a2-4ff7-9d20-89e89d9170f6"},"vehicle_type_id":"4","last_reported":1704402401,"current_range_meters":11600,"station_id":"ce4bh412rcd13ifvqds0","pricing_plan_id":"free"},{"bike_id":"41354722-05e0-49cd-9e07-2abcd9e87c1c","system_id":"levelo_inurba_marseille","lat":43.283998,"lon":5.375062,"is_reserved":false,"is_disabled":false,"rental_uris":{"android":"levelo://app?vid=41354722-05e0-49cd-9e07-2abcd9e87c1c","ios":"levelo://app?vid=41354722-05e0-49cd-9e07-2abcd9e87c1c"},"vehicle_type_id":"4","last_reported":1704402401,"current_range_meters":20800,"station_id":"ce4bh412rcd13ifvqds0","pricing_plan_id":"free"},{"bike_id":"ad49ef2c-635b-4649-85ae-c55c3308f14b","system_id":"levelo_inurba_marseille","lat":43.295713,"lon":5.399639,"is_reserved":false,"is_disabled":false,"rental_uris":{"android":"levelo://app?vid=ad49ef2c-635b-4649-85ae-c55c3308f14b","ios":"levelo://app?vid=ad49ef2c-635b-4649-85ae-c55c3308f14b"},"vehicle_type_id":"4","last_reported":1704402401,"current_range_meters":13600,"station_id":"ce4bh312rcd13ifvqdj0","pricing_plan_id":"free"},{"bike_id":"e4b34a4c-2e83-4a04-9972-89446407f991","system_id":"levelo_inurba_marseille","lat":43.283998,"lon":5.375062,"is_reserved":false,"is_disabled":false,"rental_uris":{"android":"levelo://app?vid=e4b34a4c-2e83-4a04-9972-89446407f991","ios":"levelo://app?vid=e4b34a4c-2e83-4a04-9972-89446407f991"},"vehicle_type_id":"4","last_reported":1704402401,"current_range_meters":0,"station_id":"ce4bh412rcd13ifvqds0","pricing_plan_id":"free"},{"bike_id":"46ee5759-ab09-4826-a28b-ba4498fa9211","system_id":"levelo_inurba_marseille","lat":43.286595,"lon":5.386795,"is_reserved":false,"is_disabled":false,"rental_uris":{"android":"levelo://app?vid=46ee5759-ab09-4826-a28b-ba4498fa9211","ios":"levelo://app?vid=46ee5759-ab09-4826-a28b-ba4498fa9211"},"vehicle_type_id":"4","last_reported":1704402401,"current_range_meters":0,"station_id":"ce4bh492rcd13ifvqdug","pricing_plan_id":"free"},{"bike_id":"a4073dcf-86d5-4e5c-a12d-6de5153114ee","system_id":"levelo_inurba_marseille","lat":43.33717,"lon":5.391857,"is_reserved":false,"is_disabled":false,"rental_uris":{"android":"levelo://app?vid=a4073dcf-86d5-4e5c-a12d-6de5153114ee","ios":"levelo://app?vid=a4073dcf-86d5-4e5c-a12d-6de5153114ee"},"vehicle_type_id":"4","last_reported":1704402401,"current_range_meters":27600,"station_id":"ce4bhr92rcd13ifvqhsg","pricing_plan_id":"free"},{"bike_id":"58550917-ad8f-4703-ad2a-9f9ec01a0e6a","system_id":"levelo_inurba_marseille","lat":43.288501,"lon":5.393087,"is_reserved":false,"is_disabled":false,"rental_uris":{"android":"levelo://app?vid=58550917-ad8f-4703-ad2a-9f9ec01a0e6a","ios":"levelo://app?vid=58550917-ad8f-4703-ad2a-9f9ec01a0e6a"},"vehicle_type_id":"4","last_reported":1704402401,"current_range_meters":23600,"station_id":"ce4bh2p2rcd13ifvqdi0","pricing_plan_id":"free"},{"bike_id":"afc3c83d-a981-4429-948c-a84160245cc7","system_id":"levelo_inurba_marseille","lat":43.284793,"lon":5.384119,"is_reserved":false,"is_disabled":false,"rental_uris":{"android":"levelo://app?vid=afc3c83d-a981-4429-948c-a84160245cc7","ios":"levelo://app?vid=afc3c83d-a981-4429-948c-a84160245cc7"},"vehicle_type_id":"4","last_reported":1704402401,"current_range_meters":19200,"station_id":"ce4bh512rcd13ifvqe3g","pricing_plan_id":"free"},{"bike_id":"a7f2aa66-394d-403b-a5cc-3905453aa144","system_id":"levelo_inurba_marseille","lat":43.29795,"lon":5.404086,"is_reserved":false,"is_disabled":false,"rental_uris":{"android":"levelo://app?vid=a7f2aa66-394d-403b-a5cc-3905453aa144","ios":"levelo://app?vid=a7f2aa66-394d-403b-a5cc-3905453aa144"},"vehicle_type_id":"4","last_reported":1704402401,"current_range_meters":30000,"station_id":"ce4bh112rcd13ifvqd90","pricing_plan_id":"free"},{"bike_id":"e90f6af7-e35a-4b60-a629-ceb8a0fa27ce","system_id":"levelo_inurba_marseille","lat":43.288501,"lon":5.393087,"is_reserved":false,"is_disabled":false,"rental_uris":{"android":"levelo://app?vid=e90f6af7-e35a-4b60-a629-ceb8a0fa27ce","ios":"levelo://app?vid=e90f6af7-e35a-4b60-a629-ceb8a0fa27ce"},"vehicle_type_id":"4","last_reported":1704402401,"current_range_meters":22400,"station_id":"ce4bh2p2rcd13ifvqdi0","pricing_plan_id":"free"},{"bike_id":"5226f4d0-5921-4500-9677-2a7a4f582818","system_id":"levelo_inurba_marseille","lat":43.288501,"lon":5.393087,"is_reserved":false,"is_disabled":false,"rental_uris":{"android":"levelo://app?vid=5226f4d0-5921-4500-9677-2a7a4f582818","ios":"levelo://app?vid=5226f4d0-5921-4500-9677-2a7a4f582818"},"vehicle_type_id":"4","last_reported":1704402401,"current_range_meters":30400,"station_id":"ce4bh2p2rcd13ifvqdi0","pricing_plan_id":"free"},{"bike_id":"6ba26b24-bb0a-4627-a98a-a90753af3cf5","system_id":"levelo_inurba_marseille","lat":43.284217,"lon":5.349697,"is_reserved":false,"is_disabled":false,"rental_uris":{"android":"levelo://app?vid=6ba26b24-bb0a-4627-a98a-a90753af3cf5","ios":"levelo://app?vid=6ba26b24-bb0a-4627-a98a-a90753af3cf5"},"vehicle_type_id":"4","last_reported":1704402401,"current_range_meters":18400,"station_id":"ce4bhbh2rcd13ifvqepg","pricing_plan_id":"free"},{"bike_id":"5ae8f8b1-2b0f-4c04-9d24-1cc31791aba9","system_id":"levelo_inurba_marseille","lat":43.284219,"lon":5.3497,"is_reserved":false,"is_disabled":false,"rental_uris":{"android":"levelo://app?vid=5ae8f8b1-2b0f-4c04-9d24-1cc31791aba9","ios":"levelo://app?vid=5ae8f8b1-2b0f-4c04-9d24-1cc31791aba9"},"vehicle_type_id":"4","last_reported":1704402401,"current_range_meters":24800,"station_id":"ce4bhbh2rcd13ifvqepg","pricing_plan_id":"free"},{"bike_id":"dd39d288-4443-46c8-9be6-0c06df922dc8","system_id":"levelo_inurba_marseille","lat":43.289363,"lon":5.396322,"is_reserved":false,"is_disabled":false,"rental_uris":{"android":"levelo://app?vid=dd39d288-4443-46c8-9be6-0c06df922dc8","ios":"levelo://app?vid=dd39d288-4443-46c8-9be6-0c06df922dc8"},"vehicle_type_id":"4","last_reported":1704402401,"current_range_meters":12400,"station_id":"ce4bh3h2rcd13ifvqdn0","pricing_plan_id":"free"},{"bike_id":"71cc4584-0ae1-424c-9335-9d4d5d269693","system_id":"levelo_inurba_marseille","lat":43.283502,"lon":5.386471,"is_reserved":false,"is_disabled":false,"rental_uris":{"android":"levelo://app?vid=71cc4584-0ae1-424c-9335-9d4d5d269693","ios":"levelo://app?vid=71cc4584-0ae1-424c-9335-9d4d5d269693"},"vehicle_type_id":"4","last_reported":1704402401,"current_range_meters":22800,"station_id":"ce4bh492rcd13ifvqdvg","pricing_plan_id":"free"},{"bike_id":"79d1dc6d-cf2e-49be-95e9-80a3f6c47a12","system_id":"levelo_inurba_marseille","lat":43.282744,"lon":5.350533,"is_reserved":false,"is_disabled":false,"rental_uris":{"android":"levelo://app?vid=79d1dc6d-cf2e-49be-95e9-80a3f6c47a12","ios":"levelo://app?vid=79d1dc6d-cf2e-49be-95e9-80a3f6c47a12"},"vehicle_type_id":"4","last_reported":1704402401,"current_range_meters":18800,"station_id":"ce4bhbp2rcd13ifvqerg","pricing_plan_id":"free"},{"bike_id":"afffbe13-0cad-47b7-ac13-8400a00c0d83","system_id":"levelo_inurba_marseille","lat":43.282744,"lon":5.350533,"is_reserved":false,"is_disabled":false,"rental_uris":{"android":"levelo://app?vid=afffbe13-0cad-47b7-ac13-8400a00c0d83","ios":"levelo://app?vid=afffbe13-0cad-47b7-ac13-8400a00c0d83"},"vehicle_type_id":"4","last_reported":1704402401,"current_range_meters":20400,"station_id":"ce4bhbp2rcd13ifvqerg","pricing_plan_id":"free"},{"bike_id":"5162c687-fb89-4ad6-b278-29e8599528e0","system_id":"levelo_inurba_marseille","lat":43.280382,"lon":5.369291,"is_reserved":false,"is_disabled":false,"rental_uris":{"android":"levelo://app?vid=5162c687-fb89-4ad6-b278-29e8599528e0","ios":"levelo://app?vid=5162c687-fb89-4ad6-b278-29e8599528e0"},"vehicle_type_id":"4","last_reported":1704402401,"current_range_meters":21200,"station_id":"ce4bha12rcd13ifvqef0","pricing_plan_id":"free"},{"bike_id":"1e512842-e678-47b1-b3ed-8ae67f067268","system_id":"levelo_inurba_marseille","lat":43.280303,"lon":5.36941,"is_reserved":false,"is_disabled":false,"rental_uris":{"android":"levelo://app?vid=1e512842-e678-47b1-b3ed-8ae67f067268","ios":"levelo://app?vid=1e512842-e678-47b1-b3ed-8ae67f067268"},"vehicle_type_id":"4","last_reported":1704402401,"current_range_meters":2800,"station_id":"ce4bha12rcd13ifvqef0","pricing_plan_id":"free"},{"bike_id":"a7057a8a-4345-487f-83f6-9c65d5711f34","system_id":"levelo_inurba_marseille","lat":43.290378,"lon":5.399453,"is_reserved":false,"is_disabled":false,"rental_uris":{"android":"levelo://app?vid=a7057a8a-4345-487f-83f6-9c65d5711f34","ios":"levelo://app?vid=a7057a8a-4345-487f-83f6-9c65d5711f34"},"vehicle_type_id":"4","last_reported":1704402401,"current_range_meters":15600,"station_id":"ce4bh392rcd13ifvqdm0","pricing_plan_id":"free"},{"bike_id":"06c419df-5f9d-4227-b44c-aa04eb8eb1cb","system_id":"levelo_inurba_marseille","lat":43.29049,"lon":5.3996,"is_reserved":false,"is_disabled":false,"rental_uris":{"android":"levelo://app?vid=06c419df-5f9d-4227-b44c-aa04eb8eb1cb","ios":"levelo://app?vid=06c419df-5f9d-4227-b44c-aa04eb8eb1cb"},"vehicle_type_id":"4","last_reported":1704402401,"current_range_meters":13600,"station_id":"ce4bh392rcd13ifvqdm0","pricing_plan_id":"free"},{"bike_id":"e957b630-88a7-4894-ae05-45ec7eb47400","system_id":"levelo_inurba_marseille","lat":43.296263,"lon":5.40601,"is_reserved":false,"is_disabled":false,"rental_uris":{"android":"levelo://app?vid=e957b630-88a7-4894-ae05-45ec7eb47400","ios":"levelo://app?vid=e957b630-88a7-4894-ae05-45ec7eb47400"},"vehicle_type_id":"4","last_reported":1704402401,"current_range_meters":23200,"station_id":"ce4bh0h2rcd13ifvqd60","pricing_plan_id":"free"},{"bike_id":"69773e01-f235-4d51-92b1-52ffc469331e","system_id":"levelo_inurba_marseille","lat":43.290412,"lon":5.399633,"is_reserved":false,"is_disabled":false,"rental_uris":{"android":"levelo://app?vid=69773e01-f235-4d51-92b1-52ffc469331e","ios":"levelo://app?vid=69773e01-f235-4d51-92b1-52ffc469331e"},"vehicle_type_id":"4","last_reported":1704402401,"current_range_meters":18400,"station_id":"ce4bh392rcd13ifvqdm0","pricing_plan_id":"free"},{"bike_id":"9a656f03-b20b-4b18-b988-89ca6f71913b","system_id":"levelo_inurba_marseille","lat":43.290412,"lon":5.399633,"is_reserved":false,"is_disabled":false,"rental_uris":{"android":"levelo://app?vid=9a656f03-b20b-4b18-b988-89ca6f71913b","ios":"levelo://app?vid=9a656f03-b20b-4b18-b988-89ca6f71913b"},"vehicle_type_id":"4","last_reported":1704402401,"current_range_meters":23600,"station_id":"ce4bh392rcd13ifvqdm0","pricing_plan_id":"free"},{"bike_id":"dceafd6c-975b-4f93-95ce-c8511a607403","system_id":"levelo_inurba_marseille","lat":43.2904,"lon":5.39966,"is_reserved":false,"is_disabled":false,"rental_uris":{"android":"levelo://app?vid=dceafd6c-975b-4f93-95ce-c8511a607403","ios":"levelo://app?vid=dceafd6c-975b-4f93-95ce-c8511a607403"},"vehicle_type_id":"4","last_reported":1704402401,"current_range_meters":15600,"station_id":"ce4bh392rcd13ifvqdm0","pricing_plan_id":"free"},{"bike_id":"8d4d72fb-7ff3-4d2b-8a16-915fc0bab4c1","system_id":"levelo_inurba_marseille","lat":43.29037,"lon":5.3997,"is_reserved":false,"is_disabled":false,"rental_uris":{"android":"levelo://app?vid=8d4d72fb-7ff3-4d2b-8a16-915fc0bab4c1","ios":"levelo://app?vid=8d4d72fb-7ff3-4d2b-8a16-915fc0bab4c1"},"vehicle_type_id":"4","last_reported":1704402401,"current_range_meters":18800,"station_id":"ce4bh392rcd13ifvqdm0","pricing_plan_id":"free"},{"bike_id":"a94544f2-b624-4fd3-b204-aa358aaa73c5","system_id":"levelo_inurba_marseille","lat":43.29034,"lon":5.39969,"is_reserved":false,"is_disabled":false,"rental_uris":{"android":"levelo://app?vid=a94544f2-b624-4fd3-b204-aa358aaa73c5","ios":"levelo://app?vid=a94544f2-b624-4fd3-b204-aa358aaa73c5"},"vehicle_type_id":"4","last_reported":1704402401,"current_range_meters":10000,"station_id":"ce4bh392rcd13ifvqdm0","pricing_plan_id":"free"},{"bike_id":"553b4ba5-e5a8-4091-aef3-3cfd903f65c2","system_id":"levelo_inurba_marseille","lat":43.280382,"lon":5.369291,"is_reserved":false,"is_disabled":false,"rental_uris":{"android":"levelo://app?vid=553b4ba5-e5a8-4091-aef3-3cfd903f65c2","ios":"levelo://app?vid=553b4ba5-e5a8-4091-aef3-3cfd903f65c2"},"vehicle_type_id":"4","last_reported":1704402401,"current_range_meters":20400,"station_id":"ce4bha12rcd13ifvqef0","pricing_plan_id":"free"},{"bike_id":"d9b2d1f4-d239-4125-b824-752019b8b854","system_id":"levelo_inurba_marseille","lat":43.296263,"lon":5.40601,"is_reserved":false,"is_disabled":false,"rental_uris":{"android":"levelo://app?vid=d9b2d1f4-d239-4125-b824-752019b8b854","ios":"levelo://app?vid=d9b2d1f4-d239-4125-b824-752019b8b854"},"vehicle_type_id":"4","last_reported":1704402401,"current_range_meters":0,"station_id":"ce4bh0h2rcd13ifvqd60","pricing_plan_id":"free"},{"bike_id":"f8a83def-0596-498b-879d-0d73271d276f","system_id":"levelo_inurba_marseille","lat":43.290412,"lon":5.399633,"is_reserved":false,"is_disabled":false,"rental_uris":{"android":"levelo://app?vid=f8a83def-0596-498b-879d-0d73271d276f","ios":"levelo://app?vid=f8a83def-0596-498b-879d-0d73271d276f"},"vehicle_type_id":"4","last_reported":1704402401,"current_range_meters":27600,"station_id":"ce4bh392rcd13ifvqdm0","pricing_plan_id":"free"},{"bike_id":"8e8a673b-ba1f-4504-b2cf-6c1a9f1f0bcf","system_id":"levelo_inurba_marseille","lat":43.284462,"lon":5.392121,"is_reserved":false,"is_disabled":false,"rental_uris":{"android":"levelo://app?vid=8e8a673b-ba1f-4504-b2cf-6c1a9f1f0bcf","ios":"levelo://app?vid=8e8a673b-ba1f-4504-b2cf-6c1a9f1f0bcf"},"vehicle_type_id":"4","last_reported":1704402401,"current_range_meters":11600,"station_id":"ce4bhoh2rcd13ifvqh5g","pricing_plan_id":"free"},{"bike_id":"935b155d-d107-45c0-b00f-0bfaccb8ed83","system_id":"levelo_inurba_marseille","lat":43.284462,"lon":5.392121,"is_reserved":false,"is_disabled":false,"rental_uris":{"android":"levelo://app?vid=935b155d-d107-45c0-b00f-0bfaccb8ed83","ios":"levelo://app?vid=935b155d-d107-45c0-b00f-0bfaccb8ed83"},"vehicle_type_id":"4","last_reported":1704402401,"current_range_meters":24800,"station_id":"ce4bhoh2rcd13ifvqh5g","pricing_plan_id":"free"},{"bike_id":"16afe946-ff9b-4dac-9f94-ced498dff0fb","system_id":"levelo_inurba_marseille","lat":43.284462,"lon":5.392121,"is_reserved":false,"is_disabled":false,"rental_uris":{"android":"levelo://app?vid=16afe946-ff9b-4dac-9f94-ced498dff0fb","ios":"levelo://app?vid=16afe946-ff9b-4dac-9f94-ced498dff0fb"},"vehicle_type_id":"4","last_reported":1704402401,"current_range_meters":16400,"station_id":"ce4bhoh2rcd13ifvqh5g","pricing_plan_id":"free"},{"bike_id":"6fe6461c-75fb-448d-bafa-b1b41ac5c0a0","system_id":"levelo_inurba_marseille","lat":43.28574,"lon":5.3949,"is_reserved":false,"is_disabled":false,"rental_uris":{"android":"levelo://app?vid=6fe6461c-75fb-448d-bafa-b1b41ac5c0a0","ios":"levelo://app?vid=6fe6461c-75fb-448d-bafa-b1b41ac5c0a0"},"vehicle_type_id":"4","last_reported":1704402401,"current_range_meters":9200,"station_id":"ce4bh292rcd13ifvqdg0","pricing_plan_id":"free"},{"bike_id":"bfcac061-05e4-4c13-b145-9ecd3204a4d5","system_id":"levelo_inurba_marseille","lat":43.285742,"lon":5.395004,"is_reserved":false,"is_disabled":false,"rental_uris":{"android":"levelo://app?vid=bfcac061-05e4-4c13-b145-9ecd3204a4d5","ios":"levelo://app?vid=bfcac061-05e4-4c13-b145-9ecd3204a4d5"},"vehicle_type_id":"4","last_reported":1704402401,"current_range_meters":18000,"station_id":"ce4bh292rcd13ifvqdg0","pricing_plan_id":"free"},{"bike_id":"34977a63-f166-4e8f-83b2-fababea20337","system_id":"levelo_inurba_marseille","lat":43.28573,"lon":5.394992,"is_reserved":false,"is_disabled":false,"rental_uris":{"android":"levelo://app?vid=34977a63-f166-4e8f-83b2-fababea20337","ios":"levelo://app?vid=34977a63-f166-4e8f-83b2-fababea20337"},"vehicle_type_id":"4","last_reported":1704402401,"current_range_meters":29200,"station_id":"ce4bh292rcd13ifvqdg0","pricing_plan_id":"free"},{"bike_id":"dec5cb90-cffa-4158-8cb3-98bdbb77d46a","system_id":"levelo_inurba_marseille","lat":43.304188,"lon":5.412904,"is_reserved":false,"is_disabled":false,"rental_uris":{"android":"levelo://app?vid=dec5cb90-cffa-4158-8cb3-98bdbb77d46a","ios":"levelo://app?vid=dec5cb90-cffa-4158-8cb3-98bdbb77d46a"},"vehicle_type_id":"4","last_reported":1704402401,"current_range_meters":2800,"station_id":"ce4bhop2rcd13ifvqh8g","pricing_plan_id":"free"},{"bike_id":"42face0d-71c5-429b-a725-6733e624beff","system_id":"levelo_inurba_marseille","lat":43.304188,"lon":5.412904,"is_reserved":false,"is_disabled":false,"rental_uris":{"android":"levelo://app?vid=42face0d-71c5-429b-a725-6733e624beff","ios":"levelo://app?vid=42face0d-71c5-429b-a725-6733e624beff"},"vehicle_type_id":"4","last_reported":1704402401,"current_range_meters":16800,"station_id":"ce4bhop2rcd13ifvqh8g","pricing_plan_id":"free"},{"bike_id":"504fe98b-b144-48fd-bf41-b2ae8e95acbe","system_id":"levelo_inurba_marseille","lat":43.304188,"lon":5.412904,"is_reserved":false,"is_disabled":false,"rental_uris":{"android":"levelo://app?vid=504fe98b-b144-48fd-bf41-b2ae8e95acbe","ios":"levelo://app?vid=504fe98b-b144-48fd-bf41-b2ae8e95acbe"},"vehicle_type_id":"4","last_reported":1704402401,"current_range_meters":19600,"station_id":"ce4bhop2rcd13ifvqh8g","pricing_plan_id":"free"},{"bike_id":"bc03c173-0b29-49ca-adb1-76ffdd58b021","system_id":"levelo_inurba_marseille","lat":43.287154,"lon":5.399979,"is_reserved":false,"is_disabled":false,"rental_uris":{"android":"levelo://app?vid=bc03c173-0b29-49ca-adb1-76ffdd58b021","ios":"levelo://app?vid=bc03c173-0b29-49ca-adb1-76ffdd58b021"},"vehicle_type_id":"4","last_reported":1704402401,"current_range_meters":12000,"station_id":"ce4bho92rcd13ifvqh3g","pricing_plan_id":"free"},{"bike_id":"641ad07e-e4f4-4c35-b836-7044ea9004d5","system_id":"levelo_inurba_marseille","lat":43.287154,"lon":5.399979,"is_reserved":false,"is_disabled":false,"rental_uris":{"android":"levelo://app?vid=641ad07e-e4f4-4c35-b836-7044ea9004d5","ios":"levelo://app?vid=641ad07e-e4f4-4c35-b836-7044ea9004d5"},"vehicle_type_id":"4","last_reported":1704402401,"current_range_meters":28000,"station_id":"ce4bho92rcd13ifvqh3g","pricing_plan_id":"free"},{"bike_id":"38d7b7f1-b419-4969-a2c3-4140cdfe5b3c","system_id":"levelo_inurba_marseille","lat":43.287154,"lon":5.399979,"is_reserved":false,"is_disabled":false,"rental_uris":{"android":"levelo://app?vid=38d7b7f1-b419-4969-a2c3-4140cdfe5b3c","ios":"levelo://app?vid=38d7b7f1-b419-4969-a2c3-4140cdfe5b3c"},"vehicle_type_id":"4","last_reported":1704402401,"current_range_meters":12400,"station_id":"ce4bho92rcd13ifvqh3g","pricing_plan_id":"free"},{"bike_id":"4be2def8-8dd3-41db-99b9-bc5b4386a447","system_id":"levelo_inurba_marseille","lat":43.287154,"lon":5.399979,"is_reserved":false,"is_disabled":false,"rental_uris":{"android":"levelo://app?vid=4be2def8-8dd3-41db-99b9-bc5b4386a447","ios":"levelo://app?vid=4be2def8-8dd3-41db-99b9-bc5b4386a447"},"vehicle_type_id":"4","last_reported":1704402401,"current_range_meters":12000,"station_id":"ce4bho92rcd13ifvqh3g","pricing_plan_id":"free"},{"bike_id":"17f7d508-5bc1-419c-929a-6544186a4109","system_id":"levelo_inurba_marseille","lat":43.28698,"lon":5.399808,"is_reserved":false,"is_disabled":false,"rental_uris":{"android":"levelo://app?vid=17f7d508-5bc1-419c-929a-6544186a4109","ios":"levelo://app?vid=17f7d508-5bc1-419c-929a-6544186a4109"},"vehicle_type_id":"4","last_reported":1704402401,"current_range_meters":24000,"station_id":"ce4bho92rcd13ifvqh3g","pricing_plan_id":"free"},{"bike_id":"08155ff4-c214-4001-92ed-097b8cffce39","system_id":"levelo_inurba_marseille","lat":43.320045,"lon":5.415046,"is_reserved":false,"is_disabled":false,"rental_uris":{"android":"levelo://app?vid=08155ff4-c214-4001-92ed-097b8cffce39","ios":"levelo://app?vid=08155ff4-c214-4001-92ed-097b8cffce39"},"vehicle_type_id":"4","last_reported":1704402401,"current_range_meters":22000,"station_id":"ce4bhq92rcd13ifvqhkg","pricing_plan_id":"free"},{"bike_id":"3c259b33-b115-4957-8918-058ff1fbec3d","system_id":"levelo_inurba_marseille","lat":43.320045,"lon":5.415048,"is_reserved":false,"is_disabled":false,"rental_uris":{"android":"levelo://app?vid=3c259b33-b115-4957-8918-058ff1fbec3d","ios":"levelo://app?vid=3c259b33-b115-4957-8918-058ff1fbec3d"},"vehicle_type_id":"4","last_reported":1704402401,"current_range_meters":15200,"station_id":"ce4bhq92rcd13ifvqhkg","pricing_plan_id":"free"},{"bike_id":"4f5089c1-107e-4eed-a4d8-d4f3ea48123b","system_id":"levelo_inurba_marseille","lat":43.279742,"lon":5.38744,"is_reserved":false,"is_disabled":false,"rental_uris":{"android":"levelo://app?vid=4f5089c1-107e-4eed-a4d8-d4f3ea48123b","ios":"levelo://app?vid=4f5089c1-107e-4eed-a4d8-d4f3ea48123b"},"vehicle_type_id":"4","last_reported":1704402401,"current_range_meters":25600,"station_id":"ce4bhg12rcd13ifvqf80","pricing_plan_id":"free"},{"bike_id":"50a2065a-fe18-4aa2-ad97-f81cc06b5fd2","system_id":"levelo_inurba_marseille","lat":43.320045,"lon":5.415048,"is_reserved":false,"is_disabled":false,"rental_uris":{"android":"levelo://app?vid=50a2065a-fe18-4aa2-ad97-f81cc06b5fd2","ios":"levelo://app?vid=50a2065a-fe18-4aa2-ad97-f81cc06b5fd2"},"vehicle_type_id":"4","last_reported":1704402401,"current_range_meters":25200,"station_id":"ce4bhq92rcd13ifvqhkg","pricing_plan_id":"free"},{"bike_id":"5112f907-7457-4c83-8562-3678e457f465","system_id":"levelo_inurba_marseille","lat":43.279742,"lon":5.38744,"is_reserved":false,"is_disabled":false,"rental_uris":{"android":"levelo://app?vid=5112f907-7457-4c83-8562-3678e457f465","ios":"levelo://app?vid=5112f907-7457-4c83-8562-3678e457f465"},"vehicle_type_id":"4","last_reported":1704402401,"current_range_meters":10000,"station_id":"ce4bhg12rcd13ifvqf80","pricing_plan_id":"free"},{"bike_id":"ca80aa51-e76a-4435-b4a0-2c6ed02bfabc","system_id":"levelo_inurba_marseille","lat":43.320045,"lon":5.415046,"is_reserved":false,"is_disabled":false,"rental_uris":{"android":"levelo://app?vid=ca80aa51-e76a-4435-b4a0-2c6ed02bfabc","ios":"levelo://app?vid=ca80aa51-e76a-4435-b4a0-2c6ed02bfabc"},"vehicle_type_id":"4","last_reported":1704402401,"current_range_meters":30000,"station_id":"ce4bhq92rcd13ifvqhkg","pricing_plan_id":"free"},{"bike_id":"cd2836bd-7416-4e20-8535-99c286431462","system_id":"levelo_inurba_marseille","lat":43.325243,"lon":5.414326,"is_reserved":false,"is_disabled":false,"rental_uris":{"android":"levelo://app?vid=cd2836bd-7416-4e20-8535-99c286431462","ios":"levelo://app?vid=cd2836bd-7416-4e20-8535-99c286431462"},"vehicle_type_id":"4","last_reported":1704402401,"current_range_meters":800,"station_id":"ce4bhq12rcd13ifvqhhg","pricing_plan_id":"free"},{"bike_id":"d3f25bcc-da64-44bb-8495-bf854b2f447f","system_id":"levelo_inurba_marseille","lat":43.324358,"lon":5.416563,"is_reserved":false,"is_disabled":false,"rental_uris":{"android":"levelo://app?vid=d3f25bcc-da64-44bb-8495-bf854b2f447f","ios":"levelo://app?vid=d3f25bcc-da64-44bb-8495-bf854b2f447f"},"vehicle_type_id":"4","last_reported":1704402401,"current_range_meters":16400,"station_id":"","pricing_plan_id":"free"},{"bike_id":"fa60d1a1-7834-4c94-89f9-64b9637b7c1e","system_id":"levelo_inurba_marseille","lat":43.283494,"lon":5.380945,"is_reserved":false,"is_disabled":false,"rental_uris":{"android":"levelo://app?vid=fa60d1a1-7834-4c94-89f9-64b9637b7c1e","ios":"levelo://app?vid=fa60d1a1-7834-4c94-89f9-64b9637b7c1e"},"vehicle_type_id":"4","last_reported":1704402401,"current_range_meters":10800,"station_id":"ce4bh412rcd13ifvqdr0","pricing_plan_id":"free"},{"bike_id":"70d43b24-a3bc-40d7-9264-c30eed0c2ed8","system_id":"levelo_inurba_marseille","lat":43.280784,"lon":5.396622,"is_reserved":false,"is_disabled":false,"rental_uris":{"android":"levelo://app?vid=70d43b24-a3bc-40d7-9264-c30eed0c2ed8","ios":"levelo://app?vid=70d43b24-a3bc-40d7-9264-c30eed0c2ed8"},"vehicle_type_id":"4","last_reported":1704402401,"current_range_meters":27600,"station_id":"ce4bho12rcd13ifvqh2g","pricing_plan_id":"free"},{"bike_id":"0892d35a-7e73-4e98-9820-6b31b73793f5","system_id":"levelo_inurba_marseille","lat":43.303837,"lon":5.418724,"is_reserved":false,"is_disabled":false,"rental_uris":{"android":"levelo://app?vid=0892d35a-7e73-4e98-9820-6b31b73793f5","ios":"levelo://app?vid=0892d35a-7e73-4e98-9820-6b31b73793f5"},"vehicle_type_id":"4","last_reported":1704402401,"current_range_meters":25200,"station_id":"ce4bhop2rcd13ifvqh7g","pricing_plan_id":"free"},{"bike_id":"998e4a41-a46c-4dbf-9d09-ff916c4b749f","system_id":"levelo_inurba_marseille","lat":43.278401,"lon":5.392152,"is_reserved":false,"is_disabled":false,"rental_uris":{"android":"levelo://app?vid=998e4a41-a46c-4dbf-9d09-ff916c4b749f","ios":"levelo://app?vid=998e4a41-a46c-4dbf-9d09-ff916c4b749f"},"vehicle_type_id":"4","last_reported":1704402401,"current_range_meters":11200,"station_id":"ce4bhjp2rcd13ifvqga0","pricing_plan_id":"free"},{"bike_id":"a1344053-79b6-4eb6-ba49-b844c62f8799","system_id":"levelo_inurba_marseille","lat":43.278401,"lon":5.392152,"is_reserved":false,"is_disabled":false,"rental_uris":{"android":"levelo://app?vid=a1344053-79b6-4eb6-ba49-b844c62f8799","ios":"levelo://app?vid=a1344053-79b6-4eb6-ba49-b844c62f8799"},"vehicle_type_id":"4","last_reported":1704402401,"current_range_meters":400,"station_id":"ce4bhjp2rcd13ifvqga0","pricing_plan_id":"free"},{"bike_id":"4968d964-3344-4faa-ab99-7ab716c4dba7","system_id":"levelo_inurba_marseille","lat":43.278401,"lon":5.392152,"is_reserved":false,"is_disabled":false,"rental_uris":{"android":"levelo://app?vid=4968d964-3344-4faa-ab99-7ab716c4dba7","ios":"levelo://app?vid=4968d964-3344-4faa-ab99-7ab716c4dba7"},"vehicle_type_id":"4","last_reported":1704402401,"current_range_meters":28800,"station_id":"ce4bhjp2rcd13ifvqga0","pricing_plan_id":"free"},{"bike_id":"1a7ca003-801f-4e65-8066-36f4d36a2fc1","system_id":"levelo_inurba_marseille","lat":43.278401,"lon":5.392152,"is_reserved":false,"is_disabled":false,"rental_uris":{"android":"levelo://app?vid=1a7ca003-801f-4e65-8066-36f4d36a2fc1","ios":"levelo://app?vid=1a7ca003-801f-4e65-8066-36f4d36a2fc1"},"vehicle_type_id":"4","last_reported":1704402401,"current_range_meters":0,"station_id":"ce4bhjp2rcd13ifvqga0","pricing_plan_id":"free"},{"bike_id":"dc339e64-d45c-4bb3-ba68-df97fef85478","system_id":"levelo_inurba_marseille","lat":43.278401,"lon":5.392152,"is_reserved":false,"is_disabled":false,"rental_uris":{"android":"levelo://app?vid=dc339e64-d45c-4bb3-ba68-df97fef85478","ios":"levelo://app?vid=dc339e64-d45c-4bb3-ba68-df97fef85478"},"vehicle_type_id":"4","last_reported":1704402401,"current_range_meters":2400,"station_id":"ce4bhjp2rcd13ifvqga0","pricing_plan_id":"free"},{"bike_id":"96bfd399-d550-4e66-8c85-b2a41c3af510","system_id":"levelo_inurba_marseille","lat":43.275625,"lon":5.384392,"is_reserved":false,"is_disabled":false,"rental_uris":{"android":"levelo://app?vid=96bfd399-d550-4e66-8c85-b2a41c3af510","ios":"levelo://app?vid=96bfd399-d550-4e66-8c85-b2a41c3af510"},"vehicle_type_id":"4","last_reported":1704402401,"current_range_meters":16400,"station_id":"ce4bhh92rcd13ifvqfi0","pricing_plan_id":"free"},{"bike_id":"498cf589-2e0d-4fd1-a30c-2d0dba323d29","system_id":"levelo_inurba_marseille","lat":43.243884,"lon":5.370737,"is_reserved":false,"is_disabled":false,"rental_uris":{"android":"levelo://app?vid=498cf589-2e0d-4fd1-a30c-2d0dba323d29","ios":"levelo://app?vid=498cf589-2e0d-4fd1-a30c-2d0dba323d29"},"vehicle_type_id":"4","last_reported":1704402401,"current_range_meters":13600,"station_id":"ce4bhhh2rcd13ifvqfk0","pricing_plan_id":"free"},{"bike_id":"31d5a2b2-c087-4052-b2f3-a9e3c28580e1","system_id":"levelo_inurba_marseille","lat":43.273609,"lon":5.362708,"is_reserved":false,"is_disabled":false,"rental_uris":{"android":"levelo://app?vid=31d5a2b2-c087-4052-b2f3-a9e3c28580e1","ios":"levelo://app?vid=31d5a2b2-c087-4052-b2f3-a9e3c28580e1"},"vehicle_type_id":"4","last_reported":1704402401,"current_range_meters":0,"station_id":"ce4bhbh2rcd13ifvqeo0","pricing_plan_id":"free"},{"bike_id":"4115cdf3-dc4b-4b1e-94c8-c29fa44eb16d","system_id":"levelo_inurba_marseille","lat":43.317121,"lon":5.423936,"is_reserved":false,"is_disabled":false,"rental_uris":{"android":"levelo://app?vid=4115cdf3-dc4b-4b1e-94c8-c29fa44eb16d","ios":"levelo://app?vid=4115cdf3-dc4b-4b1e-94c8-c29fa44eb16d"},"vehicle_type_id":"4","last_reported":1704402401,"current_range_meters":27600,"station_id":"ce4bhp92rcd13ifvqhbg","pricing_plan_id":"free"},{"bike_id":"4f0711dd-915f-4271-b28b-c5a497837f1d","system_id":"levelo_inurba_marseille","lat":43.317121,"lon":5.423936,"is_reserved":false,"is_disabled":false,"rental_uris":{"android":"levelo://app?vid=4f0711dd-915f-4271-b28b-c5a497837f1d","ios":"levelo://app?vid=4f0711dd-915f-4271-b28b-c5a497837f1d"},"vehicle_type_id":"4","last_reported":1704402401,"current_range_meters":28000,"station_id":"ce4bhp92rcd13ifvqhbg","pricing_plan_id":"free"},{"bike_id":"f7f79a4d-6ffd-4c77-8ef2-c4a3c9557f1a","system_id":"levelo_inurba_marseille","lat":43.274099,"lon":5.394019,"is_reserved":false,"is_disabled":false,"rental_uris":{"android":"levelo://app?vid=f7f79a4d-6ffd-4c77-8ef2-c4a3c9557f1a","ios":"levelo://app?vid=f7f79a4d-6ffd-4c77-8ef2-c4a3c9557f1a"},"vehicle_type_id":"4","last_reported":1704402401,"current_range_meters":24000,"station_id":"ce4bhdp2rcd13ifvqf20","pricing_plan_id":"free"},{"bike_id":"b15bf62a-b098-415b-99c2-f75370f251fa","system_id":"levelo_inurba_marseille","lat":43.295511,"lon":5.422926,"is_reserved":false,"is_disabled":false,"rental_uris":{"android":"levelo://app?vid=b15bf62a-b098-415b-99c2-f75370f251fa","ios":"levelo://app?vid=b15bf62a-b098-415b-99c2-f75370f251fa"},"vehicle_type_id":"4","last_reported":1704402401,"current_range_meters":6000,"station_id":"ce4bhph2rcd13ifvqhdg","pricing_plan_id":"free"},{"bike_id":"9664fb5b-23a7-4950-b957-58086de787e9","system_id":"levelo_inurba_marseille","lat":43.295523,"lon":5.422926,"is_reserved":false,"is_disabled":false,"rental_uris":{"android":"levelo://app?vid=9664fb5b-23a7-4950-b957-58086de787e9","ios":"levelo://app?vid=9664fb5b-23a7-4950-b957-58086de787e9"},"vehicle_type_id":"4","last_reported":1704402401,"current_range_meters":9200,"station_id":"ce4bhph2rcd13ifvqhdg","pricing_plan_id":"free"},{"bike_id":"73af8d5c-f512-4ab5-b9eb-03c462f5bd8d","system_id":"levelo_inurba_marseille","lat":43.295511,"lon":5.422926,"is_reserved":false,"is_disabled":false,"rental_uris":{"android":"levelo://app?vid=73af8d5c-f512-4ab5-b9eb-03c462f5bd8d","ios":"levelo://app?vid=73af8d5c-f512-4ab5-b9eb-03c462f5bd8d"},"vehicle_type_id":"4","last_reported":1704402401,"current_range_meters":9200,"station_id":"ce4bhph2rcd13ifvqhdg","pricing_plan_id":"free"},{"bike_id":"87638faf-8770-4dcc-bb2a-991510e4755a","system_id":"levelo_inurba_marseille","lat":43.295511,"lon":5.422926,"is_reserved":false,"is_disabled":false,"rental_uris":{"android":"levelo://app?vid=87638faf-8770-4dcc-bb2a-991510e4755a","ios":"levelo://app?vid=87638faf-8770-4dcc-bb2a-991510e4755a"},"vehicle_type_id":"4","last_reported":1704402401,"current_range_meters":6400,"station_id":"ce4bhph2rcd13ifvqhdg","pricing_plan_id":"free"},{"bike_id":"768938e0-882c-4e76-a146-610e15b96739","system_id":"levelo_inurba_marseille","lat":43.295511,"lon":5.422926,"is_reserved":false,"is_disabled":false,"rental_uris":{"android":"levelo://app?vid=768938e0-882c-4e76-a146-610e15b96739","ios":"levelo://app?vid=768938e0-882c-4e76-a146-610e15b96739"},"vehicle_type_id":"4","last_reported":1704402401,"current_range_meters":8800,"station_id":"ce4bhph2rcd13ifvqhdg","pricing_plan_id":"free"},{"bike_id":"1476ccaf-15c0-401b-aafd-c106b0adf6c7","system_id":"levelo_inurba_marseille","lat":43.295511,"lon":5.422926,"is_reserved":false,"is_disabled":false,"rental_uris":{"android":"levelo://app?vid=1476ccaf-15c0-401b-aafd-c106b0adf6c7","ios":"levelo://app?vid=1476ccaf-15c0-401b-aafd-c106b0adf6c7"},"vehicle_type_id":"4","last_reported":1704402401,"current_range_meters":1200,"station_id":"ce4bhph2rcd13ifvqhdg","pricing_plan_id":"free"},{"bike_id":"551af9f4-6a9b-4035-9c1f-9fbcfbeead6a","system_id":"levelo_inurba_marseille","lat":43.278128,"lon":5.407195,"is_reserved":false,"is_disabled":false,"rental_uris":{"android":"levelo://app?vid=551af9f4-6a9b-4035-9c1f-9fbcfbeead6a","ios":"levelo://app?vid=551af9f4-6a9b-4035-9c1f-9fbcfbeead6a"},"vehicle_type_id":"4","last_reported":1704402401,"current_range_meters":13200,"station_id":"ce4bhnh2rcd13ifvqgtg","pricing_plan_id":"free"},{"bike_id":"284fc3a0-0537-488a-b1ae-4a8d2e1b6424","system_id":"levelo_inurba_marseille","lat":43.279465,"lon":5.410561,"is_reserved":false,"is_disabled":false,"rental_uris":{"android":"levelo://app?vid=284fc3a0-0537-488a-b1ae-4a8d2e1b6424","ios":"levelo://app?vid=284fc3a0-0537-488a-b1ae-4a8d2e1b6424"},"vehicle_type_id":"4","last_reported":1704402401,"current_range_meters":1600,"station_id":"ce4bhnp2rcd13ifvqh0g","pricing_plan_id":"free"},{"bike_id":"ecfa10e8-387e-4c32-a9eb-75e424080620","system_id":"levelo_inurba_marseille","lat":43.279465,"lon":5.410561,"is_reserved":false,"is_disabled":false,"rental_uris":{"android":"levelo://app?vid=ecfa10e8-387e-4c32-a9eb-75e424080620","ios":"levelo://app?vid=ecfa10e8-387e-4c32-a9eb-75e424080620"},"vehicle_type_id":"4","last_reported":1704402401,"current_range_meters":17200,"station_id":"ce4bhnp2rcd13ifvqh0g","pricing_plan_id":"free"},{"bike_id":"6e26953e-fd69-48da-8f0f-7281ade6f52f","system_id":"levelo_inurba_marseille","lat":43.269319,"lon":5.389397,"is_reserved":false,"is_disabled":false,"rental_uris":{"android":"levelo://app?vid=6e26953e-fd69-48da-8f0f-7281ade6f52f","ios":"levelo://app?vid=6e26953e-fd69-48da-8f0f-7281ade6f52f"},"vehicle_type_id":"4","last_reported":1704402401,"current_range_meters":25200,"station_id":"ce4bhhh2rcd13ifvqfl0","pricing_plan_id":"free"},{"bike_id":"c1bb1649-3fed-4cff-805e-e8819a2c6dec","system_id":"levelo_inurba_marseille","lat":43.269319,"lon":5.389397,"is_reserved":false,"is_disabled":false,"rental_uris":{"android":"levelo://app?vid=c1bb1649-3fed-4cff-805e-e8819a2c6dec","ios":"levelo://app?vid=c1bb1649-3fed-4cff-805e-e8819a2c6dec"},"vehicle_type_id":"4","last_reported":1704402401,"current_range_meters":17600,"station_id":"ce4bhhh2rcd13ifvqfl0","pricing_plan_id":"free"},{"bike_id":"e50579eb-bf2f-44ca-b1c9-ee27d0940c49","system_id":"levelo_inurba_marseille","lat":43.25102,"lon":5.403214,"is_reserved":false,"is_disabled":false,"rental_uris":{"android":"levelo://app?vid=e50579eb-bf2f-44ca-b1c9-ee27d0940c49","ios":"levelo://app?vid=e50579eb-bf2f-44ca-b1c9-ee27d0940c49"},"vehicle_type_id":"4","last_reported":1704402401,"current_range_meters":20800,"station_id":"ce4bhlh2rcd13ifvqgig","pricing_plan_id":"free"},{"bike_id":"d925fdde-eae1-4dfc-bb5a-e653e51f6e47","system_id":"levelo_inurba_marseille","lat":43.26681,"lon":5.382694,"is_reserved":false,"is_disabled":false,"rental_uris":{"android":"levelo://app?vid=d925fdde-eae1-4dfc-bb5a-e653e51f6e47","ios":"levelo://app?vid=d925fdde-eae1-4dfc-bb5a-e653e51f6e47"},"vehicle_type_id":"4","last_reported":1704402401,"current_range_meters":12000,"station_id":"ce4bhg92rcd13ifvqf90","pricing_plan_id":"free"},{"bike_id":"efd959c6-aa55-4971-8e4b-58f77f7bb6f8","system_id":"levelo_inurba_marseille","lat":43.26681,"lon":5.382694,"is_reserved":false,"is_disabled":false,"rental_uris":{"android":"levelo://app?vid=efd959c6-aa55-4971-8e4b-58f77f7bb6f8","ios":"levelo://app?vid=efd959c6-aa55-4971-8e4b-58f77f7bb6f8"},"vehicle_type_id":"4","last_reported":1704402401,"current_range_meters":31200,"station_id":"ce4bhg92rcd13ifvqf90","pricing_plan_id":"free"},{"bike_id":"57c2863b-fe62-479d-99f5-0a42f036d04d","system_id":"levelo_inurba_marseille","lat":43.27996,"lon":5.416624,"is_reserved":false,"is_disabled":false,"rental_uris":{"android":"levelo://app?vid=57c2863b-fe62-479d-99f5-0a42f036d04d","ios":"levelo://app?vid=57c2863b-fe62-479d-99f5-0a42f036d04d"},"vehicle_type_id":"4","last_reported":1704402401,"current_range_meters":14800,"station_id":"ce4bho12rcd13ifvqh1g","pricing_plan_id":"free"},{"bike_id":"a3a8711a-f1ba-4eb9-98ea-5c59c2a546f5","system_id":"levelo_inurba_marseille","lat":43.265714,"lon":5.372891,"is_reserved":false,"is_disabled":false,"rental_uris":{"android":"levelo://app?vid=a3a8711a-f1ba-4eb9-98ea-5c59c2a546f5","ios":"levelo://app?vid=a3a8711a-f1ba-4eb9-98ea-5c59c2a546f5"},"vehicle_type_id":"4","last_reported":1704402401,"current_range_meters":6000,"station_id":"ce4bhg12rcd13ifvqf70","pricing_plan_id":"free"},{"bike_id":"8c30aad9-c429-4590-82a2-78dd2df0f6dc","system_id":"levelo_inurba_marseille","lat":43.308051,"lon":5.43527,"is_reserved":false,"is_disabled":false,"rental_uris":{"android":"levelo://app?vid=8c30aad9-c429-4590-82a2-78dd2df0f6dc","ios":"levelo://app?vid=8c30aad9-c429-4590-82a2-78dd2df0f6dc"},"vehicle_type_id":"4","last_reported":1704402401,"current_range_meters":30400,"station_id":"ce4bhph2rcd13ifvqheg","pricing_plan_id":"free"},{"bike_id":"58bee9b8-6680-4eb2-9e6b-1772099d5a84","system_id":"levelo_inurba_marseille","lat":43.26949,"lon":5.40262,"is_reserved":false,"is_disabled":false,"rental_uris":{"android":"levelo://app?vid=58bee9b8-6680-4eb2-9e6b-1772099d5a84","ios":"levelo://app?vid=58bee9b8-6680-4eb2-9e6b-1772099d5a84"},"vehicle_type_id":"4","last_reported":1704402401,"current_range_meters":5200,"station_id":"cjm6bp8fraef2m0cb0m0","pricing_plan_id":"free"},{"bike_id":"6ded9338-5e61-42b7-a58c-c7d92ad324b4","system_id":"levelo_inurba_marseille","lat":43.27182,"lon":5.40978,"is_reserved":false,"is_disabled":false,"rental_uris":{"android":"levelo://app?vid=6ded9338-5e61-42b7-a58c-c7d92ad324b4","ios":"levelo://app?vid=6ded9338-5e61-42b7-a58c-c7d92ad324b4"},"vehicle_type_id":"4","last_reported":1704402401,"current_range_meters":0,"station_id":"ce4bhl12rcd13ifvqgf0","pricing_plan_id":"free"},{"bike_id":"0d102da3-fd59-40f5-977c-de2ac98eb30d","system_id":"levelo_inurba_marseille","lat":43.271388,"lon":5.409269,"is_reserved":false,"is_disabled":false,"rental_uris":{"android":"levelo://app?vid=0d102da3-fd59-40f5-977c-de2ac98eb30d","ios":"levelo://app?vid=0d102da3-fd59-40f5-977c-de2ac98eb30d"},"vehicle_type_id":"4","last_reported":1704402401,"current_range_meters":6800,"station_id":"ce4bhl12rcd13ifvqgf0","pricing_plan_id":"free"},{"bike_id":"364704e7-b155-406c-976a-bc0438f041ee","system_id":"levelo_inurba_marseille","lat":43.27173,"lon":5.40988,"is_reserved":false,"is_disabled":false,"rental_uris":{"android":"levelo://app?vid=364704e7-b155-406c-976a-bc0438f041ee","ios":"levelo://app?vid=364704e7-b155-406c-976a-bc0438f041ee"},"vehicle_type_id":"4","last_reported":1704402401,"current_range_meters":0,"station_id":"ce4bhl12rcd13ifvqgf0","pricing_plan_id":"free"},{"bike_id":"24bdd6dc-bef3-4595-9e07-20613bf0fa19","system_id":"levelo_inurba_marseille","lat":43.27171,"lon":5.40994,"is_reserved":false,"is_disabled":false,"rental_uris":{"android":"levelo://app?vid=24bdd6dc-bef3-4595-9e07-20613bf0fa19","ios":"levelo://app?vid=24bdd6dc-bef3-4595-9e07-20613bf0fa19"},"vehicle_type_id":"4","last_reported":1704402401,"current_range_meters":27200,"station_id":"ce4bhl12rcd13ifvqgf0","pricing_plan_id":"free"},{"bike_id":"69bfbae1-0795-4565-a827-fff79dc85ee7","system_id":"levelo_inurba_marseille","lat":43.2651,"lon":5.39469,"is_reserved":false,"is_disabled":false,"rental_uris":{"android":"levelo://app?vid=69bfbae1-0795-4565-a827-fff79dc85ee7","ios":"levelo://app?vid=69bfbae1-0795-4565-a827-fff79dc85ee7"},