{"last_updated":1742058442,"ttl":60,"version":"2.2","data":{"bikes":[{"bike_id":"c23b70db-91b9-4688-969b-665555e58ccb","system_id":"levelo_inurba_marseille","lat":43.29933,"lon":5.36531,"is_reserved":false,"is_disabled":false,"rental_uris":{"android":"levelo://app?vid=c23b70db-91b9-4688-969b-665555e58ccb","ios":"levelo://app?vid=c23b70db-91b9-4688-969b-665555e58ccb"},"vehicle_type_id":"4","last_reported":1742058442,"current_range_meters":2800,"station_id":"ce4bgm92rcd13ifvqbr0","pricing_plan_id":"cebpf4jnsgd1na2vs0mg"},{"bike_id":"74b47342-c5d1-4895-aa05-e58bbb702fbd","system_id":"levelo_inurba_marseille","lat":43.29292,"lon":5.37464,"is_reserved":false,"is_disabled":false,"rental_uris":{"android":"levelo://app?vid=74b47342-c5d1-4895-aa05-e58bbb702fbd","ios":"levelo://app?vid=74b47342-c5d1-4895-aa05-e58bbb702fbd"},"vehicle_type_id":"4","last_reported":1742058442,"current_range_meters":2800,"station_id":"ce4bgi12rcd13ifvqb70","pricing_plan_id":"cebpf4jnsgd1na2vs0mg"},{"bike_id":"1863c4cd-3bb2-402d-8f92-686e0b93b918","system_id":"levelo_inurba_marseille","lat":43.28413,"lon":5.37503,"is_reserved":false,"is_disabled":false,"rental_uris":{"android":"levelo://app?vid=1863c4cd-3bb2-402d-8f92-686e0b93b918","ios":"levelo://app?vid=1863c4cd-3bb2-402d-8f92-686e0b93b918"},"vehicle_type_id":"4","last_reported":1742058442,"current_range_meters":3200,"station_id":"ce4bh412rcd13ifvqds0","pricing_plan_id":"cebpf4jnsgd1na2vs0mg"},{"bike_id":"c7dd81b0-c423-4cf2-a2ab-06346f6bdebf","system_id":"levelo_inurba_marseille","lat":43.25576,"lon":5.38239,"is_reserved":false,"is_disabled":false,"rental_uris":{"android":"levelo://app?vid=c7dd81b0-c423-4cf2-a2ab-06346f6bdebf","ios":"levelo://app?vid=c7dd81b0-c423-4cf2-a2ab-06346f6bdebf"},"vehicle_type_id":"4","last_reported":1742058442,"current_range_meters":3200,"station_id":"ce4bhih2rcd13ifvqfs0","pricing_plan_id":"cebpf4jnsgd1na2vs0mg"},{"bike_id":"4a30ba24-3077-48cf-bf8f-e1ca74328040","system_id":"levelo_inurba_marseille","lat":43.29027,"lon":5.38649,"is_reserved":false,"is_disabled":false,"rental_uris":{"android":"levelo://app?vid=4a30ba24-3077-48cf-bf8f-e1ca74328040","ios":"levelo://app?vid=4a30ba24-3077-48cf-bf8f-e1ca74328040"},"vehicle_type_id":"4","last_reported":1742058442,"current_range_meters":3200,"station_id":"ce4bh4p2rcd13ifvqe0g","pricing_plan_id":"cebpf4jnsgd1na2vs0mg"},{"bike_id":"7e2b5a0e-0152-4e1a-a4a4-af990b19926c","system_id":"levelo_inurba_marseille","lat":43.2866,"lon":5.3635,"is_reserved":false,"is_disabled":false,"rental_uris":{"android":"levelo://app?vid=7e2b5a0e-0152-4e1a-a4a4-af990b19926c","ios":"levelo://app?vid=7e2b5a0e-0152-4e1a-a4a4-af990b19926c"},"vehicle_type_id":"4","last_reported":1742058442,"current_range_meters":3200,"station_id":"ce4bhah2rcd13ifvqej0","pricing_plan_id":"cebpf4jnsgd1na2vs0mg"},{"bike_id":"252b0916-c3e7-4dea-b472-ef758ceb705d","system_id":"levelo_inurba_marseille","lat":43.26503,"lon":5.39556,"is_reserved":false,"is_disabled":false,"rental_uris":{"android":"levelo://app?vid=252b0916-c3e7-4dea-b472-ef758ceb705d","ios":"levelo://app?vid=252b0916-c3e7-4dea-b472-ef758ceb705d"},"vehicle_type_id":"4","last_reported":1742058442,"current_range_meters":3200,"station_id":"ce4bhi12rcd13ifvqfq0","pricing_plan_id":"cebpf4jnsgd1na2vs0mg"},{"bike_id":"85f59e57-225c-4cd7-9d45-462c9cac23dd","system_id":"levelo_inurba_marseille","lat":43.30211,"lon":5.39492,"is_reserved":false,"is_disabled":false,"rental_uris":{"android":"levelo://app?vid=85f59e57-225c-4cd7-9d45-462c9cac23dd","ios":"levelo://app?vid=85f59e57-225c-4cd7-9d45-462c9cac23dd"},"vehicle_type_id":"4","last_reported":1742058442,"current_range_meters":3600,"station_id":"ce4bh0p2rcd13ifvqd70","pricing_plan_id":"cebpf4jnsgd1na2vs0mg"},{"bike_id":"d8311428-d95c-45a1-8afd-c4ee9c0a3bbb","system_id":"levelo_inurba_marseille","lat":43.29705,"lon":5.37696,"is_reserved":false,"is_disabled":false,"rental_uris":{"android":"levelo://app?vid=d8311428-d95c-45a1-8afd-c4ee9c0a3bbb","ios":"levelo://app?vid=d8311428-d95c-45a1-8afd-c4ee9c0a3bbb"},"vehicle_type_id":"4","last_reported":1742058442,"current_range_meters":0,"station_id":"ce4bgkh2rcd13ifvqbl0","pricing_plan_id":"cebpf4jnsgd1na2vs0mg"},{"bike_id":"918a6af5-5e6d-46c2-a2fb-b31588b6e3b4","system_id":"levelo_inurba_marseille","lat":43.29251,"lon":5.37637,"is_reserved":false,"is_disabled":false,"rental_uris":{"android":"levelo://app?vid=918a6af5-5e6d-46c2-a2fb-b31588b6e3b4","ios":"levelo://app?vid=918a6af5-5e6d-46c2-a2fb-b31588b6e3b4"},"vehicle_type_id":"4","last_reported":1742058442,"current_range_meters":3600,"station_id":"ce4bgi12rcd13ifvqb80","pricing_plan_id":"cebpf4jnsgd1na2vs0mg"},{"bike_id":"43d81e96-cdcc-4c5d-9b6e-181c13e8e406","system_id":"levelo_inurba_marseille","lat":43.31528,"lon":5.38035,"is_reserved":false,"is_disabled":false,"rental_uris":{"android":"levelo://app?vid=43d81e96-cdcc-4c5d-9b6e-181c13e8e406","ios":"levelo://app?vid=43d81e96-cdcc-4c5d-9b6e-181c13e8e406"},"vehicle_type_id":"4","last_reported":1742058442,"current_range_meters":3200,"station_id":"ce4bhsp2rcd13ifvqi50","pricing_plan_id":"cebpf4jnsgd1na2vs0mg"},{"bike_id":"80235d31-b1df-42dd-8162-128f77bc53db","system_id":"levelo_inurba_marseille","lat":43.27205,"lon":5.39188,"is_reserved":false,"is_disabled":false,"rental_uris":{"android":"levelo://app?vid=80235d31-b1df-42dd-8162-128f77bc53db","ios":"levelo://app?vid=80235d31-b1df-42dd-8162-128f77bc53db"},"vehicle_type_id":"4","last_reported":1742058442,"current_range_meters":3200,"station_id":"ce4bhhp2rcd13ifvqfm0","pricing_plan_id":"cebpf4jnsgd1na2vs0mg"},{"bike_id":"cc1a739d-b92b-4094-badb-9dee2f396045","system_id":"levelo_inurba_marseille","lat":43.30882,"lon":5.39661,"is_reserved":false,"is_disabled":false,"rental_uris":{"android":"levelo://app?vid=cc1a739d-b92b-4094-badb-9dee2f396045","ios":"levelo://app?vid=cc1a739d-b92b-4094-badb-9dee2f396045"},"vehicle_type_id":"4","last_reported":1742058442,"current_range_meters":3600,"station_id":"ce4bh012rcd13ifvqcv0","pricing_plan_id":"cebpf4jnsgd1na2vs0mg"},{"bike_id":"7cd950c5-52d3-4f1a-83f3-933a4f1711a8","system_id":"levelo_inurba_marseille","lat":43.26683,"lon":5.38274,"is_reserved":false,"is_disabled":false,"rental_uris":{"android":"levelo://app?vid=7cd950c5-52d3-4f1a-83f3-933a4f1711a8","ios":"levelo://app?vid=7cd950c5-52d3-4f1a-83f3-933a4f1711a8"},"vehicle_type_id":"4","last_reported":1742058442,"current_range_meters":3600,"station_id":"ce4bhg92rcd13ifvqf90","pricing_plan_id":"cebpf4jnsgd1na2vs0mg"},{"bike_id":"99de1a3f-a931-47a8-88e5-56c1b2c1b9ce","system_id":"levelo_inurba_marseille","lat":43.291962,"lon":5.393298,"is_reserved":false,"is_disabled":false,"rental_uris":{"android":"levelo://app?vid=99de1a3f-a931-47a8-88e5-56c1b2c1b9ce","ios":"levelo://app?vid=99de1a3f-a931-47a8-88e5-56c1b2c1b9ce"},"vehicle_type_id":"4","last_reported":1742058442,"current_range_meters":3600,"station_id":"ce4bh192rcd13ifvqdd0","pricing_plan_id":"cebpf4jnsgd1na2vs0mg"},{"bike_id":"ed59cdb4-1f9d-40a9-afc5-6bc77461f5e6","system_id":"levelo_inurba_marseille","lat":43.29537,"lon":5.37518,"is_reserved":false,"is_disabled":false,"rental_uris":{"android":"levelo://app?vid=ed59cdb4-1f9d-40a9-afc5-6bc77461f5e6","ios":"levelo://app?vid=ed59cdb4-1f9d-40a9-afc5-6bc77461f5e6"},"vehicle_type_id":"4","last_reported":1742058442,"current_range_meters":3600,"station_id":"ce4bgkp2rcd13ifvqbmg","pricing_plan_id":"cebpf4jnsgd1na2vs0mg"},{"bike_id":"36ec5a15-215b-4367-a3ca-336aadd9a251","system_id":"levelo_inurba_marseille","lat":43.33746,"lon":5.3745,"is_reserved":false,"is_disabled":false,"rental_uris":{"android":"levelo://app?vid=36ec5a15-215b-4367-a3ca-336aadd9a251","ios":"levelo://app?vid=36ec5a15-215b-4367-a3ca-336aadd9a251"},"vehicle_type_id":"4","last_reported":1742058442,"current_range_meters":3600,"station_id":"","pricing_plan_id":"cebpf4jnsgd1na2vs0mg"},{"bike_id":"274d8859-5805-43e7-b9c5-fd7a0a12433d","system_id":"levelo_inurba_marseille","lat":43.28259,"lon":5.35064,"is_reserved":false,"is_disabled":false,"rental_uris":{"android":"levelo://app?vid=274d8859-5805-43e7-b9c5-fd7a0a12433d","ios":"levelo://app?vid=274d8859-5805-43e7-b9c5-fd7a0a12433d"},"vehicle_type_id":"4","last_reported":1742058442,"current_range_meters":4000,"station_id":"ce4bhbp2rcd13ifvqerg","pricing_plan_id":"cebpf4jnsgd1na2vs0mg"},{"bike_id":"fa5894d7-1c98-4f78-8661-afc7d0ea5566","system_id":"levelo_inurba_marseille","lat":43.26946,"lon":5.40247,"is_reserved":false,"is_disabled":false,"rental_uris":{"android":"levelo://app?vid=fa5894d7-1c98-4f78-8661-afc7d0ea5566","ios":"levelo://app?vid=fa5894d7-1c98-4f78-8661-afc7d0ea5566"},"vehicle_type_id":"4","last_reported":1742058442,"current_range_meters":4000,"station_id":"cjm6bp8fraef2m0cb0m0","pricing_plan_id":"cebpf4jnsgd1na2vs0mg"},{"bike_id":"74d4834c-d691-4ceb-bcb6-4a7f07158d94","system_id":"levelo_inurba_marseille","lat":43.29537,"lon":5.39032,"is_reserved":false,"is_disabled":false,"rental_uris":{"android":"levelo://app?vid=74d4834c-d691-4ceb-bcb6-4a7f07158d94","ios":"levelo://app?vid=74d4834c-d691-4ceb-bcb6-4a7f07158d94"},"vehicle_type_id":"4","last_reported":1742058442,"current_range_meters":4400,"station_id":"ce4bh3p2rcd13ifvqdp0","pricing_plan_id":"cebpf4jnsgd1na2vs0mg"},{"bike_id":"da49e667-5766-46e7-9cbb-012bd8fba489","system_id":"levelo_inurba_marseille","lat":43.290644,"lon":5.375653,"is_reserved":false,"is_disabled":false,"rental_uris":{"android":"levelo://app?vid=da49e667-5766-46e7-9cbb-012bd8fba489","ios":"levelo://app?vid=da49e667-5766-46e7-9cbb-012bd8fba489"},"vehicle_type_id":"4","last_reported":1742058442,"current_range_meters":4000,"station_id":"ce4bh692rcd13ifvqe90","pricing_plan_id":"cebpf4jnsgd1na2vs0mg"},{"bike_id":"d9a9126c-a4b2-42e6-be5a-e9a1bbe41615","system_id":"levelo_inurba_marseille","lat":43.30555,"lon":5.3653,"is_reserved":false,"is_disabled":false,"rental_uris":{"android":"levelo://app?vid=d9a9126c-a4b2-42e6-be5a-e9a1bbe41615","ios":"levelo://app?vid=d9a9126c-a4b2-42e6-be5a-e9a1bbe41615"},"vehicle_type_id":"4","last_reported":1742058442,"current_range_meters":4400,"station_id":"ce4bgs12rcd13ifvqcag","pricing_plan_id":"cebpf4jnsgd1na2vs0mg"},{"bike_id":"f35fa8f8-2fd6-438f-b454-1662457860bb","system_id":"levelo_inurba_marseille","lat":43.28669,"lon":5.38665,"is_reserved":false,"is_disabled":false,"rental_uris":{"android":"levelo://app?vid=f35fa8f8-2fd6-438f-b454-1662457860bb","ios":"levelo://app?vid=f35fa8f8-2fd6-438f-b454-1662457860bb"},"vehicle_type_id":"4","last_reported":1742058442,"current_range_meters":4800,"station_id":"ce4bh492rcd13ifvqdug","pricing_plan_id":"cebpf4jnsgd1na2vs0mg"},{"bike_id":"e0bfb90d-5da0-4c53-a3ef-1de3a65263e8","system_id":"levelo_inurba_marseille","lat":43.28611,"lon":5.35114,"is_reserved":false,"is_disabled":false,"rental_uris":{"android":"levelo://app?vid=e0bfb90d-5da0-4c53-a3ef-1de3a65263e8","ios":"levelo://app?vid=e0bfb90d-5da0-4c53-a3ef-1de3a65263e8"},"vehicle_type_id":"4","last_reported":1742058442,"current_range_meters":4800,"station_id":"ce4bhch2rcd13ifvqeug","pricing_plan_id":"cebpf4jnsgd1na2vs0mg"},{"bike_id":"c7b6b106-0b20-48f9-a75a-7d97ecb070d1","system_id":"levelo_inurba_marseille","lat":43.28112,"lon":5.37839,"is_reserved":false,"is_disabled":false,"rental_uris":{"android":"levelo://app?vid=c7b6b106-0b20-48f9-a75a-7d97ecb070d1","ios":"levelo://app?vid=c7b6b106-0b20-48f9-a75a-7d97ecb070d1"},"vehicle_type_id":"4","last_reported":1742058442,"current_range_meters":3600,"station_id":"ce4bha12rcd13ifvqee0","pricing_plan_id":"cebpf4jnsgd1na2vs0mg"},{"bike_id":"cdb5fed7-ac54-4c11-a3db-457bfed4fdad","system_id":"levelo_inurba_marseille","lat":43.27619,"lon":5.36113,"is_reserved":false,"is_disabled":false,"rental_uris":{"android":"levelo://app?vid=cdb5fed7-ac54-4c11-a3db-457bfed4fdad","ios":"levelo://app?vid=cdb5fed7-ac54-4c11-a3db-457bfed4fdad"},"vehicle_type_id":"4","last_reported":1742058442,"current_range_meters":2800,"station_id":"ce4bgj92rcd13ifvqbe0","pricing_plan_id":"cebpf4jnsgd1na2vs0mg"},{"bike_id":"f0c0d63a-9494-4c27-9884-27b4a6a1e296","system_id":"levelo_inurba_marseille","lat":43.27429,"lon":5.39424,"is_reserved":false,"is_disabled":false,"rental_uris":{"android":"levelo://app?vid=f0c0d63a-9494-4c27-9884-27b4a6a1e296","ios":"levelo://app?vid=f0c0d63a-9494-4c27-9884-27b4a6a1e296"},"vehicle_type_id":"4","last_reported":1742058442,"current_range_meters":4800,"station_id":"ce4bhdp2rcd13ifvqf20","pricing_plan_id":"cebpf4jnsgd1na2vs0mg"},{"bike_id":"cd2914ff-5ddf-4465-add0-5220dd4b2e6a","system_id":"levelo_inurba_marseille","lat":43.27943,"lon":5.41047,"is_reserved":false,"is_disabled":false,"rental_uris":{"android":"levelo://app?vid=cd2914ff-5ddf-4465-add0-5220dd4b2e6a","ios":"levelo://app?vid=cd2914ff-5ddf-4465-add0-5220dd4b2e6a"},"vehicle_type_id":"4","last_reported":1742058442,"current_range_meters":4800,"station_id":"ce4bhnp2rcd13ifvqh0g","pricing_plan_id":"cebpf4jnsgd1na2vs0mg"},{"bike_id":"af79c511-11f1-4d1d-802f-cdc45974ba81","system_id":"levelo_inurba_marseille","lat":43.25718,"lon":5.41097,"is_reserved":false,"is_disabled":false,"rental_uris":{"android":"levelo://app?vid=af79c511-11f1-4d1d-802f-cdc45974ba81","ios":"levelo://app?vid=af79c511-11f1-4d1d-802f-cdc45974ba81"},"vehicle_type_id":"4","last_reported":1742058442,"current_range_meters":5600,"station_id":"ce4bhkp2rcd13ifvqgd0","pricing_plan_id":"cebpf4jnsgd1na2vs0mg"},{"bike_id":"48de0efc-461c-48c9-a345-06473ce7bd44","system_id":"levelo_inurba_marseille","lat":43.26233,"lon":5.37967,"is_reserved":false,"is_disabled":false,"rental_uris":{"android":"levelo://app?vid=48de0efc-461c-48c9-a345-06473ce7bd44","ios":"levelo://app?vid=48de0efc-461c-48c9-a345-06473ce7bd44"},"vehicle_type_id":"4","last_reported":1742058442,"current_range_meters":5600,"station_id":"ce4bhjp2rcd13ifvqg90","pricing_plan_id":"cebpf4jnsgd1na2vs0mg"},{"bike_id":"41d00ad5-c2e3-449e-9023-05eae2209cb4","system_id":"levelo_inurba_marseille","lat":43.27907,"lon":5.39605,"is_reserved":false,"is_disabled":false,"rental_uris":{"android":"levelo://app?vid=41d00ad5-c2e3-449e-9023-05eae2209cb4","ios":"levelo://app?vid=41d00ad5-c2e3-449e-9023-05eae2209cb4"},"vehicle_type_id":"4","last_reported":1742058442,"current_range_meters":5600,"station_id":"ce4bhf92rcd13ifvqf40","pricing_plan_id":"cebpf4jnsgd1na2vs0mg"},{"bike_id":"4ee2f0f2-08bf-4a9e-8d48-76f97f8a60c8","system_id":"levelo_inurba_marseille","lat":43.26494,"lon":5.39552,"is_reserved":false,"is_disabled":false,"rental_uris":{"android":"levelo://app?vid=4ee2f0f2-08bf-4a9e-8d48-76f97f8a60c8","ios":"levelo://app?vid=4ee2f0f2-08bf-4a9e-8d48-76f97f8a60c8"},"vehicle_type_id":"4","last_reported":1742058442,"current_range_meters":5600,"station_id":"ce4bhi12rcd13ifvqfq0","pricing_plan_id":"cebpf4jnsgd1na2vs0mg"},{"bike_id":"ee3d6905-cbe2-4d55-bb64-754d948bb064","system_id":"levelo_inurba_marseille","lat":43.29529,"lon":5.37503,"is_reserved":false,"is_disabled":false,"rental_uris":{"android":"levelo://app?vid=ee3d6905-cbe2-4d55-bb64-754d948bb064","ios":"levelo://app?vid=ee3d6905-cbe2-4d55-bb64-754d948bb064"},"vehicle_type_id":"4","last_reported":1742058442,"current_range_meters":5600,"station_id":"ce4bgkp2rcd13ifvqbmg","pricing_plan_id":"cebpf4jnsgd1na2vs0mg"},{"bike_id":"1b1b8b7a-1bb1-4f65-a070-4a4cf74718ab","system_id":"levelo_inurba_marseille","lat":43.2293,"lon":5.35379,"is_reserved":false,"is_disabled":false,"rental_uris":{"android":"levelo://app?vid=1b1b8b7a-1bb1-4f65-a070-4a4cf74718ab","ios":"levelo://app?vid=1b1b8b7a-1bb1-4f65-a070-4a4cf74718ab"},"vehicle_type_id":"4","last_reported":1742058442,"current_range_meters":5600,"station_id":"cpo3532slgdg3j2ikp40","pricing_plan_id":"cebpf4jnsgd1na2vs0mg"},{"bike_id":"96c95cc5-3655-4976-bd9e-8b622b598117","system_id":"levelo_inurba_marseille","lat":43.28012,"lon":5.41648,"is_reserved":false,"is_disabled":true,"rental_uris":{"android":"levelo://app?vid=96c95cc5-3655-4976-bd9e-8b622b598117","ios":"levelo://app?vid=96c95cc5-3655-4976-bd9e-8b622b598117"},"vehicle_type_id":"4","last_reported":1742058442,"current_range_meters":6000,"station_id":"ce4bho12rcd13ifvqh1g","pricing_plan_id":"cebpf4jnsgd1na2vs0mg"},{"bike_id":"7b24a329-69e7-4c9c-b3a3-2f8abf218707","system_id":"levelo_inurba_marseille","lat":43.29518,"lon":5.39398,"is_reserved":false,"is_disabled":false,"rental_uris":{"android":"levelo://app?vid=7b24a329-69e7-4c9c-b3a3-2f8abf218707","ios":"levelo://app?vid=7b24a329-69e7-4c9c-b3a3-2f8abf218707"},"vehicle_type_id":"4","last_reported":1742058442,"current_range_meters":6000,"station_id":"ce4bh292rcd13ifvqdf0","pricing_plan_id":"cebpf4jnsgd1na2vs0mg"},{"bike_id":"dfb1890d-a53d-42f7-a687-0bca1634d203","system_id":"levelo_inurba_marseille","lat":43.26986,"lon":5.38701,"is_reserved":false,"is_disabled":false,"rental_uris":{"android":"levelo://app?vid=dfb1890d-a53d-42f7-a687-0bca1634d203","ios":"levelo://app?vid=dfb1890d-a53d-42f7-a687-0bca1634d203"},"vehicle_type_id":"4","last_reported":1742058442,"current_range_meters":6000,"station_id":"","pricing_plan_id":"cebpf4jnsgd1na2vs0mg"},{"bike_id":"fa7a9738-be18-4ef1-bc9f-3f5781b304a4","system_id":"levelo_inurba_marseille","lat":43.28268,"lon":5.35076,"is_reserved":false,"is_disabled":false,"rental_uris":{"android":"levelo://app?vid=fa7a9738-be18-4ef1-bc9f-3f5781b304a4","ios":"levelo://app?vid=fa7a9738-be18-4ef1-bc9f-3f5781b304a4"},"vehicle_type_id":"4","last_reported":1742058442,"current_range_meters":6000,"station_id":"ce4bhbp2rcd13ifvqerg","pricing_plan_id":"cebpf4jnsgd1na2vs0mg"},{"bike_id":"0fa9e351-2a4c-4e46-9ef1-1e57b445415b","system_id":"levelo_inurba_marseille","lat":43.28421,"lon":5.34984,"is_reserved":false,"is_disabled":false,"rental_uris":{"android":"levelo://app?vid=0fa9e351-2a4c-4e46-9ef1-1e57b445415b","ios":"levelo://app?vid=0fa9e351-2a4c-4e46-9ef1-1e57b445415b"},"vehicle_type_id":"4","last_reported":1742058442,"current_range_meters":6400,"station_id":"ce4bhbh2rcd13ifvqepg","pricing_plan_id":"cebpf4jnsgd1na2vs0mg"},{"bike_id":"f1df7ff3-531d-4d82-846d-0bc85f6c1097","system_id":"levelo_inurba_marseille","lat":43.28273,"lon":5.35071,"is_reserved":false,"is_disabled":false,"rental_uris":{"android":"levelo://app?vid=f1df7ff3-531d-4d82-846d-0bc85f6c1097","ios":"levelo://app?vid=f1df7ff3-531d-4d82-846d-0bc85f6c1097"},"vehicle_type_id":"4","last_reported":1742058442,"current_range_meters":6400,"station_id":"ce4bhbp2rcd13ifvqerg","pricing_plan_id":"cebpf4jnsgd1na2vs0mg"},{"bike_id":"4f6d25d7-a4b5-4c48-89c4-1d5355427c76","system_id":"levelo_inurba_marseille","lat":43.28608,"lon":5.37069,"is_reserved":false,"is_disabled":false,"rental_uris":{"android":"levelo://app?vid=4f6d25d7-a4b5-4c48-89c4-1d5355427c76","ios":"levelo://app?vid=4f6d25d7-a4b5-4c48-89c4-1d5355427c76"},"vehicle_type_id":"4","last_reported":1742058442,"current_range_meters":6400,"station_id":"ce4bht12rcd13ifvqi60","pricing_plan_id":"cebpf4jnsgd1na2vs0mg"},{"bike_id":"d62978b3-11e0-4e65-85bd-6a5216c824dc","system_id":"levelo_inurba_marseille","lat":43.2678,"lon":5.39418,"is_reserved":false,"is_disabled":false,"rental_uris":{"android":"levelo://app?vid=d62978b3-11e0-4e65-85bd-6a5216c824dc","ios":"levelo://app?vid=d62978b3-11e0-4e65-85bd-6a5216c824dc"},"vehicle_type_id":"4","last_reported":1742058442,"current_range_meters":6400,"station_id":"ce4bhh12rcd13ifvqfg0","pricing_plan_id":"cebpf4jnsgd1na2vs0mg"},{"bike_id":"eb506368-6a38-4add-bb4a-aef042f5f0b4","system_id":"levelo_inurba_marseille","lat":43.2306,"lon":5.35495,"is_reserved":false,"is_disabled":false,"rental_uris":{"android":"levelo://app?vid=eb506368-6a38-4add-bb4a-aef042f5f0b4","ios":"levelo://app?vid=eb506368-6a38-4add-bb4a-aef042f5f0b4"},"vehicle_type_id":"4","last_reported":1742058442,"current_range_meters":6400,"station_id":"cpo3342slgdg3j2ifvpg","pricing_plan_id":"cebpf4jnsgd1na2vs0mg"},{"bike_id":"c544ab48-8063-43e4-a015-5ca42369d07e","system_id":"levelo_inurba_marseille","lat":43.28947,"lon":5.36638,"is_reserved":false,"is_disabled":false,"rental_uris":{"android":"levelo://app?vid=c544ab48-8063-43e4-a015-5ca42369d07e","ios":"levelo://app?vid=c544ab48-8063-43e4-a015-5ca42369d07e"},"vehicle_type_id":"4","last_reported":1742058442,"current_range_meters":6400,"station_id":"ce4bhap2rcd13ifvqek0","pricing_plan_id":"cebpf4jnsgd1na2vs0mg"},{"bike_id":"87f51c37-5994-4a5e-ad2d-e1b3f11b3146","system_id":"levelo_inurba_marseille","lat":43.30881,"lon":5.37185,"is_reserved":false,"is_disabled":false,"rental_uris":{"android":"levelo://app?vid=87f51c37-5994-4a5e-ad2d-e1b3f11b3146","ios":"levelo://app?vid=87f51c37-5994-4a5e-ad2d-e1b3f11b3146"},"vehicle_type_id":"4","last_reported":1742058442,"current_range_meters":10000,"station_id":"ce4bguh2rcd13ifvqckg","pricing_plan_id":"cebpf4jnsgd1na2vs0mg"},{"bike_id":"f82a817d-15ca-41e3-bb6a-0895602b5c9a","system_id":"levelo_inurba_marseille","lat":43.29593,"lon":5.38099,"is_reserved":false,"is_disabled":false,"rental_uris":{"android":"levelo://app?vid=f82a817d-15ca-41e3-bb6a-0895602b5c9a","ios":"levelo://app?vid=f82a817d-15ca-41e3-bb6a-0895602b5c9a"},"vehicle_type_id":"4","last_reported":1742058442,"current_range_meters":6400,"station_id":"ce4bgl12rcd13ifvqbo0","pricing_plan_id":"cebpf4jnsgd1na2vs0mg"},{"bike_id":"36c7567d-bf94-4f07-b200-0dd9cc40b546","system_id":"levelo_inurba_marseille","lat":43.28416,"lon":5.34992,"is_reserved":false,"is_disabled":true,"rental_uris":{"android":"levelo://app?vid=36c7567d-bf94-4f07-b200-0dd9cc40b546","ios":"levelo://app?vid=36c7567d-bf94-4f07-b200-0dd9cc40b546"},"vehicle_type_id":"4","last_reported":1742058442,"current_range_meters":6800,"station_id":"ce4bhbh2rcd13ifvqepg","pricing_plan_id":"cebpf4jnsgd1na2vs0mg"},{"bike_id":"8c5db38c-3de7-4138-971c-0319c738c806","system_id":"levelo_inurba_marseille","lat":43.30298,"lon":5.36894,"is_reserved":false,"is_disabled":false,"rental_uris":{"android":"levelo://app?vid=8c5db38c-3de7-4138-971c-0319c738c806","ios":"levelo://app?vid=8c5db38c-3de7-4138-971c-0319c738c806"},"vehicle_type_id":"4","last_reported":1742058442,"current_range_meters":9200,"station_id":"ce4bgqh2rcd13ifvqc5g","pricing_plan_id":"cebpf4jnsgd1na2vs0mg"},{"bike_id":"c6b2e8e1-a9f2-4fdc-b2fb-e9795807d18f","system_id":"levelo_inurba_marseille","lat":43.28421,"lon":5.34995,"is_reserved":false,"is_disabled":false,"rental_uris":{"android":"levelo://app?vid=c6b2e8e1-a9f2-4fdc-b2fb-e9795807d18f","ios":"levelo://app?vid=c6b2e8e1-a9f2-4fdc-b2fb-e9795807d18f"},"vehicle_type_id":"4","last_reported":1742058442,"current_range_meters":6800,"station_id":"ce4bhbh2rcd13ifvqepg","pricing_plan_id":"cebpf4jnsgd1na2vs0mg"},{"bike_id":"71992e6c-865e-4807-b5f5-04dd10cf62d6","system_id":"levelo_inurba_marseille","lat":43.28613,"lon":5.35102,"is_reserved":false,"is_disabled":false,"rental_uris":{"android":"levelo://app?vid=71992e6c-865e-4807-b5f5-04dd10cf62d6","ios":"levelo://app?vid=71992e6c-865e-4807-b5f5-04dd10cf62d6"},"vehicle_type_id":"4","last_reported":1742058442,"current_range_meters":6800,"station_id":"ce4bhch2rcd13ifvqeug","pricing_plan_id":"cebpf4jnsgd1na2vs0mg"},{"bike_id":"5d33da3d-3c35-421a-b061-9513130102fe","system_id":"levelo_inurba_marseille","lat":43.28441,"lon":5.39203,"is_reserved":false,"is_disabled":false,"rental_uris":{"android":"levelo://app?vid=5d33da3d-3c35-421a-b061-9513130102fe","ios":"levelo://app?vid=5d33da3d-3c35-421a-b061-9513130102fe"},"vehicle_type_id":"4","last_reported":1742058442,"current_range_meters":6800,"station_id":"ce4bhoh2rcd13ifvqh5g","pricing_plan_id":"cebpf4jnsgd1na2vs0mg"},{"bike_id":"1fa28d04-be9d-481a-9faf-149e441570d2","system_id":"levelo_inurba_marseille","lat":43.29516,"lon":5.3904,"is_reserved":false,"is_disabled":false,"rental_uris":{"android":"levelo://app?vid=1fa28d04-be9d-481a-9faf-149e441570d2","ios":"levelo://app?vid=1fa28d04-be9d-481a-9faf-149e441570d2"},"vehicle_type_id":"4","last_reported":1742058442,"current_range_meters":6800,"station_id":"ce4bh3p2rcd13ifvqdp0","pricing_plan_id":"cebpf4jnsgd1na2vs0mg"},{"bike_id":"a8e67676-89ba-43e0-82dc-5ef4b0a5e328","system_id":"levelo_inurba_marseille","lat":43.31624,"lon":5.38636,"is_reserved":false,"is_disabled":false,"rental_uris":{"android":"levelo://app?vid=a8e67676-89ba-43e0-82dc-5ef4b0a5e328","ios":"levelo://app?vid=a8e67676-89ba-43e0-82dc-5ef4b0a5e328"},"vehicle_type_id":"4","last_reported":1742058442,"current_range_meters":6800,"station_id":"","pricing_plan_id":"cebpf4jnsgd1na2vs0mg"},{"bike_id":"b0709da0-3c86-4780-b61d-85667e937cc9","system_id":"levelo_inurba_marseille","lat":43.28412,"lon":5.34985,"is_reserved":false,"is_disabled":false,"rental_uris":{"android":"levelo://app?vid=b0709da0-3c86-4780-b61d-85667e937cc9","ios":"levelo://app?vid=b0709da0-3c86-4780-b61d-85667e937cc9"},"vehicle_type_id":"4","last_reported":1742058442,"current_range_meters":6800,"station_id":"ce4bhbh2rcd13ifvqepg","pricing_plan_id":"cebpf4jnsgd1na2vs0mg"},{"bike_id":"f27f7bed-ccbc-490c-8d5e-7eff3c7f12c0","system_id":"levelo_inurba_marseille","lat":43.29011,"lon":5.35608,"is_reserved":false,"is_disabled":false,"rental_uris":{"android":"levelo://app?vid=f27f7bed-ccbc-490c-8d5e-7eff3c7f12c0","ios":"levelo://app?vid=f27f7bed-ccbc-490c-8d5e-7eff3c7f12c0"},"vehicle_type_id":"4","last_reported":1742058442,"current_range_meters":6800,"station_id":"ce4bhb92rcd13ifvqen0","pricing_plan_id":"cebpf4jnsgd1na2vs0mg"},{"bike_id":"3632362f-b9b0-468b-918a-66ceca772a7a","system_id":"levelo_inurba_marseille","lat":43.28412,"lon":5.37518,"is_reserved":false,"is_disabled":false,"rental_uris":{"android":"levelo://app?vid=3632362f-b9b0-468b-918a-66ceca772a7a","ios":"levelo://app?vid=3632362f-b9b0-468b-918a-66ceca772a7a"},"vehicle_type_id":"4","last_reported":1742058442,"current_range_meters":6800,"station_id":"ce4bh412rcd13ifvqds0","pricing_plan_id":"cebpf4jnsgd1na2vs0mg"},{"bike_id":"77f0430f-3350-4963-ac6b-e35c49a943e2","system_id":"levelo_inurba_marseille","lat":43.31677,"lon":5.39578,"is_reserved":false,"is_disabled":false,"rental_uris":{"android":"levelo://app?vid=77f0430f-3350-4963-ac6b-e35c49a943e2","ios":"levelo://app?vid=77f0430f-3350-4963-ac6b-e35c49a943e2"},"vehicle_type_id":"4","last_reported":1742058442,"current_range_meters":6800,"station_id":"","pricing_plan_id":"cebpf4jnsgd1na2vs0mg"},{"bike_id":"2003e689-e7ed-4eb8-b25b-72721c8773a0","system_id":"levelo_inurba_marseille","lat":43.28415,"lon":5.34986,"is_reserved":false,"is_disabled":false,"rental_uris":{"android":"levelo://app?vid=2003e689-e7ed-4eb8-b25b-72721c8773a0","ios":"levelo://app?vid=2003e689-e7ed-4eb8-b25b-72721c8773a0"},"vehicle_type_id":"4","last_reported":1742058442,"current_range_meters":6800,"station_id":"ce4bhbh2rcd13ifvqepg","pricing_plan_id":"cebpf4jnsgd1na2vs0mg"},{"bike_id":"48f968e9-2670-450c-9a50-b12a7ac1907f","system_id":"levelo_inurba_marseille","lat":43.2572,"lon":5.41119,"is_reserved":false,"is_disabled":false,"rental_uris":{"android":"levelo://app?vid=48f968e9-2670-450c-9a50-b12a7ac1907f","ios":"levelo://app?vid=48f968e9-2670-450c-9a50-b12a7ac1907f"},"vehicle_type_id":"4","last_reported":1742058442,"current_range_meters":7200,"station_id":"ce4bhkp2rcd13ifvqgd0","pricing_plan_id":"cebpf4jnsgd1na2vs0mg"},{"bike_id":"6d81a689-fb58-4e70-b54b-a64361066815","system_id":"levelo_inurba_marseille","lat":43.3361,"lon":5.41033,"is_reserved":false,"is_disabled":false,"rental_uris":{"android":"levelo://app?vid=6d81a689-fb58-4e70-b54b-a64361066815","ios":"levelo://app?vid=6d81a689-fb58-4e70-b54b-a64361066815"},"vehicle_type_id":"4","last_reported":1742058442,"current_range_meters":7200,"station_id":"ce4bhqh2rcd13ifvqhmg","pricing_plan_id":"cebpf4jnsgd1na2vs0mg"},{"bike_id":"7ae44656-f812-434d-a651-4e309897fba3","system_id":"levelo_inurba_marseille","lat":43.28455,"lon":5.35891,"is_reserved":false,"is_disabled":false,"rental_uris":{"android":"levelo://app?vid=7ae44656-f812-434d-a651-4e309897fba3","ios":"levelo://app?vid=7ae44656-f812-434d-a651-4e309897fba3"},"vehicle_type_id":"4","last_reported":1742058442,"current_range_meters":6400,"station_id":"ce4bhah2rcd13ifvqei0","pricing_plan_id":"cebpf4jnsgd1na2vs0mg"},{"bike_id":"355fb77e-22da-4ed4-bab8-f395a5c5d15a","system_id":"levelo_inurba_marseille","lat":43.24657,"lon":5.38169,"is_reserved":false,"is_disabled":false,"rental_uris":{"android":"levelo://app?vid=355fb77e-22da-4ed4-bab8-f395a5c5d15a","ios":"levelo://app?vid=355fb77e-22da-4ed4-bab8-f395a5c5d15a"},"vehicle_type_id":"4","last_reported":1742058442,"current_range_meters":7200,"station_id":"ce4bhih2rcd13ifvqfr0","pricing_plan_id":"cebpf4jnsgd1na2vs0mg"},{"bike_id":"bd7fb638-a561-41df-90ca-f32685780427","system_id":"levelo_inurba_marseille","lat":43.22926,"lon":5.35376,"is_reserved":false,"is_disabled":false,"rental_uris":{"android":"levelo://app?vid=bd7fb638-a561-41df-90ca-f32685780427","ios":"levelo://app?vid=bd7fb638-a561-41df-90ca-f32685780427"},"vehicle_type_id":"4","last_reported":1742058442,"current_range_meters":7200,"station_id":"cpo3532slgdg3j2ikp40","pricing_plan_id":"cebpf4jnsgd1na2vs0mg"},{"bike_id":"0effbbb8-a931-404a-a47c-69bda0c677cc","system_id":"levelo_inurba_marseille","lat":43.22932,"lon":5.35385,"is_reserved":false,"is_disabled":false,"rental_uris":{"android":"levelo://app?vid=0effbbb8-a931-404a-a47c-69bda0c677cc","ios":"levelo://app?vid=0effbbb8-a931-404a-a47c-69bda0c677cc"},"vehicle_type_id":"4","last_reported":1742058442,"current_range_meters":7200,"station_id":"cpo3532slgdg3j2ikp40","pricing_plan_id":"cebpf4jnsgd1na2vs0mg"},{"bike_id":"10bfbf93-f469-4c3a-81e0-401668958ed6","system_id":"levelo_inurba_marseille","lat":43.28426,"lon":5.3499,"is_reserved":false,"is_disabled":false,"rental_uris":{"android":"levelo://app?vid=10bfbf93-f469-4c3a-81e0-401668958ed6","ios":"levelo://app?vid=10bfbf93-f469-4c3a-81e0-401668958ed6"},"vehicle_type_id":"4","last_reported":1742058442,"current_range_meters":7200,"station_id":"ce4bhbh2rcd13ifvqepg","pricing_plan_id":"cebpf4jnsgd1na2vs0mg"},{"bike_id":"10a414df-4d82-4277-b491-60aab706c4c1","system_id":"levelo_inurba_marseille","lat":43.2841,"lon":5.37506,"is_reserved":false,"is_disabled":false,"rental_uris":{"android":"levelo://app?vid=10a414df-4d82-4277-b491-60aab706c4c1","ios":"levelo://app?vid=10a414df-4d82-4277-b491-60aab706c4c1"},"vehicle_type_id":"4","last_reported":1742058442,"current_range_meters":7200,"station_id":"ce4bh412rcd13ifvqds0","pricing_plan_id":"cebpf4jnsgd1na2vs0mg"},{"bike_id":"9d2306e0-bfc3-44be-884f-5fa117ff598c","system_id":"levelo_inurba_marseille","lat":43.29961,"lon":5.38498,"is_reserved":false,"is_disabled":false,"rental_uris":{"android":"levelo://app?vid=9d2306e0-bfc3-44be-884f-5fa117ff598c","ios":"levelo://app?vid=9d2306e0-bfc3-44be-884f-5fa117ff598c"},"vehicle_type_id":"4","last_reported":1742058442,"current_range_meters":7200,"station_id":"ce4bgj92rcd13ifvqbd0","pricing_plan_id":"cebpf4jnsgd1na2vs0mg"},{"bike_id":"2ec0f046-4e68-4150-a618-5c892d6b2cb5","system_id":"levelo_inurba_marseille","lat":43.26258,"lon":5.40469,"is_reserved":false,"is_disabled":false,"rental_uris":{"android":"levelo://app?vid=2ec0f046-4e68-4150-a618-5c892d6b2cb5","ios":"levelo://app?vid=2ec0f046-4e68-4150-a618-5c892d6b2cb5"},"vehicle_type_id":"4","last_reported":1742058442,"current_range_meters":7200,"station_id":"ce4bhmh2rcd13ifvqgmg","pricing_plan_id":"cebpf4jnsgd1na2vs0mg"},{"bike_id":"a75b9f2f-f1c1-4b6d-ac8f-577368a4e69b","system_id":"levelo_inurba_marseille","lat":43.26951,"lon":5.40258,"is_reserved":false,"is_disabled":false,"rental_uris":{"android":"levelo://app?vid=a75b9f2f-f1c1-4b6d-ac8f-577368a4e69b","ios":"levelo://app?vid=a75b9f2f-f1c1-4b6d-ac8f-577368a4e69b"},"vehicle_type_id":"4","last_reported":1742058442,"current_range_meters":8000,"station_id":"cjm6bp8fraef2m0cb0m0","pricing_plan_id":"cebpf4jnsgd1na2vs0mg"},{"bike_id":"055d982b-e75d-4dcd-aa9e-9d6b3761a2c4","system_id":"levelo_inurba_marseille","lat":43.28611,"lon":5.35104,"is_reserved":false,"is_disabled":false,"rental_uris":{"android":"levelo://app?vid=055d982b-e75d-4dcd-aa9e-9d6b3761a2c4","ios":"levelo://app?vid=055d982b-e75d-4dcd-aa9e-9d6b3761a2c4"},"vehicle_type_id":"4","last_reported":1742058442,"current_range_meters":8000,"station_id":"ce4bhch2rcd13ifvqeug","pricing_plan_id":"cebpf4jnsgd1na2vs0mg"},{"bike_id":"8fd7e18a-0b1a-4599-a29d-ee13911f026a","system_id":"levelo_inurba_marseille","lat":43.29534,"lon":5.39037,"is_reserved":false,"is_disabled":false,"rental_uris":{"android":"levelo://app?vid=8fd7e18a-0b1a-4599-a29d-ee13911f026a","ios":"levelo://app?vid=8fd7e18a-0b1a-4599-a29d-ee13911f026a"},"vehicle_type_id":"4","last_reported":1742058442,"current_range_meters":8000,"station_id":"ce4bh3p2rcd13ifvqdp0","pricing_plan_id":"cebpf4jnsgd1na2vs0mg"},{"bike_id":"8a5bd971-61c1-4475-933b-dffdb284dd01","system_id":"levelo_inurba_marseille","lat":43.25011,"lon":5.38909,"is_reserved":false,"is_disabled":false,"rental_uris":{"android":"levelo://app?vid=8a5bd971-61c1-4475-933b-dffdb284dd01","ios":"levelo://app?vid=8a5bd971-61c1-4475-933b-dffdb284dd01"},"vehicle_type_id":"4","last_reported":1742058442,"current_range_meters":8000,"station_id":"ce4bhgp2rcd13ifvqfd0","pricing_plan_id":"cebpf4jnsgd1na2vs0mg"},{"bike_id":"8809eb55-046b-4660-8a17-d613f64245dd","system_id":"levelo_inurba_marseille","lat":43.25504,"lon":5.37653,"is_reserved":false,"is_disabled":false,"rental_uris":{"android":"levelo://app?vid=8809eb55-046b-4660-8a17-d613f64245dd","ios":"levelo://app?vid=8809eb55-046b-4660-8a17-d613f64245dd"},"vehicle_type_id":"4","last_reported":1742058442,"current_range_meters":8000,"station_id":"ce4bhh12rcd13ifvqff0","pricing_plan_id":"cebpf4jnsgd1na2vs0mg"},{"bike_id":"4c3dc07d-7687-4e47-b93a-f012de394697","system_id":"levelo_inurba_marseille","lat":43.2842,"lon":5.34972,"is_reserved":false,"is_disabled":false,"rental_uris":{"android":"levelo://app?vid=4c3dc07d-7687-4e47-b93a-f012de394697","ios":"levelo://app?vid=4c3dc07d-7687-4e47-b93a-f012de394697"},"vehicle_type_id":"4","last_reported":1742058442,"current_range_meters":8000,"station_id":"ce4bhbh2rcd13ifvqepg","pricing_plan_id":"cebpf4jnsgd1na2vs0mg"},{"bike_id":"107aed4f-f7ed-4354-9b47-6f3496f5483f","system_id":"levelo_inurba_marseille","lat":43.29976,"lon":5.38495,"is_reserved":false,"is_disabled":false,"rental_uris":{"android":"levelo://app?vid=107aed4f-f7ed-4354-9b47-6f3496f5483f","ios":"levelo://app?vid=107aed4f-f7ed-4354-9b47-6f3496f5483f"},"vehicle_type_id":"4","last_reported":1742058442,"current_range_meters":12000,"station_id":"ce4bgj92rcd13ifvqbd0","pricing_plan_id":"cebpf4jnsgd1na2vs0mg"},{"bike_id":"3e0a6c57-bdbc-46fa-9995-29fd6f97f372","system_id":"levelo_inurba_marseille","lat":43.27212,"lon":5.39174,"is_reserved":false,"is_disabled":false,"rental_uris":{"android":"levelo://app?vid=3e0a6c57-bdbc-46fa-9995-29fd6f97f372","ios":"levelo://app?vid=3e0a6c57-bdbc-46fa-9995-29fd6f97f372"},"vehicle_type_id":"4","last_reported":1742058442,"current_range_meters":8000,"station_id":"ce4bhhp2rcd13ifvqfm0","pricing_plan_id":"cebpf4jnsgd1na2vs0mg"},{"bike_id":"2cdf3b18-0a82-4018-b15a-9fa6067e63d4","system_id":"levelo_inurba_marseille","lat":43.28953,"lon":5.36634,"is_reserved":false,"is_disabled":false,"rental_uris":{"android":"levelo://app?vid=2cdf3b18-0a82-4018-b15a-9fa6067e63d4","ios":"levelo://app?vid=2cdf3b18-0a82-4018-b15a-9fa6067e63d4"},"vehicle_type_id":"4","last_reported":1742058442,"current_range_meters":8400,"station_id":"ce4bhap2rcd13ifvqek0","pricing_plan_id":"cebpf4jnsgd1na2vs0mg"},{"bike_id":"37942a64-5690-4f2a-97c0-8013da62f34f","system_id":"levelo_inurba_marseille","lat":43.29028,"lon":5.38644,"is_reserved":false,"is_disabled":false,"rental_uris":{"android":"levelo://app?vid=37942a64-5690-4f2a-97c0-8013da62f34f","ios":"levelo://app?vid=37942a64-5690-4f2a-97c0-8013da62f34f"},"vehicle_type_id":"4","last_reported":1742058442,"current_range_meters":8400,"station_id":"ce4bh4p2rcd13ifvqe0g","pricing_plan_id":"cebpf4jnsgd1na2vs0mg"},{"bike_id":"14672f34-519d-4b00-bfd5-d6ee5ef72e99","system_id":"levelo_inurba_marseille","lat":43.24811,"lon":5.37459,"is_reserved":false,"is_disabled":false,"rental_uris":{"android":"levelo://app?vid=14672f34-519d-4b00-bfd5-d6ee5ef72e99","ios":"levelo://app?vid=14672f34-519d-4b00-bfd5-d6ee5ef72e99"},"vehicle_type_id":"4","last_reported":1742058442,"current_range_meters":8400,"station_id":"ce4bhgh2rcd13ifvqfb0","pricing_plan_id":"cebpf4jnsgd1na2vs0mg"},{"bike_id":"133bfb5b-0995-4b15-ab04-2feedaf851dc","system_id":"levelo_inurba_marseille","lat":43.28403,"lon":5.34991,"is_reserved":false,"is_disabled":false,"rental_uris":{"android":"levelo://app?vid=133bfb5b-0995-4b15-ab04-2feedaf851dc","ios":"levelo://app?vid=133bfb5b-0995-4b15-ab04-2feedaf851dc"},"vehicle_type_id":"4","last_reported":1742058442,"current_range_meters":8400,"station_id":"ce4bhbh2rcd13ifvqepg","pricing_plan_id":"cebpf4jnsgd1na2vs0mg"},{"bike_id":"36d00f46-dc04-41ad-9465-71811615c349","system_id":"levelo_inurba_marseille","lat":43.26496,"lon":5.39542,"is_reserved":false,"is_disabled":false,"rental_uris":{"android":"levelo://app?vid=36d00f46-dc04-41ad-9465-71811615c349","ios":"levelo://app?vid=36d00f46-dc04-41ad-9465-71811615c349"},"vehicle_type_id":"4","last_reported":1742058442,"current_range_meters":8400,"station_id":"ce4bhi12rcd13ifvqfq0","pricing_plan_id":"cebpf4jnsgd1na2vs0mg"},{"bike_id":"74d04e7e-29ca-4cf3-b82a-9775acfeb45e","system_id":"levelo_inurba_marseille","lat":43.29032,"lon":5.38628,"is_reserved":false,"is_disabled":false,"rental_uris":{"android":"levelo://app?vid=74d04e7e-29ca-4cf3-b82a-9775acfeb45e","ios":"levelo://app?vid=74d04e7e-29ca-4cf3-b82a-9775acfeb45e"},"vehicle_type_id":"4","last_reported":1742058442,"current_range_meters":8400,"station_id":"ce4bh4p2rcd13ifvqe0g","pricing_plan_id":"cebpf4jnsgd1na2vs0mg"},{"bike_id":"830c39e2-a7a7-4477-b1c6-9ee80558d0b2","system_id":"levelo_inurba_marseille","lat":43.284223,"lon":5.349777,"is_reserved":false,"is_disabled":false,"rental_uris":{"android":"levelo://app?vid=830c39e2-a7a7-4477-b1c6-9ee80558d0b2","ios":"levelo://app?vid=830c39e2-a7a7-4477-b1c6-9ee80558d0b2"},"vehicle_type_id":"4","last_reported":1742058442,"current_range_meters":8400,"station_id":"ce4bhbh2rcd13ifvqepg","pricing_plan_id":"cebpf4jnsgd1na2vs0mg"},{"bike_id":"1ee71dce-d48d-4af5-99c2-09ee17edd7a0","system_id":"levelo_inurba_marseille","lat":43.24674,"lon":5.38148,"is_reserved":false,"is_disabled":false,"rental_uris":{"android":"levelo://app?vid=1ee71dce-d48d-4af5-99c2-09ee17edd7a0","ios":"levelo://app?vid=1ee71dce-d48d-4af5-99c2-09ee17edd7a0"},"vehicle_type_id":"4","last_reported":1742058442,"current_range_meters":8800,"station_id":"ce4bhih2rcd13ifvqfr0","pricing_plan_id":"cebpf4jnsgd1na2vs0mg"},{"bike_id":"a51e83ee-53b4-4965-b5bb-694ae883e860","system_id":"levelo_inurba_marseille","lat":43.26212,"lon":5.3744,"is_reserved":false,"is_disabled":true,"rental_uris":{"android":"levelo://app?vid=a51e83ee-53b4-4965-b5bb-694ae883e860","ios":"levelo://app?vid=a51e83ee-53b4-4965-b5bb-694ae883e860"},"vehicle_type_id":"4","last_reported":1742058442,"current_range_meters":8800,"station_id":"ce4bhgp2rcd13ifvqfc0","pricing_plan_id":"cebpf4jnsgd1na2vs0mg"},{"bike_id":"9fd8a695-1141-48a7-a275-ae03aade4f9e","system_id":"levelo_inurba_marseille","lat":43.24543,"lon":5.39534,"is_reserved":false,"is_disabled":false,"rental_uris":{"android":"levelo://app?vid=9fd8a695-1141-48a7-a275-ae03aade4f9e","ios":"levelo://app?vid=9fd8a695-1141-48a7-a275-ae03aade4f9e"},"vehicle_type_id":"4","last_reported":1742058442,"current_range_meters":8800,"station_id":"ce4bhlp2rcd13ifvqgjg","pricing_plan_id":"cebpf4jnsgd1na2vs0mg"},{"bike_id":"60ed18f4-38a1-4e82-bfad-bfda71f2f7d2","system_id":"levelo_inurba_marseille","lat":43.28414,"lon":5.34986,"is_reserved":false,"is_disabled":false,"rental_uris":{"android":"levelo://app?vid=60ed18f4-38a1-4e82-bfad-bfda71f2f7d2","ios":"levelo://app?vid=60ed18f4-38a1-4e82-bfad-bfda71f2f7d2"},"vehicle_type_id":"4","last_reported":1742058442,"current_range_meters":8800,"station_id":"ce4bhbh2rcd13ifvqepg","pricing_plan_id":"cebpf4jnsgd1na2vs0mg"},{"bike_id":"05c70a7a-86e2-4ec8-a1d1-c1288539ed36","system_id":"levelo_inurba_marseille","lat":43.26569,"lon":5.39014,"is_reserved":false,"is_disabled":false,"rental_uris":{"android":"levelo://app?vid=05c70a7a-86e2-4ec8-a1d1-c1288539ed36","ios":"levelo://app?vid=05c70a7a-86e2-4ec8-a1d1-c1288539ed36"},"vehicle_type_id":"4","last_reported":1742058442,"current_range_meters":8800,"station_id":"ce4bhe12rcd13ifvqf30","pricing_plan_id":"cebpf4jnsgd1na2vs0mg"},{"bike_id":"475c0f74-307b-4ff2-8628-75b2cb45ef31","system_id":"levelo_inurba_marseille","lat":43.29787,"lon":5.38105,"is_reserved":false,"is_disabled":false,"rental_uris":{"android":"levelo://app?vid=475c0f74-307b-4ff2-8628-75b2cb45ef31","ios":"levelo://app?vid=475c0f74-307b-4ff2-8628-75b2cb45ef31"},"vehicle_type_id":"4","last_reported":1742058442,"current_range_meters":8800,"station_id":"ce4bgip2rcd13ifvqbb0","pricing_plan_id":"cebpf4jnsgd1na2vs0mg"},{"bike_id":"11877a08-1209-410f-8a57-ef814c57a390","system_id":"levelo_inurba_marseille","lat":43.24168,"lon":5.36399,"is_reserved":false,"is_disabled":false,"rental_uris":{"android":"levelo://app?vid=11877a08-1209-410f-8a57-ef814c57a390","ios":"levelo://app?vid=11877a08-1209-410f-8a57-ef814c57a390"},"vehicle_type_id":"4","last_reported":1742058442,"current_range_meters":8800,"station_id":"cpo36qri1sfpv3e86is0","pricing_plan_id":"cebpf4jnsgd1na2vs0mg"},{"bike_id":"99388530-3199-4a9b-85e9-15b56e29535b","system_id":"levelo_inurba_marseille","lat":43.31293,"lon":5.37323,"is_reserved":false,"is_disabled":false,"rental_uris":{"android":"levelo://app?vid=99388530-3199-4a9b-85e9-15b56e29535b","ios":"levelo://app?vid=99388530-3199-4a9b-85e9-15b56e29535b"},"vehicle_type_id":"4","last_reported":1742058442,"current_range_meters":8800,"station_id":"","pricing_plan_id":"cebpf4jnsgd1na2vs0mg"},{"bike_id":"2e54f6eb-ed96-442d-83ae-aacdcc6473fc","system_id":"levelo_inurba_marseille","lat":43.31283,"lon":5.36931,"is_reserved":false,"is_disabled":false,"rental_uris":{"android":"levelo://app?vid=2e54f6eb-ed96-442d-83ae-aacdcc6473fc","ios":"levelo://app?vid=2e54f6eb-ed96-442d-83ae-aacdcc6473fc"},"vehicle_type_id":"4","last_reported":1742058442,"current_range_meters":8800,"station_id":"","pricing_plan_id":"cebpf4jnsgd1na2vs0mg"},{"bike_id":"9c52b70e-7bc6-447a-aa97-e083572f44c9","system_id":"levelo_inurba_marseille","lat":43.29531,"lon":5.39042,"is_reserved":false,"is_disabled":false,"rental_uris":{"android":"levelo://app?vid=9c52b70e-7bc6-447a-aa97-e083572f44c9","ios":"levelo://app?vid=9c52b70e-7bc6-447a-aa97-e083572f44c9"},"vehicle_type_id":"4","last_reported":1742058442,"current_range_meters":8800,"station_id":"ce4bh3p2rcd13ifvqdp0","pricing_plan_id":"cebpf4jnsgd1na2vs0mg"},{"bike_id":"c3665c86-728b-49e2-a2a2-a1df23e9fd1a","system_id":"levelo_inurba_marseille","lat":43.28721,"lon":5.37931,"is_reserved":false,"is_disabled":false,"rental_uris":{"android":"levelo://app?vid=c3665c86-728b-49e2-a2a2-a1df23e9fd1a","ios":"levelo://app?vid=c3665c86-728b-49e2-a2a2-a1df23e9fd1a"},"vehicle_type_id":"4","last_reported":1742058442,"current_range_meters":8800,"station_id":"ce4bh9p2rcd13ifvqec0","pricing_plan_id":"cebpf4jnsgd1na2vs0mg"},{"bike_id":"385ae15c-2c3c-4490-a507-5eb20fb883a5","system_id":"levelo_inurba_marseille","lat":43.25945,"lon":5.40891,"is_reserved":false,"is_disabled":false,"rental_uris":{"android":"levelo://app?vid=385ae15c-2c3c-4490-a507-5eb20fb883a5","ios":"levelo://app?vid=385ae15c-2c3c-4490-a507-5eb20fb883a5"},"vehicle_type_id":"4","last_reported":1742058442,"current_range_meters":8800,"station_id":"ce4bhm92rcd13ifvqglg","pricing_plan_id":"cebpf4jnsgd1na2vs0mg"},{"bike_id":"1ac0ebad-6828-4242-99b2-14a9f8209f79","system_id":"levelo_inurba_marseille","lat":43.23188,"lon":5.35559,"is_reserved":false,"is_disabled":false,"rental_uris":{"android":"levelo://app?vid=1ac0ebad-6828-4242-99b2-14a9f8209f79","ios":"levelo://app?vid=1ac0ebad-6828-4242-99b2-14a9f8209f79"},"vehicle_type_id":"4","last_reported":1742058442,"current_range_meters":9200,"station_id":"ce4bhu92rcd13ifvqi70","pricing_plan_id":"cebpf4jnsgd1na2vs0mg"},{"bike_id":"676e66c6-8e50-404c-b512-5f94c7d6a8fc","system_id":"levelo_inurba_marseille","lat":43.2417,"lon":5.36419,"is_reserved":false,"is_disabled":false,"rental_uris":{"android":"levelo://app?vid=676e66c6-8e50-404c-b512-5f94c7d6a8fc","ios":"levelo://app?vid=676e66c6-8e50-404c-b512-5f94c7d6a8fc"},"vehicle_type_id":"4","last_reported":1742058442,"current_range_meters":9200,"station_id":"cpo36qri1sfpv3e86is0","pricing_plan_id":"cebpf4jnsgd1na2vs0mg"},{"bike_id":"aa795381-5174-4265-abe3-ddbff84516c8","system_id":"levelo_inurba_marseille","lat":43.30126,"lon":5.37395,"is_reserved":false,"is_disabled":true,"rental_uris":{"android":"levelo://app?vid=aa795381-5174-4265-abe3-ddbff84516c8","ios":"levelo://app?vid=aa795381-5174-4265-abe3-ddbff84516c8"},"vehicle_type_id":"4","last_reported":1742058442,"current_range_meters":9200,"station_id":"ce4bgs92rcd13ifvqcc0","pricing_plan_id":"cebpf4jnsgd1na2vs0mg"},{"bike_id":"9d9e0dd9-85af-4d6c-8bb7-5c82861546fd","system_id":"levelo_inurba_marseille","lat":43.320462,"lon":5.415286,"is_reserved":false,"is_disabled":false,"rental_uris":{"android":"levelo://app?vid=9d9e0dd9-85af-4d6c-8bb7-5c82861546fd","ios":"levelo://app?vid=9d9e0dd9-85af-4d6c-8bb7-5c82861546fd"},"vehicle_type_id":"4","last_reported":1742058442,"current_range_meters":9200,"station_id":"ce4bhq92rcd13ifvqhkg","pricing_plan_id":"cebpf4jnsgd1na2vs0mg"},{"bike_id":"2ada218c-4e3e-433b-a33e-91e0fed6090b","system_id":"levelo_inurba_marseille","lat":43.29394,"lon":5.39771,"is_reserved":false,"is_disabled":true,"rental_uris":{"android":"levelo://app?vid=2ada218c-4e3e-433b-a33e-91e0fed6090b","ios":"levelo://app?vid=2ada218c-4e3e-433b-a33e-91e0fed6090b"},"vehicle_type_id":"4","last_reported":1742058442,"current_range_meters":9200,"station_id":"ce4bh3h2rcd13ifvqdo0","pricing_plan_id":"cebpf4jnsgd1na2vs0mg"},{"bike_id":"b7253de2-9c2e-4eb9-8c2e-195471b78130","system_id":"levelo_inurba_marseille","lat":43.27369,"lon":5.3624,"is_reserved":false,"is_disabled":false,"rental_uris":{"android":"levelo://app?vid=b7253de2-9c2e-4eb9-8c2e-195471b78130","ios":"levelo://app?vid=b7253de2-9c2e-4eb9-8c2e-195471b78130"},"vehicle_type_id":"4","last_reported":1742058442,"current_range_meters":9200,"station_id":"ce4bhbh2rcd13ifvqeo0","pricing_plan_id":"cebpf4jnsgd1na2vs0mg"},{"bike_id":"1999cecf-f38c-4961-9580-ef6a50d3e0be","system_id":"levelo_inurba_marseille","lat":43.24166,"lon":5.36404,"is_reserved":false,"is_disabled":false,"rental_uris":{"android":"levelo://app?vid=1999cecf-f38c-4961-9580-ef6a50d3e0be","ios":"levelo://app?vid=1999cecf-f38c-4961-9580-ef6a50d3e0be"},"vehicle_type_id":"4","last_reported":1742058442,"current_range_meters":9200,"station_id":"cpo36qri1sfpv3e86is0","pricing_plan_id":"cebpf4jnsgd1na2vs0mg"},{"bike_id":"12419dfd-d72f-4714-b574-55f7832189e9","system_id":"levelo_inurba_marseille","lat":43.23057,"lon":5.35494,"is_reserved":false,"is_disabled":false,"rental_uris":{"android":"levelo://app?vid=12419dfd-d72f-4714-b574-55f7832189e9","ios":"levelo://app?vid=12419dfd-d72f-4714-b574-55f7832189e9"},"vehicle_type_id":"4","last_reported":1742058442,"current_range_meters":9200,"station_id":"cpo3342slgdg3j2ifvpg","pricing_plan_id":"cebpf4jnsgd1na2vs0mg"},{"bike_id":"92bd2e8f-197b-47ad-8530-ee4394b2ecce","system_id":"levelo_inurba_marseille","lat":43.24168,"lon":5.36437,"is_reserved":false,"is_disabled":false,"rental_uris":{"android":"levelo://app?vid=92bd2e8f-197b-47ad-8530-ee4394b2ecce","ios":"levelo://app?vid=92bd2e8f-197b-47ad-8530-ee4394b2ecce"},"vehicle_type_id":"4","last_reported":1742058442,"current_range_meters":9200,"station_id":"cpo36qri1sfpv3e86is0","pricing_plan_id":"cebpf4jnsgd1na2vs0mg"},{"bike_id":"34b41436-20a2-4524-9e2f-27bd05d93b21","system_id":"levelo_inurba_marseille","lat":43.31685,"lon":5.40471,"is_reserved":false,"is_disabled":false,"rental_uris":{"android":"levelo://app?vid=34b41436-20a2-4524-9e2f-27bd05d93b21","ios":"levelo://app?vid=34b41436-20a2-4524-9e2f-27bd05d93b21"},"vehicle_type_id":"4","last_reported":1742058442,"current_range_meters":9200,"station_id":"ce4bh012rcd13ifvqd00","pricing_plan_id":"cebpf4jnsgd1na2vs0mg"},{"bike_id":"85d10f39-4b49-477c-b6e3-e96eb6cda2fc","system_id":"levelo_inurba_marseille","lat":43.27621,"lon":5.36107,"is_reserved":false,"is_disabled":false,"rental_uris":{"android":"levelo://app?vid=85d10f39-4b49-477c-b6e3-e96eb6cda2fc","ios":"levelo://app?vid=85d10f39-4b49-477c-b6e3-e96eb6cda2fc"},"vehicle_type_id":"4","last_reported":1742058442,"current_range_meters":9600,"station_id":"ce4bgj92rcd13ifvqbe0","pricing_plan_id":"cebpf4jnsgd1na2vs0mg"},{"bike_id":"e3b51c02-b06e-4aa7-b2a3-d3ce863c4d03","system_id":"levelo_inurba_marseille","lat":43.29874,"lon":5.39722,"is_reserved":false,"is_disabled":false,"rental_uris":{"android":"levelo://app?vid=e3b51c02-b06e-4aa7-b2a3-d3ce863c4d03","ios":"levelo://app?vid=e3b51c02-b06e-4aa7-b2a3-d3ce863c4d03"},"vehicle_type_id":"4","last_reported":1742058442,"current_range_meters":9600,"station_id":"ce4bh0h2rcd13ifvqd50","pricing_plan_id":"cebpf4jnsgd1na2vs0mg"},{"bike_id":"f6f1ceb5-e64c-4ffc-a4b4-a3ac61cde8e9","system_id":"levelo_inurba_marseille","lat":43.31323,"lon":5.39698,"is_reserved":false,"is_disabled":false,"rental_uris":{"android":"levelo://app?vid=f6f1ceb5-e64c-4ffc-a4b4-a3ac61cde8e9","ios":"levelo://app?vid=f6f1ceb5-e64c-4ffc-a4b4-a3ac61cde8e9"},"vehicle_type_id":"4","last_reported":1742058442,"current_range_meters":6800,"station_id":"ce4bgvp2rcd13ifvqcu0","pricing_plan_id":"cebpf4jnsgd1na2vs0mg"},{"bike_id":"1c944097-c351-4c77-acee-d4540e5f0a94","system_id":"levelo_inurba_marseille","lat":43.23058,"lon":5.35493,"is_reserved":false,"is_disabled":false,"rental_uris":{"android":"levelo://app?vid=1c944097-c351-4c77-acee-d4540e5f0a94","ios":"levelo://app?vid=1c944097-c351-4c77-acee-d4540e5f0a94"},"vehicle_type_id":"4","last_reported":1742058442,"current_range_meters":9600,"station_id":"cpo3342slgdg3j2ifvpg","pricing_plan_id":"cebpf4jnsgd1na2vs0mg"},{"bike_id":"50c97caa-ca8a-4b03-99d5-4678c955e14d","system_id":"levelo_inurba_marseille","lat":43.24801,"lon":5.37467,"is_reserved":false,"is_disabled":false,"rental_uris":{"android":"levelo://app?vid=50c97caa-ca8a-4b03-99d5-4678c955e14d","ios":"levelo://app?vid=50c97caa-ca8a-4b03-99d5-4678c955e14d"},"vehicle_type_id":"4","last_reported":1742058442,"current_range_meters":9600,"station_id":"ce4bhgh2rcd13ifvqfb0","pricing_plan_id":"cebpf4jnsgd1na2vs0mg"},{"bike_id":"59fabd73-c806-41b6-bcf9-f66a2e415d54","system_id":"levelo_inurba_marseille","lat":43.26231,"lon":5.40448,"is_reserved":false,"is_disabled":false,"rental_uris":{"android":"levelo://app?vid=59fabd73-c806-41b6-bcf9-f66a2e415d54","ios":"levelo://app?vid=59fabd73-c806-41b6-bcf9-f66a2e415d54"},"vehicle_type_id":"4","last_reported":1742058442,"current_range_meters":9600,"station_id":"ce4bhmh2rcd13ifvqgmg","pricing_plan_id":"cebpf4jnsgd1na2vs0mg"},{"bike_id":"3034db0c-7cfa-4361-a8e5-85d8b0635402","system_id":"levelo_inurba_marseille","lat":43.2396,"lon":5.36644,"is_reserved":false,"is_disabled":false,"rental_uris":{"android":"levelo://app?vid=3034db0c-7cfa-4361-a8e5-85d8b0635402","ios":"levelo://app?vid=3034db0c-7cfa-4361-a8e5-85d8b0635402"},"vehicle_type_id":"4","last_reported":1742058442,"current_range_meters":9600,"station_id":"ce4bhi12rcd13ifvqfp0","pricing_plan_id":"cebpf4jnsgd1na2vs0mg"},{"bike_id":"49a173d9-c0ae-4f30-8906-a1ef20c838ce","system_id":"levelo_inurba_marseille","lat":43.29616,"lon":5.37708,"is_reserved":false,"is_disabled":false,"rental_uris":{"android":"levelo://app?vid=49a173d9-c0ae-4f30-8906-a1ef20c838ce","ios":"levelo://app?vid=49a173d9-c0ae-4f30-8906-a1ef20c838ce"},"vehicle_type_id":"4","last_reported":1742058442,"current_range_meters":9600,"station_id":"ce4bgi92rcd13ifvqb90","pricing_plan_id":"cebpf4jnsgd1na2vs0mg"},{"bike_id":"b30b9ebd-e10b-4f34-8f81-16fb050358ae","system_id":"levelo_inurba_marseille","lat":43.26032,"lon":5.37548,"is_reserved":false,"is_disabled":false,"rental_uris":{"android":"levelo://app?vid=b30b9ebd-e10b-4f34-8f81-16fb050358ae","ios":"levelo://app?vid=b30b9ebd-e10b-4f34-8f81-16fb050358ae"},"vehicle_type_id":"4","last_reported":1742058442,"current_range_meters":9600,"station_id":"ce4bhgh2rcd13ifvqfa0","pricing_plan_id":"cebpf4jnsgd1na2vs0mg"},{"bike_id":"92470e55-9ef4-4e62-8ace-777e6d5a53c4","system_id":"levelo_inurba_marseille","lat":43.25873,"lon":5.39945,"is_reserved":false,"is_disabled":false,"rental_uris":{"android":"levelo://app?vid=92470e55-9ef4-4e62-8ace-777e6d5a53c4","ios":"levelo://app?vid=92470e55-9ef4-4e62-8ace-777e6d5a53c4"},"vehicle_type_id":"4","last_reported":1742058442,"current_range_meters":10000,"station_id":"ce4bhl92rcd13ifvqghg","pricing_plan_id":"cebpf4jnsgd1na2vs0mg"},{"bike_id":"b77c5550-006e-47ab-9700-67c0880f3627","system_id":"levelo_inurba_marseille","lat":43.2997,"lon":5.38496,"is_reserved":false,"is_disabled":false,"rental_uris":{"android":"levelo://app?vid=b77c5550-006e-47ab-9700-67c0880f3627","ios":"levelo://app?vid=b77c5550-006e-47ab-9700-67c0880f3627"},"vehicle_type_id":"4","last_reported":1742058442,"current_range_meters":10000,"station_id":"ce4bgj92rcd13ifvqbd0","pricing_plan_id":"cebpf4jnsgd1na2vs0mg"},{"bike_id":"0b7bfdb8-fd03-4687-9225-8085184f929c","system_id":"levelo_inurba_marseille","lat":43.32393,"lon":5.36753,"is_reserved":false,"is_disabled":false,"rental_uris":{"android":"levelo://app?vid=0b7bfdb8-fd03-4687-9225-8085184f929c","ios":"levelo://app?vid=0b7bfdb8-fd03-4687-9225-8085184f929c"},"vehicle_type_id":"4","last_reported":1742058442,"current_range_meters":10000,"station_id":"","pricing_plan_id":"cebpf4jnsgd1na2vs0mg"},{"bike_id":"63cfaea5-f172-409c-93d3-875ff9136d61","system_id":"levelo_inurba_marseille","lat":43.24648,"lon":5.38143,"is_reserved":false,"is_disabled":false,"rental_uris":{"android":"levelo://app?vid=63cfaea5-f172-409c-93d3-875ff9136d61","ios":"levelo://app?vid=63cfaea5-f172-409c-93d3-875ff9136d61"},"vehicle_type_id":"4","last_reported":1742058442,"current_range_meters":10000,"station_id":"ce4bhih2rcd13ifvqfr0","pricing_plan_id":"cebpf4jnsgd1na2vs0mg"},{"bike_id":"f086f384-feec-4968-a0b6-7828464e346f","system_id":"levelo_inurba_marseille","lat":43.28415,"lon":5.37523,"is_reserved":false,"is_disabled":false,"rental_uris":{"android":"levelo://app?vid=f086f384-feec-4968-a0b6-7828464e346f","ios":"levelo://app?vid=f086f384-feec-4968-a0b6-7828464e346f"},"vehicle_type_id":"4","last_reported":1742058442,"current_range_meters":10000,"station_id":"ce4bh412rcd13ifvqds0","pricing_plan_id":"cebpf4jnsgd1na2vs0mg"},{"bike_id":"b614f100-11d7-4ef9-8f84-7c5dea0b786b","system_id":"levelo_inurba_marseille","lat":43.26943,"lon":5.40264,"is_reserved":false,"is_disabled":false,"rental_uris":{"android":"levelo://app?vid=b614f100-11d7-4ef9-8f84-7c5dea0b786b","ios":"levelo://app?vid=b614f100-11d7-4ef9-8f84-7c5dea0b786b"},"vehicle_type_id":"4","last_reported":1742058442,"current_range_meters":10000,"station_id":"cjm6bp8fraef2m0cb0m0","pricing_plan_id":"cebpf4jnsgd1na2vs0mg"},{"bike_id":"64146c48-aab6-467b-8f1c-32f8b240a2e0","system_id":"levelo_inurba_marseille","lat":43.29363,"lon":5.37877,"is_reserved":false,"is_disabled":false,"rental_uris":{"android":"levelo://app?vid=64146c48-aab6-467b-8f1c-32f8b240a2e0","ios":"levelo://app?vid=64146c48-aab6-467b-8f1c-32f8b240a2e0"},"vehicle_type_id":"4","last_reported":1742058442,"current_range_meters":12800,"station_id":"ce4bgjh2rcd13ifvqbf0","pricing_plan_id":"cebpf4jnsgd1na2vs0mg"},{"bike_id":"efb53dda-871b-483c-8dec-e716116f9234","system_id":"levelo_inurba_marseille","lat":43.3106,"lon":5.36772,"is_reserved":false,"is_disabled":false,"rental_uris":{"android":"levelo://app?vid=efb53dda-871b-483c-8dec-e716116f9234","ios":"levelo://app?vid=efb53dda-871b-483c-8dec-e716116f9234"},"vehicle_type_id":"4","last_reported":1742058442,"current_range_meters":10000,"station_id":"","pricing_plan_id":"cebpf4jnsgd1na2vs0mg"},{"bike_id":"1f5def01-7b82-4f17-9373-9cc7bb311870","system_id":"levelo_inurba_marseille","lat":43.28724,"lon":5.37931,"is_reserved":false,"is_disabled":false,"rental_uris":{"android":"levelo://app?vid=1f5def01-7b82-4f17-9373-9cc7bb311870","ios":"levelo://app?vid=1f5def01-7b82-4f17-9373-9cc7bb311870"},"vehicle_type_id":"4","last_reported":1742058442,"current_range_meters":10000,"station_id":"ce4bh9p2rcd13ifvqec0","pricing_plan_id":"cebpf4jnsgd1na2vs0mg"},{"bike_id":"9cb86ab6-60a8-4883-9936-4c67410b9185","system_id":"levelo_inurba_marseille","lat":43.29524,"lon":5.39052,"is_reserved":false,"is_disabled":false,"rental_uris":{"android":"levelo://app?vid=9cb86ab6-60a8-4883-9936-4c67410b9185","ios":"levelo://app?vid=9cb86ab6-60a8-4883-9936-4c67410b9185"},"vehicle_type_id":"4","last_reported":1742058442,"current_range_meters":10000,"station_id":"ce4bh3p2rcd13ifvqdp0","pricing_plan_id":"cebpf4jnsgd1na2vs0mg"},{"bike_id":"6349706c-5013-4589-8e82-9915bcfd217e","system_id":"levelo_inurba_marseille","lat":43.28669,"lon":5.38674,"is_reserved":false,"is_disabled":false,"rental_uris":{"android":"levelo://app?vid=6349706c-5013-4589-8e82-9915bcfd217e","ios":"levelo://app?vid=6349706c-5013-4589-8e82-9915bcfd217e"},"vehicle_type_id":"4","last_reported":1742058442,"current_range_meters":10800,"station_id":"ce4bh492rcd13ifvqdug","pricing_plan_id":"cebpf4jnsgd1na2vs0mg"},{"bike_id":"27ba77de-4c81-46d6-a7b5-0ee09aa11896","system_id":"levelo_inurba_marseille","lat":43.26217,"lon":5.37439,"is_reserved":false,"is_disabled":false,"rental_uris":{"android":"levelo://app?vid=27ba77de-4c81-46d6-a7b5-0ee09aa11896","ios":"levelo://app?vid=27ba77de-4c81-46d6-a7b5-0ee09aa11896"},"vehicle_type_id":"4","last_reported":1742058442,"current_range_meters":10800,"station_id":"ce4bhgp2rcd13ifvqfc0","pricing_plan_id":"cebpf4jnsgd1na2vs0mg"},{"bike_id":"0b9634e5-7cf5-478c-9fa4-7cc72158f094","system_id":"levelo_inurba_marseille","lat":43.29572,"lon":5.39965,"is_reserved":false,"is_disabled":false,"rental_uris":{"android":"levelo://app?vid=0b9634e5-7cf5-478c-9fa4-7cc72158f094","ios":"levelo://app?vid=0b9634e5-7cf5-478c-9fa4-7cc72158f094"},"vehicle_type_id":"4","last_reported":1742058442,"current_range_meters":10000,"station_id":"ce4bh312rcd13ifvqdj0","pricing_plan_id":"cebpf4jnsgd1na2vs0mg"},{"bike_id":"3b354c3d-3922-4d97-ae7c-17128316fbd8","system_id":"levelo_inurba_marseille","lat":43.26495,"lon":5.39543,"is_reserved":false,"is_disabled":false,"rental_uris":{"android":"levelo://app?vid=3b354c3d-3922-4d97-ae7c-17128316fbd8","ios":"levelo://app?vid=3b354c3d-3922-4d97-ae7c-17128316fbd8"},"vehicle_type_id":"4","last_reported":1742058442,"current_range_meters":10800,"station_id":"ce4bhi12rcd13ifvqfq0","pricing_plan_id":"cebpf4jnsgd1na2vs0mg"},{"bike_id":"e52b41b5-52df-4c67-a85c-3cebb3bf7504","system_id":"levelo_inurba_marseille","lat":43.32363,"lon":5.36751,"is_reserved":false,"is_disabled":false,"rental_uris":{"android":"levelo://app?vid=e52b41b5-52df-4c67-a85c-3cebb3bf7504","ios":"levelo://app?vid=e52b41b5-52df-4c67-a85c-3cebb3bf7504"},"vehicle_type_id":"4","last_reported":1742058442,"current_range_meters":10800,"station_id":"ce4bhsh2rcd13ifvqi2g","pricing_plan_id":"cebpf4jnsgd1na2vs0mg"},{"bike_id":"5a4e5776-3bb7-45c0-8844-f3305dfc110c","system_id":"levelo_inurba_marseille","lat":43.2886,"lon":5.35861,"is_reserved":false,"is_disabled":false,"rental_uris":{"android":"levelo://app?vid=5a4e5776-3bb7-45c0-8844-f3305dfc110c","ios":"levelo://app?vid=5a4e5776-3bb7-45c0-8844-f3305dfc110c"},"vehicle_type_id":"4","last_reported":1742058442,"current_range_meters":11200,"station_id":"ce4bhb12rcd13ifvqem0","pricing_plan_id":"cebpf4jnsgd1na2vs0mg"},{"bike_id":"7091c433-37e8-4c4a-bd2f-d277c973d492","system_id":"levelo_inurba_marseille","lat":43.25718,"lon":5.41112,"is_reserved":false,"is_disabled":false,"rental_uris":{"android":"levelo://app?vid=7091c433-37e8-4c4a-bd2f-d277c973d492","ios":"levelo://app?vid=7091c433-37e8-4c4a-bd2f-d277c973d492"},"vehicle_type_id":"4","last_reported":1742058442,"current_range_meters":10800,"station_id":"ce4bhkp2rcd13ifvqgd0","pricing_plan_id":"cebpf4jnsgd1na2vs0mg"},{"bike_id":"e3ea795b-725e-4c43-8c2e-ef9080d03639","system_id":"levelo_inurba_marseille","lat":43.29185,"lon":5.39304,"is_reserved":false,"is_disabled":false,"rental_uris":{"android":"levelo://app?vid=e3ea795b-725e-4c43-8c2e-ef9080d03639","ios":"levelo://app?vid=e3ea795b-725e-4c43-8c2e-ef9080d03639"},"vehicle_type_id":"4","last_reported":1742058442,"current_range_meters":10800,"station_id":"ce4bh192rcd13ifvqdd0","pricing_plan_id":"cebpf4jnsgd1na2vs0mg"},{"bike_id":"56182d7e-fb31-4fc0-bcf1-e803717d0369","system_id":"levelo_inurba_marseille","lat":43.28353,"lon":5.38106,"is_reserved":false,"is_disabled":false,"rental_uris":{"android":"levelo://app?vid=56182d7e-fb31-4fc0-bcf1-e803717d0369","ios":"levelo://app?vid=56182d7e-fb31-4fc0-bcf1-e803717d0369"},"vehicle_type_id":"4","last_reported":1742058442,"current_range_meters":10000,"station_id":"ce4bh412rcd13ifvqdr0","pricing_plan_id":"cebpf4jnsgd1na2vs0mg"},{"bike_id":"9363885d-9873-4ef4-b413-82666be49f0e","system_id":"levelo_inurba_marseille","lat":43.32365,"lon":5.38882,"is_reserved":false,"is_disabled":false,"rental_uris":{"android":"levelo://app?vid=9363885d-9873-4ef4-b413-82666be49f0e","ios":"levelo://app?vid=9363885d-9873-4ef4-b413-82666be49f0e"},"vehicle_type_id":"4","last_reported":1742058442,"current_range_meters":10800,"station_id":"ce4bhqp2rcd13ifvqhog","pricing_plan_id":"cebpf4jnsgd1na2vs0mg"},{"bike_id":"600736b0-fafc-44a5-9a9f-c55a039080bb","system_id":"levelo_inurba_marseille","lat":43.231916,"lon":5.355529,"is_reserved":false,"is_disabled":false,"rental_uris":{"android":"levelo://app?vid=600736b0-fafc-44a5-9a9f-c55a039080bb","ios":"levelo://app?vid=600736b0-fafc-44a5-9a9f-c55a039080bb"},"vehicle_type_id":"4","last_reported":1742058442,"current_range_meters":11200,"station_id":"ce4bhu92rcd13ifvqi70","pricing_plan_id":"cebpf4jnsgd1na2vs0mg"},{"bike_id":"d1a74226-cbcb-4ad2-a7b6-438817a1017d","system_id":"levelo_inurba_marseille","lat":43.28931,"lon":5.36634,"is_reserved":false,"is_disabled":false,"rental_uris":{"android":"levelo://app?vid=d1a74226-cbcb-4ad2-a7b6-438817a1017d","ios":"levelo://app?vid=d1a74226-cbcb-4ad2-a7b6-438817a1017d"},"vehicle_type_id":"4","last_reported":1742058442,"current_range_meters":11200,"station_id":"ce4bhap2rcd13ifvqek0","pricing_plan_id":"cebpf4jnsgd1na2vs0mg"},{"bike_id":"35e5c1fb-084e-4cdc-bb48-890912b770e4","system_id":"levelo_inurba_marseille","lat":43.287919,"lon":5.382661,"is_reserved":false,"is_disabled":false,"rental_uris":{"android":"levelo://app?vid=35e5c1fb-084e-4cdc-bb48-890912b770e4","ios":"levelo://app?vid=35e5c1fb-084e-4cdc-bb48-890912b770e4"},"vehicle_type_id":"4","last_reported":1742058442,"current_range_meters":12400,"station_id":"ce4bh512rcd13ifvqe3g","pricing_plan_id":"cebpf4jnsgd1na2vs0mg"},{"bike_id":"0c590d2b-92a7-4d09-9282-b6e517c621c1","system_id":"levelo_inurba_marseille","lat":43.26942,"lon":5.40257,"is_reserved":false,"is_disabled":false,"rental_uris":{"android":"levelo://app?vid=0c590d2b-92a7-4d09-9282-b6e517c621c1","ios":"levelo://app?vid=0c590d2b-92a7-4d09-9282-b6e517c621c1"},"vehicle_type_id":"4","last_reported":1742058442,"current_range_meters":11200,"station_id":"cjm6bp8fraef2m0cb0m0","pricing_plan_id":"cebpf4jnsgd1na2vs0mg"},{"bike_id":"6a8a9874-3e70-4bdb-a988-25879e5c7772","system_id":"levelo_inurba_marseille","lat":43.28598,"lon":5.35086,"is_reserved":false,"is_disabled":false,"rental_uris":{"android":"levelo://app?vid=6a8a9874-3e70-4bdb-a988-25879e5c7772","ios":"levelo://app?vid=6a8a9874-3e70-4bdb-a988-25879e5c7772"},"vehicle_type_id":"4","last_reported":1742058442,"current_range_meters":11200,"station_id":"ce4bhch2rcd13ifvqeug","pricing_plan_id":"cebpf4jnsgd1na2vs0mg"},{"bike_id":"439a6d2b-dcee-49d8-b76a-07d7f26581f0","system_id":"levelo_inurba_marseille","lat":43.29049,"lon":5.36649,"is_reserved":false,"is_disabled":false,"rental_uris":{"android":"levelo://app?vid=439a6d2b-dcee-49d8-b76a-07d7f26581f0","ios":"levelo://app?vid=439a6d2b-dcee-49d8-b76a-07d7f26581f0"},"vehicle_type_id":"4","last_reported":1742058442,"current_range_meters":11200,"station_id":"","pricing_plan_id":"cebpf4jnsgd1na2vs0mg"},{"bike_id":"31710fca-ccfa-43a5-ac6f-5ec923018ebf","system_id":"levelo_inurba_marseille","lat":43.27412,"lon":5.4206,"is_reserved":false,"is_disabled":false,"rental_uris":{"android":"levelo://app?vid=31710fca-ccfa-43a5-ac6f-5ec923018ebf","ios":"levelo://app?vid=31710fca-ccfa-43a5-ac6f-5ec923018ebf"},"vehicle_type_id":"4","last_reported":1742058442,"current_range_meters":11200,"station_id":"","pricing_plan_id":"cebpf4jnsgd1na2vs0mg"},{"bike_id":"29385910-eb6d-475a-9189-1a0a4707ee2c","system_id":"levelo_inurba_marseille","lat":43.26567,"lon":5.39014,"is_reserved":false,"is_disabled":false,"rental_uris":{"android":"levelo://app?vid=29385910-eb6d-475a-9189-1a0a4707ee2c","ios":"levelo://app?vid=29385910-eb6d-475a-9189-1a0a4707ee2c"},"vehicle_type_id":"4","last_reported":1742058442,"current_range_meters":11600,"station_id":"ce4bhe12rcd13ifvqf30","pricing_plan_id":"cebpf4jnsgd1na2vs0mg"},{"bike_id":"5f7f03a2-add7-44f0-9ebb-8428c5f0e58a","system_id":"levelo_inurba_marseille","lat":43.25931,"lon":5.40933,"is_reserved":false,"is_disabled":false,"rental_uris":{"android":"levelo://app?vid=5f7f03a2-add7-44f0-9ebb-8428c5f0e58a","ios":"levelo://app?vid=5f7f03a2-add7-44f0-9ebb-8428c5f0e58a"},"vehicle_type_id":"4","last_reported":1742058442,"current_range_meters":11600,"station_id":"ce4bhm92rcd13ifvqglg","pricing_plan_id":"cebpf4jnsgd1na2vs0mg"},{"bike_id":"68f2ba0c-c0c1-49e5-adeb-67fdf82640aa","system_id":"levelo_inurba_marseille","lat":43.28853,"lon":5.35861,"is_reserved":false,"is_disabled":false,"rental_uris":{"android":"levelo://app?vid=68f2ba0c-c0c1-49e5-adeb-67fdf82640aa","ios":"levelo://app?vid=68f2ba0c-c0c1-49e5-adeb-67fdf82640aa"},"vehicle_type_id":"4","last_reported":1742058442,"current_range_meters":11600,"station_id":"ce4bhb12rcd13ifvqem0","pricing_plan_id":"cebpf4jnsgd1na2vs0mg"},{"bike_id":"3f51f1f5-7a39-4364-adc9-c4c0ef6e90b0","system_id":"levelo_inurba_marseille","lat":43.28621,"lon":5.35102,"is_reserved":false,"is_disabled":false,"rental_uris":{"android":"levelo://app?vid=3f51f1f5-7a39-4364-adc9-c4c0ef6e90b0","ios":"levelo://app?vid=3f51f1f5-7a39-4364-adc9-c4c0ef6e90b0"},"vehicle_type_id":"4","last_reported":1742058442,"current_range_meters":11600,"station_id":"ce4bhch2rcd13ifvqeug","pricing_plan_id":"cebpf4jnsgd1na2vs0mg"},{"bike_id":"c29b6605-66a2-4e25-8633-f79c96b38ad5","system_id":"levelo_inurba_marseille","lat":43.29974,"lon":5.38491,"is_reserved":false,"is_disabled":false,"rental_uris":{"android":"levelo://app?vid=c29b6605-66a2-4e25-8633-f79c96b38ad5","ios":"levelo://app?vid=c29b6605-66a2-4e25-8633-f79c96b38ad5"},"vehicle_type_id":"4","last_reported":1742058442,"current_range_meters":16000,"station_id":"ce4bgj92rcd13ifvqbd0","pricing_plan_id":"cebpf4jnsgd1na2vs0mg"},{"bike_id":"82fb0625-b33b-4d01-9f26-afaf0b9368eb","system_id":"levelo_inurba_marseille","lat":43.27378,"lon":5.36268,"is_reserved":false,"is_disabled":false,"rental_uris":{"android":"levelo://app?vid=82fb0625-b33b-4d01-9f26-afaf0b9368eb","ios":"levelo://app?vid=82fb0625-b33b-4d01-9f26-afaf0b9368eb"},"vehicle_type_id":"4","last_reported":1742058442,"current_range_meters":11600,"station_id":"ce4bhbh2rcd13ifvqeo0","pricing_plan_id":"cebpf4jnsgd1na2vs0mg"},{"bike_id":"b723aca3-8e78-42dc-aea3-2292da138d59","system_id":"levelo_inurba_marseille","lat":43.23056,"lon":5.35491,"is_reserved":false,"is_disabled":false,"rental_uris":{"android":"levelo://app?vid=b723aca3-8e78-42dc-aea3-2292da138d59","ios":"levelo://app?vid=b723aca3-8e78-42dc-aea3-2292da138d59"},"vehicle_type_id":"4","last_reported":1742058442,"current_range_meters":11600,"station_id":"cpo3342slgdg3j2ifvpg","pricing_plan_id":"cebpf4jnsgd1na2vs0mg"},{"bike_id":"df3b8292-9d4a-4825-b514-39bf249106c8","system_id":"levelo_inurba_marseille","lat":43.29633,"lon":5.40593,"is_reserved":false,"is_disabled":false,"rental_uris":{"android":"levelo://app?vid=df3b8292-9d4a-4825-b514-39bf249106c8","ios":"levelo://app?vid=df3b8292-9d4a-4825-b514-39bf249106c8"},"vehicle_type_id":"4","last_reported":1742058442,"current_range_meters":11200,"station_id":"ce4bh0h2rcd13ifvqd60","pricing_plan_id":"cebpf4jnsgd1na2vs0mg"},{"bike_id":"445f4330-801e-4039-83ed-29778c01acfc","system_id":"levelo_inurba_marseille","lat":43.312269,"lon":5.368577,"is_reserved":false,"is_disabled":false,"rental_uris":{"android":"levelo://app?vid=445f4330-801e-4039-83ed-29778c01acfc","ios":"levelo://app?vid=445f4330-801e-4039-83ed-29778c01acfc"},"vehicle_type_id":"4","last_reported":1742058442,"current_range_meters":12000,"station_id":"ce4bgl92rcd13ifvqbq0","pricing_plan_id":"cebpf4jnsgd1na2vs0mg"},{"bike_id":"ddc1306b-0a89-4818-b796-6f35f9107942","system_id":"levelo_inurba_marseille","lat":43.28609,"lon":5.37069,"is_reserved":false,"is_disabled":false,"rental_uris":{"android":"levelo://app?vid=ddc1306b-0a89-4818-b796-6f35f9107942","ios":"levelo://app?vid=ddc1306b-0a89-4818-b796-6f35f9107942"},"vehicle_type_id":"4","last_reported":1742058442,"current_range_meters":12000,"station_id":"ce4bht12rcd13ifvqi60","pricing_plan_id":"cebpf4jnsgd1na2vs0mg"},{"bike_id":"7f378116-4794-4f0b-aab8-dc6d103aad6c","system_id":"levelo_inurba_marseille","lat":43.29965,"lon":5.38499,"is_reserved":false,"is_disabled":false,"rental_uris":{"android":"levelo://app?vid=7f378116-4794-4f0b-aab8-dc6d103aad6c","ios":"levelo://app?vid=7f378116-4794-4f0b-aab8-dc6d103aad6c"},"vehicle_type_id":"4","last_reported":1742058442,"current_range_meters":12000,"station_id":"ce4bgj92rcd13ifvqbd0","pricing_plan_id":"cebpf4jnsgd1na2vs0mg"},{"bike_id":"e2461e35-53b7-42f4-97f1-da527f694ed0","system_id":"levelo_inurba_marseille","lat":43.28429,"lon":5.35031,"is_reserved":false,"is_disabled":false,"rental_uris":{"android":"levelo://app?vid=e2461e35-53b7-42f4-97f1-da527f694ed0","ios":"levelo://app?vid=e2461e35-53b7-42f4-97f1-da527f694ed0"},"vehicle_type_id":"4","last_reported":1742058442,"current_range_meters":12000,"station_id":"ce4bhbh2rcd13ifvqepg","pricing_plan_id":"cebpf4jnsgd1na2vs0mg"},{"bike_id":"10044722-9baa-416e-a6f1-7ac67f5372b1","system_id":"levelo_inurba_marseille","lat":43.29618,"lon":5.37719,"is_reserved":false,"is_disabled":true,"rental_uris":{"android":"levelo://app?vid=10044722-9baa-416e-a6f1-7ac67f5372b1","ios":"levelo://app?vid=10044722-9baa-416e-a6f1-7ac67f5372b1"},"vehicle_type_id":"4","last_reported":1742058442,"current_range_meters":12400,"station_id":"ce4bgi92rcd13ifvqb90","pricing_plan_id":"cebpf4jnsgd1na2vs0mg"},{"bike_id":"e2eeef0a-6097-43b2-ac9f-071e43b60347","system_id":"levelo_inurba_marseille","lat":43.2842,"lon":5.37518,"is_reserved":false,"is_disabled":false,"rental_uris":{"android":"levelo://app?vid=e2eeef0a-6097-43b2-ac9f-071e43b60347","ios":"levelo://app?vid=e2eeef0a-6097-43b2-ac9f-071e43b60347"},"vehicle_type_id":"4","last_reported":1742058442,"current_range_meters":12400,"station_id":"ce4bh412rcd13ifvqds0","pricing_plan_id":"cebpf4jnsgd1na2vs0mg"},{"bike_id":"c6780cfd-b157-436e-8a4a-75eaf440ba97","system_id":"levelo_inurba_marseille","lat":43.28459,"lon":5.3589,"is_reserved":false,"is_disabled":false,"rental_uris":{"android":"levelo://app?vid=c6780cfd-b157-436e-8a4a-75eaf440ba97","ios":"levelo://app?vid=c6780cfd-b157-436e-8a4a-75eaf440ba97"},"vehicle_type_id":"4","last_reported":1742058442,"current_range_meters":8400,"station_id":"ce4bhah2rcd13ifvqei0","pricing_plan_id":"cebpf4jnsgd1na2vs0mg"},{"bike_id":"de04a2f0-f5ee-427f-ad01-063ca5feb11b","system_id":"levelo_inurba_marseille","lat":43.2956,"lon":5.3751,"is_reserved":false,"is_disabled":false,"rental_uris":{"android":"levelo://app?vid=de04a2f0-f5ee-427f-ad01-063ca5feb11b","ios":"levelo://app?vid=de04a2f0-f5ee-427f-ad01-063ca5feb11b"},"vehicle_type_id":"4","last_reported":1742058442,"current_range_meters":12400,"station_id":"ce4bgh92rcd13ifvqb50","pricing_plan_id":"cebpf4jnsgd1na2vs0mg"},{"bike_id":"9eae37f5-0123-4e00-af7f-62ebd754b686","system_id":"levelo_inurba_marseille","lat":43.27688,"lon":5.38883,"is_reserved":false,"is_disabled":false,"rental_uris":{"android":"levelo://app?vid=9eae37f5-0123-4e00-af7f-62ebd754b686","ios":"levelo://app?vid=9eae37f5-0123-4e00-af7f-62ebd754b686"},"vehicle_type_id":"4","last_reported":1742058442,"current_range_meters":12400,"station_id":"ce4bhi12rcd13ifvqfo0","pricing_plan_id":"cebpf4jnsgd1na2vs0mg"},{"bike_id":"07386c77-8eea-4c15-9b1f-571e4b792f00","system_id":"levelo_inurba_marseille","lat":43.29621,"lon":5.3717,"is_reserved":false,"is_disabled":false,"rental_uris":{"android":"levelo://app?vid=07386c77-8eea-4c15-9b1f-571e4b792f00","ios":"levelo://app?vid=07386c77-8eea-4c15-9b1f-571e4b792f00"},"vehicle_type_id":"4","last_reported":1742058442,"current_range_meters":14400,"station_id":"ce4bgnh2rcd13ifvqc0g","pricing_plan_id":"cebpf4jnsgd1na2vs0mg"},{"bike_id":"89923947-11aa-45b5-9b34-43a462b7a221","system_id":"levelo_inurba_marseille","lat":43.29294,"lon":5.42773,"is_reserved":false,"is_disabled":false,"rental_uris":{"android":"levelo://app?vid=89923947-11aa-45b5-9b34-43a462b7a221","ios":"levelo://app?vid=89923947-11aa-45b5-9b34-43a462b7a221"},"vehicle_type_id":"4","last_reported":1742058442,"current_range_meters":12800,"station_id":"","pricing_plan_id":"cebpf4jnsgd1na2vs0mg"},{"bike_id":"71b342b8-694b-40d5-99e8-310baf77a970","system_id":"levelo_inurba_marseille","lat":43.2306,"lon":5.35496,"is_reserved":false,"is_disabled":false,"rental_uris":{"android":"levelo://app?vid=71b342b8-694b-40d5-99e8-310baf77a970","ios":"levelo://app?vid=71b342b8-694b-40d5-99e8-310baf77a970"},"vehicle_type_id":"4","last_reported":1742058442,"current_range_meters":12800,"station_id":"cpo3342slgdg3j2ifvpg","pricing_plan_id":"cebpf4jnsgd1na2vs0mg"},{"bike_id":"90c707aa-0edc-4e94-a911-252e6bd4d4c2","system_id":"levelo_inurba_marseille","lat":43.2864,"lon":5.351,"is_reserved":false,"is_disabled":false,"rental_uris":{"android":"levelo://app?vid=90c707aa-0edc-4e94-a911-252e6bd4d4c2","ios":"levelo://app?vid=90c707aa-0edc-4e94-a911-252e6bd4d4c2"},"vehicle_type_id":"4","last_reported":1742058442,"current_range_meters":12800,"station_id":"ce4bhch2rcd13ifvqeug","pricing_plan_id":"cebpf4jnsgd1na2vs0mg"},{"bike_id":"713cd713-698c-48ec-bfe7-f1a9b658feda","system_id":"levelo_inurba_marseille","lat":43.28402,"lon":5.37511,"is_reserved":false,"is_disabled":false,"rental_uris":{"android":"levelo://app?vid=713cd713-698c-48ec-bfe7-f1a9b658feda","ios":"levelo://app?vid=713cd713-698c-48ec-bfe7-f1a9b658feda"},"vehicle_type_id":"4","last_reported":1742058442,"current_range_meters":12800,"station_id":"ce4bh412rcd13ifvqds0","pricing_plan_id":"cebpf4jnsgd1na2vs0mg"},{"bike_id":"fc071de1-2cc0-488a-a43e-f8037a5a9a49","system_id":"levelo_inurba_marseille","lat":43.23069,"lon":5.35487,"is_reserved":false,"is_disabled":false,"rental_uris":{"android":"levelo://app?vid=fc071de1-2cc0-488a-a43e-f8037a5a9a49","ios":"levelo://app?vid=fc071de1-2cc0-488a-a43e-f8037a5a9a49"},"vehicle_type_id":"4","last_reported":1742058442,"current_range_meters":12800,"station_id":"cpo3342slgdg3j2ifvpg","pricing_plan_id":"cebpf4jnsgd1na2vs0mg"},{"bike_id":"174c9c66-b172-484e-b7f9-5752aa18aabf","system_id":"levelo_inurba_marseille","lat":43.23051,"lon":5.35496,"is_reserved":false,"is_disabled":false,"rental_uris":{"android":"levelo://app?vid=174c9c66-b172-484e-b7f9-5752aa18aabf","ios":"levelo://app?vid=174c9c66-b172-484e-b7f9-5752aa18aabf"},"vehicle_type_id":"4","last_reported":1742058442,"current_range_meters":12800,"station_id":"cpo3342slgdg3j2ifvpg","pricing_plan_id":"cebpf4jnsgd1na2vs0mg"},{"bike_id":"e1bc5517-89cc-4fbd-afdb-e8d3c61b8e55","system_id":"levelo_inurba_marseille","lat":43.32376,"lon":5.36765,"is_reserved":false,"is_disabled":false,"rental_uris":{"android":"levelo://app?vid=e1bc5517-89cc-4fbd-afdb-e8d3c61b8e55","ios":"levelo://app?vid=e1bc5517-89cc-4fbd-afdb-e8d3c61b8e55"},"vehicle_type_id":"4","last_reported":1742058442,"current_range_meters":12800,"station_id":"ce4bhsh2rcd13ifvqi2g","pricing_plan_id":"cebpf4jnsgd1na2vs0mg"},{"bike_id":"9f7a2be2-45b7-4990-9b87-b75d63adc873","system_id":"levelo_inurba_marseille","lat":43.3055,"lon":5.36564,"is_reserved":false,"is_disabled":false,"rental_uris":{"android":"levelo://app?vid=9f7a2be2-45b7-4990-9b87-b75d63adc873","ios":"levelo://app?vid=9f7a2be2-45b7-4990-9b87-b75d63adc873"},"vehicle_type_id":"4","last_reported":1742058442,"current_range_meters":11600,"station_id":"ce4bgs12rcd13ifvqcag","pricing_plan_id":"cebpf4jnsgd1na2vs0mg"},{"bike_id":"c79bb127-8198-4096-96ea-1444569e00c1","system_id":"levelo_inurba_marseille","lat":43.23952,"lon":5.36648,"is_reserved":false,"is_disabled":true,"rental_uris":{"android":"levelo://app?vid=c79bb127-8198-4096-96ea-1444569e00c1","ios":"levelo://app?vid=c79bb127-8198-4096-96ea-1444569e00c1"},"vehicle_type_id":"4","last_reported":1742058442,"current_range_meters":12800,"station_id":"ce4bhi12rcd13ifvqfp0","pricing_plan_id":"cebpf4jnsgd1na2vs0mg"},{"bike_id":"164698fe-9d93-4887-940d-15344574129e","system_id":"levelo_inurba_marseille","lat":43.29585,"lon":5.36731,"is_reserved":false,"is_disabled":false,"rental_uris":{"android":"levelo://app?vid=164698fe-9d93-4887-940d-15344574129e","ios":"levelo://app?vid=164698fe-9d93-4887-940d-15344574129e"},"vehicle_type_id":"4","last_reported":1742058442,"current_range_meters":12000,"station_id":"ce4bgph2rcd13ifvqc2g","pricing_plan_id":"cebpf4jnsgd1na2vs0mg"},{"bike_id":"c7285472-aa51-4aca-a69d-caca78ce790e","system_id":"levelo_inurba_marseille","lat":43.29096,"lon":5.3812,"is_reserved":false,"is_disabled":false,"rental_uris":{"android":"levelo://app?vid=c7285472-aa51-4aca-a69d-caca78ce790e","ios":"levelo://app?vid=c7285472-aa51-4aca-a69d-caca78ce790e"},"vehicle_type_id":"4","last_reported":1742058442,"current_range_meters":12800,"station_id":"ce4bh512rcd13ifvqe2g","pricing_plan_id":"cebpf4jnsgd1na2vs0mg"},{"bike_id":"d29954b9-94a9-4d4b-8f2a-4f834cdcd24e","system_id":"levelo_inurba_marseille","lat":43.30646,"lon":5.40102,"is_reserved":false,"is_disabled":false,"rental_uris":{"android":"levelo://app?vid=d29954b9-94a9-4d4b-8f2a-4f834cdcd24e","ios":"levelo://app?vid=d29954b9-94a9-4d4b-8f2a-4f834cdcd24e"},"vehicle_type_id":"4","last_reported":1742058442,"current_range_meters":13600,"station_id":"ce4bh112rcd13ifvqda0","pricing_plan_id":"cebpf4jnsgd1na2vs0mg"},{"bike_id":"bc6897fa-4990-4dee-b87c-2d8b2284f160","system_id":"levelo_inurba_marseille","lat":43.254928,"lon":5.376496,"is_reserved":false,"is_disabled":false,"rental_uris":{"android":"levelo://app?vid=bc6897fa-4990-4dee-b87c-2d8b2284f160","ios":"levelo://app?vid=bc6897fa-4990-4dee-b87c-2d8b2284f160"},"vehicle_type_id":"4","last_reported":1742058442,"current_range_meters":13600,"station_id":"ce4bhh12rcd13ifvqff0","pricing_plan_id":"cebpf4jnsgd1na2vs0mg"},{"bike_id":"0162ff87-7148-49d2-82e1-db37eca7d49d","system_id":"levelo_inurba_marseille","lat":43.28616,"lon":5.35053,"is_reserved":false,"is_disabled":false,"rental_uris":{"android":"levelo://app?vid=0162ff87-7148-49d2-82e1-db37eca7d49d","ios":"levelo://app?vid=0162ff87-7148-49d2-82e1-db37eca7d49d"},"vehicle_type_id":"4","last_reported":1742058442,"current_range_meters":13600,"station_id":"ce4bhch2rcd13ifvqeug","pricing_plan_id":"cebpf4jnsgd1na2vs0mg"},{"bike_id":"c2386259-d579-455e-a029-0c6788af76d2","system_id":"levelo_inurba_marseille","lat":43.29254,"lon":5.3763,"is_reserved":false,"is_disabled":false,"rental_uris":{"android":"levelo://app?vid=c2386259-d579-455e-a029-0c6788af76d2","ios":"levelo://app?vid=c2386259-d579-455e-a029-0c6788af76d2"},"vehicle_type_id":"4","last_reported":1742058442,"current_range_meters":13600,"station_id":"ce4bgi12rcd13ifvqb80","pricing_plan_id":"cebpf4jnsgd1na2vs0mg"},{"bike_id":"a8c55f41-61b9-42f0-9773-61b27edd21b1","system_id":"levelo_inurba_marseille","lat":43.28702,"lon":5.37936,"is_reserved":false,"is_disabled":false,"rental_uris":{"android":"levelo://app?vid=a8c55f41-61b9-42f0-9773-61b27edd21b1","ios":"levelo://app?vid=a8c55f41-61b9-42f0-9773-61b27edd21b1"},"vehicle_type_id":"4","last_reported":1742058442,"current_range_meters":12800,"station_id":"ce4bh9p2rcd13ifvqec0","pricing_plan_id":"cebpf4jnsgd1na2vs0mg"},{"bike_id":"084e9cd0-ba7b-4410-911b-bd29122b16f6","system_id":"levelo_inurba_marseille","lat":43.24169,"lon":5.36433,"is_reserved":false,"is_disabled":false,"rental_uris":{"android":"levelo://app?vid=084e9cd0-ba7b-4410-911b-bd29122b16f6","ios":"levelo://app?vid=084e9cd0-ba7b-4410-911b-bd29122b16f6"},"vehicle_type_id":"4","last_reported":1742058442,"current_range_meters":13600,"station_id":"cpo36qri1sfpv3e86is0","pricing_plan_id":"cebpf4jnsgd1na2vs0mg"},{"bike_id":"5281e366-0e5b-404b-898d-07fe0dfb7cc2","system_id":"levelo_inurba_marseille","lat":43.28667,"lon":5.36351,"is_reserved":false,"is_disabled":false,"rental_uris":{"android":"levelo://app?vid=5281e366-0e5b-404b-898d-07fe0dfb7cc2","ios":"levelo://app?vid=5281e366-0e5b-404b-898d-07fe0dfb7cc2"},"vehicle_type_id":"4","last_reported":1742058442,"current_range_meters":13600,"station_id":"ce4bhah2rcd13ifvqej0","pricing_plan_id":"cebpf4jnsgd1na2vs0mg"},{"bike_id":"1559ed1f-4039-425c-b3d7-1da981a02f75","system_id":"levelo_inurba_marseille","lat":43.23055,"lon":5.35504,"is_reserved":false,"is_disabled":false,"rental_uris":{"android":"levelo://app?vid=1559ed1f-4039-425c-b3d7-1da981a02f75","ios":"levelo://app?vid=1559ed1f-4039-425c-b3d7-1da981a02f75"},"vehicle_type_id":"4","last_reported":1742058442,"current_range_meters":13600,"station_id":"cpo3342slgdg3j2ifvpg","pricing_plan_id":"cebpf4jnsgd1na2vs0mg"},{"bike_id":"1d94c08b-8f2b-46ba-a293-11c24d682e4e","system_id":"levelo_inurba_marseille","lat":43.28404,"lon":5.37517,"is_reserved":false,"is_disabled":false,"rental_uris":{"android":"levelo://app?vid=1d94c08b-8f2b-46ba-a293-11c24d682e4e","ios":"levelo://app?vid=1d94c08b-8f2b-46ba-a293-11c24d682e4e"},"vehicle_type_id":"4","last_reported":1742058442,"current_range_meters":14000,"station_id":"ce4bh412rcd13ifvqds0","pricing_plan_id":"cebpf4jnsgd1na2vs0mg"},{"bike_id":"95dc4c20-535f-4b12-8794-d391d361818b","system_id":"levelo_inurba_marseille","lat":43.28425,"lon":5.35012,"is_reserved":false,"is_disabled":false,"rental_uris":{"android":"levelo://app?vid=95dc4c20-535f-4b12-8794-d391d361818b","ios":"levelo://app?vid=95dc4c20-535f-4b12-8794-d391d361818b"},"vehicle_type_id":"4","last_reported":1742058442,"current_range_meters":14000,"station_id":"ce4bhbh2rcd13ifvqepg","pricing_plan_id":"cebpf4jnsgd1na2vs0mg"},{"bike_id":"8c040b46-fae8-466e-b505-560ba2300a4e","system_id":"levelo_inurba_marseille","lat":43.2843,"lon":5.35002,"is_reserved":false,"is_disabled":false,"rental_uris":{"android":"levelo://app?vid=8c040b46-fae8-466e-b505-560ba2300a4e","ios":"levelo://app?vid=8c040b46-fae8-466e-b505-560ba2300a4e"},"vehicle_type_id":"4","last_reported":1742058442,"current_range_meters":14000,"station_id":"ce4bhbh2rcd13ifvqepg","pricing_plan_id":"cebpf4jnsgd1na2vs0mg"},{"bike_id":"b436455f-2f5e-471b-8ab4-717b48d7d9f5","system_id":"levelo_inurba_marseille","lat":43.2901,"lon":5.35608,"is_reserved":false,"is_disabled":false,"rental_uris":{"android":"levelo://app?vid=b436455f-2f5e-471b-8ab4-717b48d7d9f5","ios":"levelo://app?vid=b436455f-2f5e-471b-8ab4-717b48d7d9f5"},"vehicle_type_id":"4","last_reported":1742058442,"current_range_meters":13600,"station_id":"ce4bhb92rcd13ifvqen0","pricing_plan_id":"cebpf4jnsgd1na2vs0mg"},{"bike_id":"74f1286e-8828-4b23-804f-c3f2dbeebc01","system_id":"levelo_inurba_marseille","lat":43.29002,"lon":5.35612,"is_reserved":false,"is_disabled":false,"rental_uris":{"android":"levelo://app?vid=74f1286e-8828-4b23-804f-c3f2dbeebc01","ios":"levelo://app?vid=74f1286e-8828-4b23-804f-c3f2dbeebc01"},"vehicle_type_id":"4","last_reported":1742058442,"current_range_meters":14000,"station_id":"ce4bhb92rcd13ifvqen0","pricing_plan_id":"cebpf4jnsgd1na2vs0mg"},{"bike_id":"5e680a9c-3435-4767-b839-1e853c46eb4b","system_id":"levelo_inurba_marseille","lat":43.3029,"lon":5.36883,"is_reserved":false,"is_disabled":false,"rental_uris":{"android":"levelo://app?vid=5e680a9c-3435-4767-b839-1e853c46eb4b","ios":"levelo://app?vid=5e680a9c-3435-4767-b839-1e853c46eb4b"},"vehicle_type_id":"4","last_reported":1742058442,"current_range_meters":14400,"station_id":"ce4bgqh2rcd13ifvqc5g","pricing_plan_id":"cebpf4jnsgd1na2vs0mg"},{"bike_id":"00422631-b21c-4dac-a29a-41866e25cfad","system_id":"levelo_inurba_marseille","lat":43.24812,"lon":5.3734,"is_reserved":false,"is_disabled":false,"rental_uris":{"android":"levelo://app?vid=00422631-b21c-4dac-a29a-41866e25cfad","ios":"levelo://app?vid=00422631-b21c-4dac-a29a-41866e25cfad"},"vehicle_type_id":"4","last_reported":1742058442,"current_range_meters":14400,"station_id":"","pricing_plan_id":"cebpf4jnsgd1na2vs0mg"},{"bike_id":"0932305a-2533-457c-952f-1bf174f0b30e","system_id":"levelo_inurba_marseille","lat":43.24655,"lon":5.38165,"is_reserved":false,"is_disabled":false,"rental_uris":{"android":"levelo://app?vid=0932305a-2533-457c-952f-1bf174f0b30e","ios":"levelo://app?vid=0932305a-2533-457c-952f-1bf174f0b30e"},"vehicle_type_id":"4","last_reported":1742058442,"current_range_meters":14400,"station_id":"ce4bhih2rcd13ifvqfr0","pricing_plan_id":"cebpf4jnsgd1na2vs0mg"},{"bike_id":"772eb41d-f188-41de-b90c-2b1fb38bad96","system_id":"levelo_inurba_marseille","lat":43.32374,"lon":5.38892,"is_reserved":false,"is_disabled":false,"rental_uris":{"android":"levelo://app?vid=772eb41d-f188-41de-b90c-2b1fb38bad96","ios":"levelo://app?vid=772eb41d-f188-41de-b90c-2b1fb38bad96"},"vehicle_type_id":"4","last_reported":1742058442,"current_range_meters":14400,"station_id":"ce4bhqp2rcd13ifvqhog","pricing_plan_id":"cebpf4jnsgd1na2vs0mg"},{"bike_id":"efa6ddd8-f1e2-4773-8325-5723f669c8cf","system_id":"levelo_inurba_marseille","lat":43.25589,"lon":5.38254,"is_reserved":false,"is_disabled":false,"rental_uris":{"android":"levelo://app?vid=efa6ddd8-f1e2-4773-8325-5723f669c8cf","ios":"levelo://app?vid=efa6ddd8-f1e2-4773-8325-5723f669c8cf"},"vehicle_type_id":"4","last_reported":1742058442,"current_range_meters":14400,"station_id":"ce4bhih2rcd13ifvqfs0","pricing_plan_id":"cebpf4jnsgd1na2vs0mg"},{"bike_id":"63ead23a-01f8-489a-8926-7410c4eb51fc","system_id":"levelo_inurba_marseille","lat":43.27674,"lon":5.38899,"is_reserved":false,"is_disabled":false,"rental_uris":{"android":"levelo://app?vid=63ead23a-01f8-489a-8926-7410c4eb51fc","ios":"levelo://app?vid=63ead23a-01f8-489a-8926-7410c4eb51fc"},"vehicle_type_id":"4","last_reported":1742058442,"current_range_meters":14400,"station_id":"ce4bhi12rcd13ifvqfo0","pricing_plan_id":"cebpf4jnsgd1na2vs0mg"},{"bike_id":"1c546ef2-3c9e-4189-9934-54f506866f90","system_id":"levelo_inurba_marseille","lat":43.29259,"lon":5.40904,"is_reserved":false,"is_disabled":false,"rental_uris":{"android":"levelo://app?vid=1c546ef2-3c9e-4189-9934-54f506866f90","ios":"levelo://app?vid=1c546ef2-3c9e-4189-9934-54f506866f90"},"vehicle_type_id":"4","last_reported":1742058442,"current_range_meters":12400,"station_id":"ce4bh192rcd13ifvqdc0","pricing_plan_id":"cebpf4jnsgd1na2vs0mg"},{"bike_id":"3f3e844d-8056-4826-a519-e24eec72528f","system_id":"levelo_inurba_marseille","lat":43.3067,"lon":5.36543,"is_reserved":false,"is_disabled":false,"rental_uris":{"android":"levelo://app?vid=3f3e844d-8056-4826-a519-e24eec72528f","ios":"levelo://app?vid=3f3e844d-8056-4826-a519-e24eec72528f"},"vehicle_type_id":"4","last_reported":1742058442,"current_range_meters":12000,"station_id":"","pricing_plan_id":"cebpf4jnsgd1na2vs0mg"},{"bike_id":"67ca7154-5ce7-4bfd-a5d8-c4711c5cc893","system_id":"levelo_inurba_marseille","lat":43.26819,"lon":5.40241,"is_reserved":false,"is_disabled":false,"rental_uris":{"android":"levelo://app?vid=67ca7154-5ce7-4bfd-a5d8-c4711c5cc893","ios":"levelo://app?vid=67ca7154-5ce7-4bfd-a5d8-c4711c5cc893"},"vehicle_type_id":"4","last_reported":1742058442,"current_range_meters":14400,"station_id":"ce501612rcd8frsf0b60","pricing_plan_id":"cebpf4jnsgd1na2vs0mg"},{"bike_id":"b170941c-bfa6-4767-9be1-66e8af13ab14","system_id":"levelo_inurba_marseille","lat":43.29007,"lon":5.35599,"is_reserved":false,"is_disabled":false,"rental_uris":{"android":"levelo://app?vid=b170941c-bfa6-4767-9be1-66e8af13ab14","ios":"levelo://app?vid=b170941c-bfa6-4767-9be1-66e8af13ab14"},"vehicle_type_id":"4","last_reported":1742058442,"current_range_meters":14400,"station_id":"ce4bhb92rcd13ifvqen0","pricing_plan_id":"cebpf4jnsgd1na2vs0mg"},{"bike_id":"efa182c5-e8bb-4316-9ac4-4d06270b10d4","system_id":"levelo_inurba_marseille","lat":43.32388,"lon":5.3891,"is_reserved":false,"is_disabled":false,"rental_uris":{"android":"levelo://app?vid=efa182c5-e8bb-4316-9ac4-4d06270b10d4","ios":"levelo://app?vid=efa182c5-e8bb-4316-9ac4-4d06270b10d4"},"vehicle_type_id":"4","last_reported":1742058442,"current_range_meters":14400,"station_id":"ce4bhqp2rcd13ifvqhog","pricing_plan_id":"cebpf4jnsgd1na2vs0mg"},{"bike_id":"43e238d9-8ae0-45b5-b091-a70c3ad7de96","system_id":"levelo_inurba_marseille","lat":43.29032,"lon":5.38631,"is_reserved":false,"is_disabled":false,"rental_uris":{"android":"levelo://app?vid=43e238d9-8ae0-45b5-b091-a70c3ad7de96","ios":"levelo://app?vid=43e238d9-8ae0-45b5-b091-a70c3ad7de96"},"vehicle_type_id":"4","last_reported":1742058442,"current_range_meters":14800,"station_id":"ce4bh4p2rcd13ifvqe0g","pricing_plan_id":"cebpf4jnsgd1na2vs0mg"},{"bike_id":"3848eee5-d283-4727-b2b2-9fae90c5be8c","system_id":"levelo_inurba_marseille","lat":43.28425,"lon":5.34998,"is_reserved":false,"is_disabled":false,"rental_uris":{"android":"levelo://app?vid=3848eee5-d283-4727-b2b2-9fae90c5be8c","ios":"levelo://app?vid=3848eee5-d283-4727-b2b2-9fae90c5be8c"},"vehicle_type_id":"4","last_reported":1742058442,"current_range_meters":14800,"station_id":"ce4bhbh2rcd13ifvqepg","pricing_plan_id":"cebpf4jnsgd1na2vs0mg"},{"bike_id":"49130e35-1926-4c05-9199-8fefa26cb299","system_id":"levelo_inurba_marseille","lat":43.2841,"lon":5.37517,"is_reserved":false,"is_disabled":false,"rental_uris":{"android":"levelo://app?vid=49130e35-1926-4c05-9199-8fefa26cb299","ios":"levelo://app?vid=49130e35-1926-4c05-9199-8fefa26cb299"},"vehicle_type_id":"4","last_reported":1742058442,"current_range_meters":14800,"station_id":"ce4bh412rcd13ifvqds0","pricing_plan_id":"cebpf4jnsgd1na2vs0mg"},{"bike_id":"29a2f118-b10d-457c-9910-d05287927e3a","system_id":"levelo_inurba_marseille","lat":43.28727,"lon":5.3609,"is_reserved":false,"is_disabled":false,"rental_uris":{"android":"levelo://app?vid=29a2f118-b10d-457c-9910-d05287927e3a","ios":"levelo://app?vid=29a2f118-b10d-457c-9910-d05287927e3a"},"vehicle_type_id":"4","last_reported":1742058442,"current_range_meters":14800,"station_id":"cki0cbj6b192h4jlfktg","pricing_plan_id":"cebpf4jnsgd1na2vs0mg"},{"bike_id":"5f9a521d-45e7-4a25-9642-f597a7efd90e","system_id":"levelo_inurba_marseille","lat":43.2886,"lon":5.35856,"is_reserved":false,"is_disabled":false,"rental_uris":{"android":"levelo://app?vid=5f9a521d-45e7-4a25-9642-f597a7efd90e","ios":"levelo://app?vid=5f9a521d-45e7-4a25-9642-f597a7efd90e"},"vehicle_type_id":"4","last_reported":1742058442,"current_range_meters":14800,"station_id":"ce4bhb12rcd13ifvqem0","pricing_plan_id":"cebpf4jnsgd1na2vs0mg"},{"bike_id":"f68ba18e-bc65-4180-b77c-f02ff9a13385","system_id":"levelo_inurba_marseille","lat":43.29293,"lon":5.37157,"is_reserved":false,"is_disabled":false,"rental_uris":{"android":"levelo://app?vid=f68ba18e-bc65-4180-b77c-f02ff9a13385","ios":"levelo://app?vid=f68ba18e-bc65-4180-b77c-f02ff9a13385"},"vehicle_type_id":"4","last_reported":1742058442,"current_range_meters":14800,"station_id":"ce4bgh92rcd13ifvqb40","pricing_plan_id":"cebpf4jnsgd1na2vs0mg"},{"bike_id":"324daaf2-1340-49a5-99a9-3c56fc2d2368","system_id":"levelo_inurba_marseille","lat":43.24182,"lon":5.39719,"is_reserved":false,"is_disabled":false,"rental_uris":{"android":"levelo://app?vid=324daaf2-1340-49a5-99a9-3c56fc2d2368","ios":"levelo://app?vid=324daaf2-1340-49a5-99a9-3c56fc2d2368"},"vehicle_type_id":"4","last_reported":1742058442,"current_range_meters":14800,"station_id":"ce4bhn12rcd13ifvqgpg","pricing_plan_id":"cebpf4jnsgd1na2vs0mg"},{"bike_id":"1d76851c-a35d-4a34-8160-9a11ac8c16aa","system_id":"levelo_inurba_marseille","lat":43.293024,"lon":5.374656,"is_reserved":false,"is_disabled":false,"rental_uris":{"android":"levelo://app?vid=1d76851c-a35d-4a34-8160-9a11ac8c16aa","ios":"levelo://app?vid=1d76851c-a35d-4a34-8160-9a11ac8c16aa"},"vehicle_type_id":"4","last_reported":1742058442,"current_range_meters":14800,"station_id":"ce4bhb12rcd13ifvqem0","pricing_plan_id":"cebpf4jnsgd1na2vs0mg"},{"bike_id":"46b5384c-5822-4e53-bc4b-a8ba1f4c9d93","system_id":"levelo_inurba_marseille","lat":43.24664,"lon":5.38164,"is_reserved":false,"is_disabled":false,"rental_uris":{"android":"levelo://app?vid=46b5384c-5822-4e53-bc4b-a8ba1f4c9d93","ios":"levelo://app?vid=46b5384c-5822-4e53-bc4b-a8ba1f4c9d93"},"vehicle_type_id":"4","last_reported":1742058442,"current_range_meters":14000,"station_id":"ce4bhih2rcd13ifvqfr0","pricing_plan_id":"cebpf4jnsgd1na2vs0mg"},{"bike_id":"bf444823-f484-4d35-a50e-299507d33227","system_id":"levelo_inurba_marseille","lat":43.2902,"lon":5.38639,"is_reserved":false,"is_disabled":false,"rental_uris":{"android":"levelo://app?vid=bf444823-f484-4d35-a50e-299507d33227","ios":"levelo://app?vid=bf444823-f484-4d35-a50e-299507d33227"},"vehicle_type_id":"4","last_reported":1742058442,"current_range_meters":14800,"station_id":"ce4bh4p2rcd13ifvqe0g","pricing_plan_id":"cebpf4jnsgd1na2vs0mg"},{"bike_id":"d9016438-31d0-4c2d-a0da-4175bff345c3","system_id":"levelo_inurba_marseille","lat":43.29035,"lon":5.38644,"is_reserved":false,"is_disabled":false,"rental_uris":{"android":"levelo://app?vid=d9016438-31d0-4c2d-a0da-4175bff345c3","ios":"levelo://app?vid=d9016438-31d0-4c2d-a0da-4175bff345c3"},"vehicle_type_id":"4","last_reported":1742058442,"current_range_meters":14800,"station_id":"ce4bh4p2rcd13ifvqe0g","pricing_plan_id":"cebpf4jnsgd1na2vs0mg"},{"bike_id":"a2df54e8-18e4-4021-8fec-e9c5b477e7ad","system_id":"levelo_inurba_marseille","lat":43.2465,"lon":5.38903,"is_reserved":false,"is_disabled":false,"rental_uris":{"android":"levelo://app?vid=a2df54e8-18e4-4021-8fec-e9c5b477e7ad","ios":"levelo://app?vid=a2df54e8-18e4-4021-8fec-e9c5b477e7ad"},"vehicle_type_id":"4","last_reported":1742058442,"current_range_meters":14800,"station_id":"ce4bhg12rcd13ifvqf60","pricing_plan_id":"cebpf4jnsgd1na2vs0mg"},{"bike_id":"41054c2d-93ef-4a43-83cd-3157633ae575","system_id":"levelo_inurba_marseille","lat":43.30543,"lon":5.38428,"is_reserved":false,"is_disabled":false,"rental_uris":{"android":"levelo://app?vid=41054c2d-93ef-4a43-83cd-3157633ae575","ios":"levelo://app?vid=41054c2d-93ef-4a43-83cd-3157633ae575"},"vehicle_type_id":"4","last_reported":1742058442,"current_range_meters":14000,"station_id":"ce4bgg92rcd13ifvqb30","pricing_plan_id":"cebpf4jnsgd1na2vs0mg"},{"bike_id":"1d7f8ff5-bcc8-4b92-a03a-ea3818b4617e","system_id":"levelo_inurba_marseille","lat":43.29024,"lon":5.38628,"is_reserved":false,"is_disabled":true,"rental_uris":{"android":"levelo://app?vid=1d7f8ff5-bcc8-4b92-a03a-ea3818b4617e","ios":"levelo://app?vid=1d7f8ff5-bcc8-4b92-a03a-ea3818b4617e"},"vehicle_type_id":"4","last_reported":1742058442,"current_range_meters":15200,"station_id":"ce4bh4p2rcd13ifvqe0g","pricing_plan_id":"cebpf4jnsgd1na2vs0mg"},{"bike_id":"b0258e7e-6227-4812-94a8-9b84bc254953","system_id":"levelo_inurba_marseille","lat":43.25455,"lon":5.37645,"is_reserved":false,"is_disabled":false,"rental_uris":{"android":"levelo://app?vid=b0258e7e-6227-4812-94a8-9b84bc254953","ios":"levelo://app?vid=b0258e7e-6227-4812-94a8-9b84bc254953"},"vehicle_type_id":"4","last_reported":1742058442,"current_range_meters":14800,"station_id":"ce4bhh12rcd13ifvqff0","pricing_plan_id":"cebpf4jnsgd1na2vs0mg"},{"bike_id":"8f447b10-dfd1-4a75-bb18-6702a6d0fa07","system_id":"levelo_inurba_marseille","lat":43.28406,"lon":5.34984,"is_reserved":false,"is_disabled":false,"rental_uris":{"android":"levelo://app?vid=8f447b10-dfd1-4a75-bb18-6702a6d0fa07","ios":"levelo://app?vid=8f447b10-dfd1-4a75-bb18-6702a6d0fa07"},"vehicle_type_id":"4","last_reported":1742058442,"current_range_meters":15200,"station_id":"ce4bhbh2rcd13ifvqepg","pricing_plan_id":"cebpf4jnsgd1na2vs0mg"},{"bike_id":"e047eb05-c84e-4eb9-a430-24d024850b6f","system_id":"levelo_inurba_marseille","lat":43.2293,"lon":5.35379,"is_reserved":false,"is_disabled":false,"rental_uris":{"android":"levelo://app?vid=e047eb05-c84e-4eb9-a430-24d024850b6f","ios":"levelo://app?vid=e047eb05-c84e-4eb9-a430-24d024850b6f"},"vehicle_type_id":"4","last_reported":1742058442,"current_range_meters":15200,"station_id":"cpo3532slgdg3j2ikp40","pricing_plan_id":"cebpf4jnsgd1na2vs0mg"},{"bike_id":"8ab9edd8-6981-49cf-81c4-f2cd24edf427","system_id":"levelo_inurba_marseille","lat":43.29498,"lon":5.39399,"is_reserved":false,"is_disabled":false,"rental_uris":{"android":"levelo://app?vid=8ab9edd8-6981-49cf-81c4-f2cd24edf427","ios":"levelo://app?vid=8ab9edd8-6981-49cf-81c4-f2cd24edf427"},"vehicle_type_id":"4","last_reported":1742058442,"current_range_meters":15200,"station_id":"ce4bh292rcd13ifvqdf0","pricing_plan_id":"cebpf4jnsgd1na2vs0mg"},{"bike_id":"865c01ff-048d-478a-9b3a-a6ddac1c1fee","system_id":"levelo_inurba_marseille","lat":43.2893,"lon":5.36625,"is_reserved":false,"is_disabled":false,"rental_uris":{"android":"levelo://app?vid=865c01ff-048d-478a-9b3a-a6ddac1c1fee","ios":"levelo://app?vid=865c01ff-048d-478a-9b3a-a6ddac1c1fee"},"vehicle_type_id":"4","last_reported":1742058442,"current_range_meters":16000,"station_id":"ce4bhap2rcd13ifvqek0","pricing_plan_id":"cebpf4jnsgd1na2vs0mg"},{"bike_id":"b881a216-a8e0-47ad-9c6d-ce879391627c","system_id":"levelo_inurba_marseille","lat":43.29972,"lon":5.3656,"is_reserved":false,"is_disabled":true,"rental_uris":{"android":"levelo://app?vid=b881a216-a8e0-47ad-9c6d-ce879391627c","ios":"levelo://app?vid=b881a216-a8e0-47ad-9c6d-ce879391627c"},"vehicle_type_id":"4","last_reported":1742058442,"current_range_meters":16000,"station_id":"ce4bgm92rcd13ifvqbr0","pricing_plan_id":"cebpf4jnsgd1na2vs0mg"},{"bike_id":"25944af7-ae55-45d4-952f-e856ccd2204b","system_id":"levelo_inurba_marseille","lat":43.28943,"lon":5.36638,"is_reserved":false,"is_disabled":false,"rental_uris":{"android":"levelo://app?vid=25944af7-ae55-45d4-952f-e856ccd2204b","ios":"levelo://app?vid=25944af7-ae55-45d4-952f-e856ccd2204b"},"vehicle_type_id":"4","last_reported":1742058442,"current_range_meters":16000,"station_id":"ce4bhap2rcd13ifvqek0","pricing_plan_id":"cebpf4jnsgd1na2vs0mg"},{"bike_id":"30a3f5aa-8adb-417a-a2c9-dedb0fb285b3","system_id":"levelo_inurba_marseille","lat":43.28973,"lon":5.37841,"is_reserved":false,"is_disabled":true,"rental_uris":{"android":"levelo://app?vid=30a3f5aa-8adb-417a-a2c9-dedb0fb285b3","ios":"levelo://app?vid=30a3f5aa-8adb-417a-a2c9-dedb0fb285b3"},"vehicle_type_id":"4","last_reported":1742058442,"current_range_meters":16000,"station_id":"ce4bh9p2rcd13ifvqed0","pricing_plan_id":"cebpf4jnsgd1na2vs0mg"},{"bike_id":"97d69f25-b190-4ba7-b5d7-4b015833e9cb","system_id":"levelo_inurba_marseille","lat":43.2861,"lon":5.37059,"is_reserved":false,"is_disabled":false,"rental_uris":{"android":"levelo://app?vid=97d69f25-b190-4ba7-b5d7-4b015833e9cb","ios":"levelo://app?vid=97d69f25-b190-4ba7-b5d7-4b015833e9cb"},"vehicle_type_id":"4","last_reported":1742058442,"current_range_meters":16800,"station_id":"ce4bht12rcd13ifvqi60","pricing_plan_id":"cebpf4jnsgd1na2vs0mg"},{"bike_id":"e82caed8-834e-44ca-90d0-cdd862345788","system_id":"levelo_inurba_marseille","lat":43.28448,"lon":5.39213,"is_reserved":false,"is_disabled":false,"rental_uris":{"android":"levelo://app?vid=e82caed8-834e-44ca-90d0-cdd862345788","ios":"levelo://app?vid=e82caed8-834e-44ca-90d0-cdd862345788"},"vehicle_type_id":"4","last_reported":1742058442,"current_range_meters":10800,"station_id":"ce4bhoh2rcd13ifvqh5g","pricing_plan_id":"cebpf4jnsgd1na2vs0mg"},{"bike_id":"57718a55-f9af-4d90-b11f-ce5ea39ab4f7","system_id":"levelo_inurba_marseille","lat":43.28399,"lon":5.3752,"is_reserved":false,"is_disabled":false,"rental_uris":{"android":"levelo://app?vid=57718a55-f9af-4d90-b11f-ce5ea39ab4f7","ios":"levelo://app?vid=57718a55-f9af-4d90-b11f-ce5ea39ab4f7"},"vehicle_type_id":"4","last_reported":1742058442,"current_range_meters":16000,"station_id":"ce4bh412rcd13ifvqds0","pricing_plan_id":"cebpf4jnsgd1na2vs0mg"},