{"last_updated":1723306182,"ttl":30,"version":"2.2","data":{"bikes":[{"bike_id":"56784d50-a343-4486-b93a-191ab4f10f1d","system_id":"levelo_inurba_marseille","lat":43.312239,"lon":5.368562,"is_reserved":false,"is_disabled":false,"rental_uris":{"android":"levelo://app?vid=56784d50-a343-4486-b93a-191ab4f10f1d","ios":"levelo://app?vid=56784d50-a343-4486-b93a-191ab4f10f1d"},"vehicle_type_id":"4","last_reported":1723306182,"current_range_meters":4000,"station_id":"ce4bgl92rcd13ifvqbq0","pricing_plan_id":"cebpf4jnsgd1na2vs0mg"},{"bike_id":"1d8cd8ae-7f98-4be9-8378-a49954575452","system_id":"levelo_inurba_marseille","lat":43.31282,"lon":5.36948,"is_reserved":false,"is_disabled":false,"rental_uris":{"android":"levelo://app?vid=1d8cd8ae-7f98-4be9-8378-a49954575452","ios":"levelo://app?vid=1d8cd8ae-7f98-4be9-8378-a49954575452"},"vehicle_type_id":"4","last_reported":1723306182,"current_range_meters":25600,"station_id":"","pricing_plan_id":"cebpf4jnsgd1na2vs0mg"},{"bike_id":"4c5f4ab7-3281-434f-95f9-c6c8c7962708","system_id":"levelo_inurba_marseille","lat":43.314811,"lon":5.373103,"is_reserved":false,"is_disabled":false,"rental_uris":{"android":"levelo://app?vid=4c5f4ab7-3281-434f-95f9-c6c8c7962708","ios":"levelo://app?vid=4c5f4ab7-3281-434f-95f9-c6c8c7962708"},"vehicle_type_id":"4","last_reported":1723306182,"current_range_meters":30000,"station_id":"ce4bgt12rcd13ifvqcd0","pricing_plan_id":"cebpf4jnsgd1na2vs0mg"},{"bike_id":"cad56d41-4938-4038-a511-748289d8a193","system_id":"levelo_inurba_marseille","lat":43.314811,"lon":5.373103,"is_reserved":false,"is_disabled":false,"rental_uris":{"android":"levelo://app?vid=cad56d41-4938-4038-a511-748289d8a193","ios":"levelo://app?vid=cad56d41-4938-4038-a511-748289d8a193"},"vehicle_type_id":"4","last_reported":1723306182,"current_range_meters":4800,"station_id":"ce4bgt12rcd13ifvqcd0","pricing_plan_id":"cebpf4jnsgd1na2vs0mg"},{"bike_id":"ba591130-bd50-4dc3-9572-9bb39680b17f","system_id":"levelo_inurba_marseille","lat":43.31502,"lon":5.3731,"is_reserved":false,"is_disabled":false,"rental_uris":{"android":"levelo://app?vid=ba591130-bd50-4dc3-9572-9bb39680b17f","ios":"levelo://app?vid=ba591130-bd50-4dc3-9572-9bb39680b17f"},"vehicle_type_id":"4","last_reported":1723306182,"current_range_meters":4400,"station_id":"ce4bgt12rcd13ifvqcd0","pricing_plan_id":"cebpf4jnsgd1na2vs0mg"},{"bike_id":"e32169bd-15db-4ff6-af27-8f7689dc3251","system_id":"levelo_inurba_marseille","lat":43.309039,"lon":5.371797,"is_reserved":false,"is_disabled":false,"rental_uris":{"android":"levelo://app?vid=e32169bd-15db-4ff6-af27-8f7689dc3251","ios":"levelo://app?vid=e32169bd-15db-4ff6-af27-8f7689dc3251"},"vehicle_type_id":"4","last_reported":1723306182,"current_range_meters":12400,"station_id":"ce4bguh2rcd13ifvqckg","pricing_plan_id":"cebpf4jnsgd1na2vs0mg"},{"bike_id":"cce40e97-7d06-4fda-a82b-7b98b1856fd3","system_id":"levelo_inurba_marseille","lat":43.309039,"lon":5.371797,"is_reserved":false,"is_disabled":false,"rental_uris":{"android":"levelo://app?vid=cce40e97-7d06-4fda-a82b-7b98b1856fd3","ios":"levelo://app?vid=cce40e97-7d06-4fda-a82b-7b98b1856fd3"},"vehicle_type_id":"4","last_reported":1723306182,"current_range_meters":20400,"station_id":"ce4bguh2rcd13ifvqckg","pricing_plan_id":"cebpf4jnsgd1na2vs0mg"},{"bike_id":"47374c42-0c27-4dbe-8963-6adef8a49ef0","system_id":"levelo_inurba_marseille","lat":43.311125,"lon":5.377624,"is_reserved":false,"is_disabled":false,"rental_uris":{"android":"levelo://app?vid=47374c42-0c27-4dbe-8963-6adef8a49ef0","ios":"levelo://app?vid=47374c42-0c27-4dbe-8963-6adef8a49ef0"},"vehicle_type_id":"4","last_reported":1723306182,"current_range_meters":0,"station_id":"ce4bgt92rcd13ifvqcg0","pricing_plan_id":"cebpf4jnsgd1na2vs0mg"},{"bike_id":"933f491e-8e34-4341-a8d9-5bc14bb43e6a","system_id":"levelo_inurba_marseille","lat":43.30315,"lon":5.369,"is_reserved":false,"is_disabled":false,"rental_uris":{"android":"levelo://app?vid=933f491e-8e34-4341-a8d9-5bc14bb43e6a","ios":"levelo://app?vid=933f491e-8e34-4341-a8d9-5bc14bb43e6a"},"vehicle_type_id":"4","last_reported":1723306182,"current_range_meters":0,"station_id":"ce4bgqh2rcd13ifvqc5g","pricing_plan_id":"cebpf4jnsgd1na2vs0mg"},{"bike_id":"b9af44e9-cef8-4efa-992c-28bb851ba967","system_id":"levelo_inurba_marseille","lat":43.324771,"lon":5.36557,"is_reserved":false,"is_disabled":false,"rental_uris":{"android":"levelo://app?vid=b9af44e9-cef8-4efa-992c-28bb851ba967","ios":"levelo://app?vid=b9af44e9-cef8-4efa-992c-28bb851ba967"},"vehicle_type_id":"4","last_reported":1723306182,"current_range_meters":2400,"station_id":"ce4bhs12rcd13ifvqhvg","pricing_plan_id":"cebpf4jnsgd1na2vs0mg"},{"bike_id":"192bc778-be1f-402d-b1df-16d7172e5519","system_id":"levelo_inurba_marseille","lat":43.31359,"lon":5.38283,"is_reserved":false,"is_disabled":false,"rental_uris":{"android":"levelo://app?vid=192bc778-be1f-402d-b1df-16d7172e5519","ios":"levelo://app?vid=192bc778-be1f-402d-b1df-16d7172e5519"},"vehicle_type_id":"4","last_reported":1723306182,"current_range_meters":0,"station_id":"","pricing_plan_id":"cebpf4jnsgd1na2vs0mg"},{"bike_id":"7f8dd3e9-c59a-4d57-b9b8-705085ad1edc","system_id":"levelo_inurba_marseille","lat":43.308012,"lon":5.381511,"is_reserved":false,"is_disabled":false,"rental_uris":{"android":"levelo://app?vid=7f8dd3e9-c59a-4d57-b9b8-705085ad1edc","ios":"levelo://app?vid=7f8dd3e9-c59a-4d57-b9b8-705085ad1edc"},"vehicle_type_id":"4","last_reported":1723306182,"current_range_meters":5200,"station_id":"ce4bgt12rcd13ifvqce0","pricing_plan_id":"cebpf4jnsgd1na2vs0mg"},{"bike_id":"acf5f1e8-de2b-41ca-8aa3-96936cfef668","system_id":"levelo_inurba_marseille","lat":43.31132,"lon":5.38323,"is_reserved":false,"is_disabled":false,"rental_uris":{"android":"levelo://app?vid=acf5f1e8-de2b-41ca-8aa3-96936cfef668","ios":"levelo://app?vid=acf5f1e8-de2b-41ca-8aa3-96936cfef668"},"vehicle_type_id":"4","last_reported":1723306182,"current_range_meters":400,"station_id":"","pricing_plan_id":"cebpf4jnsgd1na2vs0mg"},{"bike_id":"6cab3263-a302-4152-b3ad-fe0d53d28a56","system_id":"levelo_inurba_marseille","lat":43.304606,"lon":5.379026,"is_reserved":false,"is_disabled":false,"rental_uris":{"android":"levelo://app?vid=6cab3263-a302-4152-b3ad-fe0d53d28a56","ios":"levelo://app?vid=6cab3263-a302-4152-b3ad-fe0d53d28a56"},"vehicle_type_id":"4","last_reported":1723306182,"current_range_meters":14000,"station_id":"ce4bgup2rcd13ifvqcn0","pricing_plan_id":"cebpf4jnsgd1na2vs0mg"},{"bike_id":"24e773ea-cb74-474e-b30b-ecbc2c085ce2","system_id":"levelo_inurba_marseille","lat":43.304606,"lon":5.379026,"is_reserved":false,"is_disabled":false,"rental_uris":{"android":"levelo://app?vid=24e773ea-cb74-474e-b30b-ecbc2c085ce2","ios":"levelo://app?vid=24e773ea-cb74-474e-b30b-ecbc2c085ce2"},"vehicle_type_id":"4","last_reported":1723306182,"current_range_meters":2400,"station_id":"ce4bgup2rcd13ifvqcn0","pricing_plan_id":"cebpf4jnsgd1na2vs0mg"},{"bike_id":"eee0473b-958b-40b7-bb28-c27772b76968","system_id":"levelo_inurba_marseille","lat":43.324771,"lon":5.36557,"is_reserved":false,"is_disabled":false,"rental_uris":{"android":"levelo://app?vid=eee0473b-958b-40b7-bb28-c27772b76968","ios":"levelo://app?vid=eee0473b-958b-40b7-bb28-c27772b76968"},"vehicle_type_id":"4","last_reported":1723306182,"current_range_meters":27600,"station_id":"ce4bhs12rcd13ifvqhvg","pricing_plan_id":"cebpf4jnsgd1na2vs0mg"},{"bike_id":"dcc4de16-3142-4102-8588-2a43c66a27b2","system_id":"levelo_inurba_marseille","lat":43.302784,"lon":5.377158,"is_reserved":false,"is_disabled":false,"rental_uris":{"android":"levelo://app?vid=dcc4de16-3142-4102-8588-2a43c66a27b2","ios":"levelo://app?vid=dcc4de16-3142-4102-8588-2a43c66a27b2"},"vehicle_type_id":"4","last_reported":1723306182,"current_range_meters":7200,"station_id":"ce4bguh2rcd13ifvqcj0","pricing_plan_id":"cebpf4jnsgd1na2vs0mg"},{"bike_id":"fe811a3b-21ea-477b-a08d-1a42b3c92d04","system_id":"levelo_inurba_marseille","lat":43.301429,"lon":5.37413,"is_reserved":false,"is_disabled":false,"rental_uris":{"android":"levelo://app?vid=fe811a3b-21ea-477b-a08d-1a42b3c92d04","ios":"levelo://app?vid=fe811a3b-21ea-477b-a08d-1a42b3c92d04"},"vehicle_type_id":"4","last_reported":1723306182,"current_range_meters":0,"station_id":"ce4bgs92rcd13ifvqcc0","pricing_plan_id":"cebpf4jnsgd1na2vs0mg"},{"bike_id":"71a45b43-5b30-435f-bde8-5760eca9106d","system_id":"levelo_inurba_marseille","lat":43.30146,"lon":5.37419,"is_reserved":false,"is_disabled":false,"rental_uris":{"android":"levelo://app?vid=71a45b43-5b30-435f-bde8-5760eca9106d","ios":"levelo://app?vid=71a45b43-5b30-435f-bde8-5760eca9106d"},"vehicle_type_id":"4","last_reported":1723306182,"current_range_meters":4400,"station_id":"ce4bgs92rcd13ifvqcc0","pricing_plan_id":"cebpf4jnsgd1na2vs0mg"},{"bike_id":"673a3231-33cb-4c51-a8d0-af3d547f6ab0","system_id":"levelo_inurba_marseille","lat":43.3014,"lon":5.37422,"is_reserved":false,"is_disabled":false,"rental_uris":{"android":"levelo://app?vid=673a3231-33cb-4c51-a8d0-af3d547f6ab0","ios":"levelo://app?vid=673a3231-33cb-4c51-a8d0-af3d547f6ab0"},"vehicle_type_id":"4","last_reported":1723306182,"current_range_meters":9200,"station_id":"ce4bgs92rcd13ifvqcc0","pricing_plan_id":"cebpf4jnsgd1na2vs0mg"},{"bike_id":"691462ee-9971-4dff-8ec0-9113eed56bdf","system_id":"levelo_inurba_marseille","lat":43.298433,"lon":5.362774,"is_reserved":false,"is_disabled":false,"rental_uris":{"android":"levelo://app?vid=691462ee-9971-4dff-8ec0-9113eed56bdf","ios":"levelo://app?vid=691462ee-9971-4dff-8ec0-9113eed56bdf"},"vehicle_type_id":"4","last_reported":1723306182,"current_range_meters":0,"station_id":"ce4bgpp2rcd13ifvqc3g","pricing_plan_id":"cebpf4jnsgd1na2vs0mg"},{"bike_id":"0615c2c5-5c48-4547-9268-640adce8c632","system_id":"levelo_inurba_marseille","lat":43.305364,"lon":5.384119,"is_reserved":false,"is_disabled":false,"rental_uris":{"android":"levelo://app?vid=0615c2c5-5c48-4547-9268-640adce8c632","ios":"levelo://app?vid=0615c2c5-5c48-4547-9268-640adce8c632"},"vehicle_type_id":"4","last_reported":1723306182,"current_range_meters":19600,"station_id":"ce4bgg92rcd13ifvqb30","pricing_plan_id":"cebpf4jnsgd1na2vs0mg"},{"bike_id":"80f9f110-4ffc-4297-bf57-2bf2a710da39","system_id":"levelo_inurba_marseille","lat":43.32279,"lon":5.382733,"is_reserved":false,"is_disabled":false,"rental_uris":{"android":"levelo://app?vid=80f9f110-4ffc-4297-bf57-2bf2a710da39","ios":"levelo://app?vid=80f9f110-4ffc-4297-bf57-2bf2a710da39"},"vehicle_type_id":"4","last_reported":1723306182,"current_range_meters":14800,"station_id":"ce4bhr12rcd13ifvqhqg","pricing_plan_id":"cebpf4jnsgd1na2vs0mg"},{"bike_id":"216240ef-238f-48ba-bd26-5d1c9cf540df","system_id":"levelo_inurba_marseille","lat":43.31456,"lon":5.38784,"is_reserved":false,"is_disabled":false,"rental_uris":{"android":"levelo://app?vid=216240ef-238f-48ba-bd26-5d1c9cf540df","ios":"levelo://app?vid=216240ef-238f-48ba-bd26-5d1c9cf540df"},"vehicle_type_id":"4","last_reported":1723306182,"current_range_meters":0,"station_id":"","pricing_plan_id":"cebpf4jnsgd1na2vs0mg"},{"bike_id":"2a86115d-6e3a-4ab7-8bf1-3241a84f6549","system_id":"levelo_inurba_marseille","lat":43.322872,"lon":5.382756,"is_reserved":false,"is_disabled":false,"rental_uris":{"android":"levelo://app?vid=2a86115d-6e3a-4ab7-8bf1-3241a84f6549","ios":"levelo://app?vid=2a86115d-6e3a-4ab7-8bf1-3241a84f6549"},"vehicle_type_id":"4","last_reported":1723306182,"current_range_meters":0,"station_id":"ce4bhr12rcd13ifvqhqg","pricing_plan_id":"cebpf4jnsgd1na2vs0mg"},{"bike_id":"09e5d79b-31ea-46c7-be26-3ef693448c5b","system_id":"levelo_inurba_marseille","lat":43.32541,"lon":5.37892,"is_reserved":false,"is_disabled":false,"rental_uris":{"android":"levelo://app?vid=09e5d79b-31ea-46c7-be26-3ef693448c5b","ios":"levelo://app?vid=09e5d79b-31ea-46c7-be26-3ef693448c5b"},"vehicle_type_id":"4","last_reported":1723306182,"current_range_meters":19200,"station_id":"","pricing_plan_id":"cebpf4jnsgd1na2vs0mg"},{"bike_id":"813a9eb6-1f40-439e-9668-de72b8008bcc","system_id":"levelo_inurba_marseille","lat":43.2974,"lon":5.35937,"is_reserved":false,"is_disabled":false,"rental_uris":{"android":"levelo://app?vid=813a9eb6-1f40-439e-9668-de72b8008bcc","ios":"levelo://app?vid=813a9eb6-1f40-439e-9668-de72b8008bcc"},"vehicle_type_id":"4","last_reported":1723306182,"current_range_meters":7200,"station_id":"","pricing_plan_id":"cebpf4jnsgd1na2vs0mg"},{"bike_id":"e139852b-a0f0-493d-92d9-eaa708e5c32d","system_id":"levelo_inurba_marseille","lat":43.296131,"lon":5.370791,"is_reserved":false,"is_disabled":false,"rental_uris":{"android":"levelo://app?vid=e139852b-a0f0-493d-92d9-eaa708e5c32d","ios":"levelo://app?vid=e139852b-a0f0-493d-92d9-eaa708e5c32d"},"vehicle_type_id":"4","last_reported":1723306182,"current_range_meters":0,"station_id":"ce4bgnh2rcd13ifvqc0g","pricing_plan_id":"cebpf4jnsgd1na2vs0mg"},{"bike_id":"a487dfd1-24ce-4a1b-b70e-3961e424db68","system_id":"levelo_inurba_marseille","lat":43.296935,"lon":5.376544,"is_reserved":false,"is_disabled":false,"rental_uris":{"android":"levelo://app?vid=a487dfd1-24ce-4a1b-b70e-3961e424db68","ios":"levelo://app?vid=a487dfd1-24ce-4a1b-b70e-3961e424db68"},"vehicle_type_id":"4","last_reported":1723306182,"current_range_meters":0,"station_id":"ce4bgkh2rcd13ifvqbl0","pricing_plan_id":"cebpf4jnsgd1na2vs0mg"},{"bike_id":"b36c29b7-5e82-41eb-8164-c16f99bc7f4b","system_id":"levelo_inurba_marseille","lat":43.309589,"lon":5.390258,"is_reserved":false,"is_disabled":false,"rental_uris":{"android":"levelo://app?vid=b36c29b7-5e82-41eb-8164-c16f99bc7f4b","ios":"levelo://app?vid=b36c29b7-5e82-41eb-8164-c16f99bc7f4b"},"vehicle_type_id":"4","last_reported":1723306182,"current_range_meters":11200,"station_id":"ce4bgup2rcd13ifvqco0","pricing_plan_id":"cebpf4jnsgd1na2vs0mg"},{"bike_id":"302990e1-d79b-45d6-bbd6-dbc3c852f2e5","system_id":"levelo_inurba_marseille","lat":43.309589,"lon":5.390258,"is_reserved":false,"is_disabled":false,"rental_uris":{"android":"levelo://app?vid=302990e1-d79b-45d6-bbd6-dbc3c852f2e5","ios":"levelo://app?vid=302990e1-d79b-45d6-bbd6-dbc3c852f2e5"},"vehicle_type_id":"4","last_reported":1723306182,"current_range_meters":25600,"station_id":"ce4bgup2rcd13ifvqco0","pricing_plan_id":"cebpf4jnsgd1na2vs0mg"},{"bike_id":"c30afed9-af68-4726-8063-f30054d89dd8","system_id":"levelo_inurba_marseille","lat":43.322565,"lon":5.386868,"is_reserved":false,"is_disabled":false,"rental_uris":{"android":"levelo://app?vid=c30afed9-af68-4726-8063-f30054d89dd8","ios":"levelo://app?vid=c30afed9-af68-4726-8063-f30054d89dd8"},"vehicle_type_id":"4","last_reported":1723306182,"current_range_meters":18000,"station_id":"","pricing_plan_id":"cebpf4jnsgd1na2vs0mg"},{"bike_id":"4bfa0332-d227-4e9d-ba95-09c72fdef317","system_id":"levelo_inurba_marseille","lat":43.317557,"lon":5.390173,"is_reserved":false,"is_disabled":false,"rental_uris":{"android":"levelo://app?vid=4bfa0332-d227-4e9d-ba95-09c72fdef317","ios":"levelo://app?vid=4bfa0332-d227-4e9d-ba95-09c72fdef317"},"vehicle_type_id":"4","last_reported":1723306182,"current_range_meters":26400,"station_id":"ce4bhqp2rcd13ifvqhng","pricing_plan_id":"cebpf4jnsgd1na2vs0mg"},{"bike_id":"f1e85753-47e5-45ba-a742-3ff06e39fbd5","system_id":"levelo_inurba_marseille","lat":43.322627,"lon":5.386907,"is_reserved":false,"is_disabled":false,"rental_uris":{"android":"levelo://app?vid=f1e85753-47e5-45ba-a742-3ff06e39fbd5","ios":"levelo://app?vid=f1e85753-47e5-45ba-a742-3ff06e39fbd5"},"vehicle_type_id":"4","last_reported":1723306182,"current_range_meters":14800,"station_id":"","pricing_plan_id":"cebpf4jnsgd1na2vs0mg"},{"bike_id":"8fb064fa-8856-419b-b5b0-5286e7bd8dcf","system_id":"levelo_inurba_marseille","lat":43.29791,"lon":5.38087,"is_reserved":false,"is_disabled":false,"rental_uris":{"android":"levelo://app?vid=8fb064fa-8856-419b-b5b0-5286e7bd8dcf","ios":"levelo://app?vid=8fb064fa-8856-419b-b5b0-5286e7bd8dcf"},"vehicle_type_id":"4","last_reported":1723306182,"current_range_meters":0,"station_id":"ce4bgip2rcd13ifvqbb0","pricing_plan_id":"cebpf4jnsgd1na2vs0mg"},{"bike_id":"62f66670-7a63-43d9-90dc-39378a2e06cb","system_id":"levelo_inurba_marseille","lat":43.29575,"lon":5.37514,"is_reserved":false,"is_disabled":false,"rental_uris":{"android":"levelo://app?vid=62f66670-7a63-43d9-90dc-39378a2e06cb","ios":"levelo://app?vid=62f66670-7a63-43d9-90dc-39378a2e06cb"},"vehicle_type_id":"4","last_reported":1723306182,"current_range_meters":0,"station_id":"ce4bgh92rcd13ifvqb50","pricing_plan_id":"cebpf4jnsgd1na2vs0mg"},{"bike_id":"e14e64e0-f929-42b1-93ac-42483e27138e","system_id":"levelo_inurba_marseille","lat":43.304274,"lon":5.388873,"is_reserved":false,"is_disabled":false,"rental_uris":{"android":"levelo://app?vid=e14e64e0-f929-42b1-93ac-42483e27138e","ios":"levelo://app?vid=e14e64e0-f929-42b1-93ac-42483e27138e"},"vehicle_type_id":"4","last_reported":1723306182,"current_range_meters":12800,"station_id":"ce4bgk12rcd13ifvqbi0","pricing_plan_id":"cebpf4jnsgd1na2vs0mg"},{"bike_id":"fd570e76-9702-4136-82ca-eab7b511e42c","system_id":"levelo_inurba_marseille","lat":43.295748,"lon":5.37522,"is_reserved":false,"is_disabled":false,"rental_uris":{"android":"levelo://app?vid=fd570e76-9702-4136-82ca-eab7b511e42c","ios":"levelo://app?vid=fd570e76-9702-4136-82ca-eab7b511e42c"},"vehicle_type_id":"4","last_reported":1723306182,"current_range_meters":0,"station_id":"ce4bgh92rcd13ifvqb50","pricing_plan_id":"cebpf4jnsgd1na2vs0mg"},{"bike_id":"2163861f-3e00-480a-be5e-4fd7f19d28e0","system_id":"levelo_inurba_marseille","lat":43.295748,"lon":5.37522,"is_reserved":false,"is_disabled":false,"rental_uris":{"android":"levelo://app?vid=2163861f-3e00-480a-be5e-4fd7f19d28e0","ios":"levelo://app?vid=2163861f-3e00-480a-be5e-4fd7f19d28e0"},"vehicle_type_id":"4","last_reported":1723306182,"current_range_meters":0,"station_id":"ce4bgh92rcd13ifvqb50","pricing_plan_id":"cebpf4jnsgd1na2vs0mg"},{"bike_id":"19bae9b6-04bc-4eea-a43e-f49ae04d155c","system_id":"levelo_inurba_marseille","lat":43.296277,"lon":5.377108,"is_reserved":false,"is_disabled":false,"rental_uris":{"android":"levelo://app?vid=19bae9b6-04bc-4eea-a43e-f49ae04d155c","ios":"levelo://app?vid=19bae9b6-04bc-4eea-a43e-f49ae04d155c"},"vehicle_type_id":"4","last_reported":1723306182,"current_range_meters":0,"station_id":"ce4bgi92rcd13ifvqb90","pricing_plan_id":"cebpf4jnsgd1na2vs0mg"},{"bike_id":"ce153d49-da09-42a4-9db0-a1a39d799c24","system_id":"levelo_inurba_marseille","lat":43.296263,"lon":5.377094,"is_reserved":false,"is_disabled":false,"rental_uris":{"android":"levelo://app?vid=ce153d49-da09-42a4-9db0-a1a39d799c24","ios":"levelo://app?vid=ce153d49-da09-42a4-9db0-a1a39d799c24"},"vehicle_type_id":"4","last_reported":1723306182,"current_range_meters":27600,"station_id":"ce4bgi92rcd13ifvqb90","pricing_plan_id":"cebpf4jnsgd1na2vs0mg"},{"bike_id":"7e1fe4ce-ab38-4654-8ff8-63e7c579a355","system_id":"levelo_inurba_marseille","lat":43.2964,"lon":5.378543,"is_reserved":false,"is_disabled":false,"rental_uris":{"android":"levelo://app?vid=7e1fe4ce-ab38-4654-8ff8-63e7c579a355","ios":"levelo://app?vid=7e1fe4ce-ab38-4654-8ff8-63e7c579a355"},"vehicle_type_id":"4","last_reported":1723306182,"current_range_meters":14400,"station_id":"","pricing_plan_id":"cebpf4jnsgd1na2vs0mg"},{"bike_id":"177de02c-0949-4ccc-869c-67b9cbcf52c9","system_id":"levelo_inurba_marseille","lat":43.299707,"lon":5.384859,"is_reserved":false,"is_disabled":false,"rental_uris":{"android":"levelo://app?vid=177de02c-0949-4ccc-869c-67b9cbcf52c9","ios":"levelo://app?vid=177de02c-0949-4ccc-869c-67b9cbcf52c9"},"vehicle_type_id":"4","last_reported":1723306182,"current_range_meters":0,"station_id":"ce4bgj92rcd13ifvqbd0","pricing_plan_id":"cebpf4jnsgd1na2vs0mg"},{"bike_id":"e3201a85-5419-4638-af84-5a7909486569","system_id":"levelo_inurba_marseille","lat":43.32367,"lon":5.388836,"is_reserved":false,"is_disabled":false,"rental_uris":{"android":"levelo://app?vid=e3201a85-5419-4638-af84-5a7909486569","ios":"levelo://app?vid=e3201a85-5419-4638-af84-5a7909486569"},"vehicle_type_id":"4","last_reported":1723306182,"current_range_meters":16800,"station_id":"ce4bhqp2rcd13ifvqhog","pricing_plan_id":"cebpf4jnsgd1na2vs0mg"},{"bike_id":"663588b5-3f30-4d06-99ef-07896cfa4e4e","system_id":"levelo_inurba_marseille","lat":43.32367,"lon":5.388836,"is_reserved":false,"is_disabled":false,"rental_uris":{"android":"levelo://app?vid=663588b5-3f30-4d06-99ef-07896cfa4e4e","ios":"levelo://app?vid=663588b5-3f30-4d06-99ef-07896cfa4e4e"},"vehicle_type_id":"4","last_reported":1723306182,"current_range_meters":20400,"station_id":"ce4bhqp2rcd13ifvqhog","pricing_plan_id":"cebpf4jnsgd1na2vs0mg"},{"bike_id":"feb0b061-c001-4219-8e37-541c3492fed7","system_id":"levelo_inurba_marseille","lat":43.29601,"lon":5.381084,"is_reserved":false,"is_disabled":false,"rental_uris":{"android":"levelo://app?vid=feb0b061-c001-4219-8e37-541c3492fed7","ios":"levelo://app?vid=feb0b061-c001-4219-8e37-541c3492fed7"},"vehicle_type_id":"4","last_reported":1723306182,"current_range_meters":21600,"station_id":"ce4bgl12rcd13ifvqbo0","pricing_plan_id":"cebpf4jnsgd1na2vs0mg"},{"bike_id":"23949995-c082-4641-b949-9d2000457f7a","system_id":"levelo_inurba_marseille","lat":43.32385,"lon":5.38923,"is_reserved":false,"is_disabled":false,"rental_uris":{"android":"levelo://app?vid=23949995-c082-4641-b949-9d2000457f7a","ios":"levelo://app?vid=23949995-c082-4641-b949-9d2000457f7a"},"vehicle_type_id":"4","last_reported":1723306182,"current_range_meters":0,"station_id":"ce4bhqp2rcd13ifvqhog","pricing_plan_id":"cebpf4jnsgd1na2vs0mg"},{"bike_id":"9b552e8d-d000-4cb8-b4a4-e2048a3097b6","system_id":"levelo_inurba_marseille","lat":43.292749,"lon":5.368402,"is_reserved":false,"is_disabled":false,"rental_uris":{"android":"levelo://app?vid=9b552e8d-d000-4cb8-b4a4-e2048a3097b6","ios":"levelo://app?vid=9b552e8d-d000-4cb8-b4a4-e2048a3097b6"},"vehicle_type_id":"4","last_reported":1723306182,"current_range_meters":0,"station_id":"ce4bhbp2rcd13ifvqesg","pricing_plan_id":"cebpf4jnsgd1na2vs0mg"},{"bike_id":"35a8039c-0204-4cff-af15-83d55e252839","system_id":"levelo_inurba_marseille","lat":43.293009,"lon":5.374584,"is_reserved":false,"is_disabled":false,"rental_uris":{"android":"levelo://app?vid=35a8039c-0204-4cff-af15-83d55e252839","ios":"levelo://app?vid=35a8039c-0204-4cff-af15-83d55e252839"},"vehicle_type_id":"4","last_reported":1723306182,"current_range_meters":9200,"station_id":"ce4bgi12rcd13ifvqb70","pricing_plan_id":"cebpf4jnsgd1na2vs0mg"},{"bike_id":"db48cc6a-02f0-45ed-aba3-1dab4104ab69","system_id":"levelo_inurba_marseille","lat":43.293009,"lon":5.374584,"is_reserved":false,"is_disabled":false,"rental_uris":{"android":"levelo://app?vid=db48cc6a-02f0-45ed-aba3-1dab4104ab69","ios":"levelo://app?vid=db48cc6a-02f0-45ed-aba3-1dab4104ab69"},"vehicle_type_id":"4","last_reported":1723306182,"current_range_meters":14400,"station_id":"ce4bgi12rcd13ifvqb70","pricing_plan_id":"cebpf4jnsgd1na2vs0mg"},{"bike_id":"8d37495d-9961-45f8-ba67-ee81725ae3ae","system_id":"levelo_inurba_marseille","lat":43.29228,"lon":5.36363,"is_reserved":false,"is_disabled":false,"rental_uris":{"android":"levelo://app?vid=8d37495d-9961-45f8-ba67-ee81725ae3ae","ios":"levelo://app?vid=8d37495d-9961-45f8-ba67-ee81725ae3ae"},"vehicle_type_id":"4","last_reported":1723306182,"current_range_meters":8400,"station_id":"","pricing_plan_id":"cebpf4jnsgd1na2vs0mg"},{"bike_id":"11911e8b-ff3c-4fa3-b26e-6058a44d36b2","system_id":"levelo_inurba_marseille","lat":43.293009,"lon":5.374584,"is_reserved":false,"is_disabled":false,"rental_uris":{"android":"levelo://app?vid=11911e8b-ff3c-4fa3-b26e-6058a44d36b2","ios":"levelo://app?vid=11911e8b-ff3c-4fa3-b26e-6058a44d36b2"},"vehicle_type_id":"4","last_reported":1723306182,"current_range_meters":8000,"station_id":"ce4bgi12rcd13ifvqb70","pricing_plan_id":"cebpf4jnsgd1na2vs0mg"},{"bike_id":"0cef5b1d-7e73-499e-ac3f-18d46cc5716b","system_id":"levelo_inurba_marseille","lat":43.29291,"lon":5.37476,"is_reserved":false,"is_disabled":false,"rental_uris":{"android":"levelo://app?vid=0cef5b1d-7e73-499e-ac3f-18d46cc5716b","ios":"levelo://app?vid=0cef5b1d-7e73-499e-ac3f-18d46cc5716b"},"vehicle_type_id":"4","last_reported":1723306182,"current_range_meters":0,"station_id":"ce4bgi12rcd13ifvqb70","pricing_plan_id":"cebpf4jnsgd1na2vs0mg"},{"bike_id":"427dc301-d568-4e34-81e4-258870659847","system_id":"levelo_inurba_marseille","lat":43.303002,"lon":5.392142,"is_reserved":false,"is_disabled":false,"rental_uris":{"android":"levelo://app?vid=427dc301-d568-4e34-81e4-258870659847","ios":"levelo://app?vid=427dc301-d568-4e34-81e4-258870659847"},"vehicle_type_id":"4","last_reported":1723306182,"current_range_meters":9600,"station_id":"ce4bgkh2rcd13ifvqbk0","pricing_plan_id":"cebpf4jnsgd1na2vs0mg"},{"bike_id":"a57c3345-ff41-499a-af1c-8a91dfa46b4a","system_id":"levelo_inurba_marseille","lat":43.2936,"lon":5.37835,"is_reserved":false,"is_disabled":false,"rental_uris":{"android":"levelo://app?vid=a57c3345-ff41-499a-af1c-8a91dfa46b4a","ios":"levelo://app?vid=a57c3345-ff41-499a-af1c-8a91dfa46b4a"},"vehicle_type_id":"4","last_reported":1723306182,"current_range_meters":25200,"station_id":"ce4bgjh2rcd13ifvqbf0","pricing_plan_id":"cebpf4jnsgd1na2vs0mg"},{"bike_id":"1094ab1c-bcc1-4175-a39d-9caa5a9ce269","system_id":"levelo_inurba_marseille","lat":43.2936,"lon":5.37835,"is_reserved":false,"is_disabled":false,"rental_uris":{"android":"levelo://app?vid=1094ab1c-bcc1-4175-a39d-9caa5a9ce269","ios":"levelo://app?vid=1094ab1c-bcc1-4175-a39d-9caa5a9ce269"},"vehicle_type_id":"4","last_reported":1723306182,"current_range_meters":6000,"station_id":"ce4bgjh2rcd13ifvqbf0","pricing_plan_id":"cebpf4jnsgd1na2vs0mg"},{"bike_id":"530e10c9-5516-426c-9d51-b6e7d4f0a74e","system_id":"levelo_inurba_marseille","lat":43.29225,"lon":5.36059,"is_reserved":false,"is_disabled":false,"rental_uris":{"android":"levelo://app?vid=530e10c9-5516-426c-9d51-b6e7d4f0a74e","ios":"levelo://app?vid=530e10c9-5516-426c-9d51-b6e7d4f0a74e"},"vehicle_type_id":"4","last_reported":1723306182,"current_range_meters":26000,"station_id":"","pricing_plan_id":"cebpf4jnsgd1na2vs0mg"},{"bike_id":"ef4933a6-600f-4b57-9fc2-76ce69bedc0c","system_id":"levelo_inurba_marseille","lat":43.292311,"lon":5.360731,"is_reserved":false,"is_disabled":false,"rental_uris":{"android":"levelo://app?vid=ef4933a6-600f-4b57-9fc2-76ce69bedc0c","ios":"levelo://app?vid=ef4933a6-600f-4b57-9fc2-76ce69bedc0c"},"vehicle_type_id":"4","last_reported":1723306182,"current_range_meters":0,"station_id":"ce4bhbh2rcd13ifvqeqg","pricing_plan_id":"cebpf4jnsgd1na2vs0mg"},{"bike_id":"8d549378-7796-438a-8564-77b59b106460","system_id":"levelo_inurba_marseille","lat":43.292311,"lon":5.360731,"is_reserved":false,"is_disabled":false,"rental_uris":{"android":"levelo://app?vid=8d549378-7796-438a-8564-77b59b106460","ios":"levelo://app?vid=8d549378-7796-438a-8564-77b59b106460"},"vehicle_type_id":"4","last_reported":1723306182,"current_range_meters":0,"station_id":"ce4bhbh2rcd13ifvqeqg","pricing_plan_id":"cebpf4jnsgd1na2vs0mg"},{"bike_id":"5deb6e7b-991e-4669-a6b2-50a0b233255a","system_id":"levelo_inurba_marseille","lat":43.29222,"lon":5.36061,"is_reserved":false,"is_disabled":false,"rental_uris":{"android":"levelo://app?vid=5deb6e7b-991e-4669-a6b2-50a0b233255a","ios":"levelo://app?vid=5deb6e7b-991e-4669-a6b2-50a0b233255a"},"vehicle_type_id":"4","last_reported":1723306182,"current_range_meters":0,"station_id":"ce4bhbh2rcd13ifvqeqg","pricing_plan_id":"cebpf4jnsgd1na2vs0mg"},{"bike_id":"7ecaf2b4-5d09-449c-aad2-2fcf0c3b4f32","system_id":"levelo_inurba_marseille","lat":43.292311,"lon":5.360731,"is_reserved":false,"is_disabled":false,"rental_uris":{"android":"levelo://app?vid=7ecaf2b4-5d09-449c-aad2-2fcf0c3b4f32","ios":"levelo://app?vid=7ecaf2b4-5d09-449c-aad2-2fcf0c3b4f32"},"vehicle_type_id":"4","last_reported":1723306182,"current_range_meters":25200,"station_id":"ce4bhbh2rcd13ifvqeqg","pricing_plan_id":"cebpf4jnsgd1na2vs0mg"},{"bike_id":"c65ca9d0-32fb-4934-b307-2f2da6883473","system_id":"levelo_inurba_marseille","lat":43.293009,"lon":5.374584,"is_reserved":false,"is_disabled":false,"rental_uris":{"android":"levelo://app?vid=c65ca9d0-32fb-4934-b307-2f2da6883473","ios":"levelo://app?vid=c65ca9d0-32fb-4934-b307-2f2da6883473"},"vehicle_type_id":"4","last_reported":1723306182,"current_range_meters":17600,"station_id":"ce4bgi12rcd13ifvqb70","pricing_plan_id":"cebpf4jnsgd1na2vs0mg"},{"bike_id":"5ceddecc-85be-4383-af7a-665e1255889b","system_id":"levelo_inurba_marseille","lat":43.28856,"lon":5.358371,"is_reserved":false,"is_disabled":false,"rental_uris":{"android":"levelo://app?vid=5ceddecc-85be-4383-af7a-665e1255889b","ios":"levelo://app?vid=5ceddecc-85be-4383-af7a-665e1255889b"},"vehicle_type_id":"4","last_reported":1723306182,"current_range_meters":0,"station_id":"ce4bhb12rcd13ifvqem0","pricing_plan_id":"cebpf4jnsgd1na2vs0mg"},{"bike_id":"8669c215-f64f-4991-918a-38e605b47e3d","system_id":"levelo_inurba_marseille","lat":43.292887,"lon":5.355623,"is_reserved":false,"is_disabled":false,"rental_uris":{"android":"levelo://app?vid=8669c215-f64f-4991-918a-38e605b47e3d","ios":"levelo://app?vid=8669c215-f64f-4991-918a-38e605b47e3d"},"vehicle_type_id":"4","last_reported":1723306182,"current_range_meters":7200,"station_id":"","pricing_plan_id":"cebpf4jnsgd1na2vs0mg"},{"bike_id":"dbc65527-3086-4b5e-a0d8-e41121b9d7c9","system_id":"levelo_inurba_marseille","lat":43.29198,"lon":5.35796,"is_reserved":false,"is_disabled":false,"rental_uris":{"android":"levelo://app?vid=dbc65527-3086-4b5e-a0d8-e41121b9d7c9","ios":"levelo://app?vid=dbc65527-3086-4b5e-a0d8-e41121b9d7c9"},"vehicle_type_id":"4","last_reported":1723306182,"current_range_meters":0,"station_id":"ce4bhb12rcd13ifvqel0","pricing_plan_id":"cebpf4jnsgd1na2vs0mg"},{"bike_id":"323a2bfc-be1f-4af1-877c-9c9a7ce8d780","system_id":"levelo_inurba_marseille","lat":43.291994,"lon":5.357886,"is_reserved":false,"is_disabled":false,"rental_uris":{"android":"levelo://app?vid=323a2bfc-be1f-4af1-877c-9c9a7ce8d780","ios":"levelo://app?vid=323a2bfc-be1f-4af1-877c-9c9a7ce8d780"},"vehicle_type_id":"4","last_reported":1723306182,"current_range_meters":12800,"station_id":"ce4bhb12rcd13ifvqel0","pricing_plan_id":"cebpf4jnsgd1na2vs0mg"},{"bike_id":"9d4b68a5-c93f-4844-a235-5ff4a055b660","system_id":"levelo_inurba_marseille","lat":43.292385,"lon":5.37767,"is_reserved":false,"is_disabled":false,"rental_uris":{"android":"levelo://app?vid=9d4b68a5-c93f-4844-a235-5ff4a055b660","ios":"levelo://app?vid=9d4b68a5-c93f-4844-a235-5ff4a055b660"},"vehicle_type_id":"4","last_reported":1723306182,"current_range_meters":11200,"station_id":"","pricing_plan_id":"cebpf4jnsgd1na2vs0mg"},{"bike_id":"55228f99-36bb-4d6b-ab2e-baf625b21622","system_id":"levelo_inurba_marseille","lat":43.29529,"lon":5.385581,"is_reserved":false,"is_disabled":false,"rental_uris":{"android":"levelo://app?vid=55228f99-36bb-4d6b-ab2e-baf625b21622","ios":"levelo://app?vid=55228f99-36bb-4d6b-ab2e-baf625b21622"},"vehicle_type_id":"4","last_reported":1723306182,"current_range_meters":0,"station_id":"ce4bgih2rcd13ifvqba0","pricing_plan_id":"cebpf4jnsgd1na2vs0mg"},{"bike_id":"b4d462b5-819c-4d69-9520-aec8e77d3892","system_id":"levelo_inurba_marseille","lat":43.29529,"lon":5.385581,"is_reserved":false,"is_disabled":false,"rental_uris":{"android":"levelo://app?vid=b4d462b5-819c-4d69-9520-aec8e77d3892","ios":"levelo://app?vid=b4d462b5-819c-4d69-9520-aec8e77d3892"},"vehicle_type_id":"4","last_reported":1723306182,"current_range_meters":0,"station_id":"ce4bgih2rcd13ifvqba0","pricing_plan_id":"cebpf4jnsgd1na2vs0mg"},{"bike_id":"3e9c93d2-b732-4b84-b75d-d463e7ba96ad","system_id":"levelo_inurba_marseille","lat":43.302008,"lon":5.394694,"is_reserved":false,"is_disabled":false,"rental_uris":{"android":"levelo://app?vid=3e9c93d2-b732-4b84-b75d-d463e7ba96ad","ios":"levelo://app?vid=3e9c93d2-b732-4b84-b75d-d463e7ba96ad"},"vehicle_type_id":"4","last_reported":1723306182,"current_range_meters":20000,"station_id":"ce4bh0p2rcd13ifvqd70","pricing_plan_id":"cebpf4jnsgd1na2vs0mg"},{"bike_id":"9319951f-ac54-48ba-a881-38837b9a9855","system_id":"levelo_inurba_marseille","lat":43.33519,"lon":5.36161,"is_reserved":false,"is_disabled":false,"rental_uris":{"android":"levelo://app?vid=9319951f-ac54-48ba-a881-38837b9a9855","ios":"levelo://app?vid=9319951f-ac54-48ba-a881-38837b9a9855"},"vehicle_type_id":"4","last_reported":1723306182,"current_range_meters":18000,"station_id":"","pricing_plan_id":"cebpf4jnsgd1na2vs0mg"},{"bike_id":"3bab7148-87a7-49be-83b0-5055823c31f4","system_id":"levelo_inurba_marseille","lat":43.290624,"lon":5.359245,"is_reserved":false,"is_disabled":false,"rental_uris":{"android":"levelo://app?vid=3bab7148-87a7-49be-83b0-5055823c31f4","ios":"levelo://app?vid=3bab7148-87a7-49be-83b0-5055823c31f4"},"vehicle_type_id":"4","last_reported":1723306182,"current_range_meters":24400,"station_id":"ce4bha92rcd13ifvqeg0","pricing_plan_id":"cebpf4jnsgd1na2vs0mg"},{"bike_id":"2b933d03-876a-4956-b7eb-016aa14c189f","system_id":"levelo_inurba_marseille","lat":43.290624,"lon":5.359245,"is_reserved":false,"is_disabled":false,"rental_uris":{"android":"levelo://app?vid=2b933d03-876a-4956-b7eb-016aa14c189f","ios":"levelo://app?vid=2b933d03-876a-4956-b7eb-016aa14c189f"},"vehicle_type_id":"4","last_reported":1723306182,"current_range_meters":17600,"station_id":"ce4bha92rcd13ifvqeg0","pricing_plan_id":"cebpf4jnsgd1na2vs0mg"},{"bike_id":"184fa307-4fe0-4557-a64b-a68b93b9be66","system_id":"levelo_inurba_marseille","lat":43.290624,"lon":5.359245,"is_reserved":false,"is_disabled":false,"rental_uris":{"android":"levelo://app?vid=184fa307-4fe0-4557-a64b-a68b93b9be66","ios":"levelo://app?vid=184fa307-4fe0-4557-a64b-a68b93b9be66"},"vehicle_type_id":"4","last_reported":1723306182,"current_range_meters":0,"station_id":"ce4bha92rcd13ifvqeg0","pricing_plan_id":"cebpf4jnsgd1na2vs0mg"},{"bike_id":"6352cf11-7d11-48a7-99bd-61db877548c9","system_id":"levelo_inurba_marseille","lat":43.290631,"lon":5.359244,"is_reserved":false,"is_disabled":false,"rental_uris":{"android":"levelo://app?vid=6352cf11-7d11-48a7-99bd-61db877548c9","ios":"levelo://app?vid=6352cf11-7d11-48a7-99bd-61db877548c9"},"vehicle_type_id":"4","last_reported":1723306182,"current_range_meters":26000,"station_id":"ce4bha92rcd13ifvqeg0","pricing_plan_id":"cebpf4jnsgd1na2vs0mg"},{"bike_id":"696c90d5-e87a-4a4f-893a-c76ff60ac581","system_id":"levelo_inurba_marseille","lat":43.294153,"lon":5.386305,"is_reserved":false,"is_disabled":false,"rental_uris":{"android":"levelo://app?vid=696c90d5-e87a-4a4f-893a-c76ff60ac581","ios":"levelo://app?vid=696c90d5-e87a-4a4f-893a-c76ff60ac581"},"vehicle_type_id":"4","last_reported":1723306182,"current_range_meters":0,"station_id":"ce4bh2h2rcd13ifvqdh0","pricing_plan_id":"cebpf4jnsgd1na2vs0mg"},{"bike_id":"71306595-9bb5-4a74-88b2-6606adb43e2d","system_id":"levelo_inurba_marseille","lat":43.28947,"lon":5.36635,"is_reserved":false,"is_disabled":false,"rental_uris":{"android":"levelo://app?vid=71306595-9bb5-4a74-88b2-6606adb43e2d","ios":"levelo://app?vid=71306595-9bb5-4a74-88b2-6606adb43e2d"},"vehicle_type_id":"4","last_reported":1723306182,"current_range_meters":0,"station_id":"ce4bhap2rcd13ifvqek0","pricing_plan_id":"cebpf4jnsgd1na2vs0mg"},{"bike_id":"e082e9ba-c9d5-4e0e-9031-4cb90b0e77b7","system_id":"levelo_inurba_marseille","lat":43.289184,"lon":5.366408,"is_reserved":false,"is_disabled":false,"rental_uris":{"android":"levelo://app?vid=e082e9ba-c9d5-4e0e-9031-4cb90b0e77b7","ios":"levelo://app?vid=e082e9ba-c9d5-4e0e-9031-4cb90b0e77b7"},"vehicle_type_id":"4","last_reported":1723306182,"current_range_meters":0,"station_id":"ce4bhap2rcd13ifvqek0","pricing_plan_id":"cebpf4jnsgd1na2vs0mg"},{"bike_id":"be5c43d2-b2a0-4b71-add4-566dd8e29e8f","system_id":"levelo_inurba_marseille","lat":43.289184,"lon":5.366408,"is_reserved":false,"is_disabled":false,"rental_uris":{"android":"levelo://app?vid=be5c43d2-b2a0-4b71-add4-566dd8e29e8f","ios":"levelo://app?vid=be5c43d2-b2a0-4b71-add4-566dd8e29e8f"},"vehicle_type_id":"4","last_reported":1723306182,"current_range_meters":2400,"station_id":"ce4bhap2rcd13ifvqek0","pricing_plan_id":"cebpf4jnsgd1na2vs0mg"},{"bike_id":"392a0850-38c8-4578-bd49-0a1733c09f17","system_id":"levelo_inurba_marseille","lat":43.289184,"lon":5.366408,"is_reserved":false,"is_disabled":false,"rental_uris":{"android":"levelo://app?vid=392a0850-38c8-4578-bd49-0a1733c09f17","ios":"levelo://app?vid=392a0850-38c8-4578-bd49-0a1733c09f17"},"vehicle_type_id":"4","last_reported":1723306182,"current_range_meters":400,"station_id":"ce4bhap2rcd13ifvqek0","pricing_plan_id":"cebpf4jnsgd1na2vs0mg"},{"bike_id":"85d729e7-de1a-4b67-8496-d9fa51e44a7f","system_id":"levelo_inurba_marseille","lat":43.290327,"lon":5.375711,"is_reserved":false,"is_disabled":false,"rental_uris":{"android":"levelo://app?vid=85d729e7-de1a-4b67-8496-d9fa51e44a7f","ios":"levelo://app?vid=85d729e7-de1a-4b67-8496-d9fa51e44a7f"},"vehicle_type_id":"4","last_reported":1723306182,"current_range_meters":0,"station_id":"ce4bh692rcd13ifvqe90","pricing_plan_id":"cebpf4jnsgd1na2vs0mg"},{"bike_id":"4d65e709-b0b4-46c5-bbc5-ca2aa7a2c88f","system_id":"levelo_inurba_marseille","lat":43.289184,"lon":5.366408,"is_reserved":false,"is_disabled":false,"rental_uris":{"android":"levelo://app?vid=4d65e709-b0b4-46c5-bbc5-ca2aa7a2c88f","ios":"levelo://app?vid=4d65e709-b0b4-46c5-bbc5-ca2aa7a2c88f"},"vehicle_type_id":"4","last_reported":1723306182,"current_range_meters":9200,"station_id":"ce4bhap2rcd13ifvqek0","pricing_plan_id":"cebpf4jnsgd1na2vs0mg"},{"bike_id":"2c64821a-83e0-4d3c-8733-65d9f7517fdf","system_id":"levelo_inurba_marseille","lat":43.28939,"lon":5.36642,"is_reserved":false,"is_disabled":false,"rental_uris":{"android":"levelo://app?vid=2c64821a-83e0-4d3c-8733-65d9f7517fdf","ios":"levelo://app?vid=2c64821a-83e0-4d3c-8733-65d9f7517fdf"},"vehicle_type_id":"4","last_reported":1723306182,"current_range_meters":14800,"station_id":"ce4bhap2rcd13ifvqek0","pricing_plan_id":"cebpf4jnsgd1na2vs0mg"},{"bike_id":"95d3b122-3f09-4187-a8de-8af109748549","system_id":"levelo_inurba_marseille","lat":43.289468,"lon":5.363719,"is_reserved":false,"is_disabled":false,"rental_uris":{"android":"levelo://app?vid=95d3b122-3f09-4187-a8de-8af109748549","ios":"levelo://app?vid=95d3b122-3f09-4187-a8de-8af109748549"},"vehicle_type_id":"4","last_reported":1723306182,"current_range_meters":7200,"station_id":"ce4bhc92rcd13ifvqetg","pricing_plan_id":"cebpf4jnsgd1na2vs0mg"},{"bike_id":"72e547d3-a581-43db-ad52-a42dcb097774","system_id":"levelo_inurba_marseille","lat":43.292644,"lon":5.384257,"is_reserved":false,"is_disabled":false,"rental_uris":{"android":"levelo://app?vid=72e547d3-a581-43db-ad52-a42dcb097774","ios":"levelo://app?vid=72e547d3-a581-43db-ad52-a42dcb097774"},"vehicle_type_id":"4","last_reported":1723306182,"current_range_meters":0,"station_id":"ce4bh692rcd13ifvqea0","pricing_plan_id":"cebpf4jnsgd1na2vs0mg"},{"bike_id":"b32e8af1-66b0-4d1a-9446-fc269cb47ebc","system_id":"levelo_inurba_marseille","lat":43.292642,"lon":5.384254,"is_reserved":false,"is_disabled":false,"rental_uris":{"android":"levelo://app?vid=b32e8af1-66b0-4d1a-9446-fc269cb47ebc","ios":"levelo://app?vid=b32e8af1-66b0-4d1a-9446-fc269cb47ebc"},"vehicle_type_id":"4","last_reported":1723306182,"current_range_meters":21200,"station_id":"ce4bh692rcd13ifvqea0","pricing_plan_id":"cebpf4jnsgd1na2vs0mg"},{"bike_id":"84f24b38-c563-4cd6-957e-4818275d9a0b","system_id":"levelo_inurba_marseille","lat":43.304296,"lon":5.397513,"is_reserved":false,"is_disabled":false,"rental_uris":{"android":"levelo://app?vid=84f24b38-c563-4cd6-957e-4818275d9a0b","ios":"levelo://app?vid=84f24b38-c563-4cd6-957e-4818275d9a0b"},"vehicle_type_id":"4","last_reported":1723306182,"current_range_meters":20000,"station_id":"ce4bh092rcd13ifvqd20","pricing_plan_id":"cebpf4jnsgd1na2vs0mg"},{"bike_id":"b09b0101-fadf-4949-b4da-09098ddca3c4","system_id":"levelo_inurba_marseille","lat":43.292644,"lon":5.384257,"is_reserved":false,"is_disabled":false,"rental_uris":{"android":"levelo://app?vid=b09b0101-fadf-4949-b4da-09098ddca3c4","ios":"levelo://app?vid=b09b0101-fadf-4949-b4da-09098ddca3c4"},"vehicle_type_id":"4","last_reported":1723306182,"current_range_meters":0,"station_id":"ce4bh692rcd13ifvqea0","pricing_plan_id":"cebpf4jnsgd1na2vs0mg"},{"bike_id":"40e4f2c3-73a0-431c-bd64-b487e2bf59cd","system_id":"levelo_inurba_marseille","lat":43.292642,"lon":5.384254,"is_reserved":false,"is_disabled":false,"rental_uris":{"android":"levelo://app?vid=40e4f2c3-73a0-431c-bd64-b487e2bf59cd","ios":"levelo://app?vid=40e4f2c3-73a0-431c-bd64-b487e2bf59cd"},"vehicle_type_id":"4","last_reported":1723306182,"current_range_meters":11600,"station_id":"ce4bh692rcd13ifvqea0","pricing_plan_id":"cebpf4jnsgd1na2vs0mg"},{"bike_id":"0495f899-41cb-4b2a-b847-7b830a69bfdc","system_id":"levelo_inurba_marseille","lat":43.290104,"lon":5.356111,"is_reserved":false,"is_disabled":false,"rental_uris":{"android":"levelo://app?vid=0495f899-41cb-4b2a-b847-7b830a69bfdc","ios":"levelo://app?vid=0495f899-41cb-4b2a-b847-7b830a69bfdc"},"vehicle_type_id":"4","last_reported":1723306182,"current_range_meters":3600,"station_id":"ce4bhb92rcd13ifvqen0","pricing_plan_id":"cebpf4jnsgd1na2vs0mg"},{"bike_id":"e4c0c972-9f47-49e4-a9f0-7c856997ab9f","system_id":"levelo_inurba_marseille","lat":43.290103,"lon":5.356114,"is_reserved":false,"is_disabled":false,"rental_uris":{"android":"levelo://app?vid=e4c0c972-9f47-49e4-a9f0-7c856997ab9f","ios":"levelo://app?vid=e4c0c972-9f47-49e4-a9f0-7c856997ab9f"},"vehicle_type_id":"4","last_reported":1723306182,"current_range_meters":0,"station_id":"ce4bhb92rcd13ifvqen0","pricing_plan_id":"cebpf4jnsgd1na2vs0mg"},{"bike_id":"583acfd7-a5ed-4d2e-bfab-21a8a4defb15","system_id":"levelo_inurba_marseille","lat":43.29007,"lon":5.35611,"is_reserved":false,"is_disabled":false,"rental_uris":{"android":"levelo://app?vid=583acfd7-a5ed-4d2e-bfab-21a8a4defb15","ios":"levelo://app?vid=583acfd7-a5ed-4d2e-bfab-21a8a4defb15"},"vehicle_type_id":"4","last_reported":1723306182,"current_range_meters":0,"station_id":"ce4bhb92rcd13ifvqen0","pricing_plan_id":"cebpf4jnsgd1na2vs0mg"},{"bike_id":"954a27f4-ae83-47ce-a98b-ab4fdc13d748","system_id":"levelo_inurba_marseille","lat":43.290104,"lon":5.356111,"is_reserved":false,"is_disabled":false,"rental_uris":{"android":"levelo://app?vid=954a27f4-ae83-47ce-a98b-ab4fdc13d748","ios":"levelo://app?vid=954a27f4-ae83-47ce-a98b-ab4fdc13d748"},"vehicle_type_id":"4","last_reported":1723306182,"current_range_meters":7200,"station_id":"ce4bhb92rcd13ifvqen0","pricing_plan_id":"cebpf4jnsgd1na2vs0mg"},{"bike_id":"b140a5d5-8011-43c2-b473-666a3a04f1c1","system_id":"levelo_inurba_marseille","lat":43.290104,"lon":5.356111,"is_reserved":false,"is_disabled":false,"rental_uris":{"android":"levelo://app?vid=b140a5d5-8011-43c2-b473-666a3a04f1c1","ios":"levelo://app?vid=b140a5d5-8011-43c2-b473-666a3a04f1c1"},"vehicle_type_id":"4","last_reported":1723306182,"current_range_meters":0,"station_id":"ce4bhb92rcd13ifvqen0","pricing_plan_id":"cebpf4jnsgd1na2vs0mg"},{"bike_id":"018d3bcc-2361-48dd-ae51-34794829b97b","system_id":"levelo_inurba_marseille","lat":43.29001,"lon":5.3561,"is_reserved":false,"is_disabled":false,"rental_uris":{"android":"levelo://app?vid=018d3bcc-2361-48dd-ae51-34794829b97b","ios":"levelo://app?vid=018d3bcc-2361-48dd-ae51-34794829b97b"},"vehicle_type_id":"4","last_reported":1723306182,"current_range_meters":0,"station_id":"ce4bhb92rcd13ifvqen0","pricing_plan_id":"cebpf4jnsgd1na2vs0mg"},{"bike_id":"58eab520-6358-4250-bfab-9248f935ec54","system_id":"levelo_inurba_marseille","lat":43.290995,"lon":5.381361,"is_reserved":false,"is_disabled":false,"rental_uris":{"android":"levelo://app?vid=58eab520-6358-4250-bfab-9248f935ec54","ios":"levelo://app?vid=58eab520-6358-4250-bfab-9248f935ec54"},"vehicle_type_id":"4","last_reported":1723306182,"current_range_meters":20800,"station_id":"ce4bh512rcd13ifvqe2g","pricing_plan_id":"cebpf4jnsgd1na2vs0mg"},{"bike_id":"3cdba50d-2308-44f4-aad5-82f9753ab262","system_id":"levelo_inurba_marseille","lat":43.29104,"lon":5.38128,"is_reserved":false,"is_disabled":false,"rental_uris":{"android":"levelo://app?vid=3cdba50d-2308-44f4-aad5-82f9753ab262","ios":"levelo://app?vid=3cdba50d-2308-44f4-aad5-82f9753ab262"},"vehicle_type_id":"4","last_reported":1723306182,"current_range_meters":12000,"station_id":"ce4bh512rcd13ifvqe2g","pricing_plan_id":"cebpf4jnsgd1na2vs0mg"},{"bike_id":"2e9a1c3c-2f9c-4556-b8cc-0a0b9bd1fffb","system_id":"levelo_inurba_marseille","lat":43.290104,"lon":5.356111,"is_reserved":false,"is_disabled":false,"rental_uris":{"android":"levelo://app?vid=2e9a1c3c-2f9c-4556-b8cc-0a0b9bd1fffb","ios":"levelo://app?vid=2e9a1c3c-2f9c-4556-b8cc-0a0b9bd1fffb"},"vehicle_type_id":"4","last_reported":1723306182,"current_range_meters":5600,"station_id":"ce4bhb92rcd13ifvqen0","pricing_plan_id":"cebpf4jnsgd1na2vs0mg"},{"bike_id":"aa9884d1-37e2-4eb2-87d2-70d3dd298fdc","system_id":"levelo_inurba_marseille","lat":43.290999,"lon":5.381544,"is_reserved":false,"is_disabled":false,"rental_uris":{"android":"levelo://app?vid=aa9884d1-37e2-4eb2-87d2-70d3dd298fdc","ios":"levelo://app?vid=aa9884d1-37e2-4eb2-87d2-70d3dd298fdc"},"vehicle_type_id":"4","last_reported":1723306182,"current_range_meters":0,"station_id":"ce4bh512rcd13ifvqe2g","pricing_plan_id":"cebpf4jnsgd1na2vs0mg"},{"bike_id":"7b69645e-cb17-48d4-809b-c7802daf73fb","system_id":"levelo_inurba_marseille","lat":43.297807,"lon":5.393533,"is_reserved":false,"is_disabled":false,"rental_uris":{"android":"levelo://app?vid=7b69645e-cb17-48d4-809b-c7802daf73fb","ios":"levelo://app?vid=7b69645e-cb17-48d4-809b-c7802daf73fb"},"vehicle_type_id":"4","last_reported":1723306182,"current_range_meters":6400,"station_id":"chh1huq6cuj3fo74tm60","pricing_plan_id":"cebpf4jnsgd1na2vs0mg"},{"bike_id":"5d07b028-ea05-4457-bb0d-78c8e31c24f4","system_id":"levelo_inurba_marseille","lat":43.3302,"lon":5.39043,"is_reserved":false,"is_disabled":false,"rental_uris":{"android":"levelo://app?vid=5d07b028-ea05-4457-bb0d-78c8e31c24f4","ios":"levelo://app?vid=5d07b028-ea05-4457-bb0d-78c8e31c24f4"},"vehicle_type_id":"4","last_reported":1723306182,"current_range_meters":14000,"station_id":"ce4bhr92rcd13ifvqhrg","pricing_plan_id":"cebpf4jnsgd1na2vs0mg"},{"bike_id":"eb950615-e61f-45ab-a601-4960d01e92e7","system_id":"levelo_inurba_marseille","lat":43.33027,"lon":5.39037,"is_reserved":false,"is_disabled":false,"rental_uris":{"android":"levelo://app?vid=eb950615-e61f-45ab-a601-4960d01e92e7","ios":"levelo://app?vid=eb950615-e61f-45ab-a601-4960d01e92e7"},"vehicle_type_id":"4","last_reported":1723306182,"current_range_meters":0,"station_id":"ce4bhr92rcd13ifvqhrg","pricing_plan_id":"cebpf4jnsgd1na2vs0mg"},{"bike_id":"3426e4c0-ccf4-47a9-aa94-cc9d783b72ec","system_id":"levelo_inurba_marseille","lat":43.33024,"lon":5.39042,"is_reserved":false,"is_disabled":false,"rental_uris":{"android":"levelo://app?vid=3426e4c0-ccf4-47a9-aa94-cc9d783b72ec","ios":"levelo://app?vid=3426e4c0-ccf4-47a9-aa94-cc9d783b72ec"},"vehicle_type_id":"4","last_reported":1723306182,"current_range_meters":12400,"station_id":"ce4bhr92rcd13ifvqhrg","pricing_plan_id":"cebpf4jnsgd1na2vs0mg"},{"bike_id":"35002121-fb81-4afd-9964-234fc301c38c","system_id":"levelo_inurba_marseille","lat":43.33026,"lon":5.3904,"is_reserved":false,"is_disabled":false,"rental_uris":{"android":"levelo://app?vid=35002121-fb81-4afd-9964-234fc301c38c","ios":"levelo://app?vid=35002121-fb81-4afd-9964-234fc301c38c"},"vehicle_type_id":"4","last_reported":1723306182,"current_range_meters":10000,"station_id":"ce4bhr92rcd13ifvqhrg","pricing_plan_id":"cebpf4jnsgd1na2vs0mg"},{"bike_id":"cfee3a3a-468d-4d61-b518-f67636dedaca","system_id":"levelo_inurba_marseille","lat":43.297815,"lon":5.393548,"is_reserved":false,"is_disabled":false,"rental_uris":{"android":"levelo://app?vid=cfee3a3a-468d-4d61-b518-f67636dedaca","ios":"levelo://app?vid=cfee3a3a-468d-4d61-b518-f67636dedaca"},"vehicle_type_id":"4","last_reported":1723306182,"current_range_meters":12400,"station_id":"chh1huq6cuj3fo74tm60","pricing_plan_id":"cebpf4jnsgd1na2vs0mg"},{"bike_id":"b8aa4d86-cebc-452f-85f6-1623d6e84aeb","system_id":"levelo_inurba_marseille","lat":43.2901,"lon":5.381269,"is_reserved":false,"is_disabled":false,"rental_uris":{"android":"levelo://app?vid=b8aa4d86-cebc-452f-85f6-1623d6e84aeb","ios":"levelo://app?vid=b8aa4d86-cebc-452f-85f6-1623d6e84aeb"},"vehicle_type_id":"4","last_reported":1723306182,"current_range_meters":0,"station_id":"ce4bh4p2rcd13ifvqe1g","pricing_plan_id":"cebpf4jnsgd1na2vs0mg"},{"bike_id":"232463b3-db0b-49a3-9adc-9e4ece57b85a","system_id":"levelo_inurba_marseille","lat":43.28856,"lon":5.358371,"is_reserved":false,"is_disabled":false,"rental_uris":{"android":"levelo://app?vid=232463b3-db0b-49a3-9adc-9e4ece57b85a","ios":"levelo://app?vid=232463b3-db0b-49a3-9adc-9e4ece57b85a"},"vehicle_type_id":"4","last_reported":1723306182,"current_range_meters":7200,"station_id":"ce4bhb12rcd13ifvqem0","pricing_plan_id":"cebpf4jnsgd1na2vs0mg"},{"bike_id":"15af2083-0983-4377-bf5d-9c2548992728","system_id":"levelo_inurba_marseille","lat":43.28856,"lon":5.358371,"is_reserved":false,"is_disabled":false,"rental_uris":{"android":"levelo://app?vid=15af2083-0983-4377-bf5d-9c2548992728","ios":"levelo://app?vid=15af2083-0983-4377-bf5d-9c2548992728"},"vehicle_type_id":"4","last_reported":1723306182,"current_range_meters":0,"station_id":"ce4bhb12rcd13ifvqem0","pricing_plan_id":"cebpf4jnsgd1na2vs0mg"},{"bike_id":"0523ca66-6003-4a67-b911-0aaa76625f72","system_id":"levelo_inurba_marseille","lat":43.28856,"lon":5.358371,"is_reserved":false,"is_disabled":false,"rental_uris":{"android":"levelo://app?vid=0523ca66-6003-4a67-b911-0aaa76625f72","ios":"levelo://app?vid=0523ca66-6003-4a67-b911-0aaa76625f72"},"vehicle_type_id":"4","last_reported":1723306182,"current_range_meters":2800,"station_id":"ce4bhb12rcd13ifvqem0","pricing_plan_id":"cebpf4jnsgd1na2vs0mg"},{"bike_id":"6dd80df4-ead0-4265-b07e-370bc4095f28","system_id":"levelo_inurba_marseille","lat":43.28856,"lon":5.358371,"is_reserved":false,"is_disabled":false,"rental_uris":{"android":"levelo://app?vid=6dd80df4-ead0-4265-b07e-370bc4095f28","ios":"levelo://app?vid=6dd80df4-ead0-4265-b07e-370bc4095f28"},"vehicle_type_id":"4","last_reported":1723306182,"current_range_meters":0,"station_id":"ce4bhb12rcd13ifvqem0","pricing_plan_id":"cebpf4jnsgd1na2vs0mg"},{"bike_id":"af92073b-e29d-4c82-8ba3-9a59f3a90113","system_id":"levelo_inurba_marseille","lat":43.28856,"lon":5.358371,"is_reserved":false,"is_disabled":false,"rental_uris":{"android":"levelo://app?vid=af92073b-e29d-4c82-8ba3-9a59f3a90113","ios":"levelo://app?vid=af92073b-e29d-4c82-8ba3-9a59f3a90113"},"vehicle_type_id":"4","last_reported":1723306182,"current_range_meters":0,"station_id":"ce4bhb12rcd13ifvqem0","pricing_plan_id":"cebpf4jnsgd1na2vs0mg"},{"bike_id":"604a8476-1084-4b7a-9c81-1057145a80f4","system_id":"levelo_inurba_marseille","lat":43.28856,"lon":5.358371,"is_reserved":false,"is_disabled":false,"rental_uris":{"android":"levelo://app?vid=604a8476-1084-4b7a-9c81-1057145a80f4","ios":"levelo://app?vid=604a8476-1084-4b7a-9c81-1057145a80f4"},"vehicle_type_id":"4","last_reported":1723306182,"current_range_meters":5600,"station_id":"ce4bhb12rcd13ifvqem0","pricing_plan_id":"cebpf4jnsgd1na2vs0mg"},{"bike_id":"8b5f6228-3582-497c-9919-c849c8ef0c9b","system_id":"levelo_inurba_marseille","lat":43.337404,"lon":5.374621,"is_reserved":false,"is_disabled":false,"rental_uris":{"android":"levelo://app?vid=8b5f6228-3582-497c-9919-c849c8ef0c9b","ios":"levelo://app?vid=8b5f6228-3582-497c-9919-c849c8ef0c9b"},"vehicle_type_id":"4","last_reported":1723306182,"current_range_meters":1600,"station_id":"","pricing_plan_id":"cebpf4jnsgd1na2vs0mg"},{"bike_id":"7553d7c6-8eef-4b21-9dca-534ec43256a6","system_id":"levelo_inurba_marseille","lat":43.33742,"lon":5.37457,"is_reserved":false,"is_disabled":false,"rental_uris":{"android":"levelo://app?vid=7553d7c6-8eef-4b21-9dca-534ec43256a6","ios":"levelo://app?vid=7553d7c6-8eef-4b21-9dca-534ec43256a6"},"vehicle_type_id":"4","last_reported":1723306182,"current_range_meters":14400,"station_id":"","pricing_plan_id":"cebpf4jnsgd1na2vs0mg"},{"bike_id":"d80e79f5-55ca-4b3c-9dba-23b25cebe0c5","system_id":"levelo_inurba_marseille","lat":43.31263,"lon":5.4017,"is_reserved":false,"is_disabled":false,"rental_uris":{"android":"levelo://app?vid=d80e79f5-55ca-4b3c-9dba-23b25cebe0c5","ios":"levelo://app?vid=d80e79f5-55ca-4b3c-9dba-23b25cebe0c5"},"vehicle_type_id":"4","last_reported":1723306182,"current_range_meters":800,"station_id":"ce4bh092rcd13ifvqd30","pricing_plan_id":"cebpf4jnsgd1na2vs0mg"},{"bike_id":"ac75d8e5-5139-4e43-a64e-51e7994c2517","system_id":"levelo_inurba_marseille","lat":43.337444,"lon":5.374475,"is_reserved":false,"is_disabled":false,"rental_uris":{"android":"levelo://app?vid=ac75d8e5-5139-4e43-a64e-51e7994c2517","ios":"levelo://app?vid=ac75d8e5-5139-4e43-a64e-51e7994c2517"},"vehicle_type_id":"3","last_reported":1723306182,"current_range_meters":24800,"station_id":"","pricing_plan_id":"cebpf4jnsgd1na2vs0mg"},{"bike_id":"99ff80d6-767c-4ca9-81b5-c19f253f3bd3","system_id":"levelo_inurba_marseille","lat":43.33745,"lon":5.37451,"is_reserved":false,"is_disabled":false,"rental_uris":{"android":"levelo://app?vid=99ff80d6-767c-4ca9-81b5-c19f253f3bd3","ios":"levelo://app?vid=99ff80d6-767c-4ca9-81b5-c19f253f3bd3"},"vehicle_type_id":"4","last_reported":1723306182,"current_range_meters":3200,"station_id":"","pricing_plan_id":"cebpf4jnsgd1na2vs0mg"},{"bike_id":"d76006c3-cc03-48a7-b955-5d596a25c698","system_id":"levelo_inurba_marseille","lat":43.312609,"lon":5.401662,"is_reserved":false,"is_disabled":false,"rental_uris":{"android":"levelo://app?vid=d76006c3-cc03-48a7-b955-5d596a25c698","ios":"levelo://app?vid=d76006c3-cc03-48a7-b955-5d596a25c698"},"vehicle_type_id":"4","last_reported":1723306182,"current_range_meters":4400,"station_id":"ce4bh092rcd13ifvqd30","pricing_plan_id":"cebpf4jnsgd1na2vs0mg"},{"bike_id":"43f21911-683d-4ba4-93d3-8a7e20e1c78c","system_id":"levelo_inurba_marseille","lat":43.33744,"lon":5.374654,"is_reserved":false,"is_disabled":false,"rental_uris":{"android":"levelo://app?vid=43f21911-683d-4ba4-93d3-8a7e20e1c78c","ios":"levelo://app?vid=43f21911-683d-4ba4-93d3-8a7e20e1c78c"},"vehicle_type_id":"4","last_reported":1723306182,"current_range_meters":30800,"station_id":"","pricing_plan_id":"cebpf4jnsgd1na2vs0mg"},{"bike_id":"a99690a8-3e4f-41a1-9b6a-5b43249a269f","system_id":"levelo_inurba_marseille","lat":43.33746,"lon":5.37457,"is_reserved":false,"is_disabled":false,"rental_uris":{"android":"levelo://app?vid=a99690a8-3e4f-41a1-9b6a-5b43249a269f","ios":"levelo://app?vid=a99690a8-3e4f-41a1-9b6a-5b43249a269f"},"vehicle_type_id":"4","last_reported":1723306182,"current_range_meters":4400,"station_id":"","pricing_plan_id":"cebpf4jnsgd1na2vs0mg"},{"bike_id":"c3cf305c-692c-41ed-b07c-7ebbc13f240d","system_id":"levelo_inurba_marseille","lat":43.337455,"lon":5.374616,"is_reserved":false,"is_disabled":false,"rental_uris":{"android":"levelo://app?vid=c3cf305c-692c-41ed-b07c-7ebbc13f240d","ios":"levelo://app?vid=c3cf305c-692c-41ed-b07c-7ebbc13f240d"},"vehicle_type_id":"4","last_reported":1723306182,"current_range_meters":14000,"station_id":"","pricing_plan_id":"cebpf4jnsgd1na2vs0mg"},{"bike_id":"6137b86e-8de9-4c4f-94ef-bfa372175031","system_id":"levelo_inurba_marseille","lat":43.337513,"lon":5.37454,"is_reserved":false,"is_disabled":false,"rental_uris":{"android":"levelo://app?vid=6137b86e-8de9-4c4f-94ef-bfa372175031","ios":"levelo://app?vid=6137b86e-8de9-4c4f-94ef-bfa372175031"},"vehicle_type_id":"4","last_reported":1723306182,"current_range_meters":15600,"station_id":"","pricing_plan_id":"cebpf4jnsgd1na2vs0mg"},{"bike_id":"1ece39e8-5ec5-465b-b0d5-bdea3554c74d","system_id":"levelo_inurba_marseille","lat":43.337607,"lon":5.374504,"is_reserved":false,"is_disabled":false,"rental_uris":{"android":"levelo://app?vid=1ece39e8-5ec5-465b-b0d5-bdea3554c74d","ios":"levelo://app?vid=1ece39e8-5ec5-465b-b0d5-bdea3554c74d"},"vehicle_type_id":"4","last_reported":1723306182,"current_range_meters":25200,"station_id":"","pricing_plan_id":"cebpf4jnsgd1na2vs0mg"},{"bike_id":"6f8a75ef-cfde-4da5-99c7-85f9ae9b026b","system_id":"levelo_inurba_marseille","lat":43.33765,"lon":5.37435,"is_reserved":false,"is_disabled":false,"rental_uris":{"android":"levelo://app?vid=6f8a75ef-cfde-4da5-99c7-85f9ae9b026b","ios":"levelo://app?vid=6f8a75ef-cfde-4da5-99c7-85f9ae9b026b"},"vehicle_type_id":"4","last_reported":1723306182,"current_range_meters":30800,"station_id":"","pricing_plan_id":"cebpf4jnsgd1na2vs0mg"},{"bike_id":"ea1cc1bc-b3f0-4093-8f5f-6dfff1fa63d9","system_id":"levelo_inurba_marseille","lat":43.33757,"lon":5.374848,"is_reserved":false,"is_disabled":false,"rental_uris":{"android":"levelo://app?vid=ea1cc1bc-b3f0-4093-8f5f-6dfff1fa63d9","ios":"levelo://app?vid=ea1cc1bc-b3f0-4093-8f5f-6dfff1fa63d9"},"vehicle_type_id":"4","last_reported":1723306182,"current_range_meters":29200,"station_id":"","pricing_plan_id":"cebpf4jnsgd1na2vs0mg"},{"bike_id":"e0da458e-1309-458b-956b-aab617b2ea05","system_id":"levelo_inurba_marseille","lat":43.3376,"lon":5.37473,"is_reserved":false,"is_disabled":false,"rental_uris":{"android":"levelo://app?vid=e0da458e-1309-458b-956b-aab617b2ea05","ios":"levelo://app?vid=e0da458e-1309-458b-956b-aab617b2ea05"},"vehicle_type_id":"4","last_reported":1723306182,"current_range_meters":27200,"station_id":"","pricing_plan_id":"cebpf4jnsgd1na2vs0mg"},{"bike_id":"a7e71684-8757-4c0e-98c0-cd5b05cd0ba7","system_id":"levelo_inurba_marseille","lat":43.337596,"lon":5.374946,"is_reserved":false,"is_disabled":false,"rental_uris":{"android":"levelo://app?vid=a7e71684-8757-4c0e-98c0-cd5b05cd0ba7","ios":"levelo://app?vid=a7e71684-8757-4c0e-98c0-cd5b05cd0ba7"},"vehicle_type_id":"4","last_reported":1723306182,"current_range_meters":30400,"station_id":"","pricing_plan_id":"cebpf4jnsgd1na2vs0mg"},{"bike_id":"5cb0d0f3-eacc-40eb-a46e-542fc59e15f6","system_id":"levelo_inurba_marseille","lat":43.33759,"lon":5.37499,"is_reserved":false,"is_disabled":false,"rental_uris":{"android":"levelo://app?vid=5cb0d0f3-eacc-40eb-a46e-542fc59e15f6","ios":"levelo://app?vid=5cb0d0f3-eacc-40eb-a46e-542fc59e15f6"},"vehicle_type_id":"4","last_reported":1723306182,"current_range_meters":30400,"station_id":"","pricing_plan_id":"cebpf4jnsgd1na2vs0mg"},{"bike_id":"475ed14f-5d86-4ce1-9e44-9d4d1bef7035","system_id":"levelo_inurba_marseille","lat":43.33765,"lon":5.37486,"is_reserved":false,"is_disabled":false,"rental_uris":{"android":"levelo://app?vid=475ed14f-5d86-4ce1-9e44-9d4d1bef7035","ios":"levelo://app?vid=475ed14f-5d86-4ce1-9e44-9d4d1bef7035"},"vehicle_type_id":"4","last_reported":1723306182,"current_range_meters":25200,"station_id":"","pricing_plan_id":"cebpf4jnsgd1na2vs0mg"},{"bike_id":"1b85b564-7f46-4fd1-80b1-42a424d77a1c","system_id":"levelo_inurba_marseille","lat":43.28727,"lon":5.36078,"is_reserved":false,"is_disabled":false,"rental_uris":{"android":"levelo://app?vid=1b85b564-7f46-4fd1-80b1-42a424d77a1c","ios":"levelo://app?vid=1b85b564-7f46-4fd1-80b1-42a424d77a1c"},"vehicle_type_id":"4","last_reported":1723306182,"current_range_meters":20800,"station_id":"cki0cbj6b192h4jlfktg","pricing_plan_id":"cebpf4jnsgd1na2vs0mg"},{"bike_id":"81e7be3f-fbd5-48c8-aafb-30419b7dd1cc","system_id":"levelo_inurba_marseille","lat":43.28727,"lon":5.36078,"is_reserved":false,"is_disabled":false,"rental_uris":{"android":"levelo://app?vid=81e7be3f-fbd5-48c8-aafb-30419b7dd1cc","ios":"levelo://app?vid=81e7be3f-fbd5-48c8-aafb-30419b7dd1cc"},"vehicle_type_id":"4","last_reported":1723306182,"current_range_meters":5200,"station_id":"cki0cbj6b192h4jlfktg","pricing_plan_id":"cebpf4jnsgd1na2vs0mg"},{"bike_id":"443a475c-c661-41a7-b72b-8edcb0d10d38","system_id":"levelo_inurba_marseille","lat":43.302759,"lon":5.400793,"is_reserved":false,"is_disabled":false,"rental_uris":{"android":"levelo://app?vid=443a475c-c661-41a7-b72b-8edcb0d10d38","ios":"levelo://app?vid=443a475c-c661-41a7-b72b-8edcb0d10d38"},"vehicle_type_id":"4","last_reported":1723306182,"current_range_meters":6000,"station_id":"ce4bgvh2rcd13ifvqcs0","pricing_plan_id":"cebpf4jnsgd1na2vs0mg"},{"bike_id":"b15dd20b-3cd4-48e5-a8de-15badafef8a5","system_id":"levelo_inurba_marseille","lat":43.289307,"lon":5.38406,"is_reserved":false,"is_disabled":false,"rental_uris":{"android":"levelo://app?vid=b15dd20b-3cd4-48e5-a8de-15badafef8a5","ios":"levelo://app?vid=b15dd20b-3cd4-48e5-a8de-15badafef8a5"},"vehicle_type_id":"4","last_reported":1723306182,"current_range_meters":3200,"station_id":"ce4bh612rcd13ifvqe6g","pricing_plan_id":"cebpf4jnsgd1na2vs0mg"},{"bike_id":"09139520-d204-4299-8648-e283db53465c","system_id":"levelo_inurba_marseille","lat":43.286039,"lon":5.370679,"is_reserved":false,"is_disabled":false,"rental_uris":{"android":"levelo://app?vid=09139520-d204-4299-8648-e283db53465c","ios":"levelo://app?vid=09139520-d204-4299-8648-e283db53465c"},"vehicle_type_id":"4","last_reported":1723306182,"current_range_meters":29200,"station_id":"ce4bht12rcd13ifvqi60","pricing_plan_id":"cebpf4jnsgd1na2vs0mg"},{"bike_id":"57da0337-159a-4148-be4f-fc6e9aca3c31","system_id":"levelo_inurba_marseille","lat":43.338928,"lon":5.357236,"is_reserved":false,"is_disabled":false,"rental_uris":{"android":"levelo://app?vid=57da0337-159a-4148-be4f-fc6e9aca3c31","ios":"levelo://app?vid=57da0337-159a-4148-be4f-fc6e9aca3c31"},"vehicle_type_id":"4","last_reported":1723306182,"current_range_meters":8800,"station_id":"","pricing_plan_id":"cebpf4jnsgd1na2vs0mg"},{"bike_id":"a1f0cd30-c1f6-4780-b018-5063ebc94591","system_id":"levelo_inurba_marseille","lat":43.287184,"lon":5.37937,"is_reserved":false,"is_disabled":false,"rental_uris":{"android":"levelo://app?vid=a1f0cd30-c1f6-4780-b018-5063ebc94591","ios":"levelo://app?vid=a1f0cd30-c1f6-4780-b018-5063ebc94591"},"vehicle_type_id":"4","last_reported":1723306182,"current_range_meters":800,"station_id":"ce4bh9p2rcd13ifvqec0","pricing_plan_id":"cebpf4jnsgd1na2vs0mg"},{"bike_id":"70758005-277f-4dd7-a96d-094278030f5c","system_id":"levelo_inurba_marseille","lat":43.28862,"lon":5.38434,"is_reserved":false,"is_disabled":false,"rental_uris":{"android":"levelo://app?vid=70758005-277f-4dd7-a96d-094278030f5c","ios":"levelo://app?vid=70758005-277f-4dd7-a96d-094278030f5c"},"vehicle_type_id":"4","last_reported":1723306182,"current_range_meters":0,"station_id":"","pricing_plan_id":"cebpf4jnsgd1na2vs0mg"},{"bike_id":"1652d609-309e-4692-931d-7811fee80d33","system_id":"levelo_inurba_marseille","lat":43.31692,"lon":5.40477,"is_reserved":false,"is_disabled":false,"rental_uris":{"android":"levelo://app?vid=1652d609-309e-4692-931d-7811fee80d33","ios":"levelo://app?vid=1652d609-309e-4692-931d-7811fee80d33"},"vehicle_type_id":"4","last_reported":1723306182,"current_range_meters":800,"station_id":"ce4bh012rcd13ifvqd00","pricing_plan_id":"cebpf4jnsgd1na2vs0mg"},{"bike_id":"5a7ac899-4c00-45bd-a514-6eff439cfe5a","system_id":"levelo_inurba_marseille","lat":43.291994,"lon":5.392907,"is_reserved":false,"is_disabled":false,"rental_uris":{"android":"levelo://app?vid=5a7ac899-4c00-45bd-a514-6eff439cfe5a","ios":"levelo://app?vid=5a7ac899-4c00-45bd-a514-6eff439cfe5a"},"vehicle_type_id":"4","last_reported":1723306182,"current_range_meters":400,"station_id":"ce4bh192rcd13ifvqdd0","pricing_plan_id":"cebpf4jnsgd1na2vs0mg"},{"bike_id":"f6c41289-d059-4853-9bf5-48a5565de5b8","system_id":"levelo_inurba_marseille","lat":43.29754,"lon":5.40026,"is_reserved":false,"is_disabled":false,"rental_uris":{"android":"levelo://app?vid=f6c41289-d059-4853-9bf5-48a5565de5b8","ios":"levelo://app?vid=f6c41289-d059-4853-9bf5-48a5565de5b8"},"vehicle_type_id":"4","last_reported":1723306182,"current_range_meters":2400,"station_id":"","pricing_plan_id":"cebpf4jnsgd1na2vs0mg"},{"bike_id":"93a1843a-6e7a-4124-8fd8-e41e287cea12","system_id":"levelo_inurba_marseille","lat":43.28619,"lon":5.35102,"is_reserved":false,"is_disabled":false,"rental_uris":{"android":"levelo://app?vid=93a1843a-6e7a-4124-8fd8-e41e287cea12","ios":"levelo://app?vid=93a1843a-6e7a-4124-8fd8-e41e287cea12"},"vehicle_type_id":"4","last_reported":1723306182,"current_range_meters":0,"station_id":"ce4bhch2rcd13ifvqeug","pricing_plan_id":"cebpf4jnsgd1na2vs0mg"},{"bike_id":"5679bd13-4cf7-4d28-b518-ec3268d09d9e","system_id":"levelo_inurba_marseille","lat":43.33868,"lon":5.38556,"is_reserved":false,"is_disabled":false,"rental_uris":{"android":"levelo://app?vid=5679bd13-4cf7-4d28-b518-ec3268d09d9e","ios":"levelo://app?vid=5679bd13-4cf7-4d28-b518-ec3268d09d9e"},"vehicle_type_id":"4","last_reported":1723306182,"current_range_meters":0,"station_id":"","pricing_plan_id":"cebpf4jnsgd1na2vs0mg"},{"bike_id":"029b5d99-5563-4e35-90b8-241fce28b7d3","system_id":"levelo_inurba_marseille","lat":43.28408,"lon":5.37509,"is_reserved":false,"is_disabled":false,"rental_uris":{"android":"levelo://app?vid=029b5d99-5563-4e35-90b8-241fce28b7d3","ios":"levelo://app?vid=029b5d99-5563-4e35-90b8-241fce28b7d3"},"vehicle_type_id":"4","last_reported":1723306182,"current_range_meters":11200,"station_id":"","pricing_plan_id":"cebpf4jnsgd1na2vs0mg"},{"bike_id":"875687c0-d33c-404d-80e6-d43c25f458e4","system_id":"levelo_inurba_marseille","lat":43.32338,"lon":5.40622,"is_reserved":false,"is_disabled":false,"rental_uris":{"android":"levelo://app?vid=875687c0-d33c-404d-80e6-d43c25f458e4","ios":"levelo://app?vid=875687c0-d33c-404d-80e6-d43c25f458e4"},"vehicle_type_id":"4","last_reported":1723306182,"current_range_meters":6000,"station_id":"ce4bhq92rcd13ifvqhjg","pricing_plan_id":"cebpf4jnsgd1na2vs0mg"},{"bike_id":"95c043cf-1be5-49ea-80d0-8447988b8291","system_id":"levelo_inurba_marseille","lat":43.284793,"lon":5.384113,"is_reserved":false,"is_disabled":false,"rental_uris":{"android":"levelo://app?vid=95c043cf-1be5-49ea-80d0-8447988b8291","ios":"levelo://app?vid=95c043cf-1be5-49ea-80d0-8447988b8291"},"vehicle_type_id":"4","last_reported":1723306182,"current_range_meters":29600,"station_id":"ce4bh512rcd13ifvqe3g","pricing_plan_id":"cebpf4jnsgd1na2vs0mg"},{"bike_id":"cc8dc33b-39db-442b-8a01-ef618ef265ab","system_id":"levelo_inurba_marseille","lat":43.297946,"lon":5.404063,"is_reserved":false,"is_disabled":false,"rental_uris":{"android":"levelo://app?vid=cc8dc33b-39db-442b-8a01-ef618ef265ab","ios":"levelo://app?vid=cc8dc33b-39db-442b-8a01-ef618ef265ab"},"vehicle_type_id":"4","last_reported":1723306182,"current_range_meters":22000,"station_id":"ce4bh112rcd13ifvqd90","pricing_plan_id":"cebpf4jnsgd1na2vs0mg"},{"bike_id":"0647766e-56f1-430c-b3f8-a5e5ed8933d1","system_id":"levelo_inurba_marseille","lat":43.283494,"lon":5.380945,"is_reserved":false,"is_disabled":false,"rental_uris":{"android":"levelo://app?vid=0647766e-56f1-430c-b3f8-a5e5ed8933d1","ios":"levelo://app?vid=0647766e-56f1-430c-b3f8-a5e5ed8933d1"},"vehicle_type_id":"4","last_reported":1723306182,"current_range_meters":0,"station_id":"ce4bh412rcd13ifvqdr0","pricing_plan_id":"cebpf4jnsgd1na2vs0mg"},{"bike_id":"03482d95-900f-4e75-8f68-cbe4b7c0ce71","system_id":"levelo_inurba_marseille","lat":43.284217,"lon":5.349697,"is_reserved":false,"is_disabled":false,"rental_uris":{"android":"levelo://app?vid=03482d95-900f-4e75-8f68-cbe4b7c0ce71","ios":"levelo://app?vid=03482d95-900f-4e75-8f68-cbe4b7c0ce71"},"vehicle_type_id":"4","last_reported":1723306182,"current_range_meters":0,"station_id":"ce4bhbh2rcd13ifvqepg","pricing_plan_id":"cebpf4jnsgd1na2vs0mg"},{"bike_id":"5367a230-9508-4862-a8da-8d3f45d36d91","system_id":"levelo_inurba_marseille","lat":43.2894,"lon":5.39644,"is_reserved":false,"is_disabled":false,"rental_uris":{"android":"levelo://app?vid=5367a230-9508-4862-a8da-8d3f45d36d91","ios":"levelo://app?vid=5367a230-9508-4862-a8da-8d3f45d36d91"},"vehicle_type_id":"4","last_reported":1723306182,"current_range_meters":0,"station_id":"ce4bh3h2rcd13ifvqdn0","pricing_plan_id":"cebpf4jnsgd1na2vs0mg"},{"bike_id":"1b530e41-ffc9-41b4-a40b-2fce1c01e1dd","system_id":"levelo_inurba_marseille","lat":43.28095,"lon":5.36889,"is_reserved":false,"is_disabled":false,"rental_uris":{"android":"levelo://app?vid=1b530e41-ffc9-41b4-a40b-2fce1c01e1dd","ios":"levelo://app?vid=1b530e41-ffc9-41b4-a40b-2fce1c01e1dd"},"vehicle_type_id":"4","last_reported":1723306182,"current_range_meters":6400,"station_id":"","pricing_plan_id":"cebpf4jnsgd1na2vs0mg"},{"bike_id":"2c6c0b70-8839-4cba-bdd9-585944b79eff","system_id":"levelo_inurba_marseille","lat":43.292724,"lon":5.401131,"is_reserved":false,"is_disabled":false,"rental_uris":{"android":"levelo://app?vid=2c6c0b70-8839-4cba-bdd9-585944b79eff","ios":"levelo://app?vid=2c6c0b70-8839-4cba-bdd9-585944b79eff"},"vehicle_type_id":"4","last_reported":1723306182,"current_range_meters":0,"station_id":"ce4bh312rcd13ifvqdk0","pricing_plan_id":"cebpf4jnsgd1na2vs0mg"},{"bike_id":"1c5aefb3-bc77-4a03-9ea8-6a9cec413870","system_id":"levelo_inurba_marseille","lat":43.28285,"lon":5.35062,"is_reserved":false,"is_disabled":false,"rental_uris":{"android":"levelo://app?vid=1c5aefb3-bc77-4a03-9ea8-6a9cec413870","ios":"levelo://app?vid=1c5aefb3-bc77-4a03-9ea8-6a9cec413870"},"vehicle_type_id":"4","last_reported":1723306182,"current_range_meters":14800,"station_id":"ce4bhbp2rcd13ifvqerg","pricing_plan_id":"cebpf4jnsgd1na2vs0mg"},{"bike_id":"ec11cca6-6e96-464e-86cd-3fe74b84aa4d","system_id":"levelo_inurba_marseille","lat":43.283502,"lon":5.386471,"is_reserved":false,"is_disabled":false,"rental_uris":{"android":"levelo://app?vid=ec11cca6-6e96-464e-86cd-3fe74b84aa4d","ios":"levelo://app?vid=ec11cca6-6e96-464e-86cd-3fe74b84aa4d"},"vehicle_type_id":"4","last_reported":1723306182,"current_range_meters":6400,"station_id":"ce4bh492rcd13ifvqdvg","pricing_plan_id":"cebpf4jnsgd1na2vs0mg"},{"bike_id":"331e982b-7dba-46c4-85c7-5abfc1f135a2","system_id":"levelo_inurba_marseille","lat":43.28274,"lon":5.35065,"is_reserved":false,"is_disabled":false,"rental_uris":{"android":"levelo://app?vid=331e982b-7dba-46c4-85c7-5abfc1f135a2","ios":"levelo://app?vid=331e982b-7dba-46c4-85c7-5abfc1f135a2"},"vehicle_type_id":"4","last_reported":1723306182,"current_range_meters":800,"station_id":"ce4bhbp2rcd13ifvqerg","pricing_plan_id":"cebpf4jnsgd1na2vs0mg"},{"bike_id":"a082c653-9346-4916-8cdf-c821270050e5","system_id":"levelo_inurba_marseille","lat":43.28268,"lon":5.35069,"is_reserved":false,"is_disabled":false,"rental_uris":{"android":"levelo://app?vid=a082c653-9346-4916-8cdf-c821270050e5","ios":"levelo://app?vid=a082c653-9346-4916-8cdf-c821270050e5"},"vehicle_type_id":"4","last_reported":1723306182,"current_range_meters":0,"station_id":"ce4bhbp2rcd13ifvqerg","pricing_plan_id":"cebpf4jnsgd1na2vs0mg"},{"bike_id":"6892ccdd-a967-415b-9fcf-51d62fa70d6f","system_id":"levelo_inurba_marseille","lat":43.28269,"lon":5.35063,"is_reserved":false,"is_disabled":false,"rental_uris":{"android":"levelo://app?vid=6892ccdd-a967-415b-9fcf-51d62fa70d6f","ios":"levelo://app?vid=6892ccdd-a967-415b-9fcf-51d62fa70d6f"},"vehicle_type_id":"4","last_reported":1723306182,"current_range_meters":0,"station_id":"ce4bhbp2rcd13ifvqerg","pricing_plan_id":"cebpf4jnsgd1na2vs0mg"},{"bike_id":"12d0ea58-fe9d-4e50-a6d2-f9e161f56697","system_id":"levelo_inurba_marseille","lat":43.2827,"lon":5.35056,"is_reserved":false,"is_disabled":false,"rental_uris":{"android":"levelo://app?vid=12d0ea58-fe9d-4e50-a6d2-f9e161f56697","ios":"levelo://app?vid=12d0ea58-fe9d-4e50-a6d2-f9e161f56697"},"vehicle_type_id":"4","last_reported":1723306182,"current_range_meters":5600,"station_id":"ce4bhbp2rcd13ifvqerg","pricing_plan_id":"cebpf4jnsgd1na2vs0mg"},{"bike_id":"fb50d0b2-6c39-4fa1-a123-325d56f19363","system_id":"levelo_inurba_marseille","lat":43.28039,"lon":5.369297,"is_reserved":false,"is_disabled":false,"rental_uris":{"android":"levelo://app?vid=fb50d0b2-6c39-4fa1-a123-325d56f19363","ios":"levelo://app?vid=fb50d0b2-6c39-4fa1-a123-325d56f19363"},"vehicle_type_id":"4","last_reported":1723306182,"current_range_meters":2000,"station_id":"ce4bha12rcd13ifvqef0","pricing_plan_id":"cebpf4jnsgd1na2vs0mg"},{"bike_id":"926ad2f2-e447-4610-9282-c75499f0d51a","system_id":"levelo_inurba_marseille","lat":43.28039,"lon":5.369297,"is_reserved":false,"is_disabled":false,"rental_uris":{"android":"levelo://app?vid=926ad2f2-e447-4610-9282-c75499f0d51a","ios":"levelo://app?vid=926ad2f2-e447-4610-9282-c75499f0d51a"},"vehicle_type_id":"4","last_reported":1723306182,"current_range_meters":14000,"station_id":"ce4bha12rcd13ifvqef0","pricing_plan_id":"cebpf4jnsgd1na2vs0mg"},{"bike_id":"e7e9bd0b-02c7-43bc-8d39-4f366b643d6f","system_id":"levelo_inurba_marseille","lat":43.28039,"lon":5.369297,"is_reserved":false,"is_disabled":false,"rental_uris":{"android":"levelo://app?vid=e7e9bd0b-02c7-43bc-8d39-4f366b643d6f","ios":"levelo://app?vid=e7e9bd0b-02c7-43bc-8d39-4f366b643d6f"},"vehicle_type_id":"4","last_reported":1723306182,"current_range_meters":1600,"station_id":"ce4bha12rcd13ifvqef0","pricing_plan_id":"cebpf4jnsgd1na2vs0mg"},{"bike_id":"9095f2bd-4686-42b5-9f9e-963eb77e413f","system_id":"levelo_inurba_marseille","lat":43.29038,"lon":5.39974,"is_reserved":false,"is_disabled":false,"rental_uris":{"android":"levelo://app?vid=9095f2bd-4686-42b5-9f9e-963eb77e413f","ios":"levelo://app?vid=9095f2bd-4686-42b5-9f9e-963eb77e413f"},"vehicle_type_id":"4","last_reported":1723306182,"current_range_meters":0,"station_id":"ce4bh392rcd13ifvqdm0","pricing_plan_id":"cebpf4jnsgd1na2vs0mg"},{"bike_id":"c6b1b7e9-22d3-4117-8069-ba4951e125e7","system_id":"levelo_inurba_marseille","lat":43.296263,"lon":5.40601,"is_reserved":false,"is_disabled":false,"rental_uris":{"android":"levelo://app?vid=c6b1b7e9-22d3-4117-8069-ba4951e125e7","ios":"levelo://app?vid=c6b1b7e9-22d3-4117-8069-ba4951e125e7"},"vehicle_type_id":"4","last_reported":1723306182,"current_range_meters":12800,"station_id":"ce4bh0h2rcd13ifvqd60","pricing_plan_id":"cebpf4jnsgd1na2vs0mg"},{"bike_id":"8b635533-dbf1-4814-892d-359a64202703","system_id":"levelo_inurba_marseille","lat":43.296263,"lon":5.40601,"is_reserved":false,"is_disabled":false,"rental_uris":{"android":"levelo://app?vid=8b635533-dbf1-4814-892d-359a64202703","ios":"levelo://app?vid=8b635533-dbf1-4814-892d-359a64202703"},"vehicle_type_id":"4","last_reported":1723306182,"current_range_meters":18000,"station_id":"ce4bh0h2rcd13ifvqd60","pricing_plan_id":"cebpf4jnsgd1na2vs0mg"},{"bike_id":"bab661df-0d5f-429e-899c-363867a9207f","system_id":"levelo_inurba_marseille","lat":43.296263,"lon":5.40601,"is_reserved":false,"is_disabled":false,"rental_uris":{"android":"levelo://app?vid=bab661df-0d5f-429e-899c-363867a9207f","ios":"levelo://app?vid=bab661df-0d5f-429e-899c-363867a9207f"},"vehicle_type_id":"4","last_reported":1723306182,"current_range_meters":2000,"station_id":"ce4bh0h2rcd13ifvqd60","pricing_plan_id":"cebpf4jnsgd1na2vs0mg"},{"bike_id":"d147d488-8ce4-41a0-b401-a2bdde75d804","system_id":"levelo_inurba_marseille","lat":43.284462,"lon":5.392121,"is_reserved":false,"is_disabled":false,"rental_uris":{"android":"levelo://app?vid=d147d488-8ce4-41a0-b401-a2bdde75d804","ios":"levelo://app?vid=d147d488-8ce4-41a0-b401-a2bdde75d804"},"vehicle_type_id":"4","last_reported":1723306182,"current_range_meters":0,"station_id":"ce4bhoh2rcd13ifvqh5g","pricing_plan_id":"cebpf4jnsgd1na2vs0mg"},{"bike_id":"8dee3876-681c-4971-bcd6-7b6c4a772882","system_id":"levelo_inurba_marseille","lat":43.304188,"lon":5.412904,"is_reserved":false,"is_disabled":false,"rental_uris":{"android":"levelo://app?vid=8dee3876-681c-4971-bcd6-7b6c4a772882","ios":"levelo://app?vid=8dee3876-681c-4971-bcd6-7b6c4a772882"},"vehicle_type_id":"4","last_reported":1723306182,"current_range_meters":24800,"station_id":"ce4bhop2rcd13ifvqh8g","pricing_plan_id":"cebpf4jnsgd1na2vs0mg"},{"bike_id":"baf95602-cf47-44a4-a440-8e43bfea8c4f","system_id":"levelo_inurba_marseille","lat":43.304188,"lon":5.412904,"is_reserved":false,"is_disabled":false,"rental_uris":{"android":"levelo://app?vid=baf95602-cf47-44a4-a440-8e43bfea8c4f","ios":"levelo://app?vid=baf95602-cf47-44a4-a440-8e43bfea8c4f"},"vehicle_type_id":"4","last_reported":1723306182,"current_range_meters":4400,"station_id":"ce4bhop2rcd13ifvqh8g","pricing_plan_id":"cebpf4jnsgd1na2vs0mg"},{"bike_id":"0a76cd60-3905-4524-9d16-ca0360a790ac","system_id":"levelo_inurba_marseille","lat":43.28065,"lon":5.38485,"is_reserved":false,"is_disabled":false,"rental_uris":{"android":"levelo://app?vid=0a76cd60-3905-4524-9d16-ca0360a790ac","ios":"levelo://app?vid=0a76cd60-3905-4524-9d16-ca0360a790ac"},"vehicle_type_id":"4","last_reported":1723306182,"current_range_meters":0,"station_id":"","pricing_plan_id":"cebpf4jnsgd1na2vs0mg"},{"bike_id":"e30683ff-33ed-438e-87a2-2670bddf959d","system_id":"levelo_inurba_marseille","lat":43.320045,"lon":5.415048,"is_reserved":false,"is_disabled":false,"rental_uris":{"android":"levelo://app?vid=e30683ff-33ed-438e-87a2-2670bddf959d","ios":"levelo://app?vid=e30683ff-33ed-438e-87a2-2670bddf959d"},"vehicle_type_id":"4","last_reported":1723306182,"current_range_meters":23600,"station_id":"ce4bhq92rcd13ifvqhkg","pricing_plan_id":"cebpf4jnsgd1na2vs0mg"},{"bike_id":"1e197ab2-4bf0-4b25-9b88-f7a63e2fb8ff","system_id":"levelo_inurba_marseille","lat":43.279742,"lon":5.38744,"is_reserved":false,"is_disabled":false,"rental_uris":{"android":"levelo://app?vid=1e197ab2-4bf0-4b25-9b88-f7a63e2fb8ff","ios":"levelo://app?vid=1e197ab2-4bf0-4b25-9b88-f7a63e2fb8ff"},"vehicle_type_id":"4","last_reported":1723306182,"current_range_meters":18400,"station_id":"ce4bhg12rcd13ifvqf80","pricing_plan_id":"cebpf4jnsgd1na2vs0mg"},{"bike_id":"de17819c-c47e-4a19-a714-4146d3dca471","system_id":"levelo_inurba_marseille","lat":43.279742,"lon":5.38744,"is_reserved":false,"is_disabled":false,"rental_uris":{"android":"levelo://app?vid=de17819c-c47e-4a19-a714-4146d3dca471","ios":"levelo://app?vid=de17819c-c47e-4a19-a714-4146d3dca471"},"vehicle_type_id":"4","last_reported":1723306182,"current_range_meters":28800,"station_id":"ce4bhg12rcd13ifvqf80","pricing_plan_id":"cebpf4jnsgd1na2vs0mg"},{"bike_id":"1e01b8ac-8d0d-408a-8294-f095ba2c1671","system_id":"levelo_inurba_marseille","lat":43.27967,"lon":5.38734,"is_reserved":false,"is_disabled":false,"rental_uris":{"android":"levelo://app?vid=1e01b8ac-8d0d-408a-8294-f095ba2c1671","ios":"levelo://app?vid=1e01b8ac-8d0d-408a-8294-f095ba2c1671"},"vehicle_type_id":"4","last_reported":1723306182,"current_range_meters":0,"station_id":"ce4bhg12rcd13ifvqf80","pricing_plan_id":"cebpf4jnsgd1na2vs0mg"},{"bike_id":"a6a3a942-5dc4-4ed3-b7c1-50337fd35fd0","system_id":"levelo_inurba_marseille","lat":43.320045,"lon":5.415046,"is_reserved":false,"is_disabled":false,"rental_uris":{"android":"levelo://app?vid=a6a3a942-5dc4-4ed3-b7c1-50337fd35fd0","ios":"levelo://app?vid=a6a3a942-5dc4-4ed3-b7c1-50337fd35fd0"},"vehicle_type_id":"4","last_reported":1723306182,"current_range_meters":30000,"station_id":"ce4bhq92rcd13ifvqhkg","pricing_plan_id":"cebpf4jnsgd1na2vs0mg"},{"bike_id":"2eac1a31-e7c5-4aaa-93bc-4f97d80de509","system_id":"levelo_inurba_marseille","lat":43.279742,"lon":5.38744,"is_reserved":false,"is_disabled":false,"rental_uris":{"android":"levelo://app?vid=2eac1a31-e7c5-4aaa-93bc-4f97d80de509","ios":"levelo://app?vid=2eac1a31-e7c5-4aaa-93bc-4f97d80de509"},"vehicle_type_id":"4","last_reported":1723306182,"current_range_meters":28400,"station_id":"ce4bhg12rcd13ifvqf80","pricing_plan_id":"cebpf4jnsgd1na2vs0mg"},{"bike_id":"2dc60b78-80b4-43f3-8a30-eda247bbde42","system_id":"levelo_inurba_marseille","lat":43.320334,"lon":5.415783,"is_reserved":false,"is_disabled":false,"rental_uris":{"android":"levelo://app?vid=2dc60b78-80b4-43f3-8a30-eda247bbde42","ios":"levelo://app?vid=2dc60b78-80b4-43f3-8a30-eda247bbde42"},"vehicle_type_id":"4","last_reported":1723306182,"current_range_meters":2000,"station_id":"ce4bhq92rcd13ifvqhkg","pricing_plan_id":"cebpf4jnsgd1na2vs0mg"},{"bike_id":"f3724011-226a-4812-a294-fd40aa93b24d","system_id":"levelo_inurba_marseille","lat":43.320045,"lon":5.415048,"is_reserved":false,"is_disabled":false,"rental_uris":{"android":"levelo://app?vid=f3724011-226a-4812-a294-fd40aa93b24d","ios":"levelo://app?vid=f3724011-226a-4812-a294-fd40aa93b24d"},"vehicle_type_id":"4","last_reported":1723306182,"current_range_meters":27200,"station_id":"ce4bhq92rcd13ifvqhkg","pricing_plan_id":"cebpf4jnsgd1na2vs0mg"},{"bike_id":"585ef216-8642-4d13-a682-a45a9fdb0911","system_id":"levelo_inurba_marseille","lat":43.292569,"lon":5.409107,"is_reserved":false,"is_disabled":false,"rental_uris":{"android":"levelo://app?vid=585ef216-8642-4d13-a682-a45a9fdb0911","ios":"levelo://app?vid=585ef216-8642-4d13-a682-a45a9fdb0911"},"vehicle_type_id":"4","last_reported":1723306182,"current_range_meters":20000,"station_id":"ce4bh192rcd13ifvqdc0","pricing_plan_id":"cebpf4jnsgd1na2vs0mg"},{"bike_id":"b82d858a-91a0-49bf-a6fc-8ae898ab18fa","system_id":"levelo_inurba_marseille","lat":43.27837,"lon":5.38496,"is_reserved":false,"is_disabled":false,"rental_uris":{"android":"levelo://app?vid=b82d858a-91a0-49bf-a6fc-8ae898ab18fa","ios":"levelo://app?vid=b82d858a-91a0-49bf-a6fc-8ae898ab18fa"},"vehicle_type_id":"4","last_reported":1723306182,"current_range_meters":27200,"station_id":"","pricing_plan_id":"cebpf4jnsgd1na2vs0mg"},{"bike_id":"689283c8-e78c-4663-b263-eda273de5cab","system_id":"levelo_inurba_marseille","lat":43.325243,"lon":5.414326,"is_reserved":false,"is_disabled":false,"rental_uris":{"android":"levelo://app?vid=689283c8-e78c-4663-b263-eda273de5cab","ios":"levelo://app?vid=689283c8-e78c-4663-b263-eda273de5cab"},"vehicle_type_id":"4","last_reported":1723306182,"current_range_meters":14000,"station_id":"ce4bhq12rcd13ifvqhhg","pricing_plan_id":"cebpf4jnsgd1na2vs0mg"},{"bike_id":"ae05ea62-c415-4a1e-b27a-50ad56398c89","system_id":"levelo_inurba_marseille","lat":43.276179,"lon":5.361009,"is_reserved":false,"is_disabled":false,"rental_uris":{"android":"levelo://app?vid=ae05ea62-c415-4a1e-b27a-50ad56398c89","ios":"levelo://app?vid=ae05ea62-c415-4a1e-b27a-50ad56398c89"},"vehicle_type_id":"4","last_reported":1723306182,"current_range_meters":11600,"station_id":"ce4bgj92rcd13ifvqbe0","pricing_plan_id":"cebpf4jnsgd1na2vs0mg"},{"bike_id":"e086eb72-f7bb-402a-b082-b838908976dd","system_id":"levelo_inurba_marseille","lat":43.29261,"lon":5.409367,"is_reserved":false,"is_disabled":false,"rental_uris":{"android":"levelo://app?vid=e086eb72-f7bb-402a-b082-b838908976dd","ios":"levelo://app?vid=e086eb72-f7bb-402a-b082-b838908976dd"},"vehicle_type_id":"4","last_reported":1723306182,"current_range_meters":0,"station_id":"ce4bh192rcd13ifvqdc0","pricing_plan_id":"cebpf4jnsgd1na2vs0mg"},{"bike_id":"c6b6654b-a6af-499f-91cd-b5c4923f7214","system_id":"levelo_inurba_marseille","lat":43.303837,"lon":5.418724,"is_reserved":false,"is_disabled":false,"rental_uris":{"android":"levelo://app?vid=c6b6654b-a6af-499f-91cd-b5c4923f7214","ios":"levelo://app?vid=c6b6654b-a6af-499f-91cd-b5c4923f7214"},"vehicle_type_id":"4","last_reported":1723306182,"current_range_meters":4400,"station_id":"ce4bhop2rcd13ifvqh7g","pricing_plan_id":"cebpf4jnsgd1na2vs0mg"},{"bike_id":"f213a4e1-b110-4265-91d4-3b60961ac482","system_id":"levelo_inurba_marseille","lat":43.275625,"lon":5.384392,"is_reserved":false,"is_disabled":false,"rental_uris":{"android":"levelo://app?vid=f213a4e1-b110-4265-91d4-3b60961ac482","ios":"levelo://app?vid=f213a4e1-b110-4265-91d4-3b60961ac482"},"vehicle_type_id":"4","last_reported":1723306182,"current_range_meters":10000,"station_id":"ce4bhh92rcd13ifvqfi0","pricing_plan_id":"cebpf4jnsgd1na2vs0mg"},{"bike_id":"fcc6b76b-0dd4-4a54-9c5b-fc0222dd0846","system_id":"levelo_inurba_marseille","lat":43.273813,"lon":5.36256,"is_reserved":false,"is_disabled":false,"rental_uris":{"android":"levelo://app?vid=fcc6b76b-0dd4-4a54-9c5b-fc0222dd0846","ios":"levelo://app?vid=fcc6b76b-0dd4-4a54-9c5b-fc0222dd0846"},"vehicle_type_id":"4","last_reported":1723306182,"current_range_meters":8800,"station_id":"ce4bhbh2rcd13ifvqeo0","pricing_plan_id":"cebpf4jnsgd1na2vs0mg"},{"bike_id":"f56945b0-d93b-4abe-8cc1-03720ec0b947","system_id":"levelo_inurba_marseille","lat":43.273613,"lon":5.362705,"is_reserved":false,"is_disabled":false,"rental_uris":{"android":"levelo://app?vid=f56945b0-d93b-4abe-8cc1-03720ec0b947","ios":"levelo://app?vid=f56945b0-d93b-4abe-8cc1-03720ec0b947"},"vehicle_type_id":"4","last_reported":1723306182,"current_range_meters":25600,"station_id":"ce4bhbh2rcd13ifvqeo0","pricing_plan_id":"cebpf4jnsgd1na2vs0mg"},{"bike_id":"c30ee034-ab1d-46d3-827f-1e4664daee02","system_id":"levelo_inurba_marseille","lat":43.27379,"lon":5.36247,"is_reserved":false,"is_disabled":false,"rental_uris":{"android":"levelo://app?vid=c30ee034-ab1d-46d3-827f-1e4664daee02","ios":"levelo://app?vid=c30ee034-ab1d-46d3-827f-1e4664daee02"},"vehicle_type_id":"4","last_reported":1723306182,"current_range_meters":24000,"station_id":"ce4bhbh2rcd13ifvqeo0","pricing_plan_id":"cebpf4jnsgd1na2vs0mg"},{"bike_id":"24429208-8773-428d-b6d7-85078580e968","system_id":"levelo_inurba_marseille","lat":43.273613,"lon":5.362705,"is_reserved":false,"is_disabled":false,"rental_uris":{"android":"levelo://app?vid=24429208-8773-428d-b6d7-85078580e968","ios":"levelo://app?vid=24429208-8773-428d-b6d7-85078580e968"},"vehicle_type_id":"4","last_reported":1723306182,"current_range_meters":31200,"station_id":"ce4bhbh2rcd13ifvqeo0","pricing_plan_id":"cebpf4jnsgd1na2vs0mg"},{"bike_id":"492b5e9f-cd58-462f-a6fb-fe2380d3c325","system_id":"levelo_inurba_marseille","lat":43.27377,"lon":5.36242,"is_reserved":false,"is_disabled":false,"rental_uris":{"android":"levelo://app?vid=492b5e9f-cd58-462f-a6fb-fe2380d3c325","ios":"levelo://app?vid=492b5e9f-cd58-462f-a6fb-fe2380d3c325"},"vehicle_type_id":"4","last_reported":1723306182,"current_range_meters":21200,"station_id":"ce4bhbh2rcd13ifvqeo0","pricing_plan_id":"cebpf4jnsgd1na2vs0mg"},{"bike_id":"e093932d-73ce-4310-9cae-7df7a90c5d93","system_id":"levelo_inurba_marseille","lat":43.273613,"lon":5.362705,"is_reserved":false,"is_disabled":false,"rental_uris":{"android":"levelo://app?vid=e093932d-73ce-4310-9cae-7df7a90c5d93","ios":"levelo://app?vid=e093932d-73ce-4310-9cae-7df7a90c5d93"},"vehicle_type_id":"4","last_reported":1723306182,"current_range_meters":22000,"station_id":"ce4bhbh2rcd13ifvqeo0","pricing_plan_id":"cebpf4jnsgd1na2vs0mg"},{"bike_id":"65fa72ed-72c8-4f15-9d94-ccc2b8d23696","system_id":"levelo_inurba_marseille","lat":43.27376,"lon":5.36243,"is_reserved":false,"is_disabled":false,"rental_uris":{"android":"levelo://app?vid=65fa72ed-72c8-4f15-9d94-ccc2b8d23696","ios":"levelo://app?vid=65fa72ed-72c8-4f15-9d94-ccc2b8d23696"},"vehicle_type_id":"4","last_reported":1723306182,"current_range_meters":21600,"station_id":"ce4bhbh2rcd13ifvqeo0","pricing_plan_id":"cebpf4jnsgd1na2vs0mg"},{"bike_id":"a6506ab1-d79d-47eb-95bf-41c763629259","system_id":"levelo_inurba_marseille","lat":43.273609,"lon":5.362708,"is_reserved":false,"is_disabled":false,"rental_uris":{"android":"levelo://app?vid=a6506ab1-d79d-47eb-95bf-41c763629259","ios":"levelo://app?vid=a6506ab1-d79d-47eb-95bf-41c763629259"},"vehicle_type_id":"4","last_reported":1723306182,"current_range_meters":12000,"station_id":"ce4bhbh2rcd13ifvqeo0","pricing_plan_id":"cebpf4jnsgd1na2vs0mg"},{"bike_id":"2c6a5b28-7261-4c2d-a57d-dd7736178b93","system_id":"levelo_inurba_marseille","lat":43.273613,"lon":5.362705,"is_reserved":false,"is_disabled":false,"rental_uris":{"android":"levelo://app?vid=2c6a5b28-7261-4c2d-a57d-dd7736178b93","ios":"levelo://app?vid=2c6a5b28-7261-4c2d-a57d-dd7736178b93"},"vehicle_type_id":"4","last_reported":1723306182,"current_range_meters":25600,"station_id":"ce4bhbh2rcd13ifvqeo0","pricing_plan_id":"cebpf4jnsgd1na2vs0mg"},{"bike_id":"4b938230-cf71-442e-aa70-e5ed959abf8d","system_id":"levelo_inurba_marseille","lat":43.27373,"lon":5.36258,"is_reserved":false,"is_disabled":false,"rental_uris":{"android":"levelo://app?vid=4b938230-cf71-442e-aa70-e5ed959abf8d","ios":"levelo://app?vid=4b938230-cf71-442e-aa70-e5ed959abf8d"},"vehicle_type_id":"4","last_reported":1723306182,"current_range_meters":0,"station_id":"ce4bhbh2rcd13ifvqeo0","pricing_plan_id":"cebpf4jnsgd1na2vs0mg"},{"bike_id":"2055e25c-22c2-4128-a069-79c4dfa18599","system_id":"levelo_inurba_marseille","lat":43.273609,"lon":5.362708,"is_reserved":false,"is_disabled":false,"rental_uris":{"android":"levelo://app?vid=2055e25c-22c2-4128-a069-79c4dfa18599","ios":"levelo://app?vid=2055e25c-22c2-4128-a069-79c4dfa18599"},"vehicle_type_id":"4","last_reported":1723306182,"current_range_meters":2000,"station_id":"ce4bhbh2rcd13ifvqeo0","pricing_plan_id":"cebpf4jnsgd1na2vs0mg"},{"bike_id":"7fe76a52-cf01-4345-860c-107ad4246f95","system_id":"levelo_inurba_marseille","lat":43.275625,"lon":5.384392,"is_reserved":false,"is_disabled":false,"rental_uris":{"android":"levelo://app?vid=7fe76a52-cf01-4345-860c-107ad4246f95","ios":"levelo://app?vid=7fe76a52-cf01-4345-860c-107ad4246f95"},"vehicle_type_id":"4","last_reported":1723306182,"current_range_meters":3200,"station_id":"ce4bhh92rcd13ifvqfi0","pricing_plan_id":"cebpf4jnsgd1na2vs0mg"},{"bike_id":"b2e92d22-c6a0-443d-a5cb-3ebf33ac5bd0","system_id":"levelo_inurba_marseille","lat":43.279185,"lon":5.395692,"is_reserved":false,"is_disabled":false,"rental_uris":{"android":"levelo://app?vid=b2e92d22-c6a0-443d-a5cb-3ebf33ac5bd0","ios":"levelo://app?vid=b2e92d22-c6a0-443d-a5cb-3ebf33ac5bd0"},"vehicle_type_id":"4","last_reported":1723306182,"current_range_meters":24400,"station_id":"ce4bhf92rcd13ifvqf40","pricing_plan_id":"cebpf4jnsgd1na2vs0mg"},{"bike_id":"aa6b0c27-3333-4590-8ee1-794a48792c9e","system_id":"levelo_inurba_marseille","lat":43.28001,"lon":5.40007,"is_reserved":false,"is_disabled":false,"rental_uris":{"android":"levelo://app?vid=aa6b0c27-3333-4590-8ee1-794a48792c9e","ios":"levelo://app?vid=aa6b0c27-3333-4590-8ee1-794a48792c9e"},"vehicle_type_id":"4","last_reported":1723306182,"current_range_meters":0,"station_id":"ce4bho92rcd13ifvqh4g","pricing_plan_id":"cebpf4jnsgd1na2vs0mg"},{"bike_id":"bb83de28-3323-4db4-a1b1-85bae611d209","system_id":"levelo_inurba_marseille","lat":43.317121,"lon":5.423936,"is_reserved":false,"is_disabled":false,"rental_uris":{"android":"levelo://app?vid=bb83de28-3323-4db4-a1b1-85bae611d209","ios":"levelo://app?vid=bb83de28-3323-4db4-a1b1-85bae611d209"},"vehicle_type_id":"4","last_reported":1723306182,"current_range_meters":28000,"station_id":"ce4bhp92rcd13ifvqhbg","pricing_plan_id":"cebpf4jnsgd1na2vs0mg"},{"bike_id":"78c83981-33f5-4730-ad75-4ce63937cb3b","system_id":"levelo_inurba_marseille","lat":43.31074,"lon":5.42426,"is_reserved":false,"is_disabled":false,"rental_uris":{"android":"levelo://app?vid=78c83981-33f5-4730-ad75-4ce63937cb3b","ios":"levelo://app?vid=78c83981-33f5-4730-ad75-4ce63937cb3b"},"vehicle_type_id":"4","last_reported":1723306182,"current_range_meters":28800,"station_id":"ce4bhp92rcd13ifvqhag","pricing_plan_id":"cebpf4jnsgd1na2vs0mg"},{"bike_id":"6ab67036-c497-4c95-a5a8-b9a401d6cfc3","system_id":"levelo_inurba_marseille","lat":43.310785,"lon":5.424305,"is_reserved":false,"is_disabled":false,"rental_uris":{"android":"levelo://app?vid=6ab67036-c497-4c95-a5a8-b9a401d6cfc3","ios":"levelo://app?vid=6ab67036-c497-4c95-a5a8-b9a401d6cfc3"},"vehicle_type_id":"4","last_reported":1723306182,"current_range_meters":31600,"station_id":"ce4bhp92rcd13ifvqhag","pricing_plan_id":"cebpf4jnsgd1na2vs0mg"},{"bike_id":"d854788e-0ba1-4420-87a0-de23cf5950be","system_id":"levelo_inurba_marseille","lat":43.310785,"lon":5.424305,"is_reserved":false,"is_disabled":false,"rental_uris":{"android":"levelo://app?vid=d854788e-0ba1-4420-87a0-de23cf5950be","ios":"levelo://app?vid=d854788e-0ba1-4420-87a0-de23cf5950be"},"vehicle_type_id":"4","last_reported":1723306182,"current_range_meters":24000,"station_id":"ce4bhp92rcd13ifvqhag","pricing_plan_id":"cebpf4jnsgd1na2vs0mg"},{"bike_id":"673f67fd-f47c-422c-a2e5-8f7095229168","system_id":"levelo_inurba_marseille","lat":43.27137,"lon":5.376343,"is_reserved":false,"is_disabled":false,"rental_uris":{"android":"levelo://app?vid=673f67fd-f47c-422c-a2e5-8f7095229168","ios":"levelo://app?vid=673f67fd-f47c-422c-a2e5-8f7095229168"},"vehicle_type_id":"4","last_reported":1723306182,"current_range_meters":6400,"station_id":"","pricing_plan_id":"cebpf4jnsgd1na2vs0mg"},{"bike_id":"e581b755-7ef1-4862-9b70-d11549d9738e","system_id":"levelo_inurba_marseille","lat":43.340804,"lon":5.410219,"is_reserved":false,"is_disabled":false,"rental_uris":{"android":"levelo://app?vid=e581b755-7ef1-4862-9b70-d11549d9738e","ios":"levelo://app?vid=e581b755-7ef1-4862-9b70-d11549d9738e"},"vehicle_type_id":"4","last_reported":1723306182,"current_range_meters":26800,"station_id":"ce4bhqh2rcd13ifvqhlg","pricing_plan_id":"cebpf4jnsgd1na2vs0mg"},{"bike_id":"be74a67a-bb8d-48ba-9424-d160d41e4c33","system_id":"levelo_inurba_marseille","lat":43.273125,"lon":5.390731,"is_reserved":false,"is_disabled":false,"rental_uris":{"android":"levelo://app?vid=be74a67a-bb8d-48ba-9424-d160d41e4c33","ios":"levelo://app?vid=be74a67a-bb8d-48ba-9424-d160d41e4c33"},"vehicle_type_id":"4","last_reported":1723306182,"current_range_meters":22000,"station_id":"ce4bhgp2rcd13ifvqfe0","pricing_plan_id":"cebpf4jnsgd1na2vs0mg"},{"bike_id":"8dcaf410-40c5-4d7f-bd74-68802bcc0dc3","system_id":"levelo_inurba_marseille","lat":43.273125,"lon":5.390731,"is_reserved":false,"is_disabled":false,"rental_uris":{"android":"levelo://app?vid=8dcaf410-40c5-4d7f-bd74-68802bcc0dc3","ios":"levelo://app?vid=8dcaf410-40c5-4d7f-bd74-68802bcc0dc3"},"vehicle_type_id":"4","last_reported":1723306182,"current_range_meters":0,"station_id":"ce4bhgp2rcd13ifvqfe0","pricing_plan_id":"cebpf4jnsgd1na2vs0mg"},{"bike_id":"6a7b914c-872b-4616-8b30-f65464a6724d","system_id":"levelo_inurba_marseille","lat":43.273125,"lon":5.390731,"is_reserved":false,"is_disabled":false,"rental_uris":{"android":"levelo://app?vid=6a7b914c-872b-4616-8b30-f65464a6724d","ios":"levelo://app?vid=6a7b914c-872b-4616-8b30-f65464a6724d"},"vehicle_type_id":"4","last_reported":1723306182,"current_range_meters":3600,"station_id":"ce4bhgp2rcd13ifvqfe0","pricing_plan_id":"cebpf4jnsgd1na2vs0mg"},{"bike_id":"879667ac-b50f-42df-8445-bea4f00ba436","system_id":"levelo_inurba_marseille","lat":43.295523,"lon":5.422926,"is_reserved":false,"is_disabled":false,"rental_uris":{"android":"levelo://app?vid=879667ac-b50f-42df-8445-bea4f00ba436","ios":"levelo://app?vid=879667ac-b50f-42df-8445-bea4f00ba436"},"vehicle_type_id":"4","last_reported":1723306182,"current_range_meters":11600,"station_id":"ce4bhph2rcd13ifvqhdg","pricing_plan_id":"cebpf4jnsgd1na2vs0mg"},{"bike_id":"15a0b924-cb2c-4872-9cc6-864f93eeec31","system_id":"levelo_inurba_marseille","lat":43.29556,"lon":5.4229,"is_reserved":false,"is_disabled":false,"rental_uris":{"android":"levelo://app?vid=15a0b924-cb2c-4872-9cc6-864f93eeec31","ios":"levelo://app?vid=15a0b924-cb2c-4872-9cc6-864f93eeec31"},"vehicle_type_id":"4","last_reported":1723306182,"current_range_meters":26400,"station_id":"ce4bhph2rcd13ifvqhdg","pricing_plan_id":"cebpf4jnsgd1na2vs0mg"},{"bike_id":"9538d539-20aa-487b-b812-447eabeed658","system_id":"levelo_inurba_marseille","lat":43.295511,"lon":5.422926,"is_reserved":false,"is_disabled":false,"rental_uris":{"android":"levelo://app?vid=9538d539-20aa-487b-b812-447eabeed658","ios":"levelo://app?vid=9538d539-20aa-487b-b812-447eabeed658"},"vehicle_type_id":"4","last_reported":1723306182,"current_range_meters":6000,"station_id":"ce4bhph2rcd13ifvqhdg","pricing_plan_id":"cebpf4jnsgd1na2vs0mg"},{"bike_id":"948341f1-9b64-402a-81b5-cbac92e62a12","system_id":"levelo_inurba_marseille","lat":43.295521,"lon":5.4229,"is_reserved":false,"is_disabled":false,"rental_uris":{"android":"levelo://app?vid=948341f1-9b64-402a-81b5-cbac92e62a12","ios":"levelo://app?vid=948341f1-9b64-402a-81b5-cbac92e62a12"},"vehicle_type_id":"4","last_reported":1723306182,"current_range_meters":19600,"station_id":"ce4bhph2rcd13ifvqhdg","pricing_plan_id":"cebpf4jnsgd1na2vs0mg"},{"bike_id":"445c6f3d-40e6-4c7f-8ed6-16303a3db7f9","system_id":"levelo_inurba_marseille","lat":43.295511,"lon":5.422926,"is_reserved":false,"is_disabled":false,"rental_uris":{"android":"levelo://app?vid=445c6f3d-40e6-4c7f-8ed6-16303a3db7f9","ios":"levelo://app?vid=445c6f3d-40e6-4c7f-8ed6-16303a3db7f9"},"vehicle_type_id":"4","last_reported":1723306182,"current_range_meters":12400,"station_id":"ce4bhph2rcd13ifvqhdg","pricing_plan_id":"cebpf4jnsgd1na2vs0mg"},{"bike_id":"2ec43c8d-07e4-4966-a17f-43003d8ec0a7","system_id":"levelo_inurba_marseille","lat":43.29553,"lon":5.423,"is_reserved":false,"is_disabled":false,"rental_uris":{"android":"levelo://app?vid=2ec43c8d-07e4-4966-a17f-43003d8ec0a7","ios":"levelo://app?vid=2ec43c8d-07e4-4966-a17f-43003d8ec0a7"},"vehicle_type_id":"4","last_reported":1723306182,"current_range_meters":28000,"station_id":"ce4bhph2rcd13ifvqhdg","pricing_plan_id":"cebpf4jnsgd1na2vs0mg"},{"bike_id":"c12aeb12-637b-48f7-99b9-c4fe5335d3c7","system_id":"levelo_inurba_marseille","lat":43.272116,"lon":5.391747,"is_reserved":false,"is_disabled":false,"rental_uris":{"android":"levelo://app?vid=c12aeb12-637b-48f7-99b9-c4fe5335d3c7","ios":"levelo://app?vid=c12aeb12-637b-48f7-99b9-c4fe5335d3c7"},"vehicle_type_id":"4","last_reported":1723306182,"current_range_meters":30000,"station_id":"ce4bhhp2rcd13ifvqfm0","pricing_plan_id":"cebpf4jnsgd1na2vs0mg"},{"bike_id":"e27ed4e9-c6da-434c-a921-2b7c68527ca8","system_id":"levelo_inurba_marseille","lat":43.2901,"lon":5.381269,"is_reserved":false,"is_disabled":false,"rental_uris":{"android":"levelo://app?vid=e27ed4e9-c6da-434c-a921-2b7c68527ca8","ios":"levelo://app?vid=e27ed4e9-c6da-434c-a921-2b7c68527ca8"},"vehicle_type_id":"4","last_reported":1723306182,"current_range_meters":9600,"station_id":"ce4bh4p2rcd13ifvqe1g","pricing_plan_id":"cebpf4jnsgd1na2vs0mg"},{"bike_id":"706389c9-76b0-4979-8e27-3ffe3f6fdee3","system_id":"levelo_inurba_marseille","lat":43.279465,"lon":5.410561,"is_reserved":false,"is_disabled":false,"rental_uris":{"android":"levelo://app?vid=706389c9-76b0-4979-8e27-3ffe3f6fdee3","ios":"levelo://app?vid=706389c9-76b0-4979-8e27-3ffe3f6fdee3"},"vehicle_type_id":"4","last_reported":1723306182,"current_range_meters":30400,"station_id":"ce4bhnp2rcd13ifvqh0g","pricing_plan_id":"cebpf4jnsgd1na2vs0mg"},{"bike_id":"067aa84b-f27d-48dc-8a58-6f4dc002c8b1","system_id":"levelo_inurba_marseille","lat":43.279465,"lon":5.410561,"is_reserved":false,"is_disabled":false,"rental_uris":{"android":"levelo://app?vid=067aa84b-f27d-48dc-8a58-6f4dc002c8b1","ios":"levelo://app?vid=067aa84b-f27d-48dc-8a58-6f4dc002c8b1"},"vehicle_type_id":"4","last_reported":1723306182,"current_range_meters":0,"station_id":"ce4bhnp2rcd13ifvqh0g","pricing_plan_id":"cebpf4jnsgd1na2vs0mg"},{"bike_id":"8c83eee2-e27f-4197-a040-384ae5bca18f","system_id":"levelo_inurba_marseille","lat":43.28,"lon":5.416613,"is_reserved":false,"is_disabled":false,"rental_uris":{"android":"levelo://app?vid=8c83eee2-e27f-4197-a040-384ae5bca18f","ios":"levelo://app?vid=8c83eee2-e27f-4197-a040-384ae5bca18f"},"vehicle_type_id":"4","last_reported":1723306182,"current_range_meters":6400,"station_id":"ce4bho12rcd13ifvqh1g","pricing_plan_id":"cebpf4jnsgd1na2vs0mg"},{"bike_id":"234a0c9e-9633-45aa-bd63-14b97b905c67","system_id":"levelo_inurba_marseille","lat":43.279975,"lon":5.416615,"is_reserved":false,"is_disabled":false,"rental_uris":{"android":"levelo://app?vid=234a0c9e-9633-45aa-bd63-14b97b905c67","ios":"levelo://app?vid=234a0c9e-9633-45aa-bd63-14b97b905c67"},"vehicle_type_id":"4","last_reported":1723306182,"current_range_meters":8400,"station_id":"ce4bho12rcd13ifvqh1g","pricing_plan_id":"cebpf4jnsgd1na2vs0mg"},{"bike_id":"77b2f381-42f3-4c82-88ad-682221600440","system_id":"levelo_inurba_marseille","lat":43.27997,"lon":5.41662,"is_reserved":false,"is_disabled":false,"rental_uris":{"android":"levelo://app?vid=77b2f381-42f3-4c82-88ad-682221600440","ios":"levelo://app?vid=77b2f381-42f3-4c82-88ad-682221600440"},"vehicle_type_id":"4","last_reported":1723306182,"current_range_meters":8400,"station_id":"ce4bho12rcd13ifvqh1g","pricing_plan_id":"cebpf4jnsgd1na2vs0mg"},{"bike_id":"9d445330-7413-4799-862f-318de498bf14","system_id":"levelo_inurba_marseille","lat":43.27997,"lon":5.41663,"is_reserved":false,"is_disabled":false,"rental_uris":{"android":"levelo://app?vid=9d445330-7413-4799-862f-318de498bf14","ios":"levelo://app?vid=9d445330-7413-4799-862f-318de498bf14"},"vehicle_type_id":"4","last_reported":1723306182,"current_range_meters":26000,"station_id":"ce4bho12rcd13ifvqh1g","pricing_plan_id":"cebpf4jnsgd1na2vs0mg"},