{"last_updated":1740553761,"ttl":60,"version":"2.2","data":{"bikes":[{"bike_id":"c6b01371-a967-40f3-9342-9f6bf3f195db","system_id":"levelo_inurba_marseille","lat":43.29029,"lon":5.38652,"is_reserved":false,"is_disabled":false,"rental_uris":{"android":"levelo://app?vid=c6b01371-a967-40f3-9342-9f6bf3f195db","ios":"levelo://app?vid=c6b01371-a967-40f3-9342-9f6bf3f195db"},"vehicle_type_id":"4","last_reported":1740553761,"current_range_meters":2800,"station_id":"ce4bh4p2rcd13ifvqe0g","pricing_plan_id":"cebpf4jnsgd1na2vs0mg"},{"bike_id":"f9a89d32-29dd-4d2a-9c22-97ce576102b6","system_id":"levelo_inurba_marseille","lat":43.29046,"lon":5.39948,"is_reserved":false,"is_disabled":false,"rental_uris":{"android":"levelo://app?vid=f9a89d32-29dd-4d2a-9c22-97ce576102b6","ios":"levelo://app?vid=f9a89d32-29dd-4d2a-9c22-97ce576102b6"},"vehicle_type_id":"4","last_reported":1740553761,"current_range_meters":2000,"station_id":"ce4bh392rcd13ifvqdm0","pricing_plan_id":"cebpf4jnsgd1na2vs0mg"},{"bike_id":"d7f03c28-d6ca-4754-84a1-58f575c1daf9","system_id":"levelo_inurba_marseille","lat":43.28349,"lon":5.38103,"is_reserved":false,"is_disabled":false,"rental_uris":{"android":"levelo://app?vid=d7f03c28-d6ca-4754-84a1-58f575c1daf9","ios":"levelo://app?vid=d7f03c28-d6ca-4754-84a1-58f575c1daf9"},"vehicle_type_id":"4","last_reported":1740553761,"current_range_meters":2800,"station_id":"ce4bh412rcd13ifvqdr0","pricing_plan_id":"cebpf4jnsgd1na2vs0mg"},{"bike_id":"15051a43-2807-4349-805d-2d383830f28b","system_id":"levelo_inurba_marseille","lat":43.24541,"lon":5.39534,"is_reserved":false,"is_disabled":false,"rental_uris":{"android":"levelo://app?vid=15051a43-2807-4349-805d-2d383830f28b","ios":"levelo://app?vid=15051a43-2807-4349-805d-2d383830f28b"},"vehicle_type_id":"4","last_reported":1740553761,"current_range_meters":3200,"station_id":"ce4bhlp2rcd13ifvqgjg","pricing_plan_id":"cebpf4jnsgd1na2vs0mg"},{"bike_id":"322c0db9-e580-4b56-9659-2338e6a758a3","system_id":"levelo_inurba_marseille","lat":43.3048,"lon":5.382,"is_reserved":false,"is_disabled":false,"rental_uris":{"android":"levelo://app?vid=322c0db9-e580-4b56-9659-2338e6a758a3","ios":"levelo://app?vid=322c0db9-e580-4b56-9659-2338e6a758a3"},"vehicle_type_id":"4","last_reported":1740553761,"current_range_meters":3200,"station_id":"","pricing_plan_id":"cebpf4jnsgd1na2vs0mg"},{"bike_id":"a20f4f86-8a37-41be-bf41-963fa04395e3","system_id":"levelo_inurba_marseille","lat":43.29026,"lon":5.38649,"is_reserved":false,"is_disabled":true,"rental_uris":{"android":"levelo://app?vid=a20f4f86-8a37-41be-bf41-963fa04395e3","ios":"levelo://app?vid=a20f4f86-8a37-41be-bf41-963fa04395e3"},"vehicle_type_id":"4","last_reported":1740553761,"current_range_meters":3200,"station_id":"ce4bh4p2rcd13ifvqe0g","pricing_plan_id":"cebpf4jnsgd1na2vs0mg"},{"bike_id":"755a0161-62b4-4833-ab12-ccd6ceb6dd1f","system_id":"levelo_inurba_marseille","lat":43.30927,"lon":5.40156,"is_reserved":false,"is_disabled":true,"rental_uris":{"android":"levelo://app?vid=755a0161-62b4-4833-ab12-ccd6ceb6dd1f","ios":"levelo://app?vid=755a0161-62b4-4833-ab12-ccd6ceb6dd1f"},"vehicle_type_id":"4","last_reported":1740553761,"current_range_meters":3200,"station_id":"ce4bgvp2rcd13ifvqct0","pricing_plan_id":"cebpf4jnsgd1na2vs0mg"},{"bike_id":"38bf78e0-3679-4c1b-bdcc-46f99fe519ce","system_id":"levelo_inurba_marseille","lat":43.29039,"lon":5.39962,"is_reserved":false,"is_disabled":false,"rental_uris":{"android":"levelo://app?vid=38bf78e0-3679-4c1b-bdcc-46f99fe519ce","ios":"levelo://app?vid=38bf78e0-3679-4c1b-bdcc-46f99fe519ce"},"vehicle_type_id":"4","last_reported":1740553761,"current_range_meters":3600,"station_id":"ce4bh392rcd13ifvqdm0","pricing_plan_id":"cebpf4jnsgd1na2vs0mg"},{"bike_id":"9db3db6c-4cb8-4fbe-a208-9a75c3f80bf5","system_id":"levelo_inurba_marseille","lat":43.28931,"lon":5.39621,"is_reserved":false,"is_disabled":false,"rental_uris":{"android":"levelo://app?vid=9db3db6c-4cb8-4fbe-a208-9a75c3f80bf5","ios":"levelo://app?vid=9db3db6c-4cb8-4fbe-a208-9a75c3f80bf5"},"vehicle_type_id":"4","last_reported":1740553761,"current_range_meters":3600,"station_id":"ce4bh3h2rcd13ifvqdn0","pricing_plan_id":"cebpf4jnsgd1na2vs0mg"},{"bike_id":"71f606a5-4879-4b26-9ccd-1543fb1a6ec7","system_id":"levelo_inurba_marseille","lat":43.28381,"lon":5.38992,"is_reserved":false,"is_disabled":false,"rental_uris":{"android":"levelo://app?vid=71f606a5-4879-4b26-9ccd-1543fb1a6ec7","ios":"levelo://app?vid=71f606a5-4879-4b26-9ccd-1543fb1a6ec7"},"vehicle_type_id":"4","last_reported":1740553761,"current_range_meters":3600,"station_id":"","pricing_plan_id":"cebpf4jnsgd1na2vs0mg"},{"bike_id":"6afe72aa-5e17-4ec7-ba3c-112605884a67","system_id":"levelo_inurba_marseille","lat":43.30481,"lon":5.37908,"is_reserved":false,"is_disabled":false,"rental_uris":{"android":"levelo://app?vid=6afe72aa-5e17-4ec7-ba3c-112605884a67","ios":"levelo://app?vid=6afe72aa-5e17-4ec7-ba3c-112605884a67"},"vehicle_type_id":"4","last_reported":1740553761,"current_range_meters":3600,"station_id":"ce4bgup2rcd13ifvqcn0","pricing_plan_id":"cebpf4jnsgd1na2vs0mg"},{"bike_id":"f95abd31-c8d6-40bd-b5b5-0f20de2046b1","system_id":"levelo_inurba_marseille","lat":43.2959,"lon":5.38105,"is_reserved":false,"is_disabled":false,"rental_uris":{"android":"levelo://app?vid=f95abd31-c8d6-40bd-b5b5-0f20de2046b1","ios":"levelo://app?vid=f95abd31-c8d6-40bd-b5b5-0f20de2046b1"},"vehicle_type_id":"4","last_reported":1740553761,"current_range_meters":3600,"station_id":"ce4bgl12rcd13ifvqbo0","pricing_plan_id":"cebpf4jnsgd1na2vs0mg"},{"bike_id":"f5f127a7-1f92-4d09-9ae3-e361946ceab4","system_id":"levelo_inurba_marseille","lat":43.29776,"lon":5.38113,"is_reserved":false,"is_disabled":false,"rental_uris":{"android":"levelo://app?vid=f5f127a7-1f92-4d09-9ae3-e361946ceab4","ios":"levelo://app?vid=f5f127a7-1f92-4d09-9ae3-e361946ceab4"},"vehicle_type_id":"4","last_reported":1740553761,"current_range_meters":4000,"station_id":"ce4bgip2rcd13ifvqbb0","pricing_plan_id":"cebpf4jnsgd1na2vs0mg"},{"bike_id":"853e9711-7a3b-4c91-ab37-4eb0371bc7cd","system_id":"levelo_inurba_marseille","lat":43.23177,"lon":5.39995,"is_reserved":false,"is_disabled":false,"rental_uris":{"android":"levelo://app?vid=853e9711-7a3b-4c91-ab37-4eb0371bc7cd","ios":"levelo://app?vid=853e9711-7a3b-4c91-ab37-4eb0371bc7cd"},"vehicle_type_id":"4","last_reported":1740553761,"current_range_meters":4000,"station_id":"ce4bhn12rcd13ifvqgqg","pricing_plan_id":"cebpf4jnsgd1na2vs0mg"},{"bike_id":"ecd7f40b-d241-4598-9fc7-e917f88c4e24","system_id":"levelo_inurba_marseille","lat":43.27493,"lon":5.42453,"is_reserved":false,"is_disabled":false,"rental_uris":{"android":"levelo://app?vid=ecd7f40b-d241-4598-9fc7-e917f88c4e24","ios":"levelo://app?vid=ecd7f40b-d241-4598-9fc7-e917f88c4e24"},"vehicle_type_id":"4","last_reported":1740553761,"current_range_meters":4000,"station_id":"ce4bhn92rcd13ifvqgrg","pricing_plan_id":"cebpf4jnsgd1na2vs0mg"},{"bike_id":"da634367-acad-40de-ac7c-eb1fe9e9f106","system_id":"levelo_inurba_marseille","lat":43.28663,"lon":5.37378,"is_reserved":false,"is_disabled":true,"rental_uris":{"android":"levelo://app?vid=da634367-acad-40de-ac7c-eb1fe9e9f106","ios":"levelo://app?vid=da634367-acad-40de-ac7c-eb1fe9e9f106"},"vehicle_type_id":"4","last_reported":1740553761,"current_range_meters":4400,"station_id":"ce4bh3p2rcd13ifvqdq0","pricing_plan_id":"cebpf4jnsgd1na2vs0mg"},{"bike_id":"0a318165-f551-43bc-8710-166642330e44","system_id":"levelo_inurba_marseille","lat":43.24072,"lon":5.37765,"is_reserved":false,"is_disabled":false,"rental_uris":{"android":"levelo://app?vid=0a318165-f551-43bc-8710-166642330e44","ios":"levelo://app?vid=0a318165-f551-43bc-8710-166642330e44"},"vehicle_type_id":"4","last_reported":1740553761,"current_range_meters":4400,"station_id":"ce4bhnp2rcd13ifvqgvg","pricing_plan_id":"cebpf4jnsgd1na2vs0mg"},{"bike_id":"efa1c45d-219f-4e5d-a6ee-111b1852bd0d","system_id":"levelo_inurba_marseille","lat":43.267193,"lon":5.392516,"is_reserved":false,"is_disabled":false,"rental_uris":{"android":"levelo://app?vid=efa1c45d-219f-4e5d-a6ee-111b1852bd0d","ios":"levelo://app?vid=efa1c45d-219f-4e5d-a6ee-111b1852bd0d"},"vehicle_type_id":"4","last_reported":1740553761,"current_range_meters":4400,"station_id":"ce4bhe12rcd13ifvqf30","pricing_plan_id":"cebpf4jnsgd1na2vs0mg"},{"bike_id":"0ca81608-f491-428e-8676-572d859eb79c","system_id":"levelo_inurba_marseille","lat":43.23182,"lon":5.39989,"is_reserved":false,"is_disabled":false,"rental_uris":{"android":"levelo://app?vid=0ca81608-f491-428e-8676-572d859eb79c","ios":"levelo://app?vid=0ca81608-f491-428e-8676-572d859eb79c"},"vehicle_type_id":"4","last_reported":1740553761,"current_range_meters":4800,"station_id":"ce4bhn12rcd13ifvqgqg","pricing_plan_id":"cebpf4jnsgd1na2vs0mg"},{"bike_id":"a029797b-26aa-43f7-a644-1e5542062099","system_id":"levelo_inurba_marseille","lat":43.30926,"lon":5.40157,"is_reserved":false,"is_disabled":true,"rental_uris":{"android":"levelo://app?vid=a029797b-26aa-43f7-a644-1e5542062099","ios":"levelo://app?vid=a029797b-26aa-43f7-a644-1e5542062099"},"vehicle_type_id":"4","last_reported":1740553761,"current_range_meters":4400,"station_id":"ce4bgvp2rcd13ifvqct0","pricing_plan_id":"cebpf4jnsgd1na2vs0mg"},{"bike_id":"a61f933f-88ee-4967-a812-5f51c33c76e0","system_id":"levelo_inurba_marseille","lat":43.25092,"lon":5.39522,"is_reserved":false,"is_disabled":false,"rental_uris":{"android":"levelo://app?vid=a61f933f-88ee-4967-a812-5f51c33c76e0","ios":"levelo://app?vid=a61f933f-88ee-4967-a812-5f51c33c76e0"},"vehicle_type_id":"4","last_reported":1740553761,"current_range_meters":4800,"station_id":"ce4bhm12rcd13ifvqgkg","pricing_plan_id":"cebpf4jnsgd1na2vs0mg"},{"bike_id":"3329f2ab-f4e6-48ac-85b5-2c3f7261a92f","system_id":"levelo_inurba_marseille","lat":43.28658,"lon":5.36364,"is_reserved":false,"is_disabled":true,"rental_uris":{"android":"levelo://app?vid=3329f2ab-f4e6-48ac-85b5-2c3f7261a92f","ios":"levelo://app?vid=3329f2ab-f4e6-48ac-85b5-2c3f7261a92f"},"vehicle_type_id":"4","last_reported":1740553761,"current_range_meters":5600,"station_id":"ce4bhah2rcd13ifvqej0","pricing_plan_id":"cebpf4jnsgd1na2vs0mg"},{"bike_id":"59464b21-3fa1-44e0-82c4-d0bef15b6e67","system_id":"levelo_inurba_marseille","lat":43.27972,"lon":5.38735,"is_reserved":false,"is_disabled":false,"rental_uris":{"android":"levelo://app?vid=59464b21-3fa1-44e0-82c4-d0bef15b6e67","ios":"levelo://app?vid=59464b21-3fa1-44e0-82c4-d0bef15b6e67"},"vehicle_type_id":"4","last_reported":1740553761,"current_range_meters":4400,"station_id":"ce4bhg12rcd13ifvqf80","pricing_plan_id":"cebpf4jnsgd1na2vs0mg"},{"bike_id":"2c18028d-4e06-4321-9f71-c456f1a44fa3","system_id":"levelo_inurba_marseille","lat":43.2862,"lon":5.35107,"is_reserved":false,"is_disabled":false,"rental_uris":{"android":"levelo://app?vid=2c18028d-4e06-4321-9f71-c456f1a44fa3","ios":"levelo://app?vid=2c18028d-4e06-4321-9f71-c456f1a44fa3"},"vehicle_type_id":"4","last_reported":1740553761,"current_range_meters":6400,"station_id":"ce4bhch2rcd13ifvqeug","pricing_plan_id":"cebpf4jnsgd1na2vs0mg"},{"bike_id":"ffee49ad-33f2-4421-8a1c-a0e19fca9747","system_id":"levelo_inurba_marseille","lat":43.28264,"lon":5.35086,"is_reserved":false,"is_disabled":false,"rental_uris":{"android":"levelo://app?vid=ffee49ad-33f2-4421-8a1c-a0e19fca9747","ios":"levelo://app?vid=ffee49ad-33f2-4421-8a1c-a0e19fca9747"},"vehicle_type_id":"4","last_reported":1740553761,"current_range_meters":5600,"station_id":"ce4bhbp2rcd13ifvqerg","pricing_plan_id":"cebpf4jnsgd1na2vs0mg"},{"bike_id":"9ee45968-acd8-4662-a2ad-c913f581b13c","system_id":"levelo_inurba_marseille","lat":43.26564,"lon":5.39007,"is_reserved":false,"is_disabled":false,"rental_uris":{"android":"levelo://app?vid=9ee45968-acd8-4662-a2ad-c913f581b13c","ios":"levelo://app?vid=9ee45968-acd8-4662-a2ad-c913f581b13c"},"vehicle_type_id":"4","last_reported":1740553761,"current_range_meters":5600,"station_id":"ce4bhe12rcd13ifvqf30","pricing_plan_id":"cebpf4jnsgd1na2vs0mg"},{"bike_id":"1c8236a9-96fb-443c-bf9a-d26ed00cc14f","system_id":"levelo_inurba_marseille","lat":43.24687,"lon":5.38169,"is_reserved":false,"is_disabled":false,"rental_uris":{"android":"levelo://app?vid=1c8236a9-96fb-443c-bf9a-d26ed00cc14f","ios":"levelo://app?vid=1c8236a9-96fb-443c-bf9a-d26ed00cc14f"},"vehicle_type_id":"4","last_reported":1740553761,"current_range_meters":5600,"station_id":"ce4bhih2rcd13ifvqfr0","pricing_plan_id":"cebpf4jnsgd1na2vs0mg"},{"bike_id":"cbb3e626-4da7-428e-aa2d-03e52e1e0b23","system_id":"levelo_inurba_marseille","lat":43.282733,"lon":5.350618,"is_reserved":false,"is_disabled":false,"rental_uris":{"android":"levelo://app?vid=cbb3e626-4da7-428e-aa2d-03e52e1e0b23","ios":"levelo://app?vid=cbb3e626-4da7-428e-aa2d-03e52e1e0b23"},"vehicle_type_id":"4","last_reported":1740553761,"current_range_meters":6400,"station_id":"ce4bhbp2rcd13ifvqerg","pricing_plan_id":"cebpf4jnsgd1na2vs0mg"},{"bike_id":"14f8244f-b418-41c4-9137-16ba93f6309e","system_id":"levelo_inurba_marseille","lat":43.29032,"lon":5.39967,"is_reserved":false,"is_disabled":false,"rental_uris":{"android":"levelo://app?vid=14f8244f-b418-41c4-9137-16ba93f6309e","ios":"levelo://app?vid=14f8244f-b418-41c4-9137-16ba93f6309e"},"vehicle_type_id":"4","last_reported":1740553761,"current_range_meters":12800,"station_id":"ce4bh392rcd13ifvqdm0","pricing_plan_id":"cebpf4jnsgd1na2vs0mg"},{"bike_id":"7624aba0-ef91-45f4-b574-494bcd5f0f45","system_id":"levelo_inurba_marseille","lat":43.29036,"lon":5.39972,"is_reserved":false,"is_disabled":false,"rental_uris":{"android":"levelo://app?vid=7624aba0-ef91-45f4-b574-494bcd5f0f45","ios":"levelo://app?vid=7624aba0-ef91-45f4-b574-494bcd5f0f45"},"vehicle_type_id":"4","last_reported":1740553761,"current_range_meters":4800,"station_id":"ce4bh392rcd13ifvqdm0","pricing_plan_id":"cebpf4jnsgd1na2vs0mg"},{"bike_id":"17150a21-63a8-4df4-92e7-b364b699a6c6","system_id":"levelo_inurba_marseille","lat":43.23193,"lon":5.39989,"is_reserved":false,"is_disabled":true,"rental_uris":{"android":"levelo://app?vid=17150a21-63a8-4df4-92e7-b364b699a6c6","ios":"levelo://app?vid=17150a21-63a8-4df4-92e7-b364b699a6c6"},"vehicle_type_id":"4","last_reported":1740553761,"current_range_meters":4800,"station_id":"ce4bhn12rcd13ifvqgqg","pricing_plan_id":"cebpf4jnsgd1na2vs0mg"},{"bike_id":"3ff97877-4a55-4663-9acd-eca55a48980c","system_id":"levelo_inurba_marseille","lat":43.2749,"lon":5.42456,"is_reserved":false,"is_disabled":false,"rental_uris":{"android":"levelo://app?vid=3ff97877-4a55-4663-9acd-eca55a48980c","ios":"levelo://app?vid=3ff97877-4a55-4663-9acd-eca55a48980c"},"vehicle_type_id":"4","last_reported":1740553761,"current_range_meters":6000,"station_id":"ce4bhn92rcd13ifvqgrg","pricing_plan_id":"cebpf4jnsgd1na2vs0mg"},{"bike_id":"ad15a503-e243-4704-8cbb-77d92c75e1d9","system_id":"levelo_inurba_marseille","lat":43.2844,"lon":5.39183,"is_reserved":false,"is_disabled":true,"rental_uris":{"android":"levelo://app?vid=ad15a503-e243-4704-8cbb-77d92c75e1d9","ios":"levelo://app?vid=ad15a503-e243-4704-8cbb-77d92c75e1d9"},"vehicle_type_id":"4","last_reported":1740553761,"current_range_meters":6000,"station_id":"ce4bhoh2rcd13ifvqh5g","pricing_plan_id":"cebpf4jnsgd1na2vs0mg"},{"bike_id":"f0f74fbc-eeb3-4967-b4b8-49d762bb5054","system_id":"levelo_inurba_marseille","lat":43.337444,"lon":5.374475,"is_reserved":false,"is_disabled":false,"rental_uris":{"android":"levelo://app?vid=f0f74fbc-eeb3-4967-b4b8-49d762bb5054","ios":"levelo://app?vid=f0f74fbc-eeb3-4967-b4b8-49d762bb5054"},"vehicle_type_id":"4","last_reported":1740553761,"current_range_meters":3600,"station_id":"","pricing_plan_id":"cebpf4jnsgd1na2vs0mg"},{"bike_id":"66613f8e-b400-438d-83dc-9aed1edc478d","system_id":"levelo_inurba_marseille","lat":43.28628,"lon":5.35113,"is_reserved":false,"is_disabled":false,"rental_uris":{"android":"levelo://app?vid=66613f8e-b400-438d-83dc-9aed1edc478d","ios":"levelo://app?vid=66613f8e-b400-438d-83dc-9aed1edc478d"},"vehicle_type_id":"4","last_reported":1740553761,"current_range_meters":6800,"station_id":"ce4bhch2rcd13ifvqeug","pricing_plan_id":"cebpf4jnsgd1na2vs0mg"},{"bike_id":"ca6a2022-cb96-4f44-9dfd-8e5d31faee29","system_id":"levelo_inurba_marseille","lat":43.28351,"lon":5.38103,"is_reserved":false,"is_disabled":false,"rental_uris":{"android":"levelo://app?vid=ca6a2022-cb96-4f44-9dfd-8e5d31faee29","ios":"levelo://app?vid=ca6a2022-cb96-4f44-9dfd-8e5d31faee29"},"vehicle_type_id":"4","last_reported":1740553761,"current_range_meters":6000,"station_id":"ce4bh412rcd13ifvqdr0","pricing_plan_id":"cebpf4jnsgd1na2vs0mg"},{"bike_id":"19294813-ba00-4830-afa1-cfbf83f4df3d","system_id":"levelo_inurba_marseille","lat":43.3377,"lon":5.37444,"is_reserved":false,"is_disabled":false,"rental_uris":{"android":"levelo://app?vid=19294813-ba00-4830-afa1-cfbf83f4df3d","ios":"levelo://app?vid=19294813-ba00-4830-afa1-cfbf83f4df3d"},"vehicle_type_id":"4","last_reported":1740553761,"current_range_meters":23200,"station_id":"","pricing_plan_id":"cebpf4jnsgd1na2vs0mg"},{"bike_id":"04fed40f-6366-4adc-8110-34cd72fc4be4","system_id":"levelo_inurba_marseille","lat":43.28451,"lon":5.35893,"is_reserved":false,"is_disabled":false,"rental_uris":{"android":"levelo://app?vid=04fed40f-6366-4adc-8110-34cd72fc4be4","ios":"levelo://app?vid=04fed40f-6366-4adc-8110-34cd72fc4be4"},"vehicle_type_id":"4","last_reported":1740553761,"current_range_meters":7200,"station_id":"ce4bhah2rcd13ifvqei0","pricing_plan_id":"cebpf4jnsgd1na2vs0mg"},{"bike_id":"41a82718-5578-41f7-be7c-4a36792814f7","system_id":"levelo_inurba_marseille","lat":43.25007,"lon":5.38919,"is_reserved":false,"is_disabled":false,"rental_uris":{"android":"levelo://app?vid=41a82718-5578-41f7-be7c-4a36792814f7","ios":"levelo://app?vid=41a82718-5578-41f7-be7c-4a36792814f7"},"vehicle_type_id":"4","last_reported":1740553761,"current_range_meters":6800,"station_id":"ce4bhgp2rcd13ifvqfd0","pricing_plan_id":"cebpf4jnsgd1na2vs0mg"},{"bike_id":"62e93aaa-9b8e-444f-b359-20000bdf93ae","system_id":"levelo_inurba_marseille","lat":43.27492,"lon":5.4245,"is_reserved":false,"is_disabled":false,"rental_uris":{"android":"levelo://app?vid=62e93aaa-9b8e-444f-b359-20000bdf93ae","ios":"levelo://app?vid=62e93aaa-9b8e-444f-b359-20000bdf93ae"},"vehicle_type_id":"4","last_reported":1740553761,"current_range_meters":9600,"station_id":"ce4bhn92rcd13ifvqgrg","pricing_plan_id":"cebpf4jnsgd1na2vs0mg"},{"bike_id":"9d0bd9cc-e282-4983-9e30-f0d2eaabbb80","system_id":"levelo_inurba_marseille","lat":43.30463,"lon":5.37911,"is_reserved":false,"is_disabled":false,"rental_uris":{"android":"levelo://app?vid=9d0bd9cc-e282-4983-9e30-f0d2eaabbb80","ios":"levelo://app?vid=9d0bd9cc-e282-4983-9e30-f0d2eaabbb80"},"vehicle_type_id":"4","last_reported":1740553761,"current_range_meters":10800,"station_id":"ce4bgup2rcd13ifvqcn0","pricing_plan_id":"cebpf4jnsgd1na2vs0mg"},{"bike_id":"5d16d1bf-f6ed-4f5b-bb86-2af7c04f4aef","system_id":"levelo_inurba_marseille","lat":43.25722,"lon":5.41126,"is_reserved":false,"is_disabled":false,"rental_uris":{"android":"levelo://app?vid=5d16d1bf-f6ed-4f5b-bb86-2af7c04f4aef","ios":"levelo://app?vid=5d16d1bf-f6ed-4f5b-bb86-2af7c04f4aef"},"vehicle_type_id":"4","last_reported":1740553761,"current_range_meters":6800,"station_id":"ce4bhkp2rcd13ifvqgd0","pricing_plan_id":"cebpf4jnsgd1na2vs0mg"},{"bike_id":"b6b4064c-0dc9-42a8-ba8d-0da6aa769c92","system_id":"levelo_inurba_marseille","lat":43.28472,"lon":5.38448,"is_reserved":false,"is_disabled":false,"rental_uris":{"android":"levelo://app?vid=b6b4064c-0dc9-42a8-ba8d-0da6aa769c92","ios":"levelo://app?vid=b6b4064c-0dc9-42a8-ba8d-0da6aa769c92"},"vehicle_type_id":"4","last_reported":1740553761,"current_range_meters":7200,"station_id":"ce4bh512rcd13ifvqe3g","pricing_plan_id":"cebpf4jnsgd1na2vs0mg"},{"bike_id":"ed6d808f-ed8e-477c-aaf0-112c97949e32","system_id":"levelo_inurba_marseille","lat":43.281,"lon":5.37845,"is_reserved":false,"is_disabled":false,"rental_uris":{"android":"levelo://app?vid=ed6d808f-ed8e-477c-aaf0-112c97949e32","ios":"levelo://app?vid=ed6d808f-ed8e-477c-aaf0-112c97949e32"},"vehicle_type_id":"4","last_reported":1740553761,"current_range_meters":7200,"station_id":"ce4bha12rcd13ifvqee0","pricing_plan_id":"cebpf4jnsgd1na2vs0mg"},{"bike_id":"e84aba14-8678-4c9d-aedc-4fc48e21e259","system_id":"levelo_inurba_marseille","lat":43.28374,"lon":5.38618,"is_reserved":false,"is_disabled":false,"rental_uris":{"android":"levelo://app?vid=e84aba14-8678-4c9d-aedc-4fc48e21e259","ios":"levelo://app?vid=e84aba14-8678-4c9d-aedc-4fc48e21e259"},"vehicle_type_id":"4","last_reported":1740553761,"current_range_meters":7200,"station_id":"ce4bh492rcd13ifvqdvg","pricing_plan_id":"cebpf4jnsgd1na2vs0mg"},{"bike_id":"6d8219f7-3246-4cc2-be2a-b2fe4f98e40e","system_id":"levelo_inurba_marseille","lat":43.29799,"lon":5.38094,"is_reserved":false,"is_disabled":false,"rental_uris":{"android":"levelo://app?vid=6d8219f7-3246-4cc2-be2a-b2fe4f98e40e","ios":"levelo://app?vid=6d8219f7-3246-4cc2-be2a-b2fe4f98e40e"},"vehicle_type_id":"4","last_reported":1740553761,"current_range_meters":7200,"station_id":"ce4bgip2rcd13ifvqbb0","pricing_plan_id":"cebpf4jnsgd1na2vs0mg"},{"bike_id":"d49ccfa8-beec-4372-b332-01749217cbcd","system_id":"levelo_inurba_marseille","lat":43.31994,"lon":5.38164,"is_reserved":false,"is_disabled":true,"rental_uris":{"android":"levelo://app?vid=d49ccfa8-beec-4372-b332-01749217cbcd","ios":"levelo://app?vid=d49ccfa8-beec-4372-b332-01749217cbcd"},"vehicle_type_id":"4","last_reported":1740553761,"current_range_meters":8000,"station_id":"ce4bhr12rcd13ifvqhpg","pricing_plan_id":"cebpf4jnsgd1na2vs0mg"},{"bike_id":"70656a71-7b5b-49e4-a2ca-c422d39a1205","system_id":"levelo_inurba_marseille","lat":43.27063,"lon":5.42279,"is_reserved":false,"is_disabled":false,"rental_uris":{"android":"levelo://app?vid=70656a71-7b5b-49e4-a2ca-c422d39a1205","ios":"levelo://app?vid=70656a71-7b5b-49e4-a2ca-c422d39a1205"},"vehicle_type_id":"4","last_reported":1740553761,"current_range_meters":8000,"station_id":"ce4bhk92rcd13ifvqgb0","pricing_plan_id":"cebpf4jnsgd1na2vs0mg"},{"bike_id":"1f8430a0-a831-441d-a382-be3bd24fffbf","system_id":"levelo_inurba_marseille","lat":43.281561,"lon":5.426426,"is_reserved":false,"is_disabled":false,"rental_uris":{"android":"levelo://app?vid=1f8430a0-a831-441d-a382-be3bd24fffbf","ios":"levelo://app?vid=1f8430a0-a831-441d-a382-be3bd24fffbf"},"vehicle_type_id":"4","last_reported":1740553761,"current_range_meters":5600,"station_id":"ce4bgh92rcd13ifvqb50","pricing_plan_id":"cebpf4jnsgd1na2vs0mg"},{"bike_id":"6e7dc168-d384-462a-9e48-e7eb22ec3d79","system_id":"levelo_inurba_marseille","lat":43.28256,"lon":5.35081,"is_reserved":false,"is_disabled":false,"rental_uris":{"android":"levelo://app?vid=6e7dc168-d384-462a-9e48-e7eb22ec3d79","ios":"levelo://app?vid=6e7dc168-d384-462a-9e48-e7eb22ec3d79"},"vehicle_type_id":"4","last_reported":1740553761,"current_range_meters":8400,"station_id":"ce4bhbp2rcd13ifvqerg","pricing_plan_id":"cebpf4jnsgd1na2vs0mg"},{"bike_id":"c787407e-a9b4-4149-bdad-d60b5ec75e8e","system_id":"levelo_inurba_marseille","lat":43.30475,"lon":5.37912,"is_reserved":false,"is_disabled":false,"rental_uris":{"android":"levelo://app?vid=c787407e-a9b4-4149-bdad-d60b5ec75e8e","ios":"levelo://app?vid=c787407e-a9b4-4149-bdad-d60b5ec75e8e"},"vehicle_type_id":"4","last_reported":1740553761,"current_range_meters":8000,"station_id":"ce4bgup2rcd13ifvqcn0","pricing_plan_id":"cebpf4jnsgd1na2vs0mg"},{"bike_id":"601d9d1a-b924-4349-8cfa-62d99997e8fb","system_id":"levelo_inurba_marseille","lat":43.23191,"lon":5.39986,"is_reserved":false,"is_disabled":false,"rental_uris":{"android":"levelo://app?vid=601d9d1a-b924-4349-8cfa-62d99997e8fb","ios":"levelo://app?vid=601d9d1a-b924-4349-8cfa-62d99997e8fb"},"vehicle_type_id":"4","last_reported":1740553761,"current_range_meters":8000,"station_id":"ce4bhn12rcd13ifvqgqg","pricing_plan_id":"cebpf4jnsgd1na2vs0mg"},{"bike_id":"1228a3a1-8e1e-4ef7-b91d-3c622dbf8ce9","system_id":"levelo_inurba_marseille","lat":43.27493,"lon":5.4246,"is_reserved":false,"is_disabled":false,"rental_uris":{"android":"levelo://app?vid=1228a3a1-8e1e-4ef7-b91d-3c622dbf8ce9","ios":"levelo://app?vid=1228a3a1-8e1e-4ef7-b91d-3c622dbf8ce9"},"vehicle_type_id":"4","last_reported":1740553761,"current_range_meters":8000,"station_id":"ce4bhn92rcd13ifvqgrg","pricing_plan_id":"cebpf4jnsgd1na2vs0mg"},{"bike_id":"8a347558-4d24-4798-bc0f-3e92792b691e","system_id":"levelo_inurba_marseille","lat":43.31218,"lon":5.36862,"is_reserved":false,"is_disabled":false,"rental_uris":{"android":"levelo://app?vid=8a347558-4d24-4798-bc0f-3e92792b691e","ios":"levelo://app?vid=8a347558-4d24-4798-bc0f-3e92792b691e"},"vehicle_type_id":"4","last_reported":1740553761,"current_range_meters":7200,"station_id":"ce4bgl92rcd13ifvqbq0","pricing_plan_id":"cebpf4jnsgd1na2vs0mg"},{"bike_id":"7c45866a-bd99-4c12-9747-66203f12a96e","system_id":"levelo_inurba_marseille","lat":43.23132,"lon":5.35515,"is_reserved":false,"is_disabled":false,"rental_uris":{"android":"levelo://app?vid=7c45866a-bd99-4c12-9747-66203f12a96e","ios":"levelo://app?vid=7c45866a-bd99-4c12-9747-66203f12a96e"},"vehicle_type_id":"4","last_reported":1740553761,"current_range_meters":8000,"station_id":"","pricing_plan_id":"cebpf4jnsgd1na2vs0mg"},{"bike_id":"b33978f7-7190-4fd6-910f-bb510fe1c5a7","system_id":"levelo_inurba_marseille","lat":43.23185,"lon":5.39989,"is_reserved":false,"is_disabled":false,"rental_uris":{"android":"levelo://app?vid=b33978f7-7190-4fd6-910f-bb510fe1c5a7","ios":"levelo://app?vid=b33978f7-7190-4fd6-910f-bb510fe1c5a7"},"vehicle_type_id":"4","last_reported":1740553761,"current_range_meters":8400,"station_id":"ce4bhn12rcd13ifvqgqg","pricing_plan_id":"cebpf4jnsgd1na2vs0mg"},{"bike_id":"b8056528-61d4-45d9-b2dd-e6ab8ef50c51","system_id":"levelo_inurba_marseille","lat":43.3128,"lon":5.40175,"is_reserved":false,"is_disabled":false,"rental_uris":{"android":"levelo://app?vid=b8056528-61d4-45d9-b2dd-e6ab8ef50c51","ios":"levelo://app?vid=b8056528-61d4-45d9-b2dd-e6ab8ef50c51"},"vehicle_type_id":"4","last_reported":1740553761,"current_range_meters":8400,"station_id":"ce4bh092rcd13ifvqd30","pricing_plan_id":"cebpf4jnsgd1na2vs0mg"},{"bike_id":"b8779f08-75d5-4e01-9cda-7c898988967c","system_id":"levelo_inurba_marseille","lat":43.25937,"lon":5.40906,"is_reserved":false,"is_disabled":false,"rental_uris":{"android":"levelo://app?vid=b8779f08-75d5-4e01-9cda-7c898988967c","ios":"levelo://app?vid=b8779f08-75d5-4e01-9cda-7c898988967c"},"vehicle_type_id":"4","last_reported":1740553761,"current_range_meters":8400,"station_id":"ce4bhm92rcd13ifvqglg","pricing_plan_id":"cebpf4jnsgd1na2vs0mg"},{"bike_id":"c0103b3d-a816-4d6f-9ace-685925eb6cf2","system_id":"levelo_inurba_marseille","lat":43.28277,"lon":5.35071,"is_reserved":false,"is_disabled":false,"rental_uris":{"android":"levelo://app?vid=c0103b3d-a816-4d6f-9ace-685925eb6cf2","ios":"levelo://app?vid=c0103b3d-a816-4d6f-9ace-685925eb6cf2"},"vehicle_type_id":"4","last_reported":1740553761,"current_range_meters":8400,"station_id":"ce4bhbp2rcd13ifvqerg","pricing_plan_id":"cebpf4jnsgd1na2vs0mg"},{"bike_id":"e5c275a2-a964-47d8-9489-ed1126cf4cef","system_id":"levelo_inurba_marseille","lat":43.29603,"lon":5.37911,"is_reserved":false,"is_disabled":false,"rental_uris":{"android":"levelo://app?vid=e5c275a2-a964-47d8-9489-ed1126cf4cef","ios":"levelo://app?vid=e5c275a2-a964-47d8-9489-ed1126cf4cef"},"vehicle_type_id":"4","last_reported":1740553761,"current_range_meters":8400,"station_id":"","pricing_plan_id":"cebpf4jnsgd1na2vs0mg"},{"bike_id":"ae8a19c6-d644-4dc9-829e-8caf6b1d2af0","system_id":"levelo_inurba_marseille","lat":43.27218,"lon":5.39184,"is_reserved":false,"is_disabled":true,"rental_uris":{"android":"levelo://app?vid=ae8a19c6-d644-4dc9-829e-8caf6b1d2af0","ios":"levelo://app?vid=ae8a19c6-d644-4dc9-829e-8caf6b1d2af0"},"vehicle_type_id":"4","last_reported":1740553761,"current_range_meters":8400,"station_id":"ce4bhhp2rcd13ifvqfm0","pricing_plan_id":"cebpf4jnsgd1na2vs0mg"},{"bike_id":"4410529b-71f6-4b67-af27-211cee340c28","system_id":"levelo_inurba_marseille","lat":43.29799,"lon":5.38101,"is_reserved":false,"is_disabled":false,"rental_uris":{"android":"levelo://app?vid=4410529b-71f6-4b67-af27-211cee340c28","ios":"levelo://app?vid=4410529b-71f6-4b67-af27-211cee340c28"},"vehicle_type_id":"4","last_reported":1740553761,"current_range_meters":8400,"station_id":"ce4bgip2rcd13ifvqbb0","pricing_plan_id":"cebpf4jnsgd1na2vs0mg"},{"bike_id":"cca8ecdd-4c24-4dac-833b-4730cba07bf6","system_id":"levelo_inurba_marseille","lat":43.29257,"lon":5.40134,"is_reserved":false,"is_disabled":false,"rental_uris":{"android":"levelo://app?vid=cca8ecdd-4c24-4dac-833b-4730cba07bf6","ios":"levelo://app?vid=cca8ecdd-4c24-4dac-833b-4730cba07bf6"},"vehicle_type_id":"4","last_reported":1740553761,"current_range_meters":7200,"station_id":"ce4bh312rcd13ifvqdk0","pricing_plan_id":"cebpf4jnsgd1na2vs0mg"},{"bike_id":"43d63f8a-f3b7-4d7c-be3c-996582d0e403","system_id":"levelo_inurba_marseille","lat":43.284134,"lon":5.374997,"is_reserved":false,"is_disabled":false,"rental_uris":{"android":"levelo://app?vid=43d63f8a-f3b7-4d7c-be3c-996582d0e403","ios":"levelo://app?vid=43d63f8a-f3b7-4d7c-be3c-996582d0e403"},"vehicle_type_id":"4","last_reported":1740553761,"current_range_meters":8400,"station_id":"ce4bh412rcd13ifvqds0","pricing_plan_id":"cebpf4jnsgd1na2vs0mg"},{"bike_id":"3f0de376-1b3d-469c-9b72-780fa51cf0b2","system_id":"levelo_inurba_marseille","lat":43.26499,"lon":5.39547,"is_reserved":false,"is_disabled":false,"rental_uris":{"android":"levelo://app?vid=3f0de376-1b3d-469c-9b72-780fa51cf0b2","ios":"levelo://app?vid=3f0de376-1b3d-469c-9b72-780fa51cf0b2"},"vehicle_type_id":"4","last_reported":1740553761,"current_range_meters":4000,"station_id":"ce4bhi12rcd13ifvqfq0","pricing_plan_id":"cebpf4jnsgd1na2vs0mg"},{"bike_id":"fa0fd479-49df-47e5-9d21-fe77857465d8","system_id":"levelo_inurba_marseille","lat":43.23966,"lon":5.36632,"is_reserved":false,"is_disabled":false,"rental_uris":{"android":"levelo://app?vid=fa0fd479-49df-47e5-9d21-fe77857465d8","ios":"levelo://app?vid=fa0fd479-49df-47e5-9d21-fe77857465d8"},"vehicle_type_id":"4","last_reported":1740553761,"current_range_meters":8800,"station_id":"ce4bhi12rcd13ifvqfp0","pricing_plan_id":"cebpf4jnsgd1na2vs0mg"},{"bike_id":"5e51c786-3ebc-4393-8ece-91f8158141cd","system_id":"levelo_inurba_marseille","lat":43.24074,"lon":5.37766,"is_reserved":false,"is_disabled":false,"rental_uris":{"android":"levelo://app?vid=5e51c786-3ebc-4393-8ece-91f8158141cd","ios":"levelo://app?vid=5e51c786-3ebc-4393-8ece-91f8158141cd"},"vehicle_type_id":"4","last_reported":1740553761,"current_range_meters":8400,"station_id":"ce4bhnp2rcd13ifvqgvg","pricing_plan_id":"cebpf4jnsgd1na2vs0mg"},{"bike_id":"e28c5a42-7675-498c-b632-66c33b4946fc","system_id":"levelo_inurba_marseille","lat":43.32049,"lon":5.41542,"is_reserved":false,"is_disabled":false,"rental_uris":{"android":"levelo://app?vid=e28c5a42-7675-498c-b632-66c33b4946fc","ios":"levelo://app?vid=e28c5a42-7675-498c-b632-66c33b4946fc"},"vehicle_type_id":"4","last_reported":1740553761,"current_range_meters":8400,"station_id":"ce4bhq92rcd13ifvqhkg","pricing_plan_id":"cebpf4jnsgd1na2vs0mg"},{"bike_id":"0755804b-e938-4970-a1f5-1ee40c67f3e0","system_id":"levelo_inurba_marseille","lat":43.24068,"lon":5.37765,"is_reserved":false,"is_disabled":false,"rental_uris":{"android":"levelo://app?vid=0755804b-e938-4970-a1f5-1ee40c67f3e0","ios":"levelo://app?vid=0755804b-e938-4970-a1f5-1ee40c67f3e0"},"vehicle_type_id":"4","last_reported":1740553761,"current_range_meters":8800,"station_id":"ce4bhnp2rcd13ifvqgvg","pricing_plan_id":"cebpf4jnsgd1na2vs0mg"},{"bike_id":"cbfa7cec-60a2-46ff-8558-0aab6b269dd8","system_id":"levelo_inurba_marseille","lat":43.28429,"lon":5.39185,"is_reserved":false,"is_disabled":false,"rental_uris":{"android":"levelo://app?vid=cbfa7cec-60a2-46ff-8558-0aab6b269dd8","ios":"levelo://app?vid=cbfa7cec-60a2-46ff-8558-0aab6b269dd8"},"vehicle_type_id":"4","last_reported":1740553761,"current_range_meters":8800,"station_id":"ce4bhoh2rcd13ifvqh5g","pricing_plan_id":"cebpf4jnsgd1na2vs0mg"},{"bike_id":"fd27a87b-beed-48d0-9c1f-b1fb51341453","system_id":"levelo_inurba_marseille","lat":43.27606,"lon":5.36124,"is_reserved":false,"is_disabled":true,"rental_uris":{"android":"levelo://app?vid=fd27a87b-beed-48d0-9c1f-b1fb51341453","ios":"levelo://app?vid=fd27a87b-beed-48d0-9c1f-b1fb51341453"},"vehicle_type_id":"4","last_reported":1740553761,"current_range_meters":8800,"station_id":"ce4bgj92rcd13ifvqbe0","pricing_plan_id":"cebpf4jnsgd1na2vs0mg"},{"bike_id":"9390b3f0-dc8c-44cb-bb97-94b872e59ad4","system_id":"levelo_inurba_marseille","lat":43.23152,"lon":5.43727,"is_reserved":false,"is_disabled":false,"rental_uris":{"android":"levelo://app?vid=9390b3f0-dc8c-44cb-bb97-94b872e59ad4","ios":"levelo://app?vid=9390b3f0-dc8c-44cb-bb97-94b872e59ad4"},"vehicle_type_id":"4","last_reported":1740553761,"current_range_meters":8400,"station_id":"ce4bhmp2rcd13ifvqgog","pricing_plan_id":"cebpf4jnsgd1na2vs0mg"},{"bike_id":"f2a87237-f624-4bf7-ad01-90df07b15d25","system_id":"levelo_inurba_marseille","lat":43.28431,"lon":5.37526,"is_reserved":false,"is_disabled":false,"rental_uris":{"android":"levelo://app?vid=f2a87237-f624-4bf7-ad01-90df07b15d25","ios":"levelo://app?vid=f2a87237-f624-4bf7-ad01-90df07b15d25"},"vehicle_type_id":"4","last_reported":1740553761,"current_range_meters":8800,"station_id":"ce4bh412rcd13ifvqds0","pricing_plan_id":"cebpf4jnsgd1na2vs0mg"},{"bike_id":"9fdc4bcb-37a1-4a1b-9387-b304f9f6eba4","system_id":"levelo_inurba_marseille","lat":43.26955,"lon":5.38631,"is_reserved":false,"is_disabled":false,"rental_uris":{"android":"levelo://app?vid=9fdc4bcb-37a1-4a1b-9387-b304f9f6eba4","ios":"levelo://app?vid=9fdc4bcb-37a1-4a1b-9387-b304f9f6eba4"},"vehicle_type_id":"4","last_reported":1740553761,"current_range_meters":8400,"station_id":"ce4bhh92rcd13ifvqfh0","pricing_plan_id":"cebpf4jnsgd1na2vs0mg"},{"bike_id":"0f1f3b76-2791-4f0f-845e-300b9a8eb89b","system_id":"levelo_inurba_marseille","lat":43.23199,"lon":5.35579,"is_reserved":false,"is_disabled":false,"rental_uris":{"android":"levelo://app?vid=0f1f3b76-2791-4f0f-845e-300b9a8eb89b","ios":"levelo://app?vid=0f1f3b76-2791-4f0f-845e-300b9a8eb89b"},"vehicle_type_id":"4","last_reported":1740553761,"current_range_meters":9200,"station_id":"ce4bhu92rcd13ifvqi70","pricing_plan_id":"cebpf4jnsgd1na2vs0mg"},{"bike_id":"9f6b1a57-8b18-4910-92c4-7c3c71b26e15","system_id":"levelo_inurba_marseille","lat":43.23349,"lon":5.36008,"is_reserved":false,"is_disabled":false,"rental_uris":{"android":"levelo://app?vid=9f6b1a57-8b18-4910-92c4-7c3c71b26e15","ios":"levelo://app?vid=9f6b1a57-8b18-4910-92c4-7c3c71b26e15"},"vehicle_type_id":"4","last_reported":1740553761,"current_range_meters":9200,"station_id":"","pricing_plan_id":"cebpf4jnsgd1na2vs0mg"},{"bike_id":"76ec9e61-d179-48d7-a2e2-2a6d97fad434","system_id":"levelo_inurba_marseille","lat":43.28411,"lon":5.3499,"is_reserved":false,"is_disabled":false,"rental_uris":{"android":"levelo://app?vid=76ec9e61-d179-48d7-a2e2-2a6d97fad434","ios":"levelo://app?vid=76ec9e61-d179-48d7-a2e2-2a6d97fad434"},"vehicle_type_id":"4","last_reported":1740553761,"current_range_meters":9600,"station_id":"ce4bhbh2rcd13ifvqepg","pricing_plan_id":"cebpf4jnsgd1na2vs0mg"},{"bike_id":"13301daf-0444-439c-90f5-309514bd90a4","system_id":"levelo_inurba_marseille","lat":43.31531,"lon":5.38025,"is_reserved":false,"is_disabled":false,"rental_uris":{"android":"levelo://app?vid=13301daf-0444-439c-90f5-309514bd90a4","ios":"levelo://app?vid=13301daf-0444-439c-90f5-309514bd90a4"},"vehicle_type_id":"4","last_reported":1740553761,"current_range_meters":9200,"station_id":"ce4bhsp2rcd13ifvqi50","pricing_plan_id":"cebpf4jnsgd1na2vs0mg"},{"bike_id":"a1ca3ad0-4f52-4569-bb87-4293f6934d8b","system_id":"levelo_inurba_marseille","lat":43.23213,"lon":5.35551,"is_reserved":false,"is_disabled":false,"rental_uris":{"android":"levelo://app?vid=a1ca3ad0-4f52-4569-bb87-4293f6934d8b","ios":"levelo://app?vid=a1ca3ad0-4f52-4569-bb87-4293f6934d8b"},"vehicle_type_id":"4","last_reported":1740553761,"current_range_meters":9200,"station_id":"ce4bhu92rcd13ifvqi70","pricing_plan_id":"cebpf4jnsgd1na2vs0mg"},{"bike_id":"37f282dd-3c82-4a6a-9579-52ba7e01751c","system_id":"levelo_inurba_marseille","lat":43.31537,"lon":5.38037,"is_reserved":false,"is_disabled":false,"rental_uris":{"android":"levelo://app?vid=37f282dd-3c82-4a6a-9579-52ba7e01751c","ios":"levelo://app?vid=37f282dd-3c82-4a6a-9579-52ba7e01751c"},"vehicle_type_id":"4","last_reported":1740553761,"current_range_meters":9200,"station_id":"ce4bhsp2rcd13ifvqi50","pricing_plan_id":"cebpf4jnsgd1na2vs0mg"},{"bike_id":"e7234b8e-3807-4b4c-852c-4a3fe63998d8","system_id":"levelo_inurba_marseille","lat":43.28841,"lon":5.35867,"is_reserved":false,"is_disabled":false,"rental_uris":{"android":"levelo://app?vid=e7234b8e-3807-4b4c-852c-4a3fe63998d8","ios":"levelo://app?vid=e7234b8e-3807-4b4c-852c-4a3fe63998d8"},"vehicle_type_id":"4","last_reported":1740553761,"current_range_meters":10000,"station_id":"ce4bhb12rcd13ifvqem0","pricing_plan_id":"cebpf4jnsgd1na2vs0mg"},{"bike_id":"e93c7e29-0d01-4887-aaa1-1b6f0519e5f6","system_id":"levelo_inurba_marseille","lat":43.29873,"lon":5.39723,"is_reserved":false,"is_disabled":false,"rental_uris":{"android":"levelo://app?vid=e93c7e29-0d01-4887-aaa1-1b6f0519e5f6","ios":"levelo://app?vid=e93c7e29-0d01-4887-aaa1-1b6f0519e5f6"},"vehicle_type_id":"4","last_reported":1740553761,"current_range_meters":9600,"station_id":"ce4bh0h2rcd13ifvqd50","pricing_plan_id":"cebpf4jnsgd1na2vs0mg"},{"bike_id":"05f51bd6-bf8c-4b6c-ba2f-d7bf7cec3006","system_id":"levelo_inurba_marseille","lat":43.23188,"lon":5.35567,"is_reserved":false,"is_disabled":false,"rental_uris":{"android":"levelo://app?vid=05f51bd6-bf8c-4b6c-ba2f-d7bf7cec3006","ios":"levelo://app?vid=05f51bd6-bf8c-4b6c-ba2f-d7bf7cec3006"},"vehicle_type_id":"4","last_reported":1740553761,"current_range_meters":9600,"station_id":"ce4bhu92rcd13ifvqi70","pricing_plan_id":"cebpf4jnsgd1na2vs0mg"},{"bike_id":"5414f22f-56c9-41d2-8c07-553e02debed7","system_id":"levelo_inurba_marseille","lat":43.28208,"lon":5.40946,"is_reserved":false,"is_disabled":false,"rental_uris":{"android":"levelo://app?vid=5414f22f-56c9-41d2-8c07-553e02debed7","ios":"levelo://app?vid=5414f22f-56c9-41d2-8c07-553e02debed7"},"vehicle_type_id":"4","last_reported":1740553761,"current_range_meters":9600,"station_id":"","pricing_plan_id":"cebpf4jnsgd1na2vs0mg"},{"bike_id":"344b9ada-dc13-401b-99db-124646ed697f","system_id":"levelo_inurba_marseille","lat":43.28832,"lon":5.35853,"is_reserved":false,"is_disabled":false,"rental_uris":{"android":"levelo://app?vid=344b9ada-dc13-401b-99db-124646ed697f","ios":"levelo://app?vid=344b9ada-dc13-401b-99db-124646ed697f"},"vehicle_type_id":"4","last_reported":1740553761,"current_range_meters":9600,"station_id":"ce4bhb12rcd13ifvqem0","pricing_plan_id":"cebpf4jnsgd1na2vs0mg"},{"bike_id":"25255681-d668-4957-b49d-3fba4d0fc5e1","system_id":"levelo_inurba_marseille","lat":43.27896,"lon":5.38008,"is_reserved":false,"is_disabled":false,"rental_uris":{"android":"levelo://app?vid=25255681-d668-4957-b49d-3fba4d0fc5e1","ios":"levelo://app?vid=25255681-d668-4957-b49d-3fba4d0fc5e1"},"vehicle_type_id":"4","last_reported":1740553761,"current_range_meters":9600,"station_id":"ce4bhf92rcd13ifvqf50","pricing_plan_id":"cebpf4jnsgd1na2vs0mg"},{"bike_id":"75886ce9-2965-4560-bc9c-0eb7160bbeed","system_id":"levelo_inurba_marseille","lat":43.2407,"lon":5.37758,"is_reserved":false,"is_disabled":false,"rental_uris":{"android":"levelo://app?vid=75886ce9-2965-4560-bc9c-0eb7160bbeed","ios":"levelo://app?vid=75886ce9-2965-4560-bc9c-0eb7160bbeed"},"vehicle_type_id":"4","last_reported":1740553761,"current_range_meters":13600,"station_id":"ce4bhnp2rcd13ifvqgvg","pricing_plan_id":"cebpf4jnsgd1na2vs0mg"},{"bike_id":"56122afd-5610-4aef-95a4-623306935757","system_id":"levelo_inurba_marseille","lat":43.28479,"lon":5.38427,"is_reserved":false,"is_disabled":false,"rental_uris":{"android":"levelo://app?vid=56122afd-5610-4aef-95a4-623306935757","ios":"levelo://app?vid=56122afd-5610-4aef-95a4-623306935757"},"vehicle_type_id":"4","last_reported":1740553761,"current_range_meters":10000,"station_id":"ce4bh512rcd13ifvqe3g","pricing_plan_id":"cebpf4jnsgd1na2vs0mg"},{"bike_id":"f5232ca0-a0ea-4b65-9be9-c58c9ab586fb","system_id":"levelo_inurba_marseille","lat":43.28156,"lon":5.42636,"is_reserved":false,"is_disabled":false,"rental_uris":{"android":"levelo://app?vid=f5232ca0-a0ea-4b65-9be9-c58c9ab586fb","ios":"levelo://app?vid=f5232ca0-a0ea-4b65-9be9-c58c9ab586fb"},"vehicle_type_id":"4","last_reported":1740553761,"current_range_meters":10000,"station_id":"ce4bhnh2rcd13ifvqgug","pricing_plan_id":"cebpf4jnsgd1na2vs0mg"},{"bike_id":"7e185067-8e3a-484c-96c1-adb19aa7f875","system_id":"levelo_inurba_marseille","lat":43.28418,"lon":5.37521,"is_reserved":false,"is_disabled":false,"rental_uris":{"android":"levelo://app?vid=7e185067-8e3a-484c-96c1-adb19aa7f875","ios":"levelo://app?vid=7e185067-8e3a-484c-96c1-adb19aa7f875"},"vehicle_type_id":"4","last_reported":1740553761,"current_range_meters":10000,"station_id":"ce4bh412rcd13ifvqds0","pricing_plan_id":"cebpf4jnsgd1na2vs0mg"},{"bike_id":"62aba03d-465e-4478-a054-d828e4250577","system_id":"levelo_inurba_marseille","lat":43.28265,"lon":5.35076,"is_reserved":false,"is_disabled":false,"rental_uris":{"android":"levelo://app?vid=62aba03d-465e-4478-a054-d828e4250577","ios":"levelo://app?vid=62aba03d-465e-4478-a054-d828e4250577"},"vehicle_type_id":"4","last_reported":1740553761,"current_range_meters":10000,"station_id":"ce4bhbp2rcd13ifvqerg","pricing_plan_id":"cebpf4jnsgd1na2vs0mg"},{"bike_id":"549eba66-470c-49fc-9bda-650ecb397aed","system_id":"levelo_inurba_marseille","lat":43.28607,"lon":5.38133,"is_reserved":false,"is_disabled":true,"rental_uris":{"android":"levelo://app?vid=549eba66-470c-49fc-9bda-650ecb397aed","ios":"levelo://app?vid=549eba66-470c-49fc-9bda-650ecb397aed"},"vehicle_type_id":"4","last_reported":1740553761,"current_range_meters":10000,"station_id":"","pricing_plan_id":"cebpf4jnsgd1na2vs0mg"},{"bike_id":"7c8aaa9b-e43a-43de-8b4f-a531a44d3724","system_id":"levelo_inurba_marseille","lat":43.279419,"lon":5.410526,"is_reserved":false,"is_disabled":false,"rental_uris":{"android":"levelo://app?vid=7c8aaa9b-e43a-43de-8b4f-a531a44d3724","ios":"levelo://app?vid=7c8aaa9b-e43a-43de-8b4f-a531a44d3724"},"vehicle_type_id":"4","last_reported":1740553761,"current_range_meters":10800,"station_id":"ce4bhnp2rcd13ifvqh0g","pricing_plan_id":"cebpf4jnsgd1na2vs0mg"},{"bike_id":"7634ce39-22f6-4028-9e45-c9bd6b9ffa5a","system_id":"levelo_inurba_marseille","lat":43.28561,"lon":5.39511,"is_reserved":false,"is_disabled":false,"rental_uris":{"android":"levelo://app?vid=7634ce39-22f6-4028-9e45-c9bd6b9ffa5a","ios":"levelo://app?vid=7634ce39-22f6-4028-9e45-c9bd6b9ffa5a"},"vehicle_type_id":"4","last_reported":1740553761,"current_range_meters":10000,"station_id":"ce4bh292rcd13ifvqdg0","pricing_plan_id":"cebpf4jnsgd1na2vs0mg"},{"bike_id":"b007f058-4163-4bbe-ba13-50835769bd43","system_id":"levelo_inurba_marseille","lat":43.31713,"lon":5.43713,"is_reserved":false,"is_disabled":false,"rental_uris":{"android":"levelo://app?vid=b007f058-4163-4bbe-ba13-50835769bd43","ios":"levelo://app?vid=b007f058-4163-4bbe-ba13-50835769bd43"},"vehicle_type_id":"4","last_reported":1740553761,"current_range_meters":10000,"station_id":"ce4bhp92rcd13ifvqhcg","pricing_plan_id":"cebpf4jnsgd1na2vs0mg"},{"bike_id":"4bcee7f2-7a8a-43dd-853c-163df9362300","system_id":"levelo_inurba_marseille","lat":43.27978,"lon":5.39973,"is_reserved":false,"is_disabled":false,"rental_uris":{"android":"levelo://app?vid=4bcee7f2-7a8a-43dd-853c-163df9362300","ios":"levelo://app?vid=4bcee7f2-7a8a-43dd-853c-163df9362300"},"vehicle_type_id":"4","last_reported":1740553761,"current_range_meters":10000,"station_id":"ce4bho92rcd13ifvqh4g","pricing_plan_id":"cebpf4jnsgd1na2vs0mg"},{"bike_id":"a5668e0b-4dcd-4429-94e5-3c03768d9bb3","system_id":"levelo_inurba_marseille","lat":43.29017,"lon":5.40044,"is_reserved":false,"is_disabled":false,"rental_uris":{"android":"levelo://app?vid=a5668e0b-4dcd-4429-94e5-3c03768d9bb3","ios":"levelo://app?vid=a5668e0b-4dcd-4429-94e5-3c03768d9bb3"},"vehicle_type_id":"4","last_reported":1740553761,"current_range_meters":10000,"station_id":"","pricing_plan_id":"cebpf4jnsgd1na2vs0mg"},{"bike_id":"dcdfafc4-ad04-4f03-b713-a44cb5c77c53","system_id":"levelo_inurba_marseille","lat":43.29555,"lon":5.39952,"is_reserved":false,"is_disabled":true,"rental_uris":{"android":"levelo://app?vid=dcdfafc4-ad04-4f03-b713-a44cb5c77c53","ios":"levelo://app?vid=dcdfafc4-ad04-4f03-b713-a44cb5c77c53"},"vehicle_type_id":"4","last_reported":1740553761,"current_range_meters":10800,"station_id":"ce4bh312rcd13ifvqdj0","pricing_plan_id":"cebpf4jnsgd1na2vs0mg"},{"bike_id":"2cbc35b5-e249-4e17-a6c3-4f15da01fe6b","system_id":"levelo_inurba_marseille","lat":43.25724,"lon":5.4111,"is_reserved":false,"is_disabled":false,"rental_uris":{"android":"levelo://app?vid=2cbc35b5-e249-4e17-a6c3-4f15da01fe6b","ios":"levelo://app?vid=2cbc35b5-e249-4e17-a6c3-4f15da01fe6b"},"vehicle_type_id":"4","last_reported":1740553761,"current_range_meters":10800,"station_id":"ce4bhkp2rcd13ifvqgd0","pricing_plan_id":"cebpf4jnsgd1na2vs0mg"},{"bike_id":"85710084-a931-47e8-ab4c-1f19a337f065","system_id":"levelo_inurba_marseille","lat":43.29167,"lon":5.38604,"is_reserved":false,"is_disabled":false,"rental_uris":{"android":"levelo://app?vid=85710084-a931-47e8-ab4c-1f19a337f065","ios":"levelo://app?vid=85710084-a931-47e8-ab4c-1f19a337f065"},"vehicle_type_id":"4","last_reported":1740553761,"current_range_meters":11200,"station_id":"","pricing_plan_id":"cebpf4jnsgd1na2vs0mg"},{"bike_id":"6d868570-4a79-4602-b067-8f69145b3a5c","system_id":"levelo_inurba_marseille","lat":43.27815,"lon":5.40725,"is_reserved":false,"is_disabled":false,"rental_uris":{"android":"levelo://app?vid=6d868570-4a79-4602-b067-8f69145b3a5c","ios":"levelo://app?vid=6d868570-4a79-4602-b067-8f69145b3a5c"},"vehicle_type_id":"4","last_reported":1740553761,"current_range_meters":10800,"station_id":"ce4bhnh2rcd13ifvqgtg","pricing_plan_id":"cebpf4jnsgd1na2vs0mg"},{"bike_id":"6b286004-f086-4023-9675-02a95f8e917b","system_id":"levelo_inurba_marseille","lat":43.30958,"lon":5.3905,"is_reserved":false,"is_disabled":true,"rental_uris":{"android":"levelo://app?vid=6b286004-f086-4023-9675-02a95f8e917b","ios":"levelo://app?vid=6b286004-f086-4023-9675-02a95f8e917b"},"vehicle_type_id":"4","last_reported":1740553761,"current_range_meters":10800,"station_id":"ce4bgup2rcd13ifvqco0","pricing_plan_id":"cebpf4jnsgd1na2vs0mg"},{"bike_id":"28c3c768-a907-4c23-bf24-a49a1e1e5bae","system_id":"levelo_inurba_marseille","lat":43.29185,"lon":5.38414,"is_reserved":false,"is_disabled":false,"rental_uris":{"android":"levelo://app?vid=28c3c768-a907-4c23-bf24-a49a1e1e5bae","ios":"levelo://app?vid=28c3c768-a907-4c23-bf24-a49a1e1e5bae"},"vehicle_type_id":"4","last_reported":1740553761,"current_range_meters":10800,"station_id":"","pricing_plan_id":"cebpf4jnsgd1na2vs0mg"},{"bike_id":"b7e76cce-cd59-41fc-bddd-abd519a7d294","system_id":"levelo_inurba_marseille","lat":43.33767,"lon":5.37431,"is_reserved":false,"is_disabled":false,"rental_uris":{"android":"levelo://app?vid=b7e76cce-cd59-41fc-bddd-abd519a7d294","ios":"levelo://app?vid=b7e76cce-cd59-41fc-bddd-abd519a7d294"},"vehicle_type_id":"4","last_reported":1740553761,"current_range_meters":34000,"station_id":"","pricing_plan_id":"cebpf4jnsgd1na2vs0mg"},{"bike_id":"08c01866-a764-4945-a045-cd29291dd22a","system_id":"levelo_inurba_marseille","lat":43.30322,"lon":5.40451,"is_reserved":false,"is_disabled":false,"rental_uris":{"android":"levelo://app?vid=08c01866-a764-4945-a045-cd29291dd22a","ios":"levelo://app?vid=08c01866-a764-4945-a045-cd29291dd22a"},"vehicle_type_id":"4","last_reported":1740553761,"current_range_meters":11600,"station_id":"ce4bh012rcd13ifvqd10","pricing_plan_id":"cebpf4jnsgd1na2vs0mg"},{"bike_id":"737e724d-35b5-4f28-8cd2-1d49d299703f","system_id":"levelo_inurba_marseille","lat":43.28431,"lon":5.39207,"is_reserved":false,"is_disabled":false,"rental_uris":{"android":"levelo://app?vid=737e724d-35b5-4f28-8cd2-1d49d299703f","ios":"levelo://app?vid=737e724d-35b5-4f28-8cd2-1d49d299703f"},"vehicle_type_id":"4","last_reported":1740553761,"current_range_meters":11200,"station_id":"","pricing_plan_id":"cebpf4jnsgd1na2vs0mg"},{"bike_id":"d9b1bbe6-7852-4729-9be6-dbd5e1000d90","system_id":"levelo_inurba_marseille","lat":43.28358,"lon":5.3862,"is_reserved":false,"is_disabled":false,"rental_uris":{"android":"levelo://app?vid=d9b1bbe6-7852-4729-9be6-dbd5e1000d90","ios":"levelo://app?vid=d9b1bbe6-7852-4729-9be6-dbd5e1000d90"},"vehicle_type_id":"4","last_reported":1740553761,"current_range_meters":11200,"station_id":"ce4bh492rcd13ifvqdvg","pricing_plan_id":"cebpf4jnsgd1na2vs0mg"},{"bike_id":"dfd23175-6a62-4c95-a53c-9500be447999","system_id":"levelo_inurba_marseille","lat":43.24084,"lon":5.37733,"is_reserved":false,"is_disabled":false,"rental_uris":{"android":"levelo://app?vid=dfd23175-6a62-4c95-a53c-9500be447999","ios":"levelo://app?vid=dfd23175-6a62-4c95-a53c-9500be447999"},"vehicle_type_id":"4","last_reported":1740553761,"current_range_meters":11600,"station_id":"ce4bhnp2rcd13ifvqgvg","pricing_plan_id":"cebpf4jnsgd1na2vs0mg"},{"bike_id":"d0801915-0de0-4f9d-9726-750b42c06614","system_id":"levelo_inurba_marseille","lat":43.32112,"lon":5.36772,"is_reserved":false,"is_disabled":false,"rental_uris":{"android":"levelo://app?vid=d0801915-0de0-4f9d-9726-750b42c06614","ios":"levelo://app?vid=d0801915-0de0-4f9d-9726-750b42c06614"},"vehicle_type_id":"4","last_reported":1740553761,"current_range_meters":11200,"station_id":"ce4bhrh2rcd13ifvqhug","pricing_plan_id":"cebpf4jnsgd1na2vs0mg"},{"bike_id":"2da988cb-0a8e-4630-8eba-f346e70262d4","system_id":"levelo_inurba_marseille","lat":43.33624,"lon":5.40954,"is_reserved":false,"is_disabled":false,"rental_uris":{"android":"levelo://app?vid=2da988cb-0a8e-4630-8eba-f346e70262d4","ios":"levelo://app?vid=2da988cb-0a8e-4630-8eba-f346e70262d4"},"vehicle_type_id":"4","last_reported":1740553761,"current_range_meters":10800,"station_id":"ce4bhqh2rcd13ifvqhmg","pricing_plan_id":"cebpf4jnsgd1na2vs0mg"},{"bike_id":"6f0898ca-1c6f-43fb-9cc7-a6f6c795f765","system_id":"levelo_inurba_marseille","lat":43.24543,"lon":5.39548,"is_reserved":false,"is_disabled":false,"rental_uris":{"android":"levelo://app?vid=6f0898ca-1c6f-43fb-9cc7-a6f6c795f765","ios":"levelo://app?vid=6f0898ca-1c6f-43fb-9cc7-a6f6c795f765"},"vehicle_type_id":"4","last_reported":1740553761,"current_range_meters":11200,"station_id":"ce4bhlp2rcd13ifvqgjg","pricing_plan_id":"cebpf4jnsgd1na2vs0mg"},{"bike_id":"ba85f183-13c6-4481-819e-69a7446444ef","system_id":"levelo_inurba_marseille","lat":43.31479,"lon":5.37312,"is_reserved":false,"is_disabled":false,"rental_uris":{"android":"levelo://app?vid=ba85f183-13c6-4481-819e-69a7446444ef","ios":"levelo://app?vid=ba85f183-13c6-4481-819e-69a7446444ef"},"vehicle_type_id":"4","last_reported":1740553761,"current_range_meters":10800,"station_id":"ce4bgt12rcd13ifvqcd0","pricing_plan_id":"cebpf4jnsgd1na2vs0mg"},{"bike_id":"b6a4cfb9-fdd3-4bf6-9402-2e45d150b5a9","system_id":"levelo_inurba_marseille","lat":43.317639,"lon":5.390175,"is_reserved":false,"is_disabled":false,"rental_uris":{"android":"levelo://app?vid=b6a4cfb9-fdd3-4bf6-9402-2e45d150b5a9","ios":"levelo://app?vid=b6a4cfb9-fdd3-4bf6-9402-2e45d150b5a9"},"vehicle_type_id":"4","last_reported":1740553761,"current_range_meters":11600,"station_id":"ce4bhqp2rcd13ifvqhng","pricing_plan_id":"cebpf4jnsgd1na2vs0mg"},{"bike_id":"0a089428-bbf6-4308-bf3d-1d45254d436e","system_id":"levelo_inurba_marseille","lat":43.25089,"lon":5.39512,"is_reserved":false,"is_disabled":false,"rental_uris":{"android":"levelo://app?vid=0a089428-bbf6-4308-bf3d-1d45254d436e","ios":"levelo://app?vid=0a089428-bbf6-4308-bf3d-1d45254d436e"},"vehicle_type_id":"4","last_reported":1740553761,"current_range_meters":11600,"station_id":"ce4bhm12rcd13ifvqgkg","pricing_plan_id":"cebpf4jnsgd1na2vs0mg"},{"bike_id":"62d25035-fd05-4b24-8869-db24886d771e","system_id":"levelo_inurba_marseille","lat":43.27061,"lon":5.40264,"is_reserved":false,"is_disabled":false,"rental_uris":{"android":"levelo://app?vid=62d25035-fd05-4b24-8869-db24886d771e","ios":"levelo://app?vid=62d25035-fd05-4b24-8869-db24886d771e"},"vehicle_type_id":"4","last_reported":1740553761,"current_range_meters":7200,"station_id":"ce4bhk92rcd13ifvqgc0","pricing_plan_id":"cebpf4jnsgd1na2vs0mg"},{"bike_id":"51316f82-966e-483b-a199-c35a3316c870","system_id":"levelo_inurba_marseille","lat":43.2656,"lon":5.3729,"is_reserved":false,"is_disabled":false,"rental_uris":{"android":"levelo://app?vid=51316f82-966e-483b-a199-c35a3316c870","ios":"levelo://app?vid=51316f82-966e-483b-a199-c35a3316c870"},"vehicle_type_id":"4","last_reported":1740553761,"current_range_meters":11600,"station_id":"ce4bhg12rcd13ifvqf70","pricing_plan_id":"cebpf4jnsgd1na2vs0mg"},{"bike_id":"7f9b7dc4-8927-43fb-bbfc-5e846554bf91","system_id":"levelo_inurba_marseille","lat":43.26954,"lon":5.38628,"is_reserved":false,"is_disabled":false,"rental_uris":{"android":"levelo://app?vid=7f9b7dc4-8927-43fb-bbfc-5e846554bf91","ios":"levelo://app?vid=7f9b7dc4-8927-43fb-bbfc-5e846554bf91"},"vehicle_type_id":"4","last_reported":1740553761,"current_range_meters":12000,"station_id":"ce4bhh92rcd13ifvqfh0","pricing_plan_id":"cebpf4jnsgd1na2vs0mg"},{"bike_id":"2ede63cf-fc12-4d9c-8663-f624ef7aef61","system_id":"levelo_inurba_marseille","lat":43.27993,"lon":5.40016,"is_reserved":false,"is_disabled":false,"rental_uris":{"android":"levelo://app?vid=2ede63cf-fc12-4d9c-8663-f624ef7aef61","ios":"levelo://app?vid=2ede63cf-fc12-4d9c-8663-f624ef7aef61"},"vehicle_type_id":"4","last_reported":1740553761,"current_range_meters":12000,"station_id":"ce4bho92rcd13ifvqh4g","pricing_plan_id":"cebpf4jnsgd1na2vs0mg"},{"bike_id":"be6c8724-7af3-4554-89a2-f2ab10eaeb46","system_id":"levelo_inurba_marseille","lat":43.30876,"lon":5.39645,"is_reserved":false,"is_disabled":false,"rental_uris":{"android":"levelo://app?vid=be6c8724-7af3-4554-89a2-f2ab10eaeb46","ios":"levelo://app?vid=be6c8724-7af3-4554-89a2-f2ab10eaeb46"},"vehicle_type_id":"4","last_reported":1740553761,"current_range_meters":12000,"station_id":"ce4bh012rcd13ifvqcv0","pricing_plan_id":"cebpf4jnsgd1na2vs0mg"},{"bike_id":"67ee95a1-160f-49c1-b11e-b3640680cd0d","system_id":"levelo_inurba_marseille","lat":43.32106,"lon":5.36795,"is_reserved":false,"is_disabled":false,"rental_uris":{"android":"levelo://app?vid=67ee95a1-160f-49c1-b11e-b3640680cd0d","ios":"levelo://app?vid=67ee95a1-160f-49c1-b11e-b3640680cd0d"},"vehicle_type_id":"4","last_reported":1740553761,"current_range_meters":12000,"station_id":"ce4bhrh2rcd13ifvqhug","pricing_plan_id":"cebpf4jnsgd1na2vs0mg"},{"bike_id":"b7436004-dbec-4a64-9881-ed5b470a1d79","system_id":"levelo_inurba_marseille","lat":43.296,"lon":5.3811,"is_reserved":false,"is_disabled":false,"rental_uris":{"android":"levelo://app?vid=b7436004-dbec-4a64-9881-ed5b470a1d79","ios":"levelo://app?vid=b7436004-dbec-4a64-9881-ed5b470a1d79"},"vehicle_type_id":"4","last_reported":1740553761,"current_range_meters":12000,"station_id":"ce4bgl12rcd13ifvqbo0","pricing_plan_id":"cebpf4jnsgd1na2vs0mg"},{"bike_id":"9f8da727-5d33-4e44-bfbe-6c6e8e73ada7","system_id":"levelo_inurba_marseille","lat":43.27056,"lon":5.42285,"is_reserved":false,"is_disabled":false,"rental_uris":{"android":"levelo://app?vid=9f8da727-5d33-4e44-bfbe-6c6e8e73ada7","ios":"levelo://app?vid=9f8da727-5d33-4e44-bfbe-6c6e8e73ada7"},"vehicle_type_id":"4","last_reported":1740553761,"current_range_meters":12000,"station_id":"ce4bhk92rcd13ifvqgb0","pricing_plan_id":"cebpf4jnsgd1na2vs0mg"},{"bike_id":"bb953524-1b92-4c01-b6f7-6c8d4a329874","system_id":"levelo_inurba_marseille","lat":43.28276,"lon":5.35079,"is_reserved":false,"is_disabled":false,"rental_uris":{"android":"levelo://app?vid=bb953524-1b92-4c01-b6f7-6c8d4a329874","ios":"levelo://app?vid=bb953524-1b92-4c01-b6f7-6c8d4a329874"},"vehicle_type_id":"4","last_reported":1740553761,"current_range_meters":12800,"station_id":"ce4bhbp2rcd13ifvqerg","pricing_plan_id":"cebpf4jnsgd1na2vs0mg"},{"bike_id":"60577a67-a71c-49c7-a3d3-a6d09ddf27b8","system_id":"levelo_inurba_marseille","lat":43.28435,"lon":5.3754,"is_reserved":false,"is_disabled":false,"rental_uris":{"android":"levelo://app?vid=60577a67-a71c-49c7-a3d3-a6d09ddf27b8","ios":"levelo://app?vid=60577a67-a71c-49c7-a3d3-a6d09ddf27b8"},"vehicle_type_id":"4","last_reported":1740553761,"current_range_meters":12400,"station_id":"ce4bh412rcd13ifvqds0","pricing_plan_id":"cebpf4jnsgd1na2vs0mg"},{"bike_id":"94af3076-c8aa-41a7-b396-c0fe68bb6a60","system_id":"levelo_inurba_marseille","lat":43.31282,"lon":5.40173,"is_reserved":false,"is_disabled":false,"rental_uris":{"android":"levelo://app?vid=94af3076-c8aa-41a7-b396-c0fe68bb6a60","ios":"levelo://app?vid=94af3076-c8aa-41a7-b396-c0fe68bb6a60"},"vehicle_type_id":"4","last_reported":1740553761,"current_range_meters":12400,"station_id":"ce4bh092rcd13ifvqd30","pricing_plan_id":"cebpf4jnsgd1na2vs0mg"},{"bike_id":"78478cef-43d2-4961-afc3-36124209df6e","system_id":"levelo_inurba_marseille","lat":43.2838,"lon":5.38621,"is_reserved":false,"is_disabled":false,"rental_uris":{"android":"levelo://app?vid=78478cef-43d2-4961-afc3-36124209df6e","ios":"levelo://app?vid=78478cef-43d2-4961-afc3-36124209df6e"},"vehicle_type_id":"4","last_reported":1740553761,"current_range_meters":12400,"station_id":"ce4bh492rcd13ifvqdvg","pricing_plan_id":"cebpf4jnsgd1na2vs0mg"},{"bike_id":"2b4899ac-e84d-4b71-98a3-ff05bc8c5d38","system_id":"levelo_inurba_marseille","lat":43.29589,"lon":5.38107,"is_reserved":false,"is_disabled":false,"rental_uris":{"android":"levelo://app?vid=2b4899ac-e84d-4b71-98a3-ff05bc8c5d38","ios":"levelo://app?vid=2b4899ac-e84d-4b71-98a3-ff05bc8c5d38"},"vehicle_type_id":"4","last_reported":1740553761,"current_range_meters":12800,"station_id":"ce4bgl12rcd13ifvqbo0","pricing_plan_id":"cebpf4jnsgd1na2vs0mg"},{"bike_id":"d64f3fed-3c49-4b3b-ac28-78a5d5fe6a62","system_id":"levelo_inurba_marseille","lat":43.30245,"lon":5.4007,"is_reserved":false,"is_disabled":false,"rental_uris":{"android":"levelo://app?vid=d64f3fed-3c49-4b3b-ac28-78a5d5fe6a62","ios":"levelo://app?vid=d64f3fed-3c49-4b3b-ac28-78a5d5fe6a62"},"vehicle_type_id":"4","last_reported":1740553761,"current_range_meters":13600,"station_id":"ce4bgvh2rcd13ifvqcs0","pricing_plan_id":"cebpf4jnsgd1na2vs0mg"},{"bike_id":"12451835-3853-43ca-a98e-147997a5e2b1","system_id":"levelo_inurba_marseille","lat":43.28465,"lon":5.35882,"is_reserved":false,"is_disabled":false,"rental_uris":{"android":"levelo://app?vid=12451835-3853-43ca-a98e-147997a5e2b1","ios":"levelo://app?vid=12451835-3853-43ca-a98e-147997a5e2b1"},"vehicle_type_id":"4","last_reported":1740553761,"current_range_meters":14000,"station_id":"ce4bhah2rcd13ifvqei0","pricing_plan_id":"cebpf4jnsgd1na2vs0mg"},{"bike_id":"0b2f5009-1e4e-4593-8abd-b74dc1937c26","system_id":"levelo_inurba_marseille","lat":43.23188,"lon":5.40002,"is_reserved":false,"is_disabled":false,"rental_uris":{"android":"levelo://app?vid=0b2f5009-1e4e-4593-8abd-b74dc1937c26","ios":"levelo://app?vid=0b2f5009-1e4e-4593-8abd-b74dc1937c26"},"vehicle_type_id":"4","last_reported":1740553761,"current_range_meters":13600,"station_id":"ce4bhn12rcd13ifvqgqg","pricing_plan_id":"cebpf4jnsgd1na2vs0mg"},{"bike_id":"6544427c-4ad2-4d31-bf03-c4d17c5f3bfe","system_id":"levelo_inurba_marseille","lat":43.26949,"lon":5.38635,"is_reserved":false,"is_disabled":false,"rental_uris":{"android":"levelo://app?vid=6544427c-4ad2-4d31-bf03-c4d17c5f3bfe","ios":"levelo://app?vid=6544427c-4ad2-4d31-bf03-c4d17c5f3bfe"},"vehicle_type_id":"4","last_reported":1740553761,"current_range_meters":13600,"station_id":"ce4bhh92rcd13ifvqfh0","pricing_plan_id":"cebpf4jnsgd1na2vs0mg"},{"bike_id":"d6848fec-1c0d-461c-ba9d-e28024d57cf0","system_id":"levelo_inurba_marseille","lat":43.30466,"lon":5.37915,"is_reserved":false,"is_disabled":false,"rental_uris":{"android":"levelo://app?vid=d6848fec-1c0d-461c-ba9d-e28024d57cf0","ios":"levelo://app?vid=d6848fec-1c0d-461c-ba9d-e28024d57cf0"},"vehicle_type_id":"4","last_reported":1740553761,"current_range_meters":13600,"station_id":"ce4bgup2rcd13ifvqcn0","pricing_plan_id":"cebpf4jnsgd1na2vs0mg"},{"bike_id":"d87b78e1-3377-48df-a130-991f4ba63b5b","system_id":"levelo_inurba_marseille","lat":43.298747,"lon":5.397366,"is_reserved":false,"is_disabled":false,"rental_uris":{"android":"levelo://app?vid=d87b78e1-3377-48df-a130-991f4ba63b5b","ios":"levelo://app?vid=d87b78e1-3377-48df-a130-991f4ba63b5b"},"vehicle_type_id":"4","last_reported":1740553761,"current_range_meters":14000,"station_id":"ce4bh0h2rcd13ifvqd50","pricing_plan_id":"cebpf4jnsgd1na2vs0mg"},{"bike_id":"c906979b-5e44-4dbe-98ec-e044abca100f","system_id":"levelo_inurba_marseille","lat":43.33599,"lon":5.41031,"is_reserved":false,"is_disabled":false,"rental_uris":{"android":"levelo://app?vid=c906979b-5e44-4dbe-98ec-e044abca100f","ios":"levelo://app?vid=c906979b-5e44-4dbe-98ec-e044abca100f"},"vehicle_type_id":"4","last_reported":1740553761,"current_range_meters":12800,"station_id":"","pricing_plan_id":"cebpf4jnsgd1na2vs0mg"},{"bike_id":"17cc3f37-dc15-459e-8cd2-9491f9cae9ba","system_id":"levelo_inurba_marseille","lat":43.31368,"lon":5.38503,"is_reserved":false,"is_disabled":false,"rental_uris":{"android":"levelo://app?vid=17cc3f37-dc15-459e-8cd2-9491f9cae9ba","ios":"levelo://app?vid=17cc3f37-dc15-459e-8cd2-9491f9cae9ba"},"vehicle_type_id":"4","last_reported":1740553761,"current_range_meters":14400,"station_id":"ce4bgt92rcd13ifvqcf0","pricing_plan_id":"cebpf4jnsgd1na2vs0mg"},{"bike_id":"b426a55b-6079-4410-bdcf-64a0360c349f","system_id":"levelo_inurba_marseille","lat":43.28423,"lon":5.34987,"is_reserved":false,"is_disabled":false,"rental_uris":{"android":"levelo://app?vid=b426a55b-6079-4410-bdcf-64a0360c349f","ios":"levelo://app?vid=b426a55b-6079-4410-bdcf-64a0360c349f"},"vehicle_type_id":"4","last_reported":1740553761,"current_range_meters":14000,"station_id":"ce4bhbh2rcd13ifvqepg","pricing_plan_id":"cebpf4jnsgd1na2vs0mg"},{"bike_id":"f240de7b-0068-4fca-a36e-d80ef8cdda6e","system_id":"levelo_inurba_marseille","lat":43.31527,"lon":5.38038,"is_reserved":false,"is_disabled":false,"rental_uris":{"android":"levelo://app?vid=f240de7b-0068-4fca-a36e-d80ef8cdda6e","ios":"levelo://app?vid=f240de7b-0068-4fca-a36e-d80ef8cdda6e"},"vehicle_type_id":"4","last_reported":1740553761,"current_range_meters":14000,"station_id":"ce4bhsp2rcd13ifvqi50","pricing_plan_id":"cebpf4jnsgd1na2vs0mg"},{"bike_id":"56c90c05-21dd-4258-af01-641c62e92e64","system_id":"levelo_inurba_marseille","lat":43.28649,"lon":5.35091,"is_reserved":false,"is_disabled":false,"rental_uris":{"android":"levelo://app?vid=56c90c05-21dd-4258-af01-641c62e92e64","ios":"levelo://app?vid=56c90c05-21dd-4258-af01-641c62e92e64"},"vehicle_type_id":"4","last_reported":1740553761,"current_range_meters":14400,"station_id":"ce4bhch2rcd13ifvqeug","pricing_plan_id":"cebpf4jnsgd1na2vs0mg"},{"bike_id":"1f8fd212-6e49-4507-86eb-4c1e4b5c63bb","system_id":"levelo_inurba_marseille","lat":43.28428,"lon":5.39177,"is_reserved":false,"is_disabled":false,"rental_uris":{"android":"levelo://app?vid=1f8fd212-6e49-4507-86eb-4c1e4b5c63bb","ios":"levelo://app?vid=1f8fd212-6e49-4507-86eb-4c1e4b5c63bb"},"vehicle_type_id":"4","last_reported":1740553761,"current_range_meters":14800,"station_id":"ce4bhoh2rcd13ifvqh5g","pricing_plan_id":"cebpf4jnsgd1na2vs0mg"},{"bike_id":"ee330a69-b694-4e94-b295-124ed2367b46","system_id":"levelo_inurba_marseille","lat":43.30432,"lon":5.38883,"is_reserved":false,"is_disabled":false,"rental_uris":{"android":"levelo://app?vid=ee330a69-b694-4e94-b295-124ed2367b46","ios":"levelo://app?vid=ee330a69-b694-4e94-b295-124ed2367b46"},"vehicle_type_id":"4","last_reported":1740553761,"current_range_meters":16000,"station_id":"ce4bgk12rcd13ifvqbi0","pricing_plan_id":"cebpf4jnsgd1na2vs0mg"},{"bike_id":"fced5159-3ab6-4ae1-892e-16774a8527c8","system_id":"levelo_inurba_marseille","lat":43.30428,"lon":5.39741,"is_reserved":false,"is_disabled":false,"rental_uris":{"android":"levelo://app?vid=fced5159-3ab6-4ae1-892e-16774a8527c8","ios":"levelo://app?vid=fced5159-3ab6-4ae1-892e-16774a8527c8"},"vehicle_type_id":"4","last_reported":1740553761,"current_range_meters":14800,"station_id":"ce4bh092rcd13ifvqd20","pricing_plan_id":"cebpf4jnsgd1na2vs0mg"},{"bike_id":"00ed27c2-66ec-48a6-a97d-b4f8857ddc06","system_id":"levelo_inurba_marseille","lat":43.28292,"lon":5.35087,"is_reserved":false,"is_disabled":false,"rental_uris":{"android":"levelo://app?vid=00ed27c2-66ec-48a6-a97d-b4f8857ddc06","ios":"levelo://app?vid=00ed27c2-66ec-48a6-a97d-b4f8857ddc06"},"vehicle_type_id":"4","last_reported":1740553761,"current_range_meters":15200,"station_id":"ce4bhbp2rcd13ifvqerg","pricing_plan_id":"cebpf4jnsgd1na2vs0mg"},{"bike_id":"18e16ec3-09d8-4e12-b8c3-6961052a0959","system_id":"levelo_inurba_marseille","lat":43.28157,"lon":5.42638,"is_reserved":false,"is_disabled":false,"rental_uris":{"android":"levelo://app?vid=18e16ec3-09d8-4e12-b8c3-6961052a0959","ios":"levelo://app?vid=18e16ec3-09d8-4e12-b8c3-6961052a0959"},"vehicle_type_id":"4","last_reported":1740553761,"current_range_meters":16000,"station_id":"ce4bhnh2rcd13ifvqgug","pricing_plan_id":"cebpf4jnsgd1na2vs0mg"},{"bike_id":"4303e72d-c309-440e-990e-397e2de97f27","system_id":"levelo_inurba_marseille","lat":43.28854,"lon":5.35844,"is_reserved":false,"is_disabled":false,"rental_uris":{"android":"levelo://app?vid=4303e72d-c309-440e-990e-397e2de97f27","ios":"levelo://app?vid=4303e72d-c309-440e-990e-397e2de97f27"},"vehicle_type_id":"4","last_reported":1740553761,"current_range_meters":15200,"station_id":"ce4bhb12rcd13ifvqem0","pricing_plan_id":"cebpf4jnsgd1na2vs0mg"},{"bike_id":"02028f5d-7181-4e7f-80ba-abb06cf96801","system_id":"levelo_inurba_marseille","lat":43.2841,"lon":5.35004,"is_reserved":false,"is_disabled":false,"rental_uris":{"android":"levelo://app?vid=02028f5d-7181-4e7f-80ba-abb06cf96801","ios":"levelo://app?vid=02028f5d-7181-4e7f-80ba-abb06cf96801"},"vehicle_type_id":"4","last_reported":1740553761,"current_range_meters":16000,"station_id":"ce4bhbh2rcd13ifvqepg","pricing_plan_id":"cebpf4jnsgd1na2vs0mg"},{"bike_id":"ad9571bc-5194-4f71-90ef-f1cb0835f36e","system_id":"levelo_inurba_marseille","lat":43.25481,"lon":5.37661,"is_reserved":false,"is_disabled":true,"rental_uris":{"android":"levelo://app?vid=ad9571bc-5194-4f71-90ef-f1cb0835f36e","ios":"levelo://app?vid=ad9571bc-5194-4f71-90ef-f1cb0835f36e"},"vehicle_type_id":"4","last_reported":1740553761,"current_range_meters":15200,"station_id":"ce4bhh12rcd13ifvqff0","pricing_plan_id":"cebpf4jnsgd1na2vs0mg"},{"bike_id":"25e3ee6e-5b8b-4463-b327-cce8ca0cd74b","system_id":"levelo_inurba_marseille","lat":43.30167,"lon":5.38075,"is_reserved":false,"is_disabled":false,"rental_uris":{"android":"levelo://app?vid=25e3ee6e-5b8b-4463-b327-cce8ca0cd74b","ios":"levelo://app?vid=25e3ee6e-5b8b-4463-b327-cce8ca0cd74b"},"vehicle_type_id":"4","last_reported":1740553761,"current_range_meters":15200,"station_id":"ce4bgjp2rcd13ifvqbh0","pricing_plan_id":"cebpf4jnsgd1na2vs0mg"},{"bike_id":"ac915052-6ba2-4afc-9aed-2cbdaa775692","system_id":"levelo_inurba_marseille","lat":43.31954,"lon":5.40548,"is_reserved":false,"is_disabled":false,"rental_uris":{"android":"levelo://app?vid=ac915052-6ba2-4afc-9aed-2cbdaa775692","ios":"levelo://app?vid=ac915052-6ba2-4afc-9aed-2cbdaa775692"},"vehicle_type_id":"4","last_reported":1740553761,"current_range_meters":16000,"station_id":"ce4bhq92rcd13ifvqhjg","pricing_plan_id":"cebpf4jnsgd1na2vs0mg"},{"bike_id":"4f078033-1ccf-4cb1-8dc6-47fc9002c401","system_id":"levelo_inurba_marseille","lat":43.27495,"lon":5.42456,"is_reserved":false,"is_disabled":false,"rental_uris":{"android":"levelo://app?vid=4f078033-1ccf-4cb1-8dc6-47fc9002c401","ios":"levelo://app?vid=4f078033-1ccf-4cb1-8dc6-47fc9002c401"},"vehicle_type_id":"4","last_reported":1740553761,"current_range_meters":15200,"station_id":"ce4bhn92rcd13ifvqgrg","pricing_plan_id":"cebpf4jnsgd1na2vs0mg"},{"bike_id":"40bd775e-5ce3-4948-be2f-acfa8e48e7a0","system_id":"levelo_inurba_marseille","lat":43.28627,"lon":5.35099,"is_reserved":false,"is_disabled":false,"rental_uris":{"android":"levelo://app?vid=40bd775e-5ce3-4948-be2f-acfa8e48e7a0","ios":"levelo://app?vid=40bd775e-5ce3-4948-be2f-acfa8e48e7a0"},"vehicle_type_id":"4","last_reported":1740553761,"current_range_meters":15200,"station_id":"ce4bhch2rcd13ifvqeug","pricing_plan_id":"cebpf4jnsgd1na2vs0mg"},{"bike_id":"876d87db-b321-410b-9729-9596ffd5c075","system_id":"levelo_inurba_marseille","lat":43.30445,"lon":5.37919,"is_reserved":false,"is_disabled":false,"rental_uris":{"android":"levelo://app?vid=876d87db-b321-410b-9729-9596ffd5c075","ios":"levelo://app?vid=876d87db-b321-410b-9729-9596ffd5c075"},"vehicle_type_id":"4","last_reported":1740553761,"current_range_meters":16000,"station_id":"ce4bgup2rcd13ifvqcn0","pricing_plan_id":"cebpf4jnsgd1na2vs0mg"},{"bike_id":"25411262-23d1-41bb-a382-a545d4af1ec3","system_id":"levelo_inurba_marseille","lat":43.25114,"lon":5.40334,"is_reserved":false,"is_disabled":false,"rental_uris":{"android":"levelo://app?vid=25411262-23d1-41bb-a382-a545d4af1ec3","ios":"levelo://app?vid=25411262-23d1-41bb-a382-a545d4af1ec3"},"vehicle_type_id":"4","last_reported":1740553761,"current_range_meters":16000,"station_id":"ce4bhlh2rcd13ifvqgig","pricing_plan_id":"cebpf4jnsgd1na2vs0mg"},{"bike_id":"f66913d8-adc8-4497-b81a-8613461ae8a9","system_id":"levelo_inurba_marseille","lat":43.28422,"lon":5.34978,"is_reserved":false,"is_disabled":false,"rental_uris":{"android":"levelo://app?vid=f66913d8-adc8-4497-b81a-8613461ae8a9","ios":"levelo://app?vid=f66913d8-adc8-4497-b81a-8613461ae8a9"},"vehicle_type_id":"4","last_reported":1740553761,"current_range_meters":16000,"station_id":"ce4bhbh2rcd13ifvqepg","pricing_plan_id":"cebpf4jnsgd1na2vs0mg"},{"bike_id":"18730abb-cb2f-4488-bd8a-8d191cf255bd","system_id":"levelo_inurba_marseille","lat":43.24075,"lon":5.37762,"is_reserved":false,"is_disabled":false,"rental_uris":{"android":"levelo://app?vid=18730abb-cb2f-4488-bd8a-8d191cf255bd","ios":"levelo://app?vid=18730abb-cb2f-4488-bd8a-8d191cf255bd"},"vehicle_type_id":"4","last_reported":1740553761,"current_range_meters":16000,"station_id":"ce4bhnp2rcd13ifvqgvg","pricing_plan_id":"cebpf4jnsgd1na2vs0mg"},{"bike_id":"620faf8f-9860-4e84-b6cd-4559a0b9a89c","system_id":"levelo_inurba_marseille","lat":43.32484,"lon":5.36563,"is_reserved":false,"is_disabled":false,"rental_uris":{"android":"levelo://app?vid=620faf8f-9860-4e84-b6cd-4559a0b9a89c","ios":"levelo://app?vid=620faf8f-9860-4e84-b6cd-4559a0b9a89c"},"vehicle_type_id":"4","last_reported":1740553761,"current_range_meters":16000,"station_id":"ce4bhs12rcd13ifvqhvg","pricing_plan_id":"cebpf4jnsgd1na2vs0mg"},{"bike_id":"1ca5b1d5-5a53-46dd-b1b2-e83fd71df428","system_id":"levelo_inurba_marseille","lat":43.27957,"lon":5.41069,"is_reserved":false,"is_disabled":false,"rental_uris":{"android":"levelo://app?vid=1ca5b1d5-5a53-46dd-b1b2-e83fd71df428","ios":"levelo://app?vid=1ca5b1d5-5a53-46dd-b1b2-e83fd71df428"},"vehicle_type_id":"4","last_reported":1740553761,"current_range_meters":16000,"station_id":"ce4bhnp2rcd13ifvqh0g","pricing_plan_id":"cebpf4jnsgd1na2vs0mg"},{"bike_id":"b65eca50-3ad3-44cf-8461-21bab0d9d9a8","system_id":"levelo_inurba_marseille","lat":43.26565,"lon":5.37292,"is_reserved":false,"is_disabled":false,"rental_uris":{"android":"levelo://app?vid=b65eca50-3ad3-44cf-8461-21bab0d9d9a8","ios":"levelo://app?vid=b65eca50-3ad3-44cf-8461-21bab0d9d9a8"},"vehicle_type_id":"4","last_reported":1740553761,"current_range_meters":16400,"station_id":"ce4bhg12rcd13ifvqf70","pricing_plan_id":"cebpf4jnsgd1na2vs0mg"},{"bike_id":"a8f9f3f6-d364-4e67-98f4-e1de11f873ad","system_id":"levelo_inurba_marseille","lat":43.30142,"lon":5.38087,"is_reserved":false,"is_disabled":false,"rental_uris":{"android":"levelo://app?vid=a8f9f3f6-d364-4e67-98f4-e1de11f873ad","ios":"levelo://app?vid=a8f9f3f6-d364-4e67-98f4-e1de11f873ad"},"vehicle_type_id":"4","last_reported":1740553761,"current_range_meters":11200,"station_id":"ce4bgjp2rcd13ifvqbh0","pricing_plan_id":"cebpf4jnsgd1na2vs0mg"},{"bike_id":"05a20dee-8eea-406b-b6c2-4def24beef1d","system_id":"levelo_inurba_marseille","lat":43.30456,"lon":5.37916,"is_reserved":false,"is_disabled":false,"rental_uris":{"android":"levelo://app?vid=05a20dee-8eea-406b-b6c2-4def24beef1d","ios":"levelo://app?vid=05a20dee-8eea-406b-b6c2-4def24beef1d"},"vehicle_type_id":"4","last_reported":1740553761,"current_range_meters":16400,"station_id":"ce4bgup2rcd13ifvqcn0","pricing_plan_id":"cebpf4jnsgd1na2vs0mg"},{"bike_id":"c5bce55d-639a-4e10-850d-58dcca117d41","system_id":"levelo_inurba_marseille","lat":43.28458,"lon":5.35893,"is_reserved":false,"is_disabled":false,"rental_uris":{"android":"levelo://app?vid=c5bce55d-639a-4e10-850d-58dcca117d41","ios":"levelo://app?vid=c5bce55d-639a-4e10-850d-58dcca117d41"},"vehicle_type_id":"4","last_reported":1740553761,"current_range_meters":16400,"station_id":"ce4bhah2rcd13ifvqei0","pricing_plan_id":"cebpf4jnsgd1na2vs0mg"},{"bike_id":"3fefd632-ceb6-4e6f-ac3b-6af1be92e2b5","system_id":"levelo_inurba_marseille","lat":43.23226,"lon":5.39963,"is_reserved":false,"is_disabled":false,"rental_uris":{"android":"levelo://app?vid=3fefd632-ceb6-4e6f-ac3b-6af1be92e2b5","ios":"levelo://app?vid=3fefd632-ceb6-4e6f-ac3b-6af1be92e2b5"},"vehicle_type_id":"4","last_reported":1740553761,"current_range_meters":16800,"station_id":"","pricing_plan_id":"cebpf4jnsgd1na2vs0mg"},{"bike_id":"04b17830-3c9d-49a3-8254-3247c395e42f","system_id":"levelo_inurba_marseille","lat":43.32366,"lon":5.38899,"is_reserved":false,"is_disabled":false,"rental_uris":{"android":"levelo://app?vid=04b17830-3c9d-49a3-8254-3247c395e42f","ios":"levelo://app?vid=04b17830-3c9d-49a3-8254-3247c395e42f"},"vehicle_type_id":"4","last_reported":1740553761,"current_range_meters":16400,"station_id":"","pricing_plan_id":"cebpf4jnsgd1na2vs0mg"},{"bike_id":"d22dc0c0-1bfe-4bf5-90e1-538c8b2c5e57","system_id":"levelo_inurba_marseille","lat":43.279506,"lon":5.410493,"is_reserved":false,"is_disabled":false,"rental_uris":{"android":"levelo://app?vid=d22dc0c0-1bfe-4bf5-90e1-538c8b2c5e57","ios":"levelo://app?vid=d22dc0c0-1bfe-4bf5-90e1-538c8b2c5e57"},"vehicle_type_id":"4","last_reported":1740553761,"current_range_meters":16800,"station_id":"ce4bhnp2rcd13ifvqh0g","pricing_plan_id":"cebpf4jnsgd1na2vs0mg"},{"bike_id":"887df3c0-4297-4c99-b501-bb1932af0e38","system_id":"levelo_inurba_marseille","lat":43.284171,"lon":5.375207,"is_reserved":false,"is_disabled":false,"rental_uris":{"android":"levelo://app?vid=887df3c0-4297-4c99-b501-bb1932af0e38","ios":"levelo://app?vid=887df3c0-4297-4c99-b501-bb1932af0e38"},"vehicle_type_id":"4","last_reported":1740553761,"current_range_meters":16400,"station_id":"ce4bh412rcd13ifvqds0","pricing_plan_id":"cebpf4jnsgd1na2vs0mg"},{"bike_id":"aada47c6-4b3a-41ce-97dd-a63194114a19","system_id":"levelo_inurba_marseille","lat":43.31266,"lon":5.4017,"is_reserved":false,"is_disabled":true,"rental_uris":{"android":"levelo://app?vid=aada47c6-4b3a-41ce-97dd-a63194114a19","ios":"levelo://app?vid=aada47c6-4b3a-41ce-97dd-a63194114a19"},"vehicle_type_id":"4","last_reported":1740553761,"current_range_meters":16400,"station_id":"ce4bh092rcd13ifvqd30","pricing_plan_id":"cebpf4jnsgd1na2vs0mg"},{"bike_id":"19e4983d-b74d-4524-9c14-80fb6905f947","system_id":"levelo_inurba_marseille","lat":43.32105,"lon":5.36767,"is_reserved":false,"is_disabled":false,"rental_uris":{"android":"levelo://app?vid=19e4983d-b74d-4524-9c14-80fb6905f947","ios":"levelo://app?vid=19e4983d-b74d-4524-9c14-80fb6905f947"},"vehicle_type_id":"4","last_reported":1740553761,"current_range_meters":16400,"station_id":"ce4bhrh2rcd13ifvqhug","pricing_plan_id":"cebpf4jnsgd1na2vs0mg"},{"bike_id":"41bcbd39-dc6c-4708-80c1-49116771c9e4","system_id":"levelo_inurba_marseille","lat":43.28937,"lon":5.36641,"is_reserved":false,"is_disabled":false,"rental_uris":{"android":"levelo://app?vid=41bcbd39-dc6c-4708-80c1-49116771c9e4","ios":"levelo://app?vid=41bcbd39-dc6c-4708-80c1-49116771c9e4"},"vehicle_type_id":"4","last_reported":1740553761,"current_range_meters":16400,"station_id":"ce4bhap2rcd13ifvqek0","pricing_plan_id":"cebpf4jnsgd1na2vs0mg"},{"bike_id":"1bd422cb-b0ff-4b77-bdca-898a5b637934","system_id":"levelo_inurba_marseille","lat":43.29893,"lon":5.3849,"is_reserved":false,"is_disabled":false,"rental_uris":{"android":"levelo://app?vid=1bd422cb-b0ff-4b77-bdca-898a5b637934","ios":"levelo://app?vid=1bd422cb-b0ff-4b77-bdca-898a5b637934"},"vehicle_type_id":"4","last_reported":1740553761,"current_range_meters":16800,"station_id":"","pricing_plan_id":"cebpf4jnsgd1na2vs0mg"},{"bike_id":"b196e3fe-fced-4e6c-8983-78e64578be87","system_id":"levelo_inurba_marseille","lat":43.28037,"lon":5.36943,"is_reserved":false,"is_disabled":false,"rental_uris":{"android":"levelo://app?vid=b196e3fe-fced-4e6c-8983-78e64578be87","ios":"levelo://app?vid=b196e3fe-fced-4e6c-8983-78e64578be87"},"vehicle_type_id":"4","last_reported":1740553761,"current_range_meters":16800,"station_id":"ce4bha12rcd13ifvqef0","pricing_plan_id":"cebpf4jnsgd1na2vs0mg"},{"bike_id":"250a654e-97e2-49a1-ac4b-e2cb0a080b5b","system_id":"levelo_inurba_marseille","lat":43.289466,"lon":5.398951,"is_reserved":false,"is_disabled":false,"rental_uris":{"android":"levelo://app?vid=250a654e-97e2-49a1-ac4b-e2cb0a080b5b","ios":"levelo://app?vid=250a654e-97e2-49a1-ac4b-e2cb0a080b5b"},"vehicle_type_id":"4","last_reported":1740553761,"current_range_meters":17200,"station_id":"ce4bh392rcd13ifvqdm0","pricing_plan_id":"cebpf4jnsgd1na2vs0mg"},{"bike_id":"556eb09b-9d79-4f83-9ca2-5aeca14fbaf8","system_id":"levelo_inurba_marseille","lat":43.29194,"lon":5.393306,"is_reserved":false,"is_disabled":false,"rental_uris":{"android":"levelo://app?vid=556eb09b-9d79-4f83-9ca2-5aeca14fbaf8","ios":"levelo://app?vid=556eb09b-9d79-4f83-9ca2-5aeca14fbaf8"},"vehicle_type_id":"4","last_reported":1740553761,"current_range_meters":16800,"station_id":"ce4bgn92rcd13ifvqbvg","pricing_plan_id":"cebpf4jnsgd1na2vs0mg"},{"bike_id":"631b9677-c04d-4284-a101-d6062f06bd34","system_id":"levelo_inurba_marseille","lat":43.29808,"lon":5.38106,"is_reserved":false,"is_disabled":false,"rental_uris":{"android":"levelo://app?vid=631b9677-c04d-4284-a101-d6062f06bd34","ios":"levelo://app?vid=631b9677-c04d-4284-a101-d6062f06bd34"},"vehicle_type_id":"4","last_reported":1740553761,"current_range_meters":16800,"station_id":"ce4bgip2rcd13ifvqbb0","pricing_plan_id":"cebpf4jnsgd1na2vs0mg"},{"bike_id":"8eae58ae-89bd-445d-bda4-d953222b55f1","system_id":"levelo_inurba_marseille","lat":43.28028,"lon":5.36942,"is_reserved":false,"is_disabled":false,"rental_uris":{"android":"levelo://app?vid=8eae58ae-89bd-445d-bda4-d953222b55f1","ios":"levelo://app?vid=8eae58ae-89bd-445d-bda4-d953222b55f1"},"vehicle_type_id":"4","last_reported":1740553761,"current_range_meters":16800,"station_id":"ce4bha12rcd13ifvqef0","pricing_plan_id":"cebpf4jnsgd1na2vs0mg"},{"bike_id":"b54c0c77-a568-4419-8a53-721954a3d5ef","system_id":"levelo_inurba_marseille","lat":43.27685,"lon":5.41521,"is_reserved":false,"is_disabled":false,"rental_uris":{"android":"levelo://app?vid=b54c0c77-a568-4419-8a53-721954a3d5ef","ios":"levelo://app?vid=b54c0c77-a568-4419-8a53-721954a3d5ef"},"vehicle_type_id":"4","last_reported":1740553761,"current_range_meters":16800,"station_id":"","pricing_plan_id":"cebpf4jnsgd1na2vs0mg"},{"bike_id":"17973595-0627-4cbe-be09-6d52168568c1","system_id":"levelo_inurba_marseille","lat":43.27805,"lon":5.40722,"is_reserved":false,"is_disabled":false,"rental_uris":{"android":"levelo://app?vid=17973595-0627-4cbe-be09-6d52168568c1","ios":"levelo://app?vid=17973595-0627-4cbe-be09-6d52168568c1"},"vehicle_type_id":"4","last_reported":1740553761,"current_range_meters":16800,"station_id":"ce4bhnh2rcd13ifvqgtg","pricing_plan_id":"cebpf4jnsgd1na2vs0mg"},{"bike_id":"ec382969-8abc-4dda-8766-f6bd2b74d60d","system_id":"levelo_inurba_marseille","lat":43.3032,"lon":5.40451,"is_reserved":false,"is_disabled":false,"rental_uris":{"android":"levelo://app?vid=ec382969-8abc-4dda-8766-f6bd2b74d60d","ios":"levelo://app?vid=ec382969-8abc-4dda-8766-f6bd2b74d60d"},"vehicle_type_id":"4","last_reported":1740553761,"current_range_meters":16800,"station_id":"ce4bh012rcd13ifvqd10","pricing_plan_id":"cebpf4jnsgd1na2vs0mg"},{"bike_id":"18d91dd3-a6d6-42bb-9845-81420b3a9d8b","system_id":"levelo_inurba_marseille","lat":43.30412,"lon":5.41292,"is_reserved":false,"is_disabled":false,"rental_uris":{"android":"levelo://app?vid=18d91dd3-a6d6-42bb-9845-81420b3a9d8b","ios":"levelo://app?vid=18d91dd3-a6d6-42bb-9845-81420b3a9d8b"},"vehicle_type_id":"4","last_reported":1740553761,"current_range_meters":17200,"station_id":"ce4bhop2rcd13ifvqh8g","pricing_plan_id":"cebpf4jnsgd1na2vs0mg"},{"bike_id":"d0eed576-967a-4a22-90f0-1b8c0372f57a","system_id":"levelo_inurba_marseille","lat":43.24993,"lon":5.38922,"is_reserved":false,"is_disabled":false,"rental_uris":{"android":"levelo://app?vid=d0eed576-967a-4a22-90f0-1b8c0372f57a","ios":"levelo://app?vid=d0eed576-967a-4a22-90f0-1b8c0372f57a"},"vehicle_type_id":"4","last_reported":1740553761,"current_range_meters":17200,"station_id":"ce4bhgp2rcd13ifvqfd0","pricing_plan_id":"cebpf4jnsgd1na2vs0mg"},{"bike_id":"3863d409-8e9c-42d7-ad96-7b7f690ef52f","system_id":"levelo_inurba_marseille","lat":43.27964,"lon":5.38747,"is_reserved":false,"is_disabled":false,"rental_uris":{"android":"levelo://app?vid=3863d409-8e9c-42d7-ad96-7b7f690ef52f","ios":"levelo://app?vid=3863d409-8e9c-42d7-ad96-7b7f690ef52f"},"vehicle_type_id":"4","last_reported":1740553761,"current_range_meters":17200,"station_id":"ce4bhg12rcd13ifvqf80","pricing_plan_id":"cebpf4jnsgd1na2vs0mg"},{"bike_id":"e5948ef3-3c39-4ab3-be43-b85f6db75ebe","system_id":"levelo_inurba_marseille","lat":43.24079,"lon":5.37754,"is_reserved":false,"is_disabled":false,"rental_uris":{"android":"levelo://app?vid=e5948ef3-3c39-4ab3-be43-b85f6db75ebe","ios":"levelo://app?vid=e5948ef3-3c39-4ab3-be43-b85f6db75ebe"},"vehicle_type_id":"4","last_reported":1740553761,"current_range_meters":17200,"station_id":"ce4bhnp2rcd13ifvqgvg","pricing_plan_id":"cebpf4jnsgd1na2vs0mg"},{"bike_id":"25e44305-cdf8-45a2-b99d-1933e72b60ad","system_id":"levelo_inurba_marseille","lat":43.2992,"lon":5.38141,"is_reserved":false,"is_disabled":true,"rental_uris":{"android":"levelo://app?vid=25e44305-cdf8-45a2-b99d-1933e72b60ad","ios":"levelo://app?vid=25e44305-cdf8-45a2-b99d-1933e72b60ad"},"vehicle_type_id":"4","last_reported":1740553761,"current_range_meters":17200,"station_id":"ce4bgj12rcd13ifvqbc0","pricing_plan_id":"cebpf4jnsgd1na2vs0mg"},{"bike_id":"c653bffd-d711-4c0b-9be3-ba0ded1a55f8","system_id":"levelo_inurba_marseille","lat":43.27961,"lon":5.41033,"is_reserved":false,"is_disabled":false,"rental_uris":{"android":"levelo://app?vid=c653bffd-d711-4c0b-9be3-ba0ded1a55f8","ios":"levelo://app?vid=c653bffd-d711-4c0b-9be3-ba0ded1a55f8"},"vehicle_type_id":"4","last_reported":1740553761,"current_range_meters":17200,"station_id":"ce4bhnp2rcd13ifvqh0g","pricing_plan_id":"cebpf4jnsgd1na2vs0mg"},{"bike_id":"0561577e-2525-455e-92b8-6da786fc4574","system_id":"levelo_inurba_marseille","lat":43.28189,"lon":5.42655,"is_reserved":false,"is_disabled":false,"rental_uris":{"android":"levelo://app?vid=0561577e-2525-455e-92b8-6da786fc4574","ios":"levelo://app?vid=0561577e-2525-455e-92b8-6da786fc4574"},"vehicle_type_id":"4","last_reported":1740553761,"current_range_meters":17600,"station_id":"ce4bhnh2rcd13ifvqgug","pricing_plan_id":"cebpf4jnsgd1na2vs0mg"},{"bike_id":"d79740e8-2b58-4dab-9092-7c075618d6db","system_id":"levelo_inurba_marseille","lat":43.23194,"lon":5.39978,"is_reserved":false,"is_disabled":false,"rental_uris":{"android":"levelo://app?vid=d79740e8-2b58-4dab-9092-7c075618d6db","ios":"levelo://app?vid=d79740e8-2b58-4dab-9092-7c075618d6db"},"vehicle_type_id":"4","last_reported":1740553761,"current_range_meters":17200,"station_id":"ce4bhn12rcd13ifvqgqg","pricing_plan_id":"cebpf4jnsgd1na2vs0mg"},{"bike_id":"658e10dc-9ec8-4c82-a86c-f0d37535b96d","system_id":"levelo_inurba_marseille","lat":43.23169,"lon":5.40001,"is_reserved":false,"is_disabled":false,"rental_uris":{"android":"levelo://app?vid=658e10dc-9ec8-4c82-a86c-f0d37535b96d","ios":"levelo://app?vid=658e10dc-9ec8-4c82-a86c-f0d37535b96d"},"vehicle_type_id":"4","last_reported":1740553761,"current_range_meters":17200,"station_id":"ce4bhn12rcd13ifvqgqg","pricing_plan_id":"cebpf4jnsgd1na2vs0mg"},{"bike_id":"ab006a5d-ab9d-4577-b5bb-65ee79648854","system_id":"levelo_inurba_marseille","lat":43.31344,"lon":5.36721,"is_reserved":false,"is_disabled":false,"rental_uris":{"android":"levelo://app?vid=ab006a5d-ab9d-4577-b5bb-65ee79648854","ios":"levelo://app?vid=ab006a5d-ab9d-4577-b5bb-65ee79648854"},"vehicle_type_id":"4","last_reported":1740553761,"current_range_meters":17600,"station_id":"ce4bgr92rcd13ifvqc6g","pricing_plan_id":"cebpf4jnsgd1na2vs0mg"},{"bike_id":"9eb63fb4-7dd1-4ed8-8c98-37f9165028cf","system_id":"levelo_inurba_marseille","lat":43.31757,"lon":5.39022,"is_reserved":false,"is_disabled":false,"rental_uris":{"android":"levelo://app?vid=9eb63fb4-7dd1-4ed8-8c98-37f9165028cf","ios":"levelo://app?vid=9eb63fb4-7dd1-4ed8-8c98-37f9165028cf"},"vehicle_type_id":"4","last_reported":1740553761,"current_range_meters":18000,"station_id":"ce4bhqp2rcd13ifvqhng","pricing_plan_id":"cebpf4jnsgd1na2vs0mg"},{"bike_id":"d52621a7-0a55-4e5b-8a76-da13389902cc","system_id":"levelo_inurba_marseille","lat":43.25349,"lon":5.42607,"is_reserved":false,"is_disabled":false,"rental_uris":{"android":"levelo://app?vid=d52621a7-0a55-4e5b-8a76-da13389902cc","ios":"levelo://app?vid=d52621a7-0a55-4e5b-8a76-da13389902cc"},"vehicle_type_id":"4","last_reported":1740553761,"current_range_meters":17600,"station_id":"","pricing_plan_id":"cebpf4jnsgd1na2vs0mg"},{"bike_id":"3bd9cd39-0f6e-4298-abe5-7b4c7175e37a","system_id":"levelo_inurba_marseille","lat":43.30421,"lon":5.38888,"is_reserved":false,"is_disabled":false,"rental_uris":{"android":"levelo://app?vid=3bd9cd39-0f6e-4298-abe5-7b4c7175e37a","ios":"levelo://app?vid=3bd9cd39-0f6e-4298-abe5-7b4c7175e37a"},"vehicle_type_id":"4","last_reported":1740553761,"current_range_meters":17600,"station_id":"ce4bgk12rcd13ifvqbi0","pricing_plan_id":"cebpf4jnsgd1na2vs0mg"},{"bike_id":"38fcaffb-7b27-4a8c-b575-b7c772aad6aa","system_id":"levelo_inurba_marseille","lat":43.27494,"lon":5.42456,"is_reserved":false,"is_disabled":false,"rental_uris":{"android":"levelo://app?vid=38fcaffb-7b27-4a8c-b575-b7c772aad6aa","ios":"levelo://app?vid=38fcaffb-7b27-4a8c-b575-b7c772aad6aa"},"vehicle_type_id":"4","last_reported":1740553761,"current_range_meters":17600,"station_id":"ce4bhn92rcd13ifvqgrg","pricing_plan_id":"cebpf4jnsgd1na2vs0mg"},{"bike_id":"c3d0fefa-5db4-49bd-a964-1a22da440d36","system_id":"levelo_inurba_marseille","lat":43.269559,"lon":5.386313,"is_reserved":false,"is_disabled":true,"rental_uris":{"android":"levelo://app?vid=c3d0fefa-5db4-49bd-a964-1a22da440d36","ios":"levelo://app?vid=c3d0fefa-5db4-49bd-a964-1a22da440d36"},"vehicle_type_id":"4","last_reported":1740553761,"current_range_meters":17600,"station_id":"","pricing_plan_id":"cebpf4jnsgd1na2vs0mg"},{"bike_id":"2aafeed3-3d22-46c3-808b-cd082033463c","system_id":"levelo_inurba_marseille","lat":43.27053,"lon":5.4026,"is_reserved":false,"is_disabled":false,"rental_uris":{"android":"levelo://app?vid=2aafeed3-3d22-46c3-808b-cd082033463c","ios":"levelo://app?vid=2aafeed3-3d22-46c3-808b-cd082033463c"},"vehicle_type_id":"4","last_reported":1740553761,"current_range_meters":17200,"station_id":"ce4bhk92rcd13ifvqgc0","pricing_plan_id":"cebpf4jnsgd1na2vs0mg"},{"bike_id":"bc37a9d0-d36c-4507-afca-c32c38867653","system_id":"levelo_inurba_marseille","lat":43.28851,"lon":5.35866,"is_reserved":false,"is_disabled":false,"rental_uris":{"android":"levelo://app?vid=bc37a9d0-d36c-4507-afca-c32c38867653","ios":"levelo://app?vid=bc37a9d0-d36c-4507-afca-c32c38867653"},"vehicle_type_id":"4","last_reported":1740553761,"current_range_meters":18000,"station_id":"ce4bhb12rcd13ifvqem0","pricing_plan_id":"cebpf4jnsgd1na2vs0mg"},{"bike_id":"acd08a8b-616f-4c07-856d-5e4bc1c2ff59","system_id":"levelo_inurba_marseille","lat":43.274953,"lon":5.424628,"is_reserved":false,"is_disabled":false,"rental_uris":{"android":"levelo://app?vid=acd08a8b-616f-4c07-856d-5e4bc1c2ff59","ios":"levelo://app?vid=acd08a8b-616f-4c07-856d-5e4bc1c2ff59"},"vehicle_type_id":"4","last_reported":1740553761,"current_range_meters":17600,"station_id":"ce4bhn92rcd13ifvqgrg","pricing_plan_id":"cebpf4jnsgd1na2vs0mg"},{"bike_id":"b0d8c5ae-001e-4f5a-8571-c9bb2e590fff","system_id":"levelo_inurba_marseille","lat":43.31762,"lon":5.39042,"is_reserved":false,"is_disabled":false,"rental_uris":{"android":"levelo://app?vid=b0d8c5ae-001e-4f5a-8571-c9bb2e590fff","ios":"levelo://app?vid=b0d8c5ae-001e-4f5a-8571-c9bb2e590fff"},"vehicle_type_id":"4","last_reported":1740553761,"current_range_meters":18000,"station_id":"ce4bhqp2rcd13ifvqhng","pricing_plan_id":"cebpf4jnsgd1na2vs0mg"},{"bike_id":"f9eed1e4-1895-44e2-8624-cc9551693ed5","system_id":"levelo_inurba_marseille","lat":43.2985,"lon":5.36291,"is_reserved":false,"is_disabled":false,"rental_uris":{"android":"levelo://app?vid=f9eed1e4-1895-44e2-8624-cc9551693ed5","ios":"levelo://app?vid=f9eed1e4-1895-44e2-8624-cc9551693ed5"},"vehicle_type_id":"4","last_reported":1740553761,"current_range_meters":18000,"station_id":"ce4bgpp2rcd13ifvqc3g","pricing_plan_id":"cebpf4jnsgd1na2vs0mg"},{"bike_id":"26784f1d-016d-42b9-9af0-c70c87c47092","system_id":"levelo_inurba_marseille","lat":43.31522,"lon":5.38013,"is_reserved":false,"is_disabled":false,"rental_uris":{"android":"levelo://app?vid=26784f1d-016d-42b9-9af0-c70c87c47092","ios":"levelo://app?vid=26784f1d-016d-42b9-9af0-c70c87c47092"},"vehicle_type_id":"4","last_reported":1740553761,"current_range_meters":18800,"station_id":"ce4bhsp2rcd13ifvqi50","pricing_plan_id":"cebpf4jnsgd1na2vs0mg"},{"bike_id":"68c2aa91-f658-4803-8a35-12e3ba084329","system_id":"levelo_inurba_marseille","lat":43.29032,"lon":5.39978,"is_reserved":false,"is_disabled":false,"rental_uris":{"android":"levelo://app?vid=68c2aa91-f658-4803-8a35-12e3ba084329","ios":"levelo://app?vid=68c2aa91-f658-4803-8a35-12e3ba084329"},"vehicle_type_id":"4","last_reported":1740553761,"current_range_meters":17600,"station_id":"ce4bh392rcd13ifvqdm0","pricing_plan_id":"cebpf4jnsgd1na2vs0mg"},{"bike_id":"9ef6abe4-77b0-4f5c-a72a-8df5ca1aec1c","system_id":"levelo_inurba_marseille","lat":43.2886,"lon":5.3585,"is_reserved":false,"is_disabled":false,"rental_uris":{"android":"levelo://app?vid=9ef6abe4-77b0-4f5c-a72a-8df5ca1aec1c","ios":"levelo://app?vid=9ef6abe4-77b0-4f5c-a72a-8df5ca1aec1c"},"vehicle_type_id":"4","last_reported":1740553761,"current_range_meters":18000,"station_id":"ce4bhb12rcd13ifvqem0","pricing_plan_id":"cebpf4jnsgd1na2vs0mg"},{"bike_id":"99ced1bb-5bc1-44af-b1a1-5a31e090741b","system_id":"levelo_inurba_marseille","lat":43.30272,"lon":5.3771,"is_reserved":false,"is_disabled":false,"rental_uris":{"android":"levelo://app?vid=99ced1bb-5bc1-44af-b1a1-5a31e090741b","ios":"levelo://app?vid=99ced1bb-5bc1-44af-b1a1-5a31e090741b"},"vehicle_type_id":"4","last_reported":1740553761,"current_range_meters":17600,"station_id":"ce4bguh2rcd13ifvqcj0","pricing_plan_id":"cebpf4jnsgd1na2vs0mg"},{"bike_id":"d31459d4-c238-41f0-9d13-16e8fce7fde6","system_id":"levelo_inurba_marseille","lat":43.28437,"lon":5.39204,"is_reserved":false,"is_disabled":false,"rental_uris":{"android":"levelo://app?vid=d31459d4-c238-41f0-9d13-16e8fce7fde6","ios":"levelo://app?vid=d31459d4-c238-41f0-9d13-16e8fce7fde6"},"vehicle_type_id":"4","last_reported":1740553761,"current_range_meters":18800,"station_id":"ce4bhoh2rcd13ifvqh5g","pricing_plan_id":"cebpf4jnsgd1na2vs0mg"},{"bike_id":"ee7498ac-afae-4101-a827-ddb2ec43033c","system_id":"levelo_inurba_marseille","lat":43.23197,"lon":5.39967,"is_reserved":false,"is_disabled":false,"rental_uris":{"android":"levelo://app?vid=ee7498ac-afae-4101-a827-ddb2ec43033c","ios":"levelo://app?vid=ee7498ac-afae-4101-a827-ddb2ec43033c"},"vehicle_type_id":"4","last_reported":1740553761,"current_range_meters":18000,"station_id":"ce4bhn12rcd13ifvqgqg","pricing_plan_id":"cebpf4jnsgd1na2vs0mg"},{"bike_id":"f23e2a61-1dff-4856-89f9-ed66c17f80bd","system_id":"levelo_inurba_marseille","lat":43.30616,"lon":5.39376,"is_reserved":false,"is_disabled":false,"rental_uris":{"android":"levelo://app?vid=f23e2a61-1dff-4856-89f9-ed66c17f80bd","ios":"levelo://app?vid=f23e2a61-1dff-4856-89f9-ed66c17f80bd"},"vehicle_type_id":"4","last_reported":1740553761,"current_range_meters":18000,"station_id":"","pricing_plan_id":"cebpf4jnsgd1na2vs0mg"},{"bike_id":"e3c11c48-17c7-48db-9d63-54ad248e8e40","system_id":"levelo_inurba_marseille","lat":43.29871,"lon":5.3977,"is_reserved":false,"is_disabled":false,"rental_uris":{"android":"levelo://app?vid=e3c11c48-17c7-48db-9d63-54ad248e8e40","ios":"levelo://app?vid=e3c11c48-17c7-48db-9d63-54ad248e8e40"},"vehicle_type_id":"4","last_reported":1740553761,"current_range_meters":18000,"station_id":"ce4bh0h2rcd13ifvqd50","pricing_plan_id":"cebpf4jnsgd1na2vs0mg"},{"bike_id":"c72b354a-7ac8-4b70-a688-e6c0ed969746","system_id":"levelo_inurba_marseille","lat":43.292974,"lon":5.371738,"is_reserved":false,"is_disabled":true,"rental_uris":{"android":"levelo://app?vid=c72b354a-7ac8-4b70-a688-e6c0ed969746","ios":"levelo://app?vid=c72b354a-7ac8-4b70-a688-e6c0ed969746"},"vehicle_type_id":"4","last_reported":1740553761,"current_range_meters":18000,"station_id":"ce4bgh92rcd13ifvqb40","pricing_plan_id":"cebpf4jnsgd1na2vs0mg"},{"bike_id":"07e3cf7f-8210-4088-8fa1-88f52b39e91a","system_id":"levelo_inurba_marseille","lat":43.27061,"lon":5.4026,"is_reserved":false,"is_disabled":false,"rental_uris":{"android":"levelo://app?vid=07e3cf7f-8210-4088-8fa1-88f52b39e91a","ios":"levelo://app?vid=07e3cf7f-8210-4088-8fa1-88f52b39e91a"},"vehicle_type_id":"4","last_reported":1740553761,"current_range_meters":18000,"station_id":"ce4bhk92rcd13ifvqgc0","pricing_plan_id":"cebpf4jnsgd1na2vs0mg"},{"bike_id":"79f91e7d-c6ad-4ce0-bb48-4ea5d59eddc7","system_id":"levelo_inurba_marseille","lat":43.30903,"lon":5.3685,"is_reserved":false,"is_disabled":false,"rental_uris":{"android":"levelo://app?vid=79f91e7d-c6ad-4ce0-bb48-4ea5d59eddc7","ios":"levelo://app?vid=79f91e7d-c6ad-4ce0-bb48-4ea5d59eddc7"},"vehicle_type_id":"4","last_reported":1740553761,"current_range_meters":19200,"station_id":"ce4bgn92rcd13ifvqbvg","pricing_plan_id":"cebpf4jnsgd1na2vs0mg"},{"bike_id":"2f897030-e32a-401e-a430-29267d0efbc8","system_id":"levelo_inurba_marseille","lat":43.25017,"lon":5.38904,"is_reserved":false,"is_disabled":false,"rental_uris":{"android":"levelo://app?vid=2f897030-e32a-401e-a430-29267d0efbc8","ios":"levelo://app?vid=2f897030-e32a-401e-a430-29267d0efbc8"},"vehicle_type_id":"4","last_reported":1740553761,"current_range_meters":18800,"station_id":"ce4bhgp2rcd13ifvqfd0","pricing_plan_id":"cebpf4jnsgd1na2vs0mg"},{"bike_id":"9c9b783e-fc43-40ea-9266-f1ccc50ef259","system_id":"levelo_inurba_marseille","lat":43.27834,"lon":5.40703,"is_reserved":false,"is_disabled":false,"rental_uris":{"android":"levelo://app?vid=9c9b783e-fc43-40ea-9266-f1ccc50ef259","ios":"levelo://app?vid=9c9b783e-fc43-40ea-9266-f1ccc50ef259"},"vehicle_type_id":"4","last_reported":1740553761,"current_range_meters":18800,"station_id":"ce4bhnh2rcd13ifvqgtg","pricing_plan_id":"cebpf4jnsgd1na2vs0mg"},{"bike_id":"787e9033-a1d5-4f10-8620-fb0bfc85de03","system_id":"levelo_inurba_marseille","lat":43.30427,"lon":5.38886,"is_reserved":false,"is_disabled":false,"rental_uris":{"android":"levelo://app?vid=787e9033-a1d5-4f10-8620-fb0bfc85de03","ios":"levelo://app?vid=787e9033-a1d5-4f10-8620-fb0bfc85de03"},"vehicle_type_id":"4","last_reported":1740553761,"current_range_meters":18800,"station_id":"ce4bgk12rcd13ifvqbi0","pricing_plan_id":"cebpf4jnsgd1na2vs0mg"},{"bike_id":"245c9ee4-a552-4737-8cda-71747db953a0","system_id":"levelo_inurba_marseille","lat":43.2501,"lon":5.38909,"is_reserved":false,"is_disabled":false,"rental_uris":{"android":"levelo://app?vid=245c9ee4-a552-4737-8cda-71747db953a0","ios":"levelo://app?vid=245c9ee4-a552-4737-8cda-71747db953a0"},"vehicle_type_id":"4","last_reported":1740553761,"current_range_meters":18800,"station_id":"ce4bhgp2rcd13ifvqfd0","pricing_plan_id":"cebpf4jnsgd1na2vs0mg"},{"bike_id":"550fc126-9715-4b5e-975d-b2fdfe247c95","system_id":"levelo_inurba_marseille","lat":43.2468,"lon":5.3815,"is_reserved":false,"is_disabled":false,"rental_uris":{"android":"levelo://app?vid=550fc126-9715-4b5e-975d-b2fdfe247c95","ios":"levelo://app?vid=550fc126-9715-4b5e-975d-b2fdfe247c95"},"vehicle_type_id":"4","last_reported":1740553761,"current_range_meters":18800,"station_id":"ce4bhih2rcd13ifvqfr0","pricing_plan_id":"cebpf4jnsgd1na2vs0mg"},{"bike_id":"f5c13d05-2d20-4fe9-822b-56f8f72b3116","system_id":"levelo_inurba_marseille","lat":43.29025,"lon":5.40068,"is_reserved":false,"is_disabled":false,"rental_uris":{"android":"levelo://app?vid=f5c13d05-2d20-4fe9-822b-56f8f72b3116","ios":"levelo://app?vid=f5c13d05-2d20-4fe9-822b-56f8f72b3116"},"vehicle_type_id":"4","last_reported":1740553761,"current_range_meters":19200,"station_id":"ce4bh392rcd13ifvqdm0","pricing_plan_id":"cebpf4jnsgd1na2vs0mg"},{"bike_id":"49dc871c-7e7e-40ff-bcaf-ca0faf757365","system_id":"levelo_inurba_marseille","lat":43.310698,"lon":5.383568,"is_reserved":false,"is_disabled":false,"rental_uris":{"android":"levelo://app?vid=49dc871c-7e7e-40ff-bcaf-ca0faf757365","ios":"levelo://app?vid=49dc871c-7e7e-40ff-bcaf-ca0faf757365"},"vehicle_type_id":"4","last_reported":1740553761,"current_range_meters":18800,"station_id":"ce4bgv92rcd13ifvqcr0","pricing_plan_id":"cebpf4jnsgd1na2vs0mg"},{"bike_id":"219eb481-2b35-4460-874a-2b4f61e6f751","system_id":"levelo_inurba_marseille","lat":43.27159,"lon":5.40997,"is_reserved":false,"is_disabled":false,"rental_uris":{"android":"levelo://app?vid=219eb481-2b35-4460-874a-2b4f61e6f751","ios":"levelo://app?vid=219eb481-2b35-4460-874a-2b4f61e6f751"},"vehicle_type_id":"4","last_reported":1740553761,"current_range_meters":18800,"station_id":"ce4bhl12rcd13ifvqgf0","pricing_plan_id":"cebpf4jnsgd1na2vs0mg"},{"bike_id":"f9960b39-a005-483a-9711-897b2b03b323","system_id":"levelo_inurba_marseille","lat":43.28368,"lon":5.38633,"is_reserved":false,"is_disabled":true,"rental_uris":{"android":"levelo://app?vid=f9960b39-a005-483a-9711-897b2b03b323","ios":"levelo://app?vid=f9960b39-a005-483a-9711-897b2b03b323"},"vehicle_type_id":"4","last_reported":1740553761,"current_range_meters":19200,"station_id":"ce4bh492rcd13ifvqdvg","pricing_plan_id":"cebpf4jnsgd1na2vs0mg"},{"bike_id":"e25e56f5-ac0f-48fd-b98d-3d3c7b971499","system_id":"levelo_inurba_marseille","lat":43.28564,"lon":5.3949,"is_reserved":false,"is_disabled":false,"rental_uris":{"android":"levelo://app?vid=e25e56f5-ac0f-48fd-b98d-3d3c7b971499","ios":"levelo://app?vid=e25e56f5-ac0f-48fd-b98d-3d3c7b971499"},"vehicle_type_id":"4","last_reported":1740553761,"current_range_meters":19200,"station_id":"ce4bh292rcd13ifvqdg0","pricing_plan_id":"cebpf4jnsgd1na2vs0mg"},{"bike_id":"d76c6769-9d8a-4a95-a039-d2f8ba624aeb","system_id":"levelo_inurba_marseille","lat":43.28555,"lon":5.39528,"is_reserved":false,"is_disabled":false,"rental_uris":{"android":"levelo://app?vid=d76c6769-9d8a-4a95-a039-d2f8ba624aeb","ios":"levelo://app?vid=d76c6769-9d8a-4a95-a039-d2f8ba624aeb"},"vehicle_type_id":"4","last_reported":1740553761,"current_range_meters":19200,"station_id":"ce4bh292rcd13ifvqdg0","pricing_plan_id":"cebpf4jnsgd1na2vs0mg"},{"bike_id":"8e098932-7569-481f-bc4b-216cf651f970","system_id":"levelo_inurba_marseille","lat":43.295227,"lon":5.385114,"is_reserved":false,"is_disabled":false,"rental_uris":{"android":"levelo://app?vid=8e098932-7569-481f-bc4b-216cf651f970","ios":"levelo://app?vid=8e098932-7569-481f-bc4b-216cf651f970"},"vehicle_type_id":"4","last_reported":1740553761,"current_range_meters":15200,"station_id":"ce4bhph2rcd13ifvqhdg","pricing_plan_id":"cebpf4jnsgd1na2vs0mg"},{"bike_id":"73dc8795-d5e9-40e4-9ee3-19a267cd9e4d","system_id":"levelo_inurba_marseille","lat":43.3169,"lon":5.40462,"is_reserved":false,"is_disabled":false,"rental_uris":{"android":"levelo://app?vid=73dc8795-d5e9-40e4-9ee3-19a267cd9e4d","ios":"levelo://app?vid=73dc8795-d5e9-40e4-9ee3-19a267cd9e4d"},