{"last_updated":1773872575,"ttl":60,"version":"2.2","data":{"bikes":[{"bike_id":"637368fe-b82c-4b92-9b6f-f88a7e6582af","system_id":"levelo_inurba_marseille","lat":43.302728,"lon":5.390397,"is_reserved":false,"is_disabled":false,"rental_uris":{"android":"levelo://app?vid=637368fe-b82c-4b92-9b6f-f88a7e6582af","ios":"levelo://app?vid=637368fe-b82c-4b92-9b6f-f88a7e6582af"},"vehicle_type_id":"4","last_reported":1773872575,"current_range_meters":2800,"station_id":"ce4bgkh2rcd13ifvqbk0","pricing_plan_id":"cebpf4jnsgd1na2vs0mg"},{"bike_id":"173a3db2-8881-4b9b-9f56-8f03c5410dbd","system_id":"levelo_inurba_marseille","lat":43.27273,"lon":5.3927,"is_reserved":false,"is_disabled":false,"rental_uris":{"android":"levelo://app?vid=173a3db2-8881-4b9b-9f56-8f03c5410dbd","ios":"levelo://app?vid=173a3db2-8881-4b9b-9f56-8f03c5410dbd"},"vehicle_type_id":"4","last_reported":1773872575,"current_range_meters":2800,"station_id":"ce4bhhp2rcd13ifvqfm0","pricing_plan_id":"cebpf4jnsgd1na2vs0mg"},{"bike_id":"818d39ad-1c67-4215-b747-ac27ddc8e8e8","system_id":"levelo_inurba_marseille","lat":43.23176,"lon":5.35449,"is_reserved":false,"is_disabled":false,"rental_uris":{"android":"levelo://app?vid=818d39ad-1c67-4215-b747-ac27ddc8e8e8","ios":"levelo://app?vid=818d39ad-1c67-4215-b747-ac27ddc8e8e8"},"vehicle_type_id":"4","last_reported":1773872575,"current_range_meters":2800,"station_id":"","pricing_plan_id":"cebpf4jnsgd1na2vs0mg"},{"bike_id":"24926837-a9d0-4816-935e-c5a376cf2a35","system_id":"levelo_inurba_marseille","lat":43.2904,"lon":5.35919,"is_reserved":false,"is_disabled":false,"rental_uris":{"android":"levelo://app?vid=24926837-a9d0-4816-935e-c5a376cf2a35","ios":"levelo://app?vid=24926837-a9d0-4816-935e-c5a376cf2a35"},"vehicle_type_id":"4","last_reported":1773872575,"current_range_meters":2800,"station_id":"ce4bha92rcd13ifvqeg0","pricing_plan_id":"cebpf4jnsgd1na2vs0mg"},{"bike_id":"60d2ea08-2b7e-44e7-8315-9304b8a5f88f","system_id":"levelo_inurba_marseille","lat":43.31714,"lon":5.424,"is_reserved":false,"is_disabled":true,"rental_uris":{"android":"levelo://app?vid=60d2ea08-2b7e-44e7-8315-9304b8a5f88f","ios":"levelo://app?vid=60d2ea08-2b7e-44e7-8315-9304b8a5f88f"},"vehicle_type_id":"4","last_reported":1773872575,"current_range_meters":2800,"station_id":"ce4bhp92rcd13ifvqhbg","pricing_plan_id":"cebpf4jnsgd1na2vs0mg"},{"bike_id":"bf249f81-2ef0-45f9-a595-8436dd14fe0c","system_id":"levelo_inurba_marseille","lat":43.32122,"lon":5.36776,"is_reserved":false,"is_disabled":false,"rental_uris":{"android":"levelo://app?vid=bf249f81-2ef0-45f9-a595-8436dd14fe0c","ios":"levelo://app?vid=bf249f81-2ef0-45f9-a595-8436dd14fe0c"},"vehicle_type_id":"4","last_reported":1773872575,"current_range_meters":2800,"station_id":"ce4bhrh2rcd13ifvqhug","pricing_plan_id":"cebpf4jnsgd1na2vs0mg"},{"bike_id":"4eca5809-5573-477a-b5b4-ab8f5c84ba9d","system_id":"levelo_inurba_marseille","lat":43.28705,"lon":5.37371,"is_reserved":false,"is_disabled":false,"rental_uris":{"android":"levelo://app?vid=4eca5809-5573-477a-b5b4-ab8f5c84ba9d","ios":"levelo://app?vid=4eca5809-5573-477a-b5b4-ab8f5c84ba9d"},"vehicle_type_id":"4","last_reported":1773872575,"current_range_meters":2800,"station_id":"ce4bh3p2rcd13ifvqdq0","pricing_plan_id":"cebpf4jnsgd1na2vs0mg"},{"bike_id":"e1bb4de0-7afb-4640-893b-7064dc6eb7df","system_id":"levelo_inurba_marseille","lat":43.28621,"lon":5.37074,"is_reserved":false,"is_disabled":false,"rental_uris":{"android":"levelo://app?vid=e1bb4de0-7afb-4640-893b-7064dc6eb7df","ios":"levelo://app?vid=e1bb4de0-7afb-4640-893b-7064dc6eb7df"},"vehicle_type_id":"4","last_reported":1773872575,"current_range_meters":2800,"station_id":"ce4bht12rcd13ifvqi60","pricing_plan_id":"cebpf4jnsgd1na2vs0mg"},{"bike_id":"fae98e9a-2ca7-4fb7-8b98-a4d3430a57f0","system_id":"levelo_inurba_marseille","lat":43.31051,"lon":5.39344,"is_reserved":false,"is_disabled":false,"rental_uris":{"android":"levelo://app?vid=fae98e9a-2ca7-4fb7-8b98-a4d3430a57f0","ios":"levelo://app?vid=fae98e9a-2ca7-4fb7-8b98-a4d3430a57f0"},"vehicle_type_id":"4","last_reported":1773872575,"current_range_meters":2800,"station_id":"","pricing_plan_id":"cebpf4jnsgd1na2vs0mg"},{"bike_id":"ab2125f0-f477-425b-9c9a-e4231f7f002b","system_id":"levelo_inurba_marseille","lat":43.21745,"lon":5.34612,"is_reserved":false,"is_disabled":true,"rental_uris":{"android":"levelo://app?vid=ab2125f0-f477-425b-9c9a-e4231f7f002b","ios":"levelo://app?vid=ab2125f0-f477-425b-9c9a-e4231f7f002b"},"vehicle_type_id":"4","last_reported":1773872575,"current_range_meters":2800,"station_id":"st_cvj6r9ubvosntc0bgbag","pricing_plan_id":"cebpf4jnsgd1na2vs0mg"},{"bike_id":"53d5a6f2-d53f-487c-9fee-e56ff0f2a1a5","system_id":"levelo_inurba_marseille","lat":43.23386,"lon":5.41242,"is_reserved":false,"is_disabled":false,"rental_uris":{"android":"levelo://app?vid=53d5a6f2-d53f-487c-9fee-e56ff0f2a1a5","ios":"levelo://app?vid=53d5a6f2-d53f-487c-9fee-e56ff0f2a1a5"},"vehicle_type_id":"4","last_reported":1773872575,"current_range_meters":2800,"station_id":"","pricing_plan_id":"cebpf4jnsgd1na2vs0mg"},{"bike_id":"1fb19db4-5d4f-41f0-9ea9-386e0f28c193","system_id":"levelo_inurba_marseille","lat":43.29538,"lon":5.38544,"is_reserved":false,"is_disabled":false,"rental_uris":{"android":"levelo://app?vid=1fb19db4-5d4f-41f0-9ea9-386e0f28c193","ios":"levelo://app?vid=1fb19db4-5d4f-41f0-9ea9-386e0f28c193"},"vehicle_type_id":"4","last_reported":1773872575,"current_range_meters":2800,"station_id":"ce4bgih2rcd13ifvqba0","pricing_plan_id":"cebpf4jnsgd1na2vs0mg"},{"bike_id":"77f82e91-30b6-4c8c-a0ef-dfcf78d748db","system_id":"levelo_inurba_marseille","lat":43.2887,"lon":5.42524,"is_reserved":false,"is_disabled":false,"rental_uris":{"android":"levelo://app?vid=77f82e91-30b6-4c8c-a0ef-dfcf78d748db","ios":"levelo://app?vid=77f82e91-30b6-4c8c-a0ef-dfcf78d748db"},"vehicle_type_id":"4","last_reported":1773872575,"current_range_meters":3200,"station_id":"","pricing_plan_id":"cebpf4jnsgd1na2vs0mg"},{"bike_id":"458f604b-e062-47bf-ac14-a001a31d10d8","system_id":"levelo_inurba_marseille","lat":43.28473,"lon":5.48398,"is_reserved":false,"is_disabled":false,"rental_uris":{"android":"levelo://app?vid=458f604b-e062-47bf-ac14-a001a31d10d8","ios":"levelo://app?vid=458f604b-e062-47bf-ac14-a001a31d10d8"},"vehicle_type_id":"4","last_reported":1773872575,"current_range_meters":3200,"station_id":"","pricing_plan_id":"cebpf4jnsgd1na2vs0mg"},{"bike_id":"03a38c48-a6ac-4221-9fe0-109736165c8f","system_id":"levelo_inurba_marseille","lat":43.31236,"lon":5.36858,"is_reserved":false,"is_disabled":false,"rental_uris":{"android":"levelo://app?vid=03a38c48-a6ac-4221-9fe0-109736165c8f","ios":"levelo://app?vid=03a38c48-a6ac-4221-9fe0-109736165c8f"},"vehicle_type_id":"4","last_reported":1773872575,"current_range_meters":3200,"station_id":"ce4bgl92rcd13ifvqbq0","pricing_plan_id":"cebpf4jnsgd1na2vs0mg"},{"bike_id":"01eaa32e-1702-4288-9ef4-adb775f51620","system_id":"levelo_inurba_marseille","lat":43.31241,"lon":5.41348,"is_reserved":false,"is_disabled":false,"rental_uris":{"android":"levelo://app?vid=01eaa32e-1702-4288-9ef4-adb775f51620","ios":"levelo://app?vid=01eaa32e-1702-4288-9ef4-adb775f51620"},"vehicle_type_id":"4","last_reported":1773872575,"current_range_meters":3200,"station_id":"","pricing_plan_id":"cebpf4jnsgd1na2vs0mg"},{"bike_id":"d7e8d77f-bad8-482f-b62c-ab7a3f141468","system_id":"levelo_inurba_marseille","lat":43.28565,"lon":5.39517,"is_reserved":false,"is_disabled":false,"rental_uris":{"android":"levelo://app?vid=d7e8d77f-bad8-482f-b62c-ab7a3f141468","ios":"levelo://app?vid=d7e8d77f-bad8-482f-b62c-ab7a3f141468"},"vehicle_type_id":"4","last_reported":1773872575,"current_range_meters":3200,"station_id":"ce4bh292rcd13ifvqdg0","pricing_plan_id":"cebpf4jnsgd1na2vs0mg"},{"bike_id":"64e4942c-04ec-475a-8745-de522dcf5faa","system_id":"levelo_inurba_marseille","lat":43.22952,"lon":5.35364,"is_reserved":false,"is_disabled":false,"rental_uris":{"android":"levelo://app?vid=64e4942c-04ec-475a-8745-de522dcf5faa","ios":"levelo://app?vid=64e4942c-04ec-475a-8745-de522dcf5faa"},"vehicle_type_id":"4","last_reported":1773872575,"current_range_meters":3200,"station_id":"cpo3532slgdg3j2ikp40","pricing_plan_id":"cebpf4jnsgd1na2vs0mg"},{"bike_id":"96dac97a-0c76-4079-a74f-d3b50e0ff04c","system_id":"levelo_inurba_marseille","lat":43.21198,"lon":5.3507,"is_reserved":false,"is_disabled":false,"rental_uris":{"android":"levelo://app?vid=96dac97a-0c76-4079-a74f-d3b50e0ff04c","ios":"levelo://app?vid=96dac97a-0c76-4079-a74f-d3b50e0ff04c"},"vehicle_type_id":"4","last_reported":1773872575,"current_range_meters":3200,"station_id":"st_cvj6sg6p6f1abm77japg","pricing_plan_id":"cebpf4jnsgd1na2vs0mg"},{"bike_id":"ff4d60f5-767c-4ae3-b27e-dfea0c87e749","system_id":"levelo_inurba_marseille","lat":43.22938,"lon":5.35373,"is_reserved":false,"is_disabled":false,"rental_uris":{"android":"levelo://app?vid=ff4d60f5-767c-4ae3-b27e-dfea0c87e749","ios":"levelo://app?vid=ff4d60f5-767c-4ae3-b27e-dfea0c87e749"},"vehicle_type_id":"4","last_reported":1773872575,"current_range_meters":3200,"station_id":"cpo3532slgdg3j2ikp40","pricing_plan_id":"cebpf4jnsgd1na2vs0mg"},{"bike_id":"c2c7c530-5d90-493e-bc68-4654d00e1dc7","system_id":"levelo_inurba_marseille","lat":43.25224,"lon":5.40641,"is_reserved":false,"is_disabled":false,"rental_uris":{"android":"levelo://app?vid=c2c7c530-5d90-493e-bc68-4654d00e1dc7","ios":"levelo://app?vid=c2c7c530-5d90-493e-bc68-4654d00e1dc7"},"vehicle_type_id":"4","last_reported":1773872575,"current_range_meters":3200,"station_id":"","pricing_plan_id":"cebpf4jnsgd1na2vs0mg"},{"bike_id":"d9f68a66-aa52-464b-923f-9c77324e6b43","system_id":"levelo_inurba_marseille","lat":43.27558,"lon":5.38458,"is_reserved":false,"is_disabled":false,"rental_uris":{"android":"levelo://app?vid=d9f68a66-aa52-464b-923f-9c77324e6b43","ios":"levelo://app?vid=d9f68a66-aa52-464b-923f-9c77324e6b43"},"vehicle_type_id":"4","last_reported":1773872575,"current_range_meters":3600,"station_id":"ce4bhh92rcd13ifvqfi0","pricing_plan_id":"cebpf4jnsgd1na2vs0mg"},{"bike_id":"50de3b6b-38f5-44ec-a80e-69668f01c515","system_id":"levelo_inurba_marseille","lat":43.29762,"lon":5.42782,"is_reserved":false,"is_disabled":false,"rental_uris":{"android":"levelo://app?vid=50de3b6b-38f5-44ec-a80e-69668f01c515","ios":"levelo://app?vid=50de3b6b-38f5-44ec-a80e-69668f01c515"},"vehicle_type_id":"4","last_reported":1773872575,"current_range_meters":3600,"station_id":"st_d3md5207bmas73dh9klg","pricing_plan_id":"cebpf4jnsgd1na2vs0mg"},{"bike_id":"4e6bb9f0-db74-4434-b14e-562c8978088c","system_id":"levelo_inurba_marseille","lat":43.28992,"lon":5.37828,"is_reserved":false,"is_disabled":false,"rental_uris":{"android":"levelo://app?vid=4e6bb9f0-db74-4434-b14e-562c8978088c","ios":"levelo://app?vid=4e6bb9f0-db74-4434-b14e-562c8978088c"},"vehicle_type_id":"4","last_reported":1773872575,"current_range_meters":3600,"station_id":"ce4bh9p2rcd13ifvqed0","pricing_plan_id":"cebpf4jnsgd1na2vs0mg"},{"bike_id":"7e372e61-a4a4-4320-b78e-0115edf72ed5","system_id":"levelo_inurba_marseille","lat":43.24174,"lon":5.36417,"is_reserved":false,"is_disabled":true,"rental_uris":{"android":"levelo://app?vid=7e372e61-a4a4-4320-b78e-0115edf72ed5","ios":"levelo://app?vid=7e372e61-a4a4-4320-b78e-0115edf72ed5"},"vehicle_type_id":"4","last_reported":1773872575,"current_range_meters":3600,"station_id":"cpo36qri1sfpv3e86is0","pricing_plan_id":"cebpf4jnsgd1na2vs0mg"},{"bike_id":"f098d9b7-2e86-49b7-b795-e3b7e2e73676","system_id":"levelo_inurba_marseille","lat":43.30132,"lon":5.3718,"is_reserved":false,"is_disabled":false,"rental_uris":{"android":"levelo://app?vid=f098d9b7-2e86-49b7-b795-e3b7e2e73676","ios":"levelo://app?vid=f098d9b7-2e86-49b7-b795-e3b7e2e73676"},"vehicle_type_id":"4","last_reported":1773872575,"current_range_meters":3600,"station_id":"","pricing_plan_id":"cebpf4jnsgd1na2vs0mg"},{"bike_id":"f852e62a-4ab8-41a5-be60-69600f906e2f","system_id":"levelo_inurba_marseille","lat":43.28363,"lon":5.38631,"is_reserved":false,"is_disabled":false,"rental_uris":{"android":"levelo://app?vid=f852e62a-4ab8-41a5-be60-69600f906e2f","ios":"levelo://app?vid=f852e62a-4ab8-41a5-be60-69600f906e2f"},"vehicle_type_id":"4","last_reported":1773872575,"current_range_meters":3600,"station_id":"ce4bh492rcd13ifvqdvg","pricing_plan_id":"cebpf4jnsgd1na2vs0mg"},{"bike_id":"557e5d18-9305-4b5a-976c-8e53e4f5c1ea","system_id":"levelo_inurba_marseille","lat":43.29793,"lon":5.40428,"is_reserved":false,"is_disabled":false,"rental_uris":{"android":"levelo://app?vid=557e5d18-9305-4b5a-976c-8e53e4f5c1ea","ios":"levelo://app?vid=557e5d18-9305-4b5a-976c-8e53e4f5c1ea"},"vehicle_type_id":"4","last_reported":1773872575,"current_range_meters":3600,"station_id":"ce4bh112rcd13ifvqd90","pricing_plan_id":"cebpf4jnsgd1na2vs0mg"},{"bike_id":"2874775b-146e-45de-9a13-98bbe699d55d","system_id":"levelo_inurba_marseille","lat":43.24614,"lon":5.43131,"is_reserved":false,"is_disabled":true,"rental_uris":{"android":"levelo://app?vid=2874775b-146e-45de-9a13-98bbe699d55d","ios":"levelo://app?vid=2874775b-146e-45de-9a13-98bbe699d55d"},"vehicle_type_id":"4","last_reported":1773872575,"current_range_meters":3600,"station_id":"","pricing_plan_id":"cebpf4jnsgd1na2vs0mg"},{"bike_id":"970fef3c-d7c7-49b2-b1e6-7f030f95a7f4","system_id":"levelo_inurba_marseille","lat":43.28227,"lon":5.39069,"is_reserved":false,"is_disabled":false,"rental_uris":{"android":"levelo://app?vid=970fef3c-d7c7-49b2-b1e6-7f030f95a7f4","ios":"levelo://app?vid=970fef3c-d7c7-49b2-b1e6-7f030f95a7f4"},"vehicle_type_id":"4","last_reported":1773872575,"current_range_meters":3600,"station_id":"ce4bhn92rcd13ifvqgsg","pricing_plan_id":"cebpf4jnsgd1na2vs0mg"},{"bike_id":"2f3b50b6-2312-4e79-9227-15a6b6ea35f9","system_id":"levelo_inurba_marseille","lat":43.337444,"lon":5.374475,"is_reserved":false,"is_disabled":false,"rental_uris":{"android":"levelo://app?vid=2f3b50b6-2312-4e79-9227-15a6b6ea35f9","ios":"levelo://app?vid=2f3b50b6-2312-4e79-9227-15a6b6ea35f9"},"vehicle_type_id":"4","last_reported":1773872575,"current_range_meters":3600,"station_id":"ce4bht12rcd13ifvqi60","pricing_plan_id":"cebpf4jnsgd1na2vs0mg"},{"bike_id":"b9f2e5d5-d6ac-4c0d-86f2-4fe1a54ef3b3","system_id":"levelo_inurba_marseille","lat":43.32088,"lon":5.36777,"is_reserved":false,"is_disabled":false,"rental_uris":{"android":"levelo://app?vid=b9f2e5d5-d6ac-4c0d-86f2-4fe1a54ef3b3","ios":"levelo://app?vid=b9f2e5d5-d6ac-4c0d-86f2-4fe1a54ef3b3"},"vehicle_type_id":"4","last_reported":1773872575,"current_range_meters":3600,"station_id":"ce4bhrh2rcd13ifvqhug","pricing_plan_id":"cebpf4jnsgd1na2vs0mg"},{"bike_id":"ba3a93e9-0ab6-4e6f-87e7-88a20529a0ea","system_id":"levelo_inurba_marseille","lat":43.31446,"lon":5.39295,"is_reserved":false,"is_disabled":false,"rental_uris":{"android":"levelo://app?vid=ba3a93e9-0ab6-4e6f-87e7-88a20529a0ea","ios":"levelo://app?vid=ba3a93e9-0ab6-4e6f-87e7-88a20529a0ea"},"vehicle_type_id":"4","last_reported":1773872575,"current_range_meters":3600,"station_id":"","pricing_plan_id":"cebpf4jnsgd1na2vs0mg"},{"bike_id":"05fd0230-60dc-4569-9eab-e456bb9eec1a","system_id":"levelo_inurba_marseille","lat":43.30179,"lon":5.36648,"is_reserved":false,"is_disabled":false,"rental_uris":{"android":"levelo://app?vid=05fd0230-60dc-4569-9eab-e456bb9eec1a","ios":"levelo://app?vid=05fd0230-60dc-4569-9eab-e456bb9eec1a"},"vehicle_type_id":"4","last_reported":1773872575,"current_range_meters":4000,"station_id":"ce4bgrh2rcd13ifvqc8g","pricing_plan_id":"cebpf4jnsgd1na2vs0mg"},{"bike_id":"962cf687-1766-4156-9249-f2a9c2642346","system_id":"levelo_inurba_marseille","lat":43.2846,"lon":5.35888,"is_reserved":false,"is_disabled":false,"rental_uris":{"android":"levelo://app?vid=962cf687-1766-4156-9249-f2a9c2642346","ios":"levelo://app?vid=962cf687-1766-4156-9249-f2a9c2642346"},"vehicle_type_id":"4","last_reported":1773872575,"current_range_meters":4000,"station_id":"ce4bhah2rcd13ifvqei0","pricing_plan_id":"cebpf4jnsgd1na2vs0mg"},{"bike_id":"cb2c175e-fc1a-43c7-8316-e12b1c668a27","system_id":"levelo_inurba_marseille","lat":43.30466,"lon":5.36689,"is_reserved":false,"is_disabled":true,"rental_uris":{"android":"levelo://app?vid=cb2c175e-fc1a-43c7-8316-e12b1c668a27","ios":"levelo://app?vid=cb2c175e-fc1a-43c7-8316-e12b1c668a27"},"vehicle_type_id":"4","last_reported":1773872575,"current_range_meters":4000,"station_id":"","pricing_plan_id":"cebpf4jnsgd1na2vs0mg"},{"bike_id":"b703c509-0a53-4f14-907b-c60fb0017c10","system_id":"levelo_inurba_marseille","lat":43.31046,"lon":5.3717,"is_reserved":false,"is_disabled":false,"rental_uris":{"android":"levelo://app?vid=b703c509-0a53-4f14-907b-c60fb0017c10","ios":"levelo://app?vid=b703c509-0a53-4f14-907b-c60fb0017c10"},"vehicle_type_id":"4","last_reported":1773872575,"current_range_meters":4000,"station_id":"st_d4kl2rp97mjs73e7tdfg","pricing_plan_id":"cebpf4jnsgd1na2vs0mg"},{"bike_id":"6192c4a9-d4b2-466d-8680-4c5903d88ffc","system_id":"levelo_inurba_marseille","lat":43.23916,"lon":5.39676,"is_reserved":false,"is_disabled":false,"rental_uris":{"android":"levelo://app?vid=6192c4a9-d4b2-466d-8680-4c5903d88ffc","ios":"levelo://app?vid=6192c4a9-d4b2-466d-8680-4c5903d88ffc"},"vehicle_type_id":"4","last_reported":1773872575,"current_range_meters":4000,"station_id":"","pricing_plan_id":"cebpf4jnsgd1na2vs0mg"},{"bike_id":"953941a9-3563-489d-aba9-d6cd35a24b9e","system_id":"levelo_inurba_marseille","lat":43.29105,"lon":5.38161,"is_reserved":false,"is_disabled":false,"rental_uris":{"android":"levelo://app?vid=953941a9-3563-489d-aba9-d6cd35a24b9e","ios":"levelo://app?vid=953941a9-3563-489d-aba9-d6cd35a24b9e"},"vehicle_type_id":"4","last_reported":1773872575,"current_range_meters":4000,"station_id":"ce4bh512rcd13ifvqe2g","pricing_plan_id":"cebpf4jnsgd1na2vs0mg"},{"bike_id":"90dfeea3-9027-44f0-8ae3-652037a68d4c","system_id":"levelo_inurba_marseille","lat":43.30303,"lon":5.39212,"is_reserved":false,"is_disabled":false,"rental_uris":{"android":"levelo://app?vid=90dfeea3-9027-44f0-8ae3-652037a68d4c","ios":"levelo://app?vid=90dfeea3-9027-44f0-8ae3-652037a68d4c"},"vehicle_type_id":"4","last_reported":1773872575,"current_range_meters":4000,"station_id":"ce4bgkh2rcd13ifvqbk0","pricing_plan_id":"cebpf4jnsgd1na2vs0mg"},{"bike_id":"e19bbcec-af9d-483d-ac29-18df3b9c0ab9","system_id":"levelo_inurba_marseille","lat":43.28474,"lon":5.48385,"is_reserved":false,"is_disabled":false,"rental_uris":{"android":"levelo://app?vid=e19bbcec-af9d-483d-ac29-18df3b9c0ab9","ios":"levelo://app?vid=e19bbcec-af9d-483d-ac29-18df3b9c0ab9"},"vehicle_type_id":"4","last_reported":1773872575,"current_range_meters":4000,"station_id":"st_d3svhcjqgbts73a3dn0g","pricing_plan_id":"cebpf4jnsgd1na2vs0mg"},{"bike_id":"e1282d04-f7b7-4606-b775-ed192685a5f4","system_id":"levelo_inurba_marseille","lat":43.24196,"lon":5.39711,"is_reserved":false,"is_disabled":true,"rental_uris":{"android":"levelo://app?vid=e1282d04-f7b7-4606-b775-ed192685a5f4","ios":"levelo://app?vid=e1282d04-f7b7-4606-b775-ed192685a5f4"},"vehicle_type_id":"4","last_reported":1773872575,"current_range_meters":4000,"station_id":"ce4bhn12rcd13ifvqgpg","pricing_plan_id":"cebpf4jnsgd1na2vs0mg"},{"bike_id":"8b4aea3c-3983-4faf-84c4-ca9900ccb395","system_id":"levelo_inurba_marseille","lat":43.30893,"lon":5.3964,"is_reserved":false,"is_disabled":false,"rental_uris":{"android":"levelo://app?vid=8b4aea3c-3983-4faf-84c4-ca9900ccb395","ios":"levelo://app?vid=8b4aea3c-3983-4faf-84c4-ca9900ccb395"},"vehicle_type_id":"4","last_reported":1773872575,"current_range_meters":4000,"station_id":"ce4bh012rcd13ifvqcv0","pricing_plan_id":"cebpf4jnsgd1na2vs0mg"},{"bike_id":"f7cad0dd-4929-454b-8848-7575c69435e1","system_id":"levelo_inurba_marseille","lat":43.25882,"lon":5.39895,"is_reserved":false,"is_disabled":true,"rental_uris":{"android":"levelo://app?vid=f7cad0dd-4929-454b-8848-7575c69435e1","ios":"levelo://app?vid=f7cad0dd-4929-454b-8848-7575c69435e1"},"vehicle_type_id":"4","last_reported":1773872575,"current_range_meters":4000,"station_id":"ce4bhl92rcd13ifvqghg","pricing_plan_id":"cebpf4jnsgd1na2vs0mg"},{"bike_id":"7c27bbc1-43c8-4af1-8a34-48b79713d044","system_id":"levelo_inurba_marseille","lat":43.21202,"lon":5.35083,"is_reserved":false,"is_disabled":false,"rental_uris":{"android":"levelo://app?vid=7c27bbc1-43c8-4af1-8a34-48b79713d044","ios":"levelo://app?vid=7c27bbc1-43c8-4af1-8a34-48b79713d044"},"vehicle_type_id":"4","last_reported":1773872575,"current_range_meters":4000,"station_id":"st_cvj6sg6p6f1abm77japg","pricing_plan_id":"cebpf4jnsgd1na2vs0mg"},{"bike_id":"6fad7a49-805d-4fd1-9f05-af0d65c98f3b","system_id":"levelo_inurba_marseille","lat":43.27213,"lon":5.39181,"is_reserved":false,"is_disabled":false,"rental_uris":{"android":"levelo://app?vid=6fad7a49-805d-4fd1-9f05-af0d65c98f3b","ios":"levelo://app?vid=6fad7a49-805d-4fd1-9f05-af0d65c98f3b"},"vehicle_type_id":"4","last_reported":1773872575,"current_range_meters":4000,"station_id":"ce4bhhp2rcd13ifvqfm0","pricing_plan_id":"cebpf4jnsgd1na2vs0mg"},{"bike_id":"f1157430-cc99-47be-b36c-b2ae02678b63","system_id":"levelo_inurba_marseille","lat":43.29802,"lon":5.40398,"is_reserved":false,"is_disabled":false,"rental_uris":{"android":"levelo://app?vid=f1157430-cc99-47be-b36c-b2ae02678b63","ios":"levelo://app?vid=f1157430-cc99-47be-b36c-b2ae02678b63"},"vehicle_type_id":"4","last_reported":1773872575,"current_range_meters":4000,"station_id":"ce4bh112rcd13ifvqd90","pricing_plan_id":"cebpf4jnsgd1na2vs0mg"},{"bike_id":"a2211e71-206f-4e87-a705-3139361a1dca","system_id":"levelo_inurba_marseille","lat":43.30807,"lon":5.38156,"is_reserved":false,"is_disabled":false,"rental_uris":{"android":"levelo://app?vid=a2211e71-206f-4e87-a705-3139361a1dca","ios":"levelo://app?vid=a2211e71-206f-4e87-a705-3139361a1dca"},"vehicle_type_id":"4","last_reported":1773872575,"current_range_meters":4000,"station_id":"ce4bgt12rcd13ifvqce0","pricing_plan_id":"cebpf4jnsgd1na2vs0mg"},{"bike_id":"efa56788-fd95-4d6e-84ce-b31b80bc3dea","system_id":"levelo_inurba_marseille","lat":43.29277,"lon":5.37458,"is_reserved":false,"is_disabled":true,"rental_uris":{"android":"levelo://app?vid=efa56788-fd95-4d6e-84ce-b31b80bc3dea","ios":"levelo://app?vid=efa56788-fd95-4d6e-84ce-b31b80bc3dea"},"vehicle_type_id":"4","last_reported":1773872575,"current_range_meters":4000,"station_id":"ce4bgi12rcd13ifvqb70","pricing_plan_id":"cebpf4jnsgd1na2vs0mg"},{"bike_id":"34055039-8545-4d43-80d6-26e8f4a0761a","system_id":"levelo_inurba_marseille","lat":43.30088,"lon":5.39103,"is_reserved":false,"is_disabled":false,"rental_uris":{"android":"levelo://app?vid=34055039-8545-4d43-80d6-26e8f4a0761a","ios":"levelo://app?vid=34055039-8545-4d43-80d6-26e8f4a0761a"},"vehicle_type_id":"4","last_reported":1773872575,"current_range_meters":4000,"station_id":"ce4bh192rcd13ifvqdb0","pricing_plan_id":"cebpf4jnsgd1na2vs0mg"},{"bike_id":"ae510818-7b56-44ed-b06e-d10c771549b4","system_id":"levelo_inurba_marseille","lat":43.29524,"lon":5.39043,"is_reserved":false,"is_disabled":false,"rental_uris":{"android":"levelo://app?vid=ae510818-7b56-44ed-b06e-d10c771549b4","ios":"levelo://app?vid=ae510818-7b56-44ed-b06e-d10c771549b4"},"vehicle_type_id":"4","last_reported":1773872575,"current_range_meters":4000,"station_id":"ce4bh3p2rcd13ifvqdp0","pricing_plan_id":"cebpf4jnsgd1na2vs0mg"},{"bike_id":"40b4c9a9-7a66-4906-8741-41c41b4ee56b","system_id":"levelo_inurba_marseille","lat":43.27088,"lon":5.42267,"is_reserved":false,"is_disabled":true,"rental_uris":{"android":"levelo://app?vid=40b4c9a9-7a66-4906-8741-41c41b4ee56b","ios":"levelo://app?vid=40b4c9a9-7a66-4906-8741-41c41b4ee56b"},"vehicle_type_id":"4","last_reported":1773872575,"current_range_meters":4000,"station_id":"ce4bhk92rcd13ifvqgb0","pricing_plan_id":"cebpf4jnsgd1na2vs0mg"},{"bike_id":"8c19d337-dbc6-4420-a084-5525745c7eea","system_id":"levelo_inurba_marseille","lat":43.23394,"lon":5.41252,"is_reserved":false,"is_disabled":false,"rental_uris":{"android":"levelo://app?vid=8c19d337-dbc6-4420-a084-5525745c7eea","ios":"levelo://app?vid=8c19d337-dbc6-4420-a084-5525745c7eea"},"vehicle_type_id":"4","last_reported":1773872575,"current_range_meters":4000,"station_id":"","pricing_plan_id":"cebpf4jnsgd1na2vs0mg"},{"bike_id":"a8ab54b1-7789-4df6-8176-c2a2b6ceda65","system_id":"levelo_inurba_marseille","lat":43.25319,"lon":5.42179,"is_reserved":false,"is_disabled":false,"rental_uris":{"android":"levelo://app?vid=a8ab54b1-7789-4df6-8176-c2a2b6ceda65","ios":"levelo://app?vid=a8ab54b1-7789-4df6-8176-c2a2b6ceda65"},"vehicle_type_id":"4","last_reported":1773872575,"current_range_meters":4400,"station_id":"st_d2m65c5bi1j21697t3ng","pricing_plan_id":"cebpf4jnsgd1na2vs0mg"},{"bike_id":"b372e9b7-cab4-4a52-a098-286e2f1a8b02","system_id":"levelo_inurba_marseille","lat":43.29903,"lon":5.36575,"is_reserved":false,"is_disabled":false,"rental_uris":{"android":"levelo://app?vid=b372e9b7-cab4-4a52-a098-286e2f1a8b02","ios":"levelo://app?vid=b372e9b7-cab4-4a52-a098-286e2f1a8b02"},"vehicle_type_id":"4","last_reported":1773872575,"current_range_meters":4400,"station_id":"ce4bgm92rcd13ifvqbr0","pricing_plan_id":"cebpf4jnsgd1na2vs0mg"},{"bike_id":"e563383a-8a89-4304-b11f-18268886193e","system_id":"levelo_inurba_marseille","lat":43.25572,"lon":5.38226,"is_reserved":false,"is_disabled":false,"rental_uris":{"android":"levelo://app?vid=e563383a-8a89-4304-b11f-18268886193e","ios":"levelo://app?vid=e563383a-8a89-4304-b11f-18268886193e"},"vehicle_type_id":"4","last_reported":1773872575,"current_range_meters":4400,"station_id":"ce4bhih2rcd13ifvqfs0","pricing_plan_id":"cebpf4jnsgd1na2vs0mg"},{"bike_id":"daa4d2c5-b151-4bf6-bf3d-4d2c43839aea","system_id":"levelo_inurba_marseille","lat":43.27558,"lon":5.38416,"is_reserved":false,"is_disabled":false,"rental_uris":{"android":"levelo://app?vid=daa4d2c5-b151-4bf6-bf3d-4d2c43839aea","ios":"levelo://app?vid=daa4d2c5-b151-4bf6-bf3d-4d2c43839aea"},"vehicle_type_id":"4","last_reported":1773872575,"current_range_meters":4400,"station_id":"ce4bhh92rcd13ifvqfi0","pricing_plan_id":"cebpf4jnsgd1na2vs0mg"},{"bike_id":"b6f89c1d-9d87-487c-842f-47d7637847b1","system_id":"levelo_inurba_marseille","lat":43.27567,"lon":5.38447,"is_reserved":false,"is_disabled":false,"rental_uris":{"android":"levelo://app?vid=b6f89c1d-9d87-487c-842f-47d7637847b1","ios":"levelo://app?vid=b6f89c1d-9d87-487c-842f-47d7637847b1"},"vehicle_type_id":"4","last_reported":1773872575,"current_range_meters":4400,"station_id":"ce4bhh92rcd13ifvqfi0","pricing_plan_id":"cebpf4jnsgd1na2vs0mg"},{"bike_id":"032692c2-e8ca-40e7-9c05-3713e043006b","system_id":"levelo_inurba_marseille","lat":43.23905,"lon":5.37453,"is_reserved":false,"is_disabled":false,"rental_uris":{"android":"levelo://app?vid=032692c2-e8ca-40e7-9c05-3713e043006b","ios":"levelo://app?vid=032692c2-e8ca-40e7-9c05-3713e043006b"},"vehicle_type_id":"4","last_reported":1773872575,"current_range_meters":4400,"station_id":"st_d6sm7csbq4hs73f8fpjg","pricing_plan_id":"cebpf4jnsgd1na2vs0mg"},{"bike_id":"998452df-0edc-4d34-89de-6fb63967106a","system_id":"levelo_inurba_marseille","lat":43.28737,"lon":5.36087,"is_reserved":false,"is_disabled":false,"rental_uris":{"android":"levelo://app?vid=998452df-0edc-4d34-89de-6fb63967106a","ios":"levelo://app?vid=998452df-0edc-4d34-89de-6fb63967106a"},"vehicle_type_id":"4","last_reported":1773872575,"current_range_meters":4400,"station_id":"cki0cbj6b192h4jlfktg","pricing_plan_id":"cebpf4jnsgd1na2vs0mg"},{"bike_id":"3feb4c73-6e63-47f9-927f-446525b49f72","system_id":"levelo_inurba_marseille","lat":43.31921,"lon":5.3683,"is_reserved":false,"is_disabled":false,"rental_uris":{"android":"levelo://app?vid=3feb4c73-6e63-47f9-927f-446525b49f72","ios":"levelo://app?vid=3feb4c73-6e63-47f9-927f-446525b49f72"},"vehicle_type_id":"4","last_reported":1773872575,"current_range_meters":4400,"station_id":"st_d6o2h0d0559c73evc1b0","pricing_plan_id":"cebpf4jnsgd1na2vs0mg"},{"bike_id":"f8a00c49-c93d-41ce-9f11-d81257ca6394","system_id":"levelo_inurba_marseille","lat":43.22933,"lon":5.35382,"is_reserved":false,"is_disabled":false,"rental_uris":{"android":"levelo://app?vid=f8a00c49-c93d-41ce-9f11-d81257ca6394","ios":"levelo://app?vid=f8a00c49-c93d-41ce-9f11-d81257ca6394"},"vehicle_type_id":"4","last_reported":1773872575,"current_range_meters":4400,"station_id":"cpo3532slgdg3j2ikp40","pricing_plan_id":"cebpf4jnsgd1na2vs0mg"},{"bike_id":"56805169-b8da-43c4-967d-db4749d2d3bc","system_id":"levelo_inurba_marseille","lat":43.28928,"lon":5.38389,"is_reserved":false,"is_disabled":false,"rental_uris":{"android":"levelo://app?vid=56805169-b8da-43c4-967d-db4749d2d3bc","ios":"levelo://app?vid=56805169-b8da-43c4-967d-db4749d2d3bc"},"vehicle_type_id":"4","last_reported":1773872575,"current_range_meters":4400,"station_id":"ce4bh612rcd13ifvqe6g","pricing_plan_id":"cebpf4jnsgd1na2vs0mg"},{"bike_id":"383333ab-900a-4d8e-9e5f-5f8443133843","system_id":"levelo_inurba_marseille","lat":43.23971,"lon":5.36637,"is_reserved":false,"is_disabled":true,"rental_uris":{"android":"levelo://app?vid=383333ab-900a-4d8e-9e5f-5f8443133843","ios":"levelo://app?vid=383333ab-900a-4d8e-9e5f-5f8443133843"},"vehicle_type_id":"4","last_reported":1773872575,"current_range_meters":4400,"station_id":"ce4bhi12rcd13ifvqfp0","pricing_plan_id":"cebpf4jnsgd1na2vs0mg"},{"bike_id":"9596adc9-0a00-4fd5-8f7a-4107ab6390ef","system_id":"levelo_inurba_marseille","lat":43.29292,"lon":5.36852,"is_reserved":false,"is_disabled":false,"rental_uris":{"android":"levelo://app?vid=9596adc9-0a00-4fd5-8f7a-4107ab6390ef","ios":"levelo://app?vid=9596adc9-0a00-4fd5-8f7a-4107ab6390ef"},"vehicle_type_id":"4","last_reported":1773872575,"current_range_meters":4800,"station_id":"ce4bhbp2rcd13ifvqesg","pricing_plan_id":"cebpf4jnsgd1na2vs0mg"},{"bike_id":"56dcc4fe-ac28-400c-a63f-b562d8415172","system_id":"levelo_inurba_marseille","lat":43.3116,"lon":5.38737,"is_reserved":false,"is_disabled":false,"rental_uris":{"android":"levelo://app?vid=56dcc4fe-ac28-400c-a63f-b562d8415172","ios":"levelo://app?vid=56dcc4fe-ac28-400c-a63f-b562d8415172"},"vehicle_type_id":"4","last_reported":1773872575,"current_range_meters":4800,"station_id":"ce4bgv12rcd13ifvqcp0","pricing_plan_id":"cebpf4jnsgd1na2vs0mg"},{"bike_id":"88697e8b-01fd-4696-bab5-73747ef3d57e","system_id":"levelo_inurba_marseille","lat":43.21754,"lon":5.34631,"is_reserved":false,"is_disabled":false,"rental_uris":{"android":"levelo://app?vid=88697e8b-01fd-4696-bab5-73747ef3d57e","ios":"levelo://app?vid=88697e8b-01fd-4696-bab5-73747ef3d57e"},"vehicle_type_id":"4","last_reported":1773872575,"current_range_meters":4800,"station_id":"st_cvj6r9ubvosntc0bgbag","pricing_plan_id":"cebpf4jnsgd1na2vs0mg"},{"bike_id":"70f98469-d2c0-43f4-9102-c6ad6fb97bca","system_id":"levelo_inurba_marseille","lat":43.21746,"lon":5.3461,"is_reserved":false,"is_disabled":false,"rental_uris":{"android":"levelo://app?vid=70f98469-d2c0-43f4-9102-c6ad6fb97bca","ios":"levelo://app?vid=70f98469-d2c0-43f4-9102-c6ad6fb97bca"},"vehicle_type_id":"4","last_reported":1773872575,"current_range_meters":4800,"station_id":"st_cvj6r9ubvosntc0bgbag","pricing_plan_id":"cebpf4jnsgd1na2vs0mg"},{"bike_id":"f7315d1e-73c8-4876-9e17-aedad5ed61d7","system_id":"levelo_inurba_marseille","lat":43.31122,"lon":5.38655,"is_reserved":false,"is_disabled":false,"rental_uris":{"android":"levelo://app?vid=f7315d1e-73c8-4876-9e17-aedad5ed61d7","ios":"levelo://app?vid=f7315d1e-73c8-4876-9e17-aedad5ed61d7"},"vehicle_type_id":"4","last_reported":1773872575,"current_range_meters":4800,"station_id":"","pricing_plan_id":"cebpf4jnsgd1na2vs0mg"},{"bike_id":"da218283-afbf-452d-a1c0-d758dc0f9515","system_id":"levelo_inurba_marseille","lat":43.32356,"lon":5.36743,"is_reserved":false,"is_disabled":false,"rental_uris":{"android":"levelo://app?vid=da218283-afbf-452d-a1c0-d758dc0f9515","ios":"levelo://app?vid=da218283-afbf-452d-a1c0-d758dc0f9515"},"vehicle_type_id":"4","last_reported":1773872575,"current_range_meters":4800,"station_id":"ce4bhsh2rcd13ifvqi2g","pricing_plan_id":"cebpf4jnsgd1na2vs0mg"},{"bike_id":"50e0584e-4dc0-49b6-950a-79953725031f","system_id":"levelo_inurba_marseille","lat":43.23052,"lon":5.35495,"is_reserved":false,"is_disabled":false,"rental_uris":{"android":"levelo://app?vid=50e0584e-4dc0-49b6-950a-79953725031f","ios":"levelo://app?vid=50e0584e-4dc0-49b6-950a-79953725031f"},"vehicle_type_id":"4","last_reported":1773872575,"current_range_meters":4800,"station_id":"cpo3342slgdg3j2ifvpg","pricing_plan_id":"cebpf4jnsgd1na2vs0mg"},{"bike_id":"2706db3b-3f01-4b6b-a1e9-42e6bda22571","system_id":"levelo_inurba_marseille","lat":43.26187,"lon":5.37276,"is_reserved":false,"is_disabled":false,"rental_uris":{"android":"levelo://app?vid=2706db3b-3f01-4b6b-a1e9-42e6bda22571","ios":"levelo://app?vid=2706db3b-3f01-4b6b-a1e9-42e6bda22571"},"vehicle_type_id":"4","last_reported":1773872575,"current_range_meters":4800,"station_id":"","pricing_plan_id":"cebpf4jnsgd1na2vs0mg"},{"bike_id":"4aed0a98-e083-43a2-bb38-801c1cb74284","system_id":"levelo_inurba_marseille","lat":43.3089,"lon":5.37195,"is_reserved":false,"is_disabled":false,"rental_uris":{"android":"levelo://app?vid=4aed0a98-e083-43a2-bb38-801c1cb74284","ios":"levelo://app?vid=4aed0a98-e083-43a2-bb38-801c1cb74284"},"vehicle_type_id":"4","last_reported":1773872575,"current_range_meters":5600,"station_id":"ce4bguh2rcd13ifvqckg","pricing_plan_id":"cebpf4jnsgd1na2vs0mg"},{"bike_id":"7fb6219e-7580-4213-ac54-0555075636fe","system_id":"levelo_inurba_marseille","lat":43.29788,"lon":5.39347,"is_reserved":false,"is_disabled":false,"rental_uris":{"android":"levelo://app?vid=7fb6219e-7580-4213-ac54-0555075636fe","ios":"levelo://app?vid=7fb6219e-7580-4213-ac54-0555075636fe"},"vehicle_type_id":"4","last_reported":1773872575,"current_range_meters":5600,"station_id":"chh1huq6cuj3fo74tm60","pricing_plan_id":"cebpf4jnsgd1na2vs0mg"},{"bike_id":"09d43caa-a3b5-4d9f-b2fc-53bcc0d772da","system_id":"levelo_inurba_marseille","lat":43.30899,"lon":5.38685,"is_reserved":false,"is_disabled":false,"rental_uris":{"android":"levelo://app?vid=09d43caa-a3b5-4d9f-b2fc-53bcc0d772da","ios":"levelo://app?vid=09d43caa-a3b5-4d9f-b2fc-53bcc0d772da"},"vehicle_type_id":"4","last_reported":1773872575,"current_range_meters":5600,"station_id":"","pricing_plan_id":"cebpf4jnsgd1na2vs0mg"},{"bike_id":"0c8526e0-6888-4044-8de5-94e774bcc95a","system_id":"levelo_inurba_marseille","lat":43.30537,"lon":5.38418,"is_reserved":false,"is_disabled":false,"rental_uris":{"android":"levelo://app?vid=0c8526e0-6888-4044-8de5-94e774bcc95a","ios":"levelo://app?vid=0c8526e0-6888-4044-8de5-94e774bcc95a"},"vehicle_type_id":"4","last_reported":1773872575,"current_range_meters":5600,"station_id":"ce4bgg92rcd13ifvqb30","pricing_plan_id":"cebpf4jnsgd1na2vs0mg"},{"bike_id":"f4827580-5cd5-428f-ba33-4d62cd3477b8","system_id":"levelo_inurba_marseille","lat":43.29856,"lon":5.38942,"is_reserved":false,"is_disabled":false,"rental_uris":{"android":"levelo://app?vid=f4827580-5cd5-428f-ba33-4d62cd3477b8","ios":"levelo://app?vid=f4827580-5cd5-428f-ba33-4d62cd3477b8"},"vehicle_type_id":"4","last_reported":1773872575,"current_range_meters":5600,"station_id":"ce4bh392rcd13ifvqdl0","pricing_plan_id":"cebpf4jnsgd1na2vs0mg"},{"bike_id":"7c245f6b-63fb-4c36-8493-afb8fd5288f8","system_id":"levelo_inurba_marseille","lat":43.31184,"lon":5.39085,"is_reserved":false,"is_disabled":false,"rental_uris":{"android":"levelo://app?vid=7c245f6b-63fb-4c36-8493-afb8fd5288f8","ios":"levelo://app?vid=7c245f6b-63fb-4c36-8493-afb8fd5288f8"},"vehicle_type_id":"4","last_reported":1773872575,"current_range_meters":5600,"station_id":"","pricing_plan_id":"cebpf4jnsgd1na2vs0mg"},{"bike_id":"5032ee4c-643b-4fa7-8a5c-8d5e764831f6","system_id":"levelo_inurba_marseille","lat":43.21746,"lon":5.34605,"is_reserved":false,"is_disabled":false,"rental_uris":{"android":"levelo://app?vid=5032ee4c-643b-4fa7-8a5c-8d5e764831f6","ios":"levelo://app?vid=5032ee4c-643b-4fa7-8a5c-8d5e764831f6"},"vehicle_type_id":"4","last_reported":1773872575,"current_range_meters":6000,"station_id":"st_cvj6r9ubvosntc0bgbag","pricing_plan_id":"cebpf4jnsgd1na2vs0mg"},{"bike_id":"7e3617ba-17ca-4431-a82f-f6d8ccebd397","system_id":"levelo_inurba_marseille","lat":43.30808,"lon":5.38146,"is_reserved":false,"is_disabled":false,"rental_uris":{"android":"levelo://app?vid=7e3617ba-17ca-4431-a82f-f6d8ccebd397","ios":"levelo://app?vid=7e3617ba-17ca-4431-a82f-f6d8ccebd397"},"vehicle_type_id":"4","last_reported":1773872575,"current_range_meters":6000,"station_id":"ce4bgt12rcd13ifvqce0","pricing_plan_id":"cebpf4jnsgd1na2vs0mg"},{"bike_id":"081a0881-89b6-4aec-8d87-38fd39de8439","system_id":"levelo_inurba_marseille","lat":43.28533,"lon":5.44107,"is_reserved":false,"is_disabled":false,"rental_uris":{"android":"levelo://app?vid=081a0881-89b6-4aec-8d87-38fd39de8439","ios":"levelo://app?vid=081a0881-89b6-4aec-8d87-38fd39de8439"},"vehicle_type_id":"4","last_reported":1773872575,"current_range_meters":6000,"station_id":"st_d3j3df2ikq2c7380ej80","pricing_plan_id":"cebpf4jnsgd1na2vs0mg"},{"bike_id":"591c0d75-dd2c-4abc-8e75-7ed086672e0c","system_id":"levelo_inurba_marseille","lat":43.2823,"lon":5.39071,"is_reserved":false,"is_disabled":false,"rental_uris":{"android":"levelo://app?vid=591c0d75-dd2c-4abc-8e75-7ed086672e0c","ios":"levelo://app?vid=591c0d75-dd2c-4abc-8e75-7ed086672e0c"},"vehicle_type_id":"4","last_reported":1773872575,"current_range_meters":6000,"station_id":"ce4bhn92rcd13ifvqgsg","pricing_plan_id":"cebpf4jnsgd1na2vs0mg"},{"bike_id":"b1678298-3f5b-4e9b-bb34-63fa7c9d9c9c","system_id":"levelo_inurba_marseille","lat":43.28477,"lon":5.48401,"is_reserved":false,"is_disabled":false,"rental_uris":{"android":"levelo://app?vid=b1678298-3f5b-4e9b-bb34-63fa7c9d9c9c","ios":"levelo://app?vid=b1678298-3f5b-4e9b-bb34-63fa7c9d9c9c"},"vehicle_type_id":"4","last_reported":1773872575,"current_range_meters":6000,"station_id":"","pricing_plan_id":"cebpf4jnsgd1na2vs0mg"},{"bike_id":"d86f7f17-c40c-40d2-9445-70d30fa0ef64","system_id":"levelo_inurba_marseille","lat":43.21746,"lon":5.34619,"is_reserved":false,"is_disabled":true,"rental_uris":{"android":"levelo://app?vid=d86f7f17-c40c-40d2-9445-70d30fa0ef64","ios":"levelo://app?vid=d86f7f17-c40c-40d2-9445-70d30fa0ef64"},"vehicle_type_id":"4","last_reported":1773872575,"current_range_meters":6000,"station_id":"st_cvj6r9ubvosntc0bgbag","pricing_plan_id":"cebpf4jnsgd1na2vs0mg"},{"bike_id":"f27557f5-3041-4725-ba95-c50d744c8357","system_id":"levelo_inurba_marseille","lat":43.28808,"lon":5.37455,"is_reserved":false,"is_disabled":false,"rental_uris":{"android":"levelo://app?vid=f27557f5-3041-4725-ba95-c50d744c8357","ios":"levelo://app?vid=f27557f5-3041-4725-ba95-c50d744c8357"},"vehicle_type_id":"4","last_reported":1773872575,"current_range_meters":6000,"station_id":"","pricing_plan_id":"cebpf4jnsgd1na2vs0mg"},{"bike_id":"ad8103a6-6459-4f65-a2f3-6f3035d55047","system_id":"levelo_inurba_marseille","lat":43.29985,"lon":5.37168,"is_reserved":false,"is_disabled":false,"rental_uris":{"android":"levelo://app?vid=ad8103a6-6459-4f65-a2f3-6f3035d55047","ios":"levelo://app?vid=ad8103a6-6459-4f65-a2f3-6f3035d55047"},"vehicle_type_id":"4","last_reported":1773872575,"current_range_meters":6000,"station_id":"ce4bgr92rcd13ifvqc7g","pricing_plan_id":"cebpf4jnsgd1na2vs0mg"},{"bike_id":"c552fce9-400a-48bb-a313-1cbf6542e2e1","system_id":"levelo_inurba_marseille","lat":43.29281,"lon":5.40123,"is_reserved":false,"is_disabled":false,"rental_uris":{"android":"levelo://app?vid=c552fce9-400a-48bb-a313-1cbf6542e2e1","ios":"levelo://app?vid=c552fce9-400a-48bb-a313-1cbf6542e2e1"},"vehicle_type_id":"4","last_reported":1773872575,"current_range_meters":6000,"station_id":"ce4bh312rcd13ifvqdk0","pricing_plan_id":"cebpf4jnsgd1na2vs0mg"},{"bike_id":"cf7d1234-f536-4df0-af0d-988a5d6a055a","system_id":"levelo_inurba_marseille","lat":43.30935,"lon":5.40163,"is_reserved":false,"is_disabled":false,"rental_uris":{"android":"levelo://app?vid=cf7d1234-f536-4df0-af0d-988a5d6a055a","ios":"levelo://app?vid=cf7d1234-f536-4df0-af0d-988a5d6a055a"},"vehicle_type_id":"4","last_reported":1773872575,"current_range_meters":6000,"station_id":"ce4bgvp2rcd13ifvqct0","pricing_plan_id":"cebpf4jnsgd1na2vs0mg"},{"bike_id":"ed84b58c-3b82-4011-b909-1c2364917a81","system_id":"levelo_inurba_marseille","lat":43.31321,"lon":5.3971,"is_reserved":false,"is_disabled":false,"rental_uris":{"android":"levelo://app?vid=ed84b58c-3b82-4011-b909-1c2364917a81","ios":"levelo://app?vid=ed84b58c-3b82-4011-b909-1c2364917a81"},"vehicle_type_id":"4","last_reported":1773872575,"current_range_meters":6000,"station_id":"ce4bgvp2rcd13ifvqcu0","pricing_plan_id":"cebpf4jnsgd1na2vs0mg"},{"bike_id":"7f141dcd-887a-4746-a44a-688e104041f4","system_id":"levelo_inurba_marseille","lat":43.24169,"lon":5.36405,"is_reserved":false,"is_disabled":false,"rental_uris":{"android":"levelo://app?vid=7f141dcd-887a-4746-a44a-688e104041f4","ios":"levelo://app?vid=7f141dcd-887a-4746-a44a-688e104041f4"},"vehicle_type_id":"4","last_reported":1773872575,"current_range_meters":6000,"station_id":"cpo36qri1sfpv3e86is0","pricing_plan_id":"cebpf4jnsgd1na2vs0mg"},{"bike_id":"f4ea2df8-2408-41cd-9c02-875f790b3f28","system_id":"levelo_inurba_marseille","lat":43.30475,"lon":5.37901,"is_reserved":false,"is_disabled":false,"rental_uris":{"android":"levelo://app?vid=f4ea2df8-2408-41cd-9c02-875f790b3f28","ios":"levelo://app?vid=f4ea2df8-2408-41cd-9c02-875f790b3f28"},"vehicle_type_id":"4","last_reported":1773872575,"current_range_meters":6000,"station_id":"ce4bgup2rcd13ifvqcn0","pricing_plan_id":"cebpf4jnsgd1na2vs0mg"},{"bike_id":"15d16198-178f-4581-9c99-d0f097b847d4","system_id":"levelo_inurba_marseille","lat":43.28671,"lon":5.44226,"is_reserved":false,"is_disabled":false,"rental_uris":{"android":"levelo://app?vid=15d16198-178f-4581-9c99-d0f097b847d4","ios":"levelo://app?vid=15d16198-178f-4581-9c99-d0f097b847d4"},"vehicle_type_id":"4","last_reported":1773872575,"current_range_meters":6000,"station_id":"","pricing_plan_id":"cebpf4jnsgd1na2vs0mg"},{"bike_id":"d0cb36e6-fdce-401f-b426-f9f44b732f6f","system_id":"levelo_inurba_marseille","lat":43.29533,"lon":5.38546,"is_reserved":false,"is_disabled":false,"rental_uris":{"android":"levelo://app?vid=d0cb36e6-fdce-401f-b426-f9f44b732f6f","ios":"levelo://app?vid=d0cb36e6-fdce-401f-b426-f9f44b732f6f"},"vehicle_type_id":"4","last_reported":1773872575,"current_range_meters":6000,"station_id":"ce4bgih2rcd13ifvqba0","pricing_plan_id":"cebpf4jnsgd1na2vs0mg"},{"bike_id":"2c972513-e459-4da9-8372-9be54811adba","system_id":"levelo_inurba_marseille","lat":43.30321,"lon":5.40441,"is_reserved":false,"is_disabled":false,"rental_uris":{"android":"levelo://app?vid=2c972513-e459-4da9-8372-9be54811adba","ios":"levelo://app?vid=2c972513-e459-4da9-8372-9be54811adba"},"vehicle_type_id":"4","last_reported":1773872575,"current_range_meters":6000,"station_id":"ce4bh012rcd13ifvqd10","pricing_plan_id":"cebpf4jnsgd1na2vs0mg"},{"bike_id":"e2a98eaa-25b8-4479-b80e-51461339885e","system_id":"levelo_inurba_marseille","lat":43.23793,"lon":5.36628,"is_reserved":false,"is_disabled":false,"rental_uris":{"android":"levelo://app?vid=e2a98eaa-25b8-4479-b80e-51461339885e","ios":"levelo://app?vid=e2a98eaa-25b8-4479-b80e-51461339885e"},"vehicle_type_id":"4","last_reported":1773872575,"current_range_meters":6000,"station_id":"st_d3nk18o9ro0c73en2l3g","pricing_plan_id":"cebpf4jnsgd1na2vs0mg"},{"bike_id":"779b8a3c-1846-46b5-9cab-bf0ec2b1118f","system_id":"levelo_inurba_marseille","lat":43.28419,"lon":5.48467,"is_reserved":false,"is_disabled":false,"rental_uris":{"android":"levelo://app?vid=779b8a3c-1846-46b5-9cab-bf0ec2b1118f","ios":"levelo://app?vid=779b8a3c-1846-46b5-9cab-bf0ec2b1118f"},"vehicle_type_id":"4","last_reported":1773872575,"current_range_meters":6000,"station_id":"st_d3svhcjqgbts73a3dn0g","pricing_plan_id":"cebpf4jnsgd1na2vs0mg"},{"bike_id":"91472141-3427-4a3c-8d44-aa322d033af6","system_id":"levelo_inurba_marseille","lat":43.28938,"lon":5.38382,"is_reserved":false,"is_disabled":false,"rental_uris":{"android":"levelo://app?vid=91472141-3427-4a3c-8d44-aa322d033af6","ios":"levelo://app?vid=91472141-3427-4a3c-8d44-aa322d033af6"},"vehicle_type_id":"4","last_reported":1773872575,"current_range_meters":6000,"station_id":"ce4bh612rcd13ifvqe6g","pricing_plan_id":"cebpf4jnsgd1na2vs0mg"},{"bike_id":"b4e54967-4eb4-45f5-a80e-01baddc6b232","system_id":"levelo_inurba_marseille","lat":43.29261,"lon":5.40152,"is_reserved":false,"is_disabled":true,"rental_uris":{"android":"levelo://app?vid=b4e54967-4eb4-45f5-a80e-01baddc6b232","ios":"levelo://app?vid=b4e54967-4eb4-45f5-a80e-01baddc6b232"},"vehicle_type_id":"4","last_reported":1773872575,"current_range_meters":6400,"station_id":"ce4bh312rcd13ifvqdk0","pricing_plan_id":"cebpf4jnsgd1na2vs0mg"},{"bike_id":"9ef9fd3b-08e1-41bf-bbd1-087477917b48","system_id":"levelo_inurba_marseille","lat":43.31198,"lon":5.36939,"is_reserved":false,"is_disabled":false,"rental_uris":{"android":"levelo://app?vid=9ef9fd3b-08e1-41bf-bbd1-087477917b48","ios":"levelo://app?vid=9ef9fd3b-08e1-41bf-bbd1-087477917b48"},"vehicle_type_id":"4","last_reported":1773872575,"current_range_meters":6400,"station_id":"ce4bgl92rcd13ifvqbq0","pricing_plan_id":"cebpf4jnsgd1na2vs0mg"},{"bike_id":"1eeb8fd8-3c0c-40ec-bab7-6b173acf9405","system_id":"levelo_inurba_marseille","lat":43.22906,"lon":5.3534,"is_reserved":false,"is_disabled":false,"rental_uris":{"android":"levelo://app?vid=1eeb8fd8-3c0c-40ec-bab7-6b173acf9405","ios":"levelo://app?vid=1eeb8fd8-3c0c-40ec-bab7-6b173acf9405"},"vehicle_type_id":"4","last_reported":1773872575,"current_range_meters":6400,"station_id":"cpo3532slgdg3j2ikp40","pricing_plan_id":"cebpf4jnsgd1na2vs0mg"},{"bike_id":"314a79eb-3b85-4ad3-93cb-d44c45467ba8","system_id":"levelo_inurba_marseille","lat":43.24809,"lon":5.37444,"is_reserved":false,"is_disabled":false,"rental_uris":{"android":"levelo://app?vid=314a79eb-3b85-4ad3-93cb-d44c45467ba8","ios":"levelo://app?vid=314a79eb-3b85-4ad3-93cb-d44c45467ba8"},"vehicle_type_id":"4","last_reported":1773872575,"current_range_meters":6400,"station_id":"ce4bhgh2rcd13ifvqfb0","pricing_plan_id":"cebpf4jnsgd1na2vs0mg"},{"bike_id":"9d99e656-43f9-4521-b575-035a903587ec","system_id":"levelo_inurba_marseille","lat":43.28538,"lon":5.39491,"is_reserved":false,"is_disabled":true,"rental_uris":{"android":"levelo://app?vid=9d99e656-43f9-4521-b575-035a903587ec","ios":"levelo://app?vid=9d99e656-43f9-4521-b575-035a903587ec"},"vehicle_type_id":"4","last_reported":1773872575,"current_range_meters":6400,"station_id":"ce4bh292rcd13ifvqdg0","pricing_plan_id":"cebpf4jnsgd1na2vs0mg"},{"bike_id":"2156fb1f-b2c1-4bcf-ab48-f69673013ef0","system_id":"levelo_inurba_marseille","lat":43.29015,"lon":5.3866,"is_reserved":false,"is_disabled":false,"rental_uris":{"android":"levelo://app?vid=2156fb1f-b2c1-4bcf-ab48-f69673013ef0","ios":"levelo://app?vid=2156fb1f-b2c1-4bcf-ab48-f69673013ef0"},"vehicle_type_id":"4","last_reported":1773872575,"current_range_meters":6400,"station_id":"ce4bh4p2rcd13ifvqe0g","pricing_plan_id":"cebpf4jnsgd1na2vs0mg"},{"bike_id":"3224daa3-173c-4836-8af9-46b463d20aca","system_id":"levelo_inurba_marseille","lat":43.30446,"lon":5.38883,"is_reserved":false,"is_disabled":false,"rental_uris":{"android":"levelo://app?vid=3224daa3-173c-4836-8af9-46b463d20aca","ios":"levelo://app?vid=3224daa3-173c-4836-8af9-46b463d20aca"},"vehicle_type_id":"4","last_reported":1773872575,"current_range_meters":6400,"station_id":"ce4bgk12rcd13ifvqbi0","pricing_plan_id":"cebpf4jnsgd1na2vs0mg"},{"bike_id":"a9d31829-7e0d-482f-af05-97ddd320ae16","system_id":"levelo_inurba_marseille","lat":43.29773,"lon":5.42783,"is_reserved":false,"is_disabled":true,"rental_uris":{"android":"levelo://app?vid=a9d31829-7e0d-482f-af05-97ddd320ae16","ios":"levelo://app?vid=a9d31829-7e0d-482f-af05-97ddd320ae16"},"vehicle_type_id":"4","last_reported":1773872575,"current_range_meters":6400,"station_id":"st_d3md5207bmas73dh9klg","pricing_plan_id":"cebpf4jnsgd1na2vs0mg"},{"bike_id":"04a672df-c3bb-4c7f-bb76-8e3d4b80c3af","system_id":"levelo_inurba_marseille","lat":43.284064,"lon":5.37511,"is_reserved":false,"is_disabled":false,"rental_uris":{"android":"levelo://app?vid=04a672df-c3bb-4c7f-bb76-8e3d4b80c3af","ios":"levelo://app?vid=04a672df-c3bb-4c7f-bb76-8e3d4b80c3af"},"vehicle_type_id":"4","last_reported":1773872575,"current_range_meters":6400,"station_id":"ce4bh412rcd13ifvqds0","pricing_plan_id":"cebpf4jnsgd1na2vs0mg"},{"bike_id":"dfb59e5c-fe95-4bb1-84c1-4974821b808a","system_id":"levelo_inurba_marseille","lat":43.3079,"lon":5.37648,"is_reserved":false,"is_disabled":false,"rental_uris":{"android":"levelo://app?vid=dfb59e5c-fe95-4bb1-84c1-4974821b808a","ios":"levelo://app?vid=dfb59e5c-fe95-4bb1-84c1-4974821b808a"},"vehicle_type_id":"4","last_reported":1773872575,"current_range_meters":6400,"station_id":"ce4bgv92rcd13ifvqcq0","pricing_plan_id":"cebpf4jnsgd1na2vs0mg"},{"bike_id":"0c7888c8-b06a-4a3a-9d63-16f59903d142","system_id":"levelo_inurba_marseille","lat":43.29034,"lon":5.38646,"is_reserved":false,"is_disabled":false,"rental_uris":{"android":"levelo://app?vid=0c7888c8-b06a-4a3a-9d63-16f59903d142","ios":"levelo://app?vid=0c7888c8-b06a-4a3a-9d63-16f59903d142"},"vehicle_type_id":"4","last_reported":1773872575,"current_range_meters":6400,"station_id":"ce4bh4p2rcd13ifvqe0g","pricing_plan_id":"cebpf4jnsgd1na2vs0mg"},{"bike_id":"b9496895-b2e2-49ff-9ecb-9563a5384afe","system_id":"levelo_inurba_marseille","lat":43.3046,"lon":5.37915,"is_reserved":false,"is_disabled":false,"rental_uris":{"android":"levelo://app?vid=b9496895-b2e2-49ff-9ecb-9563a5384afe","ios":"levelo://app?vid=b9496895-b2e2-49ff-9ecb-9563a5384afe"},"vehicle_type_id":"4","last_reported":1773872575,"current_range_meters":6400,"station_id":"ce4bgup2rcd13ifvqcn0","pricing_plan_id":"cebpf4jnsgd1na2vs0mg"},{"bike_id":"a39c2269-c1be-4679-b7ec-7b13e4b25bad","system_id":"levelo_inurba_marseille","lat":43.32517,"lon":5.38759,"is_reserved":false,"is_disabled":true,"rental_uris":{"android":"levelo://app?vid=a39c2269-c1be-4679-b7ec-7b13e4b25bad","ios":"levelo://app?vid=a39c2269-c1be-4679-b7ec-7b13e4b25bad"},"vehicle_type_id":"4","last_reported":1773872575,"current_range_meters":6400,"station_id":"","pricing_plan_id":"cebpf4jnsgd1na2vs0mg"},{"bike_id":"a5d7a922-fa93-4b5a-85d5-d874d92b0a20","system_id":"levelo_inurba_marseille","lat":43.3062,"lon":5.3987,"is_reserved":false,"is_disabled":false,"rental_uris":{"android":"levelo://app?vid=a5d7a922-fa93-4b5a-85d5-d874d92b0a20","ios":"levelo://app?vid=a5d7a922-fa93-4b5a-85d5-d874d92b0a20"},"vehicle_type_id":"4","last_reported":1773872575,"current_range_meters":6400,"station_id":"","pricing_plan_id":"cebpf4jnsgd1na2vs0mg"},{"bike_id":"570b52d4-2921-41a6-af2d-6a8aaa63da55","system_id":"levelo_inurba_marseille","lat":43.29579,"lon":5.38265,"is_reserved":false,"is_disabled":false,"rental_uris":{"android":"levelo://app?vid=570b52d4-2921-41a6-af2d-6a8aaa63da55","ios":"levelo://app?vid=570b52d4-2921-41a6-af2d-6a8aaa63da55"},"vehicle_type_id":"4","last_reported":1773872575,"current_range_meters":6400,"station_id":"","pricing_plan_id":"cebpf4jnsgd1na2vs0mg"},{"bike_id":"31e5fe70-8cb7-4014-8225-8ae6146674ce","system_id":"levelo_inurba_marseille","lat":43.27556,"lon":5.38407,"is_reserved":false,"is_disabled":false,"rental_uris":{"android":"levelo://app?vid=31e5fe70-8cb7-4014-8225-8ae6146674ce","ios":"levelo://app?vid=31e5fe70-8cb7-4014-8225-8ae6146674ce"},"vehicle_type_id":"4","last_reported":1773872575,"current_range_meters":6800,"station_id":"ce4bhh92rcd13ifvqfi0","pricing_plan_id":"cebpf4jnsgd1na2vs0mg"},{"bike_id":"7ee62ae5-1c9f-40f1-af63-7af5b27eef3d","system_id":"levelo_inurba_marseille","lat":43.28402,"lon":5.37542,"is_reserved":false,"is_disabled":false,"rental_uris":{"android":"levelo://app?vid=7ee62ae5-1c9f-40f1-af63-7af5b27eef3d","ios":"levelo://app?vid=7ee62ae5-1c9f-40f1-af63-7af5b27eef3d"},"vehicle_type_id":"4","last_reported":1773872575,"current_range_meters":6800,"station_id":"ce4bh412rcd13ifvqds0","pricing_plan_id":"cebpf4jnsgd1na2vs0mg"},{"bike_id":"a34b414b-88e8-47ad-b015-ee191ece79cf","system_id":"levelo_inurba_marseille","lat":43.30793,"lon":5.3816,"is_reserved":false,"is_disabled":false,"rental_uris":{"android":"levelo://app?vid=a34b414b-88e8-47ad-b015-ee191ece79cf","ios":"levelo://app?vid=a34b414b-88e8-47ad-b015-ee191ece79cf"},"vehicle_type_id":"4","last_reported":1773872575,"current_range_meters":6800,"station_id":"ce4bgt12rcd13ifvqce0","pricing_plan_id":"cebpf4jnsgd1na2vs0mg"},{"bike_id":"5fcac257-91b3-4396-9a56-b73d24ce161c","system_id":"levelo_inurba_marseille","lat":43.29188,"lon":5.39306,"is_reserved":false,"is_disabled":true,"rental_uris":{"android":"levelo://app?vid=5fcac257-91b3-4396-9a56-b73d24ce161c","ios":"levelo://app?vid=5fcac257-91b3-4396-9a56-b73d24ce161c"},"vehicle_type_id":"4","last_reported":1773872575,"current_range_meters":6800,"station_id":"ce4bh192rcd13ifvqdd0","pricing_plan_id":"cebpf4jnsgd1na2vs0mg"},{"bike_id":"bd60a6ec-18d4-4476-ab1b-f354043c4b72","system_id":"levelo_inurba_marseille","lat":43.29808,"lon":5.42677,"is_reserved":false,"is_disabled":false,"rental_uris":{"android":"levelo://app?vid=bd60a6ec-18d4-4476-ab1b-f354043c4b72","ios":"levelo://app?vid=bd60a6ec-18d4-4476-ab1b-f354043c4b72"},"vehicle_type_id":"4","last_reported":1773872575,"current_range_meters":6800,"station_id":"","pricing_plan_id":"cebpf4jnsgd1na2vs0mg"},{"bike_id":"4e968e52-3d61-422a-ae95-1e77e5c0ca5c","system_id":"levelo_inurba_marseille","lat":43.30778,"lon":5.37652,"is_reserved":false,"is_disabled":false,"rental_uris":{"android":"levelo://app?vid=4e968e52-3d61-422a-ae95-1e77e5c0ca5c","ios":"levelo://app?vid=4e968e52-3d61-422a-ae95-1e77e5c0ca5c"},"vehicle_type_id":"4","last_reported":1773872575,"current_range_meters":6800,"station_id":"ce4bgv92rcd13ifvqcq0","pricing_plan_id":"cebpf4jnsgd1na2vs0mg"},{"bike_id":"d0b1f448-6af4-4ef1-a755-e03baf4488aa","system_id":"levelo_inurba_marseille","lat":43.29264,"lon":5.3575,"is_reserved":false,"is_disabled":false,"rental_uris":{"android":"levelo://app?vid=d0b1f448-6af4-4ef1-a755-e03baf4488aa","ios":"levelo://app?vid=d0b1f448-6af4-4ef1-a755-e03baf4488aa"},"vehicle_type_id":"4","last_reported":1773872575,"current_range_meters":6800,"station_id":"","pricing_plan_id":"cebpf4jnsgd1na2vs0mg"},{"bike_id":"d921a034-91f6-444c-9a4f-31bbc308387e","system_id":"levelo_inurba_marseille","lat":43.28397,"lon":5.37497,"is_reserved":false,"is_disabled":false,"rental_uris":{"android":"levelo://app?vid=d921a034-91f6-444c-9a4f-31bbc308387e","ios":"levelo://app?vid=d921a034-91f6-444c-9a4f-31bbc308387e"},"vehicle_type_id":"4","last_reported":1773872575,"current_range_meters":6800,"station_id":"ce4bh412rcd13ifvqds0","pricing_plan_id":"cebpf4jnsgd1na2vs0mg"},{"bike_id":"64f8e5fa-4ab6-4e22-8721-6a21ffbc83a2","system_id":"levelo_inurba_marseille","lat":43.30795,"lon":5.38148,"is_reserved":false,"is_disabled":false,"rental_uris":{"android":"levelo://app?vid=64f8e5fa-4ab6-4e22-8721-6a21ffbc83a2","ios":"levelo://app?vid=64f8e5fa-4ab6-4e22-8721-6a21ffbc83a2"},"vehicle_type_id":"4","last_reported":1773872575,"current_range_meters":6800,"station_id":"ce4bgt12rcd13ifvqce0","pricing_plan_id":"cebpf4jnsgd1na2vs0mg"},{"bike_id":"e107cb22-a13d-4c03-93ce-8114e06b9a0f","system_id":"levelo_inurba_marseille","lat":43.28481,"lon":5.48393,"is_reserved":false,"is_disabled":false,"rental_uris":{"android":"levelo://app?vid=e107cb22-a13d-4c03-93ce-8114e06b9a0f","ios":"levelo://app?vid=e107cb22-a13d-4c03-93ce-8114e06b9a0f"},"vehicle_type_id":"4","last_reported":1773872575,"current_range_meters":6800,"station_id":"","pricing_plan_id":"cebpf4jnsgd1na2vs0mg"},{"bike_id":"88b741cf-9e79-45ce-bd0e-3e7237093c90","system_id":"levelo_inurba_marseille","lat":43.28611,"lon":5.39878,"is_reserved":false,"is_disabled":false,"rental_uris":{"android":"levelo://app?vid=88b741cf-9e79-45ce-bd0e-3e7237093c90","ios":"levelo://app?vid=88b741cf-9e79-45ce-bd0e-3e7237093c90"},"vehicle_type_id":"4","last_reported":1773872575,"current_range_meters":6800,"station_id":"st_d4a7ka997mjs738ck50g","pricing_plan_id":"cebpf4jnsgd1na2vs0mg"},{"bike_id":"447b11a1-21b5-4523-80dc-ebe593853403","system_id":"levelo_inurba_marseille","lat":43.29206,"lon":5.4267,"is_reserved":false,"is_disabled":false,"rental_uris":{"android":"levelo://app?vid=447b11a1-21b5-4523-80dc-ebe593853403","ios":"levelo://app?vid=447b11a1-21b5-4523-80dc-ebe593853403"},"vehicle_type_id":"4","last_reported":1773872575,"current_range_meters":6800,"station_id":"","pricing_plan_id":"cebpf4jnsgd1na2vs0mg"},{"bike_id":"374e86a8-de2a-4cb2-86ef-d4458405b73e","system_id":"levelo_inurba_marseille","lat":43.28212,"lon":5.39049,"is_reserved":false,"is_disabled":false,"rental_uris":{"android":"levelo://app?vid=374e86a8-de2a-4cb2-86ef-d4458405b73e","ios":"levelo://app?vid=374e86a8-de2a-4cb2-86ef-d4458405b73e"},"vehicle_type_id":"4","last_reported":1773872575,"current_range_meters":6800,"station_id":"ce4bhn92rcd13ifvqgsg","pricing_plan_id":"cebpf4jnsgd1na2vs0mg"},{"bike_id":"f37ae654-57d6-4c81-adfc-b25fe34114fe","system_id":"levelo_inurba_marseille","lat":43.30647,"lon":5.401108,"is_reserved":false,"is_disabled":false,"rental_uris":{"android":"levelo://app?vid=f37ae654-57d6-4c81-adfc-b25fe34114fe","ios":"levelo://app?vid=f37ae654-57d6-4c81-adfc-b25fe34114fe"},"vehicle_type_id":"4","last_reported":1773872575,"current_range_meters":6800,"station_id":"ce4bh112rcd13ifvqda0","pricing_plan_id":"cebpf4jnsgd1na2vs0mg"},{"bike_id":"a9430763-7b40-489c-99d2-1136f7fabb44","system_id":"levelo_inurba_marseille","lat":43.24651,"lon":5.38188,"is_reserved":false,"is_disabled":false,"rental_uris":{"android":"levelo://app?vid=a9430763-7b40-489c-99d2-1136f7fabb44","ios":"levelo://app?vid=a9430763-7b40-489c-99d2-1136f7fabb44"},"vehicle_type_id":"4","last_reported":1773872575,"current_range_meters":6800,"station_id":"ce4bhih2rcd13ifvqfr0","pricing_plan_id":"cebpf4jnsgd1na2vs0mg"},{"bike_id":"761d37d3-db89-4d13-9748-49c3d92df949","system_id":"levelo_inurba_marseille","lat":43.24825,"lon":5.37453,"is_reserved":false,"is_disabled":false,"rental_uris":{"android":"levelo://app?vid=761d37d3-db89-4d13-9748-49c3d92df949","ios":"levelo://app?vid=761d37d3-db89-4d13-9748-49c3d92df949"},"vehicle_type_id":"4","last_reported":1773872575,"current_range_meters":7200,"station_id":"ce4bhgh2rcd13ifvqfb0","pricing_plan_id":"cebpf4jnsgd1na2vs0mg"},{"bike_id":"6b4c7c94-85db-4650-b07f-11e6e023d6bf","system_id":"levelo_inurba_marseille","lat":43.29705,"lon":5.36609,"is_reserved":false,"is_disabled":false,"rental_uris":{"android":"levelo://app?vid=6b4c7c94-85db-4650-b07f-11e6e023d6bf","ios":"levelo://app?vid=6b4c7c94-85db-4650-b07f-11e6e023d6bf"},"vehicle_type_id":"4","last_reported":1773872575,"current_range_meters":7200,"station_id":"ce4bgn12rcd13ifvqbt0","pricing_plan_id":"cebpf4jnsgd1na2vs0mg"},{"bike_id":"1c51670a-46e5-4a0c-9d9c-3c2806d077a8","system_id":"levelo_inurba_marseille","lat":43.29036,"lon":5.38114,"is_reserved":false,"is_disabled":true,"rental_uris":{"android":"levelo://app?vid=1c51670a-46e5-4a0c-9d9c-3c2806d077a8","ios":"levelo://app?vid=1c51670a-46e5-4a0c-9d9c-3c2806d077a8"},"vehicle_type_id":"4","last_reported":1773872575,"current_range_meters":7200,"station_id":"ce4bh4p2rcd13ifvqe1g","pricing_plan_id":"cebpf4jnsgd1na2vs0mg"},{"bike_id":"0c568fbf-621d-4cc8-ade7-4b24ab6705de","system_id":"levelo_inurba_marseille","lat":43.21762,"lon":5.34613,"is_reserved":false,"is_disabled":false,"rental_uris":{"android":"levelo://app?vid=0c568fbf-621d-4cc8-ade7-4b24ab6705de","ios":"levelo://app?vid=0c568fbf-621d-4cc8-ade7-4b24ab6705de"},"vehicle_type_id":"4","last_reported":1773872575,"current_range_meters":7200,"station_id":"st_cvj6r9ubvosntc0bgbag","pricing_plan_id":"cebpf4jnsgd1na2vs0mg"},{"bike_id":"df9adaef-5509-4871-bf78-1814d256e6d4","system_id":"levelo_inurba_marseille","lat":43.28214,"lon":5.39065,"is_reserved":false,"is_disabled":false,"rental_uris":{"android":"levelo://app?vid=df9adaef-5509-4871-bf78-1814d256e6d4","ios":"levelo://app?vid=df9adaef-5509-4871-bf78-1814d256e6d4"},"vehicle_type_id":"4","last_reported":1773872575,"current_range_meters":7200,"station_id":"ce4bhn92rcd13ifvqgsg","pricing_plan_id":"cebpf4jnsgd1na2vs0mg"},{"bike_id":"2cd6d2c4-9839-4b08-8d75-805c4c2214dc","system_id":"levelo_inurba_marseille","lat":43.23047,"lon":5.35497,"is_reserved":false,"is_disabled":false,"rental_uris":{"android":"levelo://app?vid=2cd6d2c4-9839-4b08-8d75-805c4c2214dc","ios":"levelo://app?vid=2cd6d2c4-9839-4b08-8d75-805c4c2214dc"},"vehicle_type_id":"4","last_reported":1773872575,"current_range_meters":7200,"station_id":"cpo3342slgdg3j2ifvpg","pricing_plan_id":"cebpf4jnsgd1na2vs0mg"},{"bike_id":"0d16c67b-9d4c-4c41-aeb6-84a24cd365e1","system_id":"levelo_inurba_marseille","lat":43.31278,"lon":5.40165,"is_reserved":false,"is_disabled":false,"rental_uris":{"android":"levelo://app?vid=0d16c67b-9d4c-4c41-aeb6-84a24cd365e1","ios":"levelo://app?vid=0d16c67b-9d4c-4c41-aeb6-84a24cd365e1"},"vehicle_type_id":"4","last_reported":1773872575,"current_range_meters":7200,"station_id":"ce4bh092rcd13ifvqd30","pricing_plan_id":"cebpf4jnsgd1na2vs0mg"},{"bike_id":"02b2f37d-185e-48ee-985f-e763c0dbe266","system_id":"levelo_inurba_marseille","lat":43.29877,"lon":5.39732,"is_reserved":false,"is_disabled":false,"rental_uris":{"android":"levelo://app?vid=02b2f37d-185e-48ee-985f-e763c0dbe266","ios":"levelo://app?vid=02b2f37d-185e-48ee-985f-e763c0dbe266"},"vehicle_type_id":"4","last_reported":1773872575,"current_range_meters":7200,"station_id":"ce4bh0h2rcd13ifvqd50","pricing_plan_id":"cebpf4jnsgd1na2vs0mg"},{"bike_id":"8aeba5db-197f-49b1-a261-21478d093086","system_id":"levelo_inurba_marseille","lat":43.28616,"lon":5.39875,"is_reserved":false,"is_disabled":false,"rental_uris":{"android":"levelo://app?vid=8aeba5db-197f-49b1-a261-21478d093086","ios":"levelo://app?vid=8aeba5db-197f-49b1-a261-21478d093086"},"vehicle_type_id":"4","last_reported":1773872575,"current_range_meters":7200,"station_id":"st_d4a7ka997mjs738ck50g","pricing_plan_id":"cebpf4jnsgd1na2vs0mg"},{"bike_id":"3fba1b49-30ec-4c3f-9ccd-7058b7f461b0","system_id":"levelo_inurba_marseille","lat":43.30133,"lon":5.39877,"is_reserved":false,"is_disabled":false,"rental_uris":{"android":"levelo://app?vid=3fba1b49-30ec-4c3f-9ccd-7058b7f461b0","ios":"levelo://app?vid=3fba1b49-30ec-4c3f-9ccd-7058b7f461b0"},"vehicle_type_id":"4","last_reported":1773872575,"current_range_meters":7200,"station_id":"ce4bh0h2rcd13ifvqd40","pricing_plan_id":"cebpf4jnsgd1na2vs0mg"},{"bike_id":"ad005d33-7048-4f69-a7e0-9df54d094979","system_id":"levelo_inurba_marseille","lat":43.29442,"lon":5.39752,"is_reserved":false,"is_disabled":false,"rental_uris":{"android":"levelo://app?vid=ad005d33-7048-4f69-a7e0-9df54d094979","ios":"levelo://app?vid=ad005d33-7048-4f69-a7e0-9df54d094979"},"vehicle_type_id":"4","last_reported":1773872575,"current_range_meters":7200,"station_id":"ce4bh3h2rcd13ifvqdo0","pricing_plan_id":"cebpf4jnsgd1na2vs0mg"},{"bike_id":"90e06dc1-4034-4aa0-b2a4-e14e93cda8f6","system_id":"levelo_inurba_marseille","lat":43.28447,"lon":5.35918,"is_reserved":false,"is_disabled":false,"rental_uris":{"android":"levelo://app?vid=90e06dc1-4034-4aa0-b2a4-e14e93cda8f6","ios":"levelo://app?vid=90e06dc1-4034-4aa0-b2a4-e14e93cda8f6"},"vehicle_type_id":"4","last_reported":1773872575,"current_range_meters":7200,"station_id":"ce4bhah2rcd13ifvqei0","pricing_plan_id":"cebpf4jnsgd1na2vs0mg"},{"bike_id":"23e67bc3-c6df-471a-b481-46b83c355ff4","system_id":"levelo_inurba_marseille","lat":43.28399,"lon":5.37503,"is_reserved":false,"is_disabled":false,"rental_uris":{"android":"levelo://app?vid=23e67bc3-c6df-471a-b481-46b83c355ff4","ios":"levelo://app?vid=23e67bc3-c6df-471a-b481-46b83c355ff4"},"vehicle_type_id":"4","last_reported":1773872575,"current_range_meters":7200,"station_id":"ce4bh412rcd13ifvqds0","pricing_plan_id":"cebpf4jnsgd1na2vs0mg"},{"bike_id":"e7986a55-ce8c-4fe4-bd2c-ce9acb2a744d","system_id":"levelo_inurba_marseille","lat":43.29555,"lon":5.39976,"is_reserved":false,"is_disabled":false,"rental_uris":{"android":"levelo://app?vid=e7986a55-ce8c-4fe4-bd2c-ce9acb2a744d","ios":"levelo://app?vid=e7986a55-ce8c-4fe4-bd2c-ce9acb2a744d"},"vehicle_type_id":"4","last_reported":1773872575,"current_range_meters":7200,"station_id":"ce4bh312rcd13ifvqdj0","pricing_plan_id":"cebpf4jnsgd1na2vs0mg"},{"bike_id":"fe5c801f-68be-46bc-a966-92199c3574ea","system_id":"levelo_inurba_marseille","lat":43.28156,"lon":5.42661,"is_reserved":false,"is_disabled":false,"rental_uris":{"android":"levelo://app?vid=fe5c801f-68be-46bc-a966-92199c3574ea","ios":"levelo://app?vid=fe5c801f-68be-46bc-a966-92199c3574ea"},"vehicle_type_id":"4","last_reported":1773872575,"current_range_meters":7200,"station_id":"ce4bhnh2rcd13ifvqgug","pricing_plan_id":"cebpf4jnsgd1na2vs0mg"},{"bike_id":"ed16ab64-9c0f-4050-80fd-94e1f15913c3","system_id":"levelo_inurba_marseille","lat":43.25067,"lon":5.40504,"is_reserved":false,"is_disabled":false,"rental_uris":{"android":"levelo://app?vid=ed16ab64-9c0f-4050-80fd-94e1f15913c3","ios":"levelo://app?vid=ed16ab64-9c0f-4050-80fd-94e1f15913c3"},"vehicle_type_id":"4","last_reported":1773872575,"current_range_meters":7200,"station_id":"","pricing_plan_id":"cebpf4jnsgd1na2vs0mg"},{"bike_id":"5173eb01-1501-409d-8735-5cd4a7564229","system_id":"levelo_inurba_marseille","lat":43.31801,"lon":5.44639,"is_reserved":false,"is_disabled":false,"rental_uris":{"android":"levelo://app?vid=5173eb01-1501-409d-8735-5cd4a7564229","ios":"levelo://app?vid=5173eb01-1501-409d-8735-5cd4a7564229"},"vehicle_type_id":"4","last_reported":1773872575,"current_range_meters":7200,"station_id":"","pricing_plan_id":"cebpf4jnsgd1na2vs0mg"},{"bike_id":"fad8e96d-acb2-4874-9608-7180f6b034b8","system_id":"levelo_inurba_marseille","lat":43.29158,"lon":5.40813,"is_reserved":false,"is_disabled":false,"rental_uris":{"android":"levelo://app?vid=fad8e96d-acb2-4874-9608-7180f6b034b8","ios":"levelo://app?vid=fad8e96d-acb2-4874-9608-7180f6b034b8"},"vehicle_type_id":"4","last_reported":1773872575,"current_range_meters":7200,"station_id":"","pricing_plan_id":"cebpf4jnsgd1na2vs0mg"},{"bike_id":"b95c57e9-5fda-488c-ab14-d762b1591316","system_id":"levelo_inurba_marseille","lat":43.30781,"lon":5.382,"is_reserved":false,"is_disabled":false,"rental_uris":{"android":"levelo://app?vid=b95c57e9-5fda-488c-ab14-d762b1591316","ios":"levelo://app?vid=b95c57e9-5fda-488c-ab14-d762b1591316"},"vehicle_type_id":"4","last_reported":1773872575,"current_range_meters":7200,"station_id":"ce4bgt12rcd13ifvqce0","pricing_plan_id":"cebpf4jnsgd1na2vs0mg"},{"bike_id":"7e77126d-4367-40ad-aa10-44fec01b3afc","system_id":"levelo_inurba_marseille","lat":43.22933,"lon":5.3538,"is_reserved":false,"is_disabled":false,"rental_uris":{"android":"levelo://app?vid=7e77126d-4367-40ad-aa10-44fec01b3afc","ios":"levelo://app?vid=7e77126d-4367-40ad-aa10-44fec01b3afc"},"vehicle_type_id":"4","last_reported":1773872575,"current_range_meters":7200,"station_id":"cpo3532slgdg3j2ikp40","pricing_plan_id":"cebpf4jnsgd1na2vs0mg"},{"bike_id":"4399b5c4-ec23-4c97-9ca4-d50add2fc82a","system_id":"levelo_inurba_marseille","lat":43.31101,"lon":5.37752,"is_reserved":false,"is_disabled":false,"rental_uris":{"android":"levelo://app?vid=4399b5c4-ec23-4c97-9ca4-d50add2fc82a","ios":"levelo://app?vid=4399b5c4-ec23-4c97-9ca4-d50add2fc82a"},"vehicle_type_id":"4","last_reported":1773872575,"current_range_meters":7200,"station_id":"ce4bgt92rcd13ifvqcg0","pricing_plan_id":"cebpf4jnsgd1na2vs0mg"},{"bike_id":"3635b547-8884-40df-a135-beb126bd6ba8","system_id":"levelo_inurba_marseille","lat":43.28622,"lon":5.38707,"is_reserved":false,"is_disabled":false,"rental_uris":{"android":"levelo://app?vid=3635b547-8884-40df-a135-beb126bd6ba8","ios":"levelo://app?vid=3635b547-8884-40df-a135-beb126bd6ba8"},"vehicle_type_id":"4","last_reported":1773872575,"current_range_meters":7200,"station_id":"ce4bh492rcd13ifvqdug","pricing_plan_id":"cebpf4jnsgd1na2vs0mg"},{"bike_id":"a238f644-6f8b-49ee-b43a-03a0fb52824a","system_id":"levelo_inurba_marseille","lat":43.28609,"lon":5.37069,"is_reserved":false,"is_disabled":false,"rental_uris":{"android":"levelo://app?vid=a238f644-6f8b-49ee-b43a-03a0fb52824a","ios":"levelo://app?vid=a238f644-6f8b-49ee-b43a-03a0fb52824a"},"vehicle_type_id":"4","last_reported":1773872575,"current_range_meters":7200,"station_id":"ce4bht12rcd13ifvqi60","pricing_plan_id":"cebpf4jnsgd1na2vs0mg"},{"bike_id":"3389cb64-9af1-42a2-9f3e-85844077f42e","system_id":"levelo_inurba_marseille","lat":43.29802,"lon":5.40404,"is_reserved":false,"is_disabled":false,"rental_uris":{"android":"levelo://app?vid=3389cb64-9af1-42a2-9f3e-85844077f42e","ios":"levelo://app?vid=3389cb64-9af1-42a2-9f3e-85844077f42e"},"vehicle_type_id":"4","last_reported":1773872575,"current_range_meters":7200,"station_id":"ce4bh112rcd13ifvqd90","pricing_plan_id":"cebpf4jnsgd1na2vs0mg"},{"bike_id":"3be655ee-e40b-4338-af54-6f458f1da6fa","system_id":"levelo_inurba_marseille","lat":43.30157,"lon":5.38079,"is_reserved":false,"is_disabled":false,"rental_uris":{"android":"levelo://app?vid=3be655ee-e40b-4338-af54-6f458f1da6fa","ios":"levelo://app?vid=3be655ee-e40b-4338-af54-6f458f1da6fa"},"vehicle_type_id":"4","last_reported":1773872575,"current_range_meters":8000,"station_id":"ce4bgjp2rcd13ifvqbh0","pricing_plan_id":"cebpf4jnsgd1na2vs0mg"},{"bike_id":"d532de73-31b0-408e-96ce-6676e6435a22","system_id":"levelo_inurba_marseille","lat":43.21278,"lon":5.35109,"is_reserved":false,"is_disabled":false,"rental_uris":{"android":"levelo://app?vid=d532de73-31b0-408e-96ce-6676e6435a22","ios":"levelo://app?vid=d532de73-31b0-408e-96ce-6676e6435a22"},"vehicle_type_id":"4","last_reported":1773872575,"current_range_meters":8000,"station_id":"","pricing_plan_id":"cebpf4jnsgd1na2vs0mg"},{"bike_id":"a918d57a-c48c-4085-ac42-61882623bc55","system_id":"levelo_inurba_marseille","lat":43.24457,"lon":5.42534,"is_reserved":false,"is_disabled":false,"rental_uris":{"android":"levelo://app?vid=a918d57a-c48c-4085-ac42-61882623bc55","ios":"levelo://app?vid=a918d57a-c48c-4085-ac42-61882623bc55"},"vehicle_type_id":"4","last_reported":1773872575,"current_range_meters":8000,"station_id":"st_d4a3vfp97mjs738cd8kg","pricing_plan_id":"cebpf4jnsgd1na2vs0mg"},{"bike_id":"3903529a-97cf-43f8-9c3a-f35f9c9bbdf2","system_id":"levelo_inurba_marseille","lat":43.313552,"lon":5.367146,"is_reserved":false,"is_disabled":true,"rental_uris":{"android":"levelo://app?vid=3903529a-97cf-43f8-9c3a-f35f9c9bbdf2","ios":"levelo://app?vid=3903529a-97cf-43f8-9c3a-f35f9c9bbdf2"},"vehicle_type_id":"4","last_reported":1773872575,"current_range_meters":8000,"station_id":"ce4bgr92rcd13ifvqc6g","pricing_plan_id":"cebpf4jnsgd1na2vs0mg"},{"bike_id":"57aa2017-3442-489e-9be1-d1e8a8b79dfb","system_id":"levelo_inurba_marseille","lat":43.305378,"lon":5.384278,"is_reserved":false,"is_disabled":false,"rental_uris":{"android":"levelo://app?vid=57aa2017-3442-489e-9be1-d1e8a8b79dfb","ios":"levelo://app?vid=57aa2017-3442-489e-9be1-d1e8a8b79dfb"},"vehicle_type_id":"4","last_reported":1773872575,"current_range_meters":8000,"station_id":"ce4bgg92rcd13ifvqb30","pricing_plan_id":"cebpf4jnsgd1na2vs0mg"},{"bike_id":"bf26da59-cb72-4e4e-b621-6bfffa8b5fe0","system_id":"levelo_inurba_marseille","lat":43.28095,"lon":5.37881,"is_reserved":false,"is_disabled":false,"rental_uris":{"android":"levelo://app?vid=bf26da59-cb72-4e4e-b621-6bfffa8b5fe0","ios":"levelo://app?vid=bf26da59-cb72-4e4e-b621-6bfffa8b5fe0"},"vehicle_type_id":"4","last_reported":1773872575,"current_range_meters":8000,"station_id":"ce4bha12rcd13ifvqee0","pricing_plan_id":"cebpf4jnsgd1na2vs0mg"},{"bike_id":"c37d7dba-1b35-4836-9628-3a7bf03ac96f","system_id":"levelo_inurba_marseille","lat":43.23386,"lon":5.41243,"is_reserved":false,"is_disabled":false,"rental_uris":{"android":"levelo://app?vid=c37d7dba-1b35-4836-9628-3a7bf03ac96f","ios":"levelo://app?vid=c37d7dba-1b35-4836-9628-3a7bf03ac96f"},"vehicle_type_id":"4","last_reported":1773872575,"current_range_meters":8000,"station_id":"","pricing_plan_id":"cebpf4jnsgd1na2vs0mg"},{"bike_id":"13ad50bf-7f2f-4ad1-a82f-209db682ff58","system_id":"levelo_inurba_marseille","lat":43.26549,"lon":5.39018,"is_reserved":false,"is_disabled":true,"rental_uris":{"android":"levelo://app?vid=13ad50bf-7f2f-4ad1-a82f-209db682ff58","ios":"levelo://app?vid=13ad50bf-7f2f-4ad1-a82f-209db682ff58"},"vehicle_type_id":"4","last_reported":1773872575,"current_range_meters":8000,"station_id":"ce4bhe12rcd13ifvqf30","pricing_plan_id":"cebpf4jnsgd1na2vs0mg"},{"bike_id":"35654e12-233a-4410-9b0d-c7a68cd6bff0","system_id":"levelo_inurba_marseille","lat":43.25094,"lon":5.39516,"is_reserved":false,"is_disabled":false,"rental_uris":{"android":"levelo://app?vid=35654e12-233a-4410-9b0d-c7a68cd6bff0","ios":"levelo://app?vid=35654e12-233a-4410-9b0d-c7a68cd6bff0"},"vehicle_type_id":"4","last_reported":1773872575,"current_range_meters":8000,"station_id":"ce4bhm12rcd13ifvqgkg","pricing_plan_id":"cebpf4jnsgd1na2vs0mg"},{"bike_id":"caf5e45c-f3f2-43eb-99a6-b11ec33451e8","system_id":"levelo_inurba_marseille","lat":43.23975,"lon":5.36633,"is_reserved":false,"is_disabled":false,"rental_uris":{"android":"levelo://app?vid=caf5e45c-f3f2-43eb-99a6-b11ec33451e8","ios":"levelo://app?vid=caf5e45c-f3f2-43eb-99a6-b11ec33451e8"},"vehicle_type_id":"4","last_reported":1773872575,"current_range_meters":8000,"station_id":"ce4bhi12rcd13ifvqfp0","pricing_plan_id":"cebpf4jnsgd1na2vs0mg"},{"bike_id":"1f4ac4c9-ec68-423b-87f3-737bb28daab7","system_id":"levelo_inurba_marseille","lat":43.28938,"lon":5.39627,"is_reserved":false,"is_disabled":false,"rental_uris":{"android":"levelo://app?vid=1f4ac4c9-ec68-423b-87f3-737bb28daab7","ios":"levelo://app?vid=1f4ac4c9-ec68-423b-87f3-737bb28daab7"},"vehicle_type_id":"4","last_reported":1773872575,"current_range_meters":8000,"station_id":"ce4bh3h2rcd13ifvqdn0","pricing_plan_id":"cebpf4jnsgd1na2vs0mg"},{"bike_id":"0f1d9beb-68a0-41ff-aad4-5381229f326a","system_id":"levelo_inurba_marseille","lat":43.30733,"lon":5.37467,"is_reserved":false,"is_disabled":false,"rental_uris":{"android":"levelo://app?vid=0f1d9beb-68a0-41ff-aad4-5381229f326a","ios":"levelo://app?vid=0f1d9beb-68a0-41ff-aad4-5381229f326a"},"vehicle_type_id":"4","last_reported":1773872575,"current_range_meters":8000,"station_id":"","pricing_plan_id":"cebpf4jnsgd1na2vs0mg"},{"bike_id":"ed694dc7-1d27-4b2c-aa18-f5cfb41e8483","system_id":"levelo_inurba_marseille","lat":43.30137,"lon":5.36633,"is_reserved":false,"is_disabled":false,"rental_uris":{"android":"levelo://app?vid=ed694dc7-1d27-4b2c-aa18-f5cfb41e8483","ios":"levelo://app?vid=ed694dc7-1d27-4b2c-aa18-f5cfb41e8483"},"vehicle_type_id":"4","last_reported":1773872575,"current_range_meters":8000,"station_id":"","pricing_plan_id":"cebpf4jnsgd1na2vs0mg"},{"bike_id":"6fea97c1-d456-4b21-8bd5-a1c9cce26929","system_id":"levelo_inurba_marseille","lat":43.28431,"lon":5.35899,"is_reserved":false,"is_disabled":false,"rental_uris":{"android":"levelo://app?vid=6fea97c1-d456-4b21-8bd5-a1c9cce26929","ios":"levelo://app?vid=6fea97c1-d456-4b21-8bd5-a1c9cce26929"},"vehicle_type_id":"4","last_reported":1773872575,"current_range_meters":8000,"station_id":"ce4bhah2rcd13ifvqei0","pricing_plan_id":"cebpf4jnsgd1na2vs0mg"},{"bike_id":"d326b34d-753e-4c47-ac30-b7e84de532c1","system_id":"levelo_inurba_marseille","lat":43.28608,"lon":5.39885,"is_reserved":false,"is_disabled":false,"rental_uris":{"android":"levelo://app?vid=d326b34d-753e-4c47-ac30-b7e84de532c1","ios":"levelo://app?vid=d326b34d-753e-4c47-ac30-b7e84de532c1"},"vehicle_type_id":"4","last_reported":1773872575,"current_range_meters":8000,"station_id":"st_d4a7ka997mjs738ck50g","pricing_plan_id":"cebpf4jnsgd1na2vs0mg"},{"bike_id":"72a1402b-d8db-44a2-83e4-6c2a4e4e7c1e","system_id":"levelo_inurba_marseille","lat":43.27983,"lon":5.41664,"is_reserved":false,"is_disabled":false,"rental_uris":{"android":"levelo://app?vid=72a1402b-d8db-44a2-83e4-6c2a4e4e7c1e","ios":"levelo://app?vid=72a1402b-d8db-44a2-83e4-6c2a4e4e7c1e"},"vehicle_type_id":"4","last_reported":1773872575,"current_range_meters":8000,"station_id":"ce4bho12rcd13ifvqh1g","pricing_plan_id":"cebpf4jnsgd1na2vs0mg"},{"bike_id":"c5b4f8a5-5a6c-40ba-9197-52b134bfa2c4","system_id":"levelo_inurba_marseille","lat":43.30437,"lon":5.39003,"is_reserved":false,"is_disabled":false,"rental_uris":{"android":"levelo://app?vid=c5b4f8a5-5a6c-40ba-9197-52b134bfa2c4","ios":"levelo://app?vid=c5b4f8a5-5a6c-40ba-9197-52b134bfa2c4"},"vehicle_type_id":"4","last_reported":1773872575,"current_range_meters":8000,"station_id":"","pricing_plan_id":"cebpf4jnsgd1na2vs0mg"},{"bike_id":"88db41f5-96f3-4155-a4d0-ecc56f594edb","system_id":"levelo_inurba_marseille","lat":43.22931,"lon":5.35372,"is_reserved":false,"is_disabled":false,"rental_uris":{"android":"levelo://app?vid=88db41f5-96f3-4155-a4d0-ecc56f594edb","ios":"levelo://app?vid=88db41f5-96f3-4155-a4d0-ecc56f594edb"},"vehicle_type_id":"4","last_reported":1773872575,"current_range_meters":8000,"station_id":"cpo3532slgdg3j2ikp40","pricing_plan_id":"cebpf4jnsgd1na2vs0mg"},{"bike_id":"c71d653d-969c-445e-97ca-3dcef61e7ad4","system_id":"levelo_inurba_marseille","lat":43.29214,"lon":5.39353,"is_reserved":false,"is_disabled":false,"rental_uris":{"android":"levelo://app?vid=c71d653d-969c-445e-97ca-3dcef61e7ad4","ios":"levelo://app?vid=c71d653d-969c-445e-97ca-3dcef61e7ad4"},"vehicle_type_id":"4","last_reported":1773872575,"current_range_meters":8000,"station_id":"","pricing_plan_id":"cebpf4jnsgd1na2vs0mg"},{"bike_id":"df328e25-1611-43bf-a2a1-3abfc13c8928","system_id":"levelo_inurba_marseille","lat":43.24824,"lon":5.37456,"is_reserved":false,"is_disabled":false,"rental_uris":{"android":"levelo://app?vid=df328e25-1611-43bf-a2a1-3abfc13c8928","ios":"levelo://app?vid=df328e25-1611-43bf-a2a1-3abfc13c8928"},"vehicle_type_id":"4","last_reported":1773872575,"current_range_meters":8000,"station_id":"ce4bhgh2rcd13ifvqfb0","pricing_plan_id":"cebpf4jnsgd1na2vs0mg"},{"bike_id":"73e44213-1cd8-4593-a09e-a9c4a914a5d2","system_id":"levelo_inurba_marseille","lat":43.28483,"lon":5.48379,"is_reserved":false,"is_disabled":false,"rental_uris":{"android":"levelo://app?vid=73e44213-1cd8-4593-a09e-a9c4a914a5d2","ios":"levelo://app?vid=73e44213-1cd8-4593-a09e-a9c4a914a5d2"},"vehicle_type_id":"4","last_reported":1773872575,"current_range_meters":8000,"station_id":"","pricing_plan_id":"cebpf4jnsgd1na2vs0mg"},{"bike_id":"bf32ddf2-939b-4b0a-8f3d-4351f36a7286","system_id":"levelo_inurba_marseille","lat":43.27191,"lon":5.40986,"is_reserved":false,"is_disabled":false,"rental_uris":{"android":"levelo://app?vid=bf32ddf2-939b-4b0a-8f3d-4351f36a7286","ios":"levelo://app?vid=bf32ddf2-939b-4b0a-8f3d-4351f36a7286"},"vehicle_type_id":"4","last_reported":1773872575,"current_range_meters":8000,"station_id":"ce4bhl12rcd13ifvqgf0","pricing_plan_id":"cebpf4jnsgd1na2vs0mg"},{"bike_id":"1b9d9681-7574-4afe-84bf-144cbbece0f7","system_id":"levelo_inurba_marseille","lat":43.28264,"lon":5.35058,"is_reserved":false,"is_disabled":false,"rental_uris":{"android":"levelo://app?vid=1b9d9681-7574-4afe-84bf-144cbbece0f7","ios":"levelo://app?vid=1b9d9681-7574-4afe-84bf-144cbbece0f7"},"vehicle_type_id":"4","last_reported":1773872575,"current_range_meters":8000,"station_id":"ce4bhbp2rcd13ifvqerg","pricing_plan_id":"cebpf4jnsgd1na2vs0mg"},{"bike_id":"8f143a65-bec5-4ad2-b44d-c1cad1a39fc2","system_id":"levelo_inurba_marseille","lat":43.29787,"lon":5.39329,"is_reserved":false,"is_disabled":false,"rental_uris":{"android":"levelo://app?vid=8f143a65-bec5-4ad2-b44d-c1cad1a39fc2","ios":"levelo://app?vid=8f143a65-bec5-4ad2-b44d-c1cad1a39fc2"},"vehicle_type_id":"4","last_reported":1773872575,"current_range_meters":8000,"station_id":"chh1huq6cuj3fo74tm60","pricing_plan_id":"cebpf4jnsgd1na2vs0mg"},{"bike_id":"0c506fac-9822-4d55-93b9-ec283cf22639","system_id":"levelo_inurba_marseille","lat":43.26865,"lon":5.4047,"is_reserved":false,"is_disabled":false,"rental_uris":{"android":"levelo://app?vid=0c506fac-9822-4d55-93b9-ec283cf22639","ios":"levelo://app?vid=0c506fac-9822-4d55-93b9-ec283cf22639"},"vehicle_type_id":"4","last_reported":1773872575,"current_range_meters":8000,"station_id":"","pricing_plan_id":"cebpf4jnsgd1na2vs0mg"},{"bike_id":"abfb36e5-f7d6-467f-9d51-8f665421738f","system_id":"levelo_inurba_marseille","lat":43.29259,"lon":5.40913,"is_reserved":false,"is_disabled":false,"rental_uris":{"android":"levelo://app?vid=abfb36e5-f7d6-467f-9d51-8f665421738f","ios":"levelo://app?vid=abfb36e5-f7d6-467f-9d51-8f665421738f"},"vehicle_type_id":"4","last_reported":1773872575,"current_range_meters":8400,"station_id":"ce4bh192rcd13ifvqdc0","pricing_plan_id":"cebpf4jnsgd1na2vs0mg"},{"bike_id":"4603d8e6-1bdb-4e77-a999-dd174df795dd","system_id":"levelo_inurba_marseille","lat":43.21734,"lon":5.34612,"is_reserved":false,"is_disabled":false,"rental_uris":{"android":"levelo://app?vid=4603d8e6-1bdb-4e77-a999-dd174df795dd","ios":"levelo://app?vid=4603d8e6-1bdb-4e77-a999-dd174df795dd"},"vehicle_type_id":"4","last_reported":1773872575,"current_range_meters":8400,"station_id":"st_cvj6r9ubvosntc0bgbag","pricing_plan_id":"cebpf4jnsgd1na2vs0mg"},{"bike_id":"34996ba6-fba5-4ddb-b7d4-7e3f80f192b1","system_id":"levelo_inurba_marseille","lat":43.27939,"lon":5.38728,"is_reserved":false,"is_disabled":false,"rental_uris":{"android":"levelo://app?vid=34996ba6-fba5-4ddb-b7d4-7e3f80f192b1","ios":"levelo://app?vid=34996ba6-fba5-4ddb-b7d4-7e3f80f192b1"},"vehicle_type_id":"4","last_reported":1773872575,"current_range_meters":8400,"station_id":"ce4bhg12rcd13ifvqf80","pricing_plan_id":"cebpf4jnsgd1na2vs0mg"},{"bike_id":"94f8f466-8e71-4f87-978f-df55f1bc6e54","system_id":"levelo_inurba_marseille","lat":43.21201,"lon":5.35058,"is_reserved":false,"is_disabled":false,"rental_uris":{"android":"levelo://app?vid=94f8f466-8e71-4f87-978f-df55f1bc6e54","ios":"levelo://app?vid=94f8f466-8e71-4f87-978f-df55f1bc6e54"},"vehicle_type_id":"4","last_reported":1773872575,"current_range_meters":8400,"station_id":"st_cvj6sg6p6f1abm77japg","pricing_plan_id":"cebpf4jnsgd1na2vs0mg"},{"bike_id":"1fdbd032-af28-4158-a02e-01bb107fd2a7","system_id":"levelo_inurba_marseille","lat":43.337444,"lon":5.374475,"is_reserved":false,"is_disabled":false,"rental_uris":{"android":"levelo://app?vid=1fdbd032-af28-4158-a02e-01bb107fd2a7","ios":"levelo://app?vid=1fdbd032-af28-4158-a02e-01bb107fd2a7"},"vehicle_type_id":"4","last_reported":1773872575,"current_range_meters":8400,"station_id":"","pricing_plan_id":"cebpf4jnsgd1na2vs0mg"},{"bike_id":"c0ce446a-9085-4968-895d-00725cc652ae","system_id":"levelo_inurba_marseille","lat":43.29535,"lon":5.42325,"is_reserved":false,"is_disabled":false,"rental_uris":{"android":"levelo://app?vid=c0ce446a-9085-4968-895d-00725cc652ae","ios":"levelo://app?vid=c0ce446a-9085-4968-895d-00725cc652ae"},"vehicle_type_id":"4","last_reported":1773872575,"current_range_meters":8400,"station_id":"ce4bhph2rcd13ifvqhdg","pricing_plan_id":"cebpf4jnsgd1na2vs0mg"},{"bike_id":"8c29270d-5d11-446e-a3f0-f5c56ae9c816","system_id":"levelo_inurba_marseille","lat":43.27559,"lon":5.43336,"is_reserved":false,"is_disabled":false,"rental_uris":{"android":"levelo://app?vid=8c29270d-5d11-446e-a3f0-f5c56ae9c816","ios":"levelo://app?vid=8c29270d-5d11-446e-a3f0-f5c56ae9c816"},"vehicle_type_id":"4","last_reported":1773872575,"current_range_meters":8400,"station_id":"","pricing_plan_id":"cebpf4jnsgd1na2vs0mg"},{"bike_id":"7c2d9a45-3455-4a36-9709-931220f46bef","system_id":"levelo_inurba_marseille","lat":43.29045,"lon":5.38647,"is_reserved":false,"is_disabled":false,"rental_uris":{"android":"levelo://app?vid=7c2d9a45-3455-4a36-9709-931220f46bef","ios":"levelo://app?vid=7c2d9a45-3455-4a36-9709-931220f46bef"},"vehicle_type_id":"4","last_reported":1773872575,"current_range_meters":8400,"station_id":"ce4bh4p2rcd13ifvqe0g","pricing_plan_id":"cebpf4jnsgd1na2vs0mg"},{"bike_id":"fe84594a-cdc2-4e5f-83a2-4d80f9f5966d","system_id":"levelo_inurba_marseille","lat":43.28994,"lon":5.35631,"is_reserved":false,"is_disabled":true,"rental_uris":{"android":"levelo://app?vid=fe84594a-cdc2-4e5f-83a2-4d80f9f5966d","ios":"levelo://app?vid=fe84594a-cdc2-4e5f-83a2-4d80f9f5966d"},"vehicle_type_id":"4","last_reported":1773872575,"current_range_meters":8400,"station_id":"ce4bhb92rcd13ifvqen0","pricing_plan_id":"cebpf4jnsgd1na2vs0mg"},{"bike_id":"d9f8cdf3-4098-434d-8f89-edd8182a95e6","system_id":"levelo_inurba_marseille","lat":43.28471,"lon":5.35911,"is_reserved":false,"is_disabled":false,"rental_uris":{"android":"levelo://app?vid=d9f8cdf3-4098-434d-8f89-edd8182a95e6","ios":"levelo://app?vid=d9f8cdf3-4098-434d-8f89-edd8182a95e6"},"vehicle_type_id":"4","last_reported":1773872575,"current_range_meters":8400,"station_id":"ce4bhah2rcd13ifvqei0","pricing_plan_id":"cebpf4jnsgd1na2vs0mg"},{"bike_id":"a8b1e5a1-a024-4b45-8478-45ebf454991c","system_id":"levelo_inurba_marseille","lat":43.29268,"lon":5.4013,"is_reserved":false,"is_disabled":false,"rental_uris":{"android":"levelo://app?vid=a8b1e5a1-a024-4b45-8478-45ebf454991c","ios":"levelo://app?vid=a8b1e5a1-a024-4b45-8478-45ebf454991c"},"vehicle_type_id":"4","last_reported":1773872575,"current_range_meters":8400,"station_id":"ce4bh312rcd13ifvqdk0","pricing_plan_id":"cebpf4jnsgd1na2vs0mg"},{"bike_id":"35683867-cb85-4d1f-8925-8164f427b032","system_id":"levelo_inurba_marseille","lat":43.25341,"lon":5.42149,"is_reserved":false,"is_disabled":false,"rental_uris":{"android":"levelo://app?vid=35683867-cb85-4d1f-8925-8164f427b032","ios":"levelo://app?vid=35683867-cb85-4d1f-8925-8164f427b032"},"vehicle_type_id":"4","last_reported":1773872575,"current_range_meters":8400,"station_id":"st_d2m65c5bi1j21697t3ng","pricing_plan_id":"cebpf4jnsgd1na2vs0mg"},{"bike_id":"506661fa-d7d4-473c-8038-c16d45410fe8","system_id":"levelo_inurba_marseille","lat":43.28869,"lon":5.42514,"is_reserved":false,"is_disabled":false,"rental_uris":{"android":"levelo://app?vid=506661fa-d7d4-473c-8038-c16d45410fe8","ios":"levelo://app?vid=506661fa-d7d4-473c-8038-c16d45410fe8"},"vehicle_type_id":"4","last_reported":1773872575,"current_range_meters":8400,"station_id":"","pricing_plan_id":"cebpf4jnsgd1na2vs0mg"},{"bike_id":"d63969cc-eab7-4f09-aaa0-932a91e1b35c","system_id":"levelo_inurba_marseille","lat":43.30649,"lon":5.40086,"is_reserved":false,"is_disabled":false,"rental_uris":{"android":"levelo://app?vid=d63969cc-eab7-4f09-aaa0-932a91e1b35c","ios":"levelo://app?vid=d63969cc-eab7-4f09-aaa0-932a91e1b35c"},"vehicle_type_id":"4","last_reported":1773872575,"current_range_meters":8400,"station_id":"ce4bh112rcd13ifvqda0","pricing_plan_id":"cebpf4jnsgd1na2vs0mg"},{"bike_id":"f9cbb5c0-15f3-4ddf-b4f4-fe1b0d0a2d4c","system_id":"levelo_inurba_marseille","lat":43.31191,"lon":5.38743,"is_reserved":false,"is_disabled":true,"rental_uris":{"android":"levelo://app?vid=f9cbb5c0-15f3-4ddf-b4f4-fe1b0d0a2d4c","ios":"levelo://app?vid=f9cbb5c0-15f3-4ddf-b4f4-fe1b0d0a2d4c"},"vehicle_type_id":"4","last_reported":1773872575,"current_range_meters":8400,"station_id":"ce4bgv12rcd13ifvqcp0","pricing_plan_id":"cebpf4jnsgd1na2vs0mg"},{"bike_id":"a8c51388-9cb7-40d8-9f83-0c1bff1683d1","system_id":"levelo_inurba_marseille","lat":43.29534,"lon":5.39048,"is_reserved":false,"is_disabled":false,"rental_uris":{"android":"levelo://app?vid=a8c51388-9cb7-40d8-9f83-0c1bff1683d1","ios":"levelo://app?vid=a8c51388-9cb7-40d8-9f83-0c1bff1683d1"},"vehicle_type_id":"4","last_reported":1773872575,"current_range_meters":8400,"station_id":"ce4bh3p2rcd13ifvqdp0","pricing_plan_id":"cebpf4jnsgd1na2vs0mg"},{"bike_id":"0ee4ce16-829f-49ee-9a2a-4b4670dfbc6f","system_id":"levelo_inurba_marseille","lat":43.28491,"lon":5.4841,"is_reserved":false,"is_disabled":false,"rental_uris":{"android":"levelo://app?vid=0ee4ce16-829f-49ee-9a2a-4b4670dfbc6f","ios":"levelo://app?vid=0ee4ce16-829f-49ee-9a2a-4b4670dfbc6f"},"vehicle_type_id":"4","last_reported":1773872575,"current_range_meters":8400,"station_id":"st_d3svhcjqgbts73a3dn0g","pricing_plan_id":"cebpf4jnsgd1na2vs0mg"},{"bike_id":"9c9fc9d9-d6e9-43f8-aebd-c23a17cd692d","system_id":"levelo_inurba_marseille","lat":43.28703,"lon":5.3999,"is_reserved":false,"is_disabled":false,"rental_uris":{"android":"levelo://app?vid=9c9fc9d9-d6e9-43f8-aebd-c23a17cd692d","ios":"levelo://app?vid=9c9fc9d9-d6e9-43f8-aebd-c23a17cd692d"},"vehicle_type_id":"4","last_reported":1773872575,"current_range_meters":8400,"station_id":"ce4bho92rcd13ifvqh3g","pricing_plan_id":"cebpf4jnsgd1na2vs0mg"},{"bike_id":"8af57e7b-3968-4723-84a5-33e601591d74","system_id":"levelo_inurba_marseille","lat":43.28353,"lon":5.35313,"is_reserved":false,"is_disabled":false,"rental_uris":{"android":"levelo://app?vid=8af57e7b-3968-4723-84a5-33e601591d74","ios":"levelo://app?vid=8af57e7b-3968-4723-84a5-33e601591d74"},"vehicle_type_id":"4","last_reported":1773872575,"current_range_meters":8400,"station_id":"","pricing_plan_id":"cebpf4jnsgd1na2vs0mg"},{"bike_id":"c630e9fc-07eb-44fb-b665-baf3e779b83f","system_id":"levelo_inurba_marseille","lat":43.28523,"lon":5.44116,"is_reserved":false,"is_disabled":false,"rental_uris":{"android":"levelo://app?vid=c630e9fc-07eb-44fb-b665-baf3e779b83f","ios":"levelo://app?vid=c630e9fc-07eb-44fb-b665-baf3e779b83f"},"vehicle_type_id":"4","last_reported":1773872575,"current_range_meters":8400,"station_id":"st_d3j3df2ikq2c7380ej80","pricing_plan_id":"cebpf4jnsgd1na2vs0mg"},{"bike_id":"09c6bd8c-631e-428d-95ab-99a2c53a3ed5","system_id":"levelo_inurba_marseille","lat":43.27492,"lon":5.41596,"is_reserved":false,"is_disabled":false,"rental_uris":{"android":"levelo://app?vid=09c6bd8c-631e-428d-95ab-99a2c53a3ed5","ios":"levelo://app?vid=09c6bd8c-631e-428d-95ab-99a2c53a3ed5"},"vehicle_type_id":"4","last_reported":1773872575,"current_range_meters":8400,"station_id":"st_d6im8g6chgec73a5pndg","pricing_plan_id":"cebpf4jnsgd1na2vs0mg"},{"bike_id":"242e0753-12d5-492e-a5c0-5df875cc0675","system_id":"levelo_inurba_marseille","lat":43.31324,"lon":5.39715,"is_reserved":false,"is_disabled":false,"rental_uris":{"android":"levelo://app?vid=242e0753-12d5-492e-a5c0-5df875cc0675","ios":"levelo://app?vid=242e0753-12d5-492e-a5c0-5df875cc0675"},"vehicle_type_id":"4","last_reported":1773872575,"current_range_meters":8400,"station_id":"ce4bgvp2rcd13ifvqcu0","pricing_plan_id":"cebpf4jnsgd1na2vs0mg"},{"bike_id":"78c86868-a79f-4f2a-bb9a-961b0f22d36b","system_id":"levelo_inurba_marseille","lat":43.29989,"lon":5.38643,"is_reserved":false,"is_disabled":false,"rental_uris":{"android":"levelo://app?vid=78c86868-a79f-4f2a-bb9a-961b0f22d36b","ios":"levelo://app?vid=78c86868-a79f-4f2a-bb9a-961b0f22d36b"},"vehicle_type_id":"4","last_reported":1773872575,"current_range_meters":8400,"station_id":"","pricing_plan_id":"cebpf4jnsgd1na2vs0mg"},{"bike_id":"0f0f3f3e-0b16-46b6-a723-9cf6c82a3bfc","system_id":"levelo_inurba_marseille","lat":43.27497,"lon":5.41627,"is_reserved":false,"is_disabled":false,"rental_uris":{"android":"levelo://app?vid=0f0f3f3e-0b16-46b6-a723-9cf6c82a3bfc","ios":"levelo://app?vid=0f0f3f3e-0b16-46b6-a723-9cf6c82a3bfc"},"vehicle_type_id":"4","last_reported":1773872575,"current_range_meters":8400,"station_id":"st_d6im8g6chgec73a5pndg","pricing_plan_id":"cebpf4jnsgd1na2vs0mg"},{"bike_id":"5671440c-19fc-480b-8cdb-b024a111e462","system_id":"levelo_inurba_marseille","lat":43.23804,"lon":5.4146,"is_reserved":false,"is_disabled":false,"rental_uris":{"android":"levelo://app?vid=5671440c-19fc-480b-8cdb-b024a111e462","ios":"levelo://app?vid=5671440c-19fc-480b-8cdb-b024a111e462"},"vehicle_type_id":"4","last_reported":1773872575,"current_range_meters":8400,"station_id":"","pricing_plan_id":"cebpf4jnsgd1na2vs0mg"},{"bike_id":"59ddfc68-0581-4673-9200-12475a694c0f","system_id":"levelo_inurba_marseille","lat":43.29028,"lon":5.38635,"is_reserved":false,"is_disabled":false,"rental_uris":{"android":"levelo://app?vid=59ddfc68-0581-4673-9200-12475a694c0f","ios":"levelo://app?vid=59ddfc68-0581-4673-9200-12475a694c0f"},"vehicle_type_id":"4","last_reported":1773872575,"current_range_meters":8400,"station_id":"ce4bh4p2rcd13ifvqe0g","pricing_plan_id":"cebpf4jnsgd1na2vs0mg"},{"bike_id":"920f4ef6-677b-4350-a93f-2d160fe6cab1","system_id":"levelo_inurba_marseille","lat":43.30319,"lon":5.40426,"is_reserved":false,"is_disabled":false,"rental_uris":{"android":"levelo://app?vid=920f4ef6-677b-4350-a93f-2d160fe6cab1","ios":"levelo://app?vid=920f4ef6-677b-4350-a93f-2d160fe6cab1"},"vehicle_type_id":"4","last_reported":1773872575,"current_range_meters":8400,"station_id":"ce4bh012rcd13ifvqd10","pricing_plan_id":"cebpf4jnsgd1na2vs0mg"},{"bike_id":"5927499b-9f56-4d02-a7d6-bfd048a5a6db","system_id":"levelo_inurba_marseille","lat":43.30805,"lon":5.38151,"is_reserved":false,"is_disabled":false,"rental_uris":{"android":"levelo://app?vid=5927499b-9f56-4d02-a7d6-bfd048a5a6db","ios":"levelo://app?vid=5927499b-9f56-4d02-a7d6-bfd048a5a6db"},"vehicle_type_id":"4","last_reported":1773872575,"current_range_meters":8800,"station_id":"ce4bgt12rcd13ifvqce0","pricing_plan_id":"cebpf4jnsgd1na2vs0mg"},{"bike_id":"0697c487-3f14-4fcb-95ca-9f894ce98488","system_id":"levelo_inurba_marseille","lat":43.28525,"lon":5.39143,"is_reserved":false,"is_disabled":false,"rental_uris":{"android":"levelo://app?vid=0697c487-3f14-4fcb-95ca-9f894ce98488","ios":"levelo://app?vid=0697c487-3f14-4fcb-95ca-9f894ce98488"},"vehicle_type_id":"4","last_reported":1773872575,"current_range_meters":8800,"station_id":"","pricing_plan_id":"cebpf4jnsgd1na2vs0mg"},{"bike_id":"24dc1ce5-2db6-421b-869a-69d6f082b300","system_id":"levelo_inurba_marseille","lat":43.29792,"lon":5.36276,"is_reserved":false,"is_disabled":false,"rental_uris":{"android":"levelo://app?vid=24dc1ce5-2db6-421b-869a-69d6f082b300","ios":"levelo://app?vid=24dc1ce5-2db6-421b-869a-69d6f082b300"},"vehicle_type_id":"4","last_reported":1773872575,"current_range_meters":8800,"station_id":"","pricing_plan_id":"cebpf4jnsgd1na2vs0mg"},{"bike_id":"e801080f-4a8c-4c58-9490-df14ba78a212","system_id":"levelo_inurba_marseille","lat":43.29491,"lon":5.43302,"is_reserved":false,"is_disabled":false,"rental_uris":{"android":"levelo://app?vid=e801080f-4a8c-4c58-9490-df14ba78a212","ios":"levelo://app?vid=e801080f-4a8c-4c58-9490-df14ba78a212"},"vehicle_type_id":"4","last_reported":1773872575,"current_range_meters":8800,"station_id":"st_d3j5ugp08ojc73fj9d10","pricing_plan_id":"cebpf4jnsgd1na2vs0mg"},{"bike_id":"f1a924eb-dba3-4a70-837d-f478e7e4a111","system_id":"levelo_inurba_marseille","lat":43.28335,"lon":5.35111,"is_reserved":false,"is_disabled":false,"rental_uris":{"android":"levelo://app?vid=f1a924eb-dba3-4a70-837d-f478e7e4a111","ios":"levelo://app?vid=f1a924eb-dba3-4a70-837d-f478e7e4a111"},"vehicle_type_id":"4","last_reported":1773872575,"current_range_meters":8800,"station_id":"","pricing_plan_id":"cebpf4jnsgd1na2vs0mg"},{"bike_id":"f988513f-66d9-48b8-8052-ea23679cb366","system_id":"levelo_inurba_marseille","lat":43.3123,"lon":5.36925,"is_reserved":false,"is_disabled":false,"rental_uris":{"android":"levelo://app?vid=f988513f-66d9-48b8-8052-ea23679cb366","ios":"levelo://app?vid=f988513f-66d9-48b8-8052-ea23679cb366"},"vehicle_type_id":"4","last_reported":1773872575,"current_range_meters":8800,"station_id":"ce4bgl92rcd13ifvqbq0","pricing_plan_id":"cebpf4jnsgd1na2vs0mg"},{"bike_id":"2518bae7-c776-42cd-b319-3c6b0327da59","system_id":"levelo_inurba_marseille","lat":43.28463,"lon":5.35892,"is_reserved":false,"is_disabled":false,"rental_uris":{"android":"levelo://app?vid=2518bae7-c776-42cd-b319-3c6b0327da59","ios":"levelo://app?vid=2518bae7-c776-42cd-b319-3c6b0327da59"},"vehicle_type_id":"4","last_reported":1773872575,"current_range_meters":8800,"station_id":"ce4bhah2rcd13ifvqei0","pricing_plan_id":"cebpf4jnsgd1na2vs0mg"},{"bike_id":"f7e79517-161a-451a-8a95-bb710b1b4d21","system_id":"levelo_inurba_marseille","lat":43.29827,"lon":5.37927,"is_reserved":false,"is_disabled":true,"rental_uris":{"android":"levelo://app?vid=f7e79517-161a-451a-8a95-bb710b1b4d21","ios":"levelo://app?vid=f7e79517-161a-451a-8a95-bb710b1b4d21"},"vehicle_type_id":"4","last_reported":1773872575,"current_range_meters":8800,"station_id":"","pricing_plan_id":"cebpf4jnsgd1na2vs0mg"},{"bike_id":"e96aa17b-a380-4269-aa15-f0a6d9e3febf","system_id":"levelo_inurba_marseille","lat":43.21769,"lon":5.34585,"is_reserved":false,"is_disabled":false,"rental_uris":{"android":"levelo://app?vid=e96aa17b-a380-4269-aa15-f0a6d9e3febf","ios":"levelo://app?vid=e96aa17b-a380-4269-aa15-f0a6d9e3febf"},"vehicle_type_id":"4","last_reported":1773872575,"current_range_meters":8800,"station_id":"st_cvj6r9ubvosntc0bgbag","pricing_plan_id":"cebpf4jnsgd1na2vs0mg"},{"bike_id":"d7a795fb-5111-470c-9656-6fc028dd6f7f","system_id":"levelo_inurba_marseille","lat":43.262126,"lon":5.374377,"is_reserved":false,"is_disabled":false,"rental_uris":{"android":"levelo://app?vid=d7a795fb-5111-470c-9656-6fc028dd6f7f","ios":"levelo://app?vid=d7a795fb-5111-470c-9656-6fc028dd6f7f"},"vehicle_type_id":"4","last_reported":1773872575,"current_range_meters":8800,"station_id":"ce4bhgp2rcd13ifvqfc0","pricing_plan_id":"cebpf4jnsgd1na2vs0mg"},{"bike_id":"f45cc1dc-250e-479e-8a48-ea4ddf42b63b","system_id":"levelo_inurba_marseille","lat":43.30805,"lon":5.38151,"is_reserved":false,"is_disabled":false,"rental_uris":{"android":"levelo://app?vid=f45cc1dc-250e-479e-8a48-ea4ddf42b63b","ios":"levelo://app?vid=f45cc1dc-250e-479e-8a48-ea4ddf42b63b"},"vehicle_type_id":"4","last_reported":1773872575,"current_range_meters":8800,"station_id":"ce4bgt12rcd13ifvqce0","pricing_plan_id":"cebpf4jnsgd1na2vs0mg"},{"bike_id":"7f576143-d504-4322-ab64-510745c9e514","system_id":"levelo_inurba_marseille","lat":43.28155,"lon":5.42644,"is_reserved":false,"is_disabled":false,"rental_uris":{"android":"levelo://app?vid=7f576143-d504-4322-ab64-510745c9e514","ios":"levelo://app?vid=7f576143-d504-4322-ab64-510745c9e514"},"vehicle_type_id":"4","last_reported":1773872575,"current_range_meters":8800,"station_id":"ce4bhnh2rcd13ifvqgug","pricing_plan_id":"cebpf4jnsgd1na2vs0mg"},{"bike_id":"623306fd-5411-42ac-b7b9-0776b8a65ddf","system_id":"levelo_inurba_marseille","lat":43.24812,"lon":5.37444,"is_reserved":false,"is_disabled":false,"rental_uris":{"android":"levelo://app?vid=623306fd-5411-42ac-b7b9-0776b8a65ddf","ios":"levelo://app?vid=623306fd-5411-42ac-b7b9-0776b8a65ddf"},"vehicle_type_id":"4","last_reported":1773872575,"current_range_meters":8800,"station_id":"ce4bhgh2rcd13ifvqfb0","pricing_plan_id":"cebpf4jnsgd1na2vs0mg"},{"bike_id":"1b900580-bda3-431f-bf68-0ba5a95e4d79","system_id":"levelo_inurba_marseille","lat":43.27947,"lon":5.41048,"is_reserved":false,"is_disabled":false,"rental_uris":{"android":"levelo://app?vid=1b900580-bda3-431f-bf68-0ba5a95e4d79","ios":"levelo://app?vid=1b900580-bda3-431f-bf68-0ba5a95e4d79"},"vehicle_type_id":"4","last_reported":1773872575,"current_range_meters":8800,"station_id":"ce4bhnp2rcd13ifvqh0g","pricing_plan_id":"cebpf4jnsgd1na2vs0mg"},{"bike_id":"0f988d7c-199c-45b5-ba6e-7ba5bd7d524c","system_id":"levelo_inurba_marseille","lat":43.30762,"lon":5.37665,"is_reserved":false,"is_disabled":false,"rental_uris":{"android":"levelo://app?vid=0f988d7c-199c-45b5-ba6e-7ba5bd7d524c","ios":"levelo://app?vid=0f988d7c-199c-45b5-ba6e-7ba5bd7d524c"},"vehicle_type_id":"4","last_reported":1773872575,"current_range_meters":8800,"station_id":"ce4bgv92rcd13ifvqcq0","pricing_plan_id":"cebpf4jnsgd1na2vs0mg"},{"bike_id":"19df06a5-29c5-4eda-a70c-1bfaf697fdc3","system_id":"levelo_inurba_marseille","lat":43.21761,"lon":5.34597,"is_reserved":false,"is_disabled":false,"rental_uris":{"android":"levelo://app?vid=19df06a5-29c5-4eda-a70c-1bfaf697fdc3","ios":"levelo://app?vid=19df06a5-29c5-4eda-a70c-1bfaf697fdc3"},"vehicle_type_id":"4","last_reported":1773872575,"current_range_meters":8800,"station_id":"st_cvj6r9ubvosntc0bgbag","pricing_plan_id":"cebpf4jnsgd1na2vs0mg"},{"bike_id":"ab5ec513-ee99-4671-ae67-83a9f94f8972","system_id":"levelo_inurba_marseille","lat":43.21716,"lon":5.34604,"is_reserved":false,"is_disabled":false,"rental_uris":{"android":"levelo://app?vid=ab5ec513-ee99-4671-ae67-83a9f94f8972","ios":"levelo://app?vid=ab5ec513-ee99-4671-ae67-83a9f94f8972"},"vehicle_type_id":"4","last_reported":1773872575,"current_range_meters":8800,"station_id":"st_cvj6r9ubvosntc0bgbag","pricing_plan_id":"cebpf4jnsgd1na2vs0mg"},{"bike_id":"5b7a4f99-47a8-4cd1-b8e7-d148139de64c","system_id":"levelo_inurba_marseille","lat":43.24952,"lon":5.40542,"is_reserved":false,"is_disabled":false,"rental_uris":{"android":"levelo://app?vid=5b7a4f99-47a8-4cd1-b8e7-d148139de64c","ios":"levelo://app?vid=5b7a4f99-47a8-4cd1-b8e7-d148139de64c"},"vehicle_type_id":"4","last_reported":1773872575,"current_range_meters":9200,"station_id":"st_d2ngiaodas8pm72gd1h0","pricing_plan_id":"cebpf4jnsgd1na2vs0mg"},