{"last_updated":1747372275,"ttl":60,"version":"2.2","data":{"bikes":[{"bike_id":"56a8fb2b-e60a-478d-aa99-a7d95d39cecc","system_id":"levelo_inurba_marseille","lat":43.27179,"lon":5.41024,"is_reserved":false,"is_disabled":false,"rental_uris":{"android":"levelo://app?vid=56a8fb2b-e60a-478d-aa99-a7d95d39cecc","ios":"levelo://app?vid=56a8fb2b-e60a-478d-aa99-a7d95d39cecc"},"vehicle_type_id":"4","last_reported":1747372275,"current_range_meters":2800,"station_id":"ce4bhl12rcd13ifvqgf0","pricing_plan_id":"cebpf4jnsgd1na2vs0mg"},{"bike_id":"eabf2a35-47bc-4253-8436-57e938d52069","system_id":"levelo_inurba_marseille","lat":43.301308,"lon":5.398753,"is_reserved":false,"is_disabled":false,"rental_uris":{"android":"levelo://app?vid=eabf2a35-47bc-4253-8436-57e938d52069","ios":"levelo://app?vid=eabf2a35-47bc-4253-8436-57e938d52069"},"vehicle_type_id":"4","last_reported":1747372275,"current_range_meters":3200,"station_id":"ce4bh0h2rcd13ifvqd40","pricing_plan_id":"cebpf4jnsgd1na2vs0mg"},{"bike_id":"d2449169-a451-4966-be38-c5971452e792","system_id":"levelo_inurba_marseille","lat":43.279644,"lon":5.386984,"is_reserved":false,"is_disabled":true,"rental_uris":{"android":"levelo://app?vid=d2449169-a451-4966-be38-c5971452e792","ios":"levelo://app?vid=d2449169-a451-4966-be38-c5971452e792"},"vehicle_type_id":"4","last_reported":1747372275,"current_range_meters":3200,"station_id":"ce4bhg12rcd13ifvqf80","pricing_plan_id":"cebpf4jnsgd1na2vs0mg"},{"bike_id":"ea716814-d8a0-425d-8c9d-51cf34ecd6e9","system_id":"levelo_inurba_marseille","lat":43.28098,"lon":5.37864,"is_reserved":false,"is_disabled":false,"rental_uris":{"android":"levelo://app?vid=ea716814-d8a0-425d-8c9d-51cf34ecd6e9","ios":"levelo://app?vid=ea716814-d8a0-425d-8c9d-51cf34ecd6e9"},"vehicle_type_id":"4","last_reported":1747372275,"current_range_meters":3200,"station_id":"ce4bha12rcd13ifvqee0","pricing_plan_id":"cebpf4jnsgd1na2vs0mg"},{"bike_id":"fe5d0865-672f-43bd-a0c1-4310bfdeadc9","system_id":"levelo_inurba_marseille","lat":43.25113,"lon":5.40338,"is_reserved":false,"is_disabled":false,"rental_uris":{"android":"levelo://app?vid=fe5d0865-672f-43bd-a0c1-4310bfdeadc9","ios":"levelo://app?vid=fe5d0865-672f-43bd-a0c1-4310bfdeadc9"},"vehicle_type_id":"4","last_reported":1747372275,"current_range_meters":3600,"station_id":"ce4bhlh2rcd13ifvqgig","pricing_plan_id":"cebpf4jnsgd1na2vs0mg"},{"bike_id":"c1ea5b26-48c4-4559-a197-4118b1e78ec2","system_id":"levelo_inurba_marseille","lat":43.30649,"lon":5.400765,"is_reserved":false,"is_disabled":false,"rental_uris":{"android":"levelo://app?vid=c1ea5b26-48c4-4559-a197-4118b1e78ec2","ios":"levelo://app?vid=c1ea5b26-48c4-4559-a197-4118b1e78ec2"},"vehicle_type_id":"4","last_reported":1747372275,"current_range_meters":3600,"station_id":"ce4bh112rcd13ifvqda0","pricing_plan_id":"cebpf4jnsgd1na2vs0mg"},{"bike_id":"2a0092ec-f184-4d57-9901-cfbdc97dbe4d","system_id":"levelo_inurba_marseille","lat":43.29256,"lon":5.38437,"is_reserved":false,"is_disabled":true,"rental_uris":{"android":"levelo://app?vid=2a0092ec-f184-4d57-9901-cfbdc97dbe4d","ios":"levelo://app?vid=2a0092ec-f184-4d57-9901-cfbdc97dbe4d"},"vehicle_type_id":"4","last_reported":1747372275,"current_range_meters":3600,"station_id":"ce4bh692rcd13ifvqea0","pricing_plan_id":"cebpf4jnsgd1na2vs0mg"},{"bike_id":"8ea9feae-8777-4e64-aba7-b7454736bd17","system_id":"levelo_inurba_marseille","lat":43.29068,"lon":5.37176,"is_reserved":false,"is_disabled":true,"rental_uris":{"android":"levelo://app?vid=8ea9feae-8777-4e64-aba7-b7454736bd17","ios":"levelo://app?vid=8ea9feae-8777-4e64-aba7-b7454736bd17"},"vehicle_type_id":"4","last_reported":1747372275,"current_range_meters":3600,"station_id":"ce4bh5p2rcd13ifvqe4g","pricing_plan_id":"cebpf4jnsgd1na2vs0mg"},{"bike_id":"9b42257b-e6cd-4717-a457-bffcbe6eb915","system_id":"levelo_inurba_marseille","lat":43.30885,"lon":5.39632,"is_reserved":false,"is_disabled":false,"rental_uris":{"android":"levelo://app?vid=9b42257b-e6cd-4717-a457-bffcbe6eb915","ios":"levelo://app?vid=9b42257b-e6cd-4717-a457-bffcbe6eb915"},"vehicle_type_id":"4","last_reported":1747372275,"current_range_meters":3600,"station_id":"ce4bh012rcd13ifvqcv0","pricing_plan_id":"cebpf4jnsgd1na2vs0mg"},{"bike_id":"9537eb00-238a-476b-ae79-4377262a5979","system_id":"levelo_inurba_marseille","lat":43.30932,"lon":5.40143,"is_reserved":false,"is_disabled":false,"rental_uris":{"android":"levelo://app?vid=9537eb00-238a-476b-ae79-4377262a5979","ios":"levelo://app?vid=9537eb00-238a-476b-ae79-4377262a5979"},"vehicle_type_id":"4","last_reported":1747372275,"current_range_meters":3600,"station_id":"ce4bgvp2rcd13ifvqct0","pricing_plan_id":"cebpf4jnsgd1na2vs0mg"},{"bike_id":"c98b183e-79e8-429d-a48e-f5b552cc493a","system_id":"levelo_inurba_marseille","lat":43.313264,"lon":5.397089,"is_reserved":false,"is_disabled":true,"rental_uris":{"android":"levelo://app?vid=c98b183e-79e8-429d-a48e-f5b552cc493a","ios":"levelo://app?vid=c98b183e-79e8-429d-a48e-f5b552cc493a"},"vehicle_type_id":"4","last_reported":1747372275,"current_range_meters":4000,"station_id":"ce4bgvp2rcd13ifvqcu0","pricing_plan_id":"cebpf4jnsgd1na2vs0mg"},{"bike_id":"10431d85-b1b3-4226-8392-fb03cfc52222","system_id":"levelo_inurba_marseille","lat":43.28104,"lon":5.37836,"is_reserved":false,"is_disabled":false,"rental_uris":{"android":"levelo://app?vid=10431d85-b1b3-4226-8392-fb03cfc52222","ios":"levelo://app?vid=10431d85-b1b3-4226-8392-fb03cfc52222"},"vehicle_type_id":"4","last_reported":1747372275,"current_range_meters":4000,"station_id":"ce4bha12rcd13ifvqee0","pricing_plan_id":"cebpf4jnsgd1na2vs0mg"},{"bike_id":"fed06cf5-f5f2-4809-91f1-074e851a4497","system_id":"levelo_inurba_marseille","lat":43.241708,"lon":5.397286,"is_reserved":false,"is_disabled":false,"rental_uris":{"android":"levelo://app?vid=fed06cf5-f5f2-4809-91f1-074e851a4497","ios":"levelo://app?vid=fed06cf5-f5f2-4809-91f1-074e851a4497"},"vehicle_type_id":"4","last_reported":1747372275,"current_range_meters":4000,"station_id":"ce4bhn12rcd13ifvqgpg","pricing_plan_id":"cebpf4jnsgd1na2vs0mg"},{"bike_id":"bc403e1d-0106-4ec0-815d-537e8bca31b6","system_id":"levelo_inurba_marseille","lat":43.308804,"lon":5.396477,"is_reserved":false,"is_disabled":false,"rental_uris":{"android":"levelo://app?vid=bc403e1d-0106-4ec0-815d-537e8bca31b6","ios":"levelo://app?vid=bc403e1d-0106-4ec0-815d-537e8bca31b6"},"vehicle_type_id":"4","last_reported":1747372275,"current_range_meters":4000,"station_id":"ce4bh012rcd13ifvqcv0","pricing_plan_id":"cebpf4jnsgd1na2vs0mg"},{"bike_id":"63356c5f-5a03-4190-aec7-a27839a80d5d","system_id":"levelo_inurba_marseille","lat":43.25831,"lon":5.39441,"is_reserved":false,"is_disabled":false,"rental_uris":{"android":"levelo://app?vid=63356c5f-5a03-4190-aec7-a27839a80d5d","ios":"levelo://app?vid=63356c5f-5a03-4190-aec7-a27839a80d5d"},"vehicle_type_id":"4","last_reported":1747372275,"current_range_meters":4000,"station_id":"ce4bhip2rcd13ifvqft0","pricing_plan_id":"cebpf4jnsgd1na2vs0mg"},{"bike_id":"c1cea811-6043-458b-9433-eedc63a8029c","system_id":"levelo_inurba_marseille","lat":43.28081,"lon":5.39658,"is_reserved":false,"is_disabled":false,"rental_uris":{"android":"levelo://app?vid=c1cea811-6043-458b-9433-eedc63a8029c","ios":"levelo://app?vid=c1cea811-6043-458b-9433-eedc63a8029c"},"vehicle_type_id":"4","last_reported":1747372275,"current_range_meters":4000,"station_id":"ce4bho12rcd13ifvqh2g","pricing_plan_id":"cebpf4jnsgd1na2vs0mg"},{"bike_id":"b47ff3b2-1ab9-4945-87ab-f7d96649a5e9","system_id":"levelo_inurba_marseille","lat":43.27202,"lon":5.39202,"is_reserved":false,"is_disabled":true,"rental_uris":{"android":"levelo://app?vid=b47ff3b2-1ab9-4945-87ab-f7d96649a5e9","ios":"levelo://app?vid=b47ff3b2-1ab9-4945-87ab-f7d96649a5e9"},"vehicle_type_id":"4","last_reported":1747372275,"current_range_meters":4400,"station_id":"ce4bhhp2rcd13ifvqfm0","pricing_plan_id":"cebpf4jnsgd1na2vs0mg"},{"bike_id":"9fbc4b0a-22b5-475e-9fa9-fefee100a33d","system_id":"levelo_inurba_marseille","lat":43.278944,"lon":5.380196,"is_reserved":false,"is_disabled":false,"rental_uris":{"android":"levelo://app?vid=9fbc4b0a-22b5-475e-9fa9-fefee100a33d","ios":"levelo://app?vid=9fbc4b0a-22b5-475e-9fa9-fefee100a33d"},"vehicle_type_id":"4","last_reported":1747372275,"current_range_meters":4800,"station_id":"ce4bhf92rcd13ifvqf50","pricing_plan_id":"cebpf4jnsgd1na2vs0mg"},{"bike_id":"6379fadf-e6a9-4548-bd24-45ccc5153b54","system_id":"levelo_inurba_marseille","lat":43.238009,"lon":5.383125,"is_reserved":false,"is_disabled":false,"rental_uris":{"android":"levelo://app?vid=6379fadf-e6a9-4548-bd24-45ccc5153b54","ios":"levelo://app?vid=6379fadf-e6a9-4548-bd24-45ccc5153b54"},"vehicle_type_id":"4","last_reported":1747372275,"current_range_meters":4800,"station_id":"","pricing_plan_id":"cebpf4jnsgd1na2vs0mg"},{"bike_id":"254e7cd6-6d75-4ac5-bb66-49723605d6cb","system_id":"levelo_inurba_marseille","lat":43.304271,"lon":5.397495,"is_reserved":false,"is_disabled":false,"rental_uris":{"android":"levelo://app?vid=254e7cd6-6d75-4ac5-bb66-49723605d6cb","ios":"levelo://app?vid=254e7cd6-6d75-4ac5-bb66-49723605d6cb"},"vehicle_type_id":"4","last_reported":1747372275,"current_range_meters":4800,"station_id":"ce4bh092rcd13ifvqd20","pricing_plan_id":"cebpf4jnsgd1na2vs0mg"},{"bike_id":"fc4950d7-0888-44f9-b6bc-bb6330e386cb","system_id":"levelo_inurba_marseille","lat":43.295939,"lon":5.37727,"is_reserved":false,"is_disabled":true,"rental_uris":{"android":"levelo://app?vid=fc4950d7-0888-44f9-b6bc-bb6330e386cb","ios":"levelo://app?vid=fc4950d7-0888-44f9-b6bc-bb6330e386cb"},"vehicle_type_id":"4","last_reported":1747372275,"current_range_meters":4800,"station_id":"ce4bgi92rcd13ifvqb90","pricing_plan_id":"cebpf4jnsgd1na2vs0mg"},{"bike_id":"f177d2e4-b664-49e7-930f-92de032ad36e","system_id":"levelo_inurba_marseille","lat":43.337444,"lon":5.374475,"is_reserved":false,"is_disabled":false,"rental_uris":{"android":"levelo://app?vid=f177d2e4-b664-49e7-930f-92de032ad36e","ios":"levelo://app?vid=f177d2e4-b664-49e7-930f-92de032ad36e"},"vehicle_type_id":"4","last_reported":1747372275,"current_range_meters":5600,"station_id":"","pricing_plan_id":"cebpf4jnsgd1na2vs0mg"},{"bike_id":"eb544a75-9cd1-4333-980a-695b92ed425a","system_id":"levelo_inurba_marseille","lat":43.28437,"lon":5.39184,"is_reserved":false,"is_disabled":false,"rental_uris":{"android":"levelo://app?vid=eb544a75-9cd1-4333-980a-695b92ed425a","ios":"levelo://app?vid=eb544a75-9cd1-4333-980a-695b92ed425a"},"vehicle_type_id":"4","last_reported":1747372275,"current_range_meters":5600,"station_id":"ce4bhoh2rcd13ifvqh5g","pricing_plan_id":"cebpf4jnsgd1na2vs0mg"},{"bike_id":"b368d4de-04f4-4869-b7ad-f0c07f3c1e06","system_id":"levelo_inurba_marseille","lat":43.2903,"lon":5.39964,"is_reserved":false,"is_disabled":false,"rental_uris":{"android":"levelo://app?vid=b368d4de-04f4-4869-b7ad-f0c07f3c1e06","ios":"levelo://app?vid=b368d4de-04f4-4869-b7ad-f0c07f3c1e06"},"vehicle_type_id":"4","last_reported":1747372275,"current_range_meters":5600,"station_id":"ce4bh392rcd13ifvqdm0","pricing_plan_id":"cebpf4jnsgd1na2vs0mg"},{"bike_id":"e2e2487b-8a81-4022-b36a-6aa7a6726e87","system_id":"levelo_inurba_marseille","lat":43.241725,"lon":5.397236,"is_reserved":false,"is_disabled":false,"rental_uris":{"android":"levelo://app?vid=e2e2487b-8a81-4022-b36a-6aa7a6726e87","ios":"levelo://app?vid=e2e2487b-8a81-4022-b36a-6aa7a6726e87"},"vehicle_type_id":"4","last_reported":1747372275,"current_range_meters":5600,"station_id":"ce4bhn12rcd13ifvqgpg","pricing_plan_id":"cebpf4jnsgd1na2vs0mg"},{"bike_id":"08b19042-d5ad-4a49-9da6-9d3360945537","system_id":"levelo_inurba_marseille","lat":43.26061,"lon":5.39401,"is_reserved":false,"is_disabled":false,"rental_uris":{"android":"levelo://app?vid=08b19042-d5ad-4a49-9da6-9d3360945537","ios":"levelo://app?vid=08b19042-d5ad-4a49-9da6-9d3360945537"},"vehicle_type_id":"4","last_reported":1747372275,"current_range_meters":6000,"station_id":"ce4bhh92rcd13ifvqfj0","pricing_plan_id":"cebpf4jnsgd1na2vs0mg"},{"bike_id":"18e2ab6e-8fae-4f1f-b9c7-a4adc527cf67","system_id":"levelo_inurba_marseille","lat":43.33025,"lon":5.37986,"is_reserved":false,"is_disabled":false,"rental_uris":{"android":"levelo://app?vid=18e2ab6e-8fae-4f1f-b9c7-a4adc527cf67","ios":"levelo://app?vid=18e2ab6e-8fae-4f1f-b9c7-a4adc527cf67"},"vehicle_type_id":"4","last_reported":1747372275,"current_range_meters":6000,"station_id":"","pricing_plan_id":"cebpf4jnsgd1na2vs0mg"},{"bike_id":"b6896310-a386-4eb1-a47b-30e3cd81dc87","system_id":"levelo_inurba_marseille","lat":43.286934,"lon":5.399774,"is_reserved":false,"is_disabled":false,"rental_uris":{"android":"levelo://app?vid=b6896310-a386-4eb1-a47b-30e3cd81dc87","ios":"levelo://app?vid=b6896310-a386-4eb1-a47b-30e3cd81dc87"},"vehicle_type_id":"4","last_reported":1747372275,"current_range_meters":6000,"station_id":"ce4bho92rcd13ifvqh3g","pricing_plan_id":"cebpf4jnsgd1na2vs0mg"},{"bike_id":"a748a13f-85f4-4100-a5af-5f8db1d6ea1a","system_id":"levelo_inurba_marseille","lat":43.2816,"lon":5.42655,"is_reserved":false,"is_disabled":false,"rental_uris":{"android":"levelo://app?vid=a748a13f-85f4-4100-a5af-5f8db1d6ea1a","ios":"levelo://app?vid=a748a13f-85f4-4100-a5af-5f8db1d6ea1a"},"vehicle_type_id":"4","last_reported":1747372275,"current_range_meters":6400,"station_id":"ce4bhnh2rcd13ifvqgug","pricing_plan_id":"cebpf4jnsgd1na2vs0mg"},{"bike_id":"1aaa2e90-397e-4807-9247-89dacfd256d6","system_id":"levelo_inurba_marseille","lat":43.31089,"lon":5.38352,"is_reserved":false,"is_disabled":false,"rental_uris":{"android":"levelo://app?vid=1aaa2e90-397e-4807-9247-89dacfd256d6","ios":"levelo://app?vid=1aaa2e90-397e-4807-9247-89dacfd256d6"},"vehicle_type_id":"4","last_reported":1747372275,"current_range_meters":6400,"station_id":"ce4bgv92rcd13ifvqcr0","pricing_plan_id":"cebpf4jnsgd1na2vs0mg"},{"bike_id":"bddf23bc-d23c-4956-a5ea-93b78c6a38aa","system_id":"levelo_inurba_marseille","lat":43.24653,"lon":5.38161,"is_reserved":false,"is_disabled":false,"rental_uris":{"android":"levelo://app?vid=bddf23bc-d23c-4956-a5ea-93b78c6a38aa","ios":"levelo://app?vid=bddf23bc-d23c-4956-a5ea-93b78c6a38aa"},"vehicle_type_id":"4","last_reported":1747372275,"current_range_meters":6400,"station_id":"ce4bhih2rcd13ifvqfr0","pricing_plan_id":"cebpf4jnsgd1na2vs0mg"},{"bike_id":"59ea7871-10e0-492f-b997-e9d6c8445afa","system_id":"levelo_inurba_marseille","lat":43.30462,"lon":5.37911,"is_reserved":false,"is_disabled":false,"rental_uris":{"android":"levelo://app?vid=59ea7871-10e0-492f-b997-e9d6c8445afa","ios":"levelo://app?vid=59ea7871-10e0-492f-b997-e9d6c8445afa"},"vehicle_type_id":"4","last_reported":1747372275,"current_range_meters":6400,"station_id":"ce4bgup2rcd13ifvqcn0","pricing_plan_id":"cebpf4jnsgd1na2vs0mg"},{"bike_id":"30062e82-b6c9-48bf-ad0e-78e8aabb2070","system_id":"levelo_inurba_marseille","lat":43.217491,"lon":5.346039,"is_reserved":false,"is_disabled":false,"rental_uris":{"android":"levelo://app?vid=30062e82-b6c9-48bf-ad0e-78e8aabb2070","ios":"levelo://app?vid=30062e82-b6c9-48bf-ad0e-78e8aabb2070"},"vehicle_type_id":"4","last_reported":1747372275,"current_range_meters":6800,"station_id":"st_cvj6r9ubvosntc0bgbag","pricing_plan_id":"cebpf4jnsgd1na2vs0mg"},{"bike_id":"b7cb570d-77f5-48d9-be33-70291761d5d7","system_id":"levelo_inurba_marseille","lat":43.21184,"lon":5.35073,"is_reserved":false,"is_disabled":false,"rental_uris":{"android":"levelo://app?vid=b7cb570d-77f5-48d9-be33-70291761d5d7","ios":"levelo://app?vid=b7cb570d-77f5-48d9-be33-70291761d5d7"},"vehicle_type_id":"4","last_reported":1747372275,"current_range_meters":6800,"station_id":"st_cvj6sg6p6f1abm77japg","pricing_plan_id":"cebpf4jnsgd1na2vs0mg"},{"bike_id":"22368baa-c49f-4818-ad8f-92eee34f21f1","system_id":"levelo_inurba_marseille","lat":43.30368,"lon":5.42491,"is_reserved":false,"is_disabled":false,"rental_uris":{"android":"levelo://app?vid=22368baa-c49f-4818-ad8f-92eee34f21f1","ios":"levelo://app?vid=22368baa-c49f-4818-ad8f-92eee34f21f1"},"vehicle_type_id":"4","last_reported":1747372275,"current_range_meters":6800,"station_id":"ce4bhoh2rcd13ifvqh6g","pricing_plan_id":"cebpf4jnsgd1na2vs0mg"},{"bike_id":"5fdebff2-c927-4e43-81c5-6ec5122ce28c","system_id":"levelo_inurba_marseille","lat":43.28092,"lon":5.37858,"is_reserved":false,"is_disabled":false,"rental_uris":{"android":"levelo://app?vid=5fdebff2-c927-4e43-81c5-6ec5122ce28c","ios":"levelo://app?vid=5fdebff2-c927-4e43-81c5-6ec5122ce28c"},"vehicle_type_id":"4","last_reported":1747372275,"current_range_meters":6800,"station_id":"ce4bha12rcd13ifvqee0","pricing_plan_id":"cebpf4jnsgd1na2vs0mg"},{"bike_id":"c334f53f-6386-4502-b496-c0f578da1ace","system_id":"levelo_inurba_marseille","lat":43.30938,"lon":5.40151,"is_reserved":false,"is_disabled":false,"rental_uris":{"android":"levelo://app?vid=c334f53f-6386-4502-b496-c0f578da1ace","ios":"levelo://app?vid=c334f53f-6386-4502-b496-c0f578da1ace"},"vehicle_type_id":"4","last_reported":1747372275,"current_range_meters":6800,"station_id":"ce4bgvp2rcd13ifvqct0","pricing_plan_id":"cebpf4jnsgd1na2vs0mg"},{"bike_id":"8d46c67d-c735-4114-98b3-16c24c8fefdd","system_id":"levelo_inurba_marseille","lat":43.31688,"lon":5.40472,"is_reserved":false,"is_disabled":true,"rental_uris":{"android":"levelo://app?vid=8d46c67d-c735-4114-98b3-16c24c8fefdd","ios":"levelo://app?vid=8d46c67d-c735-4114-98b3-16c24c8fefdd"},"vehicle_type_id":"4","last_reported":1747372275,"current_range_meters":7200,"station_id":"ce4bh012rcd13ifvqd00","pricing_plan_id":"cebpf4jnsgd1na2vs0mg"},{"bike_id":"aa083689-1f06-4bc8-89fd-414bef981e30","system_id":"levelo_inurba_marseille","lat":43.30658,"lon":5.4008,"is_reserved":false,"is_disabled":false,"rental_uris":{"android":"levelo://app?vid=aa083689-1f06-4bc8-89fd-414bef981e30","ios":"levelo://app?vid=aa083689-1f06-4bc8-89fd-414bef981e30"},"vehicle_type_id":"4","last_reported":1747372275,"current_range_meters":7200,"station_id":"ce4bh112rcd13ifvqda0","pricing_plan_id":"cebpf4jnsgd1na2vs0mg"},{"bike_id":"5e6d1bee-25e7-45ea-9d39-ed170fd50d1c","system_id":"levelo_inurba_marseille","lat":43.279383,"lon":5.410436,"is_reserved":false,"is_disabled":false,"rental_uris":{"android":"levelo://app?vid=5e6d1bee-25e7-45ea-9d39-ed170fd50d1c","ios":"levelo://app?vid=5e6d1bee-25e7-45ea-9d39-ed170fd50d1c"},"vehicle_type_id":"4","last_reported":1747372275,"current_range_meters":7200,"station_id":"ce4bhnp2rcd13ifvqh0g","pricing_plan_id":"cebpf4jnsgd1na2vs0mg"},{"bike_id":"d8f87953-dab1-49d4-8113-ffc824ef3cdc","system_id":"levelo_inurba_marseille","lat":43.307936,"lon":5.381488,"is_reserved":false,"is_disabled":false,"rental_uris":{"android":"levelo://app?vid=d8f87953-dab1-49d4-8113-ffc824ef3cdc","ios":"levelo://app?vid=d8f87953-dab1-49d4-8113-ffc824ef3cdc"},"vehicle_type_id":"4","last_reported":1747372275,"current_range_meters":7200,"station_id":"ce4bgt12rcd13ifvqce0","pricing_plan_id":"cebpf4jnsgd1na2vs0mg"},{"bike_id":"9732b575-01d1-4009-b29b-d5b89fec12e6","system_id":"levelo_inurba_marseille","lat":43.32962,"lon":5.4387,"is_reserved":false,"is_disabled":false,"rental_uris":{"android":"levelo://app?vid=9732b575-01d1-4009-b29b-d5b89fec12e6","ios":"levelo://app?vid=9732b575-01d1-4009-b29b-d5b89fec12e6"},"vehicle_type_id":"4","last_reported":1747372275,"current_range_meters":7200,"station_id":"","pricing_plan_id":"cebpf4jnsgd1na2vs0mg"},{"bike_id":"51f24509-4123-43ec-bdb9-3b2ddd52d8c5","system_id":"levelo_inurba_marseille","lat":43.30331,"lon":5.40443,"is_reserved":false,"is_disabled":false,"rental_uris":{"android":"levelo://app?vid=51f24509-4123-43ec-bdb9-3b2ddd52d8c5","ios":"levelo://app?vid=51f24509-4123-43ec-bdb9-3b2ddd52d8c5"},"vehicle_type_id":"4","last_reported":1747372275,"current_range_meters":7200,"station_id":"ce4bh012rcd13ifvqd10","pricing_plan_id":"cebpf4jnsgd1na2vs0mg"},{"bike_id":"38a3b32b-5fec-4261-9ad6-676ce6c58781","system_id":"levelo_inurba_marseille","lat":43.283449,"lon":5.38114,"is_reserved":false,"is_disabled":false,"rental_uris":{"android":"levelo://app?vid=38a3b32b-5fec-4261-9ad6-676ce6c58781","ios":"levelo://app?vid=38a3b32b-5fec-4261-9ad6-676ce6c58781"},"vehicle_type_id":"4","last_reported":1747372275,"current_range_meters":7200,"station_id":"ce4bh412rcd13ifvqdr0","pricing_plan_id":"cebpf4jnsgd1na2vs0mg"},{"bike_id":"7d2364c7-ffb6-4b1e-8e14-8beb924ce27d","system_id":"levelo_inurba_marseille","lat":43.309285,"lon":5.401437,"is_reserved":false,"is_disabled":false,"rental_uris":{"android":"levelo://app?vid=7d2364c7-ffb6-4b1e-8e14-8beb924ce27d","ios":"levelo://app?vid=7d2364c7-ffb6-4b1e-8e14-8beb924ce27d"},"vehicle_type_id":"4","last_reported":1747372275,"current_range_meters":7200,"station_id":"ce4bgvp2rcd13ifvqct0","pricing_plan_id":"cebpf4jnsgd1na2vs0mg"},{"bike_id":"2aae0152-357c-4f1c-9e4f-5af4b8852b8b","system_id":"levelo_inurba_marseille","lat":43.28841,"lon":5.39321,"is_reserved":false,"is_disabled":false,"rental_uris":{"android":"levelo://app?vid=2aae0152-357c-4f1c-9e4f-5af4b8852b8b","ios":"levelo://app?vid=2aae0152-357c-4f1c-9e4f-5af4b8852b8b"},"vehicle_type_id":"4","last_reported":1747372275,"current_range_meters":7200,"station_id":"ce4bh2p2rcd13ifvqdi0","pricing_plan_id":"cebpf4jnsgd1na2vs0mg"},{"bike_id":"fd368a2c-24ee-4354-aec6-35cb06319654","system_id":"levelo_inurba_marseille","lat":43.32355,"lon":5.38893,"is_reserved":false,"is_disabled":false,"rental_uris":{"android":"levelo://app?vid=fd368a2c-24ee-4354-aec6-35cb06319654","ios":"levelo://app?vid=fd368a2c-24ee-4354-aec6-35cb06319654"},"vehicle_type_id":"4","last_reported":1747372275,"current_range_meters":8000,"station_id":"ce4bhqp2rcd13ifvqhog","pricing_plan_id":"cebpf4jnsgd1na2vs0mg"},{"bike_id":"ab35fab0-eec1-4ad7-b829-9f54175780c6","system_id":"levelo_inurba_marseille","lat":43.28944,"lon":5.36622,"is_reserved":false,"is_disabled":true,"rental_uris":{"android":"levelo://app?vid=ab35fab0-eec1-4ad7-b829-9f54175780c6","ios":"levelo://app?vid=ab35fab0-eec1-4ad7-b829-9f54175780c6"},"vehicle_type_id":"4","last_reported":1747372275,"current_range_meters":8000,"station_id":"ce4bhap2rcd13ifvqek0","pricing_plan_id":"cebpf4jnsgd1na2vs0mg"},{"bike_id":"f6704a3d-d1d5-4276-8d60-0c685f34315b","system_id":"levelo_inurba_marseille","lat":43.26022,"lon":5.39413,"is_reserved":false,"is_disabled":false,"rental_uris":{"android":"levelo://app?vid=f6704a3d-d1d5-4276-8d60-0c685f34315b","ios":"levelo://app?vid=f6704a3d-d1d5-4276-8d60-0c685f34315b"},"vehicle_type_id":"4","last_reported":1747372275,"current_range_meters":8000,"station_id":"","pricing_plan_id":"cebpf4jnsgd1na2vs0mg"},{"bike_id":"9ea91f75-93c9-4b84-9e97-5262b4bcb5ae","system_id":"levelo_inurba_marseille","lat":43.23149,"lon":5.4377,"is_reserved":false,"is_disabled":false,"rental_uris":{"android":"levelo://app?vid=9ea91f75-93c9-4b84-9e97-5262b4bcb5ae","ios":"levelo://app?vid=9ea91f75-93c9-4b84-9e97-5262b4bcb5ae"},"vehicle_type_id":"4","last_reported":1747372275,"current_range_meters":8000,"station_id":"ce4bhmp2rcd13ifvqgog","pricing_plan_id":"cebpf4jnsgd1na2vs0mg"},{"bike_id":"2d868c7d-1773-4908-befa-cd0aaed09d96","system_id":"levelo_inurba_marseille","lat":43.32348,"lon":5.38903,"is_reserved":false,"is_disabled":false,"rental_uris":{"android":"levelo://app?vid=2d868c7d-1773-4908-befa-cd0aaed09d96","ios":"levelo://app?vid=2d868c7d-1773-4908-befa-cd0aaed09d96"},"vehicle_type_id":"4","last_reported":1747372275,"current_range_meters":8000,"station_id":"ce4bhqp2rcd13ifvqhog","pricing_plan_id":"cebpf4jnsgd1na2vs0mg"},{"bike_id":"87bc2b84-3165-427e-af54-92da1fcc5ec5","system_id":"levelo_inurba_marseille","lat":43.308761,"lon":5.396408,"is_reserved":false,"is_disabled":false,"rental_uris":{"android":"levelo://app?vid=87bc2b84-3165-427e-af54-92da1fcc5ec5","ios":"levelo://app?vid=87bc2b84-3165-427e-af54-92da1fcc5ec5"},"vehicle_type_id":"4","last_reported":1747372275,"current_range_meters":8000,"station_id":"ce4bh012rcd13ifvqcv0","pricing_plan_id":"cebpf4jnsgd1na2vs0mg"},{"bike_id":"563f7fd1-20e2-4752-bc27-030d36cdf7ad","system_id":"levelo_inurba_marseille","lat":43.30607,"lon":5.37211,"is_reserved":false,"is_disabled":false,"rental_uris":{"android":"levelo://app?vid=563f7fd1-20e2-4752-bc27-030d36cdf7ad","ios":"levelo://app?vid=563f7fd1-20e2-4752-bc27-030d36cdf7ad"},"vehicle_type_id":"4","last_reported":1747372275,"current_range_meters":8000,"station_id":"ce4bgqh2rcd13ifvqc4g","pricing_plan_id":"cebpf4jnsgd1na2vs0mg"},{"bike_id":"40ab6c83-31c1-49f5-a421-e056e87e9982","system_id":"levelo_inurba_marseille","lat":43.30438,"lon":5.39772,"is_reserved":false,"is_disabled":false,"rental_uris":{"android":"levelo://app?vid=40ab6c83-31c1-49f5-a421-e056e87e9982","ios":"levelo://app?vid=40ab6c83-31c1-49f5-a421-e056e87e9982"},"vehicle_type_id":"4","last_reported":1747372275,"current_range_meters":8000,"station_id":"ce4bh092rcd13ifvqd20","pricing_plan_id":"cebpf4jnsgd1na2vs0mg"},{"bike_id":"93c4defd-4e1f-4b9f-80b8-d1004777e427","system_id":"levelo_inurba_marseille","lat":43.24812,"lon":5.37468,"is_reserved":false,"is_disabled":false,"rental_uris":{"android":"levelo://app?vid=93c4defd-4e1f-4b9f-80b8-d1004777e427","ios":"levelo://app?vid=93c4defd-4e1f-4b9f-80b8-d1004777e427"},"vehicle_type_id":"4","last_reported":1747372275,"current_range_meters":8000,"station_id":"ce4bhgh2rcd13ifvqfb0","pricing_plan_id":"cebpf4jnsgd1na2vs0mg"},{"bike_id":"d0e083fd-9bb5-4dce-be7c-8f89f30be34c","system_id":"levelo_inurba_marseille","lat":43.303735,"lon":5.424909,"is_reserved":false,"is_disabled":false,"rental_uris":{"android":"levelo://app?vid=d0e083fd-9bb5-4dce-be7c-8f89f30be34c","ios":"levelo://app?vid=d0e083fd-9bb5-4dce-be7c-8f89f30be34c"},"vehicle_type_id":"4","last_reported":1747372275,"current_range_meters":8000,"station_id":"ce4bhoh2rcd13ifvqh6g","pricing_plan_id":"cebpf4jnsgd1na2vs0mg"},{"bike_id":"561549a2-798d-4052-830a-279630f71645","system_id":"levelo_inurba_marseille","lat":43.28425,"lon":5.35559,"is_reserved":false,"is_disabled":false,"rental_uris":{"android":"levelo://app?vid=561549a2-798d-4052-830a-279630f71645","ios":"levelo://app?vid=561549a2-798d-4052-830a-279630f71645"},"vehicle_type_id":"4","last_reported":1747372275,"current_range_meters":8000,"station_id":"","pricing_plan_id":"cebpf4jnsgd1na2vs0mg"},{"bike_id":"d82bb45b-4460-4710-a034-27bc4844a2be","system_id":"levelo_inurba_marseille","lat":43.25876,"lon":5.39903,"is_reserved":false,"is_disabled":false,"rental_uris":{"android":"levelo://app?vid=d82bb45b-4460-4710-a034-27bc4844a2be","ios":"levelo://app?vid=d82bb45b-4460-4710-a034-27bc4844a2be"},"vehicle_type_id":"4","last_reported":1747372275,"current_range_meters":8000,"station_id":"ce4bhl92rcd13ifvqghg","pricing_plan_id":"cebpf4jnsgd1na2vs0mg"},{"bike_id":"226fac81-bea8-4bc6-bb83-d6b8fd20efc1","system_id":"levelo_inurba_marseille","lat":43.312262,"lon":5.459034,"is_reserved":false,"is_disabled":false,"rental_uris":{"android":"levelo://app?vid=226fac81-bea8-4bc6-bb83-d6b8fd20efc1","ios":"levelo://app?vid=226fac81-bea8-4bc6-bb83-d6b8fd20efc1"},"vehicle_type_id":"4","last_reported":1747372275,"current_range_meters":8000,"station_id":"","pricing_plan_id":"cebpf4jnsgd1na2vs0mg"},{"bike_id":"cb7bd6bf-4a71-4238-b31a-7d8ac199b251","system_id":"levelo_inurba_marseille","lat":43.2868,"lon":5.38698,"is_reserved":false,"is_disabled":false,"rental_uris":{"android":"levelo://app?vid=cb7bd6bf-4a71-4238-b31a-7d8ac199b251","ios":"levelo://app?vid=cb7bd6bf-4a71-4238-b31a-7d8ac199b251"},"vehicle_type_id":"4","last_reported":1747372275,"current_range_meters":7200,"station_id":"ce4bh492rcd13ifvqdug","pricing_plan_id":"cebpf4jnsgd1na2vs0mg"},{"bike_id":"dd8c95a3-e969-408f-8089-0e719bc7e6db","system_id":"levelo_inurba_marseille","lat":43.23147,"lon":5.43708,"is_reserved":false,"is_disabled":false,"rental_uris":{"android":"levelo://app?vid=dd8c95a3-e969-408f-8089-0e719bc7e6db","ios":"levelo://app?vid=dd8c95a3-e969-408f-8089-0e719bc7e6db"},"vehicle_type_id":"4","last_reported":1747372275,"current_range_meters":8000,"station_id":"ce4bhmp2rcd13ifvqgog","pricing_plan_id":"cebpf4jnsgd1na2vs0mg"},{"bike_id":"cdc17061-5a6f-437b-a2d6-ebac9cb6a45e","system_id":"levelo_inurba_marseille","lat":43.3236,"lon":5.40594,"is_reserved":false,"is_disabled":false,"rental_uris":{"android":"levelo://app?vid=cdc17061-5a6f-437b-a2d6-ebac9cb6a45e","ios":"levelo://app?vid=cdc17061-5a6f-437b-a2d6-ebac9cb6a45e"},"vehicle_type_id":"4","last_reported":1747372275,"current_range_meters":8000,"station_id":"ce4bhq92rcd13ifvqhjg","pricing_plan_id":"cebpf4jnsgd1na2vs0mg"},{"bike_id":"b2d49357-e00f-4afd-8409-93894b7274fa","system_id":"levelo_inurba_marseille","lat":43.32043,"lon":5.36813,"is_reserved":false,"is_disabled":false,"rental_uris":{"android":"levelo://app?vid=b2d49357-e00f-4afd-8409-93894b7274fa","ios":"levelo://app?vid=b2d49357-e00f-4afd-8409-93894b7274fa"},"vehicle_type_id":"4","last_reported":1747372275,"current_range_meters":8400,"station_id":"","pricing_plan_id":"cebpf4jnsgd1na2vs0mg"},{"bike_id":"d47aa709-16cd-4003-b5f2-52a3f9556c58","system_id":"levelo_inurba_marseille","lat":43.32338,"lon":5.40627,"is_reserved":false,"is_disabled":false,"rental_uris":{"android":"levelo://app?vid=d47aa709-16cd-4003-b5f2-52a3f9556c58","ios":"levelo://app?vid=d47aa709-16cd-4003-b5f2-52a3f9556c58"},"vehicle_type_id":"4","last_reported":1747372275,"current_range_meters":8400,"station_id":"ce4bhq92rcd13ifvqhjg","pricing_plan_id":"cebpf4jnsgd1na2vs0mg"},{"bike_id":"614a6166-1760-4980-853c-86035facd777","system_id":"levelo_inurba_marseille","lat":43.3322,"lon":5.38043,"is_reserved":false,"is_disabled":false,"rental_uris":{"android":"levelo://app?vid=614a6166-1760-4980-853c-86035facd777","ios":"levelo://app?vid=614a6166-1760-4980-853c-86035facd777"},"vehicle_type_id":"4","last_reported":1747372275,"current_range_meters":8400,"station_id":"","pricing_plan_id":"cebpf4jnsgd1na2vs0mg"},{"bike_id":"7589aa3c-663d-4b9a-82a9-c7c89bfde8f2","system_id":"levelo_inurba_marseille","lat":43.2842,"lon":5.37529,"is_reserved":false,"is_disabled":false,"rental_uris":{"android":"levelo://app?vid=7589aa3c-663d-4b9a-82a9-c7c89bfde8f2","ios":"levelo://app?vid=7589aa3c-663d-4b9a-82a9-c7c89bfde8f2"},"vehicle_type_id":"4","last_reported":1747372275,"current_range_meters":8400,"station_id":"ce4bh412rcd13ifvqds0","pricing_plan_id":"cebpf4jnsgd1na2vs0mg"},{"bike_id":"39e99e57-d2aa-4bcc-b275-e65d73c63c65","system_id":"levelo_inurba_marseille","lat":43.297852,"lon":5.393589,"is_reserved":false,"is_disabled":false,"rental_uris":{"android":"levelo://app?vid=39e99e57-d2aa-4bcc-b275-e65d73c63c65","ios":"levelo://app?vid=39e99e57-d2aa-4bcc-b275-e65d73c63c65"},"vehicle_type_id":"4","last_reported":1747372275,"current_range_meters":8400,"station_id":"chh1huq6cuj3fo74tm60","pricing_plan_id":"cebpf4jnsgd1na2vs0mg"},{"bike_id":"b79a285d-c8f5-444f-8fe8-9016a444cdd9","system_id":"levelo_inurba_marseille","lat":43.29001,"lon":5.35625,"is_reserved":false,"is_disabled":true,"rental_uris":{"android":"levelo://app?vid=b79a285d-c8f5-444f-8fe8-9016a444cdd9","ios":"levelo://app?vid=b79a285d-c8f5-444f-8fe8-9016a444cdd9"},"vehicle_type_id":"4","last_reported":1747372275,"current_range_meters":8400,"station_id":"ce4bhb92rcd13ifvqen0","pricing_plan_id":"cebpf4jnsgd1na2vs0mg"},{"bike_id":"4e716133-12bd-48ef-8462-cdade112f10c","system_id":"levelo_inurba_marseille","lat":43.271312,"lon":5.400236,"is_reserved":false,"is_disabled":false,"rental_uris":{"android":"levelo://app?vid=4e716133-12bd-48ef-8462-cdade112f10c","ios":"levelo://app?vid=4e716133-12bd-48ef-8462-cdade112f10c"},"vehicle_type_id":"4","last_reported":1747372275,"current_range_meters":8400,"station_id":"","pricing_plan_id":"cebpf4jnsgd1na2vs0mg"},{"bike_id":"b131f0d5-6905-4fcb-b71c-3159b3f40acd","system_id":"levelo_inurba_marseille","lat":43.288499,"lon":5.358425,"is_reserved":false,"is_disabled":true,"rental_uris":{"android":"levelo://app?vid=b131f0d5-6905-4fcb-b71c-3159b3f40acd","ios":"levelo://app?vid=b131f0d5-6905-4fcb-b71c-3159b3f40acd"},"vehicle_type_id":"4","last_reported":1747372275,"current_range_meters":8400,"station_id":"ce4bhb12rcd13ifvqem0","pricing_plan_id":"cebpf4jnsgd1na2vs0mg"},{"bike_id":"7f4fc273-1360-4a47-aa6f-29da663bd116","system_id":"levelo_inurba_marseille","lat":43.248916,"lon":5.394108,"is_reserved":false,"is_disabled":false,"rental_uris":{"android":"levelo://app?vid=7f4fc273-1360-4a47-aa6f-29da663bd116","ios":"levelo://app?vid=7f4fc273-1360-4a47-aa6f-29da663bd116"},"vehicle_type_id":"4","last_reported":1747372275,"current_range_meters":8800,"station_id":"","pricing_plan_id":"cebpf4jnsgd1na2vs0mg"},{"bike_id":"4640dc2a-4b4a-4d2b-8eaf-c45eed80b673","system_id":"levelo_inurba_marseille","lat":43.28941,"lon":5.396167,"is_reserved":false,"is_disabled":false,"rental_uris":{"android":"levelo://app?vid=4640dc2a-4b4a-4d2b-8eaf-c45eed80b673","ios":"levelo://app?vid=4640dc2a-4b4a-4d2b-8eaf-c45eed80b673"},"vehicle_type_id":"4","last_reported":1747372275,"current_range_meters":8800,"station_id":"ce4bh3h2rcd13ifvqdn0","pricing_plan_id":"cebpf4jnsgd1na2vs0mg"},{"bike_id":"10ded8fc-c822-4f72-9577-0370ccc44e6e","system_id":"levelo_inurba_marseille","lat":43.27061,"lon":5.40254,"is_reserved":false,"is_disabled":false,"rental_uris":{"android":"levelo://app?vid=10ded8fc-c822-4f72-9577-0370ccc44e6e","ios":"levelo://app?vid=10ded8fc-c822-4f72-9577-0370ccc44e6e"},"vehicle_type_id":"4","last_reported":1747372275,"current_range_meters":8800,"station_id":"ce4bhk92rcd13ifvqgc0","pricing_plan_id":"cebpf4jnsgd1na2vs0mg"},{"bike_id":"0077f398-56b6-43bb-8eeb-9798d08de05c","system_id":"levelo_inurba_marseille","lat":43.30915,"lon":5.372781,"is_reserved":false,"is_disabled":false,"rental_uris":{"android":"levelo://app?vid=0077f398-56b6-43bb-8eeb-9798d08de05c","ios":"levelo://app?vid=0077f398-56b6-43bb-8eeb-9798d08de05c"},"vehicle_type_id":"4","last_reported":1747372275,"current_range_meters":8800,"station_id":"","pricing_plan_id":"cebpf4jnsgd1na2vs0mg"},{"bike_id":"a4254f33-dfdc-4beb-9ee4-21271a8a3aac","system_id":"levelo_inurba_marseille","lat":43.304164,"lon":5.412784,"is_reserved":false,"is_disabled":true,"rental_uris":{"android":"levelo://app?vid=a4254f33-dfdc-4beb-9ee4-21271a8a3aac","ios":"levelo://app?vid=a4254f33-dfdc-4beb-9ee4-21271a8a3aac"},"vehicle_type_id":"4","last_reported":1747372275,"current_range_meters":8800,"station_id":"ce4bhop2rcd13ifvqh8g","pricing_plan_id":"cebpf4jnsgd1na2vs0mg"},{"bike_id":"c93872f9-af6d-4d76-a1fc-804b47931d2f","system_id":"levelo_inurba_marseille","lat":43.280757,"lon":5.396615,"is_reserved":false,"is_disabled":false,"rental_uris":{"android":"levelo://app?vid=c93872f9-af6d-4d76-a1fc-804b47931d2f","ios":"levelo://app?vid=c93872f9-af6d-4d76-a1fc-804b47931d2f"},"vehicle_type_id":"4","last_reported":1747372275,"current_range_meters":8800,"station_id":"ce4bho12rcd13ifvqh2g","pricing_plan_id":"cebpf4jnsgd1na2vs0mg"},{"bike_id":"f8708533-c882-424d-919c-8da02599e742","system_id":"levelo_inurba_marseille","lat":43.32357,"lon":5.38912,"is_reserved":false,"is_disabled":false,"rental_uris":{"android":"levelo://app?vid=f8708533-c882-424d-919c-8da02599e742","ios":"levelo://app?vid=f8708533-c882-424d-919c-8da02599e742"},"vehicle_type_id":"4","last_reported":1747372275,"current_range_meters":9200,"station_id":"ce4bhqp2rcd13ifvqhog","pricing_plan_id":"cebpf4jnsgd1na2vs0mg"},{"bike_id":"69395ec3-f2c3-497b-ba6e-ea857b4662d1","system_id":"levelo_inurba_marseille","lat":43.241722,"lon":5.397158,"is_reserved":false,"is_disabled":false,"rental_uris":{"android":"levelo://app?vid=69395ec3-f2c3-497b-ba6e-ea857b4662d1","ios":"levelo://app?vid=69395ec3-f2c3-497b-ba6e-ea857b4662d1"},"vehicle_type_id":"4","last_reported":1747372275,"current_range_meters":9200,"station_id":"ce4bhn12rcd13ifvqgpg","pricing_plan_id":"cebpf4jnsgd1na2vs0mg"},{"bike_id":"6d9ec646-55e7-4695-ad9b-b6b18d8d0cec","system_id":"levelo_inurba_marseille","lat":43.27055,"lon":5.40266,"is_reserved":false,"is_disabled":false,"rental_uris":{"android":"levelo://app?vid=6d9ec646-55e7-4695-ad9b-b6b18d8d0cec","ios":"levelo://app?vid=6d9ec646-55e7-4695-ad9b-b6b18d8d0cec"},"vehicle_type_id":"4","last_reported":1747372275,"current_range_meters":9200,"station_id":"ce4bhk92rcd13ifvqgc0","pricing_plan_id":"cebpf4jnsgd1na2vs0mg"},{"bike_id":"ba8fb352-1c04-4045-bcb3-375b5491f432","system_id":"levelo_inurba_marseille","lat":43.280855,"lon":5.396559,"is_reserved":false,"is_disabled":false,"rental_uris":{"android":"levelo://app?vid=ba8fb352-1c04-4045-bcb3-375b5491f432","ios":"levelo://app?vid=ba8fb352-1c04-4045-bcb3-375b5491f432"},"vehicle_type_id":"4","last_reported":1747372275,"current_range_meters":9200,"station_id":"ce4bho12rcd13ifvqh2g","pricing_plan_id":"cebpf4jnsgd1na2vs0mg"},{"bike_id":"f768f02c-a770-46ed-b9fb-ed1e435a3c0f","system_id":"levelo_inurba_marseille","lat":43.32921,"lon":5.39008,"is_reserved":false,"is_disabled":false,"rental_uris":{"android":"levelo://app?vid=f768f02c-a770-46ed-b9fb-ed1e435a3c0f","ios":"levelo://app?vid=f768f02c-a770-46ed-b9fb-ed1e435a3c0f"},"vehicle_type_id":"4","last_reported":1747372275,"current_range_meters":9200,"station_id":"","pricing_plan_id":"cebpf4jnsgd1na2vs0mg"},{"bike_id":"15577d04-3e2b-4f99-afaa-ef9ba2ad9697","system_id":"levelo_inurba_marseille","lat":43.25817,"lon":5.39454,"is_reserved":false,"is_disabled":false,"rental_uris":{"android":"levelo://app?vid=15577d04-3e2b-4f99-afaa-ef9ba2ad9697","ios":"levelo://app?vid=15577d04-3e2b-4f99-afaa-ef9ba2ad9697"},"vehicle_type_id":"4","last_reported":1747372275,"current_range_meters":9200,"station_id":"ce4bhip2rcd13ifvqft0","pricing_plan_id":"cebpf4jnsgd1na2vs0mg"},{"bike_id":"502ae137-9adc-44c5-b255-4d39394af312","system_id":"levelo_inurba_marseille","lat":43.286954,"lon":5.399793,"is_reserved":false,"is_disabled":false,"rental_uris":{"android":"levelo://app?vid=502ae137-9adc-44c5-b255-4d39394af312","ios":"levelo://app?vid=502ae137-9adc-44c5-b255-4d39394af312"},"vehicle_type_id":"4","last_reported":1747372275,"current_range_meters":9200,"station_id":"ce4bho92rcd13ifvqh3g","pricing_plan_id":"cebpf4jnsgd1na2vs0mg"},{"bike_id":"0db5f8ec-4da2-4021-b8ac-4ed9f21bf3ed","system_id":"levelo_inurba_marseille","lat":43.30934,"lon":5.40174,"is_reserved":false,"is_disabled":false,"rental_uris":{"android":"levelo://app?vid=0db5f8ec-4da2-4021-b8ac-4ed9f21bf3ed","ios":"levelo://app?vid=0db5f8ec-4da2-4021-b8ac-4ed9f21bf3ed"},"vehicle_type_id":"4","last_reported":1747372275,"current_range_meters":9200,"station_id":"ce4bgvp2rcd13ifvqct0","pricing_plan_id":"cebpf4jnsgd1na2vs0mg"},{"bike_id":"e2e8437d-242f-4cda-8001-7a4b1ad489f2","system_id":"levelo_inurba_marseille","lat":43.27499,"lon":5.42483,"is_reserved":false,"is_disabled":false,"rental_uris":{"android":"levelo://app?vid=e2e8437d-242f-4cda-8001-7a4b1ad489f2","ios":"levelo://app?vid=e2e8437d-242f-4cda-8001-7a4b1ad489f2"},"vehicle_type_id":"4","last_reported":1747372275,"current_range_meters":9200,"station_id":"ce4bhn92rcd13ifvqgrg","pricing_plan_id":"cebpf4jnsgd1na2vs0mg"},{"bike_id":"ab4e5a85-0ffe-4a65-9b04-ab3547a82031","system_id":"levelo_inurba_marseille","lat":43.24177,"lon":5.39743,"is_reserved":false,"is_disabled":false,"rental_uris":{"android":"levelo://app?vid=ab4e5a85-0ffe-4a65-9b04-ab3547a82031","ios":"levelo://app?vid=ab4e5a85-0ffe-4a65-9b04-ab3547a82031"},"vehicle_type_id":"4","last_reported":1747372275,"current_range_meters":9600,"station_id":"ce4bhn12rcd13ifvqgpg","pricing_plan_id":"cebpf4jnsgd1na2vs0mg"},{"bike_id":"cae0301b-3c28-44a2-a9b1-6a06ec7c95a4","system_id":"levelo_inurba_marseille","lat":43.30139,"lon":5.38086,"is_reserved":false,"is_disabled":false,"rental_uris":{"android":"levelo://app?vid=cae0301b-3c28-44a2-a9b1-6a06ec7c95a4","ios":"levelo://app?vid=cae0301b-3c28-44a2-a9b1-6a06ec7c95a4"},"vehicle_type_id":"4","last_reported":1747372275,"current_range_meters":9600,"station_id":"ce4bgjp2rcd13ifvqbh0","pricing_plan_id":"cebpf4jnsgd1na2vs0mg"},{"bike_id":"31bedb95-5fc4-4b24-91b1-10c9cd7506c0","system_id":"levelo_inurba_marseille","lat":43.25837,"lon":5.39439,"is_reserved":false,"is_disabled":false,"rental_uris":{"android":"levelo://app?vid=31bedb95-5fc4-4b24-91b1-10c9cd7506c0","ios":"levelo://app?vid=31bedb95-5fc4-4b24-91b1-10c9cd7506c0"},"vehicle_type_id":"4","last_reported":1747372275,"current_range_meters":9600,"station_id":"ce4bhip2rcd13ifvqft0","pricing_plan_id":"cebpf4jnsgd1na2vs0mg"},{"bike_id":"01638126-3c79-4aa8-b344-42085231ebd4","system_id":"levelo_inurba_marseille","lat":43.34155,"lon":5.40904,"is_reserved":false,"is_disabled":false,"rental_uris":{"android":"levelo://app?vid=01638126-3c79-4aa8-b344-42085231ebd4","ios":"levelo://app?vid=01638126-3c79-4aa8-b344-42085231ebd4"},"vehicle_type_id":"4","last_reported":1747372275,"current_range_meters":9600,"station_id":"ce4bhqh2rcd13ifvqhlg","pricing_plan_id":"cebpf4jnsgd1na2vs0mg"},{"bike_id":"04539c87-76eb-4b45-a743-515c3df3ab81","system_id":"levelo_inurba_marseille","lat":43.28342,"lon":5.38112,"is_reserved":false,"is_disabled":false,"rental_uris":{"android":"levelo://app?vid=04539c87-76eb-4b45-a743-515c3df3ab81","ios":"levelo://app?vid=04539c87-76eb-4b45-a743-515c3df3ab81"},"vehicle_type_id":"4","last_reported":1747372275,"current_range_meters":9600,"station_id":"ce4bh412rcd13ifvqdr0","pricing_plan_id":"cebpf4jnsgd1na2vs0mg"},{"bike_id":"947a60c4-d49a-4d6a-89d8-6b9a9ad0e616","system_id":"levelo_inurba_marseille","lat":43.288483,"lon":5.393449,"is_reserved":false,"is_disabled":true,"rental_uris":{"android":"levelo://app?vid=947a60c4-d49a-4d6a-89d8-6b9a9ad0e616","ios":"levelo://app?vid=947a60c4-d49a-4d6a-89d8-6b9a9ad0e616"},"vehicle_type_id":"4","last_reported":1747372275,"current_range_meters":9600,"station_id":"ce4bh2p2rcd13ifvqdi0","pricing_plan_id":"cebpf4jnsgd1na2vs0mg"},{"bike_id":"bae798e7-633e-435d-a723-56b6d5503baf","system_id":"levelo_inurba_marseille","lat":43.29615,"lon":5.37699,"is_reserved":false,"is_disabled":true,"rental_uris":{"android":"levelo://app?vid=bae798e7-633e-435d-a723-56b6d5503baf","ios":"levelo://app?vid=bae798e7-633e-435d-a723-56b6d5503baf"},"vehicle_type_id":"4","last_reported":1747372275,"current_range_meters":9600,"station_id":"ce4bgi92rcd13ifvqb90","pricing_plan_id":"cebpf4jnsgd1na2vs0mg"},{"bike_id":"0c314a62-9221-4374-bfd3-214225f2f2f3","system_id":"levelo_inurba_marseille","lat":43.31362,"lon":5.38504,"is_reserved":false,"is_disabled":false,"rental_uris":{"android":"levelo://app?vid=0c314a62-9221-4374-bfd3-214225f2f2f3","ios":"levelo://app?vid=0c314a62-9221-4374-bfd3-214225f2f2f3"},"vehicle_type_id":"4","last_reported":1747372275,"current_range_meters":9600,"station_id":"ce4bgt92rcd13ifvqcf0","pricing_plan_id":"cebpf4jnsgd1na2vs0mg"},{"bike_id":"1bb832e8-bb7d-47f8-a679-dc67cf435dea","system_id":"levelo_inurba_marseille","lat":43.27427,"lon":5.39427,"is_reserved":false,"is_disabled":true,"rental_uris":{"android":"levelo://app?vid=1bb832e8-bb7d-47f8-a679-dc67cf435dea","ios":"levelo://app?vid=1bb832e8-bb7d-47f8-a679-dc67cf435dea"},"vehicle_type_id":"4","last_reported":1747372275,"current_range_meters":9600,"station_id":"ce4bhdp2rcd13ifvqf20","pricing_plan_id":"cebpf4jnsgd1na2vs0mg"},{"bike_id":"baaf7988-4492-448e-a326-3fd1a246917b","system_id":"levelo_inurba_marseille","lat":43.3094,"lon":5.40142,"is_reserved":false,"is_disabled":false,"rental_uris":{"android":"levelo://app?vid=baaf7988-4492-448e-a326-3fd1a246917b","ios":"levelo://app?vid=baaf7988-4492-448e-a326-3fd1a246917b"},"vehicle_type_id":"4","last_reported":1747372275,"current_range_meters":10000,"station_id":"ce4bgvp2rcd13ifvqct0","pricing_plan_id":"cebpf4jnsgd1na2vs0mg"},{"bike_id":"e64e4484-2db6-41f4-beb8-e0c0ae1263cd","system_id":"levelo_inurba_marseille","lat":43.285179,"lon":5.430331,"is_reserved":false,"is_disabled":false,"rental_uris":{"android":"levelo://app?vid=e64e4484-2db6-41f4-beb8-e0c0ae1263cd","ios":"levelo://app?vid=e64e4484-2db6-41f4-beb8-e0c0ae1263cd"},"vehicle_type_id":"4","last_reported":1747372275,"current_range_meters":10000,"station_id":"","pricing_plan_id":"cebpf4jnsgd1na2vs0mg"},{"bike_id":"419fd523-3f13-4ce0-b66c-77e0fec9f9af","system_id":"levelo_inurba_marseille","lat":43.30863,"lon":5.3966,"is_reserved":false,"is_disabled":false,"rental_uris":{"android":"levelo://app?vid=419fd523-3f13-4ce0-b66c-77e0fec9f9af","ios":"levelo://app?vid=419fd523-3f13-4ce0-b66c-77e0fec9f9af"},"vehicle_type_id":"4","last_reported":1747372275,"current_range_meters":10000,"station_id":"ce4bh012rcd13ifvqcv0","pricing_plan_id":"cebpf4jnsgd1na2vs0mg"},{"bike_id":"238d7f52-41a9-4d4e-836b-955a6b2dfec8","system_id":"levelo_inurba_marseille","lat":43.281588,"lon":5.426619,"is_reserved":false,"is_disabled":false,"rental_uris":{"android":"levelo://app?vid=238d7f52-41a9-4d4e-836b-955a6b2dfec8","ios":"levelo://app?vid=238d7f52-41a9-4d4e-836b-955a6b2dfec8"},"vehicle_type_id":"4","last_reported":1747372275,"current_range_meters":10000,"station_id":"ce4bhnh2rcd13ifvqgug","pricing_plan_id":"cebpf4jnsgd1na2vs0mg"},{"bike_id":"78628286-8b5d-4c60-a189-e4daf1392526","system_id":"levelo_inurba_marseille","lat":43.30143,"lon":5.37418,"is_reserved":false,"is_disabled":false,"rental_uris":{"android":"levelo://app?vid=78628286-8b5d-4c60-a189-e4daf1392526","ios":"levelo://app?vid=78628286-8b5d-4c60-a189-e4daf1392526"},"vehicle_type_id":"4","last_reported":1747372275,"current_range_meters":9600,"station_id":"ce4bgs92rcd13ifvqcc0","pricing_plan_id":"cebpf4jnsgd1na2vs0mg"},{"bike_id":"f59a5dc9-fa70-4166-b2da-6492441f0daf","system_id":"levelo_inurba_marseille","lat":43.30959,"lon":5.40159,"is_reserved":false,"is_disabled":false,"rental_uris":{"android":"levelo://app?vid=f59a5dc9-fa70-4166-b2da-6492441f0daf","ios":"levelo://app?vid=f59a5dc9-fa70-4166-b2da-6492441f0daf"},"vehicle_type_id":"4","last_reported":1747372275,"current_range_meters":10000,"station_id":"ce4bgvp2rcd13ifvqct0","pricing_plan_id":"cebpf4jnsgd1na2vs0mg"},{"bike_id":"f8e4732a-2ecf-431c-8f66-abc7aabb8aa1","system_id":"levelo_inurba_marseille","lat":43.32948,"lon":5.39,"is_reserved":false,"is_disabled":false,"rental_uris":{"android":"levelo://app?vid=f8e4732a-2ecf-431c-8f66-abc7aabb8aa1","ios":"levelo://app?vid=f8e4732a-2ecf-431c-8f66-abc7aabb8aa1"},"vehicle_type_id":"4","last_reported":1747372275,"current_range_meters":10000,"station_id":"","pricing_plan_id":"cebpf4jnsgd1na2vs0mg"},{"bike_id":"f2296022-863e-4d67-b293-a8f5a5e9dfb7","system_id":"levelo_inurba_marseille","lat":43.32369,"lon":5.40607,"is_reserved":false,"is_disabled":false,"rental_uris":{"android":"levelo://app?vid=f2296022-863e-4d67-b293-a8f5a5e9dfb7","ios":"levelo://app?vid=f2296022-863e-4d67-b293-a8f5a5e9dfb7"},"vehicle_type_id":"4","last_reported":1747372275,"current_range_meters":10000,"station_id":"ce4bhq92rcd13ifvqhjg","pricing_plan_id":"cebpf4jnsgd1na2vs0mg"},{"bike_id":"486ad2be-07e3-43ff-845e-ed2b830c0ab8","system_id":"levelo_inurba_marseille","lat":43.30462,"lon":5.37906,"is_reserved":false,"is_disabled":false,"rental_uris":{"android":"levelo://app?vid=486ad2be-07e3-43ff-845e-ed2b830c0ab8","ios":"levelo://app?vid=486ad2be-07e3-43ff-845e-ed2b830c0ab8"},"vehicle_type_id":"4","last_reported":1747372275,"current_range_meters":10000,"station_id":"ce4bgup2rcd13ifvqcn0","pricing_plan_id":"cebpf4jnsgd1na2vs0mg"},{"bike_id":"86f6a583-8115-47db-928c-9eea2b5263ea","system_id":"levelo_inurba_marseille","lat":43.281626,"lon":5.426441,"is_reserved":false,"is_disabled":false,"rental_uris":{"android":"levelo://app?vid=86f6a583-8115-47db-928c-9eea2b5263ea","ios":"levelo://app?vid=86f6a583-8115-47db-928c-9eea2b5263ea"},"vehicle_type_id":"4","last_reported":1747372275,"current_range_meters":10000,"station_id":"ce4bhnh2rcd13ifvqgug","pricing_plan_id":"cebpf4jnsgd1na2vs0mg"},{"bike_id":"695ee1bf-f908-43ef-b5f9-177f0297b131","system_id":"levelo_inurba_marseille","lat":43.29266,"lon":5.36847,"is_reserved":false,"is_disabled":true,"rental_uris":{"android":"levelo://app?vid=695ee1bf-f908-43ef-b5f9-177f0297b131","ios":"levelo://app?vid=695ee1bf-f908-43ef-b5f9-177f0297b131"},"vehicle_type_id":"4","last_reported":1747372275,"current_range_meters":10800,"station_id":"ce4bhbp2rcd13ifvqesg","pricing_plan_id":"cebpf4jnsgd1na2vs0mg"},{"bike_id":"e2c1c43f-fcb7-45da-b7de-c301dbee091a","system_id":"levelo_inurba_marseille","lat":43.31154,"lon":5.38731,"is_reserved":false,"is_disabled":false,"rental_uris":{"android":"levelo://app?vid=e2c1c43f-fcb7-45da-b7de-c301dbee091a","ios":"levelo://app?vid=e2c1c43f-fcb7-45da-b7de-c301dbee091a"},"vehicle_type_id":"4","last_reported":1747372275,"current_range_meters":10800,"station_id":"ce4bgv12rcd13ifvqcp0","pricing_plan_id":"cebpf4jnsgd1na2vs0mg"},{"bike_id":"8ae19a14-17a7-4943-a3f2-92683c4d9a25","system_id":"levelo_inurba_marseille","lat":43.28645,"lon":5.36354,"is_reserved":false,"is_disabled":false,"rental_uris":{"android":"levelo://app?vid=8ae19a14-17a7-4943-a3f2-92683c4d9a25","ios":"levelo://app?vid=8ae19a14-17a7-4943-a3f2-92683c4d9a25"},"vehicle_type_id":"4","last_reported":1747372275,"current_range_meters":10800,"station_id":"ce4bhah2rcd13ifvqej0","pricing_plan_id":"cebpf4jnsgd1na2vs0mg"},{"bike_id":"d3e2639b-7c24-412b-b298-8de52b944a1a","system_id":"levelo_inurba_marseille","lat":43.27947,"lon":5.41066,"is_reserved":false,"is_disabled":false,"rental_uris":{"android":"levelo://app?vid=d3e2639b-7c24-412b-b298-8de52b944a1a","ios":"levelo://app?vid=d3e2639b-7c24-412b-b298-8de52b944a1a"},"vehicle_type_id":"4","last_reported":1747372275,"current_range_meters":10800,"station_id":"ce4bhnp2rcd13ifvqh0g","pricing_plan_id":"cebpf4jnsgd1na2vs0mg"},{"bike_id":"bd3e560c-5b08-4cd6-bcf6-7477897c3a0d","system_id":"levelo_inurba_marseille","lat":43.32362,"lon":5.36663,"is_reserved":false,"is_disabled":true,"rental_uris":{"android":"levelo://app?vid=bd3e560c-5b08-4cd6-bcf6-7477897c3a0d","ios":"levelo://app?vid=bd3e560c-5b08-4cd6-bcf6-7477897c3a0d"},"vehicle_type_id":"4","last_reported":1747372275,"current_range_meters":10800,"station_id":"","pricing_plan_id":"cebpf4jnsgd1na2vs0mg"},{"bike_id":"ca45ddcd-6a0e-4b93-a7a2-262f4ee54cf8","system_id":"levelo_inurba_marseille","lat":43.284116,"lon":5.375174,"is_reserved":false,"is_disabled":false,"rental_uris":{"android":"levelo://app?vid=ca45ddcd-6a0e-4b93-a7a2-262f4ee54cf8","ios":"levelo://app?vid=ca45ddcd-6a0e-4b93-a7a2-262f4ee54cf8"},"vehicle_type_id":"4","last_reported":1747372275,"current_range_meters":10800,"station_id":"ce4bh412rcd13ifvqds0","pricing_plan_id":"cebpf4jnsgd1na2vs0mg"},{"bike_id":"c84a0417-89cc-4faa-9354-122740b51444","system_id":"levelo_inurba_marseille","lat":43.281093,"lon":5.378378,"is_reserved":false,"is_disabled":false,"rental_uris":{"android":"levelo://app?vid=c84a0417-89cc-4faa-9354-122740b51444","ios":"levelo://app?vid=c84a0417-89cc-4faa-9354-122740b51444"},"vehicle_type_id":"4","last_reported":1747372275,"current_range_meters":10800,"station_id":"ce4bha12rcd13ifvqee0","pricing_plan_id":"cebpf4jnsgd1na2vs0mg"},{"bike_id":"fee57ca9-32ee-4370-941b-c1edf28c6665","system_id":"levelo_inurba_marseille","lat":43.25717,"lon":5.41117,"is_reserved":false,"is_disabled":true,"rental_uris":{"android":"levelo://app?vid=fee57ca9-32ee-4370-941b-c1edf28c6665","ios":"levelo://app?vid=fee57ca9-32ee-4370-941b-c1edf28c6665"},"vehicle_type_id":"4","last_reported":1747372275,"current_range_meters":10800,"station_id":"ce4bhkp2rcd13ifvqgd0","pricing_plan_id":"cebpf4jnsgd1na2vs0mg"},{"bike_id":"46a3e2c1-f297-4f25-9c99-f961a1accd8c","system_id":"levelo_inurba_marseille","lat":43.3313,"lon":5.39131,"is_reserved":false,"is_disabled":false,"rental_uris":{"android":"levelo://app?vid=46a3e2c1-f297-4f25-9c99-f961a1accd8c","ios":"levelo://app?vid=46a3e2c1-f297-4f25-9c99-f961a1accd8c"},"vehicle_type_id":"4","last_reported":1747372275,"current_range_meters":11200,"station_id":"","pricing_plan_id":"cebpf4jnsgd1na2vs0mg"},{"bike_id":"31869b99-0b0b-42a6-86ca-41bf6b86bbcf","system_id":"levelo_inurba_marseille","lat":43.30786,"lon":5.38155,"is_reserved":false,"is_disabled":false,"rental_uris":{"android":"levelo://app?vid=31869b99-0b0b-42a6-86ca-41bf6b86bbcf","ios":"levelo://app?vid=31869b99-0b0b-42a6-86ca-41bf6b86bbcf"},"vehicle_type_id":"4","last_reported":1747372275,"current_range_meters":11200,"station_id":"ce4bgt12rcd13ifvqce0","pricing_plan_id":"cebpf4jnsgd1na2vs0mg"},{"bike_id":"f8d7fe68-d16d-405a-8c34-8a4b7970a9b0","system_id":"levelo_inurba_marseille","lat":43.28499,"lon":5.38417,"is_reserved":false,"is_disabled":false,"rental_uris":{"android":"levelo://app?vid=f8d7fe68-d16d-405a-8c34-8a4b7970a9b0","ios":"levelo://app?vid=f8d7fe68-d16d-405a-8c34-8a4b7970a9b0"},"vehicle_type_id":"4","last_reported":1747372275,"current_range_meters":11200,"station_id":"ce4bh512rcd13ifvqe3g","pricing_plan_id":"cebpf4jnsgd1na2vs0mg"},{"bike_id":"027f72d8-88c3-409a-9f83-3afde0954f18","system_id":"levelo_inurba_marseille","lat":43.302522,"lon":5.396958,"is_reserved":false,"is_disabled":false,"rental_uris":{"android":"levelo://app?vid=027f72d8-88c3-409a-9f83-3afde0954f18","ios":"levelo://app?vid=027f72d8-88c3-409a-9f83-3afde0954f18"},"vehicle_type_id":"4","last_reported":1747372275,"current_range_meters":11200,"station_id":"","pricing_plan_id":"cebpf4jnsgd1na2vs0mg"},{"bike_id":"33455283-49e5-4099-bfe7-352c0548a88b","system_id":"levelo_inurba_marseille","lat":43.26569,"lon":5.39018,"is_reserved":false,"is_disabled":false,"rental_uris":{"android":"levelo://app?vid=33455283-49e5-4099-bfe7-352c0548a88b","ios":"levelo://app?vid=33455283-49e5-4099-bfe7-352c0548a88b"},"vehicle_type_id":"4","last_reported":1747372275,"current_range_meters":11200,"station_id":"ce4bhe12rcd13ifvqf30","pricing_plan_id":"cebpf4jnsgd1na2vs0mg"},{"bike_id":"a15f8fdb-454f-46a9-bc40-186f54d4cbe9","system_id":"levelo_inurba_marseille","lat":43.28345,"lon":5.381033,"is_reserved":false,"is_disabled":false,"rental_uris":{"android":"levelo://app?vid=a15f8fdb-454f-46a9-bc40-186f54d4cbe9","ios":"levelo://app?vid=a15f8fdb-454f-46a9-bc40-186f54d4cbe9"},"vehicle_type_id":"4","last_reported":1747372275,"current_range_meters":11200,"station_id":"ce4bh412rcd13ifvqdr0","pricing_plan_id":"cebpf4jnsgd1na2vs0mg"},{"bike_id":"5879f203-1394-47e0-9f75-7c405ac331f5","system_id":"levelo_inurba_marseille","lat":43.323661,"lon":5.388904,"is_reserved":false,"is_disabled":false,"rental_uris":{"android":"levelo://app?vid=5879f203-1394-47e0-9f75-7c405ac331f5","ios":"levelo://app?vid=5879f203-1394-47e0-9f75-7c405ac331f5"},"vehicle_type_id":"4","last_reported":1747372275,"current_range_meters":11200,"station_id":"ce4bhqp2rcd13ifvqhog","pricing_plan_id":"cebpf4jnsgd1na2vs0mg"},{"bike_id":"83b63391-d4e8-4297-b40d-24a25654926c","system_id":"levelo_inurba_marseille","lat":43.29535,"lon":5.37501,"is_reserved":false,"is_disabled":false,"rental_uris":{"android":"levelo://app?vid=83b63391-d4e8-4297-b40d-24a25654926c","ios":"levelo://app?vid=83b63391-d4e8-4297-b40d-24a25654926c"},"vehicle_type_id":"4","last_reported":1747372275,"current_range_meters":11200,"station_id":"ce4bgkp2rcd13ifvqbmg","pricing_plan_id":"cebpf4jnsgd1na2vs0mg"},{"bike_id":"9ddfeeff-43a1-46c2-bb2e-57596e41838f","system_id":"levelo_inurba_marseille","lat":43.32324,"lon":5.40618,"is_reserved":false,"is_disabled":false,"rental_uris":{"android":"levelo://app?vid=9ddfeeff-43a1-46c2-bb2e-57596e41838f","ios":"levelo://app?vid=9ddfeeff-43a1-46c2-bb2e-57596e41838f"},"vehicle_type_id":"4","last_reported":1747372275,"current_range_meters":11600,"station_id":"ce4bhq92rcd13ifvqhjg","pricing_plan_id":"cebpf4jnsgd1na2vs0mg"},{"bike_id":"9c15c27f-fcd9-46c8-8f2a-d98c46ce8a5c","system_id":"levelo_inurba_marseille","lat":43.28702,"lon":5.40001,"is_reserved":false,"is_disabled":false,"rental_uris":{"android":"levelo://app?vid=9c15c27f-fcd9-46c8-8f2a-d98c46ce8a5c","ios":"levelo://app?vid=9c15c27f-fcd9-46c8-8f2a-d98c46ce8a5c"},"vehicle_type_id":"4","last_reported":1747372275,"current_range_meters":11600,"station_id":"ce4bho92rcd13ifvqh3g","pricing_plan_id":"cebpf4jnsgd1na2vs0mg"},{"bike_id":"27490127-115e-47c9-a8ae-40f182a32557","system_id":"levelo_inurba_marseille","lat":43.324813,"lon":5.365797,"is_reserved":false,"is_disabled":false,"rental_uris":{"android":"levelo://app?vid=27490127-115e-47c9-a8ae-40f182a32557","ios":"levelo://app?vid=27490127-115e-47c9-a8ae-40f182a32557"},"vehicle_type_id":"4","last_reported":1747372275,"current_range_meters":11200,"station_id":"ce4bhs12rcd13ifvqhvg","pricing_plan_id":"cebpf4jnsgd1na2vs0mg"},{"bike_id":"b030a266-5e0d-4a62-999a-0e92e7e772a9","system_id":"levelo_inurba_marseille","lat":43.30464,"lon":5.37915,"is_reserved":false,"is_disabled":false,"rental_uris":{"android":"levelo://app?vid=b030a266-5e0d-4a62-999a-0e92e7e772a9","ios":"levelo://app?vid=b030a266-5e0d-4a62-999a-0e92e7e772a9"},"vehicle_type_id":"4","last_reported":1747372275,"current_range_meters":11600,"station_id":"ce4bgup2rcd13ifvqcn0","pricing_plan_id":"cebpf4jnsgd1na2vs0mg"},{"bike_id":"bc7cb02a-3bbc-4a14-8946-f8a7e8400647","system_id":"levelo_inurba_marseille","lat":43.31335,"lon":5.39749,"is_reserved":false,"is_disabled":false,"rental_uris":{"android":"levelo://app?vid=bc7cb02a-3bbc-4a14-8946-f8a7e8400647","ios":"levelo://app?vid=bc7cb02a-3bbc-4a14-8946-f8a7e8400647"},"vehicle_type_id":"4","last_reported":1747372275,"current_range_meters":11600,"station_id":"","pricing_plan_id":"cebpf4jnsgd1na2vs0mg"},{"bike_id":"c0b9fd4f-e181-46ce-b0bf-f5119973334f","system_id":"levelo_inurba_marseille","lat":43.33771,"lon":5.37424,"is_reserved":false,"is_disabled":false,"rental_uris":{"android":"levelo://app?vid=c0b9fd4f-e181-46ce-b0bf-f5119973334f","ios":"levelo://app?vid=c0b9fd4f-e181-46ce-b0bf-f5119973334f"},"vehicle_type_id":"4","last_reported":1747372275,"current_range_meters":11600,"station_id":"","pricing_plan_id":"cebpf4jnsgd1na2vs0mg"},{"bike_id":"84e661be-7aee-41c2-88b8-b181c61b3046","system_id":"levelo_inurba_marseille","lat":43.326593,"lon":5.409869,"is_reserved":false,"is_disabled":false,"rental_uris":{"android":"levelo://app?vid=84e661be-7aee-41c2-88b8-b181c61b3046","ios":"levelo://app?vid=84e661be-7aee-41c2-88b8-b181c61b3046"},"vehicle_type_id":"4","last_reported":1747372275,"current_range_meters":12000,"station_id":"ce4bhpp2rcd13ifvqhgg","pricing_plan_id":"cebpf4jnsgd1na2vs0mg"},{"bike_id":"c1fd6ccf-6a05-4dd5-8978-7b6e9911b7d4","system_id":"levelo_inurba_marseille","lat":43.28627,"lon":5.36394,"is_reserved":false,"is_disabled":false,"rental_uris":{"android":"levelo://app?vid=c1fd6ccf-6a05-4dd5-8978-7b6e9911b7d4","ios":"levelo://app?vid=c1fd6ccf-6a05-4dd5-8978-7b6e9911b7d4"},"vehicle_type_id":"4","last_reported":1747372275,"current_range_meters":12400,"station_id":"ce4bhah2rcd13ifvqej0","pricing_plan_id":"cebpf4jnsgd1na2vs0mg"},{"bike_id":"fb9f99d3-3602-46e5-9bb8-30be40fa9d14","system_id":"levelo_inurba_marseille","lat":43.29781,"lon":5.393564,"is_reserved":false,"is_disabled":false,"rental_uris":{"android":"levelo://app?vid=fb9f99d3-3602-46e5-9bb8-30be40fa9d14","ios":"levelo://app?vid=fb9f99d3-3602-46e5-9bb8-30be40fa9d14"},"vehicle_type_id":"4","last_reported":1747372275,"current_range_meters":12400,"station_id":"chh1huq6cuj3fo74tm60","pricing_plan_id":"cebpf4jnsgd1na2vs0mg"},{"bike_id":"0616fca5-17bc-40fd-90cd-c6fb1d29640d","system_id":"levelo_inurba_marseille","lat":43.28973,"lon":5.37842,"is_reserved":false,"is_disabled":true,"rental_uris":{"android":"levelo://app?vid=0616fca5-17bc-40fd-90cd-c6fb1d29640d","ios":"levelo://app?vid=0616fca5-17bc-40fd-90cd-c6fb1d29640d"},"vehicle_type_id":"4","last_reported":1747372275,"current_range_meters":12400,"station_id":"ce4bh9p2rcd13ifvqed0","pricing_plan_id":"cebpf4jnsgd1na2vs0mg"},{"bike_id":"39c7c348-baf3-417a-8df3-30f456f5c866","system_id":"levelo_inurba_marseille","lat":43.321,"lon":5.367957,"is_reserved":false,"is_disabled":false,"rental_uris":{"android":"levelo://app?vid=39c7c348-baf3-417a-8df3-30f456f5c866","ios":"levelo://app?vid=39c7c348-baf3-417a-8df3-30f456f5c866"},"vehicle_type_id":"4","last_reported":1747372275,"current_range_meters":12400,"station_id":"ce4bhrh2rcd13ifvqhug","pricing_plan_id":"cebpf4jnsgd1na2vs0mg"},{"bike_id":"a488853e-8708-42f9-a9f1-40f4dc62e03d","system_id":"levelo_inurba_marseille","lat":43.30551,"lon":5.37314,"is_reserved":false,"is_disabled":false,"rental_uris":{"android":"levelo://app?vid=a488853e-8708-42f9-a9f1-40f4dc62e03d","ios":"levelo://app?vid=a488853e-8708-42f9-a9f1-40f4dc62e03d"},"vehicle_type_id":"4","last_reported":1747372275,"current_range_meters":12400,"station_id":"","pricing_plan_id":"cebpf4jnsgd1na2vs0mg"},{"bike_id":"c6f9916f-9a60-4386-abb3-ae8859f58c65","system_id":"levelo_inurba_marseille","lat":43.23149,"lon":5.43713,"is_reserved":false,"is_disabled":false,"rental_uris":{"android":"levelo://app?vid=c6f9916f-9a60-4386-abb3-ae8859f58c65","ios":"levelo://app?vid=c6f9916f-9a60-4386-abb3-ae8859f58c65"},"vehicle_type_id":"4","last_reported":1747372275,"current_range_meters":12800,"station_id":"ce4bhmp2rcd13ifvqgog","pricing_plan_id":"cebpf4jnsgd1na2vs0mg"},{"bike_id":"1a9db4b2-8abc-4121-a58a-c0496a6b1ee0","system_id":"levelo_inurba_marseille","lat":43.30148,"lon":5.38107,"is_reserved":false,"is_disabled":false,"rental_uris":{"android":"levelo://app?vid=1a9db4b2-8abc-4121-a58a-c0496a6b1ee0","ios":"levelo://app?vid=1a9db4b2-8abc-4121-a58a-c0496a6b1ee0"},"vehicle_type_id":"4","last_reported":1747372275,"current_range_meters":12800,"station_id":"ce4bgjp2rcd13ifvqbh0","pricing_plan_id":"cebpf4jnsgd1na2vs0mg"},{"bike_id":"9b023cfb-2119-4ad7-9a40-ca663e0b8a16","system_id":"levelo_inurba_marseille","lat":43.31325,"lon":5.39713,"is_reserved":false,"is_disabled":false,"rental_uris":{"android":"levelo://app?vid=9b023cfb-2119-4ad7-9a40-ca663e0b8a16","ios":"levelo://app?vid=9b023cfb-2119-4ad7-9a40-ca663e0b8a16"},"vehicle_type_id":"4","last_reported":1747372275,"current_range_meters":12800,"station_id":"ce4bgvp2rcd13ifvqcu0","pricing_plan_id":"cebpf4jnsgd1na2vs0mg"},{"bike_id":"831b9292-6775-490e-851e-418e706a5942","system_id":"levelo_inurba_marseille","lat":43.323376,"lon":5.406212,"is_reserved":false,"is_disabled":false,"rental_uris":{"android":"levelo://app?vid=831b9292-6775-490e-851e-418e706a5942","ios":"levelo://app?vid=831b9292-6775-490e-851e-418e706a5942"},"vehicle_type_id":"4","last_reported":1747372275,"current_range_meters":12800,"station_id":"ce4bhq92rcd13ifvqhjg","pricing_plan_id":"cebpf4jnsgd1na2vs0mg"},{"bike_id":"26173702-3864-4b5e-ab78-221b845e135f","system_id":"levelo_inurba_marseille","lat":43.28703,"lon":5.39979,"is_reserved":false,"is_disabled":false,"rental_uris":{"android":"levelo://app?vid=26173702-3864-4b5e-ab78-221b845e135f","ios":"levelo://app?vid=26173702-3864-4b5e-ab78-221b845e135f"},"vehicle_type_id":"4","last_reported":1747372275,"current_range_meters":13600,"station_id":"ce4bho92rcd13ifvqh3g","pricing_plan_id":"cebpf4jnsgd1na2vs0mg"},{"bike_id":"6d886103-344e-431a-ac80-7f62879d2f7c","system_id":"levelo_inurba_marseille","lat":43.22929,"lon":5.35375,"is_reserved":false,"is_disabled":false,"rental_uris":{"android":"levelo://app?vid=6d886103-344e-431a-ac80-7f62879d2f7c","ios":"levelo://app?vid=6d886103-344e-431a-ac80-7f62879d2f7c"},"vehicle_type_id":"4","last_reported":1747372275,"current_range_meters":13600,"station_id":"cpo3532slgdg3j2ikp40","pricing_plan_id":"cebpf4jnsgd1na2vs0mg"},{"bike_id":"893d59b2-1894-42ba-b17c-0aaa787c4475","system_id":"levelo_inurba_marseille","lat":43.30924,"lon":5.40151,"is_reserved":false,"is_disabled":false,"rental_uris":{"android":"levelo://app?vid=893d59b2-1894-42ba-b17c-0aaa787c4475","ios":"levelo://app?vid=893d59b2-1894-42ba-b17c-0aaa787c4475"},"vehicle_type_id":"4","last_reported":1747372275,"current_range_meters":13600,"station_id":"ce4bgvp2rcd13ifvqct0","pricing_plan_id":"cebpf4jnsgd1na2vs0mg"},{"bike_id":"dd36139e-82a4-4d24-8679-5ef9e1ab4735","system_id":"levelo_inurba_marseille","lat":43.294447,"lon":5.397641,"is_reserved":false,"is_disabled":false,"rental_uris":{"android":"levelo://app?vid=dd36139e-82a4-4d24-8679-5ef9e1ab4735","ios":"levelo://app?vid=dd36139e-82a4-4d24-8679-5ef9e1ab4735"},"vehicle_type_id":"4","last_reported":1747372275,"current_range_meters":13600,"station_id":"ce4bh3h2rcd13ifvqdo0","pricing_plan_id":"cebpf4jnsgd1na2vs0mg"},{"bike_id":"5bf777c9-e29c-4707-862b-c20447962b1e","system_id":"levelo_inurba_marseille","lat":43.25104,"lon":5.40332,"is_reserved":false,"is_disabled":false,"rental_uris":{"android":"levelo://app?vid=5bf777c9-e29c-4707-862b-c20447962b1e","ios":"levelo://app?vid=5bf777c9-e29c-4707-862b-c20447962b1e"},"vehicle_type_id":"4","last_reported":1747372275,"current_range_meters":14000,"station_id":"ce4bhlh2rcd13ifvqgig","pricing_plan_id":"cebpf4jnsgd1na2vs0mg"},{"bike_id":"e37cba0f-a0e5-4e0b-9be5-4bc94f79aefd","system_id":"levelo_inurba_marseille","lat":43.307811,"lon":5.376525,"is_reserved":false,"is_disabled":false,"rental_uris":{"android":"levelo://app?vid=e37cba0f-a0e5-4e0b-9be5-4bc94f79aefd","ios":"levelo://app?vid=e37cba0f-a0e5-4e0b-9be5-4bc94f79aefd"},"vehicle_type_id":"4","last_reported":1747372275,"current_range_meters":14000,"station_id":"ce4bgv92rcd13ifvqcq0","pricing_plan_id":"cebpf4jnsgd1na2vs0mg"},{"bike_id":"2a56cf36-d3fb-4a41-8ebc-23f0abc6d7f1","system_id":"levelo_inurba_marseille","lat":43.211954,"lon":5.350741,"is_reserved":false,"is_disabled":false,"rental_uris":{"android":"levelo://app?vid=2a56cf36-d3fb-4a41-8ebc-23f0abc6d7f1","ios":"levelo://app?vid=2a56cf36-d3fb-4a41-8ebc-23f0abc6d7f1"},"vehicle_type_id":"4","last_reported":1747372275,"current_range_meters":14000,"station_id":"st_cvj6sg6p6f1abm77japg","pricing_plan_id":"cebpf4jnsgd1na2vs0mg"},{"bike_id":"9c69e55b-3827-4551-aa71-02fc928cda04","system_id":"levelo_inurba_marseille","lat":43.32367,"lon":5.38885,"is_reserved":false,"is_disabled":false,"rental_uris":{"android":"levelo://app?vid=9c69e55b-3827-4551-aa71-02fc928cda04","ios":"levelo://app?vid=9c69e55b-3827-4551-aa71-02fc928cda04"},"vehicle_type_id":"4","last_reported":1747372275,"current_range_meters":14400,"station_id":"ce4bhqp2rcd13ifvqhog","pricing_plan_id":"cebpf4jnsgd1na2vs0mg"},{"bike_id":"aa239ba2-f01b-46df-8666-407c5e49459b","system_id":"levelo_inurba_marseille","lat":43.309394,"lon":5.401581,"is_reserved":false,"is_disabled":false,"rental_uris":{"android":"levelo://app?vid=aa239ba2-f01b-46df-8666-407c5e49459b","ios":"levelo://app?vid=aa239ba2-f01b-46df-8666-407c5e49459b"},"vehicle_type_id":"4","last_reported":1747372275,"current_range_meters":14400,"station_id":"ce4bgvp2rcd13ifvqct0","pricing_plan_id":"cebpf4jnsgd1na2vs0mg"},{"bike_id":"64f09dd2-74c9-4c9a-92a1-29a47107cc15","system_id":"levelo_inurba_marseille","lat":43.287265,"lon":5.360845,"is_reserved":false,"is_disabled":false,"rental_uris":{"android":"levelo://app?vid=64f09dd2-74c9-4c9a-92a1-29a47107cc15","ios":"levelo://app?vid=64f09dd2-74c9-4c9a-92a1-29a47107cc15"},"vehicle_type_id":"4","last_reported":1747372275,"current_range_meters":14400,"station_id":"cki0cbj6b192h4jlfktg","pricing_plan_id":"cebpf4jnsgd1na2vs0mg"},{"bike_id":"03b4a5e3-4680-45df-85f4-bc2ebdca5d08","system_id":"levelo_inurba_marseille","lat":43.30139,"lon":5.38079,"is_reserved":false,"is_disabled":false,"rental_uris":{"android":"levelo://app?vid=03b4a5e3-4680-45df-85f4-bc2ebdca5d08","ios":"levelo://app?vid=03b4a5e3-4680-45df-85f4-bc2ebdca5d08"},"vehicle_type_id":"4","last_reported":1747372275,"current_range_meters":14400,"station_id":"ce4bgjp2rcd13ifvqbh0","pricing_plan_id":"cebpf4jnsgd1na2vs0mg"},{"bike_id":"03965549-f847-4165-8711-24a33d1f0f6c","system_id":"levelo_inurba_marseille","lat":43.295373,"lon":5.385461,"is_reserved":false,"is_disabled":true,"rental_uris":{"android":"levelo://app?vid=03965549-f847-4165-8711-24a33d1f0f6c","ios":"levelo://app?vid=03965549-f847-4165-8711-24a33d1f0f6c"},"vehicle_type_id":"4","last_reported":1747372275,"current_range_meters":14400,"station_id":"ce4bgih2rcd13ifvqba0","pricing_plan_id":"cebpf4jnsgd1na2vs0mg"},{"bike_id":"979ea68a-f75c-4dbb-ab4d-632ab323d0a7","system_id":"levelo_inurba_marseille","lat":43.28542,"lon":5.38571,"is_reserved":false,"is_disabled":false,"rental_uris":{"android":"levelo://app?vid=979ea68a-f75c-4dbb-ab4d-632ab323d0a7","ios":"levelo://app?vid=979ea68a-f75c-4dbb-ab4d-632ab323d0a7"},"vehicle_type_id":"4","last_reported":1747372275,"current_range_meters":14400,"station_id":"ce4bh8p2rcd13ifvqeb0","pricing_plan_id":"cebpf4jnsgd1na2vs0mg"},{"bike_id":"52afdb0b-c34a-48f7-a12e-bf0f417fa0ba","system_id":"levelo_inurba_marseille","lat":43.285556,"lon":5.395141,"is_reserved":false,"is_disabled":false,"rental_uris":{"android":"levelo://app?vid=52afdb0b-c34a-48f7-a12e-bf0f417fa0ba","ios":"levelo://app?vid=52afdb0b-c34a-48f7-a12e-bf0f417fa0ba"},"vehicle_type_id":"4","last_reported":1747372275,"current_range_meters":14400,"station_id":"ce4bh292rcd13ifvqdg0","pricing_plan_id":"cebpf4jnsgd1na2vs0mg"},{"bike_id":"ce2feaf1-e146-4e8e-9a03-52795dbc0cc6","system_id":"levelo_inurba_marseille","lat":43.313271,"lon":5.397013,"is_reserved":false,"is_disabled":false,"rental_uris":{"android":"levelo://app?vid=ce2feaf1-e146-4e8e-9a03-52795dbc0cc6","ios":"levelo://app?vid=ce2feaf1-e146-4e8e-9a03-52795dbc0cc6"},"vehicle_type_id":"4","last_reported":1747372275,"current_range_meters":14800,"station_id":"ce4bgvp2rcd13ifvqcu0","pricing_plan_id":"cebpf4jnsgd1na2vs0mg"},{"bike_id":"44ebde39-7f60-4c3c-863a-d4d42bcfc78c","system_id":"levelo_inurba_marseille","lat":43.304273,"lon":5.397539,"is_reserved":false,"is_disabled":false,"rental_uris":{"android":"levelo://app?vid=44ebde39-7f60-4c3c-863a-d4d42bcfc78c","ios":"levelo://app?vid=44ebde39-7f60-4c3c-863a-d4d42bcfc78c"},"vehicle_type_id":"4","last_reported":1747372275,"current_range_meters":14800,"station_id":"ce4bh092rcd13ifvqd20","pricing_plan_id":"cebpf4jnsgd1na2vs0mg"},{"bike_id":"0169bc23-990e-472c-97a8-5c40cdd80d48","system_id":"levelo_inurba_marseille","lat":43.23007,"lon":5.40207,"is_reserved":false,"is_disabled":false,"rental_uris":{"android":"levelo://app?vid=0169bc23-990e-472c-97a8-5c40cdd80d48","ios":"levelo://app?vid=0169bc23-990e-472c-97a8-5c40cdd80d48"},"vehicle_type_id":"4","last_reported":1747372275,"current_range_meters":14800,"station_id":"","pricing_plan_id":"cebpf4jnsgd1na2vs0mg"},{"bike_id":"4aca4fe4-9e8e-4107-a175-ba21c9581ed1","system_id":"levelo_inurba_marseille","lat":43.3089,"lon":5.39628,"is_reserved":false,"is_disabled":false,"rental_uris":{"android":"levelo://app?vid=4aca4fe4-9e8e-4107-a175-ba21c9581ed1","ios":"levelo://app?vid=4aca4fe4-9e8e-4107-a175-ba21c9581ed1"},"vehicle_type_id":"4","last_reported":1747372275,"current_range_meters":14800,"station_id":"ce4bh012rcd13ifvqcv0","pricing_plan_id":"cebpf4jnsgd1na2vs0mg"},{"bike_id":"1594da4d-fa0b-4757-93aa-d987fd61979a","system_id":"levelo_inurba_marseille","lat":43.265541,"lon":5.373032,"is_reserved":false,"is_disabled":true,"rental_uris":{"android":"levelo://app?vid=1594da4d-fa0b-4757-93aa-d987fd61979a","ios":"levelo://app?vid=1594da4d-fa0b-4757-93aa-d987fd61979a"},"vehicle_type_id":"4","last_reported":1747372275,"current_range_meters":14800,"station_id":"ce4bhg12rcd13ifvqf70","pricing_plan_id":"cebpf4jnsgd1na2vs0mg"},{"bike_id":"9d7b4be4-63c3-4607-b754-6e8c8e5de68e","system_id":"levelo_inurba_marseille","lat":43.30792,"lon":5.38153,"is_reserved":false,"is_disabled":false,"rental_uris":{"android":"levelo://app?vid=9d7b4be4-63c3-4607-b754-6e8c8e5de68e","ios":"levelo://app?vid=9d7b4be4-63c3-4607-b754-6e8c8e5de68e"},"vehicle_type_id":"4","last_reported":1747372275,"current_range_meters":14800,"station_id":"ce4bgt12rcd13ifvqce0","pricing_plan_id":"cebpf4jnsgd1na2vs0mg"},{"bike_id":"e5f8dd14-221e-443c-95a3-da91fe7401ee","system_id":"levelo_inurba_marseille","lat":43.28932,"lon":5.36639,"is_reserved":false,"is_disabled":true,"rental_uris":{"android":"levelo://app?vid=e5f8dd14-221e-443c-95a3-da91fe7401ee","ios":"levelo://app?vid=e5f8dd14-221e-443c-95a3-da91fe7401ee"},"vehicle_type_id":"4","last_reported":1747372275,"current_range_meters":14800,"station_id":"ce4bhap2rcd13ifvqek0","pricing_plan_id":"cebpf4jnsgd1na2vs0mg"},{"bike_id":"004deaad-71d8-428c-b44b-9070f09291d4","system_id":"levelo_inurba_marseille","lat":43.318394,"lon":5.37265,"is_reserved":false,"is_disabled":false,"rental_uris":{"android":"levelo://app?vid=004deaad-71d8-428c-b44b-9070f09291d4","ios":"levelo://app?vid=004deaad-71d8-428c-b44b-9070f09291d4"},"vehicle_type_id":"4","last_reported":1747372275,"current_range_meters":14800,"station_id":"","pricing_plan_id":"cebpf4jnsgd1na2vs0mg"},{"bike_id":"4b203683-b233-4af5-a708-ee8d049ad375","system_id":"levelo_inurba_marseille","lat":43.3065,"lon":5.40084,"is_reserved":false,"is_disabled":false,"rental_uris":{"android":"levelo://app?vid=4b203683-b233-4af5-a708-ee8d049ad375","ios":"levelo://app?vid=4b203683-b233-4af5-a708-ee8d049ad375"},"vehicle_type_id":"4","last_reported":1747372275,"current_range_meters":15200,"station_id":"ce4bh112rcd13ifvqda0","pricing_plan_id":"cebpf4jnsgd1na2vs0mg"},{"bike_id":"fc536119-488f-406a-92f3-932a1908171a","system_id":"levelo_inurba_marseille","lat":43.24168,"lon":5.364,"is_reserved":false,"is_disabled":false,"rental_uris":{"android":"levelo://app?vid=fc536119-488f-406a-92f3-932a1908171a","ios":"levelo://app?vid=fc536119-488f-406a-92f3-932a1908171a"},"vehicle_type_id":"4","last_reported":1747372275,"current_range_meters":15200,"station_id":"cpo36qri1sfpv3e86is0","pricing_plan_id":"cebpf4jnsgd1na2vs0mg"},{"bike_id":"225d88a7-bbb1-45c7-845f-1fd1816815a2","system_id":"levelo_inurba_marseille","lat":43.346887,"lon":5.345487,"is_reserved":false,"is_disabled":false,"rental_uris":{"android":"levelo://app?vid=225d88a7-bbb1-45c7-845f-1fd1816815a2","ios":"levelo://app?vid=225d88a7-bbb1-45c7-845f-1fd1816815a2"},"vehicle_type_id":"4","last_reported":1747372275,"current_range_meters":16000,"station_id":"","pricing_plan_id":"cebpf4jnsgd1na2vs0mg"},{"bike_id":"1ec2108b-39d0-4cd0-9356-6ed8a57a94b8","system_id":"levelo_inurba_marseille","lat":43.28553,"lon":5.39515,"is_reserved":false,"is_disabled":false,"rental_uris":{"android":"levelo://app?vid=1ec2108b-39d0-4cd0-9356-6ed8a57a94b8","ios":"levelo://app?vid=1ec2108b-39d0-4cd0-9356-6ed8a57a94b8"},"vehicle_type_id":"4","last_reported":1747372275,"current_range_meters":16000,"station_id":"ce4bh292rcd13ifvqdg0","pricing_plan_id":"cebpf4jnsgd1na2vs0mg"},{"bike_id":"8b22e7f7-efdf-4a4c-afa0-eaaa76a17d66","system_id":"levelo_inurba_marseille","lat":43.292529,"lon":5.409177,"is_reserved":false,"is_disabled":false,"rental_uris":{"android":"levelo://app?vid=8b22e7f7-efdf-4a4c-afa0-eaaa76a17d66","ios":"levelo://app?vid=8b22e7f7-efdf-4a4c-afa0-eaaa76a17d66"},"vehicle_type_id":"4","last_reported":1747372275,"current_range_meters":16000,"station_id":"ce4bh192rcd13ifvqdc0","pricing_plan_id":"cebpf4jnsgd1na2vs0mg"},{"bike_id":"633fcb2a-b0f6-4e02-85b4-46be01c09780","system_id":"levelo_inurba_marseille","lat":43.302081,"lon":5.394686,"is_reserved":false,"is_disabled":false,"rental_uris":{"android":"levelo://app?vid=633fcb2a-b0f6-4e02-85b4-46be01c09780","ios":"levelo://app?vid=633fcb2a-b0f6-4e02-85b4-46be01c09780"},"vehicle_type_id":"4","last_reported":1747372275,"current_range_meters":16000,"station_id":"ce4bh0p2rcd13ifvqd70","pricing_plan_id":"cebpf4jnsgd1na2vs0mg"},{"bike_id":"14c75fad-f012-41d2-b4a9-1138f8ca169b","system_id":"levelo_inurba_marseille","lat":43.308806,"lon":5.396435,"is_reserved":false,"is_disabled":false,"rental_uris":{"android":"levelo://app?vid=14c75fad-f012-41d2-b4a9-1138f8ca169b","ios":"levelo://app?vid=14c75fad-f012-41d2-b4a9-1138f8ca169b"},"vehicle_type_id":"4","last_reported":1747372275,"current_range_meters":16000,"station_id":"ce4bh012rcd13ifvqcv0","pricing_plan_id":"cebpf4jnsgd1na2vs0mg"},{"bike_id":"b80de7a0-16b1-4437-a5dc-bb085beb2687","system_id":"levelo_inurba_marseille","lat":43.316891,"lon":5.404751,"is_reserved":false,"is_disabled":false,"rental_uris":{"android":"levelo://app?vid=b80de7a0-16b1-4437-a5dc-bb085beb2687","ios":"levelo://app?vid=b80de7a0-16b1-4437-a5dc-bb085beb2687"},"vehicle_type_id":"4","last_reported":1747372275,"current_range_meters":16000,"station_id":"ce4bh012rcd13ifvqd00","pricing_plan_id":"cebpf4jnsgd1na2vs0mg"},{"bike_id":"f495968d-d982-4514-ab98-db984cf03219","system_id":"levelo_inurba_marseille","lat":43.314161,"lon":5.38333,"is_reserved":false,"is_disabled":false,"rental_uris":{"android":"levelo://app?vid=f495968d-d982-4514-ab98-db984cf03219","ios":"levelo://app?vid=f495968d-d982-4514-ab98-db984cf03219"},"vehicle_type_id":"4","last_reported":1747372275,"current_range_meters":16400,"station_id":"","pricing_plan_id":"cebpf4jnsgd1na2vs0mg"},{"bike_id":"1c034ea3-212c-4d7a-86f6-31c895bd347f","system_id":"levelo_inurba_marseille","lat":43.290449,"lon":5.39958,"is_reserved":false,"is_disabled":true,"rental_uris":{"android":"levelo://app?vid=1c034ea3-212c-4d7a-86f6-31c895bd347f","ios":"levelo://app?vid=1c034ea3-212c-4d7a-86f6-31c895bd347f"},"vehicle_type_id":"4","last_reported":1747372275,"current_range_meters":16400,"station_id":"ce4bh392rcd13ifvqdm0","pricing_plan_id":"cebpf4jnsgd1na2vs0mg"},{"bike_id":"54a1a73b-9f7a-414c-a48f-eeace73bd9b0","system_id":"levelo_inurba_marseille","lat":43.22497,"lon":5.34819,"is_reserved":false,"is_disabled":false,"rental_uris":{"android":"levelo://app?vid=54a1a73b-9f7a-414c-a48f-eeace73bd9b0","ios":"levelo://app?vid=54a1a73b-9f7a-414c-a48f-eeace73bd9b0"},"vehicle_type_id":"4","last_reported":1747372275,"current_range_meters":16400,"station_id":"st_cvj5dfep6f1abm77gieg","pricing_plan_id":"cebpf4jnsgd1na2vs0mg"},{"bike_id":"97debd90-929f-4fac-82c1-32872a77ce7a","system_id":"levelo_inurba_marseille","lat":43.291902,"lon":5.393322,"is_reserved":false,"is_disabled":false,"rental_uris":{"android":"levelo://app?vid=97debd90-929f-4fac-82c1-32872a77ce7a","ios":"levelo://app?vid=97debd90-929f-4fac-82c1-32872a77ce7a"},"vehicle_type_id":"4","last_reported":1747372275,"current_range_meters":16400,"station_id":"ce4bh192rcd13ifvqdd0","pricing_plan_id":"cebpf4jnsgd1na2vs0mg"},{"bike_id":"6c768ca9-05fa-478b-8b17-af555efc5690","system_id":"levelo_inurba_marseille","lat":43.268597,"lon":5.39395,"is_reserved":false,"is_disabled":false,"rental_uris":{"android":"levelo://app?vid=6c768ca9-05fa-478b-8b17-af555efc5690","ios":"levelo://app?vid=6c768ca9-05fa-478b-8b17-af555efc5690"},"vehicle_type_id":"4","last_reported":1747372275,"current_range_meters":16400,"station_id":"ce4bhh12rcd13ifvqfg0","pricing_plan_id":"cebpf4jnsgd1na2vs0mg"},{"bike_id":"aa53c5b9-c9b8-4906-989e-6e49a1f5abe6","system_id":"levelo_inurba_marseille","lat":43.22939,"lon":5.35379,"is_reserved":false,"is_disabled":false,"rental_uris":{"android":"levelo://app?vid=aa53c5b9-c9b8-4906-989e-6e49a1f5abe6","ios":"levelo://app?vid=aa53c5b9-c9b8-4906-989e-6e49a1f5abe6"},"vehicle_type_id":"4","last_reported":1747372275,"current_range_meters":16400,"station_id":"cpo3532slgdg3j2ikp40","pricing_plan_id":"cebpf4jnsgd1na2vs0mg"},{"bike_id":"7c3446e5-155a-4a63-b3e0-e0de57e85f93","system_id":"levelo_inurba_marseille","lat":43.285664,"lon":5.394972,"is_reserved":false,"is_disabled":false,"rental_uris":{"android":"levelo://app?vid=7c3446e5-155a-4a63-b3e0-e0de57e85f93","ios":"levelo://app?vid=7c3446e5-155a-4a63-b3e0-e0de57e85f93"},"vehicle_type_id":"4","last_reported":1747372275,"current_range_meters":16400,"station_id":"ce4bh292rcd13ifvqdg0","pricing_plan_id":"cebpf4jnsgd1na2vs0mg"},{"bike_id":"6dbb2691-6afd-44a6-adc8-96cdcc1e512d","system_id":"levelo_inurba_marseille","lat":43.22933,"lon":5.35388,"is_reserved":false,"is_disabled":false,"rental_uris":{"android":"levelo://app?vid=6dbb2691-6afd-44a6-adc8-96cdcc1e512d","ios":"levelo://app?vid=6dbb2691-6afd-44a6-adc8-96cdcc1e512d"},"vehicle_type_id":"4","last_reported":1747372275,"current_range_meters":16400,"station_id":"cpo3532slgdg3j2ikp40","pricing_plan_id":"cebpf4jnsgd1na2vs0mg"},{"bike_id":"c18f41fc-b1cf-4e06-8262-8743e71bd6fc","system_id":"levelo_inurba_marseille","lat":43.30766,"lon":5.37669,"is_reserved":false,"is_disabled":false,"rental_uris":{"android":"levelo://app?vid=c18f41fc-b1cf-4e06-8262-8743e71bd6fc","ios":"levelo://app?vid=c18f41fc-b1cf-4e06-8262-8743e71bd6fc"},"vehicle_type_id":"4","last_reported":1747372275,"current_range_meters":16400,"station_id":"ce4bgv92rcd13ifvqcq0","pricing_plan_id":"cebpf4jnsgd1na2vs0mg"},{"bike_id":"cbf0f435-cd84-49d9-a6e7-e2ce025bb7cc","system_id":"levelo_inurba_marseille","lat":43.25118,"lon":5.40322,"is_reserved":false,"is_disabled":true,"rental_uris":{"android":"levelo://app?vid=cbf0f435-cd84-49d9-a6e7-e2ce025bb7cc","ios":"levelo://app?vid=cbf0f435-cd84-49d9-a6e7-e2ce025bb7cc"},"vehicle_type_id":"4","last_reported":1747372275,"current_range_meters":16400,"station_id":"ce4bhlh2rcd13ifvqgig","pricing_plan_id":"cebpf4jnsgd1na2vs0mg"},{"bike_id":"b8f48a03-1b3c-4f41-b74c-2b637af725d5","system_id":"levelo_inurba_marseille","lat":43.30409,"lon":5.397574,"is_reserved":false,"is_disabled":true,"rental_uris":{"android":"levelo://app?vid=b8f48a03-1b3c-4f41-b74c-2b637af725d5","ios":"levelo://app?vid=b8f48a03-1b3c-4f41-b74c-2b637af725d5"},"vehicle_type_id":"4","last_reported":1747372275,"current_range_meters":16400,"station_id":"ce4bh092rcd13ifvqd20","pricing_plan_id":"cebpf4jnsgd1na2vs0mg"},{"bike_id":"85347e80-d8a6-4cd4-bb7e-3a7838fe1632","system_id":"levelo_inurba_marseille","lat":43.30874,"lon":5.39672,"is_reserved":false,"is_disabled":false,"rental_uris":{"android":"levelo://app?vid=85347e80-d8a6-4cd4-bb7e-3a7838fe1632","ios":"levelo://app?vid=85347e80-d8a6-4cd4-bb7e-3a7838fe1632"},"vehicle_type_id":"4","last_reported":1747372275,"current_range_meters":16400,"station_id":"ce4bh012rcd13ifvqcv0","pricing_plan_id":"cebpf4jnsgd1na2vs0mg"},{"bike_id":"0b9d952e-88bb-4174-9217-60bd3036303f","system_id":"levelo_inurba_marseille","lat":43.294401,"lon":5.397588,"is_reserved":false,"is_disabled":false,"rental_uris":{"android":"levelo://app?vid=0b9d952e-88bb-4174-9217-60bd3036303f","ios":"levelo://app?vid=0b9d952e-88bb-4174-9217-60bd3036303f"},"vehicle_type_id":"4","last_reported":1747372275,"current_range_meters":16800,"station_id":"ce4bh3h2rcd13ifvqdo0","pricing_plan_id":"cebpf4jnsgd1na2vs0mg"},{"bike_id":"ea95e8ec-562b-49e7-a15b-4eca8febff1e","system_id":"levelo_inurba_marseille","lat":43.27836,"lon":5.39213,"is_reserved":false,"is_disabled":false,"rental_uris":{"android":"levelo://app?vid=ea95e8ec-562b-49e7-a15b-4eca8febff1e","ios":"levelo://app?vid=ea95e8ec-562b-49e7-a15b-4eca8febff1e"},"vehicle_type_id":"4","last_reported":1747372275,"current_range_meters":16800,"station_id":"ce4bhjp2rcd13ifvqga0","pricing_plan_id":"cebpf4jnsgd1na2vs0mg"},{"bike_id":"f6205ad3-e68f-4455-a06e-4a30dd56d15c","system_id":"levelo_inurba_marseille","lat":43.31355,"lon":5.385,"is_reserved":false,"is_disabled":true,"rental_uris":{"android":"levelo://app?vid=f6205ad3-e68f-4455-a06e-4a30dd56d15c","ios":"levelo://app?vid=f6205ad3-e68f-4455-a06e-4a30dd56d15c"},"vehicle_type_id":"4","last_reported":1747372275,"current_range_meters":16800,"station_id":"ce4bgt92rcd13ifvqcf0","pricing_plan_id":"cebpf4jnsgd1na2vs0mg"},{"bike_id":"6a3c0500-1d12-4f89-970c-349c965c6535","system_id":"levelo_inurba_marseille","lat":43.28655,"lon":5.36349,"is_reserved":false,"is_disabled":false,"rental_uris":{"android":"levelo://app?vid=6a3c0500-1d12-4f89-970c-349c965c6535","ios":"levelo://app?vid=6a3c0500-1d12-4f89-970c-349c965c6535"},"vehicle_type_id":"4","last_reported":1747372275,"current_range_meters":16800,"station_id":"ce4bhah2rcd13ifvqej0","pricing_plan_id":"cebpf4jnsgd1na2vs0mg"},{"bike_id":"54c80718-1468-47f9-9877-bc44f5940722","system_id":"levelo_inurba_marseille","lat":43.211916,"lon":5.350752,"is_reserved":false,"is_disabled":false,"rental_uris":{"android":"levelo://app?vid=54c80718-1468-47f9-9877-bc44f5940722","ios":"levelo://app?vid=54c80718-1468-47f9-9877-bc44f5940722"},"vehicle_type_id":"4","last_reported":1747372275,"current_range_meters":16800,"station_id":"st_cvj6sg6p6f1abm77japg","pricing_plan_id":"cebpf4jnsgd1na2vs0mg"},{"bike_id":"f74baf7d-26c4-4345-8c18-3be305afa581","system_id":"levelo_inurba_marseille","lat":43.288475,"lon":5.358433,"is_reserved":false,"is_disabled":true,"rental_uris":{"android":"levelo://app?vid=f74baf7d-26c4-4345-8c18-3be305afa581","ios":"levelo://app?vid=f74baf7d-26c4-4345-8c18-3be305afa581"},"vehicle_type_id":"4","last_reported":1747372275,"current_range_meters":16800,"station_id":"ce4bhb12rcd13ifvqem0","pricing_plan_id":"cebpf4jnsgd1na2vs0mg"},{"bike_id":"da66c5e5-6e35-4104-b407-ba7ff49a5057","system_id":"levelo_inurba_marseille","lat":43.23185,"lon":5.399954,"is_reserved":false,"is_disabled":false,"rental_uris":{"android":"levelo://app?vid=da66c5e5-6e35-4104-b407-ba7ff49a5057","ios":"levelo://app?vid=da66c5e5-6e35-4104-b407-ba7ff49a5057"},"vehicle_type_id":"4","last_reported":1747372275,"current_range_meters":16800,"station_id":"ce4bhn12rcd13ifvqgqg","pricing_plan_id":"cebpf4jnsgd1na2vs0mg"},{"bike_id":"384b8789-33d5-4c25-a055-f51e5139cca5","system_id":"levelo_inurba_marseille","lat":43.28647,"lon":5.36357,"is_reserved":false,"is_disabled":false,"rental_uris":{"android":"levelo://app?vid=384b8789-33d5-4c25-a055-f51e5139cca5","ios":"levelo://app?vid=384b8789-33d5-4c25-a055-f51e5139cca5"},"vehicle_type_id":"4","last_reported":1747372275,"current_range_meters":16800,"station_id":"ce4bhah2rcd13ifvqej0","pricing_plan_id":"cebpf4jnsgd1na2vs0mg"},{"bike_id":"52016bc0-a3a9-472a-9db6-b483b0182059","system_id":"levelo_inurba_marseille","lat":43.30152,"lon":5.381,"is_reserved":false,"is_disabled":false,"rental_uris":{"android":"levelo://app?vid=52016bc0-a3a9-472a-9db6-b483b0182059","ios":"levelo://app?vid=52016bc0-a3a9-472a-9db6-b483b0182059"},"vehicle_type_id":"4","last_reported":1747372275,"current_range_meters":16800,"station_id":"ce4bgjp2rcd13ifvqbh0","pricing_plan_id":"cebpf4jnsgd1na2vs0mg"},{"bike_id":"e4dcc3d5-4c95-467b-9d7a-5c6a26d477b8","system_id":"levelo_inurba_marseille","lat":43.313256,"lon":5.396911,"is_reserved":false,"is_disabled":false,"rental_uris":{"android":"levelo://app?vid=e4dcc3d5-4c95-467b-9d7a-5c6a26d477b8","ios":"levelo://app?vid=e4dcc3d5-4c95-467b-9d7a-5c6a26d477b8"},"vehicle_type_id":"4","last_reported":1747372275,"current_range_meters":17200,"station_id":"ce4bgvp2rcd13ifvqcu0","pricing_plan_id":"cebpf4jnsgd1na2vs0mg"},{"bike_id":"414cf753-9f7e-48d6-b04e-4fabc33e5ac2","system_id":"levelo_inurba_marseille","lat":43.305343,"lon":5.384393,"is_reserved":false,"is_disabled":true,"rental_uris":{"android":"levelo://app?vid=414cf753-9f7e-48d6-b04e-4fabc33e5ac2","ios":"levelo://app?vid=414cf753-9f7e-48d6-b04e-4fabc33e5ac2"},"vehicle_type_id":"4","last_reported":1747372275,"current_range_meters":17200,"station_id":"ce4bgg92rcd13ifvqb30","pricing_plan_id":"cebpf4jnsgd1na2vs0mg"},{"bike_id":"1904aac7-c1fd-40d7-a04b-0296c3b79556","system_id":"levelo_inurba_marseille","lat":43.2811,"lon":5.37867,"is_reserved":false,"is_disabled":false,"rental_uris":{"android":"levelo://app?vid=1904aac7-c1fd-40d7-a04b-0296c3b79556","ios":"levelo://app?vid=1904aac7-c1fd-40d7-a04b-0296c3b79556"},"vehicle_type_id":"4","last_reported":1747372275,"current_range_meters":17600,"station_id":"ce4bha12rcd13ifvqee0","pricing_plan_id":"cebpf4jnsgd1na2vs0mg"},{"bike_id":"9f5be7ce-18ce-4f3c-a52f-3a25f07f62b8","system_id":"levelo_inurba_marseille","lat":43.28729,"lon":5.36086,"is_reserved":false,"is_disabled":false,"rental_uris":{"android":"levelo://app?vid=9f5be7ce-18ce-4f3c-a52f-3a25f07f62b8","ios":"levelo://app?vid=9f5be7ce-18ce-4f3c-a52f-3a25f07f62b8"},"vehicle_type_id":"4","last_reported":1747372275,"current_range_meters":17600,"station_id":"cki0cbj6b192h4jlfktg","pricing_plan_id":"cebpf4jnsgd1na2vs0mg"},{"bike_id":"9acb7d9b-48e3-4903-9ed7-c44035ece129","system_id":"levelo_inurba_marseille","lat":43.30458,"lon":5.37931,"is_reserved":false,"is_disabled":false,"rental_uris":{"android":"levelo://app?vid=9acb7d9b-48e3-4903-9ed7-c44035ece129","ios":"levelo://app?vid=9acb7d9b-48e3-4903-9ed7-c44035ece129"},"vehicle_type_id":"4","last_reported":1747372275,"current_range_meters":17600,"station_id":"ce4bgup2rcd13ifvqcn0","pricing_plan_id":"cebpf4jnsgd1na2vs0mg"},{"bike_id":"962bb4b7-2028-445d-b199-4a3520b0bc25","system_id":"levelo_inurba_marseille","lat":43.30419,"lon":5.39749,"is_reserved":false,"is_disabled":false,"rental_uris":{"android":"levelo://app?vid=962bb4b7-2028-445d-b199-4a3520b0bc25","ios":"levelo://app?vid=962bb4b7-2028-445d-b199-4a3520b0bc25"},"vehicle_type_id":"4","last_reported":1747372275,"current_range_meters":17600,"station_id":"ce4bh092rcd13ifvqd20","pricing_plan_id":"cebpf4jnsgd1na2vs0mg"},{"bike_id":"98106b70-6f8a-476d-962a-f2bed2e52f0a","system_id":"levelo_inurba_marseille","lat":43.32108,"lon":5.36772,"is_reserved":false,"is_disabled":false,"rental_uris":{"android":"levelo://app?vid=98106b70-6f8a-476d-962a-f2bed2e52f0a","ios":"levelo://app?vid=98106b70-6f8a-476d-962a-f2bed2e52f0a"},"vehicle_type_id":"4","last_reported":1747372275,"current_range_meters":17600,"station_id":"ce4bhrh2rcd13ifvqhug","pricing_plan_id":"cebpf4jnsgd1na2vs0mg"},{"bike_id":"51852100-1c89-4a95-8913-3ae68519611f","system_id":"levelo_inurba_marseille","lat":43.29787,"lon":5.38095,"is_reserved":false,"is_disabled":false,"rental_uris":{"android":"levelo://app?vid=51852100-1c89-4a95-8913-3ae68519611f","ios":"levelo://app?vid=51852100-1c89-4a95-8913-3ae68519611f"},"vehicle_type_id":"4","last_reported":1747372275,"current_range_meters":17200,"station_id":"ce4bgip2rcd13ifvqbb0","pricing_plan_id":"cebpf4jnsgd1na2vs0mg"},{"bike_id":"dbc12823-8428-4fdf-9cdf-6bc4f4bc55e0","system_id":"levelo_inurba_marseille","lat":43.30433,"lon":5.39746,"is_reserved":false,"is_disabled":false,"rental_uris":{"android":"levelo://app?vid=dbc12823-8428-4fdf-9cdf-6bc4f4bc55e0","ios":"levelo://app?vid=dbc12823-8428-4fdf-9cdf-6bc4f4bc55e0"},"vehicle_type_id":"4","last_reported":1747372275,"current_range_meters":17600,"station_id":"ce4bh092rcd13ifvqd20","pricing_plan_id":"cebpf4jnsgd1na2vs0mg"},{"bike_id":"e8cf510a-205e-4cc0-9d7c-c6d408232a5d","system_id":"levelo_inurba_marseille","lat":43.2396,"lon":5.36644,"is_reserved":false,"is_disabled":false,"rental_uris":{"android":"levelo://app?vid=e8cf510a-205e-4cc0-9d7c-c6d408232a5d","ios":"levelo://app?vid=e8cf510a-205e-4cc0-9d7c-c6d408232a5d"},"vehicle_type_id":"4","last_reported":1747372275,"current_range_meters":18000,"station_id":"ce4bhi12rcd13ifvqfp0","pricing_plan_id":"cebpf4jnsgd1na2vs0mg"},{"bike_id":"852ea9ac-6507-488a-87c5-b27d54b34b2e","system_id":"levelo_inurba_marseille","lat":43.281527,"lon":5.426426,"is_reserved":false,"is_disabled":false,"rental_uris":{"android":"levelo://app?vid=852ea9ac-6507-488a-87c5-b27d54b34b2e","ios":"levelo://app?vid=852ea9ac-6507-488a-87c5-b27d54b34b2e"},"vehicle_type_id":"4","last_reported":1747372275,"current_range_meters":18000,"station_id":"ce4bhnh2rcd13ifvqgug","pricing_plan_id":"cebpf4jnsgd1na2vs0mg"},{"bike_id":"73ca5e14-acf1-4d50-acc3-be13a65f46ad","system_id":"levelo_inurba_marseille","lat":43.298604,"lon":5.402648,"is_reserved":false,"is_disabled":false,"rental_uris":{"android":"levelo://app?vid=73ca5e14-acf1-4d50-acc3-be13a65f46ad","ios":"levelo://app?vid=73ca5e14-acf1-4d50-acc3-be13a65f46ad"},"vehicle_type_id":"4","last_reported":1747372275,"current_range_meters":17600,"station_id":"ce4bh0h2rcd13ifvqd60","pricing_plan_id":"cebpf4jnsgd1na2vs0mg"},{"bike_id":"0b024457-9163-476e-8e28-42011b1ade8c","system_id":"levelo_inurba_marseille","lat":43.326531,"lon":5.409851,"is_reserved":false,"is_disabled":false,"rental_uris":{"android":"levelo://app?vid=0b024457-9163-476e-8e28-42011b1ade8c","ios":"levelo://app?vid=0b024457-9163-476e-8e28-42011b1ade8c"},"vehicle_type_id":"4","last_reported":1747372275,"current_range_meters":18000,"station_id":"ce4bhpp2rcd13ifvqhgg","pricing_plan_id":"cebpf4jnsgd1na2vs0mg"},{"bike_id":"9960ecab-d23c-46d3-9660-94d401317fd1","system_id":"levelo_inurba_marseille","lat":43.31324,"lon":5.39713,"is_reserved":false,"is_disabled":false,"rental_uris":{"android":"levelo://app?vid=9960ecab-d23c-46d3-9660-94d401317fd1","ios":"levelo://app?vid=9960ecab-d23c-46d3-9660-94d401317fd1"},"vehicle_type_id":"4","last_reported":1747372275,"current_range_meters":18000,"station_id":"ce4bgvp2rcd13ifvqcu0","pricing_plan_id":"cebpf4jnsgd1na2vs0mg"},{"bike_id":"d854ef9e-7846-4ce1-8a0b-020b8f8fc3d4","system_id":"levelo_inurba_marseille","lat":43.310716,"lon":5.383541,"is_reserved":false,"is_disabled":false,"rental_uris":{"android":"levelo://app?vid=d854ef9e-7846-4ce1-8a0b-020b8f8fc3d4","ios":"levelo://app?vid=d854ef9e-7846-4ce1-8a0b-020b8f8fc3d4"},"vehicle_type_id":"4","last_reported":1747372275,"current_range_meters":18000,"station_id":"ce4bgv92rcd13ifvqcr0","pricing_plan_id":"cebpf4jnsgd1na2vs0mg"},{"bike_id":"71e6dd97-29a8-4fb0-95d3-c3c7f47cb2f6","system_id":"levelo_inurba_marseille","lat":43.32332,"lon":5.40575,"is_reserved":false,"is_disabled":false,"rental_uris":{"android":"levelo://app?vid=71e6dd97-29a8-4fb0-95d3-c3c7f47cb2f6","ios":"levelo://app?vid=71e6dd97-29a8-4fb0-95d3-c3c7f47cb2f6"},"vehicle_type_id":"4","last_reported":1747372275,"current_range_meters":18000,"station_id":"ce4bhq92rcd13ifvqhjg","pricing_plan_id":"cebpf4jnsgd1na2vs0mg"},{"bike_id":"61f7c650-f1c2-4a45-9d42-3ba6320a1a99","system_id":"levelo_inurba_marseille","lat":43.27922,"lon":5.39575,"is_reserved":false,"is_disabled":true,"rental_uris":{"android":"levelo://app?vid=61f7c650-f1c2-4a45-9d42-3ba6320a1a99","ios":"levelo://app?vid=61f7c650-f1c2-4a45-9d42-3ba6320a1a99"},"vehicle_type_id":"4","last_reported":1747372275,"current_range_meters":18800,"station_id":"ce4bhf92rcd13ifvqf40","pricing_plan_id":"cebpf4jnsgd1na2vs0mg"},{"bike_id":"007f087c-c3f7-4b0d-bcc0-1d9d45e1ec16","system_id":"levelo_inurba_marseille","lat":43.235789,"lon":5.403324,"is_reserved":false,"is_disabled":false,"rental_uris":{"android":"levelo://app?vid=007f087c-c3f7-4b0d-bcc0-1d9d45e1ec16","ios":"levelo://app?vid=007f087c-c3f7-4b0d-bcc0-1d9d45e1ec16"},"vehicle_type_id":"4","last_reported":1747372275,"current_range_meters":18800,"station_id":"","pricing_plan_id":"cebpf4jnsgd1na2vs0mg"},{"bike_id":"8d722355-96cb-403c-b6c6-81f5208deb33","system_id":"levelo_inurba_marseille","lat":43.2856,"lon":5.39521,"is_reserved":false,"is_disabled":false,"rental_uris":{"android":"levelo://app?vid=8d722355-96cb-403c-b6c6-81f5208deb33","ios":"levelo://app?vid=8d722355-96cb-403c-b6c6-81f5208deb33"},"vehicle_type_id":"4","last_reported":1747372275,"current_range_meters":18800,"station_id":"ce4bh292rcd13ifvqdg0","pricing_plan_id":"cebpf4jnsgd1na2vs0mg"},{"bike_id":"97b15f4f-49fd-4069-adf6-51d0a8ed6043","system_id":"levelo_inurba_marseille","lat":43.285577,"lon":5.395079,"is_reserved":false,"is_disabled":false,"rental_uris":{"android":"levelo://app?vid=97b15f4f-49fd-4069-adf6-51d0a8ed6043","ios":"levelo://app?vid=97b15f4f-49fd-4069-adf6-51d0a8ed6043"},"vehicle_type_id":"4","last_reported":1747372275,"current_range_meters":18800,"station_id":"ce4bh292rcd13ifvqdg0","pricing_plan_id":"cebpf4jnsgd1na2vs0mg"},{"bike_id":"680938f3-c3e8-44ed-a520-cb983b0c28aa","system_id":"levelo_inurba_marseille","lat":43.29439,"lon":5.3977,"is_reserved":false,"is_disabled":false,"rental_uris":{"android":"levelo://app?vid=680938f3-c3e8-44ed-a520-cb983b0c28aa","ios":"levelo://app?vid=680938f3-c3e8-44ed-a520-cb983b0c28aa"},"vehicle_type_id":"4","last_reported":1747372275,"current_range_meters":18800,"station_id":"ce4bh3h2rcd13ifvqdo0","pricing_plan_id":"cebpf4jnsgd1na2vs0mg"},{"bike_id":"9764e2d5-405d-4fff-ba9f-770df7ddfddc","system_id":"levelo_inurba_marseille","lat":43.26107,"lon":5.41479,"is_reserved":false,"is_disabled":false,"rental_uris":{"android":"levelo://app?vid=9764e2d5-405d-4fff-ba9f-770df7ddfddc","ios":"levelo://app?vid=9764e2d5-405d-4fff-ba9f-770df7ddfddc"},"vehicle_type_id":"4","last_reported":1747372275,"current_range_meters":18800,"station_id":"","pricing_plan_id":"cebpf4jnsgd1na2vs0mg"},{"bike_id":"553ff6fc-fcab-4218-9c0f-0b8c49456d21","system_id":"levelo_inurba_marseille","lat":43.30153,"lon":5.38095,"is_reserved":false,"is_disabled":false,"rental_uris":{"android":"levelo://app?vid=553ff6fc-fcab-4218-9c0f-0b8c49456d21","ios":"levelo://app?vid=553ff6fc-fcab-4218-9c0f-0b8c49456d21"},"vehicle_type_id":"4","last_reported":1747372275,"current_range_meters":19200,"station_id":"ce4bgjp2rcd13ifvqbh0","pricing_plan_id":"cebpf4jnsgd1na2vs0mg"},{"bike_id":"7d84667d-b2ef-4727-a03f-d1bb8d4f5feb","system_id":"levelo_inurba_marseille","lat":43.30922,"lon":5.4016,"is_reserved":false,"is_disabled":false,"rental_uris":{"android":"levelo://app?vid=7d84667d-b2ef-4727-a03f-d1bb8d4f5feb","ios":"levelo://app?vid=7d84667d-b2ef-4727-a03f-d1bb8d4f5feb"},"vehicle_type_id":"4","last_reported":1747372275,"current_range_meters":19200,"station_id":"ce4bgvp2rcd13ifvqct0","pricing_plan_id":"cebpf4jnsgd1na2vs0mg"},{"bike_id":"4801e349-13cb-4c16-b7ff-8b9d8c89c482","system_id":"levelo_inurba_marseille","lat":43.292809,"lon":5.401341,"is_reserved":false,"is_disabled":false,"rental_uris":{"android":"levelo://app?vid=4801e349-13cb-4c16-b7ff-8b9d8c89c482","ios":"levelo://app?vid=4801e349-13cb-4c16-b7ff-8b9d8c89c482"},"vehicle_type_id":"4","last_reported":1747372275,"current_range_meters":19200,"station_id":"ce4bh312rcd13ifvqdk0","pricing_plan_id":"cebpf4jnsgd1na2vs0mg"},{"bike_id":"4ce2d3ca-784a-4422-87fe-9c70d05db309","system_id":"levelo_inurba_marseille","lat":43.251107,"lon":5.403274,"is_reserved":false,"is_disabled":false,"rental_uris":{"android":"levelo://app?vid=4ce2d3ca-784a-4422-87fe-9c70d05db309","ios":"levelo://app?vid=4ce2d3ca-784a-4422-87fe-9c70d05db309"},"vehicle_type_id":"4","last_reported":1747372275,"current_range_meters":19200,"station_id":"ce4bhlh2rcd13ifvqgig","pricing_plan_id":"cebpf4jnsgd1na2vs0mg"},{"bike_id":"b04bd58d-ab68-46b4-9085-1ddf540e912e","system_id":"levelo_inurba_marseille","lat":43.240798,"lon":5.37748,"is_reserved":false,"is_disabled":true,"rental_uris":{"android":"levelo://app?vid=b04bd58d-ab68-46b4-9085-1ddf540e912e","ios":"levelo://app?vid=b04bd58d-ab68-46b4-9085-1ddf540e912e"},"vehicle_type_id":"4","last_reported":1747372275,"current_range_meters":19200,"station_id":"ce4bhnp2rcd13ifvqgvg","pricing_plan_id":"cebpf4jnsgd1na2vs0mg"},{"bike_id":"cb1d7e43-3f54-4ca4-b7bc-d2c867dfb02e","system_id":"levelo_inurba_marseille","lat":43.25003,"lon":5.38936,"is_reserved":false,"is_disabled":false,"rental_uris":{"android":"levelo://app?vid=cb1d7e43-3f54-4ca4-b7bc-d2c867dfb02e","ios":"levelo://app?vid=cb1d7e43-3f54-4ca4-b7bc-d2c867dfb02e"},"vehicle_type_id":"4","last_reported":1747372275,"current_range_meters":19600,"station_id":"ce4bhgp2rcd13ifvqfd0","pricing_plan_id":"cebpf4jnsgd1na2vs0mg"},{"bike_id":"540af681-cd16-436d-b25d-6439867dee89","system_id":"levelo_inurba_marseille","lat":43.29166,"lon":5.39323,"is_reserved":false,"is_disabled":false,"rental_uris":{"android":"levelo://app?vid=540af681-cd16-436d-b25d-6439867dee89","ios":"levelo://app?vid=540af681-cd16-436d-b25d-6439867dee89"},"vehicle_type_id":"4","last_reported":1747372275,"current_range_meters":19600,"station_id":"ce4bh192rcd13ifvqdd0","pricing_plan_id":"cebpf4jnsgd1na2vs0mg"},{"bike_id":"802c4d63-595a-41d7-9c4d-874ae820ff7d","system_id":"levelo_inurba_marseille","lat":43.28589,"lon":5.3954,"is_reserved":false,"is_disabled":false,"rental_uris":{"android":"levelo://app?vid=802c4d63-595a-41d7-9c4d-874ae820ff7d","ios":"levelo://app?vid=802c4d63-595a-41d7-9c4d-874ae820ff7d"},"vehicle_type_id":"4","last_reported":1747372275,"current_range_meters":19600,"station_id":"ce4bh292rcd13ifvqdg0","pricing_plan_id":"cebpf4jnsgd1na2vs0mg"},{"bike_id":"6c59ec11-08e0-4847-a8a1-f1ac43c8e633","system_id":"levelo_inurba_marseille","lat":43.30814,"lon":5.38162,"is_reserved":false,"is_disabled":false,"rental_uris":{"android":"levelo://app?vid=6c59ec11-08e0-4847-a8a1-f1ac43c8e633","ios":"levelo://app?vid=6c59ec11-08e0-4847-a8a1-f1ac43c8e633"},"vehicle_type_id":"4","last_reported":1747372275,"current_range_meters":19600,"station_id":"ce4bgt12rcd13ifvqce0","pricing_plan_id":"cebpf4jnsgd1na2vs0mg"},{"bike_id":"b83ffb1d-7504-46d4-b238-0cc84b20f48e","system_id":"levelo_inurba_marseille","lat":43.260604,"lon":5.39399,"is_reserved":false,"is_disabled":false,"rental_uris":{"android":"levelo://app?vid=b83ffb1d-7504-46d4-b238-0cc84b20f48e","ios":"levelo://app?vid=b83ffb1d-7504-46d4-b238-0cc84b20f48e"},"vehicle_type_id":"4","last_reported":1747372275,"current_range_meters":19600,"station_id":"ce4bhh92rcd13ifvqfj0","pricing_plan_id":"cebpf4jnsgd1na2vs0mg"},{"bike_id":"00ac17bf-5607-47dd-bda5-8f251ad01495","system_id":"levelo_inurba_marseille","lat":43.27969,"lon":5.41041,"is_reserved":false,"is_disabled":false,"rental_uris":{"android":"levelo://app?vid=00ac17bf-5607-47dd-bda5-8f251ad01495","ios":"levelo://app?vid=00ac17bf-5607-47dd-bda5-8f251ad01495"},