{"last_updated":1737990532,"ttl":60,"version":"2.2","data":{"bikes":[{"bike_id":"cb675d55-e5c8-4982-aca6-2a4540f10435","system_id":"levelo_inurba_marseille","lat":43.29846,"lon":5.36256,"is_reserved":false,"is_disabled":false,"rental_uris":{"android":"levelo://app?vid=cb675d55-e5c8-4982-aca6-2a4540f10435","ios":"levelo://app?vid=cb675d55-e5c8-4982-aca6-2a4540f10435"},"vehicle_type_id":"4","last_reported":1737990532,"current_range_meters":12400,"station_id":"ce4bgpp2rcd13ifvqc3g","pricing_plan_id":"cebpf4jnsgd1na2vs0mg"},{"bike_id":"63acd923-61c8-4f72-b874-60475bdd1f38","system_id":"levelo_inurba_marseille","lat":43.29096,"lon":5.3813,"is_reserved":false,"is_disabled":false,"rental_uris":{"android":"levelo://app?vid=63acd923-61c8-4f72-b874-60475bdd1f38","ios":"levelo://app?vid=63acd923-61c8-4f72-b874-60475bdd1f38"},"vehicle_type_id":"4","last_reported":1737990532,"current_range_meters":36000,"station_id":"ce4bh512rcd13ifvqe2g","pricing_plan_id":"cebpf4jnsgd1na2vs0mg"},{"bike_id":"9e7fd707-8ed1-4839-9e5f-3826801c97d3","system_id":"levelo_inurba_marseille","lat":43.27998,"lon":5.41674,"is_reserved":false,"is_disabled":false,"rental_uris":{"android":"levelo://app?vid=9e7fd707-8ed1-4839-9e5f-3826801c97d3","ios":"levelo://app?vid=9e7fd707-8ed1-4839-9e5f-3826801c97d3"},"vehicle_type_id":"4","last_reported":1737990532,"current_range_meters":32400,"station_id":"ce4bho12rcd13ifvqh1g","pricing_plan_id":"cebpf4jnsgd1na2vs0mg"},{"bike_id":"d999704f-e81a-492f-bc4f-4f7e2ff7e922","system_id":"levelo_inurba_marseille","lat":43.25717,"lon":5.410847,"is_reserved":false,"is_disabled":false,"rental_uris":{"android":"levelo://app?vid=d999704f-e81a-492f-bc4f-4f7e2ff7e922","ios":"levelo://app?vid=d999704f-e81a-492f-bc4f-4f7e2ff7e922"},"vehicle_type_id":"4","last_reported":1737990532,"current_range_meters":38800,"station_id":"ce4bhkp2rcd13ifvqgd0","pricing_plan_id":"cebpf4jnsgd1na2vs0mg"},{"bike_id":"dd11fd2e-1ee0-432c-a2bd-62f6cda2184d","system_id":"levelo_inurba_marseille","lat":43.2957,"lon":5.37497,"is_reserved":false,"is_disabled":false,"rental_uris":{"android":"levelo://app?vid=dd11fd2e-1ee0-432c-a2bd-62f6cda2184d","ios":"levelo://app?vid=dd11fd2e-1ee0-432c-a2bd-62f6cda2184d"},"vehicle_type_id":"4","last_reported":1737990532,"current_range_meters":10000,"station_id":"ce4bgh92rcd13ifvqb50","pricing_plan_id":"cebpf4jnsgd1na2vs0mg"},{"bike_id":"4d940064-b824-4a11-beba-274fe2b1f838","system_id":"levelo_inurba_marseille","lat":43.33761,"lon":5.37449,"is_reserved":false,"is_disabled":false,"rental_uris":{"android":"levelo://app?vid=4d940064-b824-4a11-beba-274fe2b1f838","ios":"levelo://app?vid=4d940064-b824-4a11-beba-274fe2b1f838"},"vehicle_type_id":"4","last_reported":1737990532,"current_range_meters":38800,"station_id":"","pricing_plan_id":"cebpf4jnsgd1na2vs0mg"},{"bike_id":"dd704602-b2bd-4f89-9213-a81ce54a9d13","system_id":"levelo_inurba_marseille","lat":43.3056,"lon":5.36476,"is_reserved":false,"is_disabled":false,"rental_uris":{"android":"levelo://app?vid=dd704602-b2bd-4f89-9213-a81ce54a9d13","ios":"levelo://app?vid=dd704602-b2bd-4f89-9213-a81ce54a9d13"},"vehicle_type_id":"4","last_reported":1737990532,"current_range_meters":27200,"station_id":"","pricing_plan_id":"cebpf4jnsgd1na2vs0mg"},{"bike_id":"4bd5de1a-99c3-4b8a-ac3d-e4e0c9fc1d4a","system_id":"levelo_inurba_marseille","lat":43.32094,"lon":5.36755,"is_reserved":false,"is_disabled":false,"rental_uris":{"android":"levelo://app?vid=4bd5de1a-99c3-4b8a-ac3d-e4e0c9fc1d4a","ios":"levelo://app?vid=4bd5de1a-99c3-4b8a-ac3d-e4e0c9fc1d4a"},"vehicle_type_id":"4","last_reported":1737990532,"current_range_meters":8400,"station_id":"ce4bhrh2rcd13ifvqhug","pricing_plan_id":"cebpf4jnsgd1na2vs0mg"},{"bike_id":"d4991402-c927-4b10-bbbb-2e9040e8ff90","system_id":"levelo_inurba_marseille","lat":43.3122,"lon":5.36861,"is_reserved":false,"is_disabled":false,"rental_uris":{"android":"levelo://app?vid=d4991402-c927-4b10-bbbb-2e9040e8ff90","ios":"levelo://app?vid=d4991402-c927-4b10-bbbb-2e9040e8ff90"},"vehicle_type_id":"4","last_reported":1737990532,"current_range_meters":29600,"station_id":"ce4bgl92rcd13ifvqbq0","pricing_plan_id":"cebpf4jnsgd1na2vs0mg"},{"bike_id":"3005e2c2-ebb3-4e94-95e8-b24751daa148","system_id":"levelo_inurba_marseille","lat":43.26789,"lon":5.39413,"is_reserved":false,"is_disabled":false,"rental_uris":{"android":"levelo://app?vid=3005e2c2-ebb3-4e94-95e8-b24751daa148","ios":"levelo://app?vid=3005e2c2-ebb3-4e94-95e8-b24751daa148"},"vehicle_type_id":"4","last_reported":1737990532,"current_range_meters":33200,"station_id":"ce4bhh12rcd13ifvqfg0","pricing_plan_id":"cebpf4jnsgd1na2vs0mg"},{"bike_id":"30e19aed-21c0-4e2e-b5de-2be87060f860","system_id":"levelo_inurba_marseille","lat":43.28151,"lon":5.42642,"is_reserved":false,"is_disabled":false,"rental_uris":{"android":"levelo://app?vid=30e19aed-21c0-4e2e-b5de-2be87060f860","ios":"levelo://app?vid=30e19aed-21c0-4e2e-b5de-2be87060f860"},"vehicle_type_id":"4","last_reported":1737990532,"current_range_meters":34000,"station_id":"ce4bhnh2rcd13ifvqgug","pricing_plan_id":"cebpf4jnsgd1na2vs0mg"},{"bike_id":"97ac004b-e7a6-4b84-ae16-8aaebd20c412","system_id":"levelo_inurba_marseille","lat":43.28266,"lon":5.35063,"is_reserved":false,"is_disabled":false,"rental_uris":{"android":"levelo://app?vid=97ac004b-e7a6-4b84-ae16-8aaebd20c412","ios":"levelo://app?vid=97ac004b-e7a6-4b84-ae16-8aaebd20c412"},"vehicle_type_id":"4","last_reported":1737990532,"current_range_meters":33200,"station_id":"ce4bhbp2rcd13ifvqerg","pricing_plan_id":"cebpf4jnsgd1na2vs0mg"},{"bike_id":"d6755dc8-d9a9-49dc-8a8f-22ec6b86e111","system_id":"levelo_inurba_marseille","lat":43.2815,"lon":5.42619,"is_reserved":false,"is_disabled":false,"rental_uris":{"android":"levelo://app?vid=d6755dc8-d9a9-49dc-8a8f-22ec6b86e111","ios":"levelo://app?vid=d6755dc8-d9a9-49dc-8a8f-22ec6b86e111"},"vehicle_type_id":"4","last_reported":1737990532,"current_range_meters":29600,"station_id":"ce4bhnh2rcd13ifvqgug","pricing_plan_id":"cebpf4jnsgd1na2vs0mg"},{"bike_id":"22fe6381-bfa8-481c-9415-4e6666169356","system_id":"levelo_inurba_marseille","lat":43.26566,"lon":5.39022,"is_reserved":false,"is_disabled":false,"rental_uris":{"android":"levelo://app?vid=22fe6381-bfa8-481c-9415-4e6666169356","ios":"levelo://app?vid=22fe6381-bfa8-481c-9415-4e6666169356"},"vehicle_type_id":"4","last_reported":1737990532,"current_range_meters":25600,"station_id":"ce4bhe12rcd13ifvqf30","pricing_plan_id":"cebpf4jnsgd1na2vs0mg"},{"bike_id":"c3e1feb2-3938-4169-aeb4-0338c608141c","system_id":"levelo_inurba_marseille","lat":43.30304,"lon":5.39218,"is_reserved":false,"is_disabled":false,"rental_uris":{"android":"levelo://app?vid=c3e1feb2-3938-4169-aeb4-0338c608141c","ios":"levelo://app?vid=c3e1feb2-3938-4169-aeb4-0338c608141c"},"vehicle_type_id":"4","last_reported":1737990532,"current_range_meters":35600,"station_id":"ce4bgkh2rcd13ifvqbk0","pricing_plan_id":"cebpf4jnsgd1na2vs0mg"},{"bike_id":"c96545e6-b3fa-4a6b-836e-d89ea478e5d1","system_id":"levelo_inurba_marseille","lat":43.25017,"lon":5.38923,"is_reserved":false,"is_disabled":false,"rental_uris":{"android":"levelo://app?vid=c96545e6-b3fa-4a6b-836e-d89ea478e5d1","ios":"levelo://app?vid=c96545e6-b3fa-4a6b-836e-d89ea478e5d1"},"vehicle_type_id":"4","last_reported":1737990532,"current_range_meters":38800,"station_id":"ce4bhgp2rcd13ifvqfd0","pricing_plan_id":"cebpf4jnsgd1na2vs0mg"},{"bike_id":"cfff1edf-189f-4cb0-80dd-22014a7dc63a","system_id":"levelo_inurba_marseille","lat":43.24817,"lon":5.37459,"is_reserved":false,"is_disabled":false,"rental_uris":{"android":"levelo://app?vid=cfff1edf-189f-4cb0-80dd-22014a7dc63a","ios":"levelo://app?vid=cfff1edf-189f-4cb0-80dd-22014a7dc63a"},"vehicle_type_id":"4","last_reported":1737990532,"current_range_meters":24800,"station_id":"ce4bhgh2rcd13ifvqfb0","pricing_plan_id":"cebpf4jnsgd1na2vs0mg"},{"bike_id":"bcf3ca43-a7c1-427a-af4b-71429f4603dc","system_id":"levelo_inurba_marseille","lat":43.31371,"lon":5.38499,"is_reserved":false,"is_disabled":false,"rental_uris":{"android":"levelo://app?vid=bcf3ca43-a7c1-427a-af4b-71429f4603dc","ios":"levelo://app?vid=bcf3ca43-a7c1-427a-af4b-71429f4603dc"},"vehicle_type_id":"4","last_reported":1737990532,"current_range_meters":38800,"station_id":"ce4bgt92rcd13ifvqcf0","pricing_plan_id":"cebpf4jnsgd1na2vs0mg"},{"bike_id":"5a6503ca-c2c6-4dbe-a6f7-68e5f1916ac2","system_id":"levelo_inurba_marseille","lat":43.29901,"lon":5.43667,"is_reserved":false,"is_disabled":false,"rental_uris":{"android":"levelo://app?vid=5a6503ca-c2c6-4dbe-a6f7-68e5f1916ac2","ios":"levelo://app?vid=5a6503ca-c2c6-4dbe-a6f7-68e5f1916ac2"},"vehicle_type_id":"4","last_reported":1737990532,"current_range_meters":38800,"station_id":"ce4bhpp2rcd13ifvqhfg","pricing_plan_id":"cebpf4jnsgd1na2vs0mg"},{"bike_id":"c06c77a7-aa0d-469b-91b4-00f35d2f9410","system_id":"levelo_inurba_marseille","lat":43.28692,"lon":5.39975,"is_reserved":false,"is_disabled":false,"rental_uris":{"android":"levelo://app?vid=c06c77a7-aa0d-469b-91b4-00f35d2f9410","ios":"levelo://app?vid=c06c77a7-aa0d-469b-91b4-00f35d2f9410"},"vehicle_type_id":"4","last_reported":1737990532,"current_range_meters":38400,"station_id":"ce4bho92rcd13ifvqh3g","pricing_plan_id":"cebpf4jnsgd1na2vs0mg"},{"bike_id":"a39bdd92-cc80-4543-9164-5d9d642acae9","system_id":"levelo_inurba_marseille","lat":43.29849,"lon":5.36286,"is_reserved":false,"is_disabled":false,"rental_uris":{"android":"levelo://app?vid=a39bdd92-cc80-4543-9164-5d9d642acae9","ios":"levelo://app?vid=a39bdd92-cc80-4543-9164-5d9d642acae9"},"vehicle_type_id":"4","last_reported":1737990532,"current_range_meters":30400,"station_id":"ce4bgpp2rcd13ifvqc3g","pricing_plan_id":"cebpf4jnsgd1na2vs0mg"},{"bike_id":"7aa7b79f-0484-4a8c-81c0-d66ff58716ea","system_id":"levelo_inurba_marseille","lat":43.24069,"lon":5.37752,"is_reserved":false,"is_disabled":false,"rental_uris":{"android":"levelo://app?vid=7aa7b79f-0484-4a8c-81c0-d66ff58716ea","ios":"levelo://app?vid=7aa7b79f-0484-4a8c-81c0-d66ff58716ea"},"vehicle_type_id":"4","last_reported":1737990532,"current_range_meters":4000,"station_id":"ce4bhnp2rcd13ifvqgvg","pricing_plan_id":"cebpf4jnsgd1na2vs0mg"},{"bike_id":"49ac70a6-f431-448f-8b78-0c0b9150bb51","system_id":"levelo_inurba_marseille","lat":43.31272,"lon":5.40174,"is_reserved":false,"is_disabled":false,"rental_uris":{"android":"levelo://app?vid=49ac70a6-f431-448f-8b78-0c0b9150bb51","ios":"levelo://app?vid=49ac70a6-f431-448f-8b78-0c0b9150bb51"},"vehicle_type_id":"4","last_reported":1737990532,"current_range_meters":32800,"station_id":"ce4bh092rcd13ifvqd30","pricing_plan_id":"cebpf4jnsgd1na2vs0mg"},{"bike_id":"a1a2450d-e8db-4c04-9d40-a4709700435c","system_id":"levelo_inurba_marseille","lat":43.31104,"lon":5.37738,"is_reserved":false,"is_disabled":false,"rental_uris":{"android":"levelo://app?vid=a1a2450d-e8db-4c04-9d40-a4709700435c","ios":"levelo://app?vid=a1a2450d-e8db-4c04-9d40-a4709700435c"},"vehicle_type_id":"4","last_reported":1737990532,"current_range_meters":34000,"station_id":"ce4bgt92rcd13ifvqcg0","pricing_plan_id":"cebpf4jnsgd1na2vs0mg"},{"bike_id":"e36a4602-82e3-44ba-9635-f30a8e900634","system_id":"levelo_inurba_marseille","lat":43.23152,"lon":5.43727,"is_reserved":false,"is_disabled":true,"rental_uris":{"android":"levelo://app?vid=e36a4602-82e3-44ba-9635-f30a8e900634","ios":"levelo://app?vid=e36a4602-82e3-44ba-9635-f30a8e900634"},"vehicle_type_id":"4","last_reported":1737990532,"current_range_meters":0,"station_id":"ce4bhmp2rcd13ifvqgog","pricing_plan_id":"cebpf4jnsgd1na2vs0mg"},{"bike_id":"be211cb3-919e-4b11-860e-ece734f60277","system_id":"levelo_inurba_marseille","lat":43.28702,"lon":5.37387,"is_reserved":false,"is_disabled":false,"rental_uris":{"android":"levelo://app?vid=be211cb3-919e-4b11-860e-ece734f60277","ios":"levelo://app?vid=be211cb3-919e-4b11-860e-ece734f60277"},"vehicle_type_id":"4","last_reported":1737990532,"current_range_meters":11200,"station_id":"ce4bh3p2rcd13ifvqdq0","pricing_plan_id":"cebpf4jnsgd1na2vs0mg"},{"bike_id":"3b0ad018-9506-4122-b6af-7f20f0cf4b3b","system_id":"levelo_inurba_marseille","lat":43.28618,"lon":5.35102,"is_reserved":false,"is_disabled":false,"rental_uris":{"android":"levelo://app?vid=3b0ad018-9506-4122-b6af-7f20f0cf4b3b","ios":"levelo://app?vid=3b0ad018-9506-4122-b6af-7f20f0cf4b3b"},"vehicle_type_id":"4","last_reported":1737990532,"current_range_meters":31200,"station_id":"ce4bhch2rcd13ifvqeug","pricing_plan_id":"cebpf4jnsgd1na2vs0mg"},{"bike_id":"94e1a796-233e-40a7-9202-4b4d81f9e208","system_id":"levelo_inurba_marseille","lat":43.29515,"lon":5.39397,"is_reserved":false,"is_disabled":false,"rental_uris":{"android":"levelo://app?vid=94e1a796-233e-40a7-9202-4b4d81f9e208","ios":"levelo://app?vid=94e1a796-233e-40a7-9202-4b4d81f9e208"},"vehicle_type_id":"4","last_reported":1737990532,"current_range_meters":35200,"station_id":"ce4bh292rcd13ifvqdf0","pricing_plan_id":"cebpf4jnsgd1na2vs0mg"},{"bike_id":"8453a0c4-33e9-480c-a7ee-1e14bdee2642","system_id":"levelo_inurba_marseille","lat":43.27914,"lon":5.39577,"is_reserved":false,"is_disabled":false,"rental_uris":{"android":"levelo://app?vid=8453a0c4-33e9-480c-a7ee-1e14bdee2642","ios":"levelo://app?vid=8453a0c4-33e9-480c-a7ee-1e14bdee2642"},"vehicle_type_id":"4","last_reported":1737990532,"current_range_meters":3600,"station_id":"ce4bhf92rcd13ifvqf40","pricing_plan_id":"cebpf4jnsgd1na2vs0mg"},{"bike_id":"653d8d6e-7fce-4665-8f1b-562f4e723745","system_id":"levelo_inurba_marseille","lat":43.29022,"lon":5.3863,"is_reserved":false,"is_disabled":false,"rental_uris":{"android":"levelo://app?vid=653d8d6e-7fce-4665-8f1b-562f4e723745","ios":"levelo://app?vid=653d8d6e-7fce-4665-8f1b-562f4e723745"},"vehicle_type_id":"4","last_reported":1737990532,"current_range_meters":36400,"station_id":"ce4bh4p2rcd13ifvqe0g","pricing_plan_id":"cebpf4jnsgd1na2vs0mg"},{"bike_id":"b2a77bcb-8636-4783-bb85-a20e6eec5fb2","system_id":"levelo_inurba_marseille","lat":43.27682,"lon":5.38922,"is_reserved":false,"is_disabled":false,"rental_uris":{"android":"levelo://app?vid=b2a77bcb-8636-4783-bb85-a20e6eec5fb2","ios":"levelo://app?vid=b2a77bcb-8636-4783-bb85-a20e6eec5fb2"},"vehicle_type_id":"4","last_reported":1737990532,"current_range_meters":30000,"station_id":"ce4bhi12rcd13ifvqfo0","pricing_plan_id":"cebpf4jnsgd1na2vs0mg"},{"bike_id":"4dc565cc-a3bd-411f-a8e9-38ac6331d3d4","system_id":"levelo_inurba_marseille","lat":43.23066,"lon":5.35492,"is_reserved":false,"is_disabled":false,"rental_uris":{"android":"levelo://app?vid=4dc565cc-a3bd-411f-a8e9-38ac6331d3d4","ios":"levelo://app?vid=4dc565cc-a3bd-411f-a8e9-38ac6331d3d4"},"vehicle_type_id":"4","last_reported":1737990532,"current_range_meters":3600,"station_id":"cpo3342slgdg3j2ifvpg","pricing_plan_id":"cebpf4jnsgd1na2vs0mg"},{"bike_id":"16604ce2-2308-4ae4-8ca9-662cb69b8150","system_id":"levelo_inurba_marseille","lat":43.31993,"lon":5.38153,"is_reserved":false,"is_disabled":false,"rental_uris":{"android":"levelo://app?vid=16604ce2-2308-4ae4-8ca9-662cb69b8150","ios":"levelo://app?vid=16604ce2-2308-4ae4-8ca9-662cb69b8150"},"vehicle_type_id":"4","last_reported":1737990532,"current_range_meters":35200,"station_id":"ce4bhr12rcd13ifvqhpg","pricing_plan_id":"cebpf4jnsgd1na2vs0mg"},{"bike_id":"6adc5ca7-0c2c-4563-b34e-99dac6c709d8","system_id":"levelo_inurba_marseille","lat":43.29905,"lon":5.37803,"is_reserved":false,"is_disabled":true,"rental_uris":{"android":"levelo://app?vid=6adc5ca7-0c2c-4563-b34e-99dac6c709d8","ios":"levelo://app?vid=6adc5ca7-0c2c-4563-b34e-99dac6c709d8"},"vehicle_type_id":"4","last_reported":1737990532,"current_range_meters":0,"station_id":"","pricing_plan_id":"cebpf4jnsgd1na2vs0mg"},{"bike_id":"aebdfd3b-e667-4f60-92ad-e93561b39fe8","system_id":"levelo_inurba_marseille","lat":43.29414,"lon":5.38619,"is_reserved":false,"is_disabled":false,"rental_uris":{"android":"levelo://app?vid=aebdfd3b-e667-4f60-92ad-e93561b39fe8","ios":"levelo://app?vid=aebdfd3b-e667-4f60-92ad-e93561b39fe8"},"vehicle_type_id":"4","last_reported":1737990532,"current_range_meters":22400,"station_id":"ce4bh2h2rcd13ifvqdh0","pricing_plan_id":"cebpf4jnsgd1na2vs0mg"},{"bike_id":"b669d8a8-6a98-4a68-95bc-e0244fef4a9c","system_id":"levelo_inurba_marseille","lat":43.27075,"lon":5.38654,"is_reserved":false,"is_disabled":false,"rental_uris":{"android":"levelo://app?vid=b669d8a8-6a98-4a68-95bc-e0244fef4a9c","ios":"levelo://app?vid=b669d8a8-6a98-4a68-95bc-e0244fef4a9c"},"vehicle_type_id":"4","last_reported":1737990532,"current_range_meters":38400,"station_id":"ce4bhh92rcd13ifvqfh0","pricing_plan_id":"cebpf4jnsgd1na2vs0mg"},{"bike_id":"0dc00c7c-3293-4cbd-8dc1-c2db535950c4","system_id":"levelo_inurba_marseille","lat":43.29547,"lon":5.42291,"is_reserved":false,"is_disabled":false,"rental_uris":{"android":"levelo://app?vid=0dc00c7c-3293-4cbd-8dc1-c2db535950c4","ios":"levelo://app?vid=0dc00c7c-3293-4cbd-8dc1-c2db535950c4"},"vehicle_type_id":"4","last_reported":1737990532,"current_range_meters":4400,"station_id":"ce4bhph2rcd13ifvqhdg","pricing_plan_id":"cebpf4jnsgd1na2vs0mg"},{"bike_id":"5fa91e23-39be-4ce6-b81e-223655171952","system_id":"levelo_inurba_marseille","lat":43.27059,"lon":5.40272,"is_reserved":false,"is_disabled":false,"rental_uris":{"android":"levelo://app?vid=5fa91e23-39be-4ce6-b81e-223655171952","ios":"levelo://app?vid=5fa91e23-39be-4ce6-b81e-223655171952"},"vehicle_type_id":"4","last_reported":1737990532,"current_range_meters":38800,"station_id":"ce4bhk92rcd13ifvqgc0","pricing_plan_id":"cebpf4jnsgd1na2vs0mg"},{"bike_id":"c7830262-ea23-45f4-9a23-990ed17ebf09","system_id":"levelo_inurba_marseille","lat":43.29812,"lon":5.39751,"is_reserved":false,"is_disabled":true,"rental_uris":{"android":"levelo://app?vid=c7830262-ea23-45f4-9a23-990ed17ebf09","ios":"levelo://app?vid=c7830262-ea23-45f4-9a23-990ed17ebf09"},"vehicle_type_id":"4","last_reported":1737990532,"current_range_meters":0,"station_id":"","pricing_plan_id":"cebpf4jnsgd1na2vs0mg"},{"bike_id":"5391c181-a086-4212-a5bf-32331815a848","system_id":"levelo_inurba_marseille","lat":43.3132,"lon":5.39701,"is_reserved":false,"is_disabled":false,"rental_uris":{"android":"levelo://app?vid=5391c181-a086-4212-a5bf-32331815a848","ios":"levelo://app?vid=5391c181-a086-4212-a5bf-32331815a848"},"vehicle_type_id":"4","last_reported":1737990532,"current_range_meters":27200,"station_id":"ce4bgvp2rcd13ifvqcu0","pricing_plan_id":"cebpf4jnsgd1na2vs0mg"},{"bike_id":"90602957-4c91-4e57-b63f-015fd55e350f","system_id":"levelo_inurba_marseille","lat":43.291,"lon":5.38157,"is_reserved":false,"is_disabled":false,"rental_uris":{"android":"levelo://app?vid=90602957-4c91-4e57-b63f-015fd55e350f","ios":"levelo://app?vid=90602957-4c91-4e57-b63f-015fd55e350f"},"vehicle_type_id":"4","last_reported":1737990532,"current_range_meters":38000,"station_id":"ce4bh512rcd13ifvqe2g","pricing_plan_id":"cebpf4jnsgd1na2vs0mg"},{"bike_id":"c889ed04-7687-47fe-a79c-57aa86c61815","system_id":"levelo_inurba_marseille","lat":43.29572,"lon":5.36746,"is_reserved":false,"is_disabled":false,"rental_uris":{"android":"levelo://app?vid=c889ed04-7687-47fe-a79c-57aa86c61815","ios":"levelo://app?vid=c889ed04-7687-47fe-a79c-57aa86c61815"},"vehicle_type_id":"4","last_reported":1737990532,"current_range_meters":35200,"station_id":"ce4bgph2rcd13ifvqc2g","pricing_plan_id":"cebpf4jnsgd1na2vs0mg"},{"bike_id":"7fc942fc-b8cf-424a-806f-ec87840357cf","system_id":"levelo_inurba_marseille","lat":43.27164,"lon":5.40995,"is_reserved":false,"is_disabled":false,"rental_uris":{"android":"levelo://app?vid=7fc942fc-b8cf-424a-806f-ec87840357cf","ios":"levelo://app?vid=7fc942fc-b8cf-424a-806f-ec87840357cf"},"vehicle_type_id":"4","last_reported":1737990532,"current_range_meters":36000,"station_id":"ce4bhl12rcd13ifvqgf0","pricing_plan_id":"cebpf4jnsgd1na2vs0mg"},{"bike_id":"44539425-9baa-4d38-afc4-87d18b64ccf2","system_id":"levelo_inurba_marseille","lat":43.27061,"lon":5.40259,"is_reserved":false,"is_disabled":false,"rental_uris":{"android":"levelo://app?vid=44539425-9baa-4d38-afc4-87d18b64ccf2","ios":"levelo://app?vid=44539425-9baa-4d38-afc4-87d18b64ccf2"},"vehicle_type_id":"4","last_reported":1737990532,"current_range_meters":17200,"station_id":"ce4bhk92rcd13ifvqgc0","pricing_plan_id":"cebpf4jnsgd1na2vs0mg"},{"bike_id":"83ab2271-68aa-4e51-92e2-d89b2328d98b","system_id":"levelo_inurba_marseille","lat":43.30566,"lon":5.36686,"is_reserved":false,"is_disabled":false,"rental_uris":{"android":"levelo://app?vid=83ab2271-68aa-4e51-92e2-d89b2328d98b","ios":"levelo://app?vid=83ab2271-68aa-4e51-92e2-d89b2328d98b"},"vehicle_type_id":"4","last_reported":1737990532,"current_range_meters":35600,"station_id":"ce4bgrp2rcd13ifvqc9g","pricing_plan_id":"cebpf4jnsgd1na2vs0mg"},{"bike_id":"5a504fe4-0ab6-4eed-b9ef-e27131441d67","system_id":"levelo_inurba_marseille","lat":43.30332,"lon":5.37906,"is_reserved":false,"is_disabled":false,"rental_uris":{"android":"levelo://app?vid=5a504fe4-0ab6-4eed-b9ef-e27131441d67","ios":"levelo://app?vid=5a504fe4-0ab6-4eed-b9ef-e27131441d67"},"vehicle_type_id":"4","last_reported":1737990532,"current_range_meters":25200,"station_id":"","pricing_plan_id":"cebpf4jnsgd1na2vs0mg"},{"bike_id":"11ba3b1e-84b5-4609-901b-fe845e306d2e","system_id":"levelo_inurba_marseille","lat":43.325,"lon":5.3655,"is_reserved":false,"is_disabled":false,"rental_uris":{"android":"levelo://app?vid=11ba3b1e-84b5-4609-901b-fe845e306d2e","ios":"levelo://app?vid=11ba3b1e-84b5-4609-901b-fe845e306d2e"},"vehicle_type_id":"4","last_reported":1737990532,"current_range_meters":33200,"station_id":"ce4bhs12rcd13ifvqhvg","pricing_plan_id":"cebpf4jnsgd1na2vs0mg"},{"bike_id":"ea731655-9044-43d1-b87a-3034f031edd9","system_id":"levelo_inurba_marseille","lat":43.28264,"lon":5.35067,"is_reserved":false,"is_disabled":false,"rental_uris":{"android":"levelo://app?vid=ea731655-9044-43d1-b87a-3034f031edd9","ios":"levelo://app?vid=ea731655-9044-43d1-b87a-3034f031edd9"},"vehicle_type_id":"4","last_reported":1737990532,"current_range_meters":18000,"station_id":"ce4bhbp2rcd13ifvqerg","pricing_plan_id":"cebpf4jnsgd1na2vs0mg"},{"bike_id":"3ec52b4d-cf80-449d-bd30-9db7519a9ed7","system_id":"levelo_inurba_marseille","lat":43.27059,"lon":5.40255,"is_reserved":false,"is_disabled":false,"rental_uris":{"android":"levelo://app?vid=3ec52b4d-cf80-449d-bd30-9db7519a9ed7","ios":"levelo://app?vid=3ec52b4d-cf80-449d-bd30-9db7519a9ed7"},"vehicle_type_id":"4","last_reported":1737990532,"current_range_meters":8400,"station_id":"ce4bhk92rcd13ifvqgc0","pricing_plan_id":"cebpf4jnsgd1na2vs0mg"},{"bike_id":"142dd747-734f-4980-a166-385cc1d79171","system_id":"levelo_inurba_marseille","lat":43.29587,"lon":5.38094,"is_reserved":false,"is_disabled":true,"rental_uris":{"android":"levelo://app?vid=142dd747-734f-4980-a166-385cc1d79171","ios":"levelo://app?vid=142dd747-734f-4980-a166-385cc1d79171"},"vehicle_type_id":"4","last_reported":1737990532,"current_range_meters":2000,"station_id":"ce4bgl12rcd13ifvqbo0","pricing_plan_id":"cebpf4jnsgd1na2vs0mg"},{"bike_id":"47170eef-7e8a-4b8d-90bc-71d6406c4168","system_id":"levelo_inurba_marseille","lat":43.31738,"lon":5.37194,"is_reserved":false,"is_disabled":true,"rental_uris":{"android":"levelo://app?vid=47170eef-7e8a-4b8d-90bc-71d6406c4168","ios":"levelo://app?vid=47170eef-7e8a-4b8d-90bc-71d6406c4168"},"vehicle_type_id":"4","last_reported":1737990532,"current_range_meters":2000,"station_id":"","pricing_plan_id":"cebpf4jnsgd1na2vs0mg"},{"bike_id":"9838cc78-2b53-49d3-ae13-82df62c4fd64","system_id":"levelo_inurba_marseille","lat":43.28406,"lon":5.40936,"is_reserved":false,"is_disabled":true,"rental_uris":{"android":"levelo://app?vid=9838cc78-2b53-49d3-ae13-82df62c4fd64","ios":"levelo://app?vid=9838cc78-2b53-49d3-ae13-82df62c4fd64"},"vehicle_type_id":"4","last_reported":1737990532,"current_range_meters":0,"station_id":"","pricing_plan_id":"cebpf4jnsgd1na2vs0mg"},{"bike_id":"afd325af-36c6-449e-b7e4-6c20481f77d6","system_id":"levelo_inurba_marseille","lat":43.29605,"lon":5.38093,"is_reserved":false,"is_disabled":false,"rental_uris":{"android":"levelo://app?vid=afd325af-36c6-449e-b7e4-6c20481f77d6","ios":"levelo://app?vid=afd325af-36c6-449e-b7e4-6c20481f77d6"},"vehicle_type_id":"4","last_reported":1737990532,"current_range_meters":9600,"station_id":"ce4bgl12rcd13ifvqbo0","pricing_plan_id":"cebpf4jnsgd1na2vs0mg"},{"bike_id":"f3a886a3-500d-4d32-a120-4a7101c0f911","system_id":"levelo_inurba_marseille","lat":43.26926,"lon":5.40252,"is_reserved":false,"is_disabled":false,"rental_uris":{"android":"levelo://app?vid=f3a886a3-500d-4d32-a120-4a7101c0f911","ios":"levelo://app?vid=f3a886a3-500d-4d32-a120-4a7101c0f911"},"vehicle_type_id":"4","last_reported":1737990532,"current_range_meters":39200,"station_id":"cjm6bp8fraef2m0cb0m0","pricing_plan_id":"cebpf4jnsgd1na2vs0mg"},{"bike_id":"2ef0adf6-e7cf-4577-a5bd-c1894e912a58","system_id":"levelo_inurba_marseille","lat":43.29975,"lon":5.3717,"is_reserved":false,"is_disabled":false,"rental_uris":{"android":"levelo://app?vid=2ef0adf6-e7cf-4577-a5bd-c1894e912a58","ios":"levelo://app?vid=2ef0adf6-e7cf-4577-a5bd-c1894e912a58"},"vehicle_type_id":"4","last_reported":1737990532,"current_range_meters":32800,"station_id":"ce4bgr92rcd13ifvqc7g","pricing_plan_id":"cebpf4jnsgd1na2vs0mg"},{"bike_id":"266bce9b-ceec-4725-a357-412807926d04","system_id":"levelo_inurba_marseille","lat":43.28457,"lon":5.35892,"is_reserved":false,"is_disabled":false,"rental_uris":{"android":"levelo://app?vid=266bce9b-ceec-4725-a357-412807926d04","ios":"levelo://app?vid=266bce9b-ceec-4725-a357-412807926d04"},"vehicle_type_id":"4","last_reported":1737990532,"current_range_meters":35200,"station_id":"ce4bhah2rcd13ifvqei0","pricing_plan_id":"cebpf4jnsgd1na2vs0mg"},{"bike_id":"59a05252-71d8-4075-8db8-242769602a79","system_id":"levelo_inurba_marseille","lat":43.30134,"lon":5.38771,"is_reserved":false,"is_disabled":false,"rental_uris":{"android":"levelo://app?vid=59a05252-71d8-4075-8db8-242769602a79","ios":"levelo://app?vid=59a05252-71d8-4075-8db8-242769602a79"},"vehicle_type_id":"4","last_reported":1737990532,"current_range_meters":30400,"station_id":"ce4bhoh2rcd13ifvqh6g","pricing_plan_id":"cebpf4jnsgd1na2vs0mg"},{"bike_id":"c7648325-a398-4519-a403-52da378d6c12","system_id":"levelo_inurba_marseille","lat":43.31334,"lon":5.39711,"is_reserved":false,"is_disabled":false,"rental_uris":{"android":"levelo://app?vid=c7648325-a398-4519-a403-52da378d6c12","ios":"levelo://app?vid=c7648325-a398-4519-a403-52da378d6c12"},"vehicle_type_id":"4","last_reported":1737990532,"current_range_meters":30400,"station_id":"ce4bgvp2rcd13ifvqcu0","pricing_plan_id":"cebpf4jnsgd1na2vs0mg"},{"bike_id":"d2e2f680-91e7-40b9-adc8-2fcb7121a2db","system_id":"levelo_inurba_marseille","lat":43.27572,"lon":5.38439,"is_reserved":false,"is_disabled":false,"rental_uris":{"android":"levelo://app?vid=d2e2f680-91e7-40b9-adc8-2fcb7121a2db","ios":"levelo://app?vid=d2e2f680-91e7-40b9-adc8-2fcb7121a2db"},"vehicle_type_id":"4","last_reported":1737990532,"current_range_meters":37600,"station_id":"ce4bhh92rcd13ifvqfi0","pricing_plan_id":"cebpf4jnsgd1na2vs0mg"},{"bike_id":"1280516c-fe2a-4bf3-ba4e-be948ca03f3a","system_id":"levelo_inurba_marseille","lat":43.2903,"lon":5.38123,"is_reserved":false,"is_disabled":false,"rental_uris":{"android":"levelo://app?vid=1280516c-fe2a-4bf3-ba4e-be948ca03f3a","ios":"levelo://app?vid=1280516c-fe2a-4bf3-ba4e-be948ca03f3a"},"vehicle_type_id":"4","last_reported":1737990532,"current_range_meters":11600,"station_id":"ce4bh4p2rcd13ifvqe1g","pricing_plan_id":"cebpf4jnsgd1na2vs0mg"},{"bike_id":"1f11e2b0-a6f2-4ed8-aea4-715065aa61c6","system_id":"levelo_inurba_marseille","lat":43.302115,"lon":5.3947,"is_reserved":false,"is_disabled":false,"rental_uris":{"android":"levelo://app?vid=1f11e2b0-a6f2-4ed8-aea4-715065aa61c6","ios":"levelo://app?vid=1f11e2b0-a6f2-4ed8-aea4-715065aa61c6"},"vehicle_type_id":"4","last_reported":1737990532,"current_range_meters":32800,"station_id":"ce4bh0p2rcd13ifvqd70","pricing_plan_id":"cebpf4jnsgd1na2vs0mg"},{"bike_id":"93ebabb3-1a56-423f-9232-27d7ff9739df","system_id":"levelo_inurba_marseille","lat":43.27954,"lon":5.41032,"is_reserved":false,"is_disabled":false,"rental_uris":{"android":"levelo://app?vid=93ebabb3-1a56-423f-9232-27d7ff9739df","ios":"levelo://app?vid=93ebabb3-1a56-423f-9232-27d7ff9739df"},"vehicle_type_id":"4","last_reported":1737990532,"current_range_meters":7200,"station_id":"ce4bhnp2rcd13ifvqh0g","pricing_plan_id":"cebpf4jnsgd1na2vs0mg"},{"bike_id":"e4f81e6e-bff5-48ee-9cf0-1a2de2d7d1eb","system_id":"levelo_inurba_marseille","lat":43.31267,"lon":5.4017,"is_reserved":false,"is_disabled":false,"rental_uris":{"android":"levelo://app?vid=e4f81e6e-bff5-48ee-9cf0-1a2de2d7d1eb","ios":"levelo://app?vid=e4f81e6e-bff5-48ee-9cf0-1a2de2d7d1eb"},"vehicle_type_id":"4","last_reported":1737990532,"current_range_meters":20000,"station_id":"ce4bh092rcd13ifvqd30","pricing_plan_id":"cebpf4jnsgd1na2vs0mg"},{"bike_id":"2e0a8b86-b457-48a0-8577-213b01080398","system_id":"levelo_inurba_marseille","lat":43.23196,"lon":5.35549,"is_reserved":false,"is_disabled":false,"rental_uris":{"android":"levelo://app?vid=2e0a8b86-b457-48a0-8577-213b01080398","ios":"levelo://app?vid=2e0a8b86-b457-48a0-8577-213b01080398"},"vehicle_type_id":"4","last_reported":1737990532,"current_range_meters":39200,"station_id":"ce4bhu92rcd13ifvqi70","pricing_plan_id":"cebpf4jnsgd1na2vs0mg"},{"bike_id":"d2e14334-91cf-4683-8086-fad56bb3beac","system_id":"levelo_inurba_marseille","lat":43.30538,"lon":5.36531,"is_reserved":false,"is_disabled":false,"rental_uris":{"android":"levelo://app?vid=d2e14334-91cf-4683-8086-fad56bb3beac","ios":"levelo://app?vid=d2e14334-91cf-4683-8086-fad56bb3beac"},"vehicle_type_id":"4","last_reported":1737990532,"current_range_meters":24800,"station_id":"ce4bgs12rcd13ifvqcag","pricing_plan_id":"cebpf4jnsgd1na2vs0mg"},{"bike_id":"d979d8d2-ec65-47af-9229-e4270aab279a","system_id":"levelo_inurba_marseille","lat":43.23064,"lon":5.35478,"is_reserved":false,"is_disabled":false,"rental_uris":{"android":"levelo://app?vid=d979d8d2-ec65-47af-9229-e4270aab279a","ios":"levelo://app?vid=d979d8d2-ec65-47af-9229-e4270aab279a"},"vehicle_type_id":"4","last_reported":1737990532,"current_range_meters":27600,"station_id":"cpo3342slgdg3j2ifvpg","pricing_plan_id":"cebpf4jnsgd1na2vs0mg"},{"bike_id":"69453811-0668-4f22-9cb7-f3a91f7c9d8f","system_id":"levelo_inurba_marseille","lat":43.30558,"lon":5.3653,"is_reserved":false,"is_disabled":false,"rental_uris":{"android":"levelo://app?vid=69453811-0668-4f22-9cb7-f3a91f7c9d8f","ios":"levelo://app?vid=69453811-0668-4f22-9cb7-f3a91f7c9d8f"},"vehicle_type_id":"4","last_reported":1737990532,"current_range_meters":29600,"station_id":"ce4bgs12rcd13ifvqcag","pricing_plan_id":"cebpf4jnsgd1na2vs0mg"},{"bike_id":"208b9aff-e4aa-4202-9cfa-c801b23f279c","system_id":"levelo_inurba_marseille","lat":43.28348,"lon":5.38108,"is_reserved":false,"is_disabled":false,"rental_uris":{"android":"levelo://app?vid=208b9aff-e4aa-4202-9cfa-c801b23f279c","ios":"levelo://app?vid=208b9aff-e4aa-4202-9cfa-c801b23f279c"},"vehicle_type_id":"4","last_reported":1737990532,"current_range_meters":38800,"station_id":"ce4bh412rcd13ifvqdr0","pricing_plan_id":"cebpf4jnsgd1na2vs0mg"},{"bike_id":"d1c22db9-87bf-4a66-accb-251e5e793507","system_id":"levelo_inurba_marseille","lat":43.28353,"lon":5.38099,"is_reserved":false,"is_disabled":false,"rental_uris":{"android":"levelo://app?vid=d1c22db9-87bf-4a66-accb-251e5e793507","ios":"levelo://app?vid=d1c22db9-87bf-4a66-accb-251e5e793507"},"vehicle_type_id":"4","last_reported":1737990532,"current_range_meters":23200,"station_id":"ce4bh412rcd13ifvqdr0","pricing_plan_id":"cebpf4jnsgd1na2vs0mg"},{"bike_id":"ae00de2f-f31f-40c5-afd5-77a43823ef3d","system_id":"levelo_inurba_marseille","lat":43.33015,"lon":5.39038,"is_reserved":false,"is_disabled":false,"rental_uris":{"android":"levelo://app?vid=ae00de2f-f31f-40c5-afd5-77a43823ef3d","ios":"levelo://app?vid=ae00de2f-f31f-40c5-afd5-77a43823ef3d"},"vehicle_type_id":"4","last_reported":1737990532,"current_range_meters":39200,"station_id":"ce4bhr92rcd13ifvqhrg","pricing_plan_id":"cebpf4jnsgd1na2vs0mg"},{"bike_id":"fdf94129-faf6-4901-a31b-96e4dd4118e0","system_id":"levelo_inurba_marseille","lat":43.29425,"lon":5.38615,"is_reserved":false,"is_disabled":false,"rental_uris":{"android":"levelo://app?vid=fdf94129-faf6-4901-a31b-96e4dd4118e0","ios":"levelo://app?vid=fdf94129-faf6-4901-a31b-96e4dd4118e0"},"vehicle_type_id":"4","last_reported":1737990532,"current_range_meters":19200,"station_id":"ce4bh2h2rcd13ifvqdh0","pricing_plan_id":"cebpf4jnsgd1na2vs0mg"},{"bike_id":"dfa3282a-f6e4-4f0c-81ab-9ea08b28ffea","system_id":"levelo_inurba_marseille","lat":43.28938,"lon":5.38393,"is_reserved":false,"is_disabled":false,"rental_uris":{"android":"levelo://app?vid=dfa3282a-f6e4-4f0c-81ab-9ea08b28ffea","ios":"levelo://app?vid=dfa3282a-f6e4-4f0c-81ab-9ea08b28ffea"},"vehicle_type_id":"4","last_reported":1737990532,"current_range_meters":8000,"station_id":"ce4bh612rcd13ifvqe6g","pricing_plan_id":"cebpf4jnsgd1na2vs0mg"},{"bike_id":"d6a801c4-a651-4f81-a19a-d70f1c451d0f","system_id":"levelo_inurba_marseille","lat":43.305403,"lon":5.365287,"is_reserved":false,"is_disabled":false,"rental_uris":{"android":"levelo://app?vid=d6a801c4-a651-4f81-a19a-d70f1c451d0f","ios":"levelo://app?vid=d6a801c4-a651-4f81-a19a-d70f1c451d0f"},"vehicle_type_id":"4","last_reported":1737990532,"current_range_meters":18000,"station_id":"ce4bgs12rcd13ifvqcag","pricing_plan_id":"cebpf4jnsgd1na2vs0mg"},{"bike_id":"75214a19-3086-4aab-8ba6-a177978da634","system_id":"levelo_inurba_marseille","lat":43.29898,"lon":5.43673,"is_reserved":false,"is_disabled":false,"rental_uris":{"android":"levelo://app?vid=75214a19-3086-4aab-8ba6-a177978da634","ios":"levelo://app?vid=75214a19-3086-4aab-8ba6-a177978da634"},"vehicle_type_id":"4","last_reported":1737990532,"current_range_meters":38800,"station_id":"ce4bhpp2rcd13ifvqhfg","pricing_plan_id":"cebpf4jnsgd1na2vs0mg"},{"bike_id":"30bbb00e-1612-4a25-b2e9-c8ad656fb58a","system_id":"levelo_inurba_marseille","lat":43.337191,"lon":5.391965,"is_reserved":false,"is_disabled":false,"rental_uris":{"android":"levelo://app?vid=30bbb00e-1612-4a25-b2e9-c8ad656fb58a","ios":"levelo://app?vid=30bbb00e-1612-4a25-b2e9-c8ad656fb58a"},"vehicle_type_id":"4","last_reported":1737990532,"current_range_meters":38800,"station_id":"ce4bhr92rcd13ifvqhsg","pricing_plan_id":"cebpf4jnsgd1na2vs0mg"},{"bike_id":"489f6534-c1d5-483f-a648-2a087319e607","system_id":"levelo_inurba_marseille","lat":43.33022,"lon":5.39041,"is_reserved":false,"is_disabled":false,"rental_uris":{"android":"levelo://app?vid=489f6534-c1d5-483f-a648-2a087319e607","ios":"levelo://app?vid=489f6534-c1d5-483f-a648-2a087319e607"},"vehicle_type_id":"4","last_reported":1737990532,"current_range_meters":38800,"station_id":"ce4bhr92rcd13ifvqhrg","pricing_plan_id":"cebpf4jnsgd1na2vs0mg"},{"bike_id":"4cb596df-44fd-4741-9495-cfdb53019931","system_id":"levelo_inurba_marseille","lat":43.23145,"lon":5.43724,"is_reserved":false,"is_disabled":false,"rental_uris":{"android":"levelo://app?vid=4cb596df-44fd-4741-9495-cfdb53019931","ios":"levelo://app?vid=4cb596df-44fd-4741-9495-cfdb53019931"},"vehicle_type_id":"4","last_reported":1737990532,"current_range_meters":26000,"station_id":"ce4bhmp2rcd13ifvqgog","pricing_plan_id":"cebpf4jnsgd1na2vs0mg"},{"bike_id":"5bdcc2f8-a730-4d87-a433-672314719d47","system_id":"levelo_inurba_marseille","lat":43.29929,"lon":5.3655,"is_reserved":false,"is_disabled":false,"rental_uris":{"android":"levelo://app?vid=5bdcc2f8-a730-4d87-a433-672314719d47","ios":"levelo://app?vid=5bdcc2f8-a730-4d87-a433-672314719d47"},"vehicle_type_id":"4","last_reported":1737990532,"current_range_meters":34000,"station_id":"ce4bgm92rcd13ifvqbr0","pricing_plan_id":"cebpf4jnsgd1na2vs0mg"},{"bike_id":"7e75ec61-2677-4a6a-80b3-987eab312c3e","system_id":"levelo_inurba_marseille","lat":43.295964,"lon":5.380983,"is_reserved":false,"is_disabled":false,"rental_uris":{"android":"levelo://app?vid=7e75ec61-2677-4a6a-80b3-987eab312c3e","ios":"levelo://app?vid=7e75ec61-2677-4a6a-80b3-987eab312c3e"},"vehicle_type_id":"4","last_reported":1737990532,"current_range_meters":38400,"station_id":"ce4bgl12rcd13ifvqbo0","pricing_plan_id":"cebpf4jnsgd1na2vs0mg"},{"bike_id":"acf4cec9-04b2-432c-83ba-19cc7ebac443","system_id":"levelo_inurba_marseille","lat":43.29024,"lon":5.38137,"is_reserved":false,"is_disabled":false,"rental_uris":{"android":"levelo://app?vid=acf4cec9-04b2-432c-83ba-19cc7ebac443","ios":"levelo://app?vid=acf4cec9-04b2-432c-83ba-19cc7ebac443"},"vehicle_type_id":"4","last_reported":1737990532,"current_range_meters":22800,"station_id":"ce4bh4p2rcd13ifvqe1g","pricing_plan_id":"cebpf4jnsgd1na2vs0mg"},{"bike_id":"3c9c9088-9c27-4609-bc62-8218c0dc2be8","system_id":"levelo_inurba_marseille","lat":43.23193,"lon":5.35565,"is_reserved":false,"is_disabled":false,"rental_uris":{"android":"levelo://app?vid=3c9c9088-9c27-4609-bc62-8218c0dc2be8","ios":"levelo://app?vid=3c9c9088-9c27-4609-bc62-8218c0dc2be8"},"vehicle_type_id":"4","last_reported":1737990532,"current_range_meters":36800,"station_id":"ce4bhu92rcd13ifvqi70","pricing_plan_id":"cebpf4jnsgd1na2vs0mg"},{"bike_id":"8a4fd9c1-126f-44bd-8919-7cf37f162b5e","system_id":"levelo_inurba_marseille","lat":43.28155,"lon":5.42634,"is_reserved":false,"is_disabled":false,"rental_uris":{"android":"levelo://app?vid=8a4fd9c1-126f-44bd-8919-7cf37f162b5e","ios":"levelo://app?vid=8a4fd9c1-126f-44bd-8919-7cf37f162b5e"},"vehicle_type_id":"4","last_reported":1737990532,"current_range_meters":30800,"station_id":"ce4bhnh2rcd13ifvqgug","pricing_plan_id":"cebpf4jnsgd1na2vs0mg"},{"bike_id":"84a1c66e-e9fc-4550-9261-9f8ee2197f3c","system_id":"levelo_inurba_marseille","lat":43.3171,"lon":5.43707,"is_reserved":false,"is_disabled":false,"rental_uris":{"android":"levelo://app?vid=84a1c66e-e9fc-4550-9261-9f8ee2197f3c","ios":"levelo://app?vid=84a1c66e-e9fc-4550-9261-9f8ee2197f3c"},"vehicle_type_id":"4","last_reported":1737990532,"current_range_meters":17200,"station_id":"ce4bhp92rcd13ifvqhcg","pricing_plan_id":"cebpf4jnsgd1na2vs0mg"},{"bike_id":"02a65308-936d-4187-b4db-c0afc2d3e10c","system_id":"levelo_inurba_marseille","lat":43.2591,"lon":5.40878,"is_reserved":false,"is_disabled":false,"rental_uris":{"android":"levelo://app?vid=02a65308-936d-4187-b4db-c0afc2d3e10c","ios":"levelo://app?vid=02a65308-936d-4187-b4db-c0afc2d3e10c"},"vehicle_type_id":"4","last_reported":1737990532,"current_range_meters":37600,"station_id":"ce4bhm92rcd13ifvqglg","pricing_plan_id":"cebpf4jnsgd1na2vs0mg"},{"bike_id":"5ef42bac-1a09-4f8c-9fe8-ab058034fe56","system_id":"levelo_inurba_marseille","lat":43.29897,"lon":5.43664,"is_reserved":false,"is_disabled":false,"rental_uris":{"android":"levelo://app?vid=5ef42bac-1a09-4f8c-9fe8-ab058034fe56","ios":"levelo://app?vid=5ef42bac-1a09-4f8c-9fe8-ab058034fe56"},"vehicle_type_id":"4","last_reported":1737990532,"current_range_meters":38800,"station_id":"ce4bhpp2rcd13ifvqhfg","pricing_plan_id":"cebpf4jnsgd1na2vs0mg"},{"bike_id":"753c3ea2-d8b6-423c-b75c-0eb720ec3bbf","system_id":"levelo_inurba_marseille","lat":43.2757,"lon":5.38405,"is_reserved":false,"is_disabled":false,"rental_uris":{"android":"levelo://app?vid=753c3ea2-d8b6-423c-b75c-0eb720ec3bbf","ios":"levelo://app?vid=753c3ea2-d8b6-423c-b75c-0eb720ec3bbf"},"vehicle_type_id":"4","last_reported":1737990532,"current_range_meters":38800,"station_id":"ce4bhh92rcd13ifvqfi0","pricing_plan_id":"cebpf4jnsgd1na2vs0mg"},{"bike_id":"84c145c3-c63a-4d22-b8d5-94f667a178c4","system_id":"levelo_inurba_marseille","lat":43.28095,"lon":5.3784,"is_reserved":false,"is_disabled":false,"rental_uris":{"android":"levelo://app?vid=84c145c3-c63a-4d22-b8d5-94f667a178c4","ios":"levelo://app?vid=84c145c3-c63a-4d22-b8d5-94f667a178c4"},"vehicle_type_id":"4","last_reported":1737990532,"current_range_meters":10800,"station_id":"ce4bha12rcd13ifvqee0","pricing_plan_id":"cebpf4jnsgd1na2vs0mg"},{"bike_id":"21647451-644a-4234-9784-e51d467f17c3","system_id":"levelo_inurba_marseille","lat":43.30933,"lon":5.40143,"is_reserved":false,"is_disabled":false,"rental_uris":{"android":"levelo://app?vid=21647451-644a-4234-9784-e51d467f17c3","ios":"levelo://app?vid=21647451-644a-4234-9784-e51d467f17c3"},"vehicle_type_id":"4","last_reported":1737990532,"current_range_meters":30800,"station_id":"ce4bgvp2rcd13ifvqct0","pricing_plan_id":"cebpf4jnsgd1na2vs0mg"},{"bike_id":"d628b903-fcc7-438f-9d26-809a5613d303","system_id":"levelo_inurba_marseille","lat":43.31329,"lon":5.39687,"is_reserved":false,"is_disabled":false,"rental_uris":{"android":"levelo://app?vid=d628b903-fcc7-438f-9d26-809a5613d303","ios":"levelo://app?vid=d628b903-fcc7-438f-9d26-809a5613d303"},"vehicle_type_id":"4","last_reported":1737990532,"current_range_meters":8800,"station_id":"ce4bgvp2rcd13ifvqcu0","pricing_plan_id":"cebpf4jnsgd1na2vs0mg"},{"bike_id":"1d1d0dd3-fe49-40c8-8238-ec7e34f343bc","system_id":"levelo_inurba_marseille","lat":43.30136,"lon":5.38793,"is_reserved":false,"is_disabled":true,"rental_uris":{"android":"levelo://app?vid=1d1d0dd3-fe49-40c8-8238-ec7e34f343bc","ios":"levelo://app?vid=1d1d0dd3-fe49-40c8-8238-ec7e34f343bc"},"vehicle_type_id":"4","last_reported":1737990532,"current_range_meters":2000,"station_id":"ce4bhoh2rcd13ifvqh6g","pricing_plan_id":"cebpf4jnsgd1na2vs0mg"},{"bike_id":"45568187-d384-4625-ae97-7275220b13ab","system_id":"levelo_inurba_marseille","lat":43.31372,"lon":5.3849,"is_reserved":false,"is_disabled":false,"rental_uris":{"android":"levelo://app?vid=45568187-d384-4625-ae97-7275220b13ab","ios":"levelo://app?vid=45568187-d384-4625-ae97-7275220b13ab"},"vehicle_type_id":"4","last_reported":1737990532,"current_range_meters":30400,"station_id":"ce4bgt92rcd13ifvqcf0","pricing_plan_id":"cebpf4jnsgd1na2vs0mg"},{"bike_id":"8707dca8-5fb6-4e35-a1ec-1f30a01fea05","system_id":"levelo_inurba_marseille","lat":43.295546,"lon":5.42281,"is_reserved":false,"is_disabled":false,"rental_uris":{"android":"levelo://app?vid=8707dca8-5fb6-4e35-a1ec-1f30a01fea05","ios":"levelo://app?vid=8707dca8-5fb6-4e35-a1ec-1f30a01fea05"},"vehicle_type_id":"4","last_reported":1737990532,"current_range_meters":38800,"station_id":"ce4bhph2rcd13ifvqhdg","pricing_plan_id":"cebpf4jnsgd1na2vs0mg"},{"bike_id":"b5f9da4a-0440-436b-86f5-ecc367051a64","system_id":"levelo_inurba_marseille","lat":43.29843,"lon":5.36263,"is_reserved":false,"is_disabled":false,"rental_uris":{"android":"levelo://app?vid=b5f9da4a-0440-436b-86f5-ecc367051a64","ios":"levelo://app?vid=b5f9da4a-0440-436b-86f5-ecc367051a64"},"vehicle_type_id":"4","last_reported":1737990532,"current_range_meters":30800,"station_id":"ce4bgpp2rcd13ifvqc3g","pricing_plan_id":"cebpf4jnsgd1na2vs0mg"},{"bike_id":"1bba2818-ba5c-48a8-b97f-355582cbdb74","system_id":"levelo_inurba_marseille","lat":43.29854,"lon":5.36283,"is_reserved":false,"is_disabled":false,"rental_uris":{"android":"levelo://app?vid=1bba2818-ba5c-48a8-b97f-355582cbdb74","ios":"levelo://app?vid=1bba2818-ba5c-48a8-b97f-355582cbdb74"},"vehicle_type_id":"4","last_reported":1737990532,"current_range_meters":38800,"station_id":"ce4bgpp2rcd13ifvqc3g","pricing_plan_id":"cebpf4jnsgd1na2vs0mg"},{"bike_id":"e6541497-25ea-40cc-b912-3227bd54fcb8","system_id":"levelo_inurba_marseille","lat":43.3126,"lon":5.40157,"is_reserved":false,"is_disabled":false,"rental_uris":{"android":"levelo://app?vid=e6541497-25ea-40cc-b912-3227bd54fcb8","ios":"levelo://app?vid=e6541497-25ea-40cc-b912-3227bd54fcb8"},"vehicle_type_id":"4","last_reported":1737990532,"current_range_meters":38400,"station_id":"ce4bh092rcd13ifvqd30","pricing_plan_id":"cebpf4jnsgd1na2vs0mg"},{"bike_id":"ffb9afd0-7ae1-4c4b-b05d-e6689317df2d","system_id":"levelo_inurba_marseille","lat":43.29096,"lon":5.38113,"is_reserved":false,"is_disabled":false,"rental_uris":{"android":"levelo://app?vid=ffb9afd0-7ae1-4c4b-b05d-e6689317df2d","ios":"levelo://app?vid=ffb9afd0-7ae1-4c4b-b05d-e6689317df2d"},"vehicle_type_id":"4","last_reported":1737990532,"current_range_meters":38400,"station_id":"ce4bh512rcd13ifvqe2g","pricing_plan_id":"cebpf4jnsgd1na2vs0mg"},{"bike_id":"683634b6-a9aa-4806-a38f-1edd083d479f","system_id":"levelo_inurba_marseille","lat":43.29788,"lon":5.38104,"is_reserved":false,"is_disabled":false,"rental_uris":{"android":"levelo://app?vid=683634b6-a9aa-4806-a38f-1edd083d479f","ios":"levelo://app?vid=683634b6-a9aa-4806-a38f-1edd083d479f"},"vehicle_type_id":"4","last_reported":1737990532,"current_range_meters":24000,"station_id":"ce4bgip2rcd13ifvqbb0","pricing_plan_id":"cebpf4jnsgd1na2vs0mg"},{"bike_id":"2256710f-428a-4b6c-afaf-f485da875c48","system_id":"levelo_inurba_marseille","lat":43.28611,"lon":5.35101,"is_reserved":false,"is_disabled":false,"rental_uris":{"android":"levelo://app?vid=2256710f-428a-4b6c-afaf-f485da875c48","ios":"levelo://app?vid=2256710f-428a-4b6c-afaf-f485da875c48"},"vehicle_type_id":"4","last_reported":1737990532,"current_range_meters":19600,"station_id":"ce4bhch2rcd13ifvqeug","pricing_plan_id":"cebpf4jnsgd1na2vs0mg"},{"bike_id":"ab2c796a-c23b-4a3a-9534-777b873d6a05","system_id":"levelo_inurba_marseille","lat":43.24166,"lon":5.36416,"is_reserved":false,"is_disabled":false,"rental_uris":{"android":"levelo://app?vid=ab2c796a-c23b-4a3a-9534-777b873d6a05","ios":"levelo://app?vid=ab2c796a-c23b-4a3a-9534-777b873d6a05"},"vehicle_type_id":"4","last_reported":1737990532,"current_range_meters":24800,"station_id":"cpo36qri1sfpv3e86is0","pricing_plan_id":"cebpf4jnsgd1na2vs0mg"},{"bike_id":"b8902989-d8f3-41d5-8cad-52d24f7ca7a5","system_id":"levelo_inurba_marseille","lat":43.30954,"lon":5.39046,"is_reserved":false,"is_disabled":false,"rental_uris":{"android":"levelo://app?vid=b8902989-d8f3-41d5-8cad-52d24f7ca7a5","ios":"levelo://app?vid=b8902989-d8f3-41d5-8cad-52d24f7ca7a5"},"vehicle_type_id":"4","last_reported":1737990532,"current_range_meters":39200,"station_id":"ce4bgup2rcd13ifvqco0","pricing_plan_id":"cebpf4jnsgd1na2vs0mg"},{"bike_id":"e2a8d0be-1945-4d70-8515-7cde3a6cda5c","system_id":"levelo_inurba_marseille","lat":43.28489,"lon":5.38571,"is_reserved":false,"is_disabled":false,"rental_uris":{"android":"levelo://app?vid=e2a8d0be-1945-4d70-8515-7cde3a6cda5c","ios":"levelo://app?vid=e2a8d0be-1945-4d70-8515-7cde3a6cda5c"},"vehicle_type_id":"4","last_reported":1737990532,"current_range_meters":38800,"station_id":"ce4bh8p2rcd13ifvqeb0","pricing_plan_id":"cebpf4jnsgd1na2vs0mg"},{"bike_id":"5fecc68f-993f-403a-b01f-310bc7fe5b45","system_id":"levelo_inurba_marseille","lat":43.29875,"lon":5.39739,"is_reserved":false,"is_disabled":false,"rental_uris":{"android":"levelo://app?vid=5fecc68f-993f-403a-b01f-310bc7fe5b45","ios":"levelo://app?vid=5fecc68f-993f-403a-b01f-310bc7fe5b45"},"vehicle_type_id":"4","last_reported":1737990532,"current_range_meters":38800,"station_id":"ce4bh0h2rcd13ifvqd50","pricing_plan_id":"cebpf4jnsgd1na2vs0mg"},{"bike_id":"32778fbb-5606-4264-841f-c8160ed30ae8","system_id":"levelo_inurba_marseille","lat":43.30917,"lon":5.40138,"is_reserved":false,"is_disabled":false,"rental_uris":{"android":"levelo://app?vid=32778fbb-5606-4264-841f-c8160ed30ae8","ios":"levelo://app?vid=32778fbb-5606-4264-841f-c8160ed30ae8"},"vehicle_type_id":"4","last_reported":1737990532,"current_range_meters":27600,"station_id":"ce4bgvp2rcd13ifvqct0","pricing_plan_id":"cebpf4jnsgd1na2vs0mg"},{"bike_id":"fef00749-c270-427c-b645-c95b66bb221b","system_id":"levelo_inurba_marseille","lat":43.29866,"lon":5.39741,"is_reserved":false,"is_disabled":false,"rental_uris":{"android":"levelo://app?vid=fef00749-c270-427c-b645-c95b66bb221b","ios":"levelo://app?vid=fef00749-c270-427c-b645-c95b66bb221b"},"vehicle_type_id":"4","last_reported":1737990532,"current_range_meters":16800,"station_id":"ce4bh0h2rcd13ifvqd50","pricing_plan_id":"cebpf4jnsgd1na2vs0mg"},{"bike_id":"d52cb293-13d8-432e-b13d-fe9dc207384e","system_id":"levelo_inurba_marseille","lat":43.29263,"lon":5.38435,"is_reserved":false,"is_disabled":false,"rental_uris":{"android":"levelo://app?vid=d52cb293-13d8-432e-b13d-fe9dc207384e","ios":"levelo://app?vid=d52cb293-13d8-432e-b13d-fe9dc207384e"},"vehicle_type_id":"4","last_reported":1737990532,"current_range_meters":36400,"station_id":"ce4bh692rcd13ifvqea0","pricing_plan_id":"cebpf4jnsgd1na2vs0mg"},{"bike_id":"7f1931ea-f8f7-49af-b2d3-5a2ed406d838","system_id":"levelo_inurba_marseille","lat":43.2707,"lon":5.42276,"is_reserved":false,"is_disabled":false,"rental_uris":{"android":"levelo://app?vid=7f1931ea-f8f7-49af-b2d3-5a2ed406d838","ios":"levelo://app?vid=7f1931ea-f8f7-49af-b2d3-5a2ed406d838"},"vehicle_type_id":"4","last_reported":1737990532,"current_range_meters":21600,"station_id":"ce4bhk92rcd13ifvqgb0","pricing_plan_id":"cebpf4jnsgd1na2vs0mg"},{"bike_id":"84c29870-d5ee-4bb1-bb91-42582a1a5dcb","system_id":"levelo_inurba_marseille","lat":43.30931,"lon":5.40153,"is_reserved":false,"is_disabled":false,"rental_uris":{"android":"levelo://app?vid=84c29870-d5ee-4bb1-bb91-42582a1a5dcb","ios":"levelo://app?vid=84c29870-d5ee-4bb1-bb91-42582a1a5dcb"},"vehicle_type_id":"4","last_reported":1737990532,"current_range_meters":38800,"station_id":"ce4bgvp2rcd13ifvqct0","pricing_plan_id":"cebpf4jnsgd1na2vs0mg"},{"bike_id":"a6708675-eff7-4fc2-a9e6-43a6702fa6d1","system_id":"levelo_inurba_marseille","lat":43.31075,"lon":5.38355,"is_reserved":false,"is_disabled":false,"rental_uris":{"android":"levelo://app?vid=a6708675-eff7-4fc2-a9e6-43a6702fa6d1","ios":"levelo://app?vid=a6708675-eff7-4fc2-a9e6-43a6702fa6d1"},"vehicle_type_id":"4","last_reported":1737990532,"current_range_meters":15200,"station_id":"ce4bgv92rcd13ifvqcr0","pricing_plan_id":"cebpf4jnsgd1na2vs0mg"},{"bike_id":"1215536e-8e5b-4442-b4f3-50d477e17382","system_id":"levelo_inurba_marseille","lat":43.29783,"lon":5.38093,"is_reserved":false,"is_disabled":false,"rental_uris":{"android":"levelo://app?vid=1215536e-8e5b-4442-b4f3-50d477e17382","ios":"levelo://app?vid=1215536e-8e5b-4442-b4f3-50d477e17382"},"vehicle_type_id":"4","last_reported":1737990532,"current_range_meters":32000,"station_id":"ce4bgip2rcd13ifvqbb0","pricing_plan_id":"cebpf4jnsgd1na2vs0mg"},{"bike_id":"2e4c50c6-4dc5-4819-b7ea-543edf031548","system_id":"levelo_inurba_marseille","lat":43.26957,"lon":5.3863,"is_reserved":false,"is_disabled":false,"rental_uris":{"android":"levelo://app?vid=2e4c50c6-4dc5-4819-b7ea-543edf031548","ios":"levelo://app?vid=2e4c50c6-4dc5-4819-b7ea-543edf031548"},"vehicle_type_id":"4","last_reported":1737990532,"current_range_meters":4000,"station_id":"ce4bhh92rcd13ifvqfh0","pricing_plan_id":"cebpf4jnsgd1na2vs0mg"},{"bike_id":"ce37d1ad-cc6d-423f-a465-a0cb0ccd3dbd","system_id":"levelo_inurba_marseille","lat":43.29195,"lon":5.39327,"is_reserved":false,"is_disabled":false,"rental_uris":{"android":"levelo://app?vid=ce37d1ad-cc6d-423f-a465-a0cb0ccd3dbd","ios":"levelo://app?vid=ce37d1ad-cc6d-423f-a465-a0cb0ccd3dbd"},"vehicle_type_id":"4","last_reported":1737990532,"current_range_meters":37600,"station_id":"ce4bh192rcd13ifvqdd0","pricing_plan_id":"cebpf4jnsgd1na2vs0mg"},{"bike_id":"0f99cc36-eb31-417c-831c-e6f0d7903a33","system_id":"levelo_inurba_marseille","lat":43.28417,"lon":5.37515,"is_reserved":false,"is_disabled":false,"rental_uris":{"android":"levelo://app?vid=0f99cc36-eb31-417c-831c-e6f0d7903a33","ios":"levelo://app?vid=0f99cc36-eb31-417c-831c-e6f0d7903a33"},"vehicle_type_id":"4","last_reported":1737990532,"current_range_meters":35600,"station_id":"ce4bh412rcd13ifvqds0","pricing_plan_id":"cebpf4jnsgd1na2vs0mg"},{"bike_id":"9c5bb5ed-3a0c-43c2-8f6b-843ea6f3d349","system_id":"levelo_inurba_marseille","lat":43.29427,"lon":5.38561,"is_reserved":false,"is_disabled":false,"rental_uris":{"android":"levelo://app?vid=9c5bb5ed-3a0c-43c2-8f6b-843ea6f3d349","ios":"levelo://app?vid=9c5bb5ed-3a0c-43c2-8f6b-843ea6f3d349"},"vehicle_type_id":"4","last_reported":1737990532,"current_range_meters":18800,"station_id":"ce4bh2h2rcd13ifvqdh0","pricing_plan_id":"cebpf4jnsgd1na2vs0mg"},{"bike_id":"fb718f77-42be-4664-9cdd-65305dc1c1ba","system_id":"levelo_inurba_marseille","lat":43.23178,"lon":5.39979,"is_reserved":false,"is_disabled":false,"rental_uris":{"android":"levelo://app?vid=fb718f77-42be-4664-9cdd-65305dc1c1ba","ios":"levelo://app?vid=fb718f77-42be-4664-9cdd-65305dc1c1ba"},"vehicle_type_id":"4","last_reported":1737990532,"current_range_meters":34000,"station_id":"ce4bhn12rcd13ifvqgqg","pricing_plan_id":"cebpf4jnsgd1na2vs0mg"},{"bike_id":"43cb41c5-439f-4eb6-9ca9-ddeec93fcf1d","system_id":"levelo_inurba_marseille","lat":43.23966,"lon":5.36626,"is_reserved":false,"is_disabled":false,"rental_uris":{"android":"levelo://app?vid=43cb41c5-439f-4eb6-9ca9-ddeec93fcf1d","ios":"levelo://app?vid=43cb41c5-439f-4eb6-9ca9-ddeec93fcf1d"},"vehicle_type_id":"4","last_reported":1737990532,"current_range_meters":10000,"station_id":"ce4bhi12rcd13ifvqfp0","pricing_plan_id":"cebpf4jnsgd1na2vs0mg"},{"bike_id":"1346ff93-9ddb-4093-aa5d-b6cb09dfef3c","system_id":"levelo_inurba_marseille","lat":43.286266,"lon":5.351009,"is_reserved":false,"is_disabled":false,"rental_uris":{"android":"levelo://app?vid=1346ff93-9ddb-4093-aa5d-b6cb09dfef3c","ios":"levelo://app?vid=1346ff93-9ddb-4093-aa5d-b6cb09dfef3c"},"vehicle_type_id":"4","last_reported":1737990532,"current_range_meters":38000,"station_id":"ce4bhch2rcd13ifvqeug","pricing_plan_id":"cebpf4jnsgd1na2vs0mg"},{"bike_id":"ef37cced-0af8-4cbd-a34e-1c806ccaf1b1","system_id":"levelo_inurba_marseille","lat":43.30935,"lon":5.40139,"is_reserved":false,"is_disabled":false,"rental_uris":{"android":"levelo://app?vid=ef37cced-0af8-4cbd-a34e-1c806ccaf1b1","ios":"levelo://app?vid=ef37cced-0af8-4cbd-a34e-1c806ccaf1b1"},"vehicle_type_id":"4","last_reported":1737990532,"current_range_meters":38800,"station_id":"ce4bgvp2rcd13ifvqct0","pricing_plan_id":"cebpf4jnsgd1na2vs0mg"},{"bike_id":"1d29e75c-7e1e-408c-8ece-b7be92eb3fbf","system_id":"levelo_inurba_marseille","lat":43.32532,"lon":5.41472,"is_reserved":false,"is_disabled":false,"rental_uris":{"android":"levelo://app?vid=1d29e75c-7e1e-408c-8ece-b7be92eb3fbf","ios":"levelo://app?vid=1d29e75c-7e1e-408c-8ece-b7be92eb3fbf"},"vehicle_type_id":"4","last_reported":1737990532,"current_range_meters":39200,"station_id":"ce4bhq12rcd13ifvqhhg","pricing_plan_id":"cebpf4jnsgd1na2vs0mg"},{"bike_id":"fd385a91-9b46-40c2-8837-989124caef2a","system_id":"levelo_inurba_marseille","lat":43.30009,"lon":5.37335,"is_reserved":false,"is_disabled":false,"rental_uris":{"android":"levelo://app?vid=fd385a91-9b46-40c2-8837-989124caef2a","ios":"levelo://app?vid=fd385a91-9b46-40c2-8837-989124caef2a"},"vehicle_type_id":"4","last_reported":1737990532,"current_range_meters":30800,"station_id":"","pricing_plan_id":"cebpf4jnsgd1na2vs0mg"},{"bike_id":"76a03fe2-6853-42db-8972-77b89a64555b","system_id":"levelo_inurba_marseille","lat":43.32101,"lon":5.36779,"is_reserved":false,"is_disabled":true,"rental_uris":{"android":"levelo://app?vid=76a03fe2-6853-42db-8972-77b89a64555b","ios":"levelo://app?vid=76a03fe2-6853-42db-8972-77b89a64555b"},"vehicle_type_id":"4","last_reported":1737990532,"current_range_meters":25200,"station_id":"ce4bhrh2rcd13ifvqhug","pricing_plan_id":"cebpf4jnsgd1na2vs0mg"},{"bike_id":"233f91b9-7a43-4521-b808-2be960d0ed19","system_id":"levelo_inurba_marseille","lat":43.29885,"lon":5.38905,"is_reserved":false,"is_disabled":false,"rental_uris":{"android":"levelo://app?vid=233f91b9-7a43-4521-b808-2be960d0ed19","ios":"levelo://app?vid=233f91b9-7a43-4521-b808-2be960d0ed19"},"vehicle_type_id":"4","last_reported":1737990532,"current_range_meters":20800,"station_id":"ce4bh392rcd13ifvqdl0","pricing_plan_id":"cebpf4jnsgd1na2vs0mg"},{"bike_id":"b01b0706-3a3a-4ff1-ac0d-6b17e48eff7a","system_id":"levelo_inurba_marseille","lat":43.23196,"lon":5.35562,"is_reserved":false,"is_disabled":false,"rental_uris":{"android":"levelo://app?vid=b01b0706-3a3a-4ff1-ac0d-6b17e48eff7a","ios":"levelo://app?vid=b01b0706-3a3a-4ff1-ac0d-6b17e48eff7a"},"vehicle_type_id":"4","last_reported":1737990532,"current_range_meters":36800,"station_id":"ce4bhu92rcd13ifvqi70","pricing_plan_id":"cebpf4jnsgd1na2vs0mg"},{"bike_id":"25927537-ebfd-4ad0-914a-6d68f96d9be7","system_id":"levelo_inurba_marseille","lat":43.3078,"lon":5.37653,"is_reserved":false,"is_disabled":false,"rental_uris":{"android":"levelo://app?vid=25927537-ebfd-4ad0-914a-6d68f96d9be7","ios":"levelo://app?vid=25927537-ebfd-4ad0-914a-6d68f96d9be7"},"vehicle_type_id":"4","last_reported":1737990532,"current_range_meters":38800,"station_id":"ce4bgv92rcd13ifvqcq0","pricing_plan_id":"cebpf4jnsgd1na2vs0mg"},{"bike_id":"8ec8b6fa-9e93-4b54-9125-9cb4dc49a696","system_id":"levelo_inurba_marseille","lat":43.24651,"lon":5.38898,"is_reserved":false,"is_disabled":false,"rental_uris":{"android":"levelo://app?vid=8ec8b6fa-9e93-4b54-9125-9cb4dc49a696","ios":"levelo://app?vid=8ec8b6fa-9e93-4b54-9125-9cb4dc49a696"},"vehicle_type_id":"4","last_reported":1737990532,"current_range_meters":5600,"station_id":"ce4bhg12rcd13ifvqf60","pricing_plan_id":"cebpf4jnsgd1na2vs0mg"},{"bike_id":"9a2c29eb-58e8-4af0-90cf-1e7374decf8b","system_id":"levelo_inurba_marseille","lat":43.32361,"lon":5.38891,"is_reserved":false,"is_disabled":false,"rental_uris":{"android":"levelo://app?vid=9a2c29eb-58e8-4af0-90cf-1e7374decf8b","ios":"levelo://app?vid=9a2c29eb-58e8-4af0-90cf-1e7374decf8b"},"vehicle_type_id":"4","last_reported":1737990532,"current_range_meters":36400,"station_id":"ce4bhqp2rcd13ifvqhog","pricing_plan_id":"cebpf4jnsgd1na2vs0mg"},{"bike_id":"82268c69-bcd8-49fb-91ea-6277b4711aa7","system_id":"levelo_inurba_marseille","lat":43.255502,"lon":5.397854,"is_reserved":false,"is_disabled":false,"rental_uris":{"android":"levelo://app?vid=82268c69-bcd8-49fb-91ea-6277b4711aa7","ios":"levelo://app?vid=82268c69-bcd8-49fb-91ea-6277b4711aa7"},"vehicle_type_id":"4","last_reported":1737990532,"current_range_meters":25600,"station_id":"","pricing_plan_id":"cebpf4jnsgd1na2vs0mg"},{"bike_id":"38c43852-cfec-437a-bfdd-eeb205b66bcd","system_id":"levelo_inurba_marseille","lat":43.30529,"lon":5.36533,"is_reserved":false,"is_disabled":false,"rental_uris":{"android":"levelo://app?vid=38c43852-cfec-437a-bfdd-eeb205b66bcd","ios":"levelo://app?vid=38c43852-cfec-437a-bfdd-eeb205b66bcd"},"vehicle_type_id":"4","last_reported":1737990532,"current_range_meters":37600,"station_id":"ce4bgs12rcd13ifvqcag","pricing_plan_id":"cebpf4jnsgd1na2vs0mg"},{"bike_id":"915df6a6-30bf-4e90-9efc-34ebcb795923","system_id":"levelo_inurba_marseille","lat":43.28451,"lon":5.35875,"is_reserved":false,"is_disabled":false,"rental_uris":{"android":"levelo://app?vid=915df6a6-30bf-4e90-9efc-34ebcb795923","ios":"levelo://app?vid=915df6a6-30bf-4e90-9efc-34ebcb795923"},"vehicle_type_id":"4","last_reported":1737990532,"current_range_meters":16800,"station_id":"ce4bhah2rcd13ifvqei0","pricing_plan_id":"cebpf4jnsgd1na2vs0mg"},{"bike_id":"557d56ee-bd8f-42cf-a74c-f5e827d492cb","system_id":"levelo_inurba_marseille","lat":43.312903,"lon":5.401876,"is_reserved":false,"is_disabled":false,"rental_uris":{"android":"levelo://app?vid=557d56ee-bd8f-42cf-a74c-f5e827d492cb","ios":"levelo://app?vid=557d56ee-bd8f-42cf-a74c-f5e827d492cb"},"vehicle_type_id":"4","last_reported":1737990532,"current_range_meters":10800,"station_id":"ce4bh092rcd13ifvqd30","pricing_plan_id":"cebpf4jnsgd1na2vs0mg"},{"bike_id":"6a3ee740-c358-4353-9ed2-b202f1a70414","system_id":"levelo_inurba_marseille","lat":43.30789,"lon":5.37642,"is_reserved":false,"is_disabled":false,"rental_uris":{"android":"levelo://app?vid=6a3ee740-c358-4353-9ed2-b202f1a70414","ios":"levelo://app?vid=6a3ee740-c358-4353-9ed2-b202f1a70414"},"vehicle_type_id":"4","last_reported":1737990532,"current_range_meters":28800,"station_id":"ce4bgv92rcd13ifvqcq0","pricing_plan_id":"cebpf4jnsgd1na2vs0mg"},{"bike_id":"48eaf086-a58e-442a-ac63-1b1e74c4ac84","system_id":"levelo_inurba_marseille","lat":43.31712,"lon":5.43713,"is_reserved":false,"is_disabled":false,"rental_uris":{"android":"levelo://app?vid=48eaf086-a58e-442a-ac63-1b1e74c4ac84","ios":"levelo://app?vid=48eaf086-a58e-442a-ac63-1b1e74c4ac84"},"vehicle_type_id":"4","last_reported":1737990532,"current_range_meters":39200,"station_id":"ce4bhp92rcd13ifvqhcg","pricing_plan_id":"cebpf4jnsgd1na2vs0mg"},{"bike_id":"7fd84b68-8795-4b64-88b1-cc544e1d0969","system_id":"levelo_inurba_marseille","lat":43.2827,"lon":5.35017,"is_reserved":false,"is_disabled":false,"rental_uris":{"android":"levelo://app?vid=7fd84b68-8795-4b64-88b1-cc544e1d0969","ios":"levelo://app?vid=7fd84b68-8795-4b64-88b1-cc544e1d0969"},"vehicle_type_id":"4","last_reported":1737990532,"current_range_meters":38800,"station_id":"ce4bhbp2rcd13ifvqerg","pricing_plan_id":"cebpf4jnsgd1na2vs0mg"},{"bike_id":"16974289-d35a-466e-b95c-97651ee91e1a","system_id":"levelo_inurba_marseille","lat":43.29791,"lon":5.38104,"is_reserved":false,"is_disabled":false,"rental_uris":{"android":"levelo://app?vid=16974289-d35a-466e-b95c-97651ee91e1a","ios":"levelo://app?vid=16974289-d35a-466e-b95c-97651ee91e1a"},"vehicle_type_id":"4","last_reported":1737990532,"current_range_meters":25200,"station_id":"ce4bgip2rcd13ifvqbb0","pricing_plan_id":"cebpf4jnsgd1na2vs0mg"},{"bike_id":"b5e01c5e-7aba-45f7-833a-cf0cafc2590c","system_id":"levelo_inurba_marseille","lat":43.26937,"lon":5.40253,"is_reserved":false,"is_disabled":false,"rental_uris":{"android":"levelo://app?vid=b5e01c5e-7aba-45f7-833a-cf0cafc2590c","ios":"levelo://app?vid=b5e01c5e-7aba-45f7-833a-cf0cafc2590c"},"vehicle_type_id":"4","last_reported":1737990532,"current_range_meters":20800,"station_id":"cjm6bp8fraef2m0cb0m0","pricing_plan_id":"cebpf4jnsgd1na2vs0mg"},{"bike_id":"73b16524-5bad-446d-b480-50c2aae535df","system_id":"levelo_inurba_marseille","lat":43.29869,"lon":5.39754,"is_reserved":false,"is_disabled":false,"rental_uris":{"android":"levelo://app?vid=73b16524-5bad-446d-b480-50c2aae535df","ios":"levelo://app?vid=73b16524-5bad-446d-b480-50c2aae535df"},"vehicle_type_id":"4","last_reported":1737990532,"current_range_meters":39200,"station_id":"ce4bh0h2rcd13ifvqd50","pricing_plan_id":"cebpf4jnsgd1na2vs0mg"},{"bike_id":"ff68af14-5554-4f8d-a3de-4549d987f602","system_id":"levelo_inurba_marseille","lat":43.29902,"lon":5.43664,"is_reserved":false,"is_disabled":false,"rental_uris":{"android":"levelo://app?vid=ff68af14-5554-4f8d-a3de-4549d987f602","ios":"levelo://app?vid=ff68af14-5554-4f8d-a3de-4549d987f602"},"vehicle_type_id":"4","last_reported":1737990532,"current_range_meters":38800,"station_id":"ce4bhpp2rcd13ifvqhfg","pricing_plan_id":"cebpf4jnsgd1na2vs0mg"},{"bike_id":"75c7a652-25ad-4961-99e9-d34790c80f49","system_id":"levelo_inurba_marseille","lat":43.24992,"lon":5.38935,"is_reserved":false,"is_disabled":false,"rental_uris":{"android":"levelo://app?vid=75c7a652-25ad-4961-99e9-d34790c80f49","ios":"levelo://app?vid=75c7a652-25ad-4961-99e9-d34790c80f49"},"vehicle_type_id":"4","last_reported":1737990532,"current_range_meters":11200,"station_id":"ce4bhgp2rcd13ifvqfd0","pricing_plan_id":"cebpf4jnsgd1na2vs0mg"},{"bike_id":"80f5ff8e-07d9-450a-a18c-a529f01c2db6","system_id":"levelo_inurba_marseille","lat":43.30929,"lon":5.40138,"is_reserved":false,"is_disabled":false,"rental_uris":{"android":"levelo://app?vid=80f5ff8e-07d9-450a-a18c-a529f01c2db6","ios":"levelo://app?vid=80f5ff8e-07d9-450a-a18c-a529f01c2db6"},"vehicle_type_id":"4","last_reported":1737990532,"current_range_meters":31200,"station_id":"ce4bgvp2rcd13ifvqct0","pricing_plan_id":"cebpf4jnsgd1na2vs0mg"},{"bike_id":"ac237d07-905a-4bd4-8544-6e177aa49f6a","system_id":"levelo_inurba_marseille","lat":43.29869,"lon":5.39726,"is_reserved":false,"is_disabled":false,"rental_uris":{"android":"levelo://app?vid=ac237d07-905a-4bd4-8544-6e177aa49f6a","ios":"levelo://app?vid=ac237d07-905a-4bd4-8544-6e177aa49f6a"},"vehicle_type_id":"4","last_reported":1737990532,"current_range_meters":26000,"station_id":"ce4bh0h2rcd13ifvqd50","pricing_plan_id":"cebpf4jnsgd1na2vs0mg"},{"bike_id":"e02cc181-fae8-4627-9070-19cdd3303066","system_id":"levelo_inurba_marseille","lat":43.29796,"lon":5.40415,"is_reserved":false,"is_disabled":false,"rental_uris":{"android":"levelo://app?vid=e02cc181-fae8-4627-9070-19cdd3303066","ios":"levelo://app?vid=e02cc181-fae8-4627-9070-19cdd3303066"},"vehicle_type_id":"4","last_reported":1737990532,"current_range_meters":39200,"station_id":"ce4bh112rcd13ifvqd90","pricing_plan_id":"cebpf4jnsgd1na2vs0mg"},{"bike_id":"7821683e-625b-4cd6-bca2-7a1ae3005e83","system_id":"levelo_inurba_marseille","lat":43.30207,"lon":5.39457,"is_reserved":false,"is_disabled":false,"rental_uris":{"android":"levelo://app?vid=7821683e-625b-4cd6-bca2-7a1ae3005e83","ios":"levelo://app?vid=7821683e-625b-4cd6-bca2-7a1ae3005e83"},"vehicle_type_id":"4","last_reported":1737990532,"current_range_meters":38800,"station_id":"ce4bh0p2rcd13ifvqd70","pricing_plan_id":"cebpf4jnsgd1na2vs0mg"},{"bike_id":"86b498e3-784c-4315-9910-77930c320efa","system_id":"levelo_inurba_marseille","lat":43.28602,"lon":5.37059,"is_reserved":false,"is_disabled":false,"rental_uris":{"android":"levelo://app?vid=86b498e3-784c-4315-9910-77930c320efa","ios":"levelo://app?vid=86b498e3-784c-4315-9910-77930c320efa"},"vehicle_type_id":"4","last_reported":1737990532,"current_range_meters":37600,"station_id":"ce4bht12rcd13ifvqi60","pricing_plan_id":"cebpf4jnsgd1na2vs0mg"},{"bike_id":"04add264-7ffa-44ea-8a2f-32324a7ecc6f","system_id":"levelo_inurba_marseille","lat":43.25742,"lon":5.41091,"is_reserved":false,"is_disabled":false,"rental_uris":{"android":"levelo://app?vid=04add264-7ffa-44ea-8a2f-32324a7ecc6f","ios":"levelo://app?vid=04add264-7ffa-44ea-8a2f-32324a7ecc6f"},"vehicle_type_id":"4","last_reported":1737990532,"current_range_meters":16800,"station_id":"ce4bhkp2rcd13ifvqgd0","pricing_plan_id":"cebpf4jnsgd1na2vs0mg"},{"bike_id":"aa4a7bc4-17d1-48c8-8c93-012dd74c52c3","system_id":"levelo_inurba_marseille","lat":43.30514,"lon":5.36506,"is_reserved":false,"is_disabled":false,"rental_uris":{"android":"levelo://app?vid=aa4a7bc4-17d1-48c8-8c93-012dd74c52c3","ios":"levelo://app?vid=aa4a7bc4-17d1-48c8-8c93-012dd74c52c3"},"vehicle_type_id":"4","last_reported":1737990532,"current_range_meters":8000,"station_id":"","pricing_plan_id":"cebpf4jnsgd1na2vs0mg"},{"bike_id":"8c772f1a-bac2-41fc-878f-d0d152dc8c92","system_id":"levelo_inurba_marseille","lat":43.29178,"lon":5.38226,"is_reserved":false,"is_disabled":false,"rental_uris":{"android":"levelo://app?vid=8c772f1a-bac2-41fc-878f-d0d152dc8c92","ios":"levelo://app?vid=8c772f1a-bac2-41fc-878f-d0d152dc8c92"},"vehicle_type_id":"4","last_reported":1737990532,"current_range_meters":4800,"station_id":"","pricing_plan_id":"cebpf4jnsgd1na2vs0mg"},{"bike_id":"6d301d54-3fe2-456f-9752-1a1a8fa0c2b5","system_id":"levelo_inurba_marseille","lat":43.31357,"lon":5.36718,"is_reserved":false,"is_disabled":false,"rental_uris":{"android":"levelo://app?vid=6d301d54-3fe2-456f-9752-1a1a8fa0c2b5","ios":"levelo://app?vid=6d301d54-3fe2-456f-9752-1a1a8fa0c2b5"},"vehicle_type_id":"4","last_reported":1737990532,"current_range_meters":38800,"station_id":"ce4bgr92rcd13ifvqc6g","pricing_plan_id":"cebpf4jnsgd1na2vs0mg"},{"bike_id":"bb99704f-e033-4ae8-a7fb-29e6cc77930e","system_id":"levelo_inurba_marseille","lat":43.28075,"lon":5.39642,"is_reserved":false,"is_disabled":false,"rental_uris":{"android":"levelo://app?vid=bb99704f-e033-4ae8-a7fb-29e6cc77930e","ios":"levelo://app?vid=bb99704f-e033-4ae8-a7fb-29e6cc77930e"},"vehicle_type_id":"4","last_reported":1737990532,"current_range_meters":38800,"station_id":"ce4bho12rcd13ifvqh2g","pricing_plan_id":"cebpf4jnsgd1na2vs0mg"},{"bike_id":"f9173de2-2fa5-436f-a76b-3c96bd571284","system_id":"levelo_inurba_marseille","lat":43.29841,"lon":5.40434,"is_reserved":false,"is_disabled":false,"rental_uris":{"android":"levelo://app?vid=f9173de2-2fa5-436f-a76b-3c96bd571284","ios":"levelo://app?vid=f9173de2-2fa5-436f-a76b-3c96bd571284"},"vehicle_type_id":"4","last_reported":1737990532,"current_range_meters":38800,"station_id":"ce4bh112rcd13ifvqd90","pricing_plan_id":"cebpf4jnsgd1na2vs0mg"},{"bike_id":"c9bab0ad-8a1a-49b4-ace1-a3def6f513e0","system_id":"levelo_inurba_marseille","lat":43.30928,"lon":5.40139,"is_reserved":false,"is_disabled":false,"rental_uris":{"android":"levelo://app?vid=c9bab0ad-8a1a-49b4-ace1-a3def6f513e0","ios":"levelo://app?vid=c9bab0ad-8a1a-49b4-ace1-a3def6f513e0"},"vehicle_type_id":"4","last_reported":1737990532,"current_range_meters":38800,"station_id":"ce4bgvp2rcd13ifvqct0","pricing_plan_id":"cebpf4jnsgd1na2vs0mg"},{"bike_id":"ce7496b9-3a07-4d4e-974e-09d44b1427a4","system_id":"levelo_inurba_marseille","lat":43.28467,"lon":5.38433,"is_reserved":false,"is_disabled":false,"rental_uris":{"android":"levelo://app?vid=ce7496b9-3a07-4d4e-974e-09d44b1427a4","ios":"levelo://app?vid=ce7496b9-3a07-4d4e-974e-09d44b1427a4"},"vehicle_type_id":"4","last_reported":1737990532,"current_range_meters":10800,"station_id":"ce4bh512rcd13ifvqe3g","pricing_plan_id":"cebpf4jnsgd1na2vs0mg"},{"bike_id":"898c73dd-ea29-44c4-8920-c7e6977e7d5f","system_id":"levelo_inurba_marseille","lat":43.27207,"lon":5.39174,"is_reserved":false,"is_disabled":false,"rental_uris":{"android":"levelo://app?vid=898c73dd-ea29-44c4-8920-c7e6977e7d5f","ios":"levelo://app?vid=898c73dd-ea29-44c4-8920-c7e6977e7d5f"},"vehicle_type_id":"4","last_reported":1737990532,"current_range_meters":16800,"station_id":"ce4bhhp2rcd13ifvqfm0","pricing_plan_id":"cebpf4jnsgd1na2vs0mg"},{"bike_id":"ee675d8a-6840-4613-a736-66d8d6605b20","system_id":"levelo_inurba_marseille","lat":43.29932,"lon":5.36533,"is_reserved":false,"is_disabled":false,"rental_uris":{"android":"levelo://app?vid=ee675d8a-6840-4613-a736-66d8d6605b20","ios":"levelo://app?vid=ee675d8a-6840-4613-a736-66d8d6605b20"},"vehicle_type_id":"4","last_reported":1737990532,"current_range_meters":22800,"station_id":"ce4bgm92rcd13ifvqbr0","pricing_plan_id":"cebpf4jnsgd1na2vs0mg"},{"bike_id":"26c5f55d-b689-44ba-bcbe-576c29c6025c","system_id":"levelo_inurba_marseille","lat":43.337359,"lon":5.391872,"is_reserved":false,"is_disabled":false,"rental_uris":{"android":"levelo://app?vid=26c5f55d-b689-44ba-bcbe-576c29c6025c","ios":"levelo://app?vid=26c5f55d-b689-44ba-bcbe-576c29c6025c"},"vehicle_type_id":"4","last_reported":1737990532,"current_range_meters":24800,"station_id":"ce4bhr92rcd13ifvqhsg","pricing_plan_id":"cebpf4jnsgd1na2vs0mg"},{"bike_id":"dca1b3f1-bf12-4d48-b32e-51e78b8700aa","system_id":"levelo_inurba_marseille","lat":43.33015,"lon":5.39041,"is_reserved":false,"is_disabled":false,"rental_uris":{"android":"levelo://app?vid=dca1b3f1-bf12-4d48-b32e-51e78b8700aa","ios":"levelo://app?vid=dca1b3f1-bf12-4d48-b32e-51e78b8700aa"},"vehicle_type_id":"4","last_reported":1737990532,"current_range_meters":38400,"station_id":"ce4bhr92rcd13ifvqhrg","pricing_plan_id":"cebpf4jnsgd1na2vs0mg"},{"bike_id":"e09de9e7-4909-4413-b590-2dea2722814c","system_id":"levelo_inurba_marseille","lat":43.269599,"lon":5.386304,"is_reserved":false,"is_disabled":false,"rental_uris":{"android":"levelo://app?vid=e09de9e7-4909-4413-b590-2dea2722814c","ios":"levelo://app?vid=e09de9e7-4909-4413-b590-2dea2722814c"},"vehicle_type_id":"4","last_reported":1737990532,"current_range_meters":17200,"station_id":"ce4bhn12rcd13ifvqgqg","pricing_plan_id":"cebpf4jnsgd1na2vs0mg"},{"bike_id":"8a285e66-d2f7-48b3-8bbe-94f30f71df1b","system_id":"levelo_inurba_marseille","lat":43.31373,"lon":5.38505,"is_reserved":false,"is_disabled":false,"rental_uris":{"android":"levelo://app?vid=8a285e66-d2f7-48b3-8bbe-94f30f71df1b","ios":"levelo://app?vid=8a285e66-d2f7-48b3-8bbe-94f30f71df1b"},"vehicle_type_id":"4","last_reported":1737990532,"current_range_meters":16800,"station_id":"ce4bgt92rcd13ifvqcf0","pricing_plan_id":"cebpf4jnsgd1na2vs0mg"},{"bike_id":"4ee7a4b2-dea3-4f4a-a76b-2d1e4fcbcafe","system_id":"levelo_inurba_marseille","lat":43.28475,"lon":5.38571,"is_reserved":false,"is_disabled":true,"rental_uris":{"android":"levelo://app?vid=4ee7a4b2-dea3-4f4a-a76b-2d1e4fcbcafe","ios":"levelo://app?vid=4ee7a4b2-dea3-4f4a-a76b-2d1e4fcbcafe"},"vehicle_type_id":"4","last_reported":1737990532,"current_range_meters":1600,"station_id":"ce4bh8p2rcd13ifvqeb0","pricing_plan_id":"cebpf4jnsgd1na2vs0mg"},{"bike_id":"c772779b-3b78-4143-a73c-c60232eed73c","system_id":"levelo_inurba_marseille","lat":43.32537,"lon":5.41451,"is_reserved":false,"is_disabled":false,"rental_uris":{"android":"levelo://app?vid=c772779b-3b78-4143-a73c-c60232eed73c","ios":"levelo://app?vid=c772779b-3b78-4143-a73c-c60232eed73c"},"vehicle_type_id":"4","last_reported":1737990532,"current_range_meters":35600,"station_id":"ce4bhq12rcd13ifvqhhg","pricing_plan_id":"cebpf4jnsgd1na2vs0mg"},{"bike_id":"e3e26aee-15e1-425c-a48f-db58aa520742","system_id":"levelo_inurba_marseille","lat":43.230727,"lon":5.35494,"is_reserved":false,"is_disabled":false,"rental_uris":{"android":"levelo://app?vid=e3e26aee-15e1-425c-a48f-db58aa520742","ios":"levelo://app?vid=e3e26aee-15e1-425c-a48f-db58aa520742"},"vehicle_type_id":"4","last_reported":1737990532,"current_range_meters":38800,"station_id":"cpo3342slgdg3j2ifvpg","pricing_plan_id":"cebpf4jnsgd1na2vs0mg"},{"bike_id":"414e9e87-13c8-4dd8-9df6-7723400a2d87","system_id":"levelo_inurba_marseille","lat":43.25916,"lon":5.40886,"is_reserved":false,"is_disabled":false,"rental_uris":{"android":"levelo://app?vid=414e9e87-13c8-4dd8-9df6-7723400a2d87","ios":"levelo://app?vid=414e9e87-13c8-4dd8-9df6-7723400a2d87"},"vehicle_type_id":"4","last_reported":1737990532,"current_range_meters":38800,"station_id":"ce4bhm92rcd13ifvqglg","pricing_plan_id":"cebpf4jnsgd1na2vs0mg"},{"bike_id":"4f0d564d-d2c5-4d63-8272-ec4ed8b18df2","system_id":"levelo_inurba_marseille","lat":43.25909,"lon":5.4089,"is_reserved":false,"is_disabled":false,"rental_uris":{"android":"levelo://app?vid=4f0d564d-d2c5-4d63-8272-ec4ed8b18df2","ios":"levelo://app?vid=4f0d564d-d2c5-4d63-8272-ec4ed8b18df2"},"vehicle_type_id":"4","last_reported":1737990532,"current_range_meters":30800,"station_id":"ce4bhm92rcd13ifvqglg","pricing_plan_id":"cebpf4jnsgd1na2vs0mg"},{"bike_id":"7c78a755-c7f5-4f07-a96b-621451d47948","system_id":"levelo_inurba_marseille","lat":43.29898,"lon":5.43669,"is_reserved":false,"is_disabled":false,"rental_uris":{"android":"levelo://app?vid=7c78a755-c7f5-4f07-a96b-621451d47948","ios":"levelo://app?vid=7c78a755-c7f5-4f07-a96b-621451d47948"},"vehicle_type_id":"4","last_reported":1737990532,"current_range_meters":27600,"station_id":"ce4bhpp2rcd13ifvqhfg","pricing_plan_id":"cebpf4jnsgd1na2vs0mg"},{"bike_id":"8400879d-33a5-4d4b-a222-8873fd1245ce","system_id":"levelo_inurba_marseille","lat":43.25503,"lon":5.37649,"is_reserved":false,"is_disabled":false,"rental_uris":{"android":"levelo://app?vid=8400879d-33a5-4d4b-a222-8873fd1245ce","ios":"levelo://app?vid=8400879d-33a5-4d4b-a222-8873fd1245ce"},"vehicle_type_id":"4","last_reported":1737990532,"current_range_meters":39200,"station_id":"ce4bhh12rcd13ifvqff0","pricing_plan_id":"cebpf4jnsgd1na2vs0mg"},{"bike_id":"e1d2b012-55a7-44cf-ae4a-384d38b76e20","system_id":"levelo_inurba_marseille","lat":43.26216,"lon":5.37427,"is_reserved":false,"is_disabled":false,"rental_uris":{"android":"levelo://app?vid=e1d2b012-55a7-44cf-ae4a-384d38b76e20","ios":"levelo://app?vid=e1d2b012-55a7-44cf-ae4a-384d38b76e20"},"vehicle_type_id":"4","last_reported":1737990532,"current_range_meters":35200,"station_id":"ce4bhgp2rcd13ifvqfc0","pricing_plan_id":"cebpf4jnsgd1na2vs0mg"},{"bike_id":"900407a7-75f0-4cd6-8c5d-8390a10e969b","system_id":"levelo_inurba_marseille","lat":43.29412,"lon":5.37816,"is_reserved":false,"is_disabled":false,"rental_uris":{"android":"levelo://app?vid=900407a7-75f0-4cd6-8c5d-8390a10e969b","ios":"levelo://app?vid=900407a7-75f0-4cd6-8c5d-8390a10e969b"},"vehicle_type_id":"4","last_reported":1737990532,"current_range_meters":38800,"station_id":"","pricing_plan_id":"cebpf4jnsgd1na2vs0mg"},{"bike_id":"74760170-6b49-496b-8088-5b1a48629d0e","system_id":"levelo_inurba_marseille","lat":43.24176,"lon":5.39737,"is_reserved":false,"is_disabled":false,"rental_uris":{"android":"levelo://app?vid=74760170-6b49-496b-8088-5b1a48629d0e","ios":"levelo://app?vid=74760170-6b49-496b-8088-5b1a48629d0e"},"vehicle_type_id":"4","last_reported":1737990532,"current_range_meters":28000,"station_id":"ce4bhn12rcd13ifvqgpg","pricing_plan_id":"cebpf4jnsgd1na2vs0mg"},{"bike_id":"2e8cb5cb-ea57-4a34-95b6-d2b0f59fee09","system_id":"levelo_inurba_marseille","lat":43.30533,"lon":5.36552,"is_reserved":false,"is_disabled":false,"rental_uris":{"android":"levelo://app?vid=2e8cb5cb-ea57-4a34-95b6-d2b0f59fee09","ios":"levelo://app?vid=2e8cb5cb-ea57-4a34-95b6-d2b0f59fee09"},"vehicle_type_id":"4","last_reported":1737990532,"current_range_meters":11600,"station_id":"ce4bgs12rcd13ifvqcag","pricing_plan_id":"cebpf4jnsgd1na2vs0mg"},{"bike_id":"a48a4fa8-387b-4ecc-bc7a-c3f07822bf47","system_id":"levelo_inurba_marseille","lat":43.27065,"lon":5.39241,"is_reserved":false,"is_disabled":true,"rental_uris":{"android":"levelo://app?vid=a48a4fa8-387b-4ecc-bc7a-c3f07822bf47","ios":"levelo://app?vid=a48a4fa8-387b-4ecc-bc7a-c3f07822bf47"},"vehicle_type_id":"4","last_reported":1737990532,"current_range_meters":0,"station_id":"","pricing_plan_id":"cebpf4jnsgd1na2vs0mg"},{"bike_id":"e30db756-0831-4170-9ebb-5007ad177c75","system_id":"levelo_inurba_marseille","lat":43.28459,"lon":5.35893,"is_reserved":false,"is_disabled":false,"rental_uris":{"android":"levelo://app?vid=e30db756-0831-4170-9ebb-5007ad177c75","ios":"levelo://app?vid=e30db756-0831-4170-9ebb-5007ad177c75"},"vehicle_type_id":"4","last_reported":1737990532,"current_range_meters":38400,"station_id":"ce4bhah2rcd13ifvqei0","pricing_plan_id":"cebpf4jnsgd1na2vs0mg"},{"bike_id":"a8d0380b-0a88-41c3-845f-e00ffb2cbc88","system_id":"levelo_inurba_marseille","lat":43.27984,"lon":5.4002,"is_reserved":false,"is_disabled":true,"rental_uris":{"android":"levelo://app?vid=a8d0380b-0a88-41c3-845f-e00ffb2cbc88","ios":"levelo://app?vid=a8d0380b-0a88-41c3-845f-e00ffb2cbc88"},"vehicle_type_id":"4","last_reported":1737990532,"current_range_meters":30000,"station_id":"ce4bho92rcd13ifvqh4g","pricing_plan_id":"cebpf4jnsgd1na2vs0mg"},{"bike_id":"ab4b2f25-068f-4c1f-b709-3c0cbf337322","system_id":"levelo_inurba_marseille","lat":43.23149,"lon":5.43716,"is_reserved":false,"is_disabled":false,"rental_uris":{"android":"levelo://app?vid=ab4b2f25-068f-4c1f-b709-3c0cbf337322","ios":"levelo://app?vid=ab4b2f25-068f-4c1f-b709-3c0cbf337322"},"vehicle_type_id":"4","last_reported":1737990532,"current_range_meters":38800,"station_id":"ce4bhmp2rcd13ifvqgog","pricing_plan_id":"cebpf4jnsgd1na2vs0mg"},{"bike_id":"8952082f-90d1-4d8a-b185-7a0720f67049","system_id":"levelo_inurba_marseille","lat":43.30252,"lon":5.40068,"is_reserved":false,"is_disabled":false,"rental_uris":{"android":"levelo://app?vid=8952082f-90d1-4d8a-b185-7a0720f67049","ios":"levelo://app?vid=8952082f-90d1-4d8a-b185-7a0720f67049"},"vehicle_type_id":"4","last_reported":1737990532,"current_range_meters":4800,"station_id":"ce4bgvh2rcd13ifvqcs0","pricing_plan_id":"cebpf4jnsgd1na2vs0mg"},{"bike_id":"9c09af66-30f1-488d-910d-a8a905d02871","system_id":"levelo_inurba_marseille","lat":43.293904,"lon":5.379286,"is_reserved":false,"is_disabled":true,"rental_uris":{"android":"levelo://app?vid=9c09af66-30f1-488d-910d-a8a905d02871","ios":"levelo://app?vid=9c09af66-30f1-488d-910d-a8a905d02871"},"vehicle_type_id":"4","last_reported":1737990532,"current_range_meters":0,"station_id":"","pricing_plan_id":"cebpf4jnsgd1na2vs0mg"},{"bike_id":"99b52a5e-882a-4ab5-9c01-6d031bcd5130","system_id":"levelo_inurba_marseille","lat":43.30208,"lon":5.39471,"is_reserved":false,"is_disabled":false,"rental_uris":{"android":"levelo://app?vid=99b52a5e-882a-4ab5-9c01-6d031bcd5130","ios":"levelo://app?vid=99b52a5e-882a-4ab5-9c01-6d031bcd5130"},"vehicle_type_id":"4","last_reported":1737990532,"current_range_meters":21600,"station_id":"ce4bh0p2rcd13ifvqd70","pricing_plan_id":"cebpf4jnsgd1na2vs0mg"},{"bike_id":"55ce0113-4727-4a9c-b854-39123f772d0f","system_id":"levelo_inurba_marseille","lat":43.30246,"lon":5.40057,"is_reserved":false,"is_disabled":false,"rental_uris":{"android":"levelo://app?vid=55ce0113-4727-4a9c-b854-39123f772d0f","ios":"levelo://app?vid=55ce0113-4727-4a9c-b854-39123f772d0f"},"vehicle_type_id":"4","last_reported":1737990532,"current_range_meters":16400,"station_id":"ce4bgvh2rcd13ifvqcs0","pricing_plan_id":"cebpf4jnsgd1na2vs0mg"},{"bike_id":"c62a51d5-db8e-4ebe-8bc8-65edfb0b8e96","system_id":"levelo_inurba_marseille","lat":43.3108,"lon":5.3835,"is_reserved":false,"is_disabled":false,"rental_uris":{"android":"levelo://app?vid=c62a51d5-db8e-4ebe-8bc8-65edfb0b8e96","ios":"levelo://app?vid=c62a51d5-db8e-4ebe-8bc8-65edfb0b8e96"},"vehicle_type_id":"4","last_reported":1737990532,"current_range_meters":16800,"station_id":"ce4bgv92rcd13ifvqcr0","pricing_plan_id":"cebpf4jnsgd1na2vs0mg"},{"bike_id":"22e948b1-900e-4a5c-9a5a-b682c4d5119c","system_id":"levelo_inurba_marseille","lat":43.23146,"lon":5.43716,"is_reserved":false,"is_disabled":false,"rental_uris":{"android":"levelo://app?vid=22e948b1-900e-4a5c-9a5a-b682c4d5119c","ios":"levelo://app?vid=22e948b1-900e-4a5c-9a5a-b682c4d5119c"},"vehicle_type_id":"4","last_reported":1737990532,"current_range_meters":24400,"station_id":"ce4bhmp2rcd13ifvqgog","pricing_plan_id":"cebpf4jnsgd1na2vs0mg"},{"bike_id":"af11d72a-309f-4d86-93b0-f50e6ca780fd","system_id":"levelo_inurba_marseille","lat":43.29798,"lon":5.38102,"is_reserved":false,"is_disabled":false,"rental_uris":{"android":"levelo://app?vid=af11d72a-309f-4d86-93b0-f50e6ca780fd","ios":"levelo://app?vid=af11d72a-309f-4d86-93b0-f50e6ca780fd"},"vehicle_type_id":"4","last_reported":1737990532,"current_range_meters":17600,"station_id":"ce4bgip2rcd13ifvqbb0","pricing_plan_id":"cebpf4jnsgd1na2vs0mg"},{"bike_id":"c438c788-2c8f-4eda-8233-a8485c23c4af","system_id":"levelo_inurba_marseille","lat":43.30416,"lon":5.41289,"is_reserved":false,"is_disabled":true,"rental_uris":{"android":"levelo://app?vid=c438c788-2c8f-4eda-8233-a8485c23c4af","ios":"levelo://app?vid=c438c788-2c8f-4eda-8233-a8485c23c4af"},"vehicle_type_id":"4","last_reported":1737990532,"current_range_meters":0,"station_id":"ce4bhop2rcd13ifvqh8g","pricing_plan_id":"cebpf4jnsgd1na2vs0mg"},{"bike_id":"c2be73b7-5288-4722-9067-c8e77bf6e2a3","system_id":"levelo_inurba_marseille","lat":43.29022,"lon":5.3813,"is_reserved":false,"is_disabled":false,"rental_uris":{"android":"levelo://app?vid=c2be73b7-5288-4722-9067-c8e77bf6e2a3","ios":"levelo://app?vid=c2be73b7-5288-4722-9067-c8e77bf6e2a3"},"vehicle_type_id":"4","last_reported":1737990532,"current_range_meters":36400,"station_id":"ce4bh4p2rcd13ifvqe1g","pricing_plan_id":"cebpf4jnsgd1na2vs0mg"},{"bike_id":"680f1831-190b-4a69-ac07-c5913441d214","system_id":"levelo_inurba_marseille","lat":43.3088,"lon":5.39638,"is_reserved":false,"is_disabled":false,"rental_uris":{"android":"levelo://app?vid=680f1831-190b-4a69-ac07-c5913441d214","ios":"levelo://app?vid=680f1831-190b-4a69-ac07-c5913441d214"},"vehicle_type_id":"4","last_reported":1737990532,"current_range_meters":38800,"station_id":"ce4bh012rcd13ifvqcv0","pricing_plan_id":"cebpf4jnsgd1na2vs0mg"},{"bike_id":"c0e9afac-3027-4e6b-b5e9-3196c155323d","system_id":"levelo_inurba_marseille","lat":43.324853,"lon":5.365623,"is_reserved":false,"is_disabled":false,"rental_uris":{"android":"levelo://app?vid=c0e9afac-3027-4e6b-b5e9-3196c155323d","ios":"levelo://app?vid=c0e9afac-3027-4e6b-b5e9-3196c155323d"},"vehicle_type_id":"4","last_reported":1737990532,"current_range_meters":17600,"station_id":"ce4bhs12rcd13ifvqhvg","pricing_plan_id":"cebpf4jnsgd1na2vs0mg"},{"bike_id":"5c77f4d0-4bb3-4a26-bc92-b4bb99af68bf","system_id":"levelo_inurba_marseille","lat":43.29786,"lon":5.38095,"is_reserved":false,"is_disabled":false,"rental_uris":{"android":"levelo://app?vid=5c77f4d0-4bb3-4a26-bc92-b4bb99af68bf","ios":"levelo://app?vid=5c77f4d0-4bb3-4a26-bc92-b4bb99af68bf"},"vehicle_type_id":"4","last_reported":1737990532,"current_range_meters":39200,"station_id":"ce4bgip2rcd13ifvqbb0","pricing_plan_id":"cebpf4jnsgd1na2vs0mg"},{"bike_id":"ee0b4cd5-99fe-4d06-bec7-ab86f35f9695","system_id":"levelo_inurba_marseille","lat":43.29088,"lon":5.38156,"is_reserved":false,"is_disabled":false,"rental_uris":{"android":"levelo://app?vid=ee0b4cd5-99fe-4d06-bec7-ab86f35f9695","ios":"levelo://app?vid=ee0b4cd5-99fe-4d06-bec7-ab86f35f9695"},"vehicle_type_id":"4","last_reported":1737990532,"current_range_meters":28000,"station_id":"ce4bh512rcd13ifvqe2g","pricing_plan_id":"cebpf4jnsgd1na2vs0mg"},{"bike_id":"3d98c6ce-e80d-46e8-b577-648cd8c28632","system_id":"levelo_inurba_marseille","lat":43.34699,"lon":5.34741,"is_reserved":false,"is_disabled":true,"rental_uris":{"android":"levelo://app?vid=3d98c6ce-e80d-46e8-b577-648cd8c28632","ios":"levelo://app?vid=3d98c6ce-e80d-46e8-b577-648cd8c28632"},"vehicle_type_id":"4","last_reported":1737990532,"current_range_meters":0,"station_id":"","pricing_plan_id":"cebpf4jnsgd1na2vs0mg"},{"bike_id":"a47bb96c-8b72-4f0c-b810-e2652abe0975","system_id":"levelo_inurba_marseille","lat":43.31197,"lon":5.3685,"is_reserved":false,"is_disabled":false,"rental_uris":{"android":"levelo://app?vid=a47bb96c-8b72-4f0c-b810-e2652abe0975","ios":"levelo://app?vid=a47bb96c-8b72-4f0c-b810-e2652abe0975"},"vehicle_type_id":"4","last_reported":1737990532,"current_range_meters":14000,"station_id":"ce4bgl92rcd13ifvqbq0","pricing_plan_id":"cebpf4jnsgd1na2vs0mg"},{"bike_id":"16cba4e1-cb10-44ef-b1a1-eca95385335f","system_id":"levelo_inurba_marseille","lat":43.28416,"lon":5.34988,"is_reserved":false,"is_disabled":true,"rental_uris":{"android":"levelo://app?vid=16cba4e1-cb10-44ef-b1a1-eca95385335f","ios":"levelo://app?vid=16cba4e1-cb10-44ef-b1a1-eca95385335f"},"vehicle_type_id":"4","last_reported":1737990532,"current_range_meters":35200,"station_id":"ce4bhbh2rcd13ifvqepg","pricing_plan_id":"cebpf4jnsgd1na2vs0mg"},{"bike_id":"9c6c808c-2344-4484-b654-8a68fb115aa6","system_id":"levelo_inurba_marseille","lat":43.31434,"lon":5.37402,"is_reserved":false,"is_disabled":false,"rental_uris":{"android":"levelo://app?vid=9c6c808c-2344-4484-b654-8a68fb115aa6","ios":"levelo://app?vid=9c6c808c-2344-4484-b654-8a68fb115aa6"},"vehicle_type_id":"4","last_reported":1737990532,"current_range_meters":33600,"station_id":"","pricing_plan_id":"cebpf4jnsgd1na2vs0mg"},{"bike_id":"9307df25-cc6d-45fb-af52-7a3bcf343e82","system_id":"levelo_inurba_marseille","lat":43.26556,"lon":5.37302,"is_reserved":false,"is_disabled":false,"rental_uris":{"android":"levelo://app?vid=9307df25-cc6d-45fb-af52-7a3bcf343e82","ios":"levelo://app?vid=9307df25-cc6d-45fb-af52-7a3bcf343e82"},"vehicle_type_id":"4","last_reported":1737990532,"current_range_meters":18800,"station_id":"ce4bhg12rcd13ifvqf70","pricing_plan_id":"cebpf4jnsgd1na2vs0mg"},{"bike_id":"f972a488-1777-4d74-b63f-8f38aa546bd1","system_id":"levelo_inurba_marseille","lat":43.25577,"lon":5.38231,"is_reserved":false,"is_disabled":false,"rental_uris":{"android":"levelo://app?vid=f972a488-1777-4d74-b63f-8f38aa546bd1","ios":"levelo://app?vid=f972a488-1777-4d74-b63f-8f38aa546bd1"},"vehicle_type_id":"4","last_reported":1737990532,"current_range_meters":10800,"station_id":"ce4bhih2rcd13ifvqfs0","pricing_plan_id":"cebpf4jnsgd1na2vs0mg"},{"bike_id":"8fc5f132-29ed-47c1-bff0-bf17728d82ae","system_id":"levelo_inurba_marseille","lat":43.29364,"lon":5.37861,"is_reserved":false,"is_disabled":true,"rental_uris":{"android":"levelo://app?vid=8fc5f132-29ed-47c1-bff0-bf17728d82ae","ios":"levelo://app?vid=8fc5f132-29ed-47c1-bff0-bf17728d82ae"},"vehicle_type_id":"4","last_reported":1737990532,"current_range_meters":29600,"station_id":"ce4bgjh2rcd13ifvqbf0","pricing_plan_id":"cebpf4jnsgd1na2vs0mg"},{"bike_id":"3ae2459c-d819-4beb-9257-967fe7b3c694","system_id":"levelo_inurba_marseille","lat":43.31684,"lon":5.40467,"is_reserved":false,"is_disabled":false,"rental_uris":{"android":"levelo://app?vid=3ae2459c-d819-4beb-9257-967fe7b3c694","ios":"levelo://app?vid=3ae2459c-d819-4beb-9257-967fe7b3c694"},"vehicle_type_id":"4","last_reported":1737990532,"current_range_meters":27200,"station_id":"ce4bh012rcd13ifvqd00","pricing_plan_id":"cebpf4jnsgd1na2vs0mg"},{"bike_id":"993680e0-349c-4a04-8523-25c2818f9479","system_id":"levelo_inurba_marseille","lat":43.29077,"lon":5.37162,"is_reserved":false,"is_disabled":false,"rental_uris":{"android":"levelo://app?vid=993680e0-349c-4a04-8523-25c2818f9479","ios":"levelo://app?vid=993680e0-349c-4a04-8523-25c2818f9479"},"vehicle_type_id":"4","last_reported":1737990532,"current_range_meters":21600,"station_id":"ce4bh5p2rcd13ifvqe4g","pricing_plan_id":"cebpf4jnsgd1na2vs0mg"},{"bike_id":"3a2b2413-4b6c-40b8-b7ed-cd1028387a28","system_id":"levelo_inurba_marseille","lat":43.30887,"lon":5.39652,"is_reserved":false,"is_disabled":false,"rental_uris":{"android":"levelo://app?vid=3a2b2413-4b6c-40b8-b7ed-cd1028387a28","ios":"levelo://app?vid=3a2b2413-4b6c-40b8-b7ed-cd1028387a28"},"vehicle_type_id":"4","last_reported":1737990532,"current_range_meters":30400,"station_id":"ce4bh012rcd13ifvqcv0","pricing_plan_id":"cebpf4jnsgd1na2vs0mg"},{"bike_id":"a6b369d9-cb26-406e-b1d4-048c7a196255","system_id":"levelo_inurba_marseille","lat":43.280027,"lon":5.399982,"is_reserved":false,"is_disabled":false,"rental_uris":{"android":"levelo://app?vid=a6b369d9-cb26-406e-b1d4-048c7a196255","ios":"levelo://app?vid=a6b369d9-cb26-406e-b1d4-048c7a196255"},"vehicle_type_id":"4","last_reported":1737990532,"current_range_meters":14800,"station_id":"ce4bho92rcd13ifvqh4g","pricing_plan_id":"cebpf4jnsgd1na2vs0mg"},{"bike_id":"f9698cf2-528a-4eb5-8fcb-d8779a5ea20c","system_id":"levelo_inurba_marseille","lat":43.26208,"lon":5.37448,"is_reserved":false,"is_disabled":false,"rental_uris":{"android":"levelo://app?vid=f9698cf2-528a-4eb5-8fcb-d8779a5ea20c","ios":"levelo://app?vid=f9698cf2-528a-4eb5-8fcb-d8779a5ea20c"},"vehicle_type_id":"4","last_reported":1737990532,"current_range_meters":22400,"station_id":"ce4bhgp2rcd13ifvqfc0","pricing_plan_id":"cebpf4jnsgd1na2vs0mg"},{"bike_id":"63121853-d3ae-48b9-933c-579cf2441cbf","system_id":"levelo_inurba_marseille","lat":43.28462,"lon":5.35894,"is_reserved":false,"is_disabled":false,"rental_uris":{"android":"levelo://app?vid=63121853-d3ae-48b9-933c-579cf2441cbf","ios":"levelo://app?vid=63121853-d3ae-48b9-933c-579cf2441cbf"},"vehicle_type_id":"4","last_reported":1737990532,"current_range_meters":39200,"station_id":"ce4bhah2rcd13ifvqei0","pricing_plan_id":"cebpf4jnsgd1na2vs0mg"},{"bike_id":"79cfbf55-97ec-4a5b-af3a-38bd70f71f3a","system_id":"levelo_inurba_marseille","lat":43.23196,"lon":5.35549,"is_reserved":false,"is_disabled":false,"rental_uris":{"android":"levelo://app?vid=79cfbf55-97ec-4a5b-af3a-38bd70f71f3a","ios":"levelo://app?vid=79cfbf55-97ec-4a5b-af3a-38bd70f71f3a"},"vehicle_type_id":"4","last_reported":1737990532,"current_range_meters":11200,"station_id":"ce4bhu92rcd13ifvqi70","pricing_plan_id":"cebpf4jnsgd1na2vs0mg"},{"bike_id":"be7708aa-d2ec-4ed8-9b2b-8af31426c425","system_id":"levelo_inurba_marseille","lat":43.29974,"lon":5.3718,"is_reserved":false,"is_disabled":false,"rental_uris":{"android":"levelo://app?vid=be7708aa-d2ec-4ed8-9b2b-8af31426c425","ios":"levelo://app?vid=be7708aa-d2ec-4ed8-9b2b-8af31426c425"},"vehicle_type_id":"4","last_reported":1737990532,"current_range_meters":24800,"station_id":"ce4bgr92rcd13ifvqc7g","pricing_plan_id":"cebpf4jnsgd1na2vs0mg"},{"bike_id":"9bc98e11-de60-4c68-a278-0e7e729d8e92","system_id":"levelo_inurba_marseille","lat":43.32359,"lon":5.38874,"is_reserved":false,"is_disabled":false,"rental_uris":{"android":"levelo://app?vid=9bc98e11-de60-4c68-a278-0e7e729d8e92","ios":"levelo://app?vid=9bc98e11-de60-4c68-a278-0e7e729d8e92"},"vehicle_type_id":"4","last_reported":1737990532,"current_range_meters":30400,"station_id":"ce4bhqp2rcd13ifvqhog","pricing_plan_id":"cebpf4jnsgd1na2vs0mg"},{"bike_id":"16d24164-299e-4258-9525-c5ffdbd5c047","system_id":"levelo_inurba_marseille","lat":43.26182,"lon":5.37916,"is_reserved":false,"is_disabled":false,"rental_uris":{"android":"levelo://app?vid=16d24164-299e-4258-9525-c5ffdbd5c047","ios":"levelo://app?vid=16d24164-299e-4258-9525-c5ffdbd5c047"},"vehicle_type_id":"4","last_reported":1737990532,"current_range_meters":37600,"station_id":"ce4bhjp2rcd13ifvqg90","pricing_plan_id":"cebpf4jnsgd1na2vs0mg"},{"bike_id":"f4a67fd7-7ba0-462e-b321-724410a83bc3","system_id":"levelo_inurba_marseille","lat":43.286152,"lon":5.351027,"is_reserved":false,"is_disabled":false,"rental_uris":{"android":"levelo://app?vid=f4a67fd7-7ba0-462e-b321-724410a83bc3","ios":"levelo://app?vid=f4a67fd7-7ba0-462e-b321-724410a83bc3"},"vehicle_type_id":"4","last_reported":1737990532,"current_range_meters":36800,"station_id":"ce4bhch2rcd13ifvqeug","pricing_plan_id":"cebpf4jnsgd1na2vs0mg"},{"bike_id":"a531e49c-bf0e-404d-b31b-e8ddb39ea5e0","system_id":"levelo_inurba_marseille","lat":43.27789,"lon":5.40699,"is_reserved":false,"is_disabled":false,"rental_uris":{"android":"levelo://app?vid=a531e49c-bf0e-404d-b31b-e8ddb39ea5e0","ios":"levelo://app?vid=a531e49c-bf0e-404d-b31b-e8ddb39ea5e0"},"vehicle_type_id":"4","last_reported":1737990532,"current_range_meters":28800,"station_id":"ce4bhnh2rcd13ifvqgtg","pricing_plan_id":"cebpf4jnsgd1na2vs0mg"},{"bike_id":"3d64d7d2-3259-40ac-8d44-5551c7d82c8a","system_id":"levelo_inurba_marseille","lat":43.23153,"lon":5.43708,"is_reserved":false,"is_disabled":false,"rental_uris":{"android":"levelo://app?vid=3d64d7d2-3259-40ac-8d44-5551c7d82c8a","ios":"levelo://app?vid=3d64d7d2-3259-40ac-8d44-5551c7d82c8a"},"vehicle_type_id":"4","last_reported":1737990532,"current_range_meters":32000,"station_id":"ce4bhmp2rcd13ifvqgog","pricing_plan_id":"cebpf4jnsgd1na2vs0mg"},{"bike_id":"a1208657-f52b-49e0-8b88-08532b2847d6","system_id":"levelo_inurba_marseille","lat":43.26782,"lon":5.39407,"is_reserved":false,"is_disabled":false,"rental_uris":{"android":"levelo://app?vid=a1208657-f52b-49e0-8b88-08532b2847d6","ios":"levelo://app?vid=a1208657-f52b-49e0-8b88-08532b2847d6"},"vehicle_type_id":"4","last_reported":1737990532,"current_range_meters":30000,"station_id":"ce4bhh12rcd13ifvqfg0","pricing_plan_id":"cebpf4jnsgd1na2vs0mg"},{"bike_id":"4008c5d4-accb-4981-8933-9e85f4cde128","system_id":"levelo_inurba_marseille","lat":43.23202,"lon":5.35568,"is_reserved":false,"is_disabled":false,"rental_uris":{"android":"levelo://app?vid=4008c5d4-accb-4981-8933-9e85f4cde128","ios":"levelo://app?vid=4008c5d4-accb-4981-8933-9e85f4cde128"},"vehicle_type_id":"4","last_reported":1737990532,"current_range_meters":16800,"station_id":"ce4bhu92rcd13ifvqi70","pricing_plan_id":"cebpf4jnsgd1na2vs0mg"},{"bike_id":"4b97fadc-60a8-46a0-ba51-350631f405f8","system_id":"levelo_inurba_marseille","lat":43.2694,"lon":5.40256,"is_reserved":false,"is_disabled":false,"rental_uris":{"android":"levelo://app?vid=4b97fadc-60a8-46a0-ba51-350631f405f8","ios":"levelo://app?vid=4b97fadc-60a8-46a0-ba51-350631f405f8"},"vehicle_type_id":"4","last_reported":1737990532,"current_range_meters":37600,"station_id":"cjm6bp8fraef2m0cb0m0","pricing_plan_id":"cebpf4jnsgd1na2vs0mg"},{"bike_id":"5ec42b4c-3b21-4334-9677-fb9c44d772bd","system_id":"levelo_inurba_marseille","lat":43.2862,"lon":5.35101,"is_reserved":false,"is_disabled":false,"rental_uris":{"android":"levelo://app?vid=5ec42b4c-3b21-4334-9677-fb9c44d772bd","ios":"levelo://app?vid=5ec42b4c-3b21-4334-9677-fb9c44d772bd"},"vehicle_type_id":"4","last_reported":1737990532,"current_range_meters":7200,"station_id":"ce4bhch2rcd13ifvqeug","pricing_plan_id":"cebpf4jnsgd1na2vs0mg"},{"bike_id":"fecdd18a-aee3-46cf-b9f6-4c07ce305fcf","system_id":"levelo_inurba_marseille","lat":43.30208,"lon":5.39474,"is_reserved":false,"is_disabled":false,"rental_uris":{"android":"levelo://app?vid=fecdd18a-aee3-46cf-b9f6-4c07ce305fcf","ios":"levelo://app?vid=fecdd18a-aee3-46cf-b9f6-4c07ce305fcf"},"vehicle_type_id":"4","last_reported":1737990532,"current_range_meters":32800,"station_id":"ce4bh0p2rcd13ifvqd70","pricing_plan_id":"cebpf4jnsgd1na2vs0mg"},{"bike_id":"c47da181-033f-4c98-9f61-1d67f07c30cb","system_id":"levelo_inurba_marseille","lat":43.28456,"lon":5.35883,"is_reserved":false,"is_disabled":true,"rental_uris":{"android":"levelo://app?vid=c47da181-033f-4c98-9f61-1d67f07c30cb","ios":"levelo://app?vid=c47da181-033f-4c98-9f61-1d67f07c30cb"},"vehicle_type_id":"4","last_reported":1737990532,"current_range_meters":400,"station_id":"ce4bhah2rcd13ifvqei0","pricing_plan_id":"cebpf4jnsgd1na2vs0mg"},{"bike_id":"74b98b9d-33c5-4daa-8644-f469fbfdd6eb","system_id":"levelo_inurba_marseille","lat":43.25863,"lon":5.39891,"is_reserved":false,"is_disabled":false,"rental_uris":{"android":"levelo://app?vid=74b98b9d-33c5-4daa-8644-f469fbfdd6eb","ios":"levelo://app?vid=74b98b9d-33c5-4daa-8644-f469fbfdd6eb"},"vehicle_type_id":"4","last_reported":1737990532,"current_range_meters":38000,"station_id":"ce4bhl92rcd13ifvqghg","pricing_plan_id":"cebpf4jnsgd1na2vs0mg"},{"bike_id":"af27571c-dbd9-4da4-85f4-96f3d0a1f3af","system_id":"levelo_inurba_marseille","lat":43.25005,"lon":5.3892,"is_reserved":false,"is_disabled":false,"rental_uris":{"android":"levelo://app?vid=af27571c-dbd9-4da4-85f4-96f3d0a1f3af","ios":"levelo://app?vid=af27571c-dbd9-4da4-85f4-96f3d0a1f3af"},"vehicle_type_id":"4","last_reported":1737990532,"current_range_meters":38800,"station_id":"ce4bhgp2rcd13ifvqfd0","pricing_plan_id":"cebpf4jnsgd1na2vs0mg"},{"bike_id":"81341fa6-1cf6-497b-87a5-9e264a5c06ed","system_id":"levelo_inurba_marseille","lat":43.28615,"lon":5.35098,"is_reserved":false,"is_disabled":false,"rental_uris":{"android":"levelo://app?vid=81341fa6-1cf6-497b-87a5-9e264a5c06ed","ios":"levelo://app?vid=81341fa6-1cf6-497b-87a5-9e264a5c06ed"},"vehicle_type_id":"4","last_reported":1737990532,"current_range_meters":34000,"station_id":"ce4bhch2rcd13ifvqeug","pricing_plan_id":"cebpf4jnsgd1na2vs0mg"},{"bike_id":"d34327a1-f0de-4d8f-be65-c892bdcf6fdd","system_id":"levelo_inurba_marseille","lat":43.32477,"lon":5.36582,"is_reserved":false,"is_disabled":false,"rental_uris":{"android":"levelo://app?vid=d34327a1-f0de-4d8f-be65-c892bdcf6fdd","ios":"levelo://app?vid=d34327a1-f0de-4d8f-be65-c892bdcf6fdd"},"vehicle_type_id":"4","last_reported":1737990532,"current_range_meters":33600,"station_id":"ce4bhs12rcd13ifvqhvg","pricing_plan_id":"cebpf4jnsgd1na2vs0mg"},{"bike_id":"3d5f4cc3-2d54-4709-b321-1dea31f6ecf7","system_id":"levelo_inurba_marseille","lat":43.2979,"lon":5.39337,"is_reserved":false,"is_disabled":false,"rental_uris":{"android":"levelo://app?vid=3d5f4cc3-2d54-4709-b321-1dea31f6ecf7","ios":"levelo://app?vid=3d5f4cc3-2d54-4709-b321-1dea31f6ecf7"},"vehicle_type_id":"4","last_reported":1737990532,"current_range_meters":8400,"station_id":"chh1huq6cuj3fo74tm60","pricing_plan_id":"cebpf4jnsgd1na2vs0mg"},{"bike_id":"73a22a2e-ac85-4a12-a915-e2f824e6d867","system_id":"levelo_inurba_marseille","lat":43.32482,"lon":5.36554,"is_reserved":false,"is_disabled":false,"rental_uris":{"android":"levelo://app?vid=73a22a2e-ac85-4a12-a915-e2f824e6d867","ios":"levelo://app?vid=73a22a2e-ac85-4a12-a915-e2f824e6d867"},"vehicle_type_id":"4","last_reported":1737990532,"current_range_meters":36400,"station_id":"ce4bhs12rcd13ifvqhvg","pricing_plan_id":"cebpf4jnsgd1na2vs0mg"},{"bike_id":"233fa84f-6398-4418-80e7-69220f8ae715","system_id":"levelo_inurba_marseille","lat":43.23192,"lon":5.35554,"is_reserved":false,"is_disabled":false,"rental_uris":{"android":"levelo://app?vid=233fa84f-6398-4418-80e7-69220f8ae715","ios":"levelo://app?vid=233fa84f-6398-4418-80e7-69220f8ae715"},"vehicle_type_id":"4","last_reported":1737990532,"current_range_meters":34800,"station_id":"ce4bhu92rcd13ifvqi70","pricing_plan_id":"cebpf4jnsgd1na2vs0mg"},{"bike_id":"9d0e0819-e05c-4165-8575-62d8c876053c","system_id":"levelo_inurba_marseille","lat":43.30927,"lon":5.40142,"is_reserved":false,"is_disabled":false,"rental_uris":{"android":"levelo://app?vid=9d0e0819-e05c-4165-8575-62d8c876053c","ios":"levelo://app?vid=9d0e0819-e05c-4165-8575-62d8c876053c"},"vehicle_type_id":"4","last_reported":1737990532,"current_range_meters":21600,"station_id":"ce4bgvp2rcd13ifvqct0","pricing_plan_id":"cebpf4jnsgd1na2vs0mg"},{"bike_id":"ee1c5b79-9d55-416f-b9c4-98316bfb5623","system_id":"levelo_inurba_marseille","lat":43.25993,"lon":5.39803,"is_reserved":false,"is_disabled":true,"rental_uris":{"android":"levelo://app?vid=ee1c5b79-9d55-416f-b9c4-98316bfb5623","ios":"levelo://app?vid=ee1c5b79-9d55-416f-b9c4-98316bfb5623"},"vehicle_type_id":"4","last_reported":1737990532,"current_range_meters":38000,"station_id":"","pricing_plan_id":"cebpf4jnsgd1na2vs0mg"},