{"last_updated":1768658991,"ttl":60,"version":"2.2","data":{"bikes":[{"bike_id":"6c799928-5678-4860-b373-45c9c864dbd1","system_id":"levelo_inurba_marseille","lat":43.259476,"lon":5.408756,"is_reserved":false,"is_disabled":false,"rental_uris":{"android":"levelo://app?vid=6c799928-5678-4860-b373-45c9c864dbd1","ios":"levelo://app?vid=6c799928-5678-4860-b373-45c9c864dbd1"},"vehicle_type_id":"4","last_reported":1768658992,"current_range_meters":2800,"station_id":"","pricing_plan_id":"cebpf4jnsgd1na2vs0mg"},{"bike_id":"0d6897ee-18f3-48e3-8995-dbd357dcf6f6","system_id":"levelo_inurba_marseille","lat":43.27816,"lon":5.40716,"is_reserved":false,"is_disabled":false,"rental_uris":{"android":"levelo://app?vid=0d6897ee-18f3-48e3-8995-dbd357dcf6f6","ios":"levelo://app?vid=0d6897ee-18f3-48e3-8995-dbd357dcf6f6"},"vehicle_type_id":"4","last_reported":1768658992,"current_range_meters":2800,"station_id":"ce4bhnh2rcd13ifvqgtg","pricing_plan_id":"cebpf4jnsgd1na2vs0mg"},{"bike_id":"6b614937-a502-44f5-934f-81d015634ef2","system_id":"levelo_inurba_marseille","lat":43.320486,"lon":5.367867,"is_reserved":false,"is_disabled":false,"rental_uris":{"android":"levelo://app?vid=6b614937-a502-44f5-934f-81d015634ef2","ios":"levelo://app?vid=6b614937-a502-44f5-934f-81d015634ef2"},"vehicle_type_id":"4","last_reported":1768658992,"current_range_meters":2800,"station_id":"ce4bhrh2rcd13ifvqhug","pricing_plan_id":"cebpf4jnsgd1na2vs0mg"},{"bike_id":"3b5c4f84-7f90-4474-adba-916a9c8db3a2","system_id":"levelo_inurba_marseille","lat":43.32024,"lon":5.4157,"is_reserved":false,"is_disabled":false,"rental_uris":{"android":"levelo://app?vid=3b5c4f84-7f90-4474-adba-916a9c8db3a2","ios":"levelo://app?vid=3b5c4f84-7f90-4474-adba-916a9c8db3a2"},"vehicle_type_id":"4","last_reported":1768658992,"current_range_meters":2800,"station_id":"ce4bhq92rcd13ifvqhkg","pricing_plan_id":"cebpf4jnsgd1na2vs0mg"},{"bike_id":"01da237b-a914-4a81-b422-77384677ffda","system_id":"levelo_inurba_marseille","lat":43.27184,"lon":5.40994,"is_reserved":false,"is_disabled":false,"rental_uris":{"android":"levelo://app?vid=01da237b-a914-4a81-b422-77384677ffda","ios":"levelo://app?vid=01da237b-a914-4a81-b422-77384677ffda"},"vehicle_type_id":"4","last_reported":1768658992,"current_range_meters":2800,"station_id":"ce4bhl12rcd13ifvqgf0","pricing_plan_id":"cebpf4jnsgd1na2vs0mg"},{"bike_id":"7ea6943f-80eb-4abd-ba6b-118fe6d80db9","system_id":"levelo_inurba_marseille","lat":43.30903,"lon":5.40082,"is_reserved":false,"is_disabled":false,"rental_uris":{"android":"levelo://app?vid=7ea6943f-80eb-4abd-ba6b-118fe6d80db9","ios":"levelo://app?vid=7ea6943f-80eb-4abd-ba6b-118fe6d80db9"},"vehicle_type_id":"4","last_reported":1768658992,"current_range_meters":2800,"station_id":"ce4bgvp2rcd13ifvqct0","pricing_plan_id":"cebpf4jnsgd1na2vs0mg"},{"bike_id":"a1ce7ca3-56c7-402e-a0a5-8c554fdda857","system_id":"levelo_inurba_marseille","lat":43.29839,"lon":5.37585,"is_reserved":false,"is_disabled":false,"rental_uris":{"android":"levelo://app?vid=a1ce7ca3-56c7-402e-a0a5-8c554fdda857","ios":"levelo://app?vid=a1ce7ca3-56c7-402e-a0a5-8c554fdda857"},"vehicle_type_id":"4","last_reported":1768658992,"current_range_meters":2800,"station_id":"","pricing_plan_id":"cebpf4jnsgd1na2vs0mg"},{"bike_id":"d33a7735-eeb9-4115-8902-17f626cd1584","system_id":"levelo_inurba_marseille","lat":43.30116,"lon":5.39898,"is_reserved":false,"is_disabled":false,"rental_uris":{"android":"levelo://app?vid=d33a7735-eeb9-4115-8902-17f626cd1584","ios":"levelo://app?vid=d33a7735-eeb9-4115-8902-17f626cd1584"},"vehicle_type_id":"4","last_reported":1768658992,"current_range_meters":2800,"station_id":"ce4bh0h2rcd13ifvqd40","pricing_plan_id":"cebpf4jnsgd1na2vs0mg"},{"bike_id":"41c4021a-14b9-4a23-afc6-ebd4816df26a","system_id":"levelo_inurba_marseille","lat":43.31081,"lon":5.42444,"is_reserved":false,"is_disabled":false,"rental_uris":{"android":"levelo://app?vid=41c4021a-14b9-4a23-afc6-ebd4816df26a","ios":"levelo://app?vid=41c4021a-14b9-4a23-afc6-ebd4816df26a"},"vehicle_type_id":"4","last_reported":1768658992,"current_range_meters":2800,"station_id":"ce4bhp92rcd13ifvqhag","pricing_plan_id":"cebpf4jnsgd1na2vs0mg"},{"bike_id":"b223653d-a046-4120-8776-e3c49ae637a8","system_id":"levelo_inurba_marseille","lat":43.2175,"lon":5.34619,"is_reserved":false,"is_disabled":false,"rental_uris":{"android":"levelo://app?vid=b223653d-a046-4120-8776-e3c49ae637a8","ios":"levelo://app?vid=b223653d-a046-4120-8776-e3c49ae637a8"},"vehicle_type_id":"4","last_reported":1768658992,"current_range_meters":2800,"station_id":"st_cvj6r9ubvosntc0bgbag","pricing_plan_id":"cebpf4jnsgd1na2vs0mg"},{"bike_id":"bce7016a-598e-4954-b898-4fea8863ec74","system_id":"levelo_inurba_marseille","lat":43.2949,"lon":5.37388,"is_reserved":false,"is_disabled":false,"rental_uris":{"android":"levelo://app?vid=bce7016a-598e-4954-b898-4fea8863ec74","ios":"levelo://app?vid=bce7016a-598e-4954-b898-4fea8863ec74"},"vehicle_type_id":"4","last_reported":1768658992,"current_range_meters":3200,"station_id":"","pricing_plan_id":"cebpf4jnsgd1na2vs0mg"},{"bike_id":"e9062d5d-3347-4a67-b796-37630289f8ec","system_id":"levelo_inurba_marseille","lat":43.31376,"lon":5.38495,"is_reserved":false,"is_disabled":false,"rental_uris":{"android":"levelo://app?vid=e9062d5d-3347-4a67-b796-37630289f8ec","ios":"levelo://app?vid=e9062d5d-3347-4a67-b796-37630289f8ec"},"vehicle_type_id":"4","last_reported":1768658992,"current_range_meters":3200,"station_id":"ce4bgt92rcd13ifvqcf0","pricing_plan_id":"cebpf4jnsgd1na2vs0mg"},{"bike_id":"867fd4de-d203-4c7c-9844-b2ea52c3d0ef","system_id":"levelo_inurba_marseille","lat":43.25088,"lon":5.39524,"is_reserved":false,"is_disabled":false,"rental_uris":{"android":"levelo://app?vid=867fd4de-d203-4c7c-9844-b2ea52c3d0ef","ios":"levelo://app?vid=867fd4de-d203-4c7c-9844-b2ea52c3d0ef"},"vehicle_type_id":"4","last_reported":1768658992,"current_range_meters":3200,"station_id":"ce4bhm12rcd13ifvqgkg","pricing_plan_id":"cebpf4jnsgd1na2vs0mg"},{"bike_id":"518794d4-3db0-4df2-a7d8-4054c0646750","system_id":"levelo_inurba_marseille","lat":43.28281,"lon":5.3509,"is_reserved":false,"is_disabled":false,"rental_uris":{"android":"levelo://app?vid=518794d4-3db0-4df2-a7d8-4054c0646750","ios":"levelo://app?vid=518794d4-3db0-4df2-a7d8-4054c0646750"},"vehicle_type_id":"4","last_reported":1768658992,"current_range_meters":3200,"station_id":"ce4bhbp2rcd13ifvqerg","pricing_plan_id":"cebpf4jnsgd1na2vs0mg"},{"bike_id":"c213175e-76cb-4571-b781-3891be5ded63","system_id":"levelo_inurba_marseille","lat":43.23787,"lon":5.3663,"is_reserved":false,"is_disabled":false,"rental_uris":{"android":"levelo://app?vid=c213175e-76cb-4571-b781-3891be5ded63","ios":"levelo://app?vid=c213175e-76cb-4571-b781-3891be5ded63"},"vehicle_type_id":"4","last_reported":1768658992,"current_range_meters":3200,"station_id":"st_d3nk18o9ro0c73en2l3g","pricing_plan_id":"cebpf4jnsgd1na2vs0mg"},{"bike_id":"b62e2e4f-8d17-40db-9aeb-d34b261b865e","system_id":"levelo_inurba_marseille","lat":43.23189,"lon":5.35555,"is_reserved":false,"is_disabled":false,"rental_uris":{"android":"levelo://app?vid=b62e2e4f-8d17-40db-9aeb-d34b261b865e","ios":"levelo://app?vid=b62e2e4f-8d17-40db-9aeb-d34b261b865e"},"vehicle_type_id":"4","last_reported":1768658992,"current_range_meters":3600,"station_id":"ce4bhu92rcd13ifvqi70","pricing_plan_id":"cebpf4jnsgd1na2vs0mg"},{"bike_id":"0105de79-43a8-4de9-af65-6d3d110a6400","system_id":"levelo_inurba_marseille","lat":43.24169,"lon":5.39721,"is_reserved":false,"is_disabled":false,"rental_uris":{"android":"levelo://app?vid=0105de79-43a8-4de9-af65-6d3d110a6400","ios":"levelo://app?vid=0105de79-43a8-4de9-af65-6d3d110a6400"},"vehicle_type_id":"4","last_reported":1768658992,"current_range_meters":3600,"station_id":"ce4bhn12rcd13ifvqgpg","pricing_plan_id":"cebpf4jnsgd1na2vs0mg"},{"bike_id":"d33c4686-5198-484f-838c-ba899c30f6f6","system_id":"levelo_inurba_marseille","lat":43.27812,"lon":5.40712,"is_reserved":false,"is_disabled":false,"rental_uris":{"android":"levelo://app?vid=d33c4686-5198-484f-838c-ba899c30f6f6","ios":"levelo://app?vid=d33c4686-5198-484f-838c-ba899c30f6f6"},"vehicle_type_id":"4","last_reported":1768658992,"current_range_meters":3600,"station_id":"ce4bhnh2rcd13ifvqgtg","pricing_plan_id":"cebpf4jnsgd1na2vs0mg"},{"bike_id":"744e766d-6cf3-40d3-9efc-3dc33d883636","system_id":"levelo_inurba_marseille","lat":43.25581,"lon":5.3823,"is_reserved":false,"is_disabled":false,"rental_uris":{"android":"levelo://app?vid=744e766d-6cf3-40d3-9efc-3dc33d883636","ios":"levelo://app?vid=744e766d-6cf3-40d3-9efc-3dc33d883636"},"vehicle_type_id":"4","last_reported":1768658992,"current_range_meters":3600,"station_id":"ce4bhih2rcd13ifvqfs0","pricing_plan_id":"cebpf4jnsgd1na2vs0mg"},{"bike_id":"2d42dd95-c846-4049-9139-9672721f5b46","system_id":"levelo_inurba_marseille","lat":43.29567,"lon":5.3752,"is_reserved":false,"is_disabled":false,"rental_uris":{"android":"levelo://app?vid=2d42dd95-c846-4049-9139-9672721f5b46","ios":"levelo://app?vid=2d42dd95-c846-4049-9139-9672721f5b46"},"vehicle_type_id":"4","last_reported":1768658992,"current_range_meters":4000,"station_id":"ce4bgh92rcd13ifvqb50","pricing_plan_id":"cebpf4jnsgd1na2vs0mg"},{"bike_id":"1d62d340-4bc5-43ff-b71d-77a560282cf5","system_id":"levelo_inurba_marseille","lat":43.29171,"lon":5.37164,"is_reserved":false,"is_disabled":false,"rental_uris":{"android":"levelo://app?vid=1d62d340-4bc5-43ff-b71d-77a560282cf5","ios":"levelo://app?vid=1d62d340-4bc5-43ff-b71d-77a560282cf5"},"vehicle_type_id":"4","last_reported":1768658992,"current_range_meters":4000,"station_id":"ce4bha92rcd13ifvqeh0","pricing_plan_id":"cebpf4jnsgd1na2vs0mg"},{"bike_id":"5eb6351f-00ee-4020-b88c-dbf9b3c321a1","system_id":"levelo_inurba_marseille","lat":43.28154,"lon":5.42637,"is_reserved":false,"is_disabled":false,"rental_uris":{"android":"levelo://app?vid=5eb6351f-00ee-4020-b88c-dbf9b3c321a1","ios":"levelo://app?vid=5eb6351f-00ee-4020-b88c-dbf9b3c321a1"},"vehicle_type_id":"4","last_reported":1768658992,"current_range_meters":4000,"station_id":"ce4bhnh2rcd13ifvqgug","pricing_plan_id":"cebpf4jnsgd1na2vs0mg"},{"bike_id":"d0d1d698-a748-4849-a68c-b2045ed71aae","system_id":"levelo_inurba_marseille","lat":43.25122,"lon":5.40333,"is_reserved":false,"is_disabled":false,"rental_uris":{"android":"levelo://app?vid=d0d1d698-a748-4849-a68c-b2045ed71aae","ios":"levelo://app?vid=d0d1d698-a748-4849-a68c-b2045ed71aae"},"vehicle_type_id":"4","last_reported":1768658992,"current_range_meters":4000,"station_id":"ce4bhlh2rcd13ifvqgig","pricing_plan_id":"cebpf4jnsgd1na2vs0mg"},{"bike_id":"e67306f2-91be-4bbd-b4f1-9cc45e01c0f5","system_id":"levelo_inurba_marseille","lat":43.323613,"lon":5.367313,"is_reserved":false,"is_disabled":false,"rental_uris":{"android":"levelo://app?vid=e67306f2-91be-4bbd-b4f1-9cc45e01c0f5","ios":"levelo://app?vid=e67306f2-91be-4bbd-b4f1-9cc45e01c0f5"},"vehicle_type_id":"4","last_reported":1768658992,"current_range_meters":4000,"station_id":"ce4bhsh2rcd13ifvqi2g","pricing_plan_id":"cebpf4jnsgd1na2vs0mg"},{"bike_id":"0c8e6400-5132-4fc8-bc0c-deb5c809d02f","system_id":"levelo_inurba_marseille","lat":43.22549,"lon":5.41625,"is_reserved":false,"is_disabled":false,"rental_uris":{"android":"levelo://app?vid=0c8e6400-5132-4fc8-bc0c-deb5c809d02f","ios":"levelo://app?vid=0c8e6400-5132-4fc8-bc0c-deb5c809d02f"},"vehicle_type_id":"4","last_reported":1768658992,"current_range_meters":4000,"station_id":"st_d2o4gvlbi1j2169b742g","pricing_plan_id":"cebpf4jnsgd1na2vs0mg"},{"bike_id":"7bf645d4-598a-49a6-9e76-cf9acf0ff953","system_id":"levelo_inurba_marseille","lat":43.315005,"lon":5.372887,"is_reserved":false,"is_disabled":false,"rental_uris":{"android":"levelo://app?vid=7bf645d4-598a-49a6-9e76-cf9acf0ff953","ios":"levelo://app?vid=7bf645d4-598a-49a6-9e76-cf9acf0ff953"},"vehicle_type_id":"4","last_reported":1768658992,"current_range_meters":4000,"station_id":"ce4bgt12rcd13ifvqcd0","pricing_plan_id":"cebpf4jnsgd1na2vs0mg"},{"bike_id":"4c330636-b4ee-4a81-8afe-c3deb704dc18","system_id":"levelo_inurba_marseille","lat":43.23958,"lon":5.3664,"is_reserved":false,"is_disabled":false,"rental_uris":{"android":"levelo://app?vid=4c330636-b4ee-4a81-8afe-c3deb704dc18","ios":"levelo://app?vid=4c330636-b4ee-4a81-8afe-c3deb704dc18"},"vehicle_type_id":"4","last_reported":1768658992,"current_range_meters":4000,"station_id":"ce4bhi12rcd13ifvqfp0","pricing_plan_id":"cebpf4jnsgd1na2vs0mg"},{"bike_id":"7c0ce82b-44b9-433f-a5d1-ea710559f5cc","system_id":"levelo_inurba_marseille","lat":43.30927,"lon":5.40147,"is_reserved":false,"is_disabled":false,"rental_uris":{"android":"levelo://app?vid=7c0ce82b-44b9-433f-a5d1-ea710559f5cc","ios":"levelo://app?vid=7c0ce82b-44b9-433f-a5d1-ea710559f5cc"},"vehicle_type_id":"4","last_reported":1768658992,"current_range_meters":4000,"station_id":"ce4bgvp2rcd13ifvqct0","pricing_plan_id":"cebpf4jnsgd1na2vs0mg"},{"bike_id":"b45e3786-f240-418c-8d2f-00029fe91c40","system_id":"levelo_inurba_marseille","lat":43.28462,"lon":5.38903,"is_reserved":false,"is_disabled":false,"rental_uris":{"android":"levelo://app?vid=b45e3786-f240-418c-8d2f-00029fe91c40","ios":"levelo://app?vid=b45e3786-f240-418c-8d2f-00029fe91c40"},"vehicle_type_id":"4","last_reported":1768658992,"current_range_meters":4000,"station_id":"","pricing_plan_id":"cebpf4jnsgd1na2vs0mg"},{"bike_id":"421cacd8-e947-4afd-a144-abf07645a343","system_id":"levelo_inurba_marseille","lat":43.337444,"lon":5.374475,"is_reserved":false,"is_disabled":false,"rental_uris":{"android":"levelo://app?vid=421cacd8-e947-4afd-a144-abf07645a343","ios":"levelo://app?vid=421cacd8-e947-4afd-a144-abf07645a343"},"vehicle_type_id":"4","last_reported":1768658992,"current_range_meters":4400,"station_id":"","pricing_plan_id":"cebpf4jnsgd1na2vs0mg"},{"bike_id":"fa772604-5343-4874-a9f9-6fae0b9aaa0e","system_id":"levelo_inurba_marseille","lat":43.24582,"lon":5.39949,"is_reserved":false,"is_disabled":false,"rental_uris":{"android":"levelo://app?vid=fa772604-5343-4874-a9f9-6fae0b9aaa0e","ios":"levelo://app?vid=fa772604-5343-4874-a9f9-6fae0b9aaa0e"},"vehicle_type_id":"4","last_reported":1768658992,"current_range_meters":4400,"station_id":"","pricing_plan_id":"cebpf4jnsgd1na2vs0mg"},{"bike_id":"2d5dd310-71b3-4045-bb8d-eab9f4179d84","system_id":"levelo_inurba_marseille","lat":43.2883,"lon":5.35859,"is_reserved":false,"is_disabled":false,"rental_uris":{"android":"levelo://app?vid=2d5dd310-71b3-4045-bb8d-eab9f4179d84","ios":"levelo://app?vid=2d5dd310-71b3-4045-bb8d-eab9f4179d84"},"vehicle_type_id":"4","last_reported":1768658992,"current_range_meters":4400,"station_id":"ce4bhb12rcd13ifvqem0","pricing_plan_id":"cebpf4jnsgd1na2vs0mg"},{"bike_id":"70d0fae7-0ba5-4e48-9968-20fa9e1d9bb9","system_id":"levelo_inurba_marseille","lat":43.28472,"lon":5.38407,"is_reserved":false,"is_disabled":false,"rental_uris":{"android":"levelo://app?vid=70d0fae7-0ba5-4e48-9968-20fa9e1d9bb9","ios":"levelo://app?vid=70d0fae7-0ba5-4e48-9968-20fa9e1d9bb9"},"vehicle_type_id":"4","last_reported":1768658992,"current_range_meters":4400,"station_id":"ce4bh512rcd13ifvqe3g","pricing_plan_id":"cebpf4jnsgd1na2vs0mg"},{"bike_id":"2790cdc7-bca1-42ca-abec-6c9518a9590b","system_id":"levelo_inurba_marseille","lat":43.31271,"lon":5.40156,"is_reserved":false,"is_disabled":false,"rental_uris":{"android":"levelo://app?vid=2790cdc7-bca1-42ca-abec-6c9518a9590b","ios":"levelo://app?vid=2790cdc7-bca1-42ca-abec-6c9518a9590b"},"vehicle_type_id":"4","last_reported":1768658992,"current_range_meters":4400,"station_id":"ce4bh092rcd13ifvqd30","pricing_plan_id":"cebpf4jnsgd1na2vs0mg"},{"bike_id":"2bf36226-1d9f-42b2-9a74-e7e17d35894d","system_id":"levelo_inurba_marseille","lat":43.32859,"lon":5.38359,"is_reserved":false,"is_disabled":false,"rental_uris":{"android":"levelo://app?vid=2bf36226-1d9f-42b2-9a74-e7e17d35894d","ios":"levelo://app?vid=2bf36226-1d9f-42b2-9a74-e7e17d35894d"},"vehicle_type_id":"4","last_reported":1768658992,"current_range_meters":4400,"station_id":"","pricing_plan_id":"cebpf4jnsgd1na2vs0mg"},{"bike_id":"41156477-bc59-499d-9b1b-55a11d61fa45","system_id":"levelo_inurba_marseille","lat":43.304635,"lon":5.379058,"is_reserved":false,"is_disabled":false,"rental_uris":{"android":"levelo://app?vid=41156477-bc59-499d-9b1b-55a11d61fa45","ios":"levelo://app?vid=41156477-bc59-499d-9b1b-55a11d61fa45"},"vehicle_type_id":"4","last_reported":1768658992,"current_range_meters":4800,"station_id":"ce4bgup2rcd13ifvqcn0","pricing_plan_id":"cebpf4jnsgd1na2vs0mg"},{"bike_id":"e2f44a6e-a3c9-4120-8dae-09410b69fbfe","system_id":"levelo_inurba_marseille","lat":43.30525,"lon":5.36723,"is_reserved":false,"is_disabled":false,"rental_uris":{"android":"levelo://app?vid=e2f44a6e-a3c9-4120-8dae-09410b69fbfe","ios":"levelo://app?vid=e2f44a6e-a3c9-4120-8dae-09410b69fbfe"},"vehicle_type_id":"4","last_reported":1768658992,"current_range_meters":4800,"station_id":"ce4bgrp2rcd13ifvqc9g","pricing_plan_id":"cebpf4jnsgd1na2vs0mg"},{"bike_id":"ba9bdd60-8783-488b-8cfb-fc8487a21be8","system_id":"levelo_inurba_marseille","lat":43.23775,"lon":5.36624,"is_reserved":false,"is_disabled":false,"rental_uris":{"android":"levelo://app?vid=ba9bdd60-8783-488b-8cfb-fc8487a21be8","ios":"levelo://app?vid=ba9bdd60-8783-488b-8cfb-fc8487a21be8"},"vehicle_type_id":"4","last_reported":1768658992,"current_range_meters":4800,"station_id":"st_d3nk18o9ro0c73en2l3g","pricing_plan_id":"cebpf4jnsgd1na2vs0mg"},{"bike_id":"3b3b81ef-94e2-42e9-99e5-1204cf977676","system_id":"levelo_inurba_marseille","lat":43.2448,"lon":5.4254,"is_reserved":false,"is_disabled":false,"rental_uris":{"android":"levelo://app?vid=3b3b81ef-94e2-42e9-99e5-1204cf977676","ios":"levelo://app?vid=3b3b81ef-94e2-42e9-99e5-1204cf977676"},"vehicle_type_id":"4","last_reported":1768658992,"current_range_meters":5600,"station_id":"st_d4a3vfp97mjs738cd8kg","pricing_plan_id":"cebpf4jnsgd1na2vs0mg"},{"bike_id":"680d4b7b-40ab-4566-9683-86df76de8341","system_id":"levelo_inurba_marseille","lat":43.29991,"lon":5.37164,"is_reserved":false,"is_disabled":false,"rental_uris":{"android":"levelo://app?vid=680d4b7b-40ab-4566-9683-86df76de8341","ios":"levelo://app?vid=680d4b7b-40ab-4566-9683-86df76de8341"},"vehicle_type_id":"4","last_reported":1768658992,"current_range_meters":5600,"station_id":"ce4bgr92rcd13ifvqc7g","pricing_plan_id":"cebpf4jnsgd1na2vs0mg"},{"bike_id":"d9b3719e-715f-4911-9b10-43a12a517142","system_id":"levelo_inurba_marseille","lat":43.30334,"lon":5.3691,"is_reserved":false,"is_disabled":false,"rental_uris":{"android":"levelo://app?vid=d9b3719e-715f-4911-9b10-43a12a517142","ios":"levelo://app?vid=d9b3719e-715f-4911-9b10-43a12a517142"},"vehicle_type_id":"4","last_reported":1768658992,"current_range_meters":5600,"station_id":"ce4bgqh2rcd13ifvqc5g","pricing_plan_id":"cebpf4jnsgd1na2vs0mg"},{"bike_id":"a2063c8d-f51c-4170-b956-f1a16f6c2585","system_id":"levelo_inurba_marseille","lat":43.24997,"lon":5.38953,"is_reserved":false,"is_disabled":false,"rental_uris":{"android":"levelo://app?vid=a2063c8d-f51c-4170-b956-f1a16f6c2585","ios":"levelo://app?vid=a2063c8d-f51c-4170-b956-f1a16f6c2585"},"vehicle_type_id":"4","last_reported":1768658992,"current_range_meters":5600,"station_id":"ce4bhgp2rcd13ifvqfd0","pricing_plan_id":"cebpf4jnsgd1na2vs0mg"},{"bike_id":"cb322bd5-780f-4976-ac84-7f70ca124770","system_id":"levelo_inurba_marseille","lat":43.24161,"lon":5.36395,"is_reserved":false,"is_disabled":false,"rental_uris":{"android":"levelo://app?vid=cb322bd5-780f-4976-ac84-7f70ca124770","ios":"levelo://app?vid=cb322bd5-780f-4976-ac84-7f70ca124770"},"vehicle_type_id":"4","last_reported":1768658992,"current_range_meters":5600,"station_id":"cpo36qri1sfpv3e86is0","pricing_plan_id":"cebpf4jnsgd1na2vs0mg"},{"bike_id":"74fcd7d3-9f7b-4290-bead-f1a65f4d8b6e","system_id":"levelo_inurba_marseille","lat":43.26563,"lon":5.4033,"is_reserved":false,"is_disabled":false,"rental_uris":{"android":"levelo://app?vid=74fcd7d3-9f7b-4290-bead-f1a65f4d8b6e","ios":"levelo://app?vid=74fcd7d3-9f7b-4290-bead-f1a65f4d8b6e"},"vehicle_type_id":"4","last_reported":1768658992,"current_range_meters":5600,"station_id":"ce4bhmp2rcd13ifvqgng","pricing_plan_id":"cebpf4jnsgd1na2vs0mg"},{"bike_id":"259e16f3-f42b-4c94-b807-56950596c4de","system_id":"levelo_inurba_marseille","lat":43.27991,"lon":5.41652,"is_reserved":false,"is_disabled":false,"rental_uris":{"android":"levelo://app?vid=259e16f3-f42b-4c94-b807-56950596c4de","ios":"levelo://app?vid=259e16f3-f42b-4c94-b807-56950596c4de"},"vehicle_type_id":"4","last_reported":1768658992,"current_range_meters":5600,"station_id":"ce4bho12rcd13ifvqh1g","pricing_plan_id":"cebpf4jnsgd1na2vs0mg"},{"bike_id":"4d4dbef2-787f-4e6c-a9d2-398aa9c2095e","system_id":"levelo_inurba_marseille","lat":43.285208,"lon":5.441072,"is_reserved":false,"is_disabled":false,"rental_uris":{"android":"levelo://app?vid=4d4dbef2-787f-4e6c-a9d2-398aa9c2095e","ios":"levelo://app?vid=4d4dbef2-787f-4e6c-a9d2-398aa9c2095e"},"vehicle_type_id":"4","last_reported":1768658992,"current_range_meters":6000,"station_id":"st_d3j3df2ikq2c7380ej80","pricing_plan_id":"cebpf4jnsgd1na2vs0mg"},{"bike_id":"74738459-f5c8-42b7-a0cf-be65cd3b10ef","system_id":"levelo_inurba_marseille","lat":43.29706,"lon":5.37646,"is_reserved":false,"is_disabled":false,"rental_uris":{"android":"levelo://app?vid=74738459-f5c8-42b7-a0cf-be65cd3b10ef","ios":"levelo://app?vid=74738459-f5c8-42b7-a0cf-be65cd3b10ef"},"vehicle_type_id":"4","last_reported":1768658992,"current_range_meters":6000,"station_id":"ce4bgkh2rcd13ifvqbl0","pricing_plan_id":"cebpf4jnsgd1na2vs0mg"},{"bike_id":"0eaae1c5-bf6c-464d-8048-0c546f1d83e6","system_id":"levelo_inurba_marseille","lat":43.25106,"lon":5.39526,"is_reserved":false,"is_disabled":false,"rental_uris":{"android":"levelo://app?vid=0eaae1c5-bf6c-464d-8048-0c546f1d83e6","ios":"levelo://app?vid=0eaae1c5-bf6c-464d-8048-0c546f1d83e6"},"vehicle_type_id":"4","last_reported":1768658992,"current_range_meters":6000,"station_id":"ce4bhm12rcd13ifvqgkg","pricing_plan_id":"cebpf4jnsgd1na2vs0mg"},{"bike_id":"513ed6c4-8623-44b6-ada8-0b1c7c1ff00d","system_id":"levelo_inurba_marseille","lat":43.29834,"lon":5.37648,"is_reserved":false,"is_disabled":false,"rental_uris":{"android":"levelo://app?vid=513ed6c4-8623-44b6-ada8-0b1c7c1ff00d","ios":"levelo://app?vid=513ed6c4-8623-44b6-ada8-0b1c7c1ff00d"},"vehicle_type_id":"4","last_reported":1768658992,"current_range_meters":6000,"station_id":"","pricing_plan_id":"cebpf4jnsgd1na2vs0mg"},{"bike_id":"ac863133-1003-4992-8ead-e17fcb8c6569","system_id":"levelo_inurba_marseille","lat":43.30308,"lon":5.369,"is_reserved":false,"is_disabled":false,"rental_uris":{"android":"levelo://app?vid=ac863133-1003-4992-8ead-e17fcb8c6569","ios":"levelo://app?vid=ac863133-1003-4992-8ead-e17fcb8c6569"},"vehicle_type_id":"4","last_reported":1768658992,"current_range_meters":6000,"station_id":"ce4bgqh2rcd13ifvqc5g","pricing_plan_id":"cebpf4jnsgd1na2vs0mg"},{"bike_id":"b69265fb-d1b5-426f-ba4a-3e52351b5ff6","system_id":"levelo_inurba_marseille","lat":43.30454,"lon":5.37917,"is_reserved":false,"is_disabled":false,"rental_uris":{"android":"levelo://app?vid=b69265fb-d1b5-426f-ba4a-3e52351b5ff6","ios":"levelo://app?vid=b69265fb-d1b5-426f-ba4a-3e52351b5ff6"},"vehicle_type_id":"4","last_reported":1768658992,"current_range_meters":6000,"station_id":"ce4bgup2rcd13ifvqcn0","pricing_plan_id":"cebpf4jnsgd1na2vs0mg"},{"bike_id":"73a3c0b5-f835-4f44-b397-85dfcc3abc54","system_id":"levelo_inurba_marseille","lat":43.296161,"lon":5.369958,"is_reserved":false,"is_disabled":false,"rental_uris":{"android":"levelo://app?vid=73a3c0b5-f835-4f44-b397-85dfcc3abc54","ios":"levelo://app?vid=73a3c0b5-f835-4f44-b397-85dfcc3abc54"},"vehicle_type_id":"4","last_reported":1768658992,"current_range_meters":6000,"station_id":"","pricing_plan_id":"cebpf4jnsgd1na2vs0mg"},{"bike_id":"b4934a75-3915-4745-b5e8-737580184f4e","system_id":"levelo_inurba_marseille","lat":43.30139,"lon":5.37454,"is_reserved":false,"is_disabled":false,"rental_uris":{"android":"levelo://app?vid=b4934a75-3915-4745-b5e8-737580184f4e","ios":"levelo://app?vid=b4934a75-3915-4745-b5e8-737580184f4e"},"vehicle_type_id":"4","last_reported":1768658992,"current_range_meters":6000,"station_id":"ce4bgs92rcd13ifvqcc0","pricing_plan_id":"cebpf4jnsgd1na2vs0mg"},{"bike_id":"bf3c9612-0590-462d-87a5-0987166375b2","system_id":"levelo_inurba_marseille","lat":43.23984,"lon":5.36653,"is_reserved":false,"is_disabled":true,"rental_uris":{"android":"levelo://app?vid=bf3c9612-0590-462d-87a5-0987166375b2","ios":"levelo://app?vid=bf3c9612-0590-462d-87a5-0987166375b2"},"vehicle_type_id":"4","last_reported":1768658992,"current_range_meters":6000,"station_id":"ce4bhi12rcd13ifvqfp0","pricing_plan_id":"cebpf4jnsgd1na2vs0mg"},{"bike_id":"caadb93f-4999-4bfb-ae90-074389f79e1a","system_id":"levelo_inurba_marseille","lat":43.243911,"lon":5.370599,"is_reserved":false,"is_disabled":false,"rental_uris":{"android":"levelo://app?vid=caadb93f-4999-4bfb-ae90-074389f79e1a","ios":"levelo://app?vid=caadb93f-4999-4bfb-ae90-074389f79e1a"},"vehicle_type_id":"4","last_reported":1768658992,"current_range_meters":6000,"station_id":"ce4bhhh2rcd13ifvqfk0","pricing_plan_id":"cebpf4jnsgd1na2vs0mg"},{"bike_id":"06743496-56ca-4ffb-9554-da7929f3016c","system_id":"levelo_inurba_marseille","lat":43.24469,"lon":5.42539,"is_reserved":false,"is_disabled":false,"rental_uris":{"android":"levelo://app?vid=06743496-56ca-4ffb-9554-da7929f3016c","ios":"levelo://app?vid=06743496-56ca-4ffb-9554-da7929f3016c"},"vehicle_type_id":"4","last_reported":1768658992,"current_range_meters":6000,"station_id":"st_d4a3vfp97mjs738cd8kg","pricing_plan_id":"cebpf4jnsgd1na2vs0mg"},{"bike_id":"374f7257-cfcd-4f34-8a16-ba578db8b7e2","system_id":"levelo_inurba_marseille","lat":43.244648,"lon":5.425347,"is_reserved":false,"is_disabled":false,"rental_uris":{"android":"levelo://app?vid=374f7257-cfcd-4f34-8a16-ba578db8b7e2","ios":"levelo://app?vid=374f7257-cfcd-4f34-8a16-ba578db8b7e2"},"vehicle_type_id":"4","last_reported":1768658992,"current_range_meters":6000,"station_id":"st_d4a3vfp97mjs738cd8kg","pricing_plan_id":"cebpf4jnsgd1na2vs0mg"},{"bike_id":"ac795878-700b-4bec-a123-4f4773e9dc4b","system_id":"levelo_inurba_marseille","lat":43.3025,"lon":5.40079,"is_reserved":false,"is_disabled":false,"rental_uris":{"android":"levelo://app?vid=ac795878-700b-4bec-a123-4f4773e9dc4b","ios":"levelo://app?vid=ac795878-700b-4bec-a123-4f4773e9dc4b"},"vehicle_type_id":"4","last_reported":1768658992,"current_range_meters":6000,"station_id":"ce4bgvh2rcd13ifvqcs0","pricing_plan_id":"cebpf4jnsgd1na2vs0mg"},{"bike_id":"c0d3f326-7c3a-439d-ad96-dcd3c5e4e41e","system_id":"levelo_inurba_marseille","lat":43.28859,"lon":5.35856,"is_reserved":false,"is_disabled":false,"rental_uris":{"android":"levelo://app?vid=c0d3f326-7c3a-439d-ad96-dcd3c5e4e41e","ios":"levelo://app?vid=c0d3f326-7c3a-439d-ad96-dcd3c5e4e41e"},"vehicle_type_id":"4","last_reported":1768658992,"current_range_meters":6000,"station_id":"ce4bhb12rcd13ifvqem0","pricing_plan_id":"cebpf4jnsgd1na2vs0mg"},{"bike_id":"081dca07-e8a6-423f-95f0-96bcbec61c3d","system_id":"levelo_inurba_marseille","lat":43.25266,"lon":5.38021,"is_reserved":false,"is_disabled":false,"rental_uris":{"android":"levelo://app?vid=081dca07-e8a6-423f-95f0-96bcbec61c3d","ios":"levelo://app?vid=081dca07-e8a6-423f-95f0-96bcbec61c3d"},"vehicle_type_id":"4","last_reported":1768658992,"current_range_meters":6000,"station_id":"","pricing_plan_id":"cebpf4jnsgd1na2vs0mg"},{"bike_id":"3bb4f388-8d72-48f0-ac2d-95655c4ae4df","system_id":"levelo_inurba_marseille","lat":43.24464,"lon":5.4254,"is_reserved":false,"is_disabled":false,"rental_uris":{"android":"levelo://app?vid=3bb4f388-8d72-48f0-ac2d-95655c4ae4df","ios":"levelo://app?vid=3bb4f388-8d72-48f0-ac2d-95655c4ae4df"},"vehicle_type_id":"4","last_reported":1768658992,"current_range_meters":6400,"station_id":"st_d4a3vfp97mjs738cd8kg","pricing_plan_id":"cebpf4jnsgd1na2vs0mg"},{"bike_id":"9bd06173-2df2-4cf8-88f1-c9b0ab68c3a4","system_id":"levelo_inurba_marseille","lat":43.30124,"lon":5.43108,"is_reserved":false,"is_disabled":false,"rental_uris":{"android":"levelo://app?vid=9bd06173-2df2-4cf8-88f1-c9b0ab68c3a4","ios":"levelo://app?vid=9bd06173-2df2-4cf8-88f1-c9b0ab68c3a4"},"vehicle_type_id":"4","last_reported":1768658992,"current_range_meters":6400,"station_id":"st_d3js3co5814s73ftftug","pricing_plan_id":"cebpf4jnsgd1na2vs0mg"},{"bike_id":"4da3ebe0-9aac-475b-af76-f81e2f36cadc","system_id":"levelo_inurba_marseille","lat":43.29967,"lon":5.38494,"is_reserved":false,"is_disabled":false,"rental_uris":{"android":"levelo://app?vid=4da3ebe0-9aac-475b-af76-f81e2f36cadc","ios":"levelo://app?vid=4da3ebe0-9aac-475b-af76-f81e2f36cadc"},"vehicle_type_id":"4","last_reported":1768658992,"current_range_meters":6400,"station_id":"ce4bgj92rcd13ifvqbd0","pricing_plan_id":"cebpf4jnsgd1na2vs0mg"},{"bike_id":"b8fb7601-ace6-43b8-9e6a-578923b35eae","system_id":"levelo_inurba_marseille","lat":43.29283,"lon":5.36854,"is_reserved":false,"is_disabled":false,"rental_uris":{"android":"levelo://app?vid=b8fb7601-ace6-43b8-9e6a-578923b35eae","ios":"levelo://app?vid=b8fb7601-ace6-43b8-9e6a-578923b35eae"},"vehicle_type_id":"4","last_reported":1768658992,"current_range_meters":6400,"station_id":"ce4bhbp2rcd13ifvqesg","pricing_plan_id":"cebpf4jnsgd1na2vs0mg"},{"bike_id":"d5e35d21-1683-45b4-8efc-60fb9397d5ab","system_id":"levelo_inurba_marseille","lat":43.31061,"lon":5.38627,"is_reserved":false,"is_disabled":false,"rental_uris":{"android":"levelo://app?vid=d5e35d21-1683-45b4-8efc-60fb9397d5ab","ios":"levelo://app?vid=d5e35d21-1683-45b4-8efc-60fb9397d5ab"},"vehicle_type_id":"4","last_reported":1768658992,"current_range_meters":6400,"station_id":"","pricing_plan_id":"cebpf4jnsgd1na2vs0mg"},{"bike_id":"50864526-ae8d-4c3f-9ca3-0d358a720c04","system_id":"levelo_inurba_marseille","lat":43.29565,"lon":5.37516,"is_reserved":false,"is_disabled":false,"rental_uris":{"android":"levelo://app?vid=50864526-ae8d-4c3f-9ca3-0d358a720c04","ios":"levelo://app?vid=50864526-ae8d-4c3f-9ca3-0d358a720c04"},"vehicle_type_id":"4","last_reported":1768658992,"current_range_meters":6400,"station_id":"ce4bgh92rcd13ifvqb50","pricing_plan_id":"cebpf4jnsgd1na2vs0mg"},{"bike_id":"fb2fffbc-7dc0-4e60-8575-8873b6e17203","system_id":"levelo_inurba_marseille","lat":43.272,"lon":5.3919,"is_reserved":false,"is_disabled":false,"rental_uris":{"android":"levelo://app?vid=fb2fffbc-7dc0-4e60-8575-8873b6e17203","ios":"levelo://app?vid=fb2fffbc-7dc0-4e60-8575-8873b6e17203"},"vehicle_type_id":"4","last_reported":1768658992,"current_range_meters":6400,"station_id":"ce4bhhp2rcd13ifvqfm0","pricing_plan_id":"cebpf4jnsgd1na2vs0mg"},{"bike_id":"576a061d-1fb4-476f-a84f-2ef395c324f6","system_id":"levelo_inurba_marseille","lat":43.25503,"lon":5.37629,"is_reserved":false,"is_disabled":false,"rental_uris":{"android":"levelo://app?vid=576a061d-1fb4-476f-a84f-2ef395c324f6","ios":"levelo://app?vid=576a061d-1fb4-476f-a84f-2ef395c324f6"},"vehicle_type_id":"4","last_reported":1768658992,"current_range_meters":6400,"station_id":"ce4bhh12rcd13ifvqff0","pricing_plan_id":"cebpf4jnsgd1na2vs0mg"},{"bike_id":"40c9616c-92d9-4b6c-a682-eeaa5a3fea06","system_id":"levelo_inurba_marseille","lat":43.21742,"lon":5.34608,"is_reserved":false,"is_disabled":false,"rental_uris":{"android":"levelo://app?vid=40c9616c-92d9-4b6c-a682-eeaa5a3fea06","ios":"levelo://app?vid=40c9616c-92d9-4b6c-a682-eeaa5a3fea06"},"vehicle_type_id":"4","last_reported":1768658992,"current_range_meters":6400,"station_id":"st_cvj6r9ubvosntc0bgbag","pricing_plan_id":"cebpf4jnsgd1na2vs0mg"},{"bike_id":"b5d67ffe-eaa4-4106-b565-a864660becc6","system_id":"levelo_inurba_marseille","lat":43.23195,"lon":5.35562,"is_reserved":false,"is_disabled":false,"rental_uris":{"android":"levelo://app?vid=b5d67ffe-eaa4-4106-b565-a864660becc6","ios":"levelo://app?vid=b5d67ffe-eaa4-4106-b565-a864660becc6"},"vehicle_type_id":"4","last_reported":1768658992,"current_range_meters":6800,"station_id":"ce4bhu92rcd13ifvqi70","pricing_plan_id":"cebpf4jnsgd1na2vs0mg"},{"bike_id":"8f760374-21f0-4253-84ba-1b13ff2db21a","system_id":"levelo_inurba_marseille","lat":43.28931,"lon":5.36402,"is_reserved":false,"is_disabled":false,"rental_uris":{"android":"levelo://app?vid=8f760374-21f0-4253-84ba-1b13ff2db21a","ios":"levelo://app?vid=8f760374-21f0-4253-84ba-1b13ff2db21a"},"vehicle_type_id":"4","last_reported":1768658992,"current_range_meters":6800,"station_id":"ce4bhc92rcd13ifvqetg","pricing_plan_id":"cebpf4jnsgd1na2vs0mg"},{"bike_id":"e6872936-d756-4b20-b25b-25e2aeef4bd8","system_id":"levelo_inurba_marseille","lat":43.231927,"lon":5.355521,"is_reserved":false,"is_disabled":false,"rental_uris":{"android":"levelo://app?vid=e6872936-d756-4b20-b25b-25e2aeef4bd8","ios":"levelo://app?vid=e6872936-d756-4b20-b25b-25e2aeef4bd8"},"vehicle_type_id":"4","last_reported":1768658992,"current_range_meters":6800,"station_id":"ce4bhu92rcd13ifvqi70","pricing_plan_id":"cebpf4jnsgd1na2vs0mg"},{"bike_id":"679928a0-9557-4ac3-bf06-e1537b58e506","system_id":"levelo_inurba_marseille","lat":43.29305,"lon":5.37172,"is_reserved":false,"is_disabled":false,"rental_uris":{"android":"levelo://app?vid=679928a0-9557-4ac3-bf06-e1537b58e506","ios":"levelo://app?vid=679928a0-9557-4ac3-bf06-e1537b58e506"},"vehicle_type_id":"4","last_reported":1768658992,"current_range_meters":6800,"station_id":"ce4bgh92rcd13ifvqb40","pricing_plan_id":"cebpf4jnsgd1na2vs0mg"},{"bike_id":"82b87168-267f-432c-a609-70f7b40ac901","system_id":"levelo_inurba_marseille","lat":43.27726,"lon":5.40776,"is_reserved":false,"is_disabled":false,"rental_uris":{"android":"levelo://app?vid=82b87168-267f-432c-a609-70f7b40ac901","ios":"levelo://app?vid=82b87168-267f-432c-a609-70f7b40ac901"},"vehicle_type_id":"4","last_reported":1768658992,"current_range_meters":6800,"station_id":"","pricing_plan_id":"cebpf4jnsgd1na2vs0mg"},{"bike_id":"6eff15cd-6911-4811-ab66-16b4fe73008b","system_id":"levelo_inurba_marseille","lat":43.29605,"lon":5.37713,"is_reserved":false,"is_disabled":false,"rental_uris":{"android":"levelo://app?vid=6eff15cd-6911-4811-ab66-16b4fe73008b","ios":"levelo://app?vid=6eff15cd-6911-4811-ab66-16b4fe73008b"},"vehicle_type_id":"4","last_reported":1768658992,"current_range_meters":6800,"station_id":"ce4bgi92rcd13ifvqb90","pricing_plan_id":"cebpf4jnsgd1na2vs0mg"},{"bike_id":"53883162-a32e-45f2-a25b-e71336c68327","system_id":"levelo_inurba_marseille","lat":43.2416,"lon":5.36406,"is_reserved":false,"is_disabled":false,"rental_uris":{"android":"levelo://app?vid=53883162-a32e-45f2-a25b-e71336c68327","ios":"levelo://app?vid=53883162-a32e-45f2-a25b-e71336c68327"},"vehicle_type_id":"4","last_reported":1768658992,"current_range_meters":6800,"station_id":"cpo36qri1sfpv3e86is0","pricing_plan_id":"cebpf4jnsgd1na2vs0mg"},{"bike_id":"7aa7b70e-bd64-4087-92d9-febcd20f703f","system_id":"levelo_inurba_marseille","lat":43.29793,"lon":5.38082,"is_reserved":false,"is_disabled":false,"rental_uris":{"android":"levelo://app?vid=7aa7b70e-bd64-4087-92d9-febcd20f703f","ios":"levelo://app?vid=7aa7b70e-bd64-4087-92d9-febcd20f703f"},"vehicle_type_id":"4","last_reported":1768658992,"current_range_meters":6800,"station_id":"ce4bgip2rcd13ifvqbb0","pricing_plan_id":"cebpf4jnsgd1na2vs0mg"},{"bike_id":"43a030e0-0f6a-4fec-9711-6a41858e80af","system_id":"levelo_inurba_marseille","lat":43.28978,"lon":5.3903,"is_reserved":false,"is_disabled":false,"rental_uris":{"android":"levelo://app?vid=43a030e0-0f6a-4fec-9711-6a41858e80af","ios":"levelo://app?vid=43a030e0-0f6a-4fec-9711-6a41858e80af"},"vehicle_type_id":"4","last_reported":1768658992,"current_range_meters":6800,"station_id":"","pricing_plan_id":"cebpf4jnsgd1na2vs0mg"},{"bike_id":"12973c53-3c4b-4eeb-9bcf-3e724fe32df6","system_id":"levelo_inurba_marseille","lat":43.28178,"lon":5.4043,"is_reserved":false,"is_disabled":false,"rental_uris":{"android":"levelo://app?vid=12973c53-3c4b-4eeb-9bcf-3e724fe32df6","ios":"levelo://app?vid=12973c53-3c4b-4eeb-9bcf-3e724fe32df6"},"vehicle_type_id":"4","last_reported":1768658992,"current_range_meters":7200,"station_id":"","pricing_plan_id":"cebpf4jnsgd1na2vs0mg"},{"bike_id":"dfa72997-bdba-48f4-a1d1-63ff5130518c","system_id":"levelo_inurba_marseille","lat":43.32354,"lon":5.36735,"is_reserved":false,"is_disabled":false,"rental_uris":{"android":"levelo://app?vid=dfa72997-bdba-48f4-a1d1-63ff5130518c","ios":"levelo://app?vid=dfa72997-bdba-48f4-a1d1-63ff5130518c"},"vehicle_type_id":"4","last_reported":1768658992,"current_range_meters":7200,"station_id":"","pricing_plan_id":"cebpf4jnsgd1na2vs0mg"},{"bike_id":"46806932-3cfa-4ebe-af4a-3467d6c21a46","system_id":"levelo_inurba_marseille","lat":43.278154,"lon":5.407243,"is_reserved":false,"is_disabled":false,"rental_uris":{"android":"levelo://app?vid=46806932-3cfa-4ebe-af4a-3467d6c21a46","ios":"levelo://app?vid=46806932-3cfa-4ebe-af4a-3467d6c21a46"},"vehicle_type_id":"4","last_reported":1768658992,"current_range_meters":7200,"station_id":"ce4bhnh2rcd13ifvqgtg","pricing_plan_id":"cebpf4jnsgd1na2vs0mg"},{"bike_id":"ab96d693-0de6-43f1-85b1-d62380e9052b","system_id":"levelo_inurba_marseille","lat":43.279871,"lon":5.399805,"is_reserved":false,"is_disabled":false,"rental_uris":{"android":"levelo://app?vid=ab96d693-0de6-43f1-85b1-d62380e9052b","ios":"levelo://app?vid=ab96d693-0de6-43f1-85b1-d62380e9052b"},"vehicle_type_id":"4","last_reported":1768658992,"current_range_meters":7200,"station_id":"ce4bho92rcd13ifvqh4g","pricing_plan_id":"cebpf4jnsgd1na2vs0mg"},{"bike_id":"094cd202-b33e-4144-a039-2478fb81f740","system_id":"levelo_inurba_marseille","lat":43.25226,"lon":5.38042,"is_reserved":false,"is_disabled":false,"rental_uris":{"android":"levelo://app?vid=094cd202-b33e-4144-a039-2478fb81f740","ios":"levelo://app?vid=094cd202-b33e-4144-a039-2478fb81f740"},"vehicle_type_id":"4","last_reported":1768658992,"current_range_meters":7200,"station_id":"","pricing_plan_id":"cebpf4jnsgd1na2vs0mg"},{"bike_id":"0dba0e67-842b-483d-b59d-db38abdb659c","system_id":"levelo_inurba_marseille","lat":43.25867,"lon":5.39891,"is_reserved":false,"is_disabled":false,"rental_uris":{"android":"levelo://app?vid=0dba0e67-842b-483d-b59d-db38abdb659c","ios":"levelo://app?vid=0dba0e67-842b-483d-b59d-db38abdb659c"},"vehicle_type_id":"4","last_reported":1768658992,"current_range_meters":7200,"station_id":"ce4bhl92rcd13ifvqghg","pricing_plan_id":"cebpf4jnsgd1na2vs0mg"},{"bike_id":"afc89dfe-d073-418a-80ae-5c9d03e25273","system_id":"levelo_inurba_marseille","lat":43.297505,"lon":5.427824,"is_reserved":false,"is_disabled":false,"rental_uris":{"android":"levelo://app?vid=afc89dfe-d073-418a-80ae-5c9d03e25273","ios":"levelo://app?vid=afc89dfe-d073-418a-80ae-5c9d03e25273"},"vehicle_type_id":"4","last_reported":1768658992,"current_range_meters":7200,"station_id":"st_d3md5207bmas73dh9klg","pricing_plan_id":"cebpf4jnsgd1na2vs0mg"},{"bike_id":"64616ddc-02fc-4fa3-a96e-55f8d46496f1","system_id":"levelo_inurba_marseille","lat":43.32105,"lon":5.36777,"is_reserved":false,"is_disabled":false,"rental_uris":{"android":"levelo://app?vid=64616ddc-02fc-4fa3-a96e-55f8d46496f1","ios":"levelo://app?vid=64616ddc-02fc-4fa3-a96e-55f8d46496f1"},"vehicle_type_id":"4","last_reported":1768658992,"current_range_meters":7200,"station_id":"ce4bhrh2rcd13ifvqhug","pricing_plan_id":"cebpf4jnsgd1na2vs0mg"},{"bike_id":"7faf58eb-ee03-481a-9f28-1064e829d8e1","system_id":"levelo_inurba_marseille","lat":43.29769,"lon":5.42781,"is_reserved":false,"is_disabled":false,"rental_uris":{"android":"levelo://app?vid=7faf58eb-ee03-481a-9f28-1064e829d8e1","ios":"levelo://app?vid=7faf58eb-ee03-481a-9f28-1064e829d8e1"},"vehicle_type_id":"4","last_reported":1768658992,"current_range_meters":7200,"station_id":"st_d3md5207bmas73dh9klg","pricing_plan_id":"cebpf4jnsgd1na2vs0mg"},{"bike_id":"2675671c-3881-46f8-8b37-e9cc96a4dbb9","system_id":"levelo_inurba_marseille","lat":43.29812,"lon":5.37595,"is_reserved":false,"is_disabled":false,"rental_uris":{"android":"levelo://app?vid=2675671c-3881-46f8-8b37-e9cc96a4dbb9","ios":"levelo://app?vid=2675671c-3881-46f8-8b37-e9cc96a4dbb9"},"vehicle_type_id":"4","last_reported":1768658992,"current_range_meters":7200,"station_id":"","pricing_plan_id":"cebpf4jnsgd1na2vs0mg"},{"bike_id":"4884e3b4-8b53-43b4-90a8-716c16790211","system_id":"levelo_inurba_marseille","lat":43.32336,"lon":5.36707,"is_reserved":false,"is_disabled":false,"rental_uris":{"android":"levelo://app?vid=4884e3b4-8b53-43b4-90a8-716c16790211","ios":"levelo://app?vid=4884e3b4-8b53-43b4-90a8-716c16790211"},"vehicle_type_id":"4","last_reported":1768658992,"current_range_meters":7200,"station_id":"ce4bhsh2rcd13ifvqi2g","pricing_plan_id":"cebpf4jnsgd1na2vs0mg"},{"bike_id":"1a20c022-8a33-46c3-a7ae-f5e720162959","system_id":"levelo_inurba_marseille","lat":43.27945,"lon":5.41046,"is_reserved":false,"is_disabled":false,"rental_uris":{"android":"levelo://app?vid=1a20c022-8a33-46c3-a7ae-f5e720162959","ios":"levelo://app?vid=1a20c022-8a33-46c3-a7ae-f5e720162959"},"vehicle_type_id":"4","last_reported":1768658992,"current_range_meters":7200,"station_id":"ce4bhnp2rcd13ifvqh0g","pricing_plan_id":"cebpf4jnsgd1na2vs0mg"},{"bike_id":"252a01eb-733e-461c-bfde-ad296dc94be6","system_id":"levelo_inurba_marseille","lat":43.30603,"lon":5.3749,"is_reserved":false,"is_disabled":false,"rental_uris":{"android":"levelo://app?vid=252a01eb-733e-461c-bfde-ad296dc94be6","ios":"levelo://app?vid=252a01eb-733e-461c-bfde-ad296dc94be6"},"vehicle_type_id":"4","last_reported":1768658992,"current_range_meters":7200,"station_id":"","pricing_plan_id":"cebpf4jnsgd1na2vs0mg"},{"bike_id":"1e2f61e1-43fc-4304-9a08-c641cc6e37c6","system_id":"levelo_inurba_marseille","lat":43.284903,"lon":5.385771,"is_reserved":false,"is_disabled":false,"rental_uris":{"android":"levelo://app?vid=1e2f61e1-43fc-4304-9a08-c641cc6e37c6","ios":"levelo://app?vid=1e2f61e1-43fc-4304-9a08-c641cc6e37c6"},"vehicle_type_id":"4","last_reported":1768658992,"current_range_meters":7200,"station_id":"ce4bh8p2rcd13ifvqeb0","pricing_plan_id":"cebpf4jnsgd1na2vs0mg"},{"bike_id":"2340445d-9199-48cf-83f4-7309507be9a4","system_id":"levelo_inurba_marseille","lat":43.244678,"lon":5.42546,"is_reserved":false,"is_disabled":false,"rental_uris":{"android":"levelo://app?vid=2340445d-9199-48cf-83f4-7309507be9a4","ios":"levelo://app?vid=2340445d-9199-48cf-83f4-7309507be9a4"},"vehicle_type_id":"4","last_reported":1768658992,"current_range_meters":7200,"station_id":"st_d4a3vfp97mjs738cd8kg","pricing_plan_id":"cebpf4jnsgd1na2vs0mg"},{"bike_id":"74a1e1f8-bb34-4287-aa1b-9f0b4e610f1e","system_id":"levelo_inurba_marseille","lat":43.30873,"lon":5.37516,"is_reserved":false,"is_disabled":false,"rental_uris":{"android":"levelo://app?vid=74a1e1f8-bb34-4287-aa1b-9f0b4e610f1e","ios":"levelo://app?vid=74a1e1f8-bb34-4287-aa1b-9f0b4e610f1e"},"vehicle_type_id":"4","last_reported":1768658992,"current_range_meters":7200,"station_id":"","pricing_plan_id":"cebpf4jnsgd1na2vs0mg"},{"bike_id":"8f8609cc-4bee-4b38-9c52-16a11c3995e3","system_id":"levelo_inurba_marseille","lat":43.25502,"lon":5.37655,"is_reserved":false,"is_disabled":false,"rental_uris":{"android":"levelo://app?vid=8f8609cc-4bee-4b38-9c52-16a11c3995e3","ios":"levelo://app?vid=8f8609cc-4bee-4b38-9c52-16a11c3995e3"},"vehicle_type_id":"4","last_reported":1768658992,"current_range_meters":7200,"station_id":"ce4bhh12rcd13ifvqff0","pricing_plan_id":"cebpf4jnsgd1na2vs0mg"},{"bike_id":"12bdf3a8-c528-41e9-b4f5-8f4e12b00830","system_id":"levelo_inurba_marseille","lat":43.25335,"lon":5.42174,"is_reserved":false,"is_disabled":false,"rental_uris":{"android":"levelo://app?vid=12bdf3a8-c528-41e9-b4f5-8f4e12b00830","ios":"levelo://app?vid=12bdf3a8-c528-41e9-b4f5-8f4e12b00830"},"vehicle_type_id":"4","last_reported":1768658992,"current_range_meters":7200,"station_id":"st_d2m65c5bi1j21697t3ng","pricing_plan_id":"cebpf4jnsgd1na2vs0mg"},{"bike_id":"e91e3903-60f1-4c5a-bc80-d327c473e2e7","system_id":"levelo_inurba_marseille","lat":43.25505,"lon":5.37652,"is_reserved":false,"is_disabled":false,"rental_uris":{"android":"levelo://app?vid=e91e3903-60f1-4c5a-bc80-d327c473e2e7","ios":"levelo://app?vid=e91e3903-60f1-4c5a-bc80-d327c473e2e7"},"vehicle_type_id":"4","last_reported":1768658992,"current_range_meters":7200,"station_id":"ce4bhh12rcd13ifvqff0","pricing_plan_id":"cebpf4jnsgd1na2vs0mg"},{"bike_id":"3a36667a-93a2-47e6-8728-e382036e6f88","system_id":"levelo_inurba_marseille","lat":43.21748,"lon":5.34595,"is_reserved":false,"is_disabled":false,"rental_uris":{"android":"levelo://app?vid=3a36667a-93a2-47e6-8728-e382036e6f88","ios":"levelo://app?vid=3a36667a-93a2-47e6-8728-e382036e6f88"},"vehicle_type_id":"4","last_reported":1768658992,"current_range_meters":7200,"station_id":"st_cvj6r9ubvosntc0bgbag","pricing_plan_id":"cebpf4jnsgd1na2vs0mg"},{"bike_id":"d5086d04-1126-46f4-8392-d98460c8e7fe","system_id":"levelo_inurba_marseille","lat":43.32868,"lon":5.38355,"is_reserved":false,"is_disabled":false,"rental_uris":{"android":"levelo://app?vid=d5086d04-1126-46f4-8392-d98460c8e7fe","ios":"levelo://app?vid=d5086d04-1126-46f4-8392-d98460c8e7fe"},"vehicle_type_id":"4","last_reported":1768658992,"current_range_meters":7200,"station_id":"","pricing_plan_id":"cebpf4jnsgd1na2vs0mg"},{"bike_id":"5046767e-783a-4712-8e13-08b5e3357478","system_id":"levelo_inurba_marseille","lat":43.26555,"lon":5.40307,"is_reserved":false,"is_disabled":false,"rental_uris":{"android":"levelo://app?vid=5046767e-783a-4712-8e13-08b5e3357478","ios":"levelo://app?vid=5046767e-783a-4712-8e13-08b5e3357478"},"vehicle_type_id":"4","last_reported":1768658992,"current_range_meters":8000,"station_id":"ce4bhmp2rcd13ifvqgng","pricing_plan_id":"cebpf4jnsgd1na2vs0mg"},{"bike_id":"8a9933e9-1ba0-42bc-9dfa-198447433b99","system_id":"levelo_inurba_marseille","lat":43.26064,"lon":5.3939,"is_reserved":false,"is_disabled":false,"rental_uris":{"android":"levelo://app?vid=8a9933e9-1ba0-42bc-9dfa-198447433b99","ios":"levelo://app?vid=8a9933e9-1ba0-42bc-9dfa-198447433b99"},"vehicle_type_id":"4","last_reported":1768658992,"current_range_meters":8000,"station_id":"ce4bhh92rcd13ifvqfj0","pricing_plan_id":"cebpf4jnsgd1na2vs0mg"},{"bike_id":"9f9ee95b-a709-468f-875a-8cf12fad1678","system_id":"levelo_inurba_marseille","lat":43.30146,"lon":5.37414,"is_reserved":false,"is_disabled":false,"rental_uris":{"android":"levelo://app?vid=9f9ee95b-a709-468f-875a-8cf12fad1678","ios":"levelo://app?vid=9f9ee95b-a709-468f-875a-8cf12fad1678"},"vehicle_type_id":"4","last_reported":1768658992,"current_range_meters":8000,"station_id":"ce4bgs92rcd13ifvqcc0","pricing_plan_id":"cebpf4jnsgd1na2vs0mg"},{"bike_id":"40d3dc88-0f80-474c-b9b5-fa3b55d5a0df","system_id":"levelo_inurba_marseille","lat":43.28525,"lon":5.44096,"is_reserved":false,"is_disabled":false,"rental_uris":{"android":"levelo://app?vid=40d3dc88-0f80-474c-b9b5-fa3b55d5a0df","ios":"levelo://app?vid=40d3dc88-0f80-474c-b9b5-fa3b55d5a0df"},"vehicle_type_id":"4","last_reported":1768658992,"current_range_meters":8000,"station_id":"st_d3j3df2ikq2c7380ej80","pricing_plan_id":"cebpf4jnsgd1na2vs0mg"},{"bike_id":"2b145973-3802-427d-9998-97f195dc402b","system_id":"levelo_inurba_marseille","lat":43.2319,"lon":5.35551,"is_reserved":false,"is_disabled":false,"rental_uris":{"android":"levelo://app?vid=2b145973-3802-427d-9998-97f195dc402b","ios":"levelo://app?vid=2b145973-3802-427d-9998-97f195dc402b"},"vehicle_type_id":"4","last_reported":1768658992,"current_range_meters":8000,"station_id":"ce4bhu92rcd13ifvqi70","pricing_plan_id":"cebpf4jnsgd1na2vs0mg"},{"bike_id":"b99c8a93-fdcf-4884-b9c3-af61ba2c4a81","system_id":"levelo_inurba_marseille","lat":43.303053,"lon":5.392122,"is_reserved":false,"is_disabled":false,"rental_uris":{"android":"levelo://app?vid=b99c8a93-fdcf-4884-b9c3-af61ba2c4a81","ios":"levelo://app?vid=b99c8a93-fdcf-4884-b9c3-af61ba2c4a81"},"vehicle_type_id":"4","last_reported":1768658992,"current_range_meters":8000,"station_id":"ce4bgkh2rcd13ifvqbk0","pricing_plan_id":"cebpf4jnsgd1na2vs0mg"},{"bike_id":"bd9c4f9b-d8b4-4c19-a282-e7f16c61f7b6","system_id":"levelo_inurba_marseille","lat":43.32098,"lon":5.36766,"is_reserved":false,"is_disabled":false,"rental_uris":{"android":"levelo://app?vid=bd9c4f9b-d8b4-4c19-a282-e7f16c61f7b6","ios":"levelo://app?vid=bd9c4f9b-d8b4-4c19-a282-e7f16c61f7b6"},"vehicle_type_id":"4","last_reported":1768658992,"current_range_meters":8000,"station_id":"ce4bhrh2rcd13ifvqhug","pricing_plan_id":"cebpf4jnsgd1na2vs0mg"},{"bike_id":"263f1128-467e-4f61-b6b4-edae61a09b6f","system_id":"levelo_inurba_marseille","lat":43.28101,"lon":5.37811,"is_reserved":false,"is_disabled":false,"rental_uris":{"android":"levelo://app?vid=263f1128-467e-4f61-b6b4-edae61a09b6f","ios":"levelo://app?vid=263f1128-467e-4f61-b6b4-edae61a09b6f"},"vehicle_type_id":"4","last_reported":1768658992,"current_range_meters":8000,"station_id":"ce4bha12rcd13ifvqee0","pricing_plan_id":"cebpf4jnsgd1na2vs0mg"},{"bike_id":"8efafb2a-7a78-4ffb-873a-ee8b3cbdfdbd","system_id":"levelo_inurba_marseille","lat":43.26374,"lon":5.41087,"is_reserved":false,"is_disabled":true,"rental_uris":{"android":"levelo://app?vid=8efafb2a-7a78-4ffb-873a-ee8b3cbdfdbd","ios":"levelo://app?vid=8efafb2a-7a78-4ffb-873a-ee8b3cbdfdbd"},"vehicle_type_id":"4","last_reported":1768658992,"current_range_meters":8000,"station_id":"","pricing_plan_id":"cebpf4jnsgd1na2vs0mg"},{"bike_id":"49ecf593-a1c9-4420-b6f0-bea038ba7420","system_id":"levelo_inurba_marseille","lat":43.31276,"lon":5.37909,"is_reserved":false,"is_disabled":false,"rental_uris":{"android":"levelo://app?vid=49ecf593-a1c9-4420-b6f0-bea038ba7420","ios":"levelo://app?vid=49ecf593-a1c9-4420-b6f0-bea038ba7420"},"vehicle_type_id":"4","last_reported":1768658992,"current_range_meters":8000,"station_id":"","pricing_plan_id":"cebpf4jnsgd1na2vs0mg"},{"bike_id":"937d90e0-a5db-43d2-9364-92db8adcffb4","system_id":"levelo_inurba_marseille","lat":43.2533,"lon":5.42172,"is_reserved":false,"is_disabled":false,"rental_uris":{"android":"levelo://app?vid=937d90e0-a5db-43d2-9364-92db8adcffb4","ios":"levelo://app?vid=937d90e0-a5db-43d2-9364-92db8adcffb4"},"vehicle_type_id":"4","last_reported":1768658992,"current_range_meters":8000,"station_id":"st_d2m65c5bi1j21697t3ng","pricing_plan_id":"cebpf4jnsgd1na2vs0mg"},{"bike_id":"f0a83361-5351-404b-ab85-c3162bb75598","system_id":"levelo_inurba_marseille","lat":43.23194,"lon":5.35547,"is_reserved":false,"is_disabled":false,"rental_uris":{"android":"levelo://app?vid=f0a83361-5351-404b-ab85-c3162bb75598","ios":"levelo://app?vid=f0a83361-5351-404b-ab85-c3162bb75598"},"vehicle_type_id":"4","last_reported":1768658992,"current_range_meters":8000,"station_id":"ce4bhu92rcd13ifvqi70","pricing_plan_id":"cebpf4jnsgd1na2vs0mg"},{"bike_id":"8a716b61-1ac2-4c85-af1e-4d26dd75055a","system_id":"levelo_inurba_marseille","lat":43.29238,"lon":5.40884,"is_reserved":false,"is_disabled":false,"rental_uris":{"android":"levelo://app?vid=8a716b61-1ac2-4c85-af1e-4d26dd75055a","ios":"levelo://app?vid=8a716b61-1ac2-4c85-af1e-4d26dd75055a"},"vehicle_type_id":"4","last_reported":1768658992,"current_range_meters":8000,"station_id":"ce4bh192rcd13ifvqdc0","pricing_plan_id":"cebpf4jnsgd1na2vs0mg"},{"bike_id":"4e8f1621-12cf-431a-8d8e-3e6473914932","system_id":"levelo_inurba_marseille","lat":43.29015,"lon":5.38135,"is_reserved":false,"is_disabled":false,"rental_uris":{"android":"levelo://app?vid=4e8f1621-12cf-431a-8d8e-3e6473914932","ios":"levelo://app?vid=4e8f1621-12cf-431a-8d8e-3e6473914932"},"vehicle_type_id":"4","last_reported":1768658992,"current_range_meters":8000,"station_id":"ce4bh4p2rcd13ifvqe1g","pricing_plan_id":"cebpf4jnsgd1na2vs0mg"},{"bike_id":"c9364da9-67c0-416d-b4bb-cf7d719f0f77","system_id":"levelo_inurba_marseille","lat":43.309144,"lon":5.368629,"is_reserved":false,"is_disabled":false,"rental_uris":{"android":"levelo://app?vid=c9364da9-67c0-416d-b4bb-cf7d719f0f77","ios":"levelo://app?vid=c9364da9-67c0-416d-b4bb-cf7d719f0f77"},"vehicle_type_id":"4","last_reported":1768658992,"current_range_meters":8000,"station_id":"ce4bgn92rcd13ifvqbvg","pricing_plan_id":"cebpf4jnsgd1na2vs0mg"},{"bike_id":"b61188c0-9590-46e5-be62-ff02194516dc","system_id":"levelo_inurba_marseille","lat":43.324894,"lon":5.382981,"is_reserved":false,"is_disabled":false,"rental_uris":{"android":"levelo://app?vid=b61188c0-9590-46e5-be62-ff02194516dc","ios":"levelo://app?vid=b61188c0-9590-46e5-be62-ff02194516dc"},"vehicle_type_id":"4","last_reported":1768658992,"current_range_meters":8000,"station_id":"st_d4asgbiv49dc73anf9m0","pricing_plan_id":"cebpf4jnsgd1na2vs0mg"},{"bike_id":"f3d775a3-f599-439d-bd34-f2266ddda566","system_id":"levelo_inurba_marseille","lat":43.32347,"lon":5.3677,"is_reserved":false,"is_disabled":false,"rental_uris":{"android":"levelo://app?vid=f3d775a3-f599-439d-bd34-f2266ddda566","ios":"levelo://app?vid=f3d775a3-f599-439d-bd34-f2266ddda566"},"vehicle_type_id":"4","last_reported":1768658992,"current_range_meters":8000,"station_id":"ce4bhsh2rcd13ifvqi2g","pricing_plan_id":"cebpf4jnsgd1na2vs0mg"},{"bike_id":"65067ab4-c95e-4dfb-b958-94e50a035330","system_id":"levelo_inurba_marseille","lat":43.31371,"lon":5.38491,"is_reserved":false,"is_disabled":false,"rental_uris":{"android":"levelo://app?vid=65067ab4-c95e-4dfb-b958-94e50a035330","ios":"levelo://app?vid=65067ab4-c95e-4dfb-b958-94e50a035330"},"vehicle_type_id":"4","last_reported":1768658992,"current_range_meters":8400,"station_id":"ce4bgt92rcd13ifvqcf0","pricing_plan_id":"cebpf4jnsgd1na2vs0mg"},{"bike_id":"ff2d3e5a-0e52-4f3a-ad99-d57d4a209ef1","system_id":"levelo_inurba_marseille","lat":43.301612,"lon":5.37418,"is_reserved":false,"is_disabled":false,"rental_uris":{"android":"levelo://app?vid=ff2d3e5a-0e52-4f3a-ad99-d57d4a209ef1","ios":"levelo://app?vid=ff2d3e5a-0e52-4f3a-ad99-d57d4a209ef1"},"vehicle_type_id":"4","last_reported":1768658992,"current_range_meters":8400,"station_id":"ce4bgs92rcd13ifvqcc0","pricing_plan_id":"cebpf4jnsgd1na2vs0mg"},{"bike_id":"f7d8d0a7-ff05-4fe9-8539-a36ed90daeaf","system_id":"levelo_inurba_marseille","lat":43.25826,"lon":5.39439,"is_reserved":false,"is_disabled":false,"rental_uris":{"android":"levelo://app?vid=f7d8d0a7-ff05-4fe9-8539-a36ed90daeaf","ios":"levelo://app?vid=f7d8d0a7-ff05-4fe9-8539-a36ed90daeaf"},"vehicle_type_id":"4","last_reported":1768658992,"current_range_meters":8400,"station_id":"ce4bhip2rcd13ifvqft0","pricing_plan_id":"cebpf4jnsgd1na2vs0mg"},{"bike_id":"dbba0a0b-4a48-431c-b93f-cc7a9adf711d","system_id":"levelo_inurba_marseille","lat":43.29795,"lon":5.38107,"is_reserved":false,"is_disabled":true,"rental_uris":{"android":"levelo://app?vid=dbba0a0b-4a48-431c-b93f-cc7a9adf711d","ios":"levelo://app?vid=dbba0a0b-4a48-431c-b93f-cc7a9adf711d"},"vehicle_type_id":"4","last_reported":1768658992,"current_range_meters":8400,"station_id":"ce4bgip2rcd13ifvqbb0","pricing_plan_id":"cebpf4jnsgd1na2vs0mg"},{"bike_id":"acaa042e-c501-42e4-aaa9-5e42ce2c0a67","system_id":"levelo_inurba_marseille","lat":43.28113,"lon":5.38844,"is_reserved":false,"is_disabled":false,"rental_uris":{"android":"levelo://app?vid=acaa042e-c501-42e4-aaa9-5e42ce2c0a67","ios":"levelo://app?vid=acaa042e-c501-42e4-aaa9-5e42ce2c0a67"},"vehicle_type_id":"4","last_reported":1768658992,"current_range_meters":8400,"station_id":"","pricing_plan_id":"cebpf4jnsgd1na2vs0mg"},{"bike_id":"61291781-3e80-48db-810b-09397984c4f4","system_id":"levelo_inurba_marseille","lat":43.24171,"lon":5.39738,"is_reserved":false,"is_disabled":false,"rental_uris":{"android":"levelo://app?vid=61291781-3e80-48db-810b-09397984c4f4","ios":"levelo://app?vid=61291781-3e80-48db-810b-09397984c4f4"},"vehicle_type_id":"4","last_reported":1768658992,"current_range_meters":8400,"station_id":"ce4bhn12rcd13ifvqgpg","pricing_plan_id":"cebpf4jnsgd1na2vs0mg"},{"bike_id":"24fd007e-1bb4-4653-974d-a1e9e478c87f","system_id":"levelo_inurba_marseille","lat":43.24166,"lon":5.3642,"is_reserved":false,"is_disabled":false,"rental_uris":{"android":"levelo://app?vid=24fd007e-1bb4-4653-974d-a1e9e478c87f","ios":"levelo://app?vid=24fd007e-1bb4-4653-974d-a1e9e478c87f"},"vehicle_type_id":"4","last_reported":1768658992,"current_range_meters":8400,"station_id":"cpo36qri1sfpv3e86is0","pricing_plan_id":"cebpf4jnsgd1na2vs0mg"},{"bike_id":"0cbe0826-bfc8-412b-bcf3-f638ab93256c","system_id":"levelo_inurba_marseille","lat":43.28488,"lon":5.48412,"is_reserved":false,"is_disabled":false,"rental_uris":{"android":"levelo://app?vid=0cbe0826-bfc8-412b-bcf3-f638ab93256c","ios":"levelo://app?vid=0cbe0826-bfc8-412b-bcf3-f638ab93256c"},"vehicle_type_id":"4","last_reported":1768658992,"current_range_meters":8400,"station_id":"","pricing_plan_id":"cebpf4jnsgd1na2vs0mg"},{"bike_id":"2a5a3e25-d115-4865-9217-12f5237a0224","system_id":"levelo_inurba_marseille","lat":43.25366,"lon":5.42163,"is_reserved":false,"is_disabled":false,"rental_uris":{"android":"levelo://app?vid=2a5a3e25-d115-4865-9217-12f5237a0224","ios":"levelo://app?vid=2a5a3e25-d115-4865-9217-12f5237a0224"},"vehicle_type_id":"4","last_reported":1768658992,"current_range_meters":8400,"station_id":"st_d2m65c5bi1j21697t3ng","pricing_plan_id":"cebpf4jnsgd1na2vs0mg"},{"bike_id":"ef3f1e70-32c3-4923-9ca7-95ec1e3cefa1","system_id":"levelo_inurba_marseille","lat":43.28238,"lon":5.38181,"is_reserved":false,"is_disabled":false,"rental_uris":{"android":"levelo://app?vid=ef3f1e70-32c3-4923-9ca7-95ec1e3cefa1","ios":"levelo://app?vid=ef3f1e70-32c3-4923-9ca7-95ec1e3cefa1"},"vehicle_type_id":"4","last_reported":1768658992,"current_range_meters":8800,"station_id":"","pricing_plan_id":"cebpf4jnsgd1na2vs0mg"},{"bike_id":"b5d404ca-dd88-4761-9680-575e93d891b2","system_id":"levelo_inurba_marseille","lat":43.29242,"lon":5.40901,"is_reserved":false,"is_disabled":false,"rental_uris":{"android":"levelo://app?vid=b5d404ca-dd88-4761-9680-575e93d891b2","ios":"levelo://app?vid=b5d404ca-dd88-4761-9680-575e93d891b2"},"vehicle_type_id":"4","last_reported":1768658992,"current_range_meters":8800,"station_id":"ce4bh192rcd13ifvqdc0","pricing_plan_id":"cebpf4jnsgd1na2vs0mg"},{"bike_id":"2e59ab37-51b4-434c-9efd-dbfcceedd362","system_id":"levelo_inurba_marseille","lat":43.323543,"lon":5.367495,"is_reserved":false,"is_disabled":false,"rental_uris":{"android":"levelo://app?vid=2e59ab37-51b4-434c-9efd-dbfcceedd362","ios":"levelo://app?vid=2e59ab37-51b4-434c-9efd-dbfcceedd362"},"vehicle_type_id":"4","last_reported":1768658992,"current_range_meters":8800,"station_id":"ce4bhsh2rcd13ifvqi2g","pricing_plan_id":"cebpf4jnsgd1na2vs0mg"},{"bike_id":"00f4d446-9b60-4cef-bd0b-8d64e443fec2","system_id":"levelo_inurba_marseille","lat":43.25111,"lon":5.40327,"is_reserved":false,"is_disabled":false,"rental_uris":{"android":"levelo://app?vid=00f4d446-9b60-4cef-bd0b-8d64e443fec2","ios":"levelo://app?vid=00f4d446-9b60-4cef-bd0b-8d64e443fec2"},"vehicle_type_id":"4","last_reported":1768658992,"current_range_meters":8800,"station_id":"ce4bhlh2rcd13ifvqgig","pricing_plan_id":"cebpf4jnsgd1na2vs0mg"},{"bike_id":"e2e30f7e-0b8f-44c1-be4d-c3ca3d98f7fd","system_id":"levelo_inurba_marseille","lat":43.304609,"lon":5.379146,"is_reserved":false,"is_disabled":false,"rental_uris":{"android":"levelo://app?vid=e2e30f7e-0b8f-44c1-be4d-c3ca3d98f7fd","ios":"levelo://app?vid=e2e30f7e-0b8f-44c1-be4d-c3ca3d98f7fd"},"vehicle_type_id":"4","last_reported":1768658992,"current_range_meters":8800,"station_id":"ce4bgup2rcd13ifvqcn0","pricing_plan_id":"cebpf4jnsgd1na2vs0mg"},{"bike_id":"3edcb619-e140-4ca7-af08-f551c6a288f3","system_id":"levelo_inurba_marseille","lat":43.284835,"lon":5.484029,"is_reserved":false,"is_disabled":false,"rental_uris":{"android":"levelo://app?vid=3edcb619-e140-4ca7-af08-f551c6a288f3","ios":"levelo://app?vid=3edcb619-e140-4ca7-af08-f551c6a288f3"},"vehicle_type_id":"4","last_reported":1768658992,"current_range_meters":8800,"station_id":"","pricing_plan_id":"cebpf4jnsgd1na2vs0mg"},{"bike_id":"50cbfdcf-741a-412f-a00e-021c3a5b4403","system_id":"levelo_inurba_marseille","lat":43.31471,"lon":5.37268,"is_reserved":false,"is_disabled":false,"rental_uris":{"android":"levelo://app?vid=50cbfdcf-741a-412f-a00e-021c3a5b4403","ios":"levelo://app?vid=50cbfdcf-741a-412f-a00e-021c3a5b4403"},"vehicle_type_id":"4","last_reported":1768658992,"current_range_meters":8800,"station_id":"ce4bgt12rcd13ifvqcd0","pricing_plan_id":"cebpf4jnsgd1na2vs0mg"},{"bike_id":"878dde24-bede-4e19-ae02-67a59c493306","system_id":"levelo_inurba_marseille","lat":43.27959,"lon":5.41064,"is_reserved":false,"is_disabled":false,"rental_uris":{"android":"levelo://app?vid=878dde24-bede-4e19-ae02-67a59c493306","ios":"levelo://app?vid=878dde24-bede-4e19-ae02-67a59c493306"},"vehicle_type_id":"4","last_reported":1768658992,"current_range_meters":8800,"station_id":"ce4bhnp2rcd13ifvqh0g","pricing_plan_id":"cebpf4jnsgd1na2vs0mg"},{"bike_id":"d9e6e313-e193-44ff-b62a-c349a6ca5805","system_id":"levelo_inurba_marseille","lat":43.28699,"lon":5.39991,"is_reserved":false,"is_disabled":false,"rental_uris":{"android":"levelo://app?vid=d9e6e313-e193-44ff-b62a-c349a6ca5805","ios":"levelo://app?vid=d9e6e313-e193-44ff-b62a-c349a6ca5805"},"vehicle_type_id":"4","last_reported":1768658992,"current_range_meters":8800,"station_id":"ce4bho92rcd13ifvqh3g","pricing_plan_id":"cebpf4jnsgd1na2vs0mg"},{"bike_id":"de890674-a00b-4313-ae9c-0f8495e4953e","system_id":"levelo_inurba_marseille","lat":43.282755,"lon":5.350588,"is_reserved":false,"is_disabled":false,"rental_uris":{"android":"levelo://app?vid=de890674-a00b-4313-ae9c-0f8495e4953e","ios":"levelo://app?vid=de890674-a00b-4313-ae9c-0f8495e4953e"},"vehicle_type_id":"4","last_reported":1768658992,"current_range_meters":8800,"station_id":"ce4bhbp2rcd13ifvqerg","pricing_plan_id":"cebpf4jnsgd1na2vs0mg"},{"bike_id":"34c66c70-d3e2-4b84-b84c-2f238c05e82f","system_id":"levelo_inurba_marseille","lat":43.32364,"lon":5.36782,"is_reserved":false,"is_disabled":false,"rental_uris":{"android":"levelo://app?vid=34c66c70-d3e2-4b84-b84c-2f238c05e82f","ios":"levelo://app?vid=34c66c70-d3e2-4b84-b84c-2f238c05e82f"},"vehicle_type_id":"4","last_reported":1768658992,"current_range_meters":8800,"station_id":"ce4bhsh2rcd13ifvqi2g","pricing_plan_id":"cebpf4jnsgd1na2vs0mg"},{"bike_id":"dc2a51a7-64f4-4158-b84a-2791d926c053","system_id":"levelo_inurba_marseille","lat":43.31302,"lon":5.38185,"is_reserved":false,"is_disabled":false,"rental_uris":{"android":"levelo://app?vid=dc2a51a7-64f4-4158-b84a-2791d926c053","ios":"levelo://app?vid=dc2a51a7-64f4-4158-b84a-2791d926c053"},"vehicle_type_id":"4","last_reported":1768658992,"current_range_meters":8800,"station_id":"","pricing_plan_id":"cebpf4jnsgd1na2vs0mg"},{"bike_id":"923a293c-cb5e-4620-acad-ddc8186290d8","system_id":"levelo_inurba_marseille","lat":43.246529,"lon":5.388916,"is_reserved":false,"is_disabled":false,"rental_uris":{"android":"levelo://app?vid=923a293c-cb5e-4620-acad-ddc8186290d8","ios":"levelo://app?vid=923a293c-cb5e-4620-acad-ddc8186290d8"},"vehicle_type_id":"4","last_reported":1768658992,"current_range_meters":8800,"station_id":"ce4bhg12rcd13ifvqf60","pricing_plan_id":"cebpf4jnsgd1na2vs0mg"},{"bike_id":"21fd45ec-3ea3-46cd-b2be-783cf5a92f21","system_id":"levelo_inurba_marseille","lat":43.29481,"lon":5.43291,"is_reserved":false,"is_disabled":false,"rental_uris":{"android":"levelo://app?vid=21fd45ec-3ea3-46cd-b2be-783cf5a92f21","ios":"levelo://app?vid=21fd45ec-3ea3-46cd-b2be-783cf5a92f21"},"vehicle_type_id":"4","last_reported":1768658992,"current_range_meters":8800,"station_id":"st_d3j5ugp08ojc73fj9d10","pricing_plan_id":"cebpf4jnsgd1na2vs0mg"},{"bike_id":"59908df7-a301-4624-ad72-8e10f9564c6e","system_id":"levelo_inurba_marseille","lat":43.312766,"lon":5.401727,"is_reserved":false,"is_disabled":false,"rental_uris":{"android":"levelo://app?vid=59908df7-a301-4624-ad72-8e10f9564c6e","ios":"levelo://app?vid=59908df7-a301-4624-ad72-8e10f9564c6e"},"vehicle_type_id":"4","last_reported":1768658992,"current_range_meters":8800,"station_id":"ce4bh092rcd13ifvqd30","pricing_plan_id":"cebpf4jnsgd1na2vs0mg"},{"bike_id":"3de79ba5-6bdb-408d-95bd-3f4b9c83991c","system_id":"levelo_inurba_marseille","lat":43.29509,"lon":5.37907,"is_reserved":false,"is_disabled":false,"rental_uris":{"android":"levelo://app?vid=3de79ba5-6bdb-408d-95bd-3f4b9c83991c","ios":"levelo://app?vid=3de79ba5-6bdb-408d-95bd-3f4b9c83991c"},"vehicle_type_id":"4","last_reported":1768658992,"current_range_meters":8800,"station_id":"","pricing_plan_id":"cebpf4jnsgd1na2vs0mg"},{"bike_id":"bcda77ef-d425-4420-9325-feb91e21d37e","system_id":"levelo_inurba_marseille","lat":43.28473,"lon":5.48395,"is_reserved":false,"is_disabled":false,"rental_uris":{"android":"levelo://app?vid=bcda77ef-d425-4420-9325-feb91e21d37e","ios":"levelo://app?vid=bcda77ef-d425-4420-9325-feb91e21d37e"},"vehicle_type_id":"4","last_reported":1768658992,"current_range_meters":8800,"station_id":"","pricing_plan_id":"cebpf4jnsgd1na2vs0mg"},{"bike_id":"3105f420-c586-4e00-928c-4db8f1dc1faf","system_id":"levelo_inurba_marseille","lat":43.28485,"lon":5.38413,"is_reserved":false,"is_disabled":false,"rental_uris":{"android":"levelo://app?vid=3105f420-c586-4e00-928c-4db8f1dc1faf","ios":"levelo://app?vid=3105f420-c586-4e00-928c-4db8f1dc1faf"},"vehicle_type_id":"4","last_reported":1768658992,"current_range_meters":8800,"station_id":"ce4bh512rcd13ifvqe3g","pricing_plan_id":"cebpf4jnsgd1na2vs0mg"},{"bike_id":"4a28ef74-056c-4568-bfa3-e40f0a491bda","system_id":"levelo_inurba_marseille","lat":43.25518,"lon":5.37648,"is_reserved":false,"is_disabled":false,"rental_uris":{"android":"levelo://app?vid=4a28ef74-056c-4568-bfa3-e40f0a491bda","ios":"levelo://app?vid=4a28ef74-056c-4568-bfa3-e40f0a491bda"},"vehicle_type_id":"4","last_reported":1768658992,"current_range_meters":8800,"station_id":"ce4bhh12rcd13ifvqff0","pricing_plan_id":"cebpf4jnsgd1na2vs0mg"},{"bike_id":"168fb7c0-bb3d-4dc2-b81c-95a7d644950b","system_id":"levelo_inurba_marseille","lat":43.28111,"lon":5.42626,"is_reserved":false,"is_disabled":false,"rental_uris":{"android":"levelo://app?vid=168fb7c0-bb3d-4dc2-b81c-95a7d644950b","ios":"levelo://app?vid=168fb7c0-bb3d-4dc2-b81c-95a7d644950b"},"vehicle_type_id":"4","last_reported":1768658992,"current_range_meters":8800,"station_id":"","pricing_plan_id":"cebpf4jnsgd1na2vs0mg"},{"bike_id":"0cdf86fa-1d6f-4140-aa62-b930ff22d688","system_id":"levelo_inurba_marseille","lat":43.25336,"lon":5.42158,"is_reserved":false,"is_disabled":false,"rental_uris":{"android":"levelo://app?vid=0cdf86fa-1d6f-4140-aa62-b930ff22d688","ios":"levelo://app?vid=0cdf86fa-1d6f-4140-aa62-b930ff22d688"},"vehicle_type_id":"4","last_reported":1768658992,"current_range_meters":9200,"station_id":"st_d2m65c5bi1j21697t3ng","pricing_plan_id":"cebpf4jnsgd1na2vs0mg"},{"bike_id":"b72edf83-0dcb-4a5d-b17e-81637d24626b","system_id":"levelo_inurba_marseille","lat":43.30917,"lon":5.36881,"is_reserved":false,"is_disabled":false,"rental_uris":{"android":"levelo://app?vid=b72edf83-0dcb-4a5d-b17e-81637d24626b","ios":"levelo://app?vid=b72edf83-0dcb-4a5d-b17e-81637d24626b"},"vehicle_type_id":"4","last_reported":1768658992,"current_range_meters":9200,"station_id":"ce4bgn92rcd13ifvqbvg","pricing_plan_id":"cebpf4jnsgd1na2vs0mg"},{"bike_id":"23b6f6e8-92d5-47cd-8cd0-4c3a7fe75221","system_id":"levelo_inurba_marseille","lat":43.3133,"lon":5.39686,"is_reserved":false,"is_disabled":false,"rental_uris":{"android":"levelo://app?vid=23b6f6e8-92d5-47cd-8cd0-4c3a7fe75221","ios":"levelo://app?vid=23b6f6e8-92d5-47cd-8cd0-4c3a7fe75221"},"vehicle_type_id":"4","last_reported":1768658992,"current_range_meters":9200,"station_id":"ce4bgvp2rcd13ifvqcu0","pricing_plan_id":"cebpf4jnsgd1na2vs0mg"},{"bike_id":"2fa7b407-6340-4fb7-b9f7-523ee592e1a0","system_id":"levelo_inurba_marseille","lat":43.25574,"lon":5.38229,"is_reserved":false,"is_disabled":false,"rental_uris":{"android":"levelo://app?vid=2fa7b407-6340-4fb7-b9f7-523ee592e1a0","ios":"levelo://app?vid=2fa7b407-6340-4fb7-b9f7-523ee592e1a0"},"vehicle_type_id":"4","last_reported":1768658992,"current_range_meters":9200,"station_id":"ce4bhih2rcd13ifvqfs0","pricing_plan_id":"cebpf4jnsgd1na2vs0mg"},{"bike_id":"bf210f90-84da-4e17-b3c6-1f0dbf2464c6","system_id":"levelo_inurba_marseille","lat":43.27941,"lon":5.41048,"is_reserved":false,"is_disabled":false,"rental_uris":{"android":"levelo://app?vid=bf210f90-84da-4e17-b3c6-1f0dbf2464c6","ios":"levelo://app?vid=bf210f90-84da-4e17-b3c6-1f0dbf2464c6"},"vehicle_type_id":"4","last_reported":1768658992,"current_range_meters":9200,"station_id":"ce4bhnp2rcd13ifvqh0g","pricing_plan_id":"cebpf4jnsgd1na2vs0mg"},{"bike_id":"7eded3b1-4745-4b4d-b80d-d88da3addd51","system_id":"levelo_inurba_marseille","lat":43.27639,"lon":5.3609,"is_reserved":false,"is_disabled":false,"rental_uris":{"android":"levelo://app?vid=7eded3b1-4745-4b4d-b80d-d88da3addd51","ios":"levelo://app?vid=7eded3b1-4745-4b4d-b80d-d88da3addd51"},"vehicle_type_id":"4","last_reported":1768658992,"current_range_meters":9200,"station_id":"ce4bgj92rcd13ifvqbe0","pricing_plan_id":"cebpf4jnsgd1na2vs0mg"},{"bike_id":"ea29bf74-bf8b-42b9-b74c-25aad3274dd7","system_id":"levelo_inurba_marseille","lat":43.29254,"lon":5.38444,"is_reserved":false,"is_disabled":false,"rental_uris":{"android":"levelo://app?vid=ea29bf74-bf8b-42b9-b74c-25aad3274dd7","ios":"levelo://app?vid=ea29bf74-bf8b-42b9-b74c-25aad3274dd7"},"vehicle_type_id":"4","last_reported":1768658992,"current_range_meters":9200,"station_id":"ce4bh692rcd13ifvqea0","pricing_plan_id":"cebpf4jnsgd1na2vs0mg"},{"bike_id":"07bb76d4-422a-4c87-90ad-e08ace96a760","system_id":"levelo_inurba_marseille","lat":43.24405,"lon":5.40077,"is_reserved":false,"is_disabled":false,"rental_uris":{"android":"levelo://app?vid=07bb76d4-422a-4c87-90ad-e08ace96a760","ios":"levelo://app?vid=07bb76d4-422a-4c87-90ad-e08ace96a760"},"vehicle_type_id":"4","last_reported":1768658992,"current_range_meters":9200,"station_id":"","pricing_plan_id":"cebpf4jnsgd1na2vs0mg"},{"bike_id":"aec78a62-6e5d-409d-8248-259d8204ee4a","system_id":"levelo_inurba_marseille","lat":43.292,"lon":5.39313,"is_reserved":false,"is_disabled":false,"rental_uris":{"android":"levelo://app?vid=aec78a62-6e5d-409d-8248-259d8204ee4a","ios":"levelo://app?vid=aec78a62-6e5d-409d-8248-259d8204ee4a"},"vehicle_type_id":"4","last_reported":1768658992,"current_range_meters":9200,"station_id":"ce4bh192rcd13ifvqdd0","pricing_plan_id":"cebpf4jnsgd1na2vs0mg"},{"bike_id":"6ac2129d-800c-41e6-9811-cc59d8b826dc","system_id":"levelo_inurba_marseille","lat":43.28521,"lon":5.44167,"is_reserved":false,"is_disabled":false,"rental_uris":{"android":"levelo://app?vid=6ac2129d-800c-41e6-9811-cc59d8b826dc","ios":"levelo://app?vid=6ac2129d-800c-41e6-9811-cc59d8b826dc"},"vehicle_type_id":"4","last_reported":1768658992,"current_range_meters":9200,"station_id":"","pricing_plan_id":"cebpf4jnsgd1na2vs0mg"},{"bike_id":"e7214ada-a28a-4f98-a0df-b615cdc95b49","system_id":"levelo_inurba_marseille","lat":43.24658,"lon":5.38156,"is_reserved":false,"is_disabled":false,"rental_uris":{"android":"levelo://app?vid=e7214ada-a28a-4f98-a0df-b615cdc95b49","ios":"levelo://app?vid=e7214ada-a28a-4f98-a0df-b615cdc95b49"},"vehicle_type_id":"4","last_reported":1768658992,"current_range_meters":9200,"station_id":"ce4bhih2rcd13ifvqfr0","pricing_plan_id":"cebpf4jnsgd1na2vs0mg"},{"bike_id":"791cb4d0-546f-4f96-b131-34cd64d89ad7","system_id":"levelo_inurba_marseille","lat":43.28143,"lon":5.42639,"is_reserved":false,"is_disabled":false,"rental_uris":{"android":"levelo://app?vid=791cb4d0-546f-4f96-b131-34cd64d89ad7","ios":"levelo://app?vid=791cb4d0-546f-4f96-b131-34cd64d89ad7"},"vehicle_type_id":"4","last_reported":1768658992,"current_range_meters":9200,"station_id":"ce4bhnh2rcd13ifvqgug","pricing_plan_id":"cebpf4jnsgd1na2vs0mg"},{"bike_id":"aedcb933-8534-43a8-86ab-d9a83fef5872","system_id":"levelo_inurba_marseille","lat":43.31376,"lon":5.38545,"is_reserved":false,"is_disabled":false,"rental_uris":{"android":"levelo://app?vid=aedcb933-8534-43a8-86ab-d9a83fef5872","ios":"levelo://app?vid=aedcb933-8534-43a8-86ab-d9a83fef5872"},"vehicle_type_id":"4","last_reported":1768658992,"current_range_meters":9200,"station_id":"","pricing_plan_id":"cebpf4jnsgd1na2vs0mg"},{"bike_id":"4d7b6079-294b-4ffc-9e8f-0f46a62f357e","system_id":"levelo_inurba_marseille","lat":43.29968,"lon":5.38488,"is_reserved":false,"is_disabled":false,"rental_uris":{"android":"levelo://app?vid=4d7b6079-294b-4ffc-9e8f-0f46a62f357e","ios":"levelo://app?vid=4d7b6079-294b-4ffc-9e8f-0f46a62f357e"},"vehicle_type_id":"4","last_reported":1768658992,"current_range_meters":9200,"station_id":"ce4bgj92rcd13ifvqbd0","pricing_plan_id":"cebpf4jnsgd1na2vs0mg"},{"bike_id":"9271202c-ac33-4e20-a909-7ef90d7a11c4","system_id":"levelo_inurba_marseille","lat":43.30611,"lon":5.37628,"is_reserved":false,"is_disabled":false,"rental_uris":{"android":"levelo://app?vid=9271202c-ac33-4e20-a909-7ef90d7a11c4","ios":"levelo://app?vid=9271202c-ac33-4e20-a909-7ef90d7a11c4"},"vehicle_type_id":"4","last_reported":1768658992,"current_range_meters":9200,"station_id":"","pricing_plan_id":"cebpf4jnsgd1na2vs0mg"},{"bike_id":"6116392c-6b86-47a5-bcc7-c95cae236d34","system_id":"levelo_inurba_marseille","lat":43.27828,"lon":5.40711,"is_reserved":false,"is_disabled":false,"rental_uris":{"android":"levelo://app?vid=6116392c-6b86-47a5-bcc7-c95cae236d34","ios":"levelo://app?vid=6116392c-6b86-47a5-bcc7-c95cae236d34"},"vehicle_type_id":"4","last_reported":1768658992,"current_range_meters":9600,"station_id":"ce4bhnh2rcd13ifvqgtg","pricing_plan_id":"cebpf4jnsgd1na2vs0mg"},{"bike_id":"d1cda6a8-6795-4edd-a1a1-0295d2794e5c","system_id":"levelo_inurba_marseille","lat":43.29607,"lon":5.37707,"is_reserved":false,"is_disabled":false,"rental_uris":{"android":"levelo://app?vid=d1cda6a8-6795-4edd-a1a1-0295d2794e5c","ios":"levelo://app?vid=d1cda6a8-6795-4edd-a1a1-0295d2794e5c"},"vehicle_type_id":"4","last_reported":1768658992,"current_range_meters":9600,"station_id":"ce4bgi92rcd13ifvqb90","pricing_plan_id":"cebpf4jnsgd1na2vs0mg"},{"bike_id":"df1c1fb5-42af-49b5-91cb-44f332fdf3bf","system_id":"levelo_inurba_marseille","lat":43.2853,"lon":5.44094,"is_reserved":false,"is_disabled":false,"rental_uris":{"android":"levelo://app?vid=df1c1fb5-42af-49b5-91cb-44f332fdf3bf","ios":"levelo://app?vid=df1c1fb5-42af-49b5-91cb-44f332fdf3bf"},"vehicle_type_id":"4","last_reported":1768658992,"current_range_meters":9600,"station_id":"st_d3j3df2ikq2c7380ej80","pricing_plan_id":"cebpf4jnsgd1na2vs0mg"},{"bike_id":"0525c6b7-4a00-417a-ac16-49b1063ff2f0","system_id":"levelo_inurba_marseille","lat":43.3017,"lon":5.38088,"is_reserved":false,"is_disabled":false,"rental_uris":{"android":"levelo://app?vid=0525c6b7-4a00-417a-ac16-49b1063ff2f0","ios":"levelo://app?vid=0525c6b7-4a00-417a-ac16-49b1063ff2f0"},"vehicle_type_id":"4","last_reported":1768658992,"current_range_meters":9600,"station_id":"ce4bgjp2rcd13ifvqbh0","pricing_plan_id":"cebpf4jnsgd1na2vs0mg"},{"bike_id":"9faf4369-99d5-42a9-9b6c-b610c461485b","system_id":"levelo_inurba_marseille","lat":43.2176,"lon":5.34615,"is_reserved":false,"is_disabled":false,"rental_uris":{"android":"levelo://app?vid=9faf4369-99d5-42a9-9b6c-b610c461485b","ios":"levelo://app?vid=9faf4369-99d5-42a9-9b6c-b610c461485b"},"vehicle_type_id":"4","last_reported":1768658992,"current_range_meters":9600,"station_id":"st_cvj6r9ubvosntc0bgbag","pricing_plan_id":"cebpf4jnsgd1na2vs0mg"},{"bike_id":"8de8b54d-ad44-4bfe-b86e-f06e0a2ec0cd","system_id":"levelo_inurba_marseille","lat":43.31603,"lon":5.37948,"is_reserved":false,"is_disabled":false,"rental_uris":{"android":"levelo://app?vid=8de8b54d-ad44-4bfe-b86e-f06e0a2ec0cd","ios":"levelo://app?vid=8de8b54d-ad44-4bfe-b86e-f06e0a2ec0cd"},"vehicle_type_id":"4","last_reported":1768658992,"current_range_meters":9600,"station_id":"","pricing_plan_id":"cebpf4jnsgd1na2vs0mg"},{"bike_id":"d3ef2411-121c-4c1a-96ea-e165aa553cce","system_id":"levelo_inurba_marseille","lat":43.25514,"lon":5.37615,"is_reserved":false,"is_disabled":false,"rental_uris":{"android":"levelo://app?vid=d3ef2411-121c-4c1a-96ea-e165aa553cce","ios":"levelo://app?vid=d3ef2411-121c-4c1a-96ea-e165aa553cce"},"vehicle_type_id":"4","last_reported":1768658992,"current_range_meters":9600,"station_id":"ce4bhh12rcd13ifvqff0","pricing_plan_id":"cebpf4jnsgd1na2vs0mg"},{"bike_id":"aa15a51a-9791-4194-8067-5640d12a247c","system_id":"levelo_inurba_marseille","lat":43.241689,"lon":5.364037,"is_reserved":false,"is_disabled":false,"rental_uris":{"android":"levelo://app?vid=aa15a51a-9791-4194-8067-5640d12a247c","ios":"levelo://app?vid=aa15a51a-9791-4194-8067-5640d12a247c"},"vehicle_type_id":"4","last_reported":1768658992,"current_range_meters":9600,"station_id":"cpo36qri1sfpv3e86is0","pricing_plan_id":"cebpf4jnsgd1na2vs0mg"},{"bike_id":"8554da11-4194-4500-a15a-11ea80c8ee1a","system_id":"levelo_inurba_marseille","lat":43.261931,"lon":5.374585,"is_reserved":false,"is_disabled":false,"rental_uris":{"android":"levelo://app?vid=8554da11-4194-4500-a15a-11ea80c8ee1a","ios":"levelo://app?vid=8554da11-4194-4500-a15a-11ea80c8ee1a"},"vehicle_type_id":"4","last_reported":1768658992,"current_range_meters":10000,"station_id":"ce4bhgp2rcd13ifvqfc0","pricing_plan_id":"cebpf4jnsgd1na2vs0mg"},{"bike_id":"c56e463a-d40d-48e8-b142-8264494e3430","system_id":"levelo_inurba_marseille","lat":43.31685,"lon":5.40477,"is_reserved":false,"is_disabled":false,"rental_uris":{"android":"levelo://app?vid=c56e463a-d40d-48e8-b142-8264494e3430","ios":"levelo://app?vid=c56e463a-d40d-48e8-b142-8264494e3430"},"vehicle_type_id":"4","last_reported":1768658992,"current_range_meters":10000,"station_id":"ce4bh012rcd13ifvqd00","pricing_plan_id":"cebpf4jnsgd1na2vs0mg"},{"bike_id":"1ec247ef-5ae2-4481-a8f1-83d49de262d8","system_id":"levelo_inurba_marseille","lat":43.255809,"lon":5.38246,"is_reserved":false,"is_disabled":false,"rental_uris":{"android":"levelo://app?vid=1ec247ef-5ae2-4481-a8f1-83d49de262d8","ios":"levelo://app?vid=1ec247ef-5ae2-4481-a8f1-83d49de262d8"},"vehicle_type_id":"4","last_reported":1768658992,"current_range_meters":10000,"station_id":"ce4bhih2rcd13ifvqfs0","pricing_plan_id":"cebpf4jnsgd1na2vs0mg"},{"bike_id":"a8f3ca75-a801-44e7-bcab-c7f2bd7803ed","system_id":"levelo_inurba_marseille","lat":43.33057,"lon":5.3794,"is_reserved":false,"is_disabled":false,"rental_uris":{"android":"levelo://app?vid=a8f3ca75-a801-44e7-bcab-c7f2bd7803ed","ios":"levelo://app?vid=a8f3ca75-a801-44e7-bcab-c7f2bd7803ed"},"vehicle_type_id":"4","last_reported":1768658992,"current_range_meters":10000,"station_id":"","pricing_plan_id":"cebpf4jnsgd1na2vs0mg"},{"bike_id":"c55653aa-3b40-49b8-ab2e-4981db381d01","system_id":"levelo_inurba_marseille","lat":43.27984,"lon":5.41653,"is_reserved":false,"is_disabled":false,"rental_uris":{"android":"levelo://app?vid=c55653aa-3b40-49b8-ab2e-4981db381d01","ios":"levelo://app?vid=c55653aa-3b40-49b8-ab2e-4981db381d01"},"vehicle_type_id":"4","last_reported":1768658992,"current_range_meters":10000,"station_id":"ce4bho12rcd13ifvqh1g","pricing_plan_id":"cebpf4jnsgd1na2vs0mg"},{"bike_id":"d311ffc7-6d26-41ec-96e5-fc35ec52cdc7","system_id":"levelo_inurba_marseille","lat":43.32353,"lon":5.36722,"is_reserved":false,"is_disabled":false,"rental_uris":{"android":"levelo://app?vid=d311ffc7-6d26-41ec-96e5-fc35ec52cdc7","ios":"levelo://app?vid=d311ffc7-6d26-41ec-96e5-fc35ec52cdc7"},"vehicle_type_id":"4","last_reported":1768658992,"current_range_meters":10000,"station_id":"ce4bhsh2rcd13ifvqi2g","pricing_plan_id":"cebpf4jnsgd1na2vs0mg"},{"bike_id":"e6d75ad0-5dbc-41cc-851c-daab63b696b1","system_id":"levelo_inurba_marseille","lat":43.29018,"lon":5.37549,"is_reserved":false,"is_disabled":false,"rental_uris":{"android":"levelo://app?vid=e6d75ad0-5dbc-41cc-851c-daab63b696b1","ios":"levelo://app?vid=e6d75ad0-5dbc-41cc-851c-daab63b696b1"},"vehicle_type_id":"4","last_reported":1768658992,"current_range_meters":10000,"station_id":"ce4bh692rcd13ifvqe90","pricing_plan_id":"cebpf4jnsgd1na2vs0mg"},{"bike_id":"724da048-f937-4446-a0b2-3f881c76c59a","system_id":"levelo_inurba_marseille","lat":43.281507,"lon":5.426356,"is_reserved":false,"is_disabled":false,"rental_uris":{"android":"levelo://app?vid=724da048-f937-4446-a0b2-3f881c76c59a","ios":"levelo://app?vid=724da048-f937-4446-a0b2-3f881c76c59a"},"vehicle_type_id":"4","last_reported":1768658992,"current_range_meters":10000,"station_id":"ce4bhnh2rcd13ifvqgug","pricing_plan_id":"cebpf4jnsgd1na2vs0mg"},{"bike_id":"02ab98c5-1cd1-4d33-a034-5f5e1f65b38a","system_id":"levelo_inurba_marseille","lat":43.2848,"lon":5.48395,"is_reserved":false,"is_disabled":false,"rental_uris":{"android":"levelo://app?vid=02ab98c5-1cd1-4d33-a034-5f5e1f65b38a","ios":"levelo://app?vid=02ab98c5-1cd1-4d33-a034-5f5e1f65b38a"},"vehicle_type_id":"4","last_reported":1768658992,"current_range_meters":10000,"station_id":"","pricing_plan_id":"cebpf4jnsgd1na2vs0mg"},{"bike_id":"bf443dfe-f19a-49ca-ab0a-ace202cd3776","system_id":"levelo_inurba_marseille","lat":43.30135,"lon":5.37427,"is_reserved":false,"is_disabled":false,"rental_uris":{"android":"levelo://app?vid=bf443dfe-f19a-49ca-ab0a-ace202cd3776","ios":"levelo://app?vid=bf443dfe-f19a-49ca-ab0a-ace202cd3776"},"vehicle_type_id":"4","last_reported":1768658992,"current_range_meters":10000,"station_id":"ce4bgs92rcd13ifvqcc0","pricing_plan_id":"cebpf4jnsgd1na2vs0mg"},{"bike_id":"84759154-9b6c-43c5-b12d-6b3ea6a629e0","system_id":"levelo_inurba_marseille","lat":43.30564,"lon":5.36536,"is_reserved":false,"is_disabled":false,"rental_uris":{"android":"levelo://app?vid=84759154-9b6c-43c5-b12d-6b3ea6a629e0","ios":"levelo://app?vid=84759154-9b6c-43c5-b12d-6b3ea6a629e0"},"vehicle_type_id":"4","last_reported":1768658992,"current_range_meters":10000,"station_id":"ce4bgs12rcd13ifvqcag","pricing_plan_id":"cebpf4jnsgd1na2vs0mg"},{"bike_id":"39f21520-d6d3-4ad0-be99-c2b4a275640f","system_id":"levelo_inurba_marseille","lat":43.304159,"lon":5.412887,"is_reserved":false,"is_disabled":false,"rental_uris":{"android":"levelo://app?vid=39f21520-d6d3-4ad0-be99-c2b4a275640f","ios":"levelo://app?vid=39f21520-d6d3-4ad0-be99-c2b4a275640f"},"vehicle_type_id":"4","last_reported":1768658992,"current_range_meters":10000,"station_id":"ce4bhop2rcd13ifvqh8g","pricing_plan_id":"cebpf4jnsgd1na2vs0mg"},{"bike_id":"5ee2bfc8-b82e-45fd-8d4d-9cf770c36d55","system_id":"levelo_inurba_marseille","lat":43.24219,"lon":5.36364,"is_reserved":false,"is_disabled":false,"rental_uris":{"android":"levelo://app?vid=5ee2bfc8-b82e-45fd-8d4d-9cf770c36d55","ios":"levelo://app?vid=5ee2bfc8-b82e-45fd-8d4d-9cf770c36d55"},"vehicle_type_id":"4","last_reported":1768658992,"current_range_meters":10000,"station_id":"cpo36qri1sfpv3e86is0","pricing_plan_id":"cebpf4jnsgd1na2vs0mg"},{"bike_id":"4a28a0a5-92a3-4f41-871e-f75bf8fb68f3","system_id":"levelo_inurba_marseille","lat":43.30387,"lon":5.40988,"is_reserved":false,"is_disabled":false,"rental_uris":{"android":"levelo://app?vid=4a28a0a5-92a3-4f41-871e-f75bf8fb68f3","ios":"levelo://app?vid=4a28a0a5-92a3-4f41-871e-f75bf8fb68f3"},"vehicle_type_id":"4","last_reported":1768658992,"current_range_meters":10000,"station_id":"","pricing_plan_id":"cebpf4jnsgd1na2vs0mg"},{"bike_id":"6571c642-58c5-4ed4-8f85-2d23879ef9cc","system_id":"levelo_inurba_marseille","lat":43.24946,"lon":5.40504,"is_reserved":false,"is_disabled":false,"rental_uris":{"android":"levelo://app?vid=6571c642-58c5-4ed4-8f85-2d23879ef9cc","ios":"levelo://app?vid=6571c642-58c5-4ed4-8f85-2d23879ef9cc"},"vehicle_type_id":"4","last_reported":1768658992,"current_range_meters":10000,"station_id":"st_d2ngiaodas8pm72gd1h0","pricing_plan_id":"cebpf4jnsgd1na2vs0mg"},{"bike_id":"bb74209e-c6a8-44ea-96c7-046161e5ebb1","system_id":"levelo_inurba_marseille","lat":43.22936,"lon":5.35396,"is_reserved":false,"is_disabled":false,"rental_uris":{"android":"levelo://app?vid=bb74209e-c6a8-44ea-96c7-046161e5ebb1","ios":"levelo://app?vid=bb74209e-c6a8-44ea-96c7-046161e5ebb1"},"vehicle_type_id":"4","last_reported":1768658992,"current_range_meters":10000,"station_id":"cpo3532slgdg3j2ikp40","pricing_plan_id":"cebpf4jnsgd1na2vs0mg"},{"bike_id":"73beeb56-5543-4df3-b225-fd13e3e29841","system_id":"levelo_inurba_marseille","lat":43.27322,"lon":5.39097,"is_reserved":false,"is_disabled":false,"rental_uris":{"android":"levelo://app?vid=73beeb56-5543-4df3-b225-fd13e3e29841","ios":"levelo://app?vid=73beeb56-5543-4df3-b225-fd13e3e29841"},"vehicle_type_id":"4","last_reported":1768658992,"current_range_meters":10000,"station_id":"ce4bhgp2rcd13ifvqfe0","pricing_plan_id":"cebpf4jnsgd1na2vs0mg"},{"bike_id":"4e6fefb6-1d6d-4159-8f32-f4ab5cc98ccb","system_id":"levelo_inurba_marseille","lat":43.23197,"lon":5.35553,"is_reserved":false,"is_disabled":false,"rental_uris":{"android":"levelo://app?vid=4e6fefb6-1d6d-4159-8f32-f4ab5cc98ccb","ios":"levelo://app?vid=4e6fefb6-1d6d-4159-8f32-f4ab5cc98ccb"},"vehicle_type_id":"4","last_reported":1768658992,"current_range_meters":10000,"station_id":"ce4bhu92rcd13ifvqi70","pricing_plan_id":"cebpf4jnsgd1na2vs0mg"},{"bike_id":"fc1a3214-4d2d-42cb-af64-076014ae686f","system_id":"levelo_inurba_marseille","lat":43.26616,"lon":5.39338,"is_reserved":false,"is_disabled":false,"rental_uris":{"android":"levelo://app?vid=fc1a3214-4d2d-42cb-af64-076014ae686f","ios":"levelo://app?vid=fc1a3214-4d2d-42cb-af64-076014ae686f"},"vehicle_type_id":"4","last_reported":1768658992,"current_range_meters":10000,"station_id":"","pricing_plan_id":"cebpf4jnsgd1na2vs0mg"},{"bike_id":"735f9e0e-9077-4568-9909-73d3fe14dc0f","system_id":"levelo_inurba_marseille","lat":43.25132,"lon":5.40329,"is_reserved":false,"is_disabled":false,"rental_uris":{"android":"levelo://app?vid=735f9e0e-9077-4568-9909-73d3fe14dc0f","ios":"levelo://app?vid=735f9e0e-9077-4568-9909-73d3fe14dc0f"},"vehicle_type_id":"4","last_reported":1768658992,"current_range_meters":10800,"station_id":"ce4bhlh2rcd13ifvqgig","pricing_plan_id":"cebpf4jnsgd1na2vs0mg"},{"bike_id":"9f6516ed-49f5-49e5-92e2-8d1a330b3996","system_id":"levelo_inurba_marseille","lat":43.25088,"lon":5.39522,"is_reserved":false,"is_disabled":false,"rental_uris":{"android":"levelo://app?vid=9f6516ed-49f5-49e5-92e2-8d1a330b3996","ios":"levelo://app?vid=9f6516ed-49f5-49e5-92e2-8d1a330b3996"},"vehicle_type_id":"4","last_reported":1768658992,"current_range_meters":10800,"station_id":"ce4bhm12rcd13ifvqgkg","pricing_plan_id":"cebpf4jnsgd1na2vs0mg"},{"bike_id":"4946eb11-667b-4be5-bc35-6aa618cf8bcb","system_id":"levelo_inurba_marseille","lat":43.22555,"lon":5.41629,"is_reserved":false,"is_disabled":false,"rental_uris":{"android":"levelo://app?vid=4946eb11-667b-4be5-bc35-6aa618cf8bcb","ios":"levelo://app?vid=4946eb11-667b-4be5-bc35-6aa618cf8bcb"},"vehicle_type_id":"4","last_reported":1768658992,"current_range_meters":10800,"station_id":"st_d2o4gvlbi1j2169b742g","pricing_plan_id":"cebpf4jnsgd1na2vs0mg"},{"bike_id":"3320b44f-28ee-4e99-ab1b-4906eed292fe","system_id":"levelo_inurba_marseille","lat":43.31501,"lon":5.37281,"is_reserved":false,"is_disabled":false,"rental_uris":{"android":"levelo://app?vid=3320b44f-28ee-4e99-ab1b-4906eed292fe","ios":"levelo://app?vid=3320b44f-28ee-4e99-ab1b-4906eed292fe"},"vehicle_type_id":"4","last_reported":1768658992,"current_range_meters":10800,"station_id":"ce4bgt12rcd13ifvqcd0","pricing_plan_id":"cebpf4jnsgd1na2vs0mg"},{"bike_id":"39f1c09a-b59e-418c-a7a7-324edbd26b6b","system_id":"levelo_inurba_marseille","lat":43.299711,"lon":5.384896,"is_reserved":false,"is_disabled":false,"rental_uris":{"android":"levelo://app?vid=39f1c09a-b59e-418c-a7a7-324edbd26b6b","ios":"levelo://app?vid=39f1c09a-b59e-418c-a7a7-324edbd26b6b"},"vehicle_type_id":"4","last_reported":1768658992,"current_range_meters":10800,"station_id":"ce4bh012rcd13ifvqd10","pricing_plan_id":"cebpf4jnsgd1na2vs0mg"},{"bike_id":"b66b6016-624c-4562-9d10-aef2e9e42742","system_id":"levelo_inurba_marseille","lat":43.29255,"lon":5.36848,"is_reserved":false,"is_disabled":false,"rental_uris":{"android":"levelo://app?vid=b66b6016-624c-4562-9d10-aef2e9e42742","ios":"levelo://app?vid=b66b6016-624c-4562-9d10-aef2e9e42742"},"vehicle_type_id":"4","last_reported":1768658992,"current_range_meters":10800,"station_id":"ce4bhbp2rcd13ifvqesg","pricing_plan_id":"cebpf4jnsgd1na2vs0mg"},{"bike_id":"458b86b1-af07-4017-adae-6b0797bf4c6a","system_id":"levelo_inurba_marseille","lat":43.24468,"lon":5.42536,"is_reserved":false,"is_disabled":false,"rental_uris":{"android":"levelo://app?vid=458b86b1-af07-4017-adae-6b0797bf4c6a","ios":"levelo://app?vid=458b86b1-af07-4017-adae-6b0797bf4c6a"},"vehicle_type_id":"4","last_reported":1768658992,"current_range_meters":10800,"station_id":"st_d4a3vfp97mjs738cd8kg","pricing_plan_id":"cebpf4jnsgd1na2vs0mg"},{"bike_id":"34c0cb23-2234-42f8-a3e0-d661304c9874","system_id":"levelo_inurba_marseille","lat":43.28491,"lon":5.38385,"is_reserved":false,"is_disabled":false,"rental_uris":{"android":"levelo://app?vid=34c0cb23-2234-42f8-a3e0-d661304c9874","ios":"levelo://app?vid=34c0cb23-2234-42f8-a3e0-d661304c9874"},"vehicle_type_id":"4","last_reported":1768658992,"current_range_meters":10800,"station_id":"ce4bh512rcd13ifvqe3g","pricing_plan_id":"cebpf4jnsgd1na2vs0mg"},{"bike_id":"650dcff2-c463-4769-9908-dcf7246837a7","system_id":"levelo_inurba_marseille","lat":43.27172,"lon":5.4099,"is_reserved":false,"is_disabled":false,"rental_uris":{"android":"levelo://app?vid=650dcff2-c463-4769-9908-dcf7246837a7","ios":"levelo://app?vid=650dcff2-c463-4769-9908-dcf7246837a7"},"vehicle_type_id":"4","last_reported":1768658992,"current_range_meters":11200,"station_id":"ce4bhl12rcd13ifvqgf0","pricing_plan_id":"cebpf4jnsgd1na2vs0mg"},{"bike_id":"a8f5c21d-88da-440c-b956-bd918d0088fd","system_id":"levelo_inurba_marseille","lat":43.23193,"lon":5.35544,"is_reserved":false,"is_disabled":false,"rental_uris":{"android":"levelo://app?vid=a8f5c21d-88da-440c-b956-bd918d0088fd","ios":"levelo://app?vid=a8f5c21d-88da-440c-b956-bd918d0088fd"},"vehicle_type_id":"4","last_reported":1768658992,"current_range_meters":11200,"station_id":"ce4bhu92rcd13ifvqi70","pricing_plan_id":"cebpf4jnsgd1na2vs0mg"},{"bike_id":"f22899c7-763e-4fe5-936d-50adf08312c7","system_id":"levelo_inurba_marseille","lat":43.25584,"lon":5.38231,"is_reserved":false,"is_disabled":false,"rental_uris":{"android":"levelo://app?vid=f22899c7-763e-4fe5-936d-50adf08312c7","ios":"levelo://app?vid=f22899c7-763e-4fe5-936d-50adf08312c7"},"vehicle_type_id":"4","last_reported":1768658992,"current_range_meters":11200,"station_id":"ce4bhih2rcd13ifvqfs0","pricing_plan_id":"cebpf4jnsgd1na2vs0mg"},{"bike_id":"3b7e17bf-173a-4a4c-8fcf-ba8671333d50","system_id":"levelo_inurba_marseille","lat":43.24712,"lon":5.37422,"is_reserved":false,"is_disabled":false,"rental_uris":{"android":"levelo://app?vid=3b7e17bf-173a-4a4c-8fcf-ba8671333d50","ios":"levelo://app?vid=3b7e17bf-173a-4a4c-8fcf-ba8671333d50"},"vehicle_type_id":"4","last_reported":1768658992,"current_range_meters":11200,"station_id":"","pricing_plan_id":"cebpf4jnsgd1na2vs0mg"},{"bike_id":"3c0db938-bad2-48de-97d0-01d781736ce6","system_id":"levelo_inurba_marseille","lat":43.2815,"lon":5.42639,"is_reserved":false,"is_disabled":false,"rental_uris":{"android":"levelo://app?vid=3c0db938-bad2-48de-97d0-01d781736ce6","ios":"levelo://app?vid=3c0db938-bad2-48de-97d0-01d781736ce6"},"vehicle_type_id":"4","last_reported":1768658992,"current_range_meters":11200,"station_id":"ce4bhnh2rcd13ifvqgug","pricing_plan_id":"cebpf4jnsgd1na2vs0mg"},{"bike_id":"11b3c7fa-6f45-454c-a171-83471c2746c3","system_id":"levelo_inurba_marseille","lat":43.28171,"lon":5.4266,"is_reserved":false,"is_disabled":false,"rental_uris":{"android":"levelo://app?vid=11b3c7fa-6f45-454c-a171-83471c2746c3","ios":"levelo://app?vid=11b3c7fa-6f45-454c-a171-83471c2746c3"},"vehicle_type_id":"4","last_reported":1768658992,"current_range_meters":11200,"station_id":"ce4bhnh2rcd13ifvqgug","pricing_plan_id":"cebpf4jnsgd1na2vs0mg"},{"bike_id":"9ba90b19-ee69-49b3-aa09-9472ae963731","system_id":"levelo_inurba_marseille","lat":43.265573,"lon":5.390111,"is_reserved":false,"is_disabled":false,"rental_uris":{"android":"levelo://app?vid=9ba90b19-ee69-49b3-aa09-9472ae963731","ios":"levelo://app?vid=9ba90b19-ee69-49b3-aa09-9472ae963731"},"vehicle_type_id":"4","last_reported":1768658992,"current_range_meters":11200,"station_id":"ce4bhe12rcd13ifvqf30","pricing_plan_id":"cebpf4jnsgd1na2vs0mg"},{"bike_id":"09105b5f-3c1b-4262-b05c-2ed28916e5be","system_id":"levelo_inurba_marseille","lat":43.25335,"lon":5.42165,"is_reserved":false,"is_disabled":false,"rental_uris":{"android":"levelo://app?vid=09105b5f-3c1b-4262-b05c-2ed28916e5be","ios":"levelo://app?vid=09105b5f-3c1b-4262-b05c-2ed28916e5be"},"vehicle_type_id":"4","last_reported":1768658992,"current_range_meters":11600,"station_id":"st_d2m65c5bi1j21697t3ng","pricing_plan_id":"cebpf4jnsgd1na2vs0mg"},{"bike_id":"45bb7221-e7aa-41a9-b651-ce7642ffb4d6","system_id":"levelo_inurba_marseille","lat":43.2781,"lon":5.40716,"is_reserved":false,"is_disabled":false,"rental_uris":{"android":"levelo://app?vid=45bb7221-e7aa-41a9-b651-ce7642ffb4d6","ios":"levelo://app?vid=45bb7221-e7aa-41a9-b651-ce7642ffb4d6"},"vehicle_type_id":"4","last_reported":1768658992,"current_range_meters":11600,"station_id":"ce4bhnh2rcd13ifvqgtg","pricing_plan_id":"cebpf4jnsgd1na2vs0mg"},{"bike_id":"21e81d24-8ab9-47f8-9538-9ce61a871c86","system_id":"levelo_inurba_marseille","lat":43.2679,"lon":5.39411,"is_reserved":false,"is_disabled":false,"rental_uris":{"android":"levelo://app?vid=21e81d24-8ab9-47f8-9538-9ce61a871c86","ios":"levelo://app?vid=21e81d24-8ab9-47f8-9538-9ce61a871c86"},"vehicle_type_id":"4","last_reported":1768658992,"current_range_meters":11600,"station_id":"ce4bhh12rcd13ifvqfg0","pricing_plan_id":"cebpf4jnsgd1na2vs0mg"},{"bike_id":"21131a4c-2fd4-4cdc-a418-e418610a94ee","system_id":"levelo_inurba_marseille","lat":43.29528,"lon":5.38538,"is_reserved":false,"is_disabled":false,"rental_uris":{"android":"levelo://app?vid=21131a4c-2fd4-4cdc-a418-e418610a94ee","ios":"levelo://app?vid=21131a4c-2fd4-4cdc-a418-e418610a94ee"},"vehicle_type_id":"4","last_reported":1768658992,"current_range_meters":11600,"station_id":"ce4bgih2rcd13ifvqba0","pricing_plan_id":"cebpf4jnsgd1na2vs0mg"},{"bike_id":"3814d54b-caf3-4ee2-bcb3-43e7dade195e","system_id":"levelo_inurba_marseille","lat":43.26938,"lon":5.403,"is_reserved":false,"is_disabled":false,"rental_uris":{"android":"levelo://app?vid=3814d54b-caf3-4ee2-bcb3-43e7dade195e","ios":"levelo://app?vid=3814d54b-caf3-4ee2-bcb3-43e7dade195e"},"vehicle_type_id":"4","last_reported":1768658992,"current_range_meters":11600,"station_id":"cjm6bp8fraef2m0cb0m0","pricing_plan_id":"cebpf4jnsgd1na2vs0mg"},{"bike_id":"24160edd-d39f-4289-876a-e9144f93a2c6","system_id":"levelo_inurba_marseille","lat":43.32356,"lon":5.36756,"is_reserved":false,"is_disabled":false,"rental_uris":{"android":"levelo://app?vid=24160edd-d39f-4289-876a-e9144f93a2c6","ios":"levelo://app?vid=24160edd-d39f-4289-876a-e9144f93a2c6"},"vehicle_type_id":"4","last_reported":1768658992,"current_range_meters":11600,"station_id":"ce4bhsh2rcd13ifvqi2g","pricing_plan_id":"cebpf4jnsgd1na2vs0mg"},{"bike_id":"dac4e9c6-bd2f-46f7-9729-271636caee24","system_id":"levelo_inurba_marseille","lat":43.311705,"lon":5.387219,"is_reserved":false,"is_disabled":false,"rental_uris":{"android":"levelo://app?vid=dac4e9c6-bd2f-46f7-9729-271636caee24","ios":"levelo://app?vid=dac4e9c6-bd2f-46f7-9729-271636caee24"},"vehicle_type_id":"4","last_reported":1768658992,"current_range_meters":11600,"station_id":"ce4bgv12rcd13ifvqcp0","pricing_plan_id":"cebpf4jnsgd1na2vs0mg"},{"bike_id":"03c53ee3-b1e1-4281-a6d5-599aa67418ac","system_id":"levelo_inurba_marseille","lat":43.269414,"lon":5.402523,"is_reserved":false,"is_disabled":false,"rental_uris":{"android":"levelo://app?vid=03c53ee3-b1e1-4281-a6d5-599aa67418ac","ios":"levelo://app?vid=03c53ee3-b1e1-4281-a6d5-599aa67418ac"},"vehicle_type_id":"4","last_reported":1768658992,"current_range_meters":11600,"station_id":"cjm6bp8fraef2m0cb0m0","pricing_plan_id":"cebpf4jnsgd1na2vs0mg"},{"bike_id":"e4673345-b12b-41a6-851b-d8e241ebb64e","system_id":"levelo_inurba_marseille","lat":43.2495,"lon":5.40489,"is_reserved":false,"is_disabled":false,"rental_uris":{"android":"levelo://app?vid=e4673345-b12b-41a6-851b-d8e241ebb64e","ios":"levelo://app?vid=e4673345-b12b-41a6-851b-d8e241ebb64e"},"vehicle_type_id":"4","last_reported":1768658992,"current_range_meters":11600,"station_id":"st_d2ngiaodas8pm72gd1h0","pricing_plan_id":"cebpf4jnsgd1na2vs0mg"},{"bike_id":"d61d55f2-38b3-47bf-8db3-dd8829f32d8f","system_id":"levelo_inurba_marseille","lat":43.28538,"lon":5.44097,"is_reserved":false,"is_disabled":false,"rental_uris":{"android":"levelo://app?vid=d61d55f2-38b3-47bf-8db3-dd8829f32d8f","ios":"levelo://app?vid=d61d55f2-38b3-47bf-8db3-dd8829f32d8f"},"vehicle_type_id":"4","last_reported":1768658992,"current_range_meters":11600,"station_id":"st_d3j3df2ikq2c7380ej80","pricing_plan_id":"cebpf4jnsgd1na2vs0mg"},{"bike_id":"c318810e-09f7-4cb9-b7b8-b42658d1ccc7","system_id":"levelo_inurba_marseille","lat":43.28678,"lon":5.38664,"is_reserved":false,"is_disabled":false,"rental_uris":{"android":"levelo://app?vid=c318810e-09f7-4cb9-b7b8-b42658d1ccc7","ios":"levelo://app?vid=c318810e-09f7-4cb9-b7b8-b42658d1ccc7"},"vehicle_type_id":"4","last_reported":1768658992,"current_range_meters":12000,"station_id":"ce4bh492rcd13ifvqdug","pricing_plan_id":"cebpf4jnsgd1na2vs0mg"},{"bike_id":"84241c97-901a-4437-9050-53f77eb7d9ab","system_id":"levelo_inurba_marseille","lat":43.2654,"lon":5.37282,"is_reserved":false,"is_disabled":false,"rental_uris":{"android":"levelo://app?vid=84241c97-901a-4437-9050-53f77eb7d9ab","ios":"levelo://app?vid=84241c97-901a-4437-9050-53f77eb7d9ab"},"vehicle_type_id":"4","last_reported":1768658992,"current_range_meters":12000,"station_id":"ce4bhg12rcd13ifvqf70","pricing_plan_id":"cebpf4jnsgd1na2vs0mg"},{"bike_id":"7a066ce1-4241-4f58-8edc-a2b45a14360f","system_id":"levelo_inurba_marseille","lat":43.26503,"lon":5.39555,"is_reserved":false,"is_disabled":false,"rental_uris":{"android":"levelo://app?vid=7a066ce1-4241-4f58-8edc-a2b45a14360f","ios":"levelo://app?vid=7a066ce1-4241-4f58-8edc-a2b45a14360f"},"vehicle_type_id":"4","last_reported":1768658992,"current_range_meters":12000,"station_id":"ce4bhi12rcd13ifvqfq0","pricing_plan_id":"cebpf4jnsgd1na2vs0mg"},{"bike_id":"1902faf2-5bf0-4ee4-8b33-6f9cf490e60c","system_id":"levelo_inurba_marseille","lat":43.288294,"lon":5.358555,"is_reserved":false,"is_disabled":false,"rental_uris":{"android":"levelo://app?vid=1902faf2-5bf0-4ee4-8b33-6f9cf490e60c","ios":"levelo://app?vid=1902faf2-5bf0-4ee4-8b33-6f9cf490e60c"},"vehicle_type_id":"4","last_reported":1768658992,"current_range_meters":12000,"station_id":"ce4bhb12rcd13ifvqem0","pricing_plan_id":"cebpf4jnsgd1na2vs0mg"},{"bike_id":"99eb7f6e-7d47-4fe7-a5ad-44af0b5818fb","system_id":"levelo_inurba_marseille","lat":43.24062,"lon":5.3968,"is_reserved":false,"is_disabled":false,"rental_uris":{"android":"levelo://app?vid=99eb7f6e-7d47-4fe7-a5ad-44af0b5818fb","ios":"levelo://app?vid=99eb7f6e-7d47-4fe7-a5ad-44af0b5818fb"},"vehicle_type_id":"4","last_reported":1768658992,"current_range_meters":12000,"station_id":"","pricing_plan_id":"cebpf4jnsgd1na2vs0mg"},{"bike_id":"2a347ed8-2eea-4ab0-aa28-b6464c142e48","system_id":"levelo_inurba_marseille","lat":43.30392,"lon":5.42464,"is_reserved":false,"is_disabled":false,"rental_uris":{"android":"levelo://app?vid=2a347ed8-2eea-4ab0-aa28-b6464c142e48","ios":"levelo://app?vid=2a347ed8-2eea-4ab0-aa28-b6464c142e48"},"vehicle_type_id":"4","last_reported":1768658992,"current_range_meters":12000,"station_id":"ce4bhoh2rcd13ifvqh6g","pricing_plan_id":"cebpf4jnsgd1na2vs0mg"},{"bike_id":"f9650e24-8048-44b3-9275-13d881c210a3","system_id":"levelo_inurba_marseille","lat":43.30307,"lon":5.37691,"is_reserved":false,"is_disabled":false,"rental_uris":{"android":"levelo://app?vid=f9650e24-8048-44b3-9275-13d881c210a3","ios":"levelo://app?vid=f9650e24-8048-44b3-9275-13d881c210a3"},"vehicle_type_id":"4","last_reported":1768658992,"current_range_meters":12000,"station_id":"ce4bguh2rcd13ifvqcj0","pricing_plan_id":"cebpf4jnsgd1na2vs0mg"},{"bike_id":"7784751a-9b9c-47b1-8c51-f51c21d53b6f","system_id":"levelo_inurba_marseille","lat":43.24164,"lon":5.363958,"is_reserved":false,"is_disabled":false,"rental_uris":{"android":"levelo://app?vid=7784751a-9b9c-47b1-8c51-f51c21d53b6f","ios":"levelo://app?vid=7784751a-9b9c-47b1-8c51-f51c21d53b6f"},"vehicle_type_id":"4","last_reported":1768658992,"current_range_meters":12000,"station_id":"cpo36qri1sfpv3e86is0","pricing_plan_id":"cebpf4jnsgd1na2vs0mg"},