{"last_updated":1744567991,"ttl":60,"version":"2.2","data":{"bikes":[{"bike_id":"38908511-6883-4404-9bba-327285ecd7be","system_id":"levelo_inurba_marseille","lat":43.28404,"lon":5.37507,"is_reserved":false,"is_disabled":true,"rental_uris":{"android":"levelo://app?vid=38908511-6883-4404-9bba-327285ecd7be","ios":"levelo://app?vid=38908511-6883-4404-9bba-327285ecd7be"},"vehicle_type_id":"4","last_reported":1744567991,"current_range_meters":2800,"station_id":"ce4bh412rcd13ifvqds0","pricing_plan_id":"cebpf4jnsgd1na2vs0mg"},{"bike_id":"803ade9f-d423-4363-9afb-59cd3412e8dd","system_id":"levelo_inurba_marseille","lat":43.30609,"lon":5.3722,"is_reserved":false,"is_disabled":false,"rental_uris":{"android":"levelo://app?vid=803ade9f-d423-4363-9afb-59cd3412e8dd","ios":"levelo://app?vid=803ade9f-d423-4363-9afb-59cd3412e8dd"},"vehicle_type_id":"4","last_reported":1744567991,"current_range_meters":2000,"station_id":"ce4bgqh2rcd13ifvqc4g","pricing_plan_id":"cebpf4jnsgd1na2vs0mg"},{"bike_id":"fb093818-2b12-4adf-8080-c0c81efa2b90","system_id":"levelo_inurba_marseille","lat":43.30888,"lon":5.3966,"is_reserved":false,"is_disabled":false,"rental_uris":{"android":"levelo://app?vid=fb093818-2b12-4adf-8080-c0c81efa2b90","ios":"levelo://app?vid=fb093818-2b12-4adf-8080-c0c81efa2b90"},"vehicle_type_id":"4","last_reported":1744567991,"current_range_meters":2800,"station_id":"ce4bh012rcd13ifvqcv0","pricing_plan_id":"cebpf4jnsgd1na2vs0mg"},{"bike_id":"b6ff7e66-b821-4f07-a3cf-b9f4abde04e1","system_id":"levelo_inurba_marseille","lat":43.27999,"lon":5.40049,"is_reserved":false,"is_disabled":true,"rental_uris":{"android":"levelo://app?vid=b6ff7e66-b821-4f07-a3cf-b9f4abde04e1","ios":"levelo://app?vid=b6ff7e66-b821-4f07-a3cf-b9f4abde04e1"},"vehicle_type_id":"4","last_reported":1744567991,"current_range_meters":2800,"station_id":"ce4bho92rcd13ifvqh4g","pricing_plan_id":"cebpf4jnsgd1na2vs0mg"},{"bike_id":"8bca5cf9-d876-4f84-b55b-af6a5c832675","system_id":"levelo_inurba_marseille","lat":43.30124,"lon":5.3986,"is_reserved":false,"is_disabled":false,"rental_uris":{"android":"levelo://app?vid=8bca5cf9-d876-4f84-b55b-af6a5c832675","ios":"levelo://app?vid=8bca5cf9-d876-4f84-b55b-af6a5c832675"},"vehicle_type_id":"4","last_reported":1744567991,"current_range_meters":2800,"station_id":"ce4bh0h2rcd13ifvqd40","pricing_plan_id":"cebpf4jnsgd1na2vs0mg"},{"bike_id":"a5e4730d-d65c-4225-ae14-86e934a3e036","system_id":"levelo_inurba_marseille","lat":43.29264,"lon":5.3685,"is_reserved":false,"is_disabled":false,"rental_uris":{"android":"levelo://app?vid=a5e4730d-d65c-4225-ae14-86e934a3e036","ios":"levelo://app?vid=a5e4730d-d65c-4225-ae14-86e934a3e036"},"vehicle_type_id":"4","last_reported":1744567991,"current_range_meters":2800,"station_id":"ce4bhbp2rcd13ifvqesg","pricing_plan_id":"cebpf4jnsgd1na2vs0mg"},{"bike_id":"5076cfe5-1f24-475c-8198-084269fbe239","system_id":"levelo_inurba_marseille","lat":43.241761,"lon":5.39716,"is_reserved":false,"is_disabled":false,"rental_uris":{"android":"levelo://app?vid=5076cfe5-1f24-475c-8198-084269fbe239","ios":"levelo://app?vid=5076cfe5-1f24-475c-8198-084269fbe239"},"vehicle_type_id":"4","last_reported":1744567991,"current_range_meters":4000,"station_id":"ce4bhn12rcd13ifvqgpg","pricing_plan_id":"cebpf4jnsgd1na2vs0mg"},{"bike_id":"ca46df11-09f5-4894-88f4-fd07b7460862","system_id":"levelo_inurba_marseille","lat":43.27629,"lon":5.36131,"is_reserved":false,"is_disabled":false,"rental_uris":{"android":"levelo://app?vid=ca46df11-09f5-4894-88f4-fd07b7460862","ios":"levelo://app?vid=ca46df11-09f5-4894-88f4-fd07b7460862"},"vehicle_type_id":"4","last_reported":1744567991,"current_range_meters":2800,"station_id":"ce4bgj92rcd13ifvqbe0","pricing_plan_id":"cebpf4jnsgd1na2vs0mg"},{"bike_id":"0bb885a7-9d7c-47c0-9f19-84af866893ff","system_id":"levelo_inurba_marseille","lat":43.267958,"lon":5.395447,"is_reserved":false,"is_disabled":false,"rental_uris":{"android":"levelo://app?vid=0bb885a7-9d7c-47c0-9f19-84af866893ff","ios":"levelo://app?vid=0bb885a7-9d7c-47c0-9f19-84af866893ff"},"vehicle_type_id":"4","last_reported":1744567991,"current_range_meters":3200,"station_id":"cjm6bp8fraef2m0cb0m0","pricing_plan_id":"cebpf4jnsgd1na2vs0mg"},{"bike_id":"98c59c3f-273f-45b2-8020-a8eb8d4d5dd9","system_id":"levelo_inurba_marseille","lat":43.28265,"lon":5.35054,"is_reserved":false,"is_disabled":false,"rental_uris":{"android":"levelo://app?vid=98c59c3f-273f-45b2-8020-a8eb8d4d5dd9","ios":"levelo://app?vid=98c59c3f-273f-45b2-8020-a8eb8d4d5dd9"},"vehicle_type_id":"4","last_reported":1744567991,"current_range_meters":3600,"station_id":"ce4bhbp2rcd13ifvqerg","pricing_plan_id":"cebpf4jnsgd1na2vs0mg"},{"bike_id":"3438c5bd-1787-489f-9a0e-5eb33ff8500a","system_id":"levelo_inurba_marseille","lat":43.29548,"lon":5.42276,"is_reserved":false,"is_disabled":true,"rental_uris":{"android":"levelo://app?vid=3438c5bd-1787-489f-9a0e-5eb33ff8500a","ios":"levelo://app?vid=3438c5bd-1787-489f-9a0e-5eb33ff8500a"},"vehicle_type_id":"4","last_reported":1744567991,"current_range_meters":3600,"station_id":"ce4bhph2rcd13ifvqhdg","pricing_plan_id":"cebpf4jnsgd1na2vs0mg"},{"bike_id":"89e4ab15-3d80-41e7-971d-a5be96cc98e7","system_id":"levelo_inurba_marseille","lat":43.269422,"lon":5.36664,"is_reserved":false,"is_disabled":false,"rental_uris":{"android":"levelo://app?vid=89e4ab15-3d80-41e7-971d-a5be96cc98e7","ios":"levelo://app?vid=89e4ab15-3d80-41e7-971d-a5be96cc98e7"},"vehicle_type_id":"4","last_reported":1744567991,"current_range_meters":3600,"station_id":"ce4bgph2rcd13ifvqc2g","pricing_plan_id":"cebpf4jnsgd1na2vs0mg"},{"bike_id":"06dab983-564f-4838-91e4-e0518e14dfe9","system_id":"levelo_inurba_marseille","lat":43.311636,"lon":5.38716,"is_reserved":false,"is_disabled":false,"rental_uris":{"android":"levelo://app?vid=06dab983-564f-4838-91e4-e0518e14dfe9","ios":"levelo://app?vid=06dab983-564f-4838-91e4-e0518e14dfe9"},"vehicle_type_id":"4","last_reported":1744567991,"current_range_meters":4000,"station_id":"ce4bgv12rcd13ifvqcp0","pricing_plan_id":"cebpf4jnsgd1na2vs0mg"},{"bike_id":"6c09a366-df57-4e90-97cf-5d8d6146ed07","system_id":"levelo_inurba_marseille","lat":43.29628,"lon":5.406,"is_reserved":false,"is_disabled":false,"rental_uris":{"android":"levelo://app?vid=6c09a366-df57-4e90-97cf-5d8d6146ed07","ios":"levelo://app?vid=6c09a366-df57-4e90-97cf-5d8d6146ed07"},"vehicle_type_id":"4","last_reported":1744567991,"current_range_meters":4400,"station_id":"ce4bh0h2rcd13ifvqd60","pricing_plan_id":"cebpf4jnsgd1na2vs0mg"},{"bike_id":"0f590a0f-6d34-4492-8f50-5f8c892d20fd","system_id":"levelo_inurba_marseille","lat":43.21742,"lon":5.34606,"is_reserved":false,"is_disabled":false,"rental_uris":{"android":"levelo://app?vid=0f590a0f-6d34-4492-8f50-5f8c892d20fd","ios":"levelo://app?vid=0f590a0f-6d34-4492-8f50-5f8c892d20fd"},"vehicle_type_id":"4","last_reported":1744567991,"current_range_meters":4400,"station_id":"st_cvj6r9ubvosntc0bgbag","pricing_plan_id":"cebpf4jnsgd1na2vs0mg"},{"bike_id":"4c893399-b4ed-40ed-a49f-713da320f269","system_id":"levelo_inurba_marseille","lat":43.29861,"lon":5.37841,"is_reserved":false,"is_disabled":false,"rental_uris":{"android":"levelo://app?vid=4c893399-b4ed-40ed-a49f-713da320f269","ios":"levelo://app?vid=4c893399-b4ed-40ed-a49f-713da320f269"},"vehicle_type_id":"4","last_reported":1744567991,"current_range_meters":4400,"station_id":"","pricing_plan_id":"cebpf4jnsgd1na2vs0mg"},{"bike_id":"bfe92e81-a6be-4dc0-bc10-4e4bd3e5a62f","system_id":"levelo_inurba_marseille","lat":43.28716,"lon":5.36099,"is_reserved":false,"is_disabled":false,"rental_uris":{"android":"levelo://app?vid=bfe92e81-a6be-4dc0-bc10-4e4bd3e5a62f","ios":"levelo://app?vid=bfe92e81-a6be-4dc0-bc10-4e4bd3e5a62f"},"vehicle_type_id":"4","last_reported":1744567991,"current_range_meters":4400,"station_id":"cki0cbj6b192h4jlfktg","pricing_plan_id":"cebpf4jnsgd1na2vs0mg"},{"bike_id":"f915ac58-55ab-4ba3-b885-a6a3dc326f9d","system_id":"levelo_inurba_marseille","lat":43.26819,"lon":5.40255,"is_reserved":false,"is_disabled":false,"rental_uris":{"android":"levelo://app?vid=f915ac58-55ab-4ba3-b885-a6a3dc326f9d","ios":"levelo://app?vid=f915ac58-55ab-4ba3-b885-a6a3dc326f9d"},"vehicle_type_id":"4","last_reported":1744567991,"current_range_meters":4400,"station_id":"ce501612rcd8frsf0b60","pricing_plan_id":"cebpf4jnsgd1na2vs0mg"},{"bike_id":"cfadcc33-5bb8-4f29-9a84-ae98565bb4a2","system_id":"levelo_inurba_marseille","lat":43.24092,"lon":5.37809,"is_reserved":false,"is_disabled":false,"rental_uris":{"android":"levelo://app?vid=cfadcc33-5bb8-4f29-9a84-ae98565bb4a2","ios":"levelo://app?vid=cfadcc33-5bb8-4f29-9a84-ae98565bb4a2"},"vehicle_type_id":"4","last_reported":1744567991,"current_range_meters":4800,"station_id":"ce4bhnp2rcd13ifvqgvg","pricing_plan_id":"cebpf4jnsgd1na2vs0mg"},{"bike_id":"5f97167f-3813-4818-818d-9589ce0e5fe3","system_id":"levelo_inurba_marseille","lat":43.251239,"lon":5.403343,"is_reserved":false,"is_disabled":false,"rental_uris":{"android":"levelo://app?vid=5f97167f-3813-4818-818d-9589ce0e5fe3","ios":"levelo://app?vid=5f97167f-3813-4818-818d-9589ce0e5fe3"},"vehicle_type_id":"4","last_reported":1744567991,"current_range_meters":4800,"station_id":"ce4bhlh2rcd13ifvqgig","pricing_plan_id":"cebpf4jnsgd1na2vs0mg"},{"bike_id":"25902c2e-cbd8-42a7-b332-3e381b9a5bcc","system_id":"levelo_inurba_marseille","lat":43.29843,"lon":5.36273,"is_reserved":false,"is_disabled":false,"rental_uris":{"android":"levelo://app?vid=25902c2e-cbd8-42a7-b332-3e381b9a5bcc","ios":"levelo://app?vid=25902c2e-cbd8-42a7-b332-3e381b9a5bcc"},"vehicle_type_id":"4","last_reported":1744567991,"current_range_meters":4800,"station_id":"ce4bgpp2rcd13ifvqc3g","pricing_plan_id":"cebpf4jnsgd1na2vs0mg"},{"bike_id":"fb3bf63f-cb8b-4e2d-97b5-e2bd30164ab5","system_id":"levelo_inurba_marseille","lat":43.310554,"lon":5.367119,"is_reserved":false,"is_disabled":false,"rental_uris":{"android":"levelo://app?vid=fb3bf63f-cb8b-4e2d-97b5-e2bd30164ab5","ios":"levelo://app?vid=fb3bf63f-cb8b-4e2d-97b5-e2bd30164ab5"},"vehicle_type_id":"4","last_reported":1744567991,"current_range_meters":4800,"station_id":"","pricing_plan_id":"cebpf4jnsgd1na2vs0mg"},{"bike_id":"f5521c66-db4c-44c6-9413-1d0882e0edbd","system_id":"levelo_inurba_marseille","lat":43.28107,"lon":5.389175,"is_reserved":false,"is_disabled":false,"rental_uris":{"android":"levelo://app?vid=f5521c66-db4c-44c6-9413-1d0882e0edbd","ios":"levelo://app?vid=f5521c66-db4c-44c6-9413-1d0882e0edbd"},"vehicle_type_id":"4","last_reported":1744567991,"current_range_meters":4800,"station_id":"ce4bh292rcd13ifvqdg0","pricing_plan_id":"cebpf4jnsgd1na2vs0mg"},{"bike_id":"a2ccfbf7-8a0b-49de-8499-18c843f628a5","system_id":"levelo_inurba_marseille","lat":43.2319,"lon":5.3555,"is_reserved":false,"is_disabled":false,"rental_uris":{"android":"levelo://app?vid=a2ccfbf7-8a0b-49de-8499-18c843f628a5","ios":"levelo://app?vid=a2ccfbf7-8a0b-49de-8499-18c843f628a5"},"vehicle_type_id":"4","last_reported":1744567991,"current_range_meters":5600,"station_id":"ce4bhu92rcd13ifvqi70","pricing_plan_id":"cebpf4jnsgd1na2vs0mg"},{"bike_id":"e3828467-5145-4b40-a836-722c61030e40","system_id":"levelo_inurba_marseille","lat":43.28159,"lon":5.42661,"is_reserved":false,"is_disabled":true,"rental_uris":{"android":"levelo://app?vid=e3828467-5145-4b40-a836-722c61030e40","ios":"levelo://app?vid=e3828467-5145-4b40-a836-722c61030e40"},"vehicle_type_id":"4","last_reported":1744567991,"current_range_meters":5600,"station_id":"ce4bhnh2rcd13ifvqgug","pricing_plan_id":"cebpf4jnsgd1na2vs0mg"},{"bike_id":"ee37d139-b142-4b50-a9e7-ebe3a284e80c","system_id":"levelo_inurba_marseille","lat":43.22901,"lon":5.35401,"is_reserved":false,"is_disabled":false,"rental_uris":{"android":"levelo://app?vid=ee37d139-b142-4b50-a9e7-ebe3a284e80c","ios":"levelo://app?vid=ee37d139-b142-4b50-a9e7-ebe3a284e80c"},"vehicle_type_id":"4","last_reported":1744567991,"current_range_meters":5600,"station_id":"cpo3532slgdg3j2ikp40","pricing_plan_id":"cebpf4jnsgd1na2vs0mg"},{"bike_id":"ef291804-1477-432e-b153-82ea15725418","system_id":"levelo_inurba_marseille","lat":43.33742,"lon":5.37454,"is_reserved":false,"is_disabled":false,"rental_uris":{"android":"levelo://app?vid=ef291804-1477-432e-b153-82ea15725418","ios":"levelo://app?vid=ef291804-1477-432e-b153-82ea15725418"},"vehicle_type_id":"4","last_reported":1744567991,"current_range_meters":5600,"station_id":"","pricing_plan_id":"cebpf4jnsgd1na2vs0mg"},{"bike_id":"b84a7909-4c87-4511-977c-4e581847675a","system_id":"levelo_inurba_marseille","lat":43.29417,"lon":5.38628,"is_reserved":false,"is_disabled":false,"rental_uris":{"android":"levelo://app?vid=b84a7909-4c87-4511-977c-4e581847675a","ios":"levelo://app?vid=b84a7909-4c87-4511-977c-4e581847675a"},"vehicle_type_id":"4","last_reported":1744567991,"current_range_meters":5600,"station_id":"ce4bh2h2rcd13ifvqdh0","pricing_plan_id":"cebpf4jnsgd1na2vs0mg"},{"bike_id":"c013d600-5e08-48f0-830e-8c965978436b","system_id":"levelo_inurba_marseille","lat":43.30457,"lon":5.38909,"is_reserved":false,"is_disabled":true,"rental_uris":{"android":"levelo://app?vid=c013d600-5e08-48f0-830e-8c965978436b","ios":"levelo://app?vid=c013d600-5e08-48f0-830e-8c965978436b"},"vehicle_type_id":"4","last_reported":1744567991,"current_range_meters":6000,"station_id":"ce4bgk12rcd13ifvqbi0","pricing_plan_id":"cebpf4jnsgd1na2vs0mg"},{"bike_id":"a0bca5d8-3451-4bb4-912a-646d15f9cd84","system_id":"levelo_inurba_marseille","lat":43.262048,"lon":5.379356,"is_reserved":false,"is_disabled":false,"rental_uris":{"android":"levelo://app?vid=a0bca5d8-3451-4bb4-912a-646d15f9cd84","ios":"levelo://app?vid=a0bca5d8-3451-4bb4-912a-646d15f9cd84"},"vehicle_type_id":"4","last_reported":1744567991,"current_range_meters":5600,"station_id":"cki0cbj6b192h4jlfktg","pricing_plan_id":"cebpf4jnsgd1na2vs0mg"},{"bike_id":"72a9c0b7-7389-4783-a8c7-46bdf0d81b14","system_id":"levelo_inurba_marseille","lat":43.30458,"lon":5.37916,"is_reserved":false,"is_disabled":false,"rental_uris":{"android":"levelo://app?vid=72a9c0b7-7389-4783-a8c7-46bdf0d81b14","ios":"levelo://app?vid=72a9c0b7-7389-4783-a8c7-46bdf0d81b14"},"vehicle_type_id":"4","last_reported":1744567991,"current_range_meters":6000,"station_id":"ce4bgup2rcd13ifvqcn0","pricing_plan_id":"cebpf4jnsgd1na2vs0mg"},{"bike_id":"f5fff0db-fd20-45ee-a70b-811d1f4163e3","system_id":"levelo_inurba_marseille","lat":43.3009,"lon":5.39083,"is_reserved":false,"is_disabled":false,"rental_uris":{"android":"levelo://app?vid=f5fff0db-fd20-45ee-a70b-811d1f4163e3","ios":"levelo://app?vid=f5fff0db-fd20-45ee-a70b-811d1f4163e3"},"vehicle_type_id":"4","last_reported":1744567991,"current_range_meters":6000,"station_id":"ce4bh192rcd13ifvqdb0","pricing_plan_id":"cebpf4jnsgd1na2vs0mg"},{"bike_id":"6a36e1be-2c5b-4782-ad82-295976c1b92f","system_id":"levelo_inurba_marseille","lat":43.2779,"lon":5.40724,"is_reserved":false,"is_disabled":false,"rental_uris":{"android":"levelo://app?vid=6a36e1be-2c5b-4782-ad82-295976c1b92f","ios":"levelo://app?vid=6a36e1be-2c5b-4782-ad82-295976c1b92f"},"vehicle_type_id":"4","last_reported":1744567991,"current_range_meters":6400,"station_id":"ce4bhnh2rcd13ifvqgtg","pricing_plan_id":"cebpf4jnsgd1na2vs0mg"},{"bike_id":"d53356ed-34e7-4ce0-8d94-e073954cdd85","system_id":"levelo_inurba_marseille","lat":43.27067,"lon":5.40255,"is_reserved":false,"is_disabled":true,"rental_uris":{"android":"levelo://app?vid=d53356ed-34e7-4ce0-8d94-e073954cdd85","ios":"levelo://app?vid=d53356ed-34e7-4ce0-8d94-e073954cdd85"},"vehicle_type_id":"4","last_reported":1744567991,"current_range_meters":6400,"station_id":"ce4bhk92rcd13ifvqgc0","pricing_plan_id":"cebpf4jnsgd1na2vs0mg"},{"bike_id":"1130922e-9ccc-463b-9207-aadecd794edb","system_id":"levelo_inurba_marseille","lat":43.32008,"lon":5.38147,"is_reserved":false,"is_disabled":true,"rental_uris":{"android":"levelo://app?vid=1130922e-9ccc-463b-9207-aadecd794edb","ios":"levelo://app?vid=1130922e-9ccc-463b-9207-aadecd794edb"},"vehicle_type_id":"4","last_reported":1744567991,"current_range_meters":6400,"station_id":"ce4bhr12rcd13ifvqhpg","pricing_plan_id":"cebpf4jnsgd1na2vs0mg"},{"bike_id":"a413f59a-f8c6-41a2-9682-3236b375b696","system_id":"levelo_inurba_marseille","lat":43.28442,"lon":5.39183,"is_reserved":false,"is_disabled":false,"rental_uris":{"android":"levelo://app?vid=a413f59a-f8c6-41a2-9682-3236b375b696","ios":"levelo://app?vid=a413f59a-f8c6-41a2-9682-3236b375b696"},"vehicle_type_id":"4","last_reported":1744567991,"current_range_meters":6400,"station_id":"ce4bhoh2rcd13ifvqh5g","pricing_plan_id":"cebpf4jnsgd1na2vs0mg"},{"bike_id":"1f6be261-82c4-4a04-bf9d-b88879150a4f","system_id":"levelo_inurba_marseille","lat":43.278148,"lon":5.407142,"is_reserved":false,"is_disabled":false,"rental_uris":{"android":"levelo://app?vid=1f6be261-82c4-4a04-bf9d-b88879150a4f","ios":"levelo://app?vid=1f6be261-82c4-4a04-bf9d-b88879150a4f"},"vehicle_type_id":"4","last_reported":1744567991,"current_range_meters":6400,"station_id":"ce4bhnh2rcd13ifvqgtg","pricing_plan_id":"cebpf4jnsgd1na2vs0mg"},{"bike_id":"c5accb89-2f30-48f4-940a-68686d3b542b","system_id":"levelo_inurba_marseille","lat":43.30803,"lon":5.38137,"is_reserved":false,"is_disabled":false,"rental_uris":{"android":"levelo://app?vid=c5accb89-2f30-48f4-940a-68686d3b542b","ios":"levelo://app?vid=c5accb89-2f30-48f4-940a-68686d3b542b"},"vehicle_type_id":"4","last_reported":1744567991,"current_range_meters":6400,"station_id":"ce4bgt12rcd13ifvqce0","pricing_plan_id":"cebpf4jnsgd1na2vs0mg"},{"bike_id":"d185f7a2-6136-496a-83f6-3acf32292f4c","system_id":"levelo_inurba_marseille","lat":43.29351,"lon":5.372,"is_reserved":false,"is_disabled":true,"rental_uris":{"android":"levelo://app?vid=d185f7a2-6136-496a-83f6-3acf32292f4c","ios":"levelo://app?vid=d185f7a2-6136-496a-83f6-3acf32292f4c"},"vehicle_type_id":"4","last_reported":1744567991,"current_range_meters":6800,"station_id":"ce4bgh92rcd13ifvqb40","pricing_plan_id":"cebpf4jnsgd1na2vs0mg"},{"bike_id":"d8f603cd-3b83-4148-bab8-3a185ad2a59f","system_id":"levelo_inurba_marseille","lat":43.32416,"lon":5.3913,"is_reserved":false,"is_disabled":false,"rental_uris":{"android":"levelo://app?vid=d8f603cd-3b83-4148-bab8-3a185ad2a59f","ios":"levelo://app?vid=d8f603cd-3b83-4148-bab8-3a185ad2a59f"},"vehicle_type_id":"4","last_reported":1744567991,"current_range_meters":6800,"station_id":"","pricing_plan_id":"cebpf4jnsgd1na2vs0mg"},{"bike_id":"d25bc622-d5b0-468b-972f-d8c8c07bf9e2","system_id":"levelo_inurba_marseille","lat":43.27067,"lon":5.42288,"is_reserved":false,"is_disabled":false,"rental_uris":{"android":"levelo://app?vid=d25bc622-d5b0-468b-972f-d8c8c07bf9e2","ios":"levelo://app?vid=d25bc622-d5b0-468b-972f-d8c8c07bf9e2"},"vehicle_type_id":"4","last_reported":1744567991,"current_range_meters":6800,"station_id":"ce4bhk92rcd13ifvqgb0","pricing_plan_id":"cebpf4jnsgd1na2vs0mg"},{"bike_id":"5ccc6af0-6dc8-4e2b-b3b5-a0decc5573f2","system_id":"levelo_inurba_marseille","lat":43.29026,"lon":5.38126,"is_reserved":false,"is_disabled":false,"rental_uris":{"android":"levelo://app?vid=5ccc6af0-6dc8-4e2b-b3b5-a0decc5573f2","ios":"levelo://app?vid=5ccc6af0-6dc8-4e2b-b3b5-a0decc5573f2"},"vehicle_type_id":"4","last_reported":1744567991,"current_range_meters":6800,"station_id":"ce4bh4p2rcd13ifvqe1g","pricing_plan_id":"cebpf4jnsgd1na2vs0mg"},{"bike_id":"65c6653a-7f75-4cb4-a9df-c7a7aada2976","system_id":"levelo_inurba_marseille","lat":43.31993,"lon":5.38144,"is_reserved":false,"is_disabled":false,"rental_uris":{"android":"levelo://app?vid=65c6653a-7f75-4cb4-a9df-c7a7aada2976","ios":"levelo://app?vid=65c6653a-7f75-4cb4-a9df-c7a7aada2976"},"vehicle_type_id":"4","last_reported":1744567991,"current_range_meters":6800,"station_id":"ce4bhr12rcd13ifvqhpg","pricing_plan_id":"cebpf4jnsgd1na2vs0mg"},{"bike_id":"abbb7d6d-8711-4e54-85b5-10ef42f41014","system_id":"levelo_inurba_marseille","lat":43.31229,"lon":5.36852,"is_reserved":false,"is_disabled":false,"rental_uris":{"android":"levelo://app?vid=abbb7d6d-8711-4e54-85b5-10ef42f41014","ios":"levelo://app?vid=abbb7d6d-8711-4e54-85b5-10ef42f41014"},"vehicle_type_id":"4","last_reported":1744567991,"current_range_meters":6800,"station_id":"ce4bgl92rcd13ifvqbq0","pricing_plan_id":"cebpf4jnsgd1na2vs0mg"},{"bike_id":"25e2bb21-7728-41c4-a988-089723051b69","system_id":"levelo_inurba_marseille","lat":43.321136,"lon":5.367586,"is_reserved":false,"is_disabled":false,"rental_uris":{"android":"levelo://app?vid=25e2bb21-7728-41c4-a988-089723051b69","ios":"levelo://app?vid=25e2bb21-7728-41c4-a988-089723051b69"},"vehicle_type_id":"4","last_reported":1744567991,"current_range_meters":6800,"station_id":"ce4bgip2rcd13ifvqbb0","pricing_plan_id":"cebpf4jnsgd1na2vs0mg"},{"bike_id":"7b133e7c-f5b9-4215-bb85-6a4ab02d9c67","system_id":"levelo_inurba_marseille","lat":43.29252,"lon":5.409,"is_reserved":false,"is_disabled":false,"rental_uris":{"android":"levelo://app?vid=7b133e7c-f5b9-4215-bb85-6a4ab02d9c67","ios":"levelo://app?vid=7b133e7c-f5b9-4215-bb85-6a4ab02d9c67"},"vehicle_type_id":"4","last_reported":1744567991,"current_range_meters":6800,"station_id":"ce4bh192rcd13ifvqdc0","pricing_plan_id":"cebpf4jnsgd1na2vs0mg"},{"bike_id":"4a0973b0-92a0-41e8-9b0d-a99e944bafe0","system_id":"levelo_inurba_marseille","lat":43.34033,"lon":5.41511,"is_reserved":false,"is_disabled":false,"rental_uris":{"android":"levelo://app?vid=4a0973b0-92a0-41e8-9b0d-a99e944bafe0","ios":"levelo://app?vid=4a0973b0-92a0-41e8-9b0d-a99e944bafe0"},"vehicle_type_id":"4","last_reported":1744567991,"current_range_meters":6800,"station_id":"","pricing_plan_id":"cebpf4jnsgd1na2vs0mg"},{"bike_id":"5b77a833-8185-45c2-9fe3-07eb40df54ca","system_id":"levelo_inurba_marseille","lat":43.33995,"lon":5.38057,"is_reserved":false,"is_disabled":false,"rental_uris":{"android":"levelo://app?vid=5b77a833-8185-45c2-9fe3-07eb40df54ca","ios":"levelo://app?vid=5b77a833-8185-45c2-9fe3-07eb40df54ca"},"vehicle_type_id":"4","last_reported":1744567991,"current_range_meters":6800,"station_id":"","pricing_plan_id":"cebpf4jnsgd1na2vs0mg"},{"bike_id":"a5bfdfd7-7580-469b-a62b-6b915b3566f3","system_id":"levelo_inurba_marseille","lat":43.25581,"lon":5.382287,"is_reserved":false,"is_disabled":false,"rental_uris":{"android":"levelo://app?vid=a5bfdfd7-7580-469b-a62b-6b915b3566f3","ios":"levelo://app?vid=a5bfdfd7-7580-469b-a62b-6b915b3566f3"},"vehicle_type_id":"4","last_reported":1744567991,"current_range_meters":6800,"station_id":"ce4bhih2rcd13ifvqfs0","pricing_plan_id":"cebpf4jnsgd1na2vs0mg"},{"bike_id":"f7d1eee0-1715-419d-beac-1b98ec9e62ed","system_id":"levelo_inurba_marseille","lat":43.30935,"lon":5.39005,"is_reserved":false,"is_disabled":true,"rental_uris":{"android":"levelo://app?vid=f7d1eee0-1715-419d-beac-1b98ec9e62ed","ios":"levelo://app?vid=f7d1eee0-1715-419d-beac-1b98ec9e62ed"},"vehicle_type_id":"4","last_reported":1744567991,"current_range_meters":7200,"station_id":"ce4bgup2rcd13ifvqco0","pricing_plan_id":"cebpf4jnsgd1na2vs0mg"},{"bike_id":"e6d71ef1-ffe4-413f-92e7-5606f5a0fb99","system_id":"levelo_inurba_marseille","lat":43.29004,"lon":5.35606,"is_reserved":false,"is_disabled":false,"rental_uris":{"android":"levelo://app?vid=e6d71ef1-ffe4-413f-92e7-5606f5a0fb99","ios":"levelo://app?vid=e6d71ef1-ffe4-413f-92e7-5606f5a0fb99"},"vehicle_type_id":"4","last_reported":1744567991,"current_range_meters":7200,"station_id":"ce4bhb92rcd13ifvqen0","pricing_plan_id":"cebpf4jnsgd1na2vs0mg"},{"bike_id":"0ceb1776-0c88-4ba3-9905-2f990572e867","system_id":"levelo_inurba_marseille","lat":43.30375,"lon":5.42493,"is_reserved":false,"is_disabled":false,"rental_uris":{"android":"levelo://app?vid=0ceb1776-0c88-4ba3-9905-2f990572e867","ios":"levelo://app?vid=0ceb1776-0c88-4ba3-9905-2f990572e867"},"vehicle_type_id":"4","last_reported":1744567991,"current_range_meters":7200,"station_id":"ce4bhoh2rcd13ifvqh6g","pricing_plan_id":"cebpf4jnsgd1na2vs0mg"},{"bike_id":"0e7bf4ae-5aed-4055-a1f8-96debbb9847e","system_id":"levelo_inurba_marseille","lat":43.2416,"lon":5.36413,"is_reserved":false,"is_disabled":false,"rental_uris":{"android":"levelo://app?vid=0e7bf4ae-5aed-4055-a1f8-96debbb9847e","ios":"levelo://app?vid=0e7bf4ae-5aed-4055-a1f8-96debbb9847e"},"vehicle_type_id":"4","last_reported":1744567991,"current_range_meters":7200,"station_id":"cpo36qri1sfpv3e86is0","pricing_plan_id":"cebpf4jnsgd1na2vs0mg"},{"bike_id":"bd99795d-8d45-4acb-a235-59d3aea24d4b","system_id":"levelo_inurba_marseille","lat":43.26681,"lon":5.38283,"is_reserved":false,"is_disabled":false,"rental_uris":{"android":"levelo://app?vid=bd99795d-8d45-4acb-a235-59d3aea24d4b","ios":"levelo://app?vid=bd99795d-8d45-4acb-a235-59d3aea24d4b"},"vehicle_type_id":"4","last_reported":1744567991,"current_range_meters":8000,"station_id":"ce4bhg92rcd13ifvqf90","pricing_plan_id":"cebpf4jnsgd1na2vs0mg"},{"bike_id":"b26686ba-d376-4531-9848-93333e86d050","system_id":"levelo_inurba_marseille","lat":43.29276,"lon":5.36855,"is_reserved":false,"is_disabled":false,"rental_uris":{"android":"levelo://app?vid=b26686ba-d376-4531-9848-93333e86d050","ios":"levelo://app?vid=b26686ba-d376-4531-9848-93333e86d050"},"vehicle_type_id":"4","last_reported":1744567991,"current_range_meters":8000,"station_id":"ce4bhbp2rcd13ifvqesg","pricing_plan_id":"cebpf4jnsgd1na2vs0mg"},{"bike_id":"493cde9e-7859-4c26-a2e6-f744ee5d8553","system_id":"levelo_inurba_marseille","lat":43.31806,"lon":5.36798,"is_reserved":false,"is_disabled":false,"rental_uris":{"android":"levelo://app?vid=493cde9e-7859-4c26-a2e6-f744ee5d8553","ios":"levelo://app?vid=493cde9e-7859-4c26-a2e6-f744ee5d8553"},"vehicle_type_id":"4","last_reported":1744567991,"current_range_meters":8000,"station_id":"","pricing_plan_id":"cebpf4jnsgd1na2vs0mg"},{"bike_id":"97c5290c-6dcd-4f81-953a-f5953018fa5b","system_id":"levelo_inurba_marseille","lat":43.31073,"lon":5.37581,"is_reserved":false,"is_disabled":false,"rental_uris":{"android":"levelo://app?vid=97c5290c-6dcd-4f81-953a-f5953018fa5b","ios":"levelo://app?vid=97c5290c-6dcd-4f81-953a-f5953018fa5b"},"vehicle_type_id":"4","last_reported":1744567991,"current_range_meters":8000,"station_id":"","pricing_plan_id":"cebpf4jnsgd1na2vs0mg"},{"bike_id":"0f162097-a1e1-4a7a-afaa-e6fb87de7d27","system_id":"levelo_inurba_marseille","lat":43.30143,"lon":5.38798,"is_reserved":false,"is_disabled":false,"rental_uris":{"android":"levelo://app?vid=0f162097-a1e1-4a7a-afaa-e6fb87de7d27","ios":"levelo://app?vid=0f162097-a1e1-4a7a-afaa-e6fb87de7d27"},"vehicle_type_id":"4","last_reported":1744567991,"current_range_meters":8000,"station_id":"ce4bghh2rcd13ifvqb60","pricing_plan_id":"cebpf4jnsgd1na2vs0mg"},{"bike_id":"ce51887b-1f6a-45d3-b15c-1729123f28b9","system_id":"levelo_inurba_marseille","lat":43.26678,"lon":5.38265,"is_reserved":false,"is_disabled":false,"rental_uris":{"android":"levelo://app?vid=ce51887b-1f6a-45d3-b15c-1729123f28b9","ios":"levelo://app?vid=ce51887b-1f6a-45d3-b15c-1729123f28b9"},"vehicle_type_id":"4","last_reported":1744567991,"current_range_meters":8000,"station_id":"ce4bhg92rcd13ifvqf90","pricing_plan_id":"cebpf4jnsgd1na2vs0mg"},{"bike_id":"5f1ad801-c6cb-420c-84aa-173055973514","system_id":"levelo_inurba_marseille","lat":43.28937,"lon":5.36638,"is_reserved":false,"is_disabled":false,"rental_uris":{"android":"levelo://app?vid=5f1ad801-c6cb-420c-84aa-173055973514","ios":"levelo://app?vid=5f1ad801-c6cb-420c-84aa-173055973514"},"vehicle_type_id":"4","last_reported":1744567991,"current_range_meters":8000,"station_id":"","pricing_plan_id":"cebpf4jnsgd1na2vs0mg"},{"bike_id":"0ffadc52-c820-4d02-a78a-0407259c59d3","system_id":"levelo_inurba_marseille","lat":43.29277,"lon":5.40926,"is_reserved":false,"is_disabled":false,"rental_uris":{"android":"levelo://app?vid=0ffadc52-c820-4d02-a78a-0407259c59d3","ios":"levelo://app?vid=0ffadc52-c820-4d02-a78a-0407259c59d3"},"vehicle_type_id":"4","last_reported":1744567991,"current_range_meters":8000,"station_id":"ce4bh192rcd13ifvqdc0","pricing_plan_id":"cebpf4jnsgd1na2vs0mg"},{"bike_id":"f8028ec9-b940-4a89-9b64-a6da5004ac62","system_id":"levelo_inurba_marseille","lat":43.28399,"lon":5.37521,"is_reserved":false,"is_disabled":false,"rental_uris":{"android":"levelo://app?vid=f8028ec9-b940-4a89-9b64-a6da5004ac62","ios":"levelo://app?vid=f8028ec9-b940-4a89-9b64-a6da5004ac62"},"vehicle_type_id":"4","last_reported":1744567991,"current_range_meters":7200,"station_id":"ce4bh412rcd13ifvqds0","pricing_plan_id":"cebpf4jnsgd1na2vs0mg"},{"bike_id":"fb5eaf56-399c-4328-b52f-fb4ec60bc18b","system_id":"levelo_inurba_marseille","lat":43.29909,"lon":5.38135,"is_reserved":false,"is_disabled":false,"rental_uris":{"android":"levelo://app?vid=fb5eaf56-399c-4328-b52f-fb4ec60bc18b","ios":"levelo://app?vid=fb5eaf56-399c-4328-b52f-fb4ec60bc18b"},"vehicle_type_id":"4","last_reported":1744567991,"current_range_meters":8400,"station_id":"ce4bgj12rcd13ifvqbc0","pricing_plan_id":"cebpf4jnsgd1na2vs0mg"},{"bike_id":"2f5bc015-0a98-4a0d-a50f-f7181e1d6abe","system_id":"levelo_inurba_marseille","lat":43.23423,"lon":5.41242,"is_reserved":false,"is_disabled":false,"rental_uris":{"android":"levelo://app?vid=2f5bc015-0a98-4a0d-a50f-f7181e1d6abe","ios":"levelo://app?vid=2f5bc015-0a98-4a0d-a50f-f7181e1d6abe"},"vehicle_type_id":"4","last_reported":1744567991,"current_range_meters":8400,"station_id":"","pricing_plan_id":"cebpf4jnsgd1na2vs0mg"},{"bike_id":"6332dff1-8fbb-4967-8288-5a5979b66493","system_id":"levelo_inurba_marseille","lat":43.26032,"lon":5.37558,"is_reserved":false,"is_disabled":false,"rental_uris":{"android":"levelo://app?vid=6332dff1-8fbb-4967-8288-5a5979b66493","ios":"levelo://app?vid=6332dff1-8fbb-4967-8288-5a5979b66493"},"vehicle_type_id":"4","last_reported":1744567991,"current_range_meters":8000,"station_id":"ce4bhgh2rcd13ifvqfa0","pricing_plan_id":"cebpf4jnsgd1na2vs0mg"},{"bike_id":"4f38e127-be9f-468e-8871-e9cd4f365dca","system_id":"levelo_inurba_marseille","lat":43.24677,"lon":5.41158,"is_reserved":false,"is_disabled":false,"rental_uris":{"android":"levelo://app?vid=4f38e127-be9f-468e-8871-e9cd4f365dca","ios":"levelo://app?vid=4f38e127-be9f-468e-8871-e9cd4f365dca"},"vehicle_type_id":"4","last_reported":1744567991,"current_range_meters":8400,"station_id":"","pricing_plan_id":"cebpf4jnsgd1na2vs0mg"},{"bike_id":"b7e965ff-4854-44fc-8e2a-103893462049","system_id":"levelo_inurba_marseille","lat":43.337444,"lon":5.374475,"is_reserved":false,"is_disabled":true,"rental_uris":{"android":"levelo://app?vid=b7e965ff-4854-44fc-8e2a-103893462049","ios":"levelo://app?vid=b7e965ff-4854-44fc-8e2a-103893462049"},"vehicle_type_id":"4","last_reported":1744567991,"current_range_meters":8400,"station_id":"","pricing_plan_id":"cebpf4jnsgd1na2vs0mg"},{"bike_id":"6d2531dd-ec38-4421-8c76-13884d5ec849","system_id":"levelo_inurba_marseille","lat":43.26958,"lon":5.40274,"is_reserved":false,"is_disabled":false,"rental_uris":{"android":"levelo://app?vid=6d2531dd-ec38-4421-8c76-13884d5ec849","ios":"levelo://app?vid=6d2531dd-ec38-4421-8c76-13884d5ec849"},"vehicle_type_id":"4","last_reported":1744567991,"current_range_meters":8400,"station_id":"cjm6bp8fraef2m0cb0m0","pricing_plan_id":"cebpf4jnsgd1na2vs0mg"},{"bike_id":"164d1649-ff21-4dc9-9f5f-1613beae2b91","system_id":"levelo_inurba_marseille","lat":43.314987,"lon":5.37316,"is_reserved":false,"is_disabled":false,"rental_uris":{"android":"levelo://app?vid=164d1649-ff21-4dc9-9f5f-1613beae2b91","ios":"levelo://app?vid=164d1649-ff21-4dc9-9f5f-1613beae2b91"},"vehicle_type_id":"4","last_reported":1744567991,"current_range_meters":8400,"station_id":"ce4bhhh2rcd13ifvqfk0","pricing_plan_id":"cebpf4jnsgd1na2vs0mg"},{"bike_id":"30cc8b33-f5d2-402b-bc22-73b6e88b3714","system_id":"levelo_inurba_marseille","lat":43.24687,"lon":5.3817,"is_reserved":false,"is_disabled":false,"rental_uris":{"android":"levelo://app?vid=30cc8b33-f5d2-402b-bc22-73b6e88b3714","ios":"levelo://app?vid=30cc8b33-f5d2-402b-bc22-73b6e88b3714"},"vehicle_type_id":"4","last_reported":1744567991,"current_range_meters":8400,"station_id":"ce4bhih2rcd13ifvqfr0","pricing_plan_id":"cebpf4jnsgd1na2vs0mg"},{"bike_id":"76450c2c-888f-4d08-a5c0-d825237615aa","system_id":"levelo_inurba_marseille","lat":43.27227,"lon":5.42302,"is_reserved":false,"is_disabled":false,"rental_uris":{"android":"levelo://app?vid=76450c2c-888f-4d08-a5c0-d825237615aa","ios":"levelo://app?vid=76450c2c-888f-4d08-a5c0-d825237615aa"},"vehicle_type_id":"4","last_reported":1744567991,"current_range_meters":8800,"station_id":"","pricing_plan_id":"cebpf4jnsgd1na2vs0mg"},{"bike_id":"f7843f46-58aa-4cf6-a1d0-1b94b16f71c2","system_id":"levelo_inurba_marseille","lat":43.29851,"lon":5.39674,"is_reserved":false,"is_disabled":false,"rental_uris":{"android":"levelo://app?vid=f7843f46-58aa-4cf6-a1d0-1b94b16f71c2","ios":"levelo://app?vid=f7843f46-58aa-4cf6-a1d0-1b94b16f71c2"},"vehicle_type_id":"4","last_reported":1744567991,"current_range_meters":8800,"station_id":"ce4bh0h2rcd13ifvqd50","pricing_plan_id":"cebpf4jnsgd1na2vs0mg"},{"bike_id":"49ee7a2d-b87d-42ef-bdb3-cf1b5b3fae9b","system_id":"levelo_inurba_marseille","lat":43.2418,"lon":5.36428,"is_reserved":false,"is_disabled":false,"rental_uris":{"android":"levelo://app?vid=49ee7a2d-b87d-42ef-bdb3-cf1b5b3fae9b","ios":"levelo://app?vid=49ee7a2d-b87d-42ef-bdb3-cf1b5b3fae9b"},"vehicle_type_id":"4","last_reported":1744567991,"current_range_meters":8800,"station_id":"cpo36qri1sfpv3e86is0","pricing_plan_id":"cebpf4jnsgd1na2vs0mg"},{"bike_id":"8aaae1ba-3a36-4b9c-ba18-aa48a1dd20eb","system_id":"levelo_inurba_marseille","lat":43.31167,"lon":5.38716,"is_reserved":false,"is_disabled":false,"rental_uris":{"android":"levelo://app?vid=8aaae1ba-3a36-4b9c-ba18-aa48a1dd20eb","ios":"levelo://app?vid=8aaae1ba-3a36-4b9c-ba18-aa48a1dd20eb"},"vehicle_type_id":"4","last_reported":1744567991,"current_range_meters":8800,"station_id":"ce4bgv12rcd13ifvqcp0","pricing_plan_id":"cebpf4jnsgd1na2vs0mg"},{"bike_id":"6e2ac28e-dfb7-46b8-8016-b7ae92b2a4f0","system_id":"levelo_inurba_marseille","lat":43.27976,"lon":5.40048,"is_reserved":false,"is_disabled":false,"rental_uris":{"android":"levelo://app?vid=6e2ac28e-dfb7-46b8-8016-b7ae92b2a4f0","ios":"levelo://app?vid=6e2ac28e-dfb7-46b8-8016-b7ae92b2a4f0"},"vehicle_type_id":"4","last_reported":1744567991,"current_range_meters":8800,"station_id":"ce4bho92rcd13ifvqh4g","pricing_plan_id":"cebpf4jnsgd1na2vs0mg"},{"bike_id":"eef662bd-49fa-4185-a5f5-5664aa402854","system_id":"levelo_inurba_marseille","lat":43.22943,"lon":5.35384,"is_reserved":false,"is_disabled":false,"rental_uris":{"android":"levelo://app?vid=eef662bd-49fa-4185-a5f5-5664aa402854","ios":"levelo://app?vid=eef662bd-49fa-4185-a5f5-5664aa402854"},"vehicle_type_id":"4","last_reported":1744567991,"current_range_meters":8800,"station_id":"cpo3532slgdg3j2ikp40","pricing_plan_id":"cebpf4jnsgd1na2vs0mg"},{"bike_id":"998bf81d-ad9f-4ed4-abc9-e0d2ed6ed276","system_id":"levelo_inurba_marseille","lat":43.231913,"lon":5.355593,"is_reserved":false,"is_disabled":true,"rental_uris":{"android":"levelo://app?vid=998bf81d-ad9f-4ed4-abc9-e0d2ed6ed276","ios":"levelo://app?vid=998bf81d-ad9f-4ed4-abc9-e0d2ed6ed276"},"vehicle_type_id":"4","last_reported":1744567991,"current_range_meters":8800,"station_id":"ce4bhu92rcd13ifvqi70","pricing_plan_id":"cebpf4jnsgd1na2vs0mg"},{"bike_id":"ae8f4d5b-5fab-4830-add3-8a55c9c447eb","system_id":"levelo_inurba_marseille","lat":43.296271,"lon":5.377206,"is_reserved":false,"is_disabled":false,"rental_uris":{"android":"levelo://app?vid=ae8f4d5b-5fab-4830-add3-8a55c9c447eb","ios":"levelo://app?vid=ae8f4d5b-5fab-4830-add3-8a55c9c447eb"},"vehicle_type_id":"4","last_reported":1744567991,"current_range_meters":8800,"station_id":"ce4bgv12rcd13ifvqcp0","pricing_plan_id":"cebpf4jnsgd1na2vs0mg"},{"bike_id":"e55a7388-b998-4dd6-8437-9951b712d9fa","system_id":"levelo_inurba_marseille","lat":43.330272,"lon":5.390186,"is_reserved":false,"is_disabled":false,"rental_uris":{"android":"levelo://app?vid=e55a7388-b998-4dd6-8437-9951b712d9fa","ios":"levelo://app?vid=e55a7388-b998-4dd6-8437-9951b712d9fa"},"vehicle_type_id":"4","last_reported":1744567991,"current_range_meters":8400,"station_id":"ce4bhqp2rcd13ifvqhng","pricing_plan_id":"cebpf4jnsgd1na2vs0mg"},{"bike_id":"c14a3d0e-03f7-430a-80a8-18644645ea89","system_id":"levelo_inurba_marseille","lat":43.32375,"lon":5.40601,"is_reserved":false,"is_disabled":false,"rental_uris":{"android":"levelo://app?vid=c14a3d0e-03f7-430a-80a8-18644645ea89","ios":"levelo://app?vid=c14a3d0e-03f7-430a-80a8-18644645ea89"},"vehicle_type_id":"4","last_reported":1744567991,"current_range_meters":8800,"station_id":"ce4bhq92rcd13ifvqhjg","pricing_plan_id":"cebpf4jnsgd1na2vs0mg"},{"bike_id":"0c30a5d7-82b9-4bb2-9032-224893c69d2f","system_id":"levelo_inurba_marseille","lat":43.26524,"lon":5.39561,"is_reserved":false,"is_disabled":true,"rental_uris":{"android":"levelo://app?vid=0c30a5d7-82b9-4bb2-9032-224893c69d2f","ios":"levelo://app?vid=0c30a5d7-82b9-4bb2-9032-224893c69d2f"},"vehicle_type_id":"4","last_reported":1744567991,"current_range_meters":9200,"station_id":"ce4bhi12rcd13ifvqfq0","pricing_plan_id":"cebpf4jnsgd1na2vs0mg"},{"bike_id":"91fffdcd-2fa7-4f34-b242-95e7e93ac05b","system_id":"levelo_inurba_marseille","lat":43.2636,"lon":5.39747,"is_reserved":false,"is_disabled":false,"rental_uris":{"android":"levelo://app?vid=91fffdcd-2fa7-4f34-b242-95e7e93ac05b","ios":"levelo://app?vid=91fffdcd-2fa7-4f34-b242-95e7e93ac05b"},"vehicle_type_id":"4","last_reported":1744567991,"current_range_meters":9200,"station_id":"","pricing_plan_id":"cebpf4jnsgd1na2vs0mg"},{"bike_id":"25bf38f8-4e94-423e-92d8-ef479d596820","system_id":"levelo_inurba_marseille","lat":43.28927,"lon":5.36637,"is_reserved":false,"is_disabled":false,"rental_uris":{"android":"levelo://app?vid=25bf38f8-4e94-423e-92d8-ef479d596820","ios":"levelo://app?vid=25bf38f8-4e94-423e-92d8-ef479d596820"},"vehicle_type_id":"4","last_reported":1744567991,"current_range_meters":9200,"station_id":"ce4bhap2rcd13ifvqek0","pricing_plan_id":"cebpf4jnsgd1na2vs0mg"},{"bike_id":"71d40569-e314-4368-a739-0a1886744f4a","system_id":"levelo_inurba_marseille","lat":43.29519,"lon":5.39029,"is_reserved":false,"is_disabled":false,"rental_uris":{"android":"levelo://app?vid=71d40569-e314-4368-a739-0a1886744f4a","ios":"levelo://app?vid=71d40569-e314-4368-a739-0a1886744f4a"},"vehicle_type_id":"4","last_reported":1744567991,"current_range_meters":9200,"station_id":"ce4bh3p2rcd13ifvqdp0","pricing_plan_id":"cebpf4jnsgd1na2vs0mg"},{"bike_id":"f7cd819f-b752-47cc-848d-ff43c669ccb8","system_id":"levelo_inurba_marseille","lat":43.30979,"lon":5.417202,"is_reserved":false,"is_disabled":false,"rental_uris":{"android":"levelo://app?vid=f7cd819f-b752-47cc-848d-ff43c669ccb8","ios":"levelo://app?vid=f7cd819f-b752-47cc-848d-ff43c669ccb8"},"vehicle_type_id":"4","last_reported":1744567991,"current_range_meters":9600,"station_id":"","pricing_plan_id":"cebpf4jnsgd1na2vs0mg"},{"bike_id":"5f141aa8-12ce-4f1a-a780-25143a8dc6df","system_id":"levelo_inurba_marseille","lat":43.30418,"lon":5.41287,"is_reserved":false,"is_disabled":false,"rental_uris":{"android":"levelo://app?vid=5f141aa8-12ce-4f1a-a780-25143a8dc6df","ios":"levelo://app?vid=5f141aa8-12ce-4f1a-a780-25143a8dc6df"},"vehicle_type_id":"4","last_reported":1744567991,"current_range_meters":9600,"station_id":"ce4bhop2rcd13ifvqh8g","pricing_plan_id":"cebpf4jnsgd1na2vs0mg"},{"bike_id":"16fc171c-555e-4974-b66f-bf675293813c","system_id":"levelo_inurba_marseille","lat":43.29261,"lon":5.38435,"is_reserved":false,"is_disabled":false,"rental_uris":{"android":"levelo://app?vid=16fc171c-555e-4974-b66f-bf675293813c","ios":"levelo://app?vid=16fc171c-555e-4974-b66f-bf675293813c"},"vehicle_type_id":"4","last_reported":1744567991,"current_range_meters":9600,"station_id":"ce4bh692rcd13ifvqea0","pricing_plan_id":"cebpf4jnsgd1na2vs0mg"},{"bike_id":"1578cdda-fa32-4486-ac62-617f457b0927","system_id":"levelo_inurba_marseille","lat":43.29014,"lon":5.35598,"is_reserved":false,"is_disabled":true,"rental_uris":{"android":"levelo://app?vid=1578cdda-fa32-4486-ac62-617f457b0927","ios":"levelo://app?vid=1578cdda-fa32-4486-ac62-617f457b0927"},"vehicle_type_id":"4","last_reported":1744567991,"current_range_meters":9600,"station_id":"ce4bhb92rcd13ifvqen0","pricing_plan_id":"cebpf4jnsgd1na2vs0mg"},{"bike_id":"a649512c-9a41-4a38-bba6-8fa39f9d658a","system_id":"levelo_inurba_marseille","lat":43.29511,"lon":5.39401,"is_reserved":false,"is_disabled":false,"rental_uris":{"android":"levelo://app?vid=a649512c-9a41-4a38-bba6-8fa39f9d658a","ios":"levelo://app?vid=a649512c-9a41-4a38-bba6-8fa39f9d658a"},"vehicle_type_id":"4","last_reported":1744567991,"current_range_meters":9600,"station_id":"ce4bh292rcd13ifvqdf0","pricing_plan_id":"cebpf4jnsgd1na2vs0mg"},{"bike_id":"9551fde3-16f4-4d10-975d-cb415c04ca6e","system_id":"levelo_inurba_marseille","lat":43.29311,"lon":5.37173,"is_reserved":false,"is_disabled":false,"rental_uris":{"android":"levelo://app?vid=9551fde3-16f4-4d10-975d-cb415c04ca6e","ios":"levelo://app?vid=9551fde3-16f4-4d10-975d-cb415c04ca6e"},"vehicle_type_id":"4","last_reported":1744567991,"current_range_meters":9200,"station_id":"ce4bgh92rcd13ifvqb40","pricing_plan_id":"cebpf4jnsgd1na2vs0mg"},{"bike_id":"82d38bd3-c046-4f55-aec8-4eb686f05e29","system_id":"levelo_inurba_marseille","lat":43.22949,"lon":5.35428,"is_reserved":false,"is_disabled":true,"rental_uris":{"android":"levelo://app?vid=82d38bd3-c046-4f55-aec8-4eb686f05e29","ios":"levelo://app?vid=82d38bd3-c046-4f55-aec8-4eb686f05e29"},"vehicle_type_id":"4","last_reported":1744567991,"current_range_meters":9600,"station_id":"cpo3532slgdg3j2ikp40","pricing_plan_id":"cebpf4jnsgd1na2vs0mg"},{"bike_id":"c127d1a8-0150-4856-a57b-18fd29314b2c","system_id":"levelo_inurba_marseille","lat":43.324799,"lon":5.365659,"is_reserved":false,"is_disabled":false,"rental_uris":{"android":"levelo://app?vid=c127d1a8-0150-4856-a57b-18fd29314b2c","ios":"levelo://app?vid=c127d1a8-0150-4856-a57b-18fd29314b2c"},"vehicle_type_id":"4","last_reported":1744567991,"current_range_meters":9600,"station_id":"ce4bhs12rcd13ifvqhvg","pricing_plan_id":"cebpf4jnsgd1na2vs0mg"},{"bike_id":"4d49d7bf-c387-4802-8134-39419f66ab07","system_id":"levelo_inurba_marseille","lat":43.25121,"lon":5.39478,"is_reserved":false,"is_disabled":false,"rental_uris":{"android":"levelo://app?vid=4d49d7bf-c387-4802-8134-39419f66ab07","ios":"levelo://app?vid=4d49d7bf-c387-4802-8134-39419f66ab07"},"vehicle_type_id":"4","last_reported":1744567991,"current_range_meters":9600,"station_id":"ce4bhm12rcd13ifvqgkg","pricing_plan_id":"cebpf4jnsgd1na2vs0mg"},{"bike_id":"efd328ca-f8bf-4550-bd94-c2fd75978f3c","system_id":"levelo_inurba_marseille","lat":43.3306,"lon":5.38093,"is_reserved":false,"is_disabled":false,"rental_uris":{"android":"levelo://app?vid=efd328ca-f8bf-4550-bd94-c2fd75978f3c","ios":"levelo://app?vid=efd328ca-f8bf-4550-bd94-c2fd75978f3c"},"vehicle_type_id":"4","last_reported":1744567991,"current_range_meters":9600,"station_id":"","pricing_plan_id":"cebpf4jnsgd1na2vs0mg"},{"bike_id":"0466111f-5036-4e3a-ba21-2db1e2eda2fe","system_id":"levelo_inurba_marseille","lat":43.24805,"lon":5.37458,"is_reserved":false,"is_disabled":false,"rental_uris":{"android":"levelo://app?vid=0466111f-5036-4e3a-ba21-2db1e2eda2fe","ios":"levelo://app?vid=0466111f-5036-4e3a-ba21-2db1e2eda2fe"},"vehicle_type_id":"4","last_reported":1744567991,"current_range_meters":9600,"station_id":"ce4bhgh2rcd13ifvqfb0","pricing_plan_id":"cebpf4jnsgd1na2vs0mg"},{"bike_id":"e3033e51-0403-4e5c-9649-cc323385bf93","system_id":"levelo_inurba_marseille","lat":43.27494,"lon":5.4247,"is_reserved":false,"is_disabled":false,"rental_uris":{"android":"levelo://app?vid=e3033e51-0403-4e5c-9649-cc323385bf93","ios":"levelo://app?vid=e3033e51-0403-4e5c-9649-cc323385bf93"},"vehicle_type_id":"4","last_reported":1744567991,"current_range_meters":10000,"station_id":"ce4bhn92rcd13ifvqgrg","pricing_plan_id":"cebpf4jnsgd1na2vs0mg"},{"bike_id":"12aec038-db5e-4d5d-a5cf-e01dc2e28ea3","system_id":"levelo_inurba_marseille","lat":43.30114,"lon":5.405033,"is_reserved":false,"is_disabled":true,"rental_uris":{"android":"levelo://app?vid=12aec038-db5e-4d5d-a5cf-e01dc2e28ea3","ios":"levelo://app?vid=12aec038-db5e-4d5d-a5cf-e01dc2e28ea3"},"vehicle_type_id":"4","last_reported":1744567991,"current_range_meters":10000,"station_id":"","pricing_plan_id":"cebpf4jnsgd1na2vs0mg"},{"bike_id":"cf1cfdc0-9d07-445a-913c-ea13b7ebe022","system_id":"levelo_inurba_marseille","lat":43.286926,"lon":5.399799,"is_reserved":false,"is_disabled":false,"rental_uris":{"android":"levelo://app?vid=cf1cfdc0-9d07-445a-913c-ea13b7ebe022","ios":"levelo://app?vid=cf1cfdc0-9d07-445a-913c-ea13b7ebe022"},"vehicle_type_id":"4","last_reported":1744567991,"current_range_meters":10000,"station_id":"ce4bgk12rcd13ifvqbj0","pricing_plan_id":"cebpf4jnsgd1na2vs0mg"},{"bike_id":"b55dd5e7-54b2-4035-b945-7b626dd7afc7","system_id":"levelo_inurba_marseille","lat":43.27524,"lon":5.40896,"is_reserved":false,"is_disabled":false,"rental_uris":{"android":"levelo://app?vid=b55dd5e7-54b2-4035-b945-7b626dd7afc7","ios":"levelo://app?vid=b55dd5e7-54b2-4035-b945-7b626dd7afc7"},"vehicle_type_id":"4","last_reported":1744567991,"current_range_meters":10000,"station_id":"","pricing_plan_id":"cebpf4jnsgd1na2vs0mg"},{"bike_id":"982bb1bc-457f-43d7-ae21-85035c856353","system_id":"levelo_inurba_marseille","lat":43.22502,"lon":5.34778,"is_reserved":false,"is_disabled":true,"rental_uris":{"android":"levelo://app?vid=982bb1bc-457f-43d7-ae21-85035c856353","ios":"levelo://app?vid=982bb1bc-457f-43d7-ae21-85035c856353"},"vehicle_type_id":"4","last_reported":1744567991,"current_range_meters":10000,"station_id":"st_cvj5dfep6f1abm77gieg","pricing_plan_id":"cebpf4jnsgd1na2vs0mg"},{"bike_id":"4a4c79c7-6199-44fa-9eae-cd52a08aafaa","system_id":"levelo_inurba_marseille","lat":43.28408,"lon":5.37516,"is_reserved":false,"is_disabled":false,"rental_uris":{"android":"levelo://app?vid=4a4c79c7-6199-44fa-9eae-cd52a08aafaa","ios":"levelo://app?vid=4a4c79c7-6199-44fa-9eae-cd52a08aafaa"},"vehicle_type_id":"4","last_reported":1744567991,"current_range_meters":10000,"station_id":"ce4bh412rcd13ifvqds0","pricing_plan_id":"cebpf4jnsgd1na2vs0mg"},{"bike_id":"bdcfa5e1-b481-48ab-a173-847c43fcda83","system_id":"levelo_inurba_marseille","lat":43.32358,"lon":5.40636,"is_reserved":false,"is_disabled":false,"rental_uris":{"android":"levelo://app?vid=bdcfa5e1-b481-48ab-a173-847c43fcda83","ios":"levelo://app?vid=bdcfa5e1-b481-48ab-a173-847c43fcda83"},"vehicle_type_id":"4","last_reported":1744567991,"current_range_meters":10000,"station_id":"ce4bhq92rcd13ifvqhjg","pricing_plan_id":"cebpf4jnsgd1na2vs0mg"},{"bike_id":"020e9999-d552-48d0-ae5f-b725af0dbea2","system_id":"levelo_inurba_marseille","lat":43.29915,"lon":5.43778,"is_reserved":false,"is_disabled":false,"rental_uris":{"android":"levelo://app?vid=020e9999-d552-48d0-ae5f-b725af0dbea2","ios":"levelo://app?vid=020e9999-d552-48d0-ae5f-b725af0dbea2"},"vehicle_type_id":"4","last_reported":1744567991,"current_range_meters":10000,"station_id":"","pricing_plan_id":"cebpf4jnsgd1na2vs0mg"},{"bike_id":"2d5fd1ce-f1e7-4fd6-a04e-c47843987918","system_id":"levelo_inurba_marseille","lat":43.27546,"lon":5.38442,"is_reserved":false,"is_disabled":false,"rental_uris":{"android":"levelo://app?vid=2d5fd1ce-f1e7-4fd6-a04e-c47843987918","ios":"levelo://app?vid=2d5fd1ce-f1e7-4fd6-a04e-c47843987918"},"vehicle_type_id":"4","last_reported":1744567991,"current_range_meters":10000,"station_id":"ce4bhh92rcd13ifvqfi0","pricing_plan_id":"cebpf4jnsgd1na2vs0mg"},{"bike_id":"a3bf51d9-08b7-458c-9b6d-ef5680cc95d6","system_id":"levelo_inurba_marseille","lat":43.21743,"lon":5.34609,"is_reserved":false,"is_disabled":true,"rental_uris":{"android":"levelo://app?vid=a3bf51d9-08b7-458c-9b6d-ef5680cc95d6","ios":"levelo://app?vid=a3bf51d9-08b7-458c-9b6d-ef5680cc95d6"},"vehicle_type_id":"4","last_reported":1744567991,"current_range_meters":10000,"station_id":"st_cvj6r9ubvosntc0bgbag","pricing_plan_id":"cebpf4jnsgd1na2vs0mg"},{"bike_id":"71d758d9-e1f9-440e-be18-d9a62c8ebcd3","system_id":"levelo_inurba_marseille","lat":43.27914,"lon":5.39574,"is_reserved":false,"is_disabled":false,"rental_uris":{"android":"levelo://app?vid=71d758d9-e1f9-440e-be18-d9a62c8ebcd3","ios":"levelo://app?vid=71d758d9-e1f9-440e-be18-d9a62c8ebcd3"},"vehicle_type_id":"4","last_reported":1744567991,"current_range_meters":10000,"station_id":"ce4bhf92rcd13ifvqf40","pricing_plan_id":"cebpf4jnsgd1na2vs0mg"},{"bike_id":"8d6e33f7-4620-4bbf-8ed9-99ede76492f2","system_id":"levelo_inurba_marseille","lat":43.30332,"lon":5.40444,"is_reserved":false,"is_disabled":false,"rental_uris":{"android":"levelo://app?vid=8d6e33f7-4620-4bbf-8ed9-99ede76492f2","ios":"levelo://app?vid=8d6e33f7-4620-4bbf-8ed9-99ede76492f2"},"vehicle_type_id":"4","last_reported":1744567991,"current_range_meters":10000,"station_id":"ce4bh012rcd13ifvqd10","pricing_plan_id":"cebpf4jnsgd1na2vs0mg"},{"bike_id":"bb035562-0d08-4b52-a81a-3649fd2bad87","system_id":"levelo_inurba_marseille","lat":43.24109,"lon":5.3779,"is_reserved":false,"is_disabled":false,"rental_uris":{"android":"levelo://app?vid=bb035562-0d08-4b52-a81a-3649fd2bad87","ios":"levelo://app?vid=bb035562-0d08-4b52-a81a-3649fd2bad87"},"vehicle_type_id":"4","last_reported":1744567991,"current_range_meters":10000,"station_id":"ce4bhnp2rcd13ifvqgvg","pricing_plan_id":"cebpf4jnsgd1na2vs0mg"},{"bike_id":"b4f3b0ea-aa8e-4318-abf0-cc5604d6a412","system_id":"levelo_inurba_marseille","lat":43.29526,"lon":5.39041,"is_reserved":false,"is_disabled":false,"rental_uris":{"android":"levelo://app?vid=b4f3b0ea-aa8e-4318-abf0-cc5604d6a412","ios":"levelo://app?vid=b4f3b0ea-aa8e-4318-abf0-cc5604d6a412"},"vehicle_type_id":"4","last_reported":1744567991,"current_range_meters":10800,"station_id":"ce4bh3p2rcd13ifvqdp0","pricing_plan_id":"cebpf4jnsgd1na2vs0mg"},{"bike_id":"7f6c4363-715d-4f42-b9a9-3392906a5fa6","system_id":"levelo_inurba_marseille","lat":43.24695,"lon":5.38192,"is_reserved":false,"is_disabled":false,"rental_uris":{"android":"levelo://app?vid=7f6c4363-715d-4f42-b9a9-3392906a5fa6","ios":"levelo://app?vid=7f6c4363-715d-4f42-b9a9-3392906a5fa6"},"vehicle_type_id":"4","last_reported":1744567991,"current_range_meters":10800,"station_id":"ce4bhih2rcd13ifvqfr0","pricing_plan_id":"cebpf4jnsgd1na2vs0mg"},{"bike_id":"5bd83869-317c-4f7d-93ed-182a084c5a24","system_id":"levelo_inurba_marseille","lat":43.25722,"lon":5.41132,"is_reserved":false,"is_disabled":false,"rental_uris":{"android":"levelo://app?vid=5bd83869-317c-4f7d-93ed-182a084c5a24","ios":"levelo://app?vid=5bd83869-317c-4f7d-93ed-182a084c5a24"},"vehicle_type_id":"4","last_reported":1744567991,"current_range_meters":10800,"station_id":"ce4bhkp2rcd13ifvqgd0","pricing_plan_id":"cebpf4jnsgd1na2vs0mg"},{"bike_id":"42afec47-1988-4b59-864f-1245dd72cf46","system_id":"levelo_inurba_marseille","lat":43.24388,"lon":5.37066,"is_reserved":false,"is_disabled":false,"rental_uris":{"android":"levelo://app?vid=42afec47-1988-4b59-864f-1245dd72cf46","ios":"levelo://app?vid=42afec47-1988-4b59-864f-1245dd72cf46"},"vehicle_type_id":"4","last_reported":1744567991,"current_range_meters":10800,"station_id":"ce4bhhh2rcd13ifvqfk0","pricing_plan_id":"cebpf4jnsgd1na2vs0mg"},{"bike_id":"d8b9884b-4022-4710-9f87-50e0dbfd421d","system_id":"levelo_inurba_marseille","lat":43.24171,"lon":5.36402,"is_reserved":false,"is_disabled":false,"rental_uris":{"android":"levelo://app?vid=d8b9884b-4022-4710-9f87-50e0dbfd421d","ios":"levelo://app?vid=d8b9884b-4022-4710-9f87-50e0dbfd421d"},"vehicle_type_id":"4","last_reported":1744567991,"current_range_meters":10800,"station_id":"cpo36qri1sfpv3e86is0","pricing_plan_id":"cebpf4jnsgd1na2vs0mg"},{"bike_id":"73bbc97d-2b39-4276-bc22-fd7aa78f429c","system_id":"levelo_inurba_marseille","lat":43.29928,"lon":5.43694,"is_reserved":false,"is_disabled":false,"rental_uris":{"android":"levelo://app?vid=73bbc97d-2b39-4276-bc22-fd7aa78f429c","ios":"levelo://app?vid=73bbc97d-2b39-4276-bc22-fd7aa78f429c"},"vehicle_type_id":"4","last_reported":1744567991,"current_range_meters":10800,"station_id":"","pricing_plan_id":"cebpf4jnsgd1na2vs0mg"},{"bike_id":"3916418f-b4f9-4254-8802-85b931729b7d","system_id":"levelo_inurba_marseille","lat":43.29273,"lon":5.36851,"is_reserved":false,"is_disabled":false,"rental_uris":{"android":"levelo://app?vid=3916418f-b4f9-4254-8802-85b931729b7d","ios":"levelo://app?vid=3916418f-b4f9-4254-8802-85b931729b7d"},"vehicle_type_id":"4","last_reported":1744567991,"current_range_meters":10800,"station_id":"ce4bhbp2rcd13ifvqesg","pricing_plan_id":"cebpf4jnsgd1na2vs0mg"},{"bike_id":"91597340-53ca-4eab-9359-48aed3016561","system_id":"levelo_inurba_marseille","lat":43.28271,"lon":5.35056,"is_reserved":false,"is_disabled":false,"rental_uris":{"android":"levelo://app?vid=91597340-53ca-4eab-9359-48aed3016561","ios":"levelo://app?vid=91597340-53ca-4eab-9359-48aed3016561"},"vehicle_type_id":"4","last_reported":1744567991,"current_range_meters":10800,"station_id":"ce4bhbp2rcd13ifvqerg","pricing_plan_id":"cebpf4jnsgd1na2vs0mg"},{"bike_id":"4bbe6e48-9bfa-4dec-aab0-5597477f7da1","system_id":"levelo_inurba_marseille","lat":43.32412,"lon":5.39141,"is_reserved":false,"is_disabled":false,"rental_uris":{"android":"levelo://app?vid=4bbe6e48-9bfa-4dec-aab0-5597477f7da1","ios":"levelo://app?vid=4bbe6e48-9bfa-4dec-aab0-5597477f7da1"},"vehicle_type_id":"4","last_reported":1744567991,"current_range_meters":10800,"station_id":"","pricing_plan_id":"cebpf4jnsgd1na2vs0mg"},{"bike_id":"74033c2a-b7f6-4c8d-ac29-e121a0ca295b","system_id":"levelo_inurba_marseille","lat":43.31217,"lon":5.36849,"is_reserved":false,"is_disabled":false,"rental_uris":{"android":"levelo://app?vid=74033c2a-b7f6-4c8d-ac29-e121a0ca295b","ios":"levelo://app?vid=74033c2a-b7f6-4c8d-ac29-e121a0ca295b"},"vehicle_type_id":"4","last_reported":1744567991,"current_range_meters":10800,"station_id":"ce4bgl92rcd13ifvqbq0","pricing_plan_id":"cebpf4jnsgd1na2vs0mg"},{"bike_id":"31543c71-8eef-4890-8eca-7d28c11e1556","system_id":"levelo_inurba_marseille","lat":43.30129,"lon":5.39875,"is_reserved":false,"is_disabled":false,"rental_uris":{"android":"levelo://app?vid=31543c71-8eef-4890-8eca-7d28c11e1556","ios":"levelo://app?vid=31543c71-8eef-4890-8eca-7d28c11e1556"},"vehicle_type_id":"4","last_reported":1744567991,"current_range_meters":11200,"station_id":"ce4bh0h2rcd13ifvqd40","pricing_plan_id":"cebpf4jnsgd1na2vs0mg"},{"bike_id":"31a5cd39-aa99-4783-9f9c-4887d3302fbe","system_id":"levelo_inurba_marseille","lat":43.31074,"lon":5.38364,"is_reserved":false,"is_disabled":false,"rental_uris":{"android":"levelo://app?vid=31a5cd39-aa99-4783-9f9c-4887d3302fbe","ios":"levelo://app?vid=31a5cd39-aa99-4783-9f9c-4887d3302fbe"},"vehicle_type_id":"4","last_reported":1744567991,"current_range_meters":11200,"station_id":"ce4bgv92rcd13ifvqcr0","pricing_plan_id":"cebpf4jnsgd1na2vs0mg"},{"bike_id":"d49ed5f3-63dd-41d8-a7c3-7b7860b035b1","system_id":"levelo_inurba_marseille","lat":43.248198,"lon":5.374653,"is_reserved":false,"is_disabled":true,"rental_uris":{"android":"levelo://app?vid=d49ed5f3-63dd-41d8-a7c3-7b7860b035b1","ios":"levelo://app?vid=d49ed5f3-63dd-41d8-a7c3-7b7860b035b1"},"vehicle_type_id":"4","last_reported":1744567991,"current_range_meters":11200,"station_id":"ce4bhgh2rcd13ifvqfb0","pricing_plan_id":"cebpf4jnsgd1na2vs0mg"},{"bike_id":"5591936e-ca63-41c7-89f3-9c9493c86f89","system_id":"levelo_inurba_marseille","lat":43.24164,"lon":5.36405,"is_reserved":false,"is_disabled":false,"rental_uris":{"android":"levelo://app?vid=5591936e-ca63-41c7-89f3-9c9493c86f89","ios":"levelo://app?vid=5591936e-ca63-41c7-89f3-9c9493c86f89"},"vehicle_type_id":"4","last_reported":1744567991,"current_range_meters":11200,"station_id":"cpo36qri1sfpv3e86is0","pricing_plan_id":"cebpf4jnsgd1na2vs0mg"},{"bike_id":"456a2724-f2b0-4a39-a058-f4e2e199416a","system_id":"levelo_inurba_marseille","lat":43.25725,"lon":5.41108,"is_reserved":false,"is_disabled":false,"rental_uris":{"android":"levelo://app?vid=456a2724-f2b0-4a39-a058-f4e2e199416a","ios":"levelo://app?vid=456a2724-f2b0-4a39-a058-f4e2e199416a"},"vehicle_type_id":"4","last_reported":1744567991,"current_range_meters":11200,"station_id":"ce4bhkp2rcd13ifvqgd0","pricing_plan_id":"cebpf4jnsgd1na2vs0mg"},{"bike_id":"dc6aad21-ae61-4621-9ef0-c9bd2b9caa5a","system_id":"levelo_inurba_marseille","lat":43.22525,"lon":5.34806,"is_reserved":false,"is_disabled":false,"rental_uris":{"android":"levelo://app?vid=dc6aad21-ae61-4621-9ef0-c9bd2b9caa5a","ios":"levelo://app?vid=dc6aad21-ae61-4621-9ef0-c9bd2b9caa5a"},"vehicle_type_id":"4","last_reported":1744567991,"current_range_meters":11200,"station_id":"st_cvj5dfep6f1abm77gieg","pricing_plan_id":"cebpf4jnsgd1na2vs0mg"},{"bike_id":"578ed75c-ac7c-4cce-a91d-84ec0beb45a3","system_id":"levelo_inurba_marseille","lat":43.32685,"lon":5.41026,"is_reserved":false,"is_disabled":false,"rental_uris":{"android":"levelo://app?vid=578ed75c-ac7c-4cce-a91d-84ec0beb45a3","ios":"levelo://app?vid=578ed75c-ac7c-4cce-a91d-84ec0beb45a3"},"vehicle_type_id":"4","last_reported":1744567991,"current_range_meters":11600,"station_id":"ce4bhpp2rcd13ifvqhgg","pricing_plan_id":"cebpf4jnsgd1na2vs0mg"},{"bike_id":"670350e7-8b16-4095-8222-1a9ab089eb5a","system_id":"levelo_inurba_marseille","lat":43.27933,"lon":5.41065,"is_reserved":false,"is_disabled":false,"rental_uris":{"android":"levelo://app?vid=670350e7-8b16-4095-8222-1a9ab089eb5a","ios":"levelo://app?vid=670350e7-8b16-4095-8222-1a9ab089eb5a"},"vehicle_type_id":"4","last_reported":1744567991,"current_range_meters":11600,"station_id":"ce4bhnp2rcd13ifvqh0g","pricing_plan_id":"cebpf4jnsgd1na2vs0mg"},{"bike_id":"8722274c-0b23-43b5-964b-229803c000cb","system_id":"levelo_inurba_marseille","lat":43.30307,"lon":5.36884,"is_reserved":false,"is_disabled":false,"rental_uris":{"android":"levelo://app?vid=8722274c-0b23-43b5-964b-229803c000cb","ios":"levelo://app?vid=8722274c-0b23-43b5-964b-229803c000cb"},"vehicle_type_id":"4","last_reported":1744567991,"current_range_meters":11600,"station_id":"ce4bgqh2rcd13ifvqc5g","pricing_plan_id":"cebpf4jnsgd1na2vs0mg"},{"bike_id":"4d874086-2615-45ee-92bb-518b7ad00a4d","system_id":"levelo_inurba_marseille","lat":43.30954,"lon":5.39068,"is_reserved":false,"is_disabled":true,"rental_uris":{"android":"levelo://app?vid=4d874086-2615-45ee-92bb-518b7ad00a4d","ios":"levelo://app?vid=4d874086-2615-45ee-92bb-518b7ad00a4d"},"vehicle_type_id":"4","last_reported":1744567991,"current_range_meters":11600,"station_id":"ce4bgup2rcd13ifvqco0","pricing_plan_id":"cebpf4jnsgd1na2vs0mg"},{"bike_id":"239b457a-7da8-49b2-9197-3c47133b2b7d","system_id":"levelo_inurba_marseille","lat":43.29039,"lon":5.39946,"is_reserved":false,"is_disabled":true,"rental_uris":{"android":"levelo://app?vid=239b457a-7da8-49b2-9197-3c47133b2b7d","ios":"levelo://app?vid=239b457a-7da8-49b2-9197-3c47133b2b7d"},"vehicle_type_id":"4","last_reported":1744567991,"current_range_meters":11600,"station_id":"ce4bh392rcd13ifvqdm0","pricing_plan_id":"cebpf4jnsgd1na2vs0mg"},{"bike_id":"eeecd2fe-6254-4002-abf4-dbb4c5b284dc","system_id":"levelo_inurba_marseille","lat":43.27994,"lon":5.41662,"is_reserved":false,"is_disabled":true,"rental_uris":{"android":"levelo://app?vid=eeecd2fe-6254-4002-abf4-dbb4c5b284dc","ios":"levelo://app?vid=eeecd2fe-6254-4002-abf4-dbb4c5b284dc"},"vehicle_type_id":"4","last_reported":1744567991,"current_range_meters":12000,"station_id":"ce4bho12rcd13ifvqh1g","pricing_plan_id":"cebpf4jnsgd1na2vs0mg"},{"bike_id":"e4d09c4d-6d26-41a3-be90-aa089032d47f","system_id":"levelo_inurba_marseille","lat":43.29421,"lon":5.38654,"is_reserved":false,"is_disabled":false,"rental_uris":{"android":"levelo://app?vid=e4d09c4d-6d26-41a3-be90-aa089032d47f","ios":"levelo://app?vid=e4d09c4d-6d26-41a3-be90-aa089032d47f"},"vehicle_type_id":"4","last_reported":1744567991,"current_range_meters":12000,"station_id":"ce4bh2h2rcd13ifvqdh0","pricing_plan_id":"cebpf4jnsgd1na2vs0mg"},{"bike_id":"97ebc5a4-6509-4263-844a-004d8274c516","system_id":"levelo_inurba_marseille","lat":43.29046,"lon":5.38665,"is_reserved":false,"is_disabled":false,"rental_uris":{"android":"levelo://app?vid=97ebc5a4-6509-4263-844a-004d8274c516","ios":"levelo://app?vid=97ebc5a4-6509-4263-844a-004d8274c516"},"vehicle_type_id":"4","last_reported":1744567991,"current_range_meters":12000,"station_id":"ce4bh4p2rcd13ifvqe0g","pricing_plan_id":"cebpf4jnsgd1na2vs0mg"},{"bike_id":"a4ca957f-d584-4674-baf9-828860c47fb0","system_id":"levelo_inurba_marseille","lat":43.29528,"lon":5.38552,"is_reserved":false,"is_disabled":false,"rental_uris":{"android":"levelo://app?vid=a4ca957f-d584-4674-baf9-828860c47fb0","ios":"levelo://app?vid=a4ca957f-d584-4674-baf9-828860c47fb0"},"vehicle_type_id":"4","last_reported":1744567991,"current_range_meters":12000,"station_id":"ce4bgih2rcd13ifvqba0","pricing_plan_id":"cebpf4jnsgd1na2vs0mg"},{"bike_id":"cec9fed2-74bc-4f07-a628-035c465b00b6","system_id":"levelo_inurba_marseille","lat":43.24181,"lon":5.39729,"is_reserved":false,"is_disabled":false,"rental_uris":{"android":"levelo://app?vid=cec9fed2-74bc-4f07-a628-035c465b00b6","ios":"levelo://app?vid=cec9fed2-74bc-4f07-a628-035c465b00b6"},"vehicle_type_id":"4","last_reported":1744567991,"current_range_meters":12000,"station_id":"ce4bhn12rcd13ifvqgpg","pricing_plan_id":"cebpf4jnsgd1na2vs0mg"},{"bike_id":"b0baca58-9b6a-483d-929d-4aa19e86cd27","system_id":"levelo_inurba_marseille","lat":43.25119,"lon":5.40318,"is_reserved":false,"is_disabled":false,"rental_uris":{"android":"levelo://app?vid=b0baca58-9b6a-483d-929d-4aa19e86cd27","ios":"levelo://app?vid=b0baca58-9b6a-483d-929d-4aa19e86cd27"},"vehicle_type_id":"4","last_reported":1744567991,"current_range_meters":12000,"station_id":"ce4bhlh2rcd13ifvqgig","pricing_plan_id":"cebpf4jnsgd1na2vs0mg"},{"bike_id":"752c7e7e-0558-4d1c-97ab-21ef64733ce3","system_id":"levelo_inurba_marseille","lat":43.30885,"lon":5.39657,"is_reserved":false,"is_disabled":false,"rental_uris":{"android":"levelo://app?vid=752c7e7e-0558-4d1c-97ab-21ef64733ce3","ios":"levelo://app?vid=752c7e7e-0558-4d1c-97ab-21ef64733ce3"},"vehicle_type_id":"4","last_reported":1744567991,"current_range_meters":12000,"station_id":"ce4bh012rcd13ifvqcv0","pricing_plan_id":"cebpf4jnsgd1na2vs0mg"},{"bike_id":"dd5be1fc-c320-47c8-84e0-081c7401a2cd","system_id":"levelo_inurba_marseille","lat":43.29011,"lon":5.355828,"is_reserved":false,"is_disabled":false,"rental_uris":{"android":"levelo://app?vid=dd5be1fc-c320-47c8-84e0-081c7401a2cd","ios":"levelo://app?vid=dd5be1fc-c320-47c8-84e0-081c7401a2cd"},"vehicle_type_id":"4","last_reported":1744567991,"current_range_meters":12000,"station_id":"ce4bhb92rcd13ifvqen0","pricing_plan_id":"cebpf4jnsgd1na2vs0mg"},{"bike_id":"6a003e47-a1cc-4c38-b762-6e37af426d05","system_id":"levelo_inurba_marseille","lat":43.323649,"lon":5.367627,"is_reserved":false,"is_disabled":false,"rental_uris":{"android":"levelo://app?vid=6a003e47-a1cc-4c38-b762-6e37af426d05","ios":"levelo://app?vid=6a003e47-a1cc-4c38-b762-6e37af426d05"},"vehicle_type_id":"4","last_reported":1744567991,"current_range_meters":12400,"station_id":"ce4bhsh2rcd13ifvqi2g","pricing_plan_id":"cebpf4jnsgd1na2vs0mg"},{"bike_id":"34f6756b-3176-41ae-9a17-73fda68b3b50","system_id":"levelo_inurba_marseille","lat":43.28933,"lon":5.36634,"is_reserved":false,"is_disabled":false,"rental_uris":{"android":"levelo://app?vid=34f6756b-3176-41ae-9a17-73fda68b3b50","ios":"levelo://app?vid=34f6756b-3176-41ae-9a17-73fda68b3b50"},"vehicle_type_id":"4","last_reported":1744567991,"current_range_meters":12400,"station_id":"ce4bhap2rcd13ifvqek0","pricing_plan_id":"cebpf4jnsgd1na2vs0mg"},{"bike_id":"12e912eb-8935-4835-a87c-15643cfb2bc9","system_id":"levelo_inurba_marseille","lat":43.24661,"lon":5.38174,"is_reserved":false,"is_disabled":false,"rental_uris":{"android":"levelo://app?vid=12e912eb-8935-4835-a87c-15643cfb2bc9","ios":"levelo://app?vid=12e912eb-8935-4835-a87c-15643cfb2bc9"},"vehicle_type_id":"4","last_reported":1744567991,"current_range_meters":12400,"station_id":"ce4bhih2rcd13ifvqfr0","pricing_plan_id":"cebpf4jnsgd1na2vs0mg"},{"bike_id":"114e524a-8e04-4f7f-97f3-1b140c248ad3","system_id":"levelo_inurba_marseille","lat":43.29254,"lon":5.36748,"is_reserved":false,"is_disabled":false,"rental_uris":{"android":"levelo://app?vid=114e524a-8e04-4f7f-97f3-1b140c248ad3","ios":"levelo://app?vid=114e524a-8e04-4f7f-97f3-1b140c248ad3"},"vehicle_type_id":"4","last_reported":1744567991,"current_range_meters":12800,"station_id":"","pricing_plan_id":"cebpf4jnsgd1na2vs0mg"},{"bike_id":"1688937a-a81c-4acc-b123-c931b94f0536","system_id":"levelo_inurba_marseille","lat":43.29851,"lon":5.36282,"is_reserved":false,"is_disabled":false,"rental_uris":{"android":"levelo://app?vid=1688937a-a81c-4acc-b123-c931b94f0536","ios":"levelo://app?vid=1688937a-a81c-4acc-b123-c931b94f0536"},"vehicle_type_id":"4","last_reported":1744567991,"current_range_meters":12800,"station_id":"ce4bgpp2rcd13ifvqc3g","pricing_plan_id":"cebpf4jnsgd1na2vs0mg"},{"bike_id":"ecc7f47f-dd9c-4b90-b193-340600f85098","system_id":"levelo_inurba_marseille","lat":43.31709,"lon":5.37755,"is_reserved":false,"is_disabled":false,"rental_uris":{"android":"levelo://app?vid=ecc7f47f-dd9c-4b90-b193-340600f85098","ios":"levelo://app?vid=ecc7f47f-dd9c-4b90-b193-340600f85098"},"vehicle_type_id":"4","last_reported":1744567991,"current_range_meters":12800,"station_id":"ce4bgth2rcd13ifvqch0","pricing_plan_id":"cebpf4jnsgd1na2vs0mg"},{"bike_id":"fc72173d-65ee-4dd9-872d-56407d6910fb","system_id":"levelo_inurba_marseille","lat":43.29542,"lon":5.38553,"is_reserved":false,"is_disabled":false,"rental_uris":{"android":"levelo://app?vid=fc72173d-65ee-4dd9-872d-56407d6910fb","ios":"levelo://app?vid=fc72173d-65ee-4dd9-872d-56407d6910fb"},"vehicle_type_id":"4","last_reported":1744567991,"current_range_meters":12800,"station_id":"ce4bgih2rcd13ifvqba0","pricing_plan_id":"cebpf4jnsgd1na2vs0mg"},{"bike_id":"ba0617bc-a737-4e7c-be8e-b25cef28a43b","system_id":"levelo_inurba_marseille","lat":43.3031,"lon":5.40443,"is_reserved":false,"is_disabled":false,"rental_uris":{"android":"levelo://app?vid=ba0617bc-a737-4e7c-be8e-b25cef28a43b","ios":"levelo://app?vid=ba0617bc-a737-4e7c-be8e-b25cef28a43b"},"vehicle_type_id":"4","last_reported":1744567991,"current_range_meters":12800,"station_id":"ce4bh012rcd13ifvqd10","pricing_plan_id":"cebpf4jnsgd1na2vs0mg"},{"bike_id":"030258cb-6ea5-47f8-8a15-eb67624adc7d","system_id":"levelo_inurba_marseille","lat":43.32278,"lon":5.38261,"is_reserved":false,"is_disabled":false,"rental_uris":{"android":"levelo://app?vid=030258cb-6ea5-47f8-8a15-eb67624adc7d","ios":"levelo://app?vid=030258cb-6ea5-47f8-8a15-eb67624adc7d"},"vehicle_type_id":"4","last_reported":1744567991,"current_range_meters":12400,"station_id":"ce4bhr12rcd13ifvqhqg","pricing_plan_id":"cebpf4jnsgd1na2vs0mg"},{"bike_id":"67c8e1d9-264b-48bc-8669-2ca79371d6c9","system_id":"levelo_inurba_marseille","lat":43.29266,"lon":5.38437,"is_reserved":false,"is_disabled":false,"rental_uris":{"android":"levelo://app?vid=67c8e1d9-264b-48bc-8669-2ca79371d6c9","ios":"levelo://app?vid=67c8e1d9-264b-48bc-8669-2ca79371d6c9"},"vehicle_type_id":"4","last_reported":1744567991,"current_range_meters":12800,"station_id":"ce4bh692rcd13ifvqea0","pricing_plan_id":"cebpf4jnsgd1na2vs0mg"},{"bike_id":"cab6aa19-c9f0-4892-a3b9-a16f8fc6332b","system_id":"levelo_inurba_marseille","lat":43.295289,"lon":5.385388,"is_reserved":false,"is_disabled":false,"rental_uris":{"android":"levelo://app?vid=cab6aa19-c9f0-4892-a3b9-a16f8fc6332b","ios":"levelo://app?vid=cab6aa19-c9f0-4892-a3b9-a16f8fc6332b"},"vehicle_type_id":"4","last_reported":1744567991,"current_range_meters":13600,"station_id":"ce4bgih2rcd13ifvqba0","pricing_plan_id":"cebpf4jnsgd1na2vs0mg"},{"bike_id":"cb918d5b-8793-4d93-bf83-5042608ad86c","system_id":"levelo_inurba_marseille","lat":43.33198,"lon":5.39566,"is_reserved":false,"is_disabled":false,"rental_uris":{"android":"levelo://app?vid=cb918d5b-8793-4d93-bf83-5042608ad86c","ios":"levelo://app?vid=cb918d5b-8793-4d93-bf83-5042608ad86c"},"vehicle_type_id":"4","last_reported":1744567991,"current_range_meters":13600,"station_id":"","pricing_plan_id":"cebpf4jnsgd1na2vs0mg"},{"bike_id":"fbcffd98-9af3-437e-a238-670cf1dcb555","system_id":"levelo_inurba_marseille","lat":43.289828,"lon":5.365854,"is_reserved":false,"is_disabled":true,"rental_uris":{"android":"levelo://app?vid=fbcffd98-9af3-437e-a238-670cf1dcb555","ios":"levelo://app?vid=fbcffd98-9af3-437e-a238-670cf1dcb555"},"vehicle_type_id":"4","last_reported":1744567991,"current_range_meters":13600,"station_id":"","pricing_plan_id":"cebpf4jnsgd1na2vs0mg"},{"bike_id":"0a5bfd17-a849-4c76-a1cf-44203aa8b1ff","system_id":"levelo_inurba_marseille","lat":43.30116,"lon":5.39873,"is_reserved":false,"is_disabled":false,"rental_uris":{"android":"levelo://app?vid=0a5bfd17-a849-4c76-a1cf-44203aa8b1ff","ios":"levelo://app?vid=0a5bfd17-a849-4c76-a1cf-44203aa8b1ff"},"vehicle_type_id":"4","last_reported":1744567991,"current_range_meters":13600,"station_id":"ce4bh0h2rcd13ifvqd40","pricing_plan_id":"cebpf4jnsgd1na2vs0mg"},{"bike_id":"d7eac028-2fd0-4f39-be58-fbce5fdcab81","system_id":"levelo_inurba_marseille","lat":43.28417,"lon":5.34986,"is_reserved":false,"is_disabled":true,"rental_uris":{"android":"levelo://app?vid=d7eac028-2fd0-4f39-be58-fbce5fdcab81","ios":"levelo://app?vid=d7eac028-2fd0-4f39-be58-fbce5fdcab81"},"vehicle_type_id":"4","last_reported":1744567991,"current_range_meters":14000,"station_id":"ce4bhbh2rcd13ifvqepg","pricing_plan_id":"cebpf4jnsgd1na2vs0mg"},{"bike_id":"c5de9f04-a68c-4314-9995-789e3d717983","system_id":"levelo_inurba_marseille","lat":43.244019,"lon":5.370616,"is_reserved":false,"is_disabled":true,"rental_uris":{"android":"levelo://app?vid=c5de9f04-a68c-4314-9995-789e3d717983","ios":"levelo://app?vid=c5de9f04-a68c-4314-9995-789e3d717983"},"vehicle_type_id":"4","last_reported":1744567991,"current_range_meters":14000,"station_id":"ce4bhhh2rcd13ifvqfk0","pricing_plan_id":"cebpf4jnsgd1na2vs0mg"},{"bike_id":"2bb6b5da-a4a8-4544-9220-ce73d140bbc1","system_id":"levelo_inurba_marseille","lat":43.28442,"lon":5.39175,"is_reserved":false,"is_disabled":false,"rental_uris":{"android":"levelo://app?vid=2bb6b5da-a4a8-4544-9220-ce73d140bbc1","ios":"levelo://app?vid=2bb6b5da-a4a8-4544-9220-ce73d140bbc1"},"vehicle_type_id":"4","last_reported":1744567991,"current_range_meters":14000,"station_id":"ce4bhoh2rcd13ifvqh5g","pricing_plan_id":"cebpf4jnsgd1na2vs0mg"},{"bike_id":"379f3c5c-c0fc-4954-9673-8d3a102625e6","system_id":"levelo_inurba_marseille","lat":43.29523,"lon":5.39029,"is_reserved":false,"is_disabled":false,"rental_uris":{"android":"levelo://app?vid=379f3c5c-c0fc-4954-9673-8d3a102625e6","ios":"levelo://app?vid=379f3c5c-c0fc-4954-9673-8d3a102625e6"},"vehicle_type_id":"4","last_reported":1744567991,"current_range_meters":13600,"station_id":"ce4bh3p2rcd13ifvqdp0","pricing_plan_id":"cebpf4jnsgd1na2vs0mg"},{"bike_id":"4953c8f0-5294-4785-8f9d-65addb226ed7","system_id":"levelo_inurba_marseille","lat":43.25512,"lon":5.37665,"is_reserved":false,"is_disabled":false,"rental_uris":{"android":"levelo://app?vid=4953c8f0-5294-4785-8f9d-65addb226ed7","ios":"levelo://app?vid=4953c8f0-5294-4785-8f9d-65addb226ed7"},"vehicle_type_id":"4","last_reported":1744567991,"current_range_meters":13600,"station_id":"ce4bhh12rcd13ifvqff0","pricing_plan_id":"cebpf4jnsgd1na2vs0mg"},{"bike_id":"dd5930c4-3a3b-47d8-b80a-ce511a40d82f","system_id":"levelo_inurba_marseille","lat":43.24801,"lon":5.37454,"is_reserved":false,"is_disabled":false,"rental_uris":{"android":"levelo://app?vid=dd5930c4-3a3b-47d8-b80a-ce511a40d82f","ios":"levelo://app?vid=dd5930c4-3a3b-47d8-b80a-ce511a40d82f"},"vehicle_type_id":"4","last_reported":1744567991,"current_range_meters":13600,"station_id":"ce4bhgh2rcd13ifvqfb0","pricing_plan_id":"cebpf4jnsgd1na2vs0mg"},{"bike_id":"c2a31b7c-37b8-460a-a9ba-47af7e49c6b9","system_id":"levelo_inurba_marseille","lat":43.27483,"lon":5.42461,"is_reserved":false,"is_disabled":false,"rental_uris":{"android":"levelo://app?vid=c2a31b7c-37b8-460a-a9ba-47af7e49c6b9","ios":"levelo://app?vid=c2a31b7c-37b8-460a-a9ba-47af7e49c6b9"},"vehicle_type_id":"4","last_reported":1744567991,"current_range_meters":14000,"station_id":"ce4bhn92rcd13ifvqgrg","pricing_plan_id":"cebpf4jnsgd1na2vs0mg"},{"bike_id":"a68fef7a-84c0-4352-bd11-326920a5edba","system_id":"levelo_inurba_marseille","lat":43.292676,"lon":5.384375,"is_reserved":false,"is_disabled":false,"rental_uris":{"android":"levelo://app?vid=a68fef7a-84c0-4352-bd11-326920a5edba","ios":"levelo://app?vid=a68fef7a-84c0-4352-bd11-326920a5edba"},"vehicle_type_id":"4","last_reported":1744567991,"current_range_meters":13600,"station_id":"ce4bhih2rcd13ifvqfs0","pricing_plan_id":"cebpf4jnsgd1na2vs0mg"},{"bike_id":"bcaf6f61-eb21-4f74-8b00-558b6e31c8de","system_id":"levelo_inurba_marseille","lat":43.25808,"lon":5.39451,"is_reserved":false,"is_disabled":false,"rental_uris":{"android":"levelo://app?vid=bcaf6f61-eb21-4f74-8b00-558b6e31c8de","ios":"levelo://app?vid=bcaf6f61-eb21-4f74-8b00-558b6e31c8de"},"vehicle_type_id":"4","last_reported":1744567991,"current_range_meters":14400,"station_id":"ce4bhip2rcd13ifvqft0","pricing_plan_id":"cebpf4jnsgd1na2vs0mg"},{"bike_id":"e617923d-5e38-4ab5-9f0a-d006b9dcc88d","system_id":"levelo_inurba_marseille","lat":43.29535,"lon":5.38544,"is_reserved":false,"is_disabled":true,"rental_uris":{"android":"levelo://app?vid=e617923d-5e38-4ab5-9f0a-d006b9dcc88d","ios":"levelo://app?vid=e617923d-5e38-4ab5-9f0a-d006b9dcc88d"},"vehicle_type_id":"4","last_reported":1744567991,"current_range_meters":14400,"station_id":"ce4bgih2rcd13ifvqba0","pricing_plan_id":"cebpf4jnsgd1na2vs0mg"},{"bike_id":"90df5ccd-b872-49a8-b2a8-1d2e56fd9559","system_id":"levelo_inurba_marseille","lat":43.26938,"lon":5.38696,"is_reserved":false,"is_disabled":false,"rental_uris":{"android":"levelo://app?vid=90df5ccd-b872-49a8-b2a8-1d2e56fd9559","ios":"levelo://app?vid=90df5ccd-b872-49a8-b2a8-1d2e56fd9559"},"vehicle_type_id":"4","last_reported":1744567991,"current_range_meters":14400,"station_id":"ce4bhh92rcd13ifvqfh0","pricing_plan_id":"cebpf4jnsgd1na2vs0mg"},{"bike_id":"b685ddfd-dae1-4f83-8180-4c8c75cc6933","system_id":"levelo_inurba_marseille","lat":43.27991,"lon":5.40038,"is_reserved":false,"is_disabled":true,"rental_uris":{"android":"levelo://app?vid=b685ddfd-dae1-4f83-8180-4c8c75cc6933","ios":"levelo://app?vid=b685ddfd-dae1-4f83-8180-4c8c75cc6933"},"vehicle_type_id":"4","last_reported":1744567991,"current_range_meters":14400,"station_id":"ce4bho92rcd13ifvqh4g","pricing_plan_id":"cebpf4jnsgd1na2vs0mg"},{"bike_id":"1c4f5074-7028-400b-803f-59c896207859","system_id":"levelo_inurba_marseille","lat":43.28838,"lon":5.39333,"is_reserved":false,"is_disabled":false,"rental_uris":{"android":"levelo://app?vid=1c4f5074-7028-400b-803f-59c896207859","ios":"levelo://app?vid=1c4f5074-7028-400b-803f-59c896207859"},"vehicle_type_id":"4","last_reported":1744567991,"current_range_meters":14800,"station_id":"ce4bh2p2rcd13ifvqdi0","pricing_plan_id":"cebpf4jnsgd1na2vs0mg"},{"bike_id":"67868cb0-fe57-4755-a0f4-83fc5971e42b","system_id":"levelo_inurba_marseille","lat":43.26804,"lon":5.40233,"is_reserved":false,"is_disabled":false,"rental_uris":{"android":"levelo://app?vid=67868cb0-fe57-4755-a0f4-83fc5971e42b","ios":"levelo://app?vid=67868cb0-fe57-4755-a0f4-83fc5971e42b"},"vehicle_type_id":"4","last_reported":1744567991,"current_range_meters":14800,"station_id":"ce501612rcd8frsf0b60","pricing_plan_id":"cebpf4jnsgd1na2vs0mg"},{"bike_id":"60d3b24c-8c1b-4d96-ad46-fd4b0c452fbb","system_id":"levelo_inurba_marseille","lat":43.314418,"lon":5.370342,"is_reserved":false,"is_disabled":false,"rental_uris":{"android":"levelo://app?vid=60d3b24c-8c1b-4d96-ad46-fd4b0c452fbb","ios":"levelo://app?vid=60d3b24c-8c1b-4d96-ad46-fd4b0c452fbb"},"vehicle_type_id":"4","last_reported":1744567991,"current_range_meters":14800,"station_id":"ce4bgt12rcd13ifvqcd0","pricing_plan_id":"cebpf4jnsgd1na2vs0mg"},{"bike_id":"72795014-e60d-4831-88a1-e24f7bb1743d","system_id":"levelo_inurba_marseille","lat":43.32389,"lon":5.38997,"is_reserved":false,"is_disabled":false,"rental_uris":{"android":"levelo://app?vid=72795014-e60d-4831-88a1-e24f7bb1743d","ios":"levelo://app?vid=72795014-e60d-4831-88a1-e24f7bb1743d"},"vehicle_type_id":"4","last_reported":1744567991,"current_range_meters":14800,"station_id":"","pricing_plan_id":"cebpf4jnsgd1na2vs0mg"},{"bike_id":"640c7f75-2b1b-4742-97df-aa39ee8d736d","system_id":"levelo_inurba_marseille","lat":43.305337,"lon":5.384283,"is_reserved":false,"is_disabled":false,"rental_uris":{"android":"levelo://app?vid=640c7f75-2b1b-4742-97df-aa39ee8d736d","ios":"levelo://app?vid=640c7f75-2b1b-4742-97df-aa39ee8d736d"},"vehicle_type_id":"4","last_reported":1744567991,"current_range_meters":14800,"station_id":"ce4bgg92rcd13ifvqb30","pricing_plan_id":"cebpf4jnsgd1na2vs0mg"},{"bike_id":"641d9b5e-3f1e-4633-8b5f-b811ed2b7da4","system_id":"levelo_inurba_marseille","lat":43.28709,"lon":5.37388,"is_reserved":false,"is_disabled":false,"rental_uris":{"android":"levelo://app?vid=641d9b5e-3f1e-4633-8b5f-b811ed2b7da4","ios":"levelo://app?vid=641d9b5e-3f1e-4633-8b5f-b811ed2b7da4"},"vehicle_type_id":"4","last_reported":1744567991,"current_range_meters":14800,"station_id":"ce4bh3p2rcd13ifvqdq0","pricing_plan_id":"cebpf4jnsgd1na2vs0mg"},{"bike_id":"e3b14198-623a-4b43-80f2-80995dd42d67","system_id":"levelo_inurba_marseille","lat":43.3093,"lon":5.4014,"is_reserved":false,"is_disabled":false,"rental_uris":{"android":"levelo://app?vid=e3b14198-623a-4b43-80f2-80995dd42d67","ios":"levelo://app?vid=e3b14198-623a-4b43-80f2-80995dd42d67"},"vehicle_type_id":"4","last_reported":1744567991,"current_range_meters":14400,"station_id":"ce4bgvp2rcd13ifvqct0","pricing_plan_id":"cebpf4jnsgd1na2vs0mg"},{"bike_id":"36e38036-f767-4b78-bdb4-ad91dc519fe6","system_id":"levelo_inurba_marseille","lat":43.26936,"lon":5.403,"is_reserved":false,"is_disabled":false,"rental_uris":{"android":"levelo://app?vid=36e38036-f767-4b78-bdb4-ad91dc519fe6","ios":"levelo://app?vid=36e38036-f767-4b78-bdb4-ad91dc519fe6"},"vehicle_type_id":"4","last_reported":1744567991,"current_range_meters":15200,"station_id":"cjm6bp8fraef2m0cb0m0","pricing_plan_id":"cebpf4jnsgd1na2vs0mg"},{"bike_id":"3a22e51a-5937-4d7d-b104-f6e2385415e4","system_id":"levelo_inurba_marseille","lat":43.284761,"lon":5.384059,"is_reserved":false,"is_disabled":false,"rental_uris":{"android":"levelo://app?vid=3a22e51a-5937-4d7d-b104-f6e2385415e4","ios":"levelo://app?vid=3a22e51a-5937-4d7d-b104-f6e2385415e4"},"vehicle_type_id":"4","last_reported":1744567991,"current_range_meters":14800,"station_id":"ce4bgjh2rcd13ifvqbf0","pricing_plan_id":"cebpf4jnsgd1na2vs0mg"},{"bike_id":"43be8288-6cac-4733-b754-45a0725da88f","system_id":"levelo_inurba_marseille","lat":43.28003,"lon":5.36939,"is_reserved":false,"is_disabled":false,"rental_uris":{"android":"levelo://app?vid=43be8288-6cac-4733-b754-45a0725da88f","ios":"levelo://app?vid=43be8288-6cac-4733-b754-45a0725da88f"},"vehicle_type_id":"4","last_reported":1744567991,"current_range_meters":14800,"station_id":"ce4bha12rcd13ifvqef0","pricing_plan_id":"cebpf4jnsgd1na2vs0mg"},{"bike_id":"a7a066dd-0e3d-4752-b55d-0248ea942ca0","system_id":"levelo_inurba_marseille","lat":43.283531,"lon":5.381087,"is_reserved":false,"is_disabled":false,"rental_uris":{"android":"levelo://app?vid=a7a066dd-0e3d-4752-b55d-0248ea942ca0","ios":"levelo://app?vid=a7a066dd-0e3d-4752-b55d-0248ea942ca0"},"vehicle_type_id":"4","last_reported":1744567991,"current_range_meters":15200,"station_id":"ce4bh412rcd13ifvqdr0","pricing_plan_id":"cebpf4jnsgd1na2vs0mg"},{"bike_id":"87a06f95-8ab3-4aec-9192-febf0afb3c93","system_id":"levelo_inurba_marseille","lat":43.29534,"lon":5.38545,"is_reserved":false,"is_disabled":false,"rental_uris":{"android":"levelo://app?vid=87a06f95-8ab3-4aec-9192-febf0afb3c93","ios":"levelo://app?vid=87a06f95-8ab3-4aec-9192-febf0afb3c93"},"vehicle_type_id":"4","last_reported":1744567991,"current_range_meters":15200,"station_id":"ce4bgih2rcd13ifvqba0","pricing_plan_id":"cebpf4jnsgd1na2vs0mg"},{"bike_id":"b193af86-0b5c-4a5c-94b9-1308e2fcfaf9","system_id":"levelo_inurba_marseille","lat":43.29878,"lon":5.38913,"is_reserved":false,"is_disabled":false,"rental_uris":{"android":"levelo://app?vid=b193af86-0b5c-4a5c-94b9-1308e2fcfaf9","ios":"levelo://app?vid=b193af86-0b5c-4a5c-94b9-1308e2fcfaf9"},"vehicle_type_id":"4","last_reported":1744567991,"current_range_meters":15200,"station_id":"ce4bh392rcd13ifvqdl0","pricing_plan_id":"cebpf4jnsgd1na2vs0mg"},{"bike_id":"7f899cbe-0a59-421b-a05f-105d9aaed59d","system_id":"levelo_inurba_marseille","lat":43.283273,"lon":5.380992,"is_reserved":false,"is_disabled":false,"rental_uris":{"android":"levelo://app?vid=7f899cbe-0a59-421b-a05f-105d9aaed59d","ios":"levelo://app?vid=7f899cbe-0a59-421b-a05f-105d9aaed59d"},"vehicle_type_id":"4","last_reported":1744567991,"current_range_meters":16000,"station_id":"ce4bh412rcd13ifvqdr0","pricing_plan_id":"cebpf4jnsgd1na2vs0mg"},{"bike_id":"685f2fe3-5a37-4921-9409-81039577873b","system_id":"levelo_inurba_marseille","lat":43.28262,"lon":5.35058,"is_reserved":false,"is_disabled":false,"rental_uris":{"android":"levelo://app?vid=685f2fe3-5a37-4921-9409-81039577873b","ios":"levelo://app?vid=685f2fe3-5a37-4921-9409-81039577873b"},"vehicle_type_id":"4","last_reported":1744567991,"current_range_meters":15200,"station_id":"ce4bhbp2rcd13ifvqerg","pricing_plan_id":"cebpf4jnsgd1na2vs0mg"},{"bike_id":"2551df23-46eb-4dc9-b328-33c9a95ff7ca","system_id":"levelo_inurba_marseille","lat":43.29245,"lon":5.36062,"is_reserved":false,"is_disabled":true,"rental_uris":{"android":"levelo://app?vid=2551df23-46eb-4dc9-b328-33c9a95ff7ca","ios":"levelo://app?vid=2551df23-46eb-4dc9-b328-33c9a95ff7ca"},"vehicle_type_id":"4","last_reported":1744567991,"current_range_meters":16000,"station_id":"ce4bhbh2rcd13ifvqeqg","pricing_plan_id":"cebpf4jnsgd1na2vs0mg"},{"bike_id":"c8d66a57-b5d1-48a6-aacb-5b8c6b768cdc","system_id":"levelo_inurba_marseille","lat":43.243896,"lon":5.37061,"is_reserved":false,"is_disabled":false,"rental_uris":{"android":"levelo://app?vid=c8d66a57-b5d1-48a6-aacb-5b8c6b768cdc","ios":"levelo://app?vid=c8d66a57-b5d1-48a6-aacb-5b8c6b768cdc"},"vehicle_type_id":"4","last_reported":1744567991,"current_range_meters":15200,"station_id":"ce4bghh2rcd13ifvqb60","pricing_plan_id":"cebpf4jnsgd1na2vs0mg"},{"bike_id":"351b7be9-17e1-4c07-afcb-32504ec703b5","system_id":"levelo_inurba_marseille","lat":43.31221,"lon":5.36854,"is_reserved":false,"is_disabled":false,"rental_uris":{"android":"levelo://app?vid=351b7be9-17e1-4c07-afcb-32504ec703b5","ios":"levelo://app?vid=351b7be9-17e1-4c07-afcb-32504ec703b5"},"vehicle_type_id":"4","last_reported":1744567991,"current_range_meters":16000,"station_id":"ce4bgl92rcd13ifvqbq0","pricing_plan_id":"cebpf4jnsgd1na2vs0mg"},{"bike_id":"c578c03b-5860-4ef4-8c87-8664fccaeadd","system_id":"levelo_inurba_marseille","lat":43.29093,"lon":5.3813,"is_reserved":false,"is_disabled":false,"rental_uris":{"android":"levelo://app?vid=c578c03b-5860-4ef4-8c87-8664fccaeadd","ios":"levelo://app?vid=c578c03b-5860-4ef4-8c87-8664fccaeadd"},"vehicle_type_id":"4","last_reported":1744567991,"current_range_meters":16000,"station_id":"ce4bh512rcd13ifvqe2g","pricing_plan_id":"cebpf4jnsgd1na2vs0mg"},{"bike_id":"73905670-6672-4dc0-933c-231ca8769af6","system_id":"levelo_inurba_marseille","lat":43.26952,"lon":5.40297,"is_reserved":false,"is_disabled":false,"rental_uris":{"android":"levelo://app?vid=73905670-6672-4dc0-933c-231ca8769af6","ios":"levelo://app?vid=73905670-6672-4dc0-933c-231ca8769af6"},"vehicle_type_id":"4","last_reported":1744567991,"current_range_meters":16400,"station_id":"cjm6bp8fraef2m0cb0m0","pricing_plan_id":"cebpf4jnsgd1na2vs0mg"},{"bike_id":"cedc1b2b-4972-4dd6-a2a4-08843ad659d3","system_id":"levelo_inurba_marseille","lat":43.29018,"lon":5.38133,"is_reserved":false,"is_disabled":false,"rental_uris":{"android":"levelo://app?vid=cedc1b2b-4972-4dd6-a2a4-08843ad659d3","ios":"levelo://app?vid=cedc1b2b-4972-4dd6-a2a4-08843ad659d3"},"vehicle_type_id":"4","last_reported":1744567991,"current_range_meters":16400,"station_id":"ce4bh4p2rcd13ifvqe1g","pricing_plan_id":"cebpf4jnsgd1na2vs0mg"},{"bike_id":"509721d7-7049-48c9-a4c5-cada59344989","system_id":"levelo_inurba_marseille","lat":43.24067,"lon":5.37762,"is_reserved":false,"is_disabled":false,"rental_uris":{"android":"levelo://app?vid=509721d7-7049-48c9-a4c5-cada59344989","ios":"levelo://app?vid=509721d7-7049-48c9-a4c5-cada59344989"},"vehicle_type_id":"4","last_reported":1744567991,"current_range_meters":16000,"station_id":"ce4bhnp2rcd13ifvqgvg","pricing_plan_id":"cebpf4jnsgd1na2vs0mg"},{"bike_id":"50f3a6ca-1b32-4e17-a21b-a50e16960e96","system_id":"levelo_inurba_marseille","lat":43.337766,"lon":5.374441,"is_reserved":false,"is_disabled":false,"rental_uris":{"android":"levelo://app?vid=50f3a6ca-1b32-4e17-a21b-a50e16960e96","ios":"levelo://app?vid=50f3a6ca-1b32-4e17-a21b-a50e16960e96"},"vehicle_type_id":"4","last_reported":1744567991,"current_range_meters":16400,"station_id":"","pricing_plan_id":"cebpf4jnsgd1na2vs0mg"},{"bike_id":"4becb65c-ee5c-4170-97bf-48861f49b98f","system_id":"levelo_inurba_marseille","lat":43.28709,"lon":5.37391,"is_reserved":false,"is_disabled":false,"rental_uris":{"android":"levelo://app?vid=4becb65c-ee5c-4170-97bf-48861f49b98f","ios":"levelo://app?vid=4becb65c-ee5c-4170-97bf-48861f49b98f"},"vehicle_type_id":"4","last_reported":1744567991,"current_range_meters":16400,"station_id":"ce4bh3p2rcd13ifvqdq0","pricing_plan_id":"cebpf4jnsgd1na2vs0mg"},{"bike_id":"c56e3b32-3204-487e-a5f6-554bd6b04d19","system_id":"levelo_inurba_marseille","lat":43.287055,"lon":5.373908,"is_reserved":false,"is_disabled":false,"rental_uris":{"android":"levelo://app?vid=c56e3b32-3204-487e-a5f6-554bd6b04d19","ios":"levelo://app?vid=c56e3b32-3204-487e-a5f6-554bd6b04d19"},"vehicle_type_id":"4","last_reported":1744567991,"current_range_meters":16000,"station_id":"ce4bh3p2rcd13ifvqdq0","pricing_plan_id":"cebpf4jnsgd1na2vs0mg"},{"bike_id":"935a7e55-4cea-4394-8ed2-15f7e1ee706c","system_id":"levelo_inurba_marseille","lat":43.27236,"lon":5.43161,"is_reserved":false,"is_disabled":false,"rental_uris":{"android":"levelo://app?vid=935a7e55-4cea-4394-8ed2-15f7e1ee706c","ios":"levelo://app?vid=935a7e55-4cea-4394-8ed2-15f7e1ee706c"},"vehicle_type_id":"4","last_reported":1744567991,"current_range_meters":16800,"station_id":"","pricing_plan_id":"cebpf4jnsgd1na2vs0mg"},{"bike_id":"027ffe67-8bbc-433c-b9a9-7b7b528f1053","system_id":"levelo_inurba_marseille","lat":43.29631,"lon":5.40598,"is_reserved":false,"is_disabled":false,"rental_uris":{"android":"levelo://app?vid=027ffe67-8bbc-433c-b9a9-7b7b528f1053","ios":"levelo://app?vid=027ffe67-8bbc-433c-b9a9-7b7b528f1053"},"vehicle_type_id":"4","last_reported":1744567991,"current_range_meters":16400,"station_id":"ce4bh0h2rcd13ifvqd60","pricing_plan_id":"cebpf4jnsgd1na2vs0mg"},{"bike_id":"da48e56b-5b98-4592-a2ea-cf5907cac18b","system_id":"levelo_inurba_marseille","lat":43.337652,"lon":5.374374,"is_reserved":false,"is_disabled":false,"rental_uris":{"android":"levelo://app?vid=da48e56b-5b98-4592-a2ea-cf5907cac18b","ios":"levelo://app?vid=da48e56b-5b98-4592-a2ea-cf5907cac18b"},"vehicle_type_id":"4","last_reported":1744567991,"current_range_meters":16800,"station_id":"","pricing_plan_id":"cebpf4jnsgd1na2vs0mg"},{"bike_id":"517e106d-abbd-449c-a25d-0a5973f1ac32","system_id":"levelo_inurba_marseille","lat":43.28267,"lon":5.35055,"is_reserved":false,"is_disabled":false,"rental_uris":{"android":"levelo://app?vid=517e106d-abbd-449c-a25d-0a5973f1ac32","ios":"levelo://app?vid=517e106d-abbd-449c-a25d-0a5973f1ac32"},"vehicle_type_id":"4","last_reported":1744567991,"current_range_meters":16400,"station_id":"ce4bhbp2rcd13ifvqerg","pricing_plan_id":"cebpf4jnsgd1na2vs0mg"},{"bike_id":"6f9cf811-1927-4a51-a336-b458bdfafc6f","system_id":"levelo_inurba_marseille","lat":43.29938,"lon":5.38363,"is_reserved":false,"is_disabled":false,"rental_uris":{"android":"levelo://app?vid=6f9cf811-1927-4a51-a336-b458bdfafc6f","ios":"levelo://app?vid=6f9cf811-1927-4a51-a336-b458bdfafc6f"},"vehicle_type_id":"4","last_reported":1744567991,"current_range_meters":16800,"station_id":"","pricing_plan_id":"cebpf4jnsgd1na2vs0mg"},{"bike_id":"c3156d99-3879-42d2-9b38-e5c9b2fb7752","system_id":"levelo_inurba_marseille","lat":43.3176,"lon":5.39008,"is_reserved":false,"is_disabled":false,"rental_uris":{"android":"levelo://app?vid=c3156d99-3879-42d2-9b38-e5c9b2fb7752","ios":"levelo://app?vid=c3156d99-3879-42d2-9b38-e5c9b2fb7752"},"vehicle_type_id":"4","last_reported":1744567991,"current_range_meters":16800,"station_id":"ce4bhqp2rcd13ifvqhng","pricing_plan_id":"cebpf4jnsgd1na2vs0mg"},{"bike_id":"a7eb2ea5-c854-47fc-b02b-c7a0cbba5c3b","system_id":"levelo_inurba_marseille","lat":43.24656,"lon":5.38915,"is_reserved":false,"is_disabled":false,"rental_uris":{"android":"levelo://app?vid=a7eb2ea5-c854-47fc-b02b-c7a0cbba5c3b","ios":"levelo://app?vid=a7eb2ea5-c854-47fc-b02b-c7a0cbba5c3b"},"vehicle_type_id":"4","last_reported":1744567991,"current_range_meters":17200,"station_id":"ce4bhg12rcd13ifvqf60","pricing_plan_id":"cebpf4jnsgd1na2vs0mg"},{"bike_id":"b0444038-bbda-42ce-a2ee-6650c362e5a9","system_id":"levelo_inurba_marseille","lat":43.27912,"lon":5.39586,"is_reserved":false,"is_disabled":false,"rental_uris":{"android":"levelo://app?vid=b0444038-bbda-42ce-a2ee-6650c362e5a9","ios":"levelo://app?vid=b0444038-bbda-42ce-a2ee-6650c362e5a9"},"vehicle_type_id":"4","last_reported":1744567991,"current_range_meters":17200,"station_id":"ce4bhf92rcd13ifvqf40","pricing_plan_id":"cebpf4jnsgd1na2vs0mg"},{"bike_id":"1c4ab5b1-7625-4740-92aa-7e3e6dccca91","system_id":"levelo_inurba_marseille","lat":43.24665,"lon":5.38174,"is_reserved":false,"is_disabled":false,"rental_uris":{"android":"levelo://app?vid=1c4ab5b1-7625-4740-92aa-7e3e6dccca91","ios":"levelo://app?vid=1c4ab5b1-7625-4740-92aa-7e3e6dccca91"},"vehicle_type_id":"4","last_reported":1744567991,"current_range_meters":16800,"station_id":"ce4bhih2rcd13ifvqfr0","pricing_plan_id":"cebpf4jnsgd1na2vs0mg"},{"bike_id":"aa2e6f0a-f1f4-4d3d-b302-9d00135157cc","system_id":"levelo_inurba_marseille","lat":43.25501,"lon":5.3765,"is_reserved":false,"is_disabled":false,"rental_uris":{"android":"levelo://app?vid=aa2e6f0a-f1f4-4d3d-b302-9d00135157cc","ios":"levelo://app?vid=aa2e6f0a-f1f4-4d3d-b302-9d00135157cc"},"vehicle_type_id":"4","last_reported":1744567991,"current_range_meters":17200,"station_id":"ce4bhh12rcd13ifvqff0","pricing_plan_id":"cebpf4jnsgd1na2vs0mg"},{"bike_id":"86ac3ad7-4349-4b45-82d1-b61ad882a2f6","system_id":"levelo_inurba_marseille","lat":43.21767,"lon":5.34621,"is_reserved":false,"is_disabled":true,"rental_uris":{"android":"levelo://app?vid=86ac3ad7-4349-4b45-82d1-b61ad882a2f6","ios":"levelo://app?vid=86ac3ad7-4349-4b45-82d1-b61ad882a2f6"},"vehicle_type_id":"4","last_reported":1744567991,"current_range_meters":17200,"station_id":"st_cvj6r9ubvosntc0bgbag","pricing_plan_id":"cebpf4jnsgd1na2vs0mg"},{"bike_id":"e1698754-38ce-4a9f-928e-44da3aa22756","system_id":"levelo_inurba_marseille","lat":43.26554,"lon":5.37281,"is_reserved":false,"is_disabled":false,"rental_uris":{"android":"levelo://app?vid=e1698754-38ce-4a9f-928e-44da3aa22756","ios":"levelo://app?vid=e1698754-38ce-4a9f-928e-44da3aa22756"},"vehicle_type_id":"4","last_reported":1744567991,"current_range_meters":17600,"station_id":"ce4bhg12rcd13ifvqf70","pricing_plan_id":"cebpf4jnsgd1na2vs0mg"},{"bike_id":"b51fe437-110f-4970-9b9f-c6d04541fd69","system_id":"levelo_inurba_marseille","lat":43.29257,"lon":5.4091,"is_reserved":false,"is_disabled":false,"rental_uris":{"android":"levelo://app?vid=b51fe437-110f-4970-9b9f-c6d04541fd69","ios":"levelo://app?vid=b51fe437-110f-4970-9b9f-c6d04541fd69"},"vehicle_type_id":"4","last_reported":1744567991,"current_range_meters":17600,"station_id":"ce4bh192rcd13ifvqdc0","pricing_plan_id":"cebpf4jnsgd1na2vs0mg"},{"bike_id":"e63ed6a1-5c94-4100-bd19-276ab24f7ccf","system_id":"levelo_inurba_marseille","lat":43.29029,"lon":5.3865,"is_reserved":false,"is_disabled":false,"rental_uris":{"android":"levelo://app?vid=e63ed6a1-5c94-4100-bd19-276ab24f7ccf","ios":"levelo://app?vid=e63ed6a1-5c94-4100-bd19-276ab24f7ccf"},"vehicle_type_id":"4","last_reported":1744567991,"current_range_meters":17600,"station_id":"ce4bh4p2rcd13ifvqe0g","pricing_plan_id":"cebpf4jnsgd1na2vs0mg"},{"bike_id":"da27b599-cdb3-4198-b616-72f0b42a3ad1","system_id":"levelo_inurba_marseille","lat":43.27854,"lon":5.40713,"is_reserved":false,"is_disabled":false,"rental_uris":{"android":"levelo://app?vid=da27b599-cdb3-4198-b616-72f0b42a3ad1","ios":"levelo://app?vid=da27b599-cdb3-4198-b616-72f0b42a3ad1"},"vehicle_type_id":"4","last_reported":1744567991,"current_range_meters":17600,"station_id":"ce4bhnh2rcd13ifvqgtg","pricing_plan_id":"cebpf4jnsgd1na2vs0mg"},{"bike_id":"df49f249-4aa5-4aa6-9193-27ea889ed0d0","system_id":"levelo_inurba_marseille","lat":43.30425,"lon":5.38885,"is_reserved":false,"is_disabled":true,"rental_uris":{"android":"levelo://app?vid=df49f249-4aa5-4aa6-9193-27ea889ed0d0","ios":"levelo://app?vid=df49f249-4aa5-4aa6-9193-27ea889ed0d0"},"vehicle_type_id":"4","last_reported":1744567991,"current_range_meters":17600,"station_id":"ce4bgk12rcd13ifvqbi0","pricing_plan_id":"cebpf4jnsgd1na2vs0mg"},{"bike_id":"7397fdfe-7e90-496c-9947-80ce65e17a33","system_id":"levelo_inurba_marseille","lat":43.27826,"lon":5.39214,"is_reserved":false,"is_disabled":false,"rental_uris":{"android":"levelo://app?vid=7397fdfe-7e90-496c-9947-80ce65e17a33","ios":"levelo://app?vid=7397fdfe-7e90-496c-9947-80ce65e17a33"},"vehicle_type_id":"4","last_reported":1744567991,"current_range_meters":17600,"station_id":"ce4bhjp2rcd13ifvqga0","pricing_plan_id":"cebpf4jnsgd1na2vs0mg"},{"bike_id":"94ebb454-9dc3-4e5a-a1c0-ae0c608bc7ee","system_id":"levelo_inurba_marseille","lat":43.280007,"lon":5.416586,"is_reserved":false,"is_disabled":true,"rental_uris":{"android":"levelo://app?vid=94ebb454-9dc3-4e5a-a1c0-ae0c608bc7ee","ios":"levelo://app?vid=94ebb454-9dc3-4e5a-a1c0-ae0c608bc7ee"},"vehicle_type_id":"4","last_reported":1744567991,"current_range_meters":17600,"station_id":"ce4bho12rcd13ifvqh1g","pricing_plan_id":"cebpf4jnsgd1na2vs0mg"},{"bike_id":"77d0e684-23ea-4120-b48b-a3b78adfcfd5","system_id":"levelo_inurba_marseille","lat":43.29583,"lon":5.37533,"is_reserved":false,"is_disabled":false,"rental_uris":{"android":"levelo://app?vid=77d0e684-23ea-4120-b48b-a3b78adfcfd5","ios":"levelo://app?vid=77d0e684-23ea-4120-b48b-a3b78adfcfd5"},"vehicle_type_id":"4","last_reported":1744567991,"current_range_meters":18000,"station_id":"ce4bgh92rcd13ifvqb50","pricing_plan_id":"cebpf4jnsgd1na2vs0mg"},{"bike_id":"59c7d7f9-492d-4240-b3d4-e8d1015f1ebd","system_id":"levelo_inurba_marseille","lat":43.21749,"lon":5.34623,"is_reserved":false,"is_disabled":true,"rental_uris":{"android":"levelo://app?vid=59c7d7f9-492d-4240-b3d4-e8d1015f1ebd","ios":"levelo://app?vid=59c7d7f9-492d-4240-b3d4-e8d1015f1ebd"},"vehicle_type_id":"4","last_reported":1744567991,"current_range_meters":18000,"station_id":"st_cvj6r9ubvosntc0bgbag","pricing_plan_id":"cebpf4jnsgd1na2vs0mg"},{"bike_id":"38540423-4fc9-4fd5-a9d7-4bf440cfcee7","system_id":"levelo_inurba_marseille","lat":43.29289,"lon":5.38454,"is_reserved":false,"is_disabled":false,"rental_uris":{"android":"levelo://app?vid=38540423-4fc9-4fd5-a9d7-4bf440cfcee7","ios":"levelo://app?vid=38540423-4fc9-4fd5-a9d7-4bf440cfcee7"},"vehicle_type_id":"4","last_reported":1744567991,"current_range_meters":18000,"station_id":"ce4bh692rcd13ifvqea0","pricing_plan_id":"cebpf4jnsgd1na2vs0mg"},{"bike_id":"a235f022-72cf-4d38-a269-12cef974166d","system_id":"levelo_inurba_marseille","lat":43.2984,"lon":5.36275,"is_reserved":false,"is_disabled":false,"rental_uris":{"android":"levelo://app?vid=a235f022-72cf-4d38-a269-12cef974166d","ios":"levelo://app?vid=a235f022-72cf-4d38-a269-12cef974166d"},"vehicle_type_id":"4","last_reported":1744567991,"current_range_meters":18000,"station_id":"ce4bgpp2rcd13ifvqc3g","pricing_plan_id":"cebpf4jnsgd1na2vs0mg"},{"bike_id":"b55ff169-95c0-4220-bebe-8e629a9423ee","system_id":"levelo_inurba_marseille","lat":43.270677,"lon":5.422797,"is_reserved":false,"is_disabled":false,"rental_uris":{"android":"levelo://app?vid=b55ff169-95c0-4220-bebe-8e629a9423ee","ios":"levelo://app?vid=b55ff169-95c0-4220-bebe-8e629a9423ee"},"vehicle_type_id":"4","last_reported":1744567991,"current_range_meters":18000,"station_id":"ce4bhk92rcd13ifvqgb0","pricing_plan_id":"cebpf4jnsgd1na2vs0mg"},{"bike_id":"2d962046-2b76-4390-af88-3785c3666147","system_id":"levelo_inurba_marseille","lat":43.26818,"lon":5.3944,"is_reserved":false,"is_disabled":false,"rental_uris":{"android":"levelo://app?vid=2d962046-2b76-4390-af88-3785c3666147","ios":"levelo://app?vid=2d962046-2b76-4390-af88-3785c3666147"},"vehicle_type_id":"4","last_reported":1744567991,"current_range_meters":18000,"station_id":"ce4bhh12rcd13ifvqfg0","pricing_plan_id":"cebpf4jnsgd1na2vs0mg"},{"bike_id":"27a55245-8dd2-4f1a-af63-95a9d7b71690","system_id":"levelo_inurba_marseille","lat":43.3109,"lon":5.37839,"is_reserved":false,"is_disabled":true,"rental_uris":{"android":"levelo://app?vid=27a55245-8dd2-4f1a-af63-95a9d7b71690","ios":"levelo://app?vid=27a55245-8dd2-4f1a-af63-95a9d7b71690"},"vehicle_type_id":"4","last_reported":1744567991,"current_range_meters":18000,"station_id":"","pricing_plan_id":"cebpf4jnsgd1na2vs0mg"},{"bike_id":"e951b6c2-47b9-4111-a7ec-03f8051784e9","system_id":"levelo_inurba_marseille","lat":43.25935,"lon":5.40905,"is_reserved":false,"is_disabled":false,"rental_uris":{"android":"levelo://app?vid=e951b6c2-47b9-4111-a7ec-03f8051784e9","ios":"levelo://app?vid=e951b6c2-47b9-4111-a7ec-03f8051784e9"},"vehicle_type_id":"4","last_reported":1744567991,"current_range_meters":18000,"station_id":"ce4bhm92rcd13ifvqglg","pricing_plan_id":"cebpf4jnsgd1na2vs0mg"},{"bike_id":"a6535ba8-9ced-4cad-b71b-a79f16af244f","system_id":"levelo_inurba_marseille","lat":43.24664,"lon":5.38143,"is_reserved":false,"is_disabled":false,"rental_uris":{"android":"levelo://app?vid=a6535ba8-9ced-4cad-b71b-a79f16af244f","ios":"levelo://app?vid=a6535ba8-9ced-4cad-b71b-a79f16af244f"},"vehicle_type_id":"4","last_reported":1744567991,"current_range_meters":18800,"station_id":"ce4bhih2rcd13ifvqfr0","pricing_plan_id":"cebpf4jnsgd1na2vs0mg"},{"bike_id":"8e84781a-82c3-4b14-a541-78f95f1999c0","system_id":"levelo_inurba_marseille","lat":43.27442,"lon":5.39434,"is_reserved":false,"is_disabled":true,"rental_uris":{"android":"levelo://app?vid=8e84781a-82c3-4b14-a541-78f95f1999c0","ios":"levelo://app?vid=8e84781a-82c3-4b14-a541-78f95f1999c0"},"vehicle_type_id":"4","last_reported":1744567991,"current_range_meters":18800,"station_id":"ce4bhdp2rcd13ifvqf20","pricing_plan_id":"cebpf4jnsgd1na2vs0mg"},{"bike_id":"796fa382-e8ea-49e5-8643-c15c0217b7be","system_id":"levelo_inurba_marseille","lat":43.29772,"lon":5.37099,"is_reserved":false,"is_disabled":false,"rental_uris":{"android":"levelo://app?vid=796fa382-e8ea-49e5-8643-c15c0217b7be","ios":"levelo://app?vid=796fa382-e8ea-49e5-8643-c15c0217b7be"},"vehicle_type_id":"4","last_reported":1744567991,"current_range_meters":18000,"station_id":"ce4bgop2rcd13ifvqc1g","pricing_plan_id":"cebpf4jnsgd1na2vs0mg"},{"bike_id":"fb13c941-1858-46a4-86ad-2a5e302996c3","system_id":"levelo_inurba_marseille","lat":43.2585,"lon":5.39916,"is_reserved":false,"is_disabled":true,"rental_uris":{"android":"levelo://app?vid=fb13c941-1858-46a4-86ad-2a5e302996c3","ios":"levelo://app?vid=fb13c941-1858-46a4-86ad-2a5e302996c3"},"vehicle_type_id":"4","last_reported":1744567991,"current_range_meters":18800,"station_id":"ce4bhl92rcd13ifvqghg","pricing_plan_id":"cebpf4jnsgd1na2vs0mg"},{"bike_id":"a69d75ab-8aaa-4257-abe6-4fc1a7ddedf9","system_id":"levelo_inurba_marseille","lat":43.299415,"lon":5.385382,"is_reserved":false,"is_disabled":false,"rental_uris":{"android":"levelo://app?vid=a69d75ab-8aaa-4257-abe6-4fc1a7ddedf9","ios":"levelo://app?vid=a69d75ab-8aaa-4257-abe6-4fc1a7ddedf9"},"vehicle_type_id":"4","last_reported":1744567991,"current_range_meters":18000,"station_id":"ce4bghh2rcd13ifvqb60","pricing_plan_id":"cebpf4jnsgd1na2vs0mg"},{"bike_id":"607b9ab3-cb8b-4340-a8ef-422c4dc752bc","system_id":"levelo_inurba_marseille","lat":43.2802,"lon":5.40036,"is_reserved":false,"is_disabled":false,"rental_uris":{"android":"levelo://app?vid=607b9ab3-cb8b-4340-a8ef-422c4dc752bc","ios":"levelo://app?vid=607b9ab3-cb8b-4340-a8ef-422c4dc752bc"},"vehicle_type_id":"4","last_reported":1744567991,"current_range_meters":18800,"station_id":"ce4bho92rcd13ifvqh4g","pricing_plan_id":"cebpf4jnsgd1na2vs0mg"},