{"last_updated":1702836494,"ttl":30,"version":"2.2","data":{"bikes":[{"bike_id":"e6289ad0-b501-47db-a815-8bfd14e5129d","system_id":"levelo_inurba_marseille","lat":43.313391,"lon":5.36706,"is_reserved":false,"is_disabled":false,"rental_uris":{"android":"levelo://app?vid=e6289ad0-b501-47db-a815-8bfd14e5129d","ios":"levelo://app?vid=e6289ad0-b501-47db-a815-8bfd14e5129d"},"vehicle_type_id":"4","last_reported":1702836494,"current_range_meters":28400,"station_id":"ce4bgr92rcd13ifvqc6g","pricing_plan_id":"free"},{"bike_id":"c5803ac3-2171-4f06-9e14-de110a4e18ca","system_id":"levelo_inurba_marseille","lat":43.313391,"lon":5.36706,"is_reserved":false,"is_disabled":false,"rental_uris":{"android":"levelo://app?vid=c5803ac3-2171-4f06-9e14-de110a4e18ca","ios":"levelo://app?vid=c5803ac3-2171-4f06-9e14-de110a4e18ca"},"vehicle_type_id":"4","last_reported":1702836494,"current_range_meters":5200,"station_id":"ce4bgr92rcd13ifvqc6g","pricing_plan_id":"free"},{"bike_id":"20d666c1-1847-45fd-bd48-19a8da90ae4a","system_id":"levelo_inurba_marseille","lat":43.309076,"lon":5.368465,"is_reserved":false,"is_disabled":false,"rental_uris":{"android":"levelo://app?vid=20d666c1-1847-45fd-bd48-19a8da90ae4a","ios":"levelo://app?vid=20d666c1-1847-45fd-bd48-19a8da90ae4a"},"vehicle_type_id":"4","last_reported":1702836494,"current_range_meters":4400,"station_id":"ce4bgn92rcd13ifvqbvg","pricing_plan_id":"free"},{"bike_id":"647e1677-36e4-44f7-8823-2c02e2caeb23","system_id":"levelo_inurba_marseille","lat":43.314811,"lon":5.373103,"is_reserved":false,"is_disabled":false,"rental_uris":{"android":"levelo://app?vid=647e1677-36e4-44f7-8823-2c02e2caeb23","ios":"levelo://app?vid=647e1677-36e4-44f7-8823-2c02e2caeb23"},"vehicle_type_id":"4","last_reported":1702836494,"current_range_meters":25200,"station_id":"ce4bgt12rcd13ifvqcd0","pricing_plan_id":"free"},{"bike_id":"643ea0d8-b9fa-4448-8aa0-655fd0350ffc","system_id":"levelo_inurba_marseille","lat":43.314811,"lon":5.373103,"is_reserved":false,"is_disabled":false,"rental_uris":{"android":"levelo://app?vid=643ea0d8-b9fa-4448-8aa0-655fd0350ffc","ios":"levelo://app?vid=643ea0d8-b9fa-4448-8aa0-655fd0350ffc"},"vehicle_type_id":"4","last_reported":1702836494,"current_range_meters":5600,"station_id":"ce4bgt12rcd13ifvqcd0","pricing_plan_id":"free"},{"bike_id":"0c23db43-9903-4779-b6fb-4117c544eea8","system_id":"levelo_inurba_marseille","lat":43.309039,"lon":5.371797,"is_reserved":false,"is_disabled":false,"rental_uris":{"android":"levelo://app?vid=0c23db43-9903-4779-b6fb-4117c544eea8","ios":"levelo://app?vid=0c23db43-9903-4779-b6fb-4117c544eea8"},"vehicle_type_id":"4","last_reported":1702836494,"current_range_meters":25200,"station_id":"ce4bguh2rcd13ifvqckg","pricing_plan_id":"free"},{"bike_id":"955e4ab2-16e5-44e8-a986-a2f50ff96c06","system_id":"levelo_inurba_marseille","lat":43.305382,"lon":5.365389,"is_reserved":false,"is_disabled":false,"rental_uris":{"android":"levelo://app?vid=955e4ab2-16e5-44e8-a986-a2f50ff96c06","ios":"levelo://app?vid=955e4ab2-16e5-44e8-a986-a2f50ff96c06"},"vehicle_type_id":"4","last_reported":1702836494,"current_range_meters":10800,"station_id":"","pricing_plan_id":"free"},{"bike_id":"e9ba45b5-8fae-4a08-87b6-e10637948fac","system_id":"levelo_inurba_marseille","lat":43.311125,"lon":5.377624,"is_reserved":false,"is_disabled":false,"rental_uris":{"android":"levelo://app?vid=e9ba45b5-8fae-4a08-87b6-e10637948fac","ios":"levelo://app?vid=e9ba45b5-8fae-4a08-87b6-e10637948fac"},"vehicle_type_id":"4","last_reported":1702836494,"current_range_meters":4800,"station_id":"ce4bgt92rcd13ifvqcg0","pricing_plan_id":"free"},{"bike_id":"9254d6e6-fe20-44ec-a3f2-0df455b601c5","system_id":"levelo_inurba_marseille","lat":43.307945,"lon":5.376487,"is_reserved":false,"is_disabled":false,"rental_uris":{"android":"levelo://app?vid=9254d6e6-fe20-44ec-a3f2-0df455b601c5","ios":"levelo://app?vid=9254d6e6-fe20-44ec-a3f2-0df455b601c5"},"vehicle_type_id":"4","last_reported":1702836494,"current_range_meters":18000,"station_id":"ce4bgv92rcd13ifvqcq0","pricing_plan_id":"free"},{"bike_id":"e965d98e-5725-40c8-9334-792ca22b51ec","system_id":"levelo_inurba_marseille","lat":43.317075,"lon":5.377367,"is_reserved":false,"is_disabled":false,"rental_uris":{"android":"levelo://app?vid=e965d98e-5725-40c8-9334-792ca22b51ec","ios":"levelo://app?vid=e965d98e-5725-40c8-9334-792ca22b51ec"},"vehicle_type_id":"4","last_reported":1702836494,"current_range_meters":22400,"station_id":"ce4bgth2rcd13ifvqch0","pricing_plan_id":"free"},{"bike_id":"fe4931f5-5e1e-45a4-9be2-cbaac96a26a5","system_id":"levelo_inurba_marseille","lat":43.30794,"lon":5.38136,"is_reserved":false,"is_disabled":false,"rental_uris":{"android":"levelo://app?vid=fe4931f5-5e1e-45a4-9be2-cbaac96a26a5","ios":"levelo://app?vid=fe4931f5-5e1e-45a4-9be2-cbaac96a26a5"},"vehicle_type_id":"4","last_reported":1702836494,"current_range_meters":400,"station_id":"ce4bgt12rcd13ifvqce0","pricing_plan_id":"free"},{"bike_id":"9f084666-d9c8-4104-8112-29f1dad66c8e","system_id":"levelo_inurba_marseille","lat":43.31995,"lon":5.38149,"is_reserved":false,"is_disabled":false,"rental_uris":{"android":"levelo://app?vid=9f084666-d9c8-4104-8112-29f1dad66c8e","ios":"levelo://app?vid=9f084666-d9c8-4104-8112-29f1dad66c8e"},"vehicle_type_id":"4","last_reported":1702836494,"current_range_meters":0,"station_id":"ce4bhr12rcd13ifvqhpg","pricing_plan_id":"free"},{"bike_id":"b7a05b36-f443-4896-84c8-915437a35d8b","system_id":"levelo_inurba_marseille","lat":43.32002,"lon":5.38164,"is_reserved":false,"is_disabled":false,"rental_uris":{"android":"levelo://app?vid=b7a05b36-f443-4896-84c8-915437a35d8b","ios":"levelo://app?vid=b7a05b36-f443-4896-84c8-915437a35d8b"},"vehicle_type_id":"4","last_reported":1702836494,"current_range_meters":30400,"station_id":"","pricing_plan_id":"free"},{"bike_id":"dd704785-cf89-4e45-8db5-bc9f9a7c396f","system_id":"levelo_inurba_marseille","lat":43.313571,"lon":5.384829,"is_reserved":false,"is_disabled":false,"rental_uris":{"android":"levelo://app?vid=dd704785-cf89-4e45-8db5-bc9f9a7c396f","ios":"levelo://app?vid=dd704785-cf89-4e45-8db5-bc9f9a7c396f"},"vehicle_type_id":"4","last_reported":1702836494,"current_range_meters":19200,"station_id":"ce4bgt92rcd13ifvqcf0","pricing_plan_id":"free"},{"bike_id":"52cba0ac-2e5e-4f9f-8e69-338538225404","system_id":"levelo_inurba_marseille","lat":43.31363,"lon":5.3849,"is_reserved":false,"is_disabled":false,"rental_uris":{"android":"levelo://app?vid=52cba0ac-2e5e-4f9f-8e69-338538225404","ios":"levelo://app?vid=52cba0ac-2e5e-4f9f-8e69-338538225404"},"vehicle_type_id":"4","last_reported":1702836494,"current_range_meters":14000,"station_id":"ce4bgt92rcd13ifvqcf0","pricing_plan_id":"free"},{"bike_id":"078e48d2-aab9-4521-9e44-671b66509960","system_id":"levelo_inurba_marseille","lat":43.313571,"lon":5.384829,"is_reserved":false,"is_disabled":false,"rental_uris":{"android":"levelo://app?vid=078e48d2-aab9-4521-9e44-671b66509960","ios":"levelo://app?vid=078e48d2-aab9-4521-9e44-671b66509960"},"vehicle_type_id":"4","last_reported":1702836494,"current_range_meters":8000,"station_id":"ce4bgt92rcd13ifvqcf0","pricing_plan_id":"free"},{"bike_id":"4a20f047-73b2-4637-819a-93212ba7f12c","system_id":"levelo_inurba_marseille","lat":43.3137,"lon":5.385003,"is_reserved":false,"is_disabled":false,"rental_uris":{"android":"levelo://app?vid=4a20f047-73b2-4637-819a-93212ba7f12c","ios":"levelo://app?vid=4a20f047-73b2-4637-819a-93212ba7f12c"},"vehicle_type_id":"4","last_reported":1702836494,"current_range_meters":4000,"station_id":"ce4bgt92rcd13ifvqcf0","pricing_plan_id":"free"},{"bike_id":"ea440cbe-68e4-4af1-a58d-7e8659e259aa","system_id":"levelo_inurba_marseille","lat":43.299724,"lon":5.371829,"is_reserved":false,"is_disabled":false,"rental_uris":{"android":"levelo://app?vid=ea440cbe-68e4-4af1-a58d-7e8659e259aa","ios":"levelo://app?vid=ea440cbe-68e4-4af1-a58d-7e8659e259aa"},"vehicle_type_id":"4","last_reported":1702836494,"current_range_meters":27600,"station_id":"ce4bgr92rcd13ifvqc7g","pricing_plan_id":"free"},{"bike_id":"8346b57d-9761-4627-b978-ff11af8126af","system_id":"levelo_inurba_marseille","lat":43.305364,"lon":5.384119,"is_reserved":false,"is_disabled":false,"rental_uris":{"android":"levelo://app?vid=8346b57d-9761-4627-b978-ff11af8126af","ios":"levelo://app?vid=8346b57d-9761-4627-b978-ff11af8126af"},"vehicle_type_id":"4","last_reported":1702836494,"current_range_meters":25200,"station_id":"ce4bgg92rcd13ifvqb30","pricing_plan_id":"free"},{"bike_id":"c4e77394-aef9-4077-b745-e99148625344","system_id":"levelo_inurba_marseille","lat":43.32733,"lon":5.36707,"is_reserved":false,"is_disabled":false,"rental_uris":{"android":"levelo://app?vid=c4e77394-aef9-4077-b745-e99148625344","ios":"levelo://app?vid=c4e77394-aef9-4077-b745-e99148625344"},"vehicle_type_id":"4","last_reported":1702836494,"current_range_meters":18000,"station_id":"","pricing_plan_id":"free"},{"bike_id":"819cb438-2e9c-4e0b-902b-5e19ef554d5c","system_id":"levelo_inurba_marseille","lat":43.305543,"lon":5.384373,"is_reserved":false,"is_disabled":false,"rental_uris":{"android":"levelo://app?vid=819cb438-2e9c-4e0b-902b-5e19ef554d5c","ios":"levelo://app?vid=819cb438-2e9c-4e0b-902b-5e19ef554d5c"},"vehicle_type_id":"4","last_reported":1702836494,"current_range_meters":10400,"station_id":"ce4bgg92rcd13ifvqb30","pricing_plan_id":"free"},{"bike_id":"2c34774b-2dfa-4411-818f-880ad34fb9da","system_id":"levelo_inurba_marseille","lat":43.305364,"lon":5.384119,"is_reserved":false,"is_disabled":false,"rental_uris":{"android":"levelo://app?vid=2c34774b-2dfa-4411-818f-880ad34fb9da","ios":"levelo://app?vid=2c34774b-2dfa-4411-818f-880ad34fb9da"},"vehicle_type_id":"4","last_reported":1702836494,"current_range_meters":14400,"station_id":"ce4bgg92rcd13ifvqb30","pricing_plan_id":"free"},{"bike_id":"410cf47e-4960-491c-995d-36dc49f9a140","system_id":"levelo_inurba_marseille","lat":43.31171,"lon":5.3871,"is_reserved":false,"is_disabled":false,"rental_uris":{"android":"levelo://app?vid=410cf47e-4960-491c-995d-36dc49f9a140","ios":"levelo://app?vid=410cf47e-4960-491c-995d-36dc49f9a140"},"vehicle_type_id":"4","last_reported":1702836494,"current_range_meters":10000,"station_id":"ce4bgv12rcd13ifvqcp0","pricing_plan_id":"free"},{"bike_id":"404cf1a7-04dd-4cda-9f39-a48e8aef5ebc","system_id":"levelo_inurba_marseille","lat":43.311722,"lon":5.387247,"is_reserved":false,"is_disabled":false,"rental_uris":{"android":"levelo://app?vid=404cf1a7-04dd-4cda-9f39-a48e8aef5ebc","ios":"levelo://app?vid=404cf1a7-04dd-4cda-9f39-a48e8aef5ebc"},"vehicle_type_id":"4","last_reported":1702836494,"current_range_meters":18400,"station_id":"ce4bgv12rcd13ifvqcp0","pricing_plan_id":"free"},{"bike_id":"3737aebe-1cce-415b-8132-94746ed5f00f","system_id":"levelo_inurba_marseille","lat":43.32281,"lon":5.38277,"is_reserved":false,"is_disabled":false,"rental_uris":{"android":"levelo://app?vid=3737aebe-1cce-415b-8132-94746ed5f00f","ios":"levelo://app?vid=3737aebe-1cce-415b-8132-94746ed5f00f"},"vehicle_type_id":"4","last_reported":1702836494,"current_range_meters":2800,"station_id":"ce4bhr12rcd13ifvqhqg","pricing_plan_id":"free"},{"bike_id":"3db7b078-72fd-4368-b372-5af304e3e775","system_id":"levelo_inurba_marseille","lat":43.2968,"lon":5.37291,"is_reserved":false,"is_disabled":false,"rental_uris":{"android":"levelo://app?vid=3db7b078-72fd-4368-b372-5af304e3e775","ios":"levelo://app?vid=3db7b078-72fd-4368-b372-5af304e3e775"},"vehicle_type_id":"4","last_reported":1702836494,"current_range_meters":8400,"station_id":"ce4bgk12rcd13ifvqbj0","pricing_plan_id":"free"},{"bike_id":"554dcae1-3f06-45b1-ae42-1508926b85ac","system_id":"levelo_inurba_marseille","lat":43.2968,"lon":5.37291,"is_reserved":false,"is_disabled":false,"rental_uris":{"android":"levelo://app?vid=554dcae1-3f06-45b1-ae42-1508926b85ac","ios":"levelo://app?vid=554dcae1-3f06-45b1-ae42-1508926b85ac"},"vehicle_type_id":"4","last_reported":1702836494,"current_range_meters":13600,"station_id":"ce4bgk12rcd13ifvqbj0","pricing_plan_id":"free"},{"bike_id":"d446b868-5857-4852-a93b-8e929965d5b9","system_id":"levelo_inurba_marseille","lat":43.29625,"lon":5.37152,"is_reserved":false,"is_disabled":false,"rental_uris":{"android":"levelo://app?vid=d446b868-5857-4852-a93b-8e929965d5b9","ios":"levelo://app?vid=d446b868-5857-4852-a93b-8e929965d5b9"},"vehicle_type_id":"4","last_reported":1702836494,"current_range_meters":0,"station_id":"ce4bgnh2rcd13ifvqc0g","pricing_plan_id":"free"},{"bike_id":"319e01bb-178a-47f8-919c-ede22c8c5d92","system_id":"levelo_inurba_marseille","lat":43.29573,"lon":5.367355,"is_reserved":false,"is_disabled":false,"rental_uris":{"android":"levelo://app?vid=319e01bb-178a-47f8-919c-ede22c8c5d92","ios":"levelo://app?vid=319e01bb-178a-47f8-919c-ede22c8c5d92"},"vehicle_type_id":"4","last_reported":1702836494,"current_range_meters":3200,"station_id":"ce4bgph2rcd13ifvqc2g","pricing_plan_id":"free"},{"bike_id":"6c2a9c95-0d29-45ef-b4b0-b3f46c955dff","system_id":"levelo_inurba_marseille","lat":43.304274,"lon":5.388873,"is_reserved":false,"is_disabled":false,"rental_uris":{"android":"levelo://app?vid=6c2a9c95-0d29-45ef-b4b0-b3f46c955dff","ios":"levelo://app?vid=6c2a9c95-0d29-45ef-b4b0-b3f46c955dff"},"vehicle_type_id":"4","last_reported":1702836494,"current_range_meters":1200,"station_id":"ce4bgk12rcd13ifvqbi0","pricing_plan_id":"free"},{"bike_id":"f47d048a-701b-48aa-89ac-c729b5b32cbc","system_id":"levelo_inurba_marseille","lat":43.295748,"lon":5.37522,"is_reserved":false,"is_disabled":false,"rental_uris":{"android":"levelo://app?vid=f47d048a-701b-48aa-89ac-c729b5b32cbc","ios":"levelo://app?vid=f47d048a-701b-48aa-89ac-c729b5b32cbc"},"vehicle_type_id":"4","last_reported":1702836494,"current_range_meters":2000,"station_id":"ce4bgh92rcd13ifvqb50","pricing_plan_id":"free"},{"bike_id":"9ad0ce8e-5198-4e4b-bfec-571e2f2479f6","system_id":"levelo_inurba_marseille","lat":43.304278,"lon":5.388868,"is_reserved":false,"is_disabled":false,"rental_uris":{"android":"levelo://app?vid=9ad0ce8e-5198-4e4b-bfec-571e2f2479f6","ios":"levelo://app?vid=9ad0ce8e-5198-4e4b-bfec-571e2f2479f6"},"vehicle_type_id":"4","last_reported":1702836494,"current_range_meters":10800,"station_id":"ce4bgk12rcd13ifvqbi0","pricing_plan_id":"free"},{"bike_id":"07600c72-9e22-442e-800e-cbbd41fa8888","system_id":"levelo_inurba_marseille","lat":43.29786,"lon":5.38113,"is_reserved":false,"is_disabled":false,"rental_uris":{"android":"levelo://app?vid=07600c72-9e22-442e-800e-cbbd41fa8888","ios":"levelo://app?vid=07600c72-9e22-442e-800e-cbbd41fa8888"},"vehicle_type_id":"4","last_reported":1702836494,"current_range_meters":16400,"station_id":"","pricing_plan_id":"free"},{"bike_id":"627a71df-2e83-4dff-8fd8-afe974d98f61","system_id":"levelo_inurba_marseille","lat":43.295748,"lon":5.37522,"is_reserved":false,"is_disabled":false,"rental_uris":{"android":"levelo://app?vid=627a71df-2e83-4dff-8fd8-afe974d98f61","ios":"levelo://app?vid=627a71df-2e83-4dff-8fd8-afe974d98f61"},"vehicle_type_id":"4","last_reported":1702836494,"current_range_meters":0,"station_id":"ce4bgh92rcd13ifvqb50","pricing_plan_id":"free"},{"bike_id":"378ac545-7c24-4426-833c-550f79cee2ea","system_id":"levelo_inurba_marseille","lat":43.295993,"lon":5.37719,"is_reserved":false,"is_disabled":false,"rental_uris":{"android":"levelo://app?vid=378ac545-7c24-4426-833c-550f79cee2ea","ios":"levelo://app?vid=378ac545-7c24-4426-833c-550f79cee2ea"},"vehicle_type_id":"4","last_reported":1702836494,"current_range_meters":0,"station_id":"ce4bgi92rcd13ifvqb90","pricing_plan_id":"free"},{"bike_id":"da2bf830-8371-4987-8296-d78e324a9b5b","system_id":"levelo_inurba_marseille","lat":43.2964,"lon":5.37969,"is_reserved":false,"is_disabled":false,"rental_uris":{"android":"levelo://app?vid=da2bf830-8371-4987-8296-d78e324a9b5b","ios":"levelo://app?vid=da2bf830-8371-4987-8296-d78e324a9b5b"},"vehicle_type_id":"4","last_reported":1702836494,"current_range_meters":0,"station_id":"","pricing_plan_id":"free"},{"bike_id":"7271e099-0675-422d-8825-ddc01c38f587","system_id":"levelo_inurba_marseille","lat":43.32369,"lon":5.38882,"is_reserved":false,"is_disabled":false,"rental_uris":{"android":"levelo://app?vid=7271e099-0675-422d-8825-ddc01c38f587","ios":"levelo://app?vid=7271e099-0675-422d-8825-ddc01c38f587"},"vehicle_type_id":"4","last_reported":1702836494,"current_range_meters":15600,"station_id":"ce4bhqp2rcd13ifvqhog","pricing_plan_id":"free"},{"bike_id":"50aef66f-cc4d-441f-9aac-75d4302f55cd","system_id":"levelo_inurba_marseille","lat":43.29601,"lon":5.381084,"is_reserved":false,"is_disabled":false,"rental_uris":{"android":"levelo://app?vid=50aef66f-cc4d-441f-9aac-75d4302f55cd","ios":"levelo://app?vid=50aef66f-cc4d-441f-9aac-75d4302f55cd"},"vehicle_type_id":"4","last_reported":1702836494,"current_range_meters":21200,"station_id":"ce4bgl12rcd13ifvqbo0","pricing_plan_id":"free"},{"bike_id":"45bd253c-d084-4e14-ab19-647c5e0e5d50","system_id":"levelo_inurba_marseille","lat":43.29601,"lon":5.381084,"is_reserved":false,"is_disabled":false,"rental_uris":{"android":"levelo://app?vid=45bd253c-d084-4e14-ab19-647c5e0e5d50","ios":"levelo://app?vid=45bd253c-d084-4e14-ab19-647c5e0e5d50"},"vehicle_type_id":"4","last_reported":1702836494,"current_range_meters":8400,"station_id":"ce4bgl12rcd13ifvqbo0","pricing_plan_id":"free"},{"bike_id":"8b012e95-a7da-4189-b71b-d17cb9a85b21","system_id":"levelo_inurba_marseille","lat":43.293259,"lon":5.371586,"is_reserved":false,"is_disabled":false,"rental_uris":{"android":"levelo://app?vid=8b012e95-a7da-4189-b71b-d17cb9a85b21","ios":"levelo://app?vid=8b012e95-a7da-4189-b71b-d17cb9a85b21"},"vehicle_type_id":"4","last_reported":1702836494,"current_range_meters":19200,"station_id":"ce4bgh92rcd13ifvqb40","pricing_plan_id":"free"},{"bike_id":"abe4b43c-0e36-4e18-98ee-128bd9ed678d","system_id":"levelo_inurba_marseille","lat":43.293249,"lon":5.371578,"is_reserved":false,"is_disabled":false,"rental_uris":{"android":"levelo://app?vid=abe4b43c-0e36-4e18-98ee-128bd9ed678d","ios":"levelo://app?vid=abe4b43c-0e36-4e18-98ee-128bd9ed678d"},"vehicle_type_id":"4","last_reported":1702836494,"current_range_meters":30400,"station_id":"ce4bgh92rcd13ifvqb40","pricing_plan_id":"free"},{"bike_id":"fca22749-496c-4938-b580-3a6f2b3835ce","system_id":"levelo_inurba_marseille","lat":43.302992,"lon":5.392136,"is_reserved":false,"is_disabled":false,"rental_uris":{"android":"levelo://app?vid=fca22749-496c-4938-b580-3a6f2b3835ce","ios":"levelo://app?vid=fca22749-496c-4938-b580-3a6f2b3835ce"},"vehicle_type_id":"4","last_reported":1702836494,"current_range_meters":28000,"station_id":"ce4bgkh2rcd13ifvqbk0","pricing_plan_id":"free"},{"bike_id":"c06b883e-56fa-41cc-986a-8dd008be63ad","system_id":"levelo_inurba_marseille","lat":43.302992,"lon":5.392136,"is_reserved":false,"is_disabled":false,"rental_uris":{"android":"levelo://app?vid=c06b883e-56fa-41cc-986a-8dd008be63ad","ios":"levelo://app?vid=c06b883e-56fa-41cc-986a-8dd008be63ad"},"vehicle_type_id":"4","last_reported":1702836494,"current_range_meters":2800,"station_id":"ce4bgkh2rcd13ifvqbk0","pricing_plan_id":"free"},{"bike_id":"53dd01d9-dfba-45d5-8aa1-246978042040","system_id":"levelo_inurba_marseille","lat":43.29373,"lon":5.37848,"is_reserved":false,"is_disabled":false,"rental_uris":{"android":"levelo://app?vid=53dd01d9-dfba-45d5-8aa1-246978042040","ios":"levelo://app?vid=53dd01d9-dfba-45d5-8aa1-246978042040"},"vehicle_type_id":"4","last_reported":1702836494,"current_range_meters":0,"station_id":"ce4bgjh2rcd13ifvqbf0","pricing_plan_id":"free"},{"bike_id":"b34bf46b-8980-47e1-987d-c7c2a607a653","system_id":"levelo_inurba_marseille","lat":43.300852,"lon":5.390859,"is_reserved":false,"is_disabled":false,"rental_uris":{"android":"levelo://app?vid=b34bf46b-8980-47e1-987d-c7c2a607a653","ios":"levelo://app?vid=b34bf46b-8980-47e1-987d-c7c2a607a653"},"vehicle_type_id":"4","last_reported":1702836494,"current_range_meters":9600,"station_id":"ce4bh192rcd13ifvqdb0","pricing_plan_id":"free"},{"bike_id":"5b7ff7c1-e4c9-4a71-8a6b-a720a15c3d21","system_id":"levelo_inurba_marseille","lat":43.30085,"lon":5.390856,"is_reserved":false,"is_disabled":false,"rental_uris":{"android":"levelo://app?vid=5b7ff7c1-e4c9-4a71-8a6b-a720a15c3d21","ios":"levelo://app?vid=5b7ff7c1-e4c9-4a71-8a6b-a720a15c3d21"},"vehicle_type_id":"4","last_reported":1702836494,"current_range_meters":27200,"station_id":"ce4bh192rcd13ifvqdb0","pricing_plan_id":"free"},{"bike_id":"f2980073-f37d-42cc-8104-69e4991e888e","system_id":"levelo_inurba_marseille","lat":43.291675,"lon":5.371583,"is_reserved":false,"is_disabled":false,"rental_uris":{"android":"levelo://app?vid=f2980073-f37d-42cc-8104-69e4991e888e","ios":"levelo://app?vid=f2980073-f37d-42cc-8104-69e4991e888e"},"vehicle_type_id":"4","last_reported":1702836494,"current_range_meters":15200,"station_id":"ce4bha92rcd13ifvqeh0","pricing_plan_id":"free"},{"bike_id":"af0e3f33-33fd-4cfa-9307-5ebe4697f462","system_id":"levelo_inurba_marseille","lat":43.31331,"lon":5.39693,"is_reserved":false,"is_disabled":false,"rental_uris":{"android":"levelo://app?vid=af0e3f33-33fd-4cfa-9307-5ebe4697f462","ios":"levelo://app?vid=af0e3f33-33fd-4cfa-9307-5ebe4697f462"},"vehicle_type_id":"4","last_reported":1702836494,"current_range_meters":11600,"station_id":"ce4bgvp2rcd13ifvqcu0","pricing_plan_id":"free"},{"bike_id":"233d6dad-2293-4dd7-b307-467051e0fce4","system_id":"levelo_inurba_marseille","lat":43.31329,"lon":5.39694,"is_reserved":false,"is_disabled":false,"rental_uris":{"android":"levelo://app?vid=233d6dad-2293-4dd7-b307-467051e0fce4","ios":"levelo://app?vid=233d6dad-2293-4dd7-b307-467051e0fce4"},"vehicle_type_id":"4","last_reported":1702836494,"current_range_meters":0,"station_id":"ce4bgvp2rcd13ifvqcu0","pricing_plan_id":"free"},{"bike_id":"ac02f0b4-11e5-4bc4-96db-786bb1ac4a28","system_id":"levelo_inurba_marseille","lat":43.309038,"lon":5.396546,"is_reserved":false,"is_disabled":false,"rental_uris":{"android":"levelo://app?vid=ac02f0b4-11e5-4bc4-96db-786bb1ac4a28","ios":"levelo://app?vid=ac02f0b4-11e5-4bc4-96db-786bb1ac4a28"},"vehicle_type_id":"4","last_reported":1702836494,"current_range_meters":20400,"station_id":"ce4bh012rcd13ifvqcv0","pricing_plan_id":"free"},{"bike_id":"db724759-4570-40a9-a75c-f124ff641bc5","system_id":"levelo_inurba_marseille","lat":43.29529,"lon":5.38545,"is_reserved":false,"is_disabled":false,"rental_uris":{"android":"levelo://app?vid=db724759-4570-40a9-a75c-f124ff641bc5","ios":"levelo://app?vid=db724759-4570-40a9-a75c-f124ff641bc5"},"vehicle_type_id":"4","last_reported":1702836494,"current_range_meters":0,"station_id":"ce4bgih2rcd13ifvqba0","pricing_plan_id":"free"},{"bike_id":"f048770f-9d47-42de-8181-4552c93475bc","system_id":"levelo_inurba_marseille","lat":43.290779,"lon":5.371482,"is_reserved":false,"is_disabled":false,"rental_uris":{"android":"levelo://app?vid=f048770f-9d47-42de-8181-4552c93475bc","ios":"levelo://app?vid=f048770f-9d47-42de-8181-4552c93475bc"},"vehicle_type_id":"4","last_reported":1702836494,"current_range_meters":12400,"station_id":"ce4bh5p2rcd13ifvqe4g","pricing_plan_id":"free"},{"bike_id":"9df8535e-c19c-4927-8201-e6da9544e9ad","system_id":"levelo_inurba_marseille","lat":43.290779,"lon":5.371482,"is_reserved":false,"is_disabled":false,"rental_uris":{"android":"levelo://app?vid=9df8535e-c19c-4927-8201-e6da9544e9ad","ios":"levelo://app?vid=9df8535e-c19c-4927-8201-e6da9544e9ad"},"vehicle_type_id":"4","last_reported":1702836494,"current_range_meters":8400,"station_id":"ce4bh5p2rcd13ifvqe4g","pricing_plan_id":"free"},{"bike_id":"dbf0781a-79c7-4481-a3cf-0201370172af","system_id":"levelo_inurba_marseille","lat":43.302008,"lon":5.394694,"is_reserved":false,"is_disabled":false,"rental_uris":{"android":"levelo://app?vid=dbf0781a-79c7-4481-a3cf-0201370172af","ios":"levelo://app?vid=dbf0781a-79c7-4481-a3cf-0201370172af"},"vehicle_type_id":"4","last_reported":1702836494,"current_range_meters":30000,"station_id":"ce4bh0p2rcd13ifvqd70","pricing_plan_id":"free"},{"bike_id":"bfc41238-2023-480b-b755-77c13894c91f","system_id":"levelo_inurba_marseille","lat":43.302008,"lon":5.394694,"is_reserved":false,"is_disabled":false,"rental_uris":{"android":"levelo://app?vid=bfc41238-2023-480b-b755-77c13894c91f","ios":"levelo://app?vid=bfc41238-2023-480b-b755-77c13894c91f"},"vehicle_type_id":"4","last_reported":1702836494,"current_range_meters":0,"station_id":"ce4bh0p2rcd13ifvqd70","pricing_plan_id":"free"},{"bike_id":"1a241f81-32ab-472c-bc68-49b693af7036","system_id":"levelo_inurba_marseille","lat":43.290631,"lon":5.359244,"is_reserved":false,"is_disabled":false,"rental_uris":{"android":"levelo://app?vid=1a241f81-32ab-472c-bc68-49b693af7036","ios":"levelo://app?vid=1a241f81-32ab-472c-bc68-49b693af7036"},"vehicle_type_id":"4","last_reported":1702836494,"current_range_meters":8000,"station_id":"ce4bha92rcd13ifvqeg0","pricing_plan_id":"free"},{"bike_id":"8d85c476-572e-4fe1-9647-5e37db25a29d","system_id":"levelo_inurba_marseille","lat":43.294153,"lon":5.386305,"is_reserved":false,"is_disabled":false,"rental_uris":{"android":"levelo://app?vid=8d85c476-572e-4fe1-9647-5e37db25a29d","ios":"levelo://app?vid=8d85c476-572e-4fe1-9647-5e37db25a29d"},"vehicle_type_id":"4","last_reported":1702836494,"current_range_meters":12000,"station_id":"ce4bh2h2rcd13ifvqdh0","pricing_plan_id":"free"},{"bike_id":"2edb18a1-7a7d-4c9b-872d-8706d589bc8c","system_id":"levelo_inurba_marseille","lat":43.289184,"lon":5.366408,"is_reserved":false,"is_disabled":false,"rental_uris":{"android":"levelo://app?vid=2edb18a1-7a7d-4c9b-872d-8706d589bc8c","ios":"levelo://app?vid=2edb18a1-7a7d-4c9b-872d-8706d589bc8c"},"vehicle_type_id":"4","last_reported":1702836494,"current_range_meters":6000,"station_id":"ce4bhap2rcd13ifvqek0","pricing_plan_id":"free"},{"bike_id":"de511fd0-1828-42b1-914c-693dc21c9204","system_id":"levelo_inurba_marseille","lat":43.304296,"lon":5.397513,"is_reserved":false,"is_disabled":false,"rental_uris":{"android":"levelo://app?vid=de511fd0-1828-42b1-914c-693dc21c9204","ios":"levelo://app?vid=de511fd0-1828-42b1-914c-693dc21c9204"},"vehicle_type_id":"4","last_reported":1702836494,"current_range_meters":5200,"station_id":"ce4bh092rcd13ifvqd20","pricing_plan_id":"free"},{"bike_id":"d9cf925f-2245-43d6-aa52-ac3d8586d917","system_id":"levelo_inurba_marseille","lat":43.283494,"lon":5.380945,"is_reserved":false,"is_disabled":false,"rental_uris":{"android":"levelo://app?vid=d9cf925f-2245-43d6-aa52-ac3d8586d917","ios":"levelo://app?vid=d9cf925f-2245-43d6-aa52-ac3d8586d917"},"vehicle_type_id":"4","last_reported":1702836494,"current_range_meters":13600,"station_id":"ce4bh412rcd13ifvqdr0","pricing_plan_id":"free"},{"bike_id":"ba0772a6-4b39-4481-a014-00f1783aedb1","system_id":"levelo_inurba_marseille","lat":43.304296,"lon":5.397513,"is_reserved":false,"is_disabled":false,"rental_uris":{"android":"levelo://app?vid=ba0772a6-4b39-4481-a014-00f1783aedb1","ios":"levelo://app?vid=ba0772a6-4b39-4481-a014-00f1783aedb1"},"vehicle_type_id":"4","last_reported":1702836494,"current_range_meters":13600,"station_id":"ce4bh092rcd13ifvqd20","pricing_plan_id":"free"},{"bike_id":"bb1144f8-d89e-4d2c-b71a-212a8211b4e6","system_id":"levelo_inurba_marseille","lat":43.29255,"lon":5.38452,"is_reserved":false,"is_disabled":false,"rental_uris":{"android":"levelo://app?vid=bb1144f8-d89e-4d2c-b71a-212a8211b4e6","ios":"levelo://app?vid=bb1144f8-d89e-4d2c-b71a-212a8211b4e6"},"vehicle_type_id":"4","last_reported":1702836494,"current_range_meters":0,"station_id":"ce4bh692rcd13ifvqea0","pricing_plan_id":"free"},{"bike_id":"4307e344-f1ed-4ce2-940a-81d309d06930","system_id":"levelo_inurba_marseille","lat":43.33044,"lon":5.38921,"is_reserved":false,"is_disabled":false,"rental_uris":{"android":"levelo://app?vid=4307e344-f1ed-4ce2-940a-81d309d06930","ios":"levelo://app?vid=4307e344-f1ed-4ce2-940a-81d309d06930"},"vehicle_type_id":"4","last_reported":1702836494,"current_range_meters":18400,"station_id":"ce4bhr92rcd13ifvqhrg","pricing_plan_id":"free"},{"bike_id":"5fa34a05-5c55-4873-a568-038c0fe9a5d6","system_id":"levelo_inurba_marseille","lat":43.33044,"lon":5.38923,"is_reserved":false,"is_disabled":false,"rental_uris":{"android":"levelo://app?vid=5fa34a05-5c55-4873-a568-038c0fe9a5d6","ios":"levelo://app?vid=5fa34a05-5c55-4873-a568-038c0fe9a5d6"},"vehicle_type_id":"4","last_reported":1702836494,"current_range_meters":10800,"station_id":"ce4bhr92rcd13ifvqhrg","pricing_plan_id":"free"},{"bike_id":"60ab7708-2893-4f84-93e7-1a2406357219","system_id":"levelo_inurba_marseille","lat":43.290995,"lon":5.381361,"is_reserved":false,"is_disabled":false,"rental_uris":{"android":"levelo://app?vid=60ab7708-2893-4f84-93e7-1a2406357219","ios":"levelo://app?vid=60ab7708-2893-4f84-93e7-1a2406357219"},"vehicle_type_id":"4","last_reported":1702836494,"current_range_meters":25600,"station_id":"ce4bh512rcd13ifvqe2g","pricing_plan_id":"free"},{"bike_id":"5e34ed2c-bf38-40ae-a8cb-00f085f8e568","system_id":"levelo_inurba_marseille","lat":43.29157,"lon":5.382865,"is_reserved":false,"is_disabled":false,"rental_uris":{"android":"levelo://app?vid=5e34ed2c-bf38-40ae-a8cb-00f085f8e568","ios":"levelo://app?vid=5e34ed2c-bf38-40ae-a8cb-00f085f8e568"},"vehicle_type_id":"4","last_reported":1702836494,"current_range_meters":0,"station_id":"","pricing_plan_id":"free"},{"bike_id":"65328495-1e42-4317-bf0d-2d56562b58a8","system_id":"levelo_inurba_marseille","lat":43.297863,"lon":5.39337,"is_reserved":false,"is_disabled":false,"rental_uris":{"android":"levelo://app?vid=65328495-1e42-4317-bf0d-2d56562b58a8","ios":"levelo://app?vid=65328495-1e42-4317-bf0d-2d56562b58a8"},"vehicle_type_id":"4","last_reported":1702836494,"current_range_meters":4000,"station_id":"chh1huq6cuj3fo74tm60","pricing_plan_id":"free"},{"bike_id":"c2cd03e8-8f24-4d8e-a3e1-afa57e528bb3","system_id":"levelo_inurba_marseille","lat":43.29787,"lon":5.39338,"is_reserved":false,"is_disabled":false,"rental_uris":{"android":"levelo://app?vid=c2cd03e8-8f24-4d8e-a3e1-afa57e528bb3","ios":"levelo://app?vid=c2cd03e8-8f24-4d8e-a3e1-afa57e528bb3"},"vehicle_type_id":"4","last_reported":1702836494,"current_range_meters":9600,"station_id":"chh1huq6cuj3fo74tm60","pricing_plan_id":"free"},{"bike_id":"b2974b1e-e287-4eec-afa7-6109bdddf690","system_id":"levelo_inurba_marseille","lat":43.29776,"lon":5.39328,"is_reserved":false,"is_disabled":false,"rental_uris":{"android":"levelo://app?vid=b2974b1e-e287-4eec-afa7-6109bdddf690","ios":"levelo://app?vid=b2974b1e-e287-4eec-afa7-6109bdddf690"},"vehicle_type_id":"4","last_reported":1702836494,"current_range_meters":5600,"station_id":"chh1huq6cuj3fo74tm60","pricing_plan_id":"free"},{"bike_id":"423b0908-55b8-4ed9-b9f1-a608635a3de9","system_id":"levelo_inurba_marseille","lat":43.297815,"lon":5.393548,"is_reserved":false,"is_disabled":false,"rental_uris":{"android":"levelo://app?vid=423b0908-55b8-4ed9-b9f1-a608635a3de9","ios":"levelo://app?vid=423b0908-55b8-4ed9-b9f1-a608635a3de9"},"vehicle_type_id":"4","last_reported":1702836494,"current_range_meters":12000,"station_id":"chh1huq6cuj3fo74tm60","pricing_plan_id":"free"},{"bike_id":"ebee04b5-5d6f-4289-980d-69e0698d9b10","system_id":"levelo_inurba_marseille","lat":43.297815,"lon":5.393548,"is_reserved":false,"is_disabled":false,"rental_uris":{"android":"levelo://app?vid=ebee04b5-5d6f-4289-980d-69e0698d9b10","ios":"levelo://app?vid=ebee04b5-5d6f-4289-980d-69e0698d9b10"},"vehicle_type_id":"4","last_reported":1702836494,"current_range_meters":10400,"station_id":"chh1huq6cuj3fo74tm60","pricing_plan_id":"free"},{"bike_id":"a7e2187b-efbe-4c54-bbf2-0d9d9de30506","system_id":"levelo_inurba_marseille","lat":43.33141,"lon":5.389373,"is_reserved":false,"is_disabled":false,"rental_uris":{"android":"levelo://app?vid=a7e2187b-efbe-4c54-bbf2-0d9d9de30506","ios":"levelo://app?vid=a7e2187b-efbe-4c54-bbf2-0d9d9de30506"},"vehicle_type_id":"4","last_reported":1702836494,"current_range_meters":15200,"station_id":"","pricing_plan_id":"free"},{"bike_id":"da6ac146-5a23-4497-98d6-3519b6e74a6b","system_id":"levelo_inurba_marseille","lat":43.288593,"lon":5.35843,"is_reserved":false,"is_disabled":false,"rental_uris":{"android":"levelo://app?vid=da6ac146-5a23-4497-98d6-3519b6e74a6b","ios":"levelo://app?vid=da6ac146-5a23-4497-98d6-3519b6e74a6b"},"vehicle_type_id":"4","last_reported":1702836494,"current_range_meters":0,"station_id":"ce4bhb12rcd13ifvqem0","pricing_plan_id":"free"},{"bike_id":"27371b33-fe33-4f1d-ae9d-806609b20732","system_id":"levelo_inurba_marseille","lat":43.312609,"lon":5.401662,"is_reserved":false,"is_disabled":false,"rental_uris":{"android":"levelo://app?vid=27371b33-fe33-4f1d-ae9d-806609b20732","ios":"levelo://app?vid=27371b33-fe33-4f1d-ae9d-806609b20732"},"vehicle_type_id":"4","last_reported":1702836494,"current_range_meters":5200,"station_id":"ce4bh092rcd13ifvqd30","pricing_plan_id":"free"},{"bike_id":"75b83db6-5cc6-4d66-a67f-b07b3fcefa42","system_id":"levelo_inurba_marseille","lat":43.306412,"lon":5.401035,"is_reserved":false,"is_disabled":false,"rental_uris":{"android":"levelo://app?vid=75b83db6-5cc6-4d66-a67f-b07b3fcefa42","ios":"levelo://app?vid=75b83db6-5cc6-4d66-a67f-b07b3fcefa42"},"vehicle_type_id":"4","last_reported":1702836494,"current_range_meters":30400,"station_id":"ce4bh112rcd13ifvqda0","pricing_plan_id":"free"},{"bike_id":"eaefbba3-0d02-435d-9681-4bf0d7e848a0","system_id":"levelo_inurba_marseille","lat":43.283998,"lon":5.375062,"is_reserved":false,"is_disabled":false,"rental_uris":{"android":"levelo://app?vid=eaefbba3-0d02-435d-9681-4bf0d7e848a0","ios":"levelo://app?vid=eaefbba3-0d02-435d-9681-4bf0d7e848a0"},"vehicle_type_id":"4","last_reported":1702836494,"current_range_meters":8000,"station_id":"ce4bh412rcd13ifvqds0","pricing_plan_id":"free"},{"bike_id":"2c5a9b3a-4c51-4106-ab9e-80f7930dc88e","system_id":"levelo_inurba_marseille","lat":43.313575,"lon":5.4024,"is_reserved":false,"is_disabled":false,"rental_uris":{"android":"levelo://app?vid=2c5a9b3a-4c51-4106-ab9e-80f7930dc88e","ios":"levelo://app?vid=2c5a9b3a-4c51-4106-ab9e-80f7930dc88e"},"vehicle_type_id":"4","last_reported":1702836494,"current_range_meters":29200,"station_id":"ce4bh092rcd13ifvqd30","pricing_plan_id":"free"},{"bike_id":"a014d20b-f311-4d79-b9e4-c101e16db406","system_id":"levelo_inurba_marseille","lat":43.29869,"lon":5.39724,"is_reserved":false,"is_disabled":false,"rental_uris":{"android":"levelo://app?vid=a014d20b-f311-4d79-b9e4-c101e16db406","ios":"levelo://app?vid=a014d20b-f311-4d79-b9e4-c101e16db406"},"vehicle_type_id":"4","last_reported":1702836494,"current_range_meters":16000,"station_id":"ce4bh0h2rcd13ifvqd50","pricing_plan_id":"free"},{"bike_id":"b5e1a2d9-3074-46e0-a4cf-b3ff4a213557","system_id":"levelo_inurba_marseille","lat":43.302759,"lon":5.400793,"is_reserved":false,"is_disabled":false,"rental_uris":{"android":"levelo://app?vid=b5e1a2d9-3074-46e0-a4cf-b3ff4a213557","ios":"levelo://app?vid=b5e1a2d9-3074-46e0-a4cf-b3ff4a213557"},"vehicle_type_id":"4","last_reported":1702836494,"current_range_meters":6800,"station_id":"ce4bgvh2rcd13ifvqcs0","pricing_plan_id":"free"},{"bike_id":"deb47c49-7f59-45b1-a9ec-9a69b0f3f5c1","system_id":"levelo_inurba_marseille","lat":43.290303,"lon":5.3863,"is_reserved":false,"is_disabled":false,"rental_uris":{"android":"levelo://app?vid=deb47c49-7f59-45b1-a9ec-9a69b0f3f5c1","ios":"levelo://app?vid=deb47c49-7f59-45b1-a9ec-9a69b0f3f5c1"},"vehicle_type_id":"4","last_reported":1702836494,"current_range_meters":0,"station_id":"ce4bh4p2rcd13ifvqe0g","pricing_plan_id":"free"},{"bike_id":"935437d0-23dc-4ceb-9818-bd3d11379bbc","system_id":"levelo_inurba_marseille","lat":43.30251,"lon":5.40055,"is_reserved":false,"is_disabled":false,"rental_uris":{"android":"levelo://app?vid=935437d0-23dc-4ceb-9818-bd3d11379bbc","ios":"levelo://app?vid=935437d0-23dc-4ceb-9818-bd3d11379bbc"},"vehicle_type_id":"4","last_reported":1702836494,"current_range_meters":0,"station_id":"ce4bgvh2rcd13ifvqcs0","pricing_plan_id":"free"},{"bike_id":"2b3d1424-b583-4110-8837-67b5ffce2387","system_id":"levelo_inurba_marseille","lat":43.302759,"lon":5.400793,"is_reserved":false,"is_disabled":false,"rental_uris":{"android":"levelo://app?vid=2b3d1424-b583-4110-8837-67b5ffce2387","ios":"levelo://app?vid=2b3d1424-b583-4110-8837-67b5ffce2387"},"vehicle_type_id":"4","last_reported":1702836494,"current_range_meters":21200,"station_id":"ce4bgvh2rcd13ifvqcs0","pricing_plan_id":"free"},{"bike_id":"769df7fc-7e8d-414e-b2a8-a26a6e2e6128","system_id":"levelo_inurba_marseille","lat":43.302759,"lon":5.400793,"is_reserved":false,"is_disabled":false,"rental_uris":{"android":"levelo://app?vid=769df7fc-7e8d-414e-b2a8-a26a6e2e6128","ios":"levelo://app?vid=769df7fc-7e8d-414e-b2a8-a26a6e2e6128"},"vehicle_type_id":"4","last_reported":1702836494,"current_range_meters":22800,"station_id":"ce4bgvh2rcd13ifvqcs0","pricing_plan_id":"free"},{"bike_id":"445f3065-44a6-427f-bde2-e724b1c5b7be","system_id":"levelo_inurba_marseille","lat":43.302759,"lon":5.400793,"is_reserved":false,"is_disabled":false,"rental_uris":{"android":"levelo://app?vid=445f3065-44a6-427f-bde2-e724b1c5b7be","ios":"levelo://app?vid=445f3065-44a6-427f-bde2-e724b1c5b7be"},"vehicle_type_id":"4","last_reported":1702836494,"current_range_meters":19200,"station_id":"ce4bgvh2rcd13ifvqcs0","pricing_plan_id":"free"},{"bike_id":"df99e05d-4278-4cf2-b9cd-68787470367c","system_id":"levelo_inurba_marseille","lat":43.302759,"lon":5.400793,"is_reserved":false,"is_disabled":false,"rental_uris":{"android":"levelo://app?vid=df99e05d-4278-4cf2-b9cd-68787470367c","ios":"levelo://app?vid=df99e05d-4278-4cf2-b9cd-68787470367c"},"vehicle_type_id":"4","last_reported":1702836494,"current_range_meters":14400,"station_id":"ce4bgvh2rcd13ifvqcs0","pricing_plan_id":"free"},{"bike_id":"ae411ccc-e5cf-4858-949f-adb160516584","system_id":"levelo_inurba_marseille","lat":43.302759,"lon":5.400793,"is_reserved":false,"is_disabled":false,"rental_uris":{"android":"levelo://app?vid=ae411ccc-e5cf-4858-949f-adb160516584","ios":"levelo://app?vid=ae411ccc-e5cf-4858-949f-adb160516584"},"vehicle_type_id":"4","last_reported":1702836494,"current_range_meters":18800,"station_id":"ce4bgvh2rcd13ifvqcs0","pricing_plan_id":"free"},{"bike_id":"fae33f7b-dca4-4b10-b524-6b60e18017e3","system_id":"levelo_inurba_marseille","lat":43.292724,"lon":5.401131,"is_reserved":false,"is_disabled":false,"rental_uris":{"android":"levelo://app?vid=fae33f7b-dca4-4b10-b524-6b60e18017e3","ios":"levelo://app?vid=fae33f7b-dca4-4b10-b524-6b60e18017e3"},"vehicle_type_id":"4","last_reported":1702836494,"current_range_meters":9600,"station_id":"ce4bh312rcd13ifvqdk0","pricing_plan_id":"free"},{"bike_id":"c2c17736-fb18-4f98-8674-fbce40c18741","system_id":"levelo_inurba_marseille","lat":43.287184,"lon":5.37937,"is_reserved":false,"is_disabled":false,"rental_uris":{"android":"levelo://app?vid=c2c17736-fb18-4f98-8674-fbce40c18741","ios":"levelo://app?vid=c2c17736-fb18-4f98-8674-fbce40c18741"},"vehicle_type_id":"4","last_reported":1702836494,"current_range_meters":26400,"station_id":"ce4bh9p2rcd13ifvqec0","pricing_plan_id":"free"},{"bike_id":"c47b55af-b25a-40a8-94f6-767c79f5fad5","system_id":"levelo_inurba_marseille","lat":43.287184,"lon":5.37937,"is_reserved":false,"is_disabled":false,"rental_uris":{"android":"levelo://app?vid=c47b55af-b25a-40a8-94f6-767c79f5fad5","ios":"levelo://app?vid=c47b55af-b25a-40a8-94f6-767c79f5fad5"},"vehicle_type_id":"4","last_reported":1702836494,"current_range_meters":18000,"station_id":"ce4bh9p2rcd13ifvqec0","pricing_plan_id":"free"},{"bike_id":"72e78105-a230-43e1-b0cb-43844cee1f2c","system_id":"levelo_inurba_marseille","lat":43.287185,"lon":5.379373,"is_reserved":false,"is_disabled":false,"rental_uris":{"android":"levelo://app?vid=72e78105-a230-43e1-b0cb-43844cee1f2c","ios":"levelo://app?vid=72e78105-a230-43e1-b0cb-43844cee1f2c"},"vehicle_type_id":"4","last_reported":1702836494,"current_range_meters":25600,"station_id":"ce4bh9p2rcd13ifvqec0","pricing_plan_id":"free"},{"bike_id":"1af7b32a-19aa-436b-98b8-affd362c0853","system_id":"levelo_inurba_marseille","lat":43.287184,"lon":5.37937,"is_reserved":false,"is_disabled":false,"rental_uris":{"android":"levelo://app?vid=1af7b32a-19aa-436b-98b8-affd362c0853","ios":"levelo://app?vid=1af7b32a-19aa-436b-98b8-affd362c0853"},"vehicle_type_id":"4","last_reported":1702836494,"current_range_meters":3200,"station_id":"ce4bh9p2rcd13ifvqec0","pricing_plan_id":"free"},{"bike_id":"3399bec6-99d2-4af9-a0ca-5fc9d1580d0e","system_id":"levelo_inurba_marseille","lat":43.287184,"lon":5.37937,"is_reserved":false,"is_disabled":false,"rental_uris":{"android":"levelo://app?vid=3399bec6-99d2-4af9-a0ca-5fc9d1580d0e","ios":"levelo://app?vid=3399bec6-99d2-4af9-a0ca-5fc9d1580d0e"},"vehicle_type_id":"4","last_reported":1702836494,"current_range_meters":24800,"station_id":"ce4bh9p2rcd13ifvqec0","pricing_plan_id":"free"},{"bike_id":"a2577d38-3f83-4bd1-af83-835925ebcd8a","system_id":"levelo_inurba_marseille","lat":43.291994,"lon":5.392907,"is_reserved":false,"is_disabled":false,"rental_uris":{"android":"levelo://app?vid=a2577d38-3f83-4bd1-af83-835925ebcd8a","ios":"levelo://app?vid=a2577d38-3f83-4bd1-af83-835925ebcd8a"},"vehicle_type_id":"4","last_reported":1702836494,"current_range_meters":18400,"station_id":"ce4bh192rcd13ifvqdd0","pricing_plan_id":"free"},{"bike_id":"2a553197-7fdc-452f-a9e1-4c9e00d5a090","system_id":"levelo_inurba_marseille","lat":43.286039,"lon":5.370679,"is_reserved":false,"is_disabled":false,"rental_uris":{"android":"levelo://app?vid=2a553197-7fdc-452f-a9e1-4c9e00d5a090","ios":"levelo://app?vid=2a553197-7fdc-452f-a9e1-4c9e00d5a090"},"vehicle_type_id":"4","last_reported":1702836494,"current_range_meters":29600,"station_id":"ce4bht12rcd13ifvqi60","pricing_plan_id":"free"},{"bike_id":"6e6ff843-86a3-4eeb-8003-2bb88a4e4a10","system_id":"levelo_inurba_marseille","lat":43.284538,"lon":5.358657,"is_reserved":false,"is_disabled":false,"rental_uris":{"android":"levelo://app?vid=6e6ff843-86a3-4eeb-8003-2bb88a4e4a10","ios":"levelo://app?vid=6e6ff843-86a3-4eeb-8003-2bb88a4e4a10"},"vehicle_type_id":"4","last_reported":1702836494,"current_range_meters":6800,"station_id":"ce4bhah2rcd13ifvqei0","pricing_plan_id":"free"},{"bike_id":"1cc5a14c-6808-435d-91c4-04d365485132","system_id":"levelo_inurba_marseille","lat":43.284538,"lon":5.358657,"is_reserved":false,"is_disabled":false,"rental_uris":{"android":"levelo://app?vid=1cc5a14c-6808-435d-91c4-04d365485132","ios":"levelo://app?vid=1cc5a14c-6808-435d-91c4-04d365485132"},"vehicle_type_id":"4","last_reported":1702836494,"current_range_meters":2800,"station_id":"ce4bhah2rcd13ifvqei0","pricing_plan_id":"free"},{"bike_id":"1d9d46bb-e4d4-4a2a-93d0-196dd004a212","system_id":"levelo_inurba_marseille","lat":43.284534,"lon":5.358662,"is_reserved":false,"is_disabled":false,"rental_uris":{"android":"levelo://app?vid=1d9d46bb-e4d4-4a2a-93d0-196dd004a212","ios":"levelo://app?vid=1d9d46bb-e4d4-4a2a-93d0-196dd004a212"},"vehicle_type_id":"4","last_reported":1702836494,"current_range_meters":27600,"station_id":"ce4bhah2rcd13ifvqei0","pricing_plan_id":"free"},{"bike_id":"152e101c-87a5-4f4a-944b-0d8eca576432","system_id":"levelo_inurba_marseille","lat":43.284534,"lon":5.358662,"is_reserved":false,"is_disabled":false,"rental_uris":{"android":"levelo://app?vid=152e101c-87a5-4f4a-944b-0d8eca576432","ios":"levelo://app?vid=152e101c-87a5-4f4a-944b-0d8eca576432"},"vehicle_type_id":"4","last_reported":1702836494,"current_range_meters":16000,"station_id":"ce4bhah2rcd13ifvqei0","pricing_plan_id":"free"},{"bike_id":"5c5e9903-3c18-4be7-9299-3d6a6a40b186","system_id":"levelo_inurba_marseille","lat":43.294314,"lon":5.397498,"is_reserved":false,"is_disabled":false,"rental_uris":{"android":"levelo://app?vid=5c5e9903-3c18-4be7-9299-3d6a6a40b186","ios":"levelo://app?vid=5c5e9903-3c18-4be7-9299-3d6a6a40b186"},"vehicle_type_id":"4","last_reported":1702836494,"current_range_meters":0,"station_id":"ce4bh3h2rcd13ifvqdo0","pricing_plan_id":"free"},{"bike_id":"6367a011-ae91-4d3e-8853-98c09d7134ed","system_id":"levelo_inurba_marseille","lat":43.28618,"lon":5.351,"is_reserved":false,"is_disabled":false,"rental_uris":{"android":"levelo://app?vid=6367a011-ae91-4d3e-8853-98c09d7134ed","ios":"levelo://app?vid=6367a011-ae91-4d3e-8853-98c09d7134ed"},"vehicle_type_id":"4","last_reported":1702836494,"current_range_meters":31200,"station_id":"ce4bhch2rcd13ifvqeug","pricing_plan_id":"free"},{"bike_id":"92e392d2-0f0a-48aa-a2e8-ea05c7c511a5","system_id":"levelo_inurba_marseille","lat":43.285856,"lon":5.350771,"is_reserved":false,"is_disabled":false,"rental_uris":{"android":"levelo://app?vid=92e392d2-0f0a-48aa-a2e8-ea05c7c511a5","ios":"levelo://app?vid=92e392d2-0f0a-48aa-a2e8-ea05c7c511a5"},"vehicle_type_id":"4","last_reported":1702836494,"current_range_meters":13200,"station_id":"ce4bhch2rcd13ifvqeug","pricing_plan_id":"free"},{"bike_id":"2dfa5049-0e1b-4839-b5c3-156910a65dbd","system_id":"levelo_inurba_marseille","lat":43.33218,"lon":5.397067,"is_reserved":false,"is_disabled":false,"rental_uris":{"android":"levelo://app?vid=2dfa5049-0e1b-4839-b5c3-156910a65dbd","ios":"levelo://app?vid=2dfa5049-0e1b-4839-b5c3-156910a65dbd"},"vehicle_type_id":"4","last_reported":1702836494,"current_range_meters":8000,"station_id":"","pricing_plan_id":"free"},{"bike_id":"2bab3195-7dc9-42ee-9532-80a4f2f04bf9","system_id":"levelo_inurba_marseille","lat":43.286595,"lon":5.386795,"is_reserved":false,"is_disabled":false,"rental_uris":{"android":"levelo://app?vid=2bab3195-7dc9-42ee-9532-80a4f2f04bf9","ios":"levelo://app?vid=2bab3195-7dc9-42ee-9532-80a4f2f04bf9"},"vehicle_type_id":"4","last_reported":1702836494,"current_range_meters":21200,"station_id":"ce4bh492rcd13ifvqdug","pricing_plan_id":"free"},{"bike_id":"ffba393d-048c-43d1-b8a1-dbfcd29da6fe","system_id":"levelo_inurba_marseille","lat":43.286595,"lon":5.386795,"is_reserved":false,"is_disabled":false,"rental_uris":{"android":"levelo://app?vid=ffba393d-048c-43d1-b8a1-dbfcd29da6fe","ios":"levelo://app?vid=ffba393d-048c-43d1-b8a1-dbfcd29da6fe"},"vehicle_type_id":"4","last_reported":1702836494,"current_range_meters":23600,"station_id":"ce4bh492rcd13ifvqdug","pricing_plan_id":"free"},{"bike_id":"d6284a72-130c-4768-bc08-1087913f919c","system_id":"levelo_inurba_marseille","lat":43.283655,"lon":5.375303,"is_reserved":false,"is_disabled":false,"rental_uris":{"android":"levelo://app?vid=d6284a72-130c-4768-bc08-1087913f919c","ios":"levelo://app?vid=d6284a72-130c-4768-bc08-1087913f919c"},"vehicle_type_id":"4","last_reported":1702836494,"current_range_meters":8800,"station_id":"ce4bh412rcd13ifvqds0","pricing_plan_id":"free"},{"bike_id":"0c94b7be-0de5-4135-961b-87ecc350551f","system_id":"levelo_inurba_marseille","lat":43.31887,"lon":5.40737,"is_reserved":false,"is_disabled":false,"rental_uris":{"android":"levelo://app?vid=0c94b7be-0de5-4135-961b-87ecc350551f","ios":"levelo://app?vid=0c94b7be-0de5-4135-961b-87ecc350551f"},"vehicle_type_id":"4","last_reported":1702836494,"current_range_meters":5600,"station_id":"ce4bhq12rcd13ifvqhig","pricing_plan_id":"free"},{"bike_id":"27e96943-1418-4832-a4a9-710f9b22d4e8","system_id":"levelo_inurba_marseille","lat":43.323464,"lon":5.406297,"is_reserved":false,"is_disabled":false,"rental_uris":{"android":"levelo://app?vid=27e96943-1418-4832-a4a9-710f9b22d4e8","ios":"levelo://app?vid=27e96943-1418-4832-a4a9-710f9b22d4e8"},"vehicle_type_id":"4","last_reported":1702836494,"current_range_meters":22800,"station_id":"ce4bhq92rcd13ifvqhjg","pricing_plan_id":"free"},{"bike_id":"156b5265-77d1-4866-b0d7-a09aa52daba5","system_id":"levelo_inurba_marseille","lat":43.28039,"lon":5.369297,"is_reserved":false,"is_disabled":false,"rental_uris":{"android":"levelo://app?vid=156b5265-77d1-4866-b0d7-a09aa52daba5","ios":"levelo://app?vid=156b5265-77d1-4866-b0d7-a09aa52daba5"},"vehicle_type_id":"4","last_reported":1702836494,"current_range_meters":19600,"station_id":"ce4bha12rcd13ifvqef0","pricing_plan_id":"free"},{"bike_id":"e6e8def3-4d43-4d3d-b4c8-e06233981f99","system_id":"levelo_inurba_marseille","lat":43.323464,"lon":5.406297,"is_reserved":false,"is_disabled":false,"rental_uris":{"android":"levelo://app?vid=e6e8def3-4d43-4d3d-b4c8-e06233981f99","ios":"levelo://app?vid=e6e8def3-4d43-4d3d-b4c8-e06233981f99"},"vehicle_type_id":"4","last_reported":1702836494,"current_range_meters":12800,"station_id":"ce4bhq92rcd13ifvqhjg","pricing_plan_id":"free"},{"bike_id":"2746f885-b44d-4dbf-a16b-02bee5e5cd7f","system_id":"levelo_inurba_marseille","lat":43.284793,"lon":5.384113,"is_reserved":false,"is_disabled":false,"rental_uris":{"android":"levelo://app?vid=2746f885-b44d-4dbf-a16b-02bee5e5cd7f","ios":"levelo://app?vid=2746f885-b44d-4dbf-a16b-02bee5e5cd7f"},"vehicle_type_id":"4","last_reported":1702836494,"current_range_meters":10000,"station_id":"ce4bh512rcd13ifvqe3g","pricing_plan_id":"free"},{"bike_id":"afe3af6e-f6e0-4a26-8358-779ad1c8940f","system_id":"levelo_inurba_marseille","lat":43.284835,"lon":5.38416,"is_reserved":false,"is_disabled":false,"rental_uris":{"android":"levelo://app?vid=afe3af6e-f6e0-4a26-8358-779ad1c8940f","ios":"levelo://app?vid=afe3af6e-f6e0-4a26-8358-779ad1c8940f"},"vehicle_type_id":"4","last_reported":1702836494,"current_range_meters":0,"station_id":"ce4bh512rcd13ifvqe3g","pricing_plan_id":"free"},{"bike_id":"3960b412-9d1f-41ff-a7cb-60e62748ac27","system_id":"levelo_inurba_marseille","lat":43.284787,"lon":5.384116,"is_reserved":false,"is_disabled":false,"rental_uris":{"android":"levelo://app?vid=3960b412-9d1f-41ff-a7cb-60e62748ac27","ios":"levelo://app?vid=3960b412-9d1f-41ff-a7cb-60e62748ac27"},"vehicle_type_id":"4","last_reported":1702836494,"current_range_meters":6000,"station_id":"ce4bh512rcd13ifvqe3g","pricing_plan_id":"free"},{"bike_id":"52733e6a-1d85-4156-9a82-ae754057c18a","system_id":"levelo_inurba_marseille","lat":43.284787,"lon":5.384116,"is_reserved":false,"is_disabled":false,"rental_uris":{"android":"levelo://app?vid=52733e6a-1d85-4156-9a82-ae754057c18a","ios":"levelo://app?vid=52733e6a-1d85-4156-9a82-ae754057c18a"},"vehicle_type_id":"4","last_reported":1702836494,"current_range_meters":9200,"station_id":"ce4bh512rcd13ifvqe3g","pricing_plan_id":"free"},{"bike_id":"d358d374-c5ce-4245-9d81-442d81118a93","system_id":"levelo_inurba_marseille","lat":43.288501,"lon":5.393087,"is_reserved":false,"is_disabled":false,"rental_uris":{"android":"levelo://app?vid=d358d374-c5ce-4245-9d81-442d81118a93","ios":"levelo://app?vid=d358d374-c5ce-4245-9d81-442d81118a93"},"vehicle_type_id":"4","last_reported":1702836494,"current_range_meters":19200,"station_id":"ce4bh2p2rcd13ifvqdi0","pricing_plan_id":"free"},{"bike_id":"4987098c-386e-435b-bf00-27151595496e","system_id":"levelo_inurba_marseille","lat":43.288501,"lon":5.393087,"is_reserved":false,"is_disabled":false,"rental_uris":{"android":"levelo://app?vid=4987098c-386e-435b-bf00-27151595496e","ios":"levelo://app?vid=4987098c-386e-435b-bf00-27151595496e"},"vehicle_type_id":"4","last_reported":1702836494,"current_range_meters":8000,"station_id":"ce4bh2p2rcd13ifvqdi0","pricing_plan_id":"free"},{"bike_id":"8f1617f8-72ab-46af-b9ee-377f375c48de","system_id":"levelo_inurba_marseille","lat":43.283498,"lon":5.380948,"is_reserved":false,"is_disabled":false,"rental_uris":{"android":"levelo://app?vid=8f1617f8-72ab-46af-b9ee-377f375c48de","ios":"levelo://app?vid=8f1617f8-72ab-46af-b9ee-377f375c48de"},"vehicle_type_id":"4","last_reported":1702836494,"current_range_meters":1200,"station_id":"ce4bh412rcd13ifvqdr0","pricing_plan_id":"free"},{"bike_id":"27b2b65e-7fdb-4ee6-9838-5db0e591fdc4","system_id":"levelo_inurba_marseille","lat":43.289363,"lon":5.396322,"is_reserved":false,"is_disabled":false,"rental_uris":{"android":"levelo://app?vid=27b2b65e-7fdb-4ee6-9838-5db0e591fdc4","ios":"levelo://app?vid=27b2b65e-7fdb-4ee6-9838-5db0e591fdc4"},"vehicle_type_id":"4","last_reported":1702836494,"current_range_meters":13200,"station_id":"ce4bh3h2rcd13ifvqdn0","pricing_plan_id":"free"},{"bike_id":"a476ad09-068b-46bd-bb8d-77ee283b3757","system_id":"levelo_inurba_marseille","lat":43.292724,"lon":5.401131,"is_reserved":false,"is_disabled":false,"rental_uris":{"android":"levelo://app?vid=a476ad09-068b-46bd-bb8d-77ee283b3757","ios":"levelo://app?vid=a476ad09-068b-46bd-bb8d-77ee283b3757"},"vehicle_type_id":"4","last_reported":1702836494,"current_range_meters":16800,"station_id":"ce4bh312rcd13ifvqdk0","pricing_plan_id":"free"},{"bike_id":"ab9a4522-fb8a-465e-b029-a54390048c92","system_id":"levelo_inurba_marseille","lat":43.283502,"lon":5.386471,"is_reserved":false,"is_disabled":false,"rental_uris":{"android":"levelo://app?vid=ab9a4522-fb8a-465e-b029-a54390048c92","ios":"levelo://app?vid=ab9a4522-fb8a-465e-b029-a54390048c92"},"vehicle_type_id":"4","last_reported":1702836494,"current_range_meters":6800,"station_id":"ce4bh492rcd13ifvqdvg","pricing_plan_id":"free"},{"bike_id":"36517637-9ec9-46d0-8d70-600134b5d791","system_id":"levelo_inurba_marseille","lat":43.29041,"lon":5.399634,"is_reserved":false,"is_disabled":false,"rental_uris":{"android":"levelo://app?vid=36517637-9ec9-46d0-8d70-600134b5d791","ios":"levelo://app?vid=36517637-9ec9-46d0-8d70-600134b5d791"},"vehicle_type_id":"4","last_reported":1702836494,"current_range_meters":20000,"station_id":"ce4bh392rcd13ifvqdm0","pricing_plan_id":"free"},{"bike_id":"b1bba2b6-372d-49dd-b13b-1b4d710db23d","system_id":"levelo_inurba_marseille","lat":43.32405,"lon":5.4097,"is_reserved":false,"is_disabled":false,"rental_uris":{"android":"levelo://app?vid=b1bba2b6-372d-49dd-b13b-1b4d710db23d","ios":"levelo://app?vid=b1bba2b6-372d-49dd-b13b-1b4d710db23d"},"vehicle_type_id":"4","last_reported":1702836494,"current_range_meters":30800,"station_id":"","pricing_plan_id":"free"},{"bike_id":"fa3631a9-2c76-488d-b3a2-f555fe148eca","system_id":"levelo_inurba_marseille","lat":43.284462,"lon":5.392121,"is_reserved":false,"is_disabled":false,"rental_uris":{"android":"levelo://app?vid=fa3631a9-2c76-488d-b3a2-f555fe148eca","ios":"levelo://app?vid=fa3631a9-2c76-488d-b3a2-f555fe148eca"},"vehicle_type_id":"4","last_reported":1702836494,"current_range_meters":17600,"station_id":"ce4bhoh2rcd13ifvqh5g","pricing_plan_id":"free"},{"bike_id":"25124f80-79f9-4575-a8b8-2e113d28fb8f","system_id":"levelo_inurba_marseille","lat":43.284462,"lon":5.392121,"is_reserved":false,"is_disabled":false,"rental_uris":{"android":"levelo://app?vid=25124f80-79f9-4575-a8b8-2e113d28fb8f","ios":"levelo://app?vid=25124f80-79f9-4575-a8b8-2e113d28fb8f"},"vehicle_type_id":"4","last_reported":1702836494,"current_range_meters":14400,"station_id":"ce4bhoh2rcd13ifvqh5g","pricing_plan_id":"free"},{"bike_id":"4eef102c-b104-458b-a911-0cdf8f676402","system_id":"levelo_inurba_marseille","lat":43.284462,"lon":5.392121,"is_reserved":false,"is_disabled":false,"rental_uris":{"android":"levelo://app?vid=4eef102c-b104-458b-a911-0cdf8f676402","ios":"levelo://app?vid=4eef102c-b104-458b-a911-0cdf8f676402"},"vehicle_type_id":"4","last_reported":1702836494,"current_range_meters":9200,"station_id":"ce4bhoh2rcd13ifvqh5g","pricing_plan_id":"free"},{"bike_id":"0d5f0c75-54bc-425f-bc8e-5422da997b04","system_id":"levelo_inurba_marseille","lat":43.28573,"lon":5.394992,"is_reserved":false,"is_disabled":false,"rental_uris":{"android":"levelo://app?vid=0d5f0c75-54bc-425f-bc8e-5422da997b04","ios":"levelo://app?vid=0d5f0c75-54bc-425f-bc8e-5422da997b04"},"vehicle_type_id":"4","last_reported":1702836494,"current_range_meters":19600,"station_id":"ce4bh292rcd13ifvqdg0","pricing_plan_id":"free"},{"bike_id":"29de040c-9371-498e-8665-b73a3ba4c1f9","system_id":"levelo_inurba_marseille","lat":43.285742,"lon":5.395004,"is_reserved":false,"is_disabled":false,"rental_uris":{"android":"levelo://app?vid=29de040c-9371-498e-8665-b73a3ba4c1f9","ios":"levelo://app?vid=29de040c-9371-498e-8665-b73a3ba4c1f9"},"vehicle_type_id":"4","last_reported":1702836494,"current_range_meters":16000,"station_id":"ce4bh292rcd13ifvqdg0","pricing_plan_id":"free"},{"bike_id":"ba23a49f-f752-40f9-b881-d731ba920e07","system_id":"levelo_inurba_marseille","lat":43.326605,"lon":5.409903,"is_reserved":false,"is_disabled":false,"rental_uris":{"android":"levelo://app?vid=ba23a49f-f752-40f9-b881-d731ba920e07","ios":"levelo://app?vid=ba23a49f-f752-40f9-b881-d731ba920e07"},"vehicle_type_id":"4","last_reported":1702836494,"current_range_meters":19200,"station_id":"ce4bhpp2rcd13ifvqhgg","pricing_plan_id":"free"},{"bike_id":"12315da7-3b45-43fd-974c-8a96b1f0ae1c","system_id":"levelo_inurba_marseille","lat":43.28573,"lon":5.394992,"is_reserved":false,"is_disabled":false,"rental_uris":{"android":"levelo://app?vid=12315da7-3b45-43fd-974c-8a96b1f0ae1c","ios":"levelo://app?vid=12315da7-3b45-43fd-974c-8a96b1f0ae1c"},"vehicle_type_id":"4","last_reported":1702836494,"current_range_meters":9600,"station_id":"ce4bh292rcd13ifvqdg0","pricing_plan_id":"free"},{"bike_id":"0885dd01-e271-4497-b363-0ea9d6555856","system_id":"levelo_inurba_marseille","lat":43.279087,"lon":5.380114,"is_reserved":false,"is_disabled":false,"rental_uris":{"android":"levelo://app?vid=0885dd01-e271-4497-b363-0ea9d6555856","ios":"levelo://app?vid=0885dd01-e271-4497-b363-0ea9d6555856"},"vehicle_type_id":"4","last_reported":1702836494,"current_range_meters":22000,"station_id":"ce4bhf92rcd13ifvqf50","pricing_plan_id":"free"},{"bike_id":"af979730-4a28-410e-ac01-1fb4c3adb00b","system_id":"levelo_inurba_marseille","lat":43.279087,"lon":5.380114,"is_reserved":false,"is_disabled":false,"rental_uris":{"android":"levelo://app?vid=af979730-4a28-410e-ac01-1fb4c3adb00b","ios":"levelo://app?vid=af979730-4a28-410e-ac01-1fb4c3adb00b"},"vehicle_type_id":"4","last_reported":1702836494,"current_range_meters":22000,"station_id":"ce4bhf92rcd13ifvqf50","pricing_plan_id":"free"},{"bike_id":"7b652222-c241-4144-b048-8fe60bb3a872","system_id":"levelo_inurba_marseille","lat":43.279087,"lon":5.380114,"is_reserved":false,"is_disabled":false,"rental_uris":{"android":"levelo://app?vid=7b652222-c241-4144-b048-8fe60bb3a872","ios":"levelo://app?vid=7b652222-c241-4144-b048-8fe60bb3a872"},"vehicle_type_id":"4","last_reported":1702836494,"current_range_meters":31600,"station_id":"ce4bhf92rcd13ifvqf50","pricing_plan_id":"free"},{"bike_id":"1749adfe-3426-4fb3-ac75-a7da66fe02b3","system_id":"levelo_inurba_marseille","lat":43.279087,"lon":5.380114,"is_reserved":false,"is_disabled":false,"rental_uris":{"android":"levelo://app?vid=1749adfe-3426-4fb3-ac75-a7da66fe02b3","ios":"levelo://app?vid=1749adfe-3426-4fb3-ac75-a7da66fe02b3"},"vehicle_type_id":"4","last_reported":1702836494,"current_range_meters":21200,"station_id":"ce4bhf92rcd13ifvqf50","pricing_plan_id":"free"},{"bike_id":"226fa0a3-0e3d-4059-9504-2090e65c4efc","system_id":"levelo_inurba_marseille","lat":43.279087,"lon":5.380114,"is_reserved":false,"is_disabled":false,"rental_uris":{"android":"levelo://app?vid=226fa0a3-0e3d-4059-9504-2090e65c4efc","ios":"levelo://app?vid=226fa0a3-0e3d-4059-9504-2090e65c4efc"},"vehicle_type_id":"4","last_reported":1702836494,"current_range_meters":14800,"station_id":"ce4bhf92rcd13ifvqf50","pricing_plan_id":"free"},{"bike_id":"f133df88-cd93-4222-94aa-d37ec1e558ef","system_id":"levelo_inurba_marseille","lat":43.28711,"lon":5.39995,"is_reserved":false,"is_disabled":false,"rental_uris":{"android":"levelo://app?vid=f133df88-cd93-4222-94aa-d37ec1e558ef","ios":"levelo://app?vid=f133df88-cd93-4222-94aa-d37ec1e558ef"},"vehicle_type_id":"4","last_reported":1702836494,"current_range_meters":6000,"station_id":"ce4bho92rcd13ifvqh3g","pricing_plan_id":"free"},{"bike_id":"ef5cb19f-20a4-4812-9325-15fc9b8bebfa","system_id":"levelo_inurba_marseille","lat":43.27888,"lon":5.38007,"is_reserved":false,"is_disabled":false,"rental_uris":{"android":"levelo://app?vid=ef5cb19f-20a4-4812-9325-15fc9b8bebfa","ios":"levelo://app?vid=ef5cb19f-20a4-4812-9325-15fc9b8bebfa"},"vehicle_type_id":"4","last_reported":1702836494,"current_range_meters":22800,"station_id":"ce4bhf92rcd13ifvqf50","pricing_plan_id":"free"},{"bike_id":"6a89fe0b-86fd-4200-9833-a1165a4b395d","system_id":"levelo_inurba_marseille","lat":43.320045,"lon":5.415048,"is_reserved":false,"is_disabled":false,"rental_uris":{"android":"levelo://app?vid=6a89fe0b-86fd-4200-9833-a1165a4b395d","ios":"levelo://app?vid=6a89fe0b-86fd-4200-9833-a1165a4b395d"},"vehicle_type_id":"4","last_reported":1702836494,"current_range_meters":22800,"station_id":"ce4bhq92rcd13ifvqhkg","pricing_plan_id":"free"},{"bike_id":"42f4fc00-8d26-4c10-8a2f-b77ae0f16f4f","system_id":"levelo_inurba_marseille","lat":43.320045,"lon":5.415048,"is_reserved":false,"is_disabled":false,"rental_uris":{"android":"levelo://app?vid=42f4fc00-8d26-4c10-8a2f-b77ae0f16f4f","ios":"levelo://app?vid=42f4fc00-8d26-4c10-8a2f-b77ae0f16f4f"},"vehicle_type_id":"4","last_reported":1702836494,"current_range_meters":13600,"station_id":"ce4bhq92rcd13ifvqhkg","pricing_plan_id":"free"},{"bike_id":"22108b1c-5fc7-4b97-967f-5fd8edb3c448","system_id":"levelo_inurba_marseille","lat":43.299579,"lon":5.413255,"is_reserved":false,"is_disabled":false,"rental_uris":{"android":"levelo://app?vid=22108b1c-5fc7-4b97-967f-5fd8edb3c448","ios":"levelo://app?vid=22108b1c-5fc7-4b97-967f-5fd8edb3c448"},"vehicle_type_id":"4","last_reported":1702836494,"current_range_meters":26000,"station_id":"ce4bhp12rcd13ifvqh9g","pricing_plan_id":"free"},{"bike_id":"d67e14a7-5743-4b83-bbfc-d0362d5fe4e6","system_id":"levelo_inurba_marseille","lat":43.292569,"lon":5.409107,"is_reserved":false,"is_disabled":false,"rental_uris":{"android":"levelo://app?vid=d67e14a7-5743-4b83-bbfc-d0362d5fe4e6","ios":"levelo://app?vid=d67e14a7-5743-4b83-bbfc-d0362d5fe4e6"},"vehicle_type_id":"4","last_reported":1702836494,"current_range_meters":27600,"station_id":"ce4bh192rcd13ifvqdc0","pricing_plan_id":"free"},{"bike_id":"3d739c58-c40e-4e1d-9234-c82606ab8f7d","system_id":"levelo_inurba_marseille","lat":43.292571,"lon":5.409107,"is_reserved":false,"is_disabled":false,"rental_uris":{"android":"levelo://app?vid=3d739c58-c40e-4e1d-9234-c82606ab8f7d","ios":"levelo://app?vid=3d739c58-c40e-4e1d-9234-c82606ab8f7d"},"vehicle_type_id":"4","last_reported":1702836494,"current_range_meters":28000,"station_id":"ce4bh192rcd13ifvqdc0","pricing_plan_id":"free"},{"bike_id":"fce4fb24-8a42-4ef0-8fd6-e8a980267948","system_id":"levelo_inurba_marseille","lat":43.325233,"lon":5.414318,"is_reserved":false,"is_disabled":false,"rental_uris":{"android":"levelo://app?vid=fce4fb24-8a42-4ef0-8fd6-e8a980267948","ios":"levelo://app?vid=fce4fb24-8a42-4ef0-8fd6-e8a980267948"},"vehicle_type_id":"4","last_reported":1702836494,"current_range_meters":30000,"station_id":"ce4bhq12rcd13ifvqhhg","pricing_plan_id":"free"},{"bike_id":"806b25ff-753c-4606-8992-343db02cf4d4","system_id":"levelo_inurba_marseille","lat":43.280784,"lon":5.396622,"is_reserved":false,"is_disabled":false,"rental_uris":{"android":"levelo://app?vid=806b25ff-753c-4606-8992-343db02cf4d4","ios":"levelo://app?vid=806b25ff-753c-4606-8992-343db02cf4d4"},"vehicle_type_id":"4","last_reported":1702836494,"current_range_meters":20400,"station_id":"ce4bho12rcd13ifvqh2g","pricing_plan_id":"free"},{"bike_id":"1d53c12f-56b2-409a-bf07-43fcc1fff256","system_id":"levelo_inurba_marseille","lat":43.280784,"lon":5.396622,"is_reserved":false,"is_disabled":false,"rental_uris":{"android":"levelo://app?vid=1d53c12f-56b2-409a-bf07-43fcc1fff256","ios":"levelo://app?vid=1d53c12f-56b2-409a-bf07-43fcc1fff256"},"vehicle_type_id":"4","last_reported":1702836494,"current_range_meters":17600,"station_id":"ce4bho12rcd13ifvqh2g","pricing_plan_id":"free"},{"bike_id":"24cec0b1-939f-4f43-9be3-4a1f75c0a877","system_id":"levelo_inurba_marseille","lat":43.278399,"lon":5.392139,"is_reserved":false,"is_disabled":false,"rental_uris":{"android":"levelo://app?vid=24cec0b1-939f-4f43-9be3-4a1f75c0a877","ios":"levelo://app?vid=24cec0b1-939f-4f43-9be3-4a1f75c0a877"},"vehicle_type_id":"4","last_reported":1702836494,"current_range_meters":400,"station_id":"ce4bhjp2rcd13ifvqga0","pricing_plan_id":"free"},{"bike_id":"aba7a3a8-a941-4098-8301-f8c53c5ecb80","system_id":"levelo_inurba_marseille","lat":43.278399,"lon":5.392139,"is_reserved":false,"is_disabled":false,"rental_uris":{"android":"levelo://app?vid=aba7a3a8-a941-4098-8301-f8c53c5ecb80","ios":"levelo://app?vid=aba7a3a8-a941-4098-8301-f8c53c5ecb80"},"vehicle_type_id":"4","last_reported":1702836494,"current_range_meters":0,"station_id":"ce4bhjp2rcd13ifvqga0","pricing_plan_id":"free"},{"bike_id":"55ca3db8-e42f-4e56-b275-c8bd47599554","system_id":"levelo_inurba_marseille","lat":43.278401,"lon":5.392152,"is_reserved":false,"is_disabled":false,"rental_uris":{"android":"levelo://app?vid=55ca3db8-e42f-4e56-b275-c8bd47599554","ios":"levelo://app?vid=55ca3db8-e42f-4e56-b275-c8bd47599554"},"vehicle_type_id":"4","last_reported":1702836494,"current_range_meters":27200,"station_id":"ce4bhjp2rcd13ifvqga0","pricing_plan_id":"free"},{"bike_id":"9039084a-0e56-40ed-b51d-da5f8e201f31","system_id":"levelo_inurba_marseille","lat":43.275625,"lon":5.384392,"is_reserved":false,"is_disabled":false,"rental_uris":{"android":"levelo://app?vid=9039084a-0e56-40ed-b51d-da5f8e201f31","ios":"levelo://app?vid=9039084a-0e56-40ed-b51d-da5f8e201f31"},"vehicle_type_id":"4","last_reported":1702836494,"current_range_meters":800,"station_id":"ce4bhh92rcd13ifvqfi0","pricing_plan_id":"free"},{"bike_id":"99978326-7b25-4e84-bb1f-4de97f84522a","system_id":"levelo_inurba_marseille","lat":43.275625,"lon":5.384392,"is_reserved":false,"is_disabled":false,"rental_uris":{"android":"levelo://app?vid=99978326-7b25-4e84-bb1f-4de97f84522a","ios":"levelo://app?vid=99978326-7b25-4e84-bb1f-4de97f84522a"},"vehicle_type_id":"4","last_reported":1702836494,"current_range_meters":17200,"station_id":"ce4bhh92rcd13ifvqfi0","pricing_plan_id":"free"},{"bike_id":"ea3d35f6-b07e-4308-ae51-5376e9d8e7cc","system_id":"levelo_inurba_marseille","lat":43.273496,"lon":5.36457,"is_reserved":false,"is_disabled":false,"rental_uris":{"android":"levelo://app?vid=ea3d35f6-b07e-4308-ae51-5376e9d8e7cc","ios":"levelo://app?vid=ea3d35f6-b07e-4308-ae51-5376e9d8e7cc"},"vehicle_type_id":"4","last_reported":1702836494,"current_range_meters":11200,"station_id":"","pricing_plan_id":"free"},{"bike_id":"801d98ad-9cbf-4340-bc11-717f4f0dab42","system_id":"levelo_inurba_marseille","lat":43.279952,"lon":5.400085,"is_reserved":false,"is_disabled":false,"rental_uris":{"android":"levelo://app?vid=801d98ad-9cbf-4340-bc11-717f4f0dab42","ios":"levelo://app?vid=801d98ad-9cbf-4340-bc11-717f4f0dab42"},"vehicle_type_id":"4","last_reported":1702836494,"current_range_meters":27600,"station_id":"ce4bho92rcd13ifvqh4g","pricing_plan_id":"free"},{"bike_id":"f97f3ae3-0746-4a73-8a97-072f8aa9cb10","system_id":"levelo_inurba_marseille","lat":43.310785,"lon":5.424305,"is_reserved":false,"is_disabled":false,"rental_uris":{"android":"levelo://app?vid=f97f3ae3-0746-4a73-8a97-072f8aa9cb10","ios":"levelo://app?vid=f97f3ae3-0746-4a73-8a97-072f8aa9cb10"},"vehicle_type_id":"4","last_reported":1702836494,"current_range_meters":31200,"station_id":"ce4bhp92rcd13ifvqhag","pricing_plan_id":"free"},{"bike_id":"51ecc99a-bdca-479f-9073-e74c62c75aec","system_id":"levelo_inurba_marseille","lat":43.340804,"lon":5.410219,"is_reserved":false,"is_disabled":false,"rental_uris":{"android":"levelo://app?vid=51ecc99a-bdca-479f-9073-e74c62c75aec","ios":"levelo://app?vid=51ecc99a-bdca-479f-9073-e74c62c75aec"},"vehicle_type_id":"4","last_reported":1702836494,"current_range_meters":9200,"station_id":"ce4bhqh2rcd13ifvqhlg","pricing_plan_id":"free"},{"bike_id":"3ca2c2d2-99b0-4aa6-a05d-e30f02e6a7fb","system_id":"levelo_inurba_marseille","lat":43.276092,"lon":5.395289,"is_reserved":false,"is_disabled":false,"rental_uris":{"android":"levelo://app?vid=3ca2c2d2-99b0-4aa6-a05d-e30f02e6a7fb","ios":"levelo://app?vid=3ca2c2d2-99b0-4aa6-a05d-e30f02e6a7fb"},"vehicle_type_id":"4","last_reported":1702836494,"current_range_meters":18000,"station_id":"","pricing_plan_id":"free"},{"bike_id":"03ba0582-c398-44a8-9f1d-99cfb69567fa","system_id":"levelo_inurba_marseille","lat":43.2742,"lon":5.39412,"is_reserved":false,"is_disabled":false,"rental_uris":{"android":"levelo://app?vid=03ba0582-c398-44a8-9f1d-99cfb69567fa","ios":"levelo://app?vid=03ba0582-c398-44a8-9f1d-99cfb69567fa"},"vehicle_type_id":"4","last_reported":1702836494,"current_range_meters":0,"station_id":"ce4bhdp2rcd13ifvqf20","pricing_plan_id":"free"},{"bike_id":"a41b6bd7-af1a-4ce3-a550-2c31290c565f","system_id":"levelo_inurba_marseille","lat":43.304096,"lon":5.425385,"is_reserved":false,"is_disabled":false,"rental_uris":{"android":"levelo://app?vid=a41b6bd7-af1a-4ce3-a550-2c31290c565f","ios":"levelo://app?vid=a41b6bd7-af1a-4ce3-a550-2c31290c565f"},"vehicle_type_id":"4","last_reported":1702836494,"current_range_meters":16000,"station_id":"ce4bhoh2rcd13ifvqh6g","pricing_plan_id":"free"},{"bike_id":"b31cc55d-94ec-47c4-a18b-caaf3ff0a629","system_id":"levelo_inurba_marseille","lat":43.30415,"lon":5.42541,"is_reserved":false,"is_disabled":false,"rental_uris":{"android":"levelo://app?vid=b31cc55d-94ec-47c4-a18b-caaf3ff0a629","ios":"levelo://app?vid=b31cc55d-94ec-47c4-a18b-caaf3ff0a629"},"vehicle_type_id":"4","last_reported":1702836494,"current_range_meters":18000,"station_id":"ce4bhoh2rcd13ifvqh6g","pricing_plan_id":"free"},{"bike_id":"1bdc891d-fbe3-4200-bb2d-90f31499a11e","system_id":"levelo_inurba_marseille","lat":43.295523,"lon":5.422926,"is_reserved":false,"is_disabled":false,"rental_uris":{"android":"levelo://app?vid=1bdc891d-fbe3-4200-bb2d-90f31499a11e","ios":"levelo://app?vid=1bdc891d-fbe3-4200-bb2d-90f31499a11e"},"vehicle_type_id":"4","last_reported":1702836494,"current_range_meters":2400,"station_id":"ce4bhph2rcd13ifvqhdg","pricing_plan_id":"free"},{"bike_id":"6ce46d8b-eab3-4509-bce2-112ff2d1c3b6","system_id":"levelo_inurba_marseille","lat":43.295523,"lon":5.422926,"is_reserved":false,"is_disabled":false,"rental_uris":{"android":"levelo://app?vid=6ce46d8b-eab3-4509-bce2-112ff2d1c3b6","ios":"levelo://app?vid=6ce46d8b-eab3-4509-bce2-112ff2d1c3b6"},"vehicle_type_id":"4","last_reported":1702836494,"current_range_meters":6000,"station_id":"ce4bhph2rcd13ifvqhdg","pricing_plan_id":"free"},{"bike_id":"bd889d21-a0bd-40b0-b41b-49629447ae8d","system_id":"levelo_inurba_marseille","lat":43.295511,"lon":5.422926,"is_reserved":false,"is_disabled":false,"rental_uris":{"android":"levelo://app?vid=bd889d21-a0bd-40b0-b41b-49629447ae8d","ios":"levelo://app?vid=bd889d21-a0bd-40b0-b41b-49629447ae8d"},"vehicle_type_id":"4","last_reported":1702836494,"current_range_meters":20400,"station_id":"ce4bhph2rcd13ifvqhdg","pricing_plan_id":"free"},{"bike_id":"628a1844-4de6-4ff8-b7b8-44bb12a39376","system_id":"levelo_inurba_marseille","lat":43.295511,"lon":5.422926,"is_reserved":false,"is_disabled":false,"rental_uris":{"android":"levelo://app?vid=628a1844-4de6-4ff8-b7b8-44bb12a39376","ios":"levelo://app?vid=628a1844-4de6-4ff8-b7b8-44bb12a39376"},"vehicle_type_id":"4","last_reported":1702836494,"current_range_meters":18000,"station_id":"ce4bhph2rcd13ifvqhdg","pricing_plan_id":"free"},{"bike_id":"7c5e5a9a-9f39-4a14-9573-d5b8ab599dd5","system_id":"levelo_inurba_marseille","lat":43.27188,"lon":5.39224,"is_reserved":false,"is_disabled":false,"rental_uris":{"android":"levelo://app?vid=7c5e5a9a-9f39-4a14-9573-d5b8ab599dd5","ios":"levelo://app?vid=7c5e5a9a-9f39-4a14-9573-d5b8ab599dd5"},"vehicle_type_id":"4","last_reported":1702836494,"current_range_meters":17200,"station_id":"ce4bhhp2rcd13ifvqfm0","pricing_plan_id":"free"},{"bike_id":"744ae6c0-4177-4078-9044-862fbd3118ea","system_id":"levelo_inurba_marseille","lat":43.278128,"lon":5.407195,"is_reserved":false,"is_disabled":false,"rental_uris":{"android":"levelo://app?vid=744ae6c0-4177-4078-9044-862fbd3118ea","ios":"levelo://app?vid=744ae6c0-4177-4078-9044-862fbd3118ea"},"vehicle_type_id":"4","last_reported":1702836494,"current_range_meters":5200,"station_id":"ce4bhnh2rcd13ifvqgtg","pricing_plan_id":"free"},{"bike_id":"3ca807ae-0c0f-456a-ba65-facd790d95b1","system_id":"levelo_inurba_marseille","lat":43.278128,"lon":5.407195,"is_reserved":false,"is_disabled":false,"rental_uris":{"android":"levelo://app?vid=3ca807ae-0c0f-456a-ba65-facd790d95b1","ios":"levelo://app?vid=3ca807ae-0c0f-456a-ba65-facd790d95b1"},"vehicle_type_id":"4","last_reported":1702836494,"current_range_meters":1200,"station_id":"ce4bhnh2rcd13ifvqgtg","pricing_plan_id":"free"},{"bike_id":"a896bfa2-3478-4b71-bf7d-c58661ee1b5a","system_id":"levelo_inurba_marseille","lat":43.278128,"lon":5.407195,"is_reserved":false,"is_disabled":false,"rental_uris":{"android":"levelo://app?vid=a896bfa2-3478-4b71-bf7d-c58661ee1b5a","ios":"levelo://app?vid=a896bfa2-3478-4b71-bf7d-c58661ee1b5a"},"vehicle_type_id":"4","last_reported":1702836494,"current_range_meters":5600,"station_id":"ce4bhnh2rcd13ifvqgtg","pricing_plan_id":"free"},{"bike_id":"c1a89bfd-c131-4123-8b08-aff109ef738c","system_id":"levelo_inurba_marseille","lat":43.269467,"lon":5.386439,"is_reserved":false,"is_disabled":false,"rental_uris":{"android":"levelo://app?vid=c1a89bfd-c131-4123-8b08-aff109ef738c","ios":"levelo://app?vid=c1a89bfd-c131-4123-8b08-aff109ef738c"},"vehicle_type_id":"4","last_reported":1702836494,"current_range_meters":25600,"station_id":"ce4bhh92rcd13ifvqfh0","pricing_plan_id":"free"},{"bike_id":"c0d4131f-8d8d-4750-bf09-aa224f883954","system_id":"levelo_inurba_marseille","lat":43.27948,"lon":5.41045,"is_reserved":false,"is_disabled":false,"rental_uris":{"android":"levelo://app?vid=c0d4131f-8d8d-4750-bf09-aa224f883954","ios":"levelo://app?vid=c0d4131f-8d8d-4750-bf09-aa224f883954"},"vehicle_type_id":"4","last_reported":1702836494,"current_range_meters":0,"station_id":"ce4bhnp2rcd13ifvqh0g","pricing_plan_id":"free"},{"bike_id":"db774753-4382-453e-a138-c32d538f9839","system_id":"levelo_inurba_marseille","lat":43.358673,"lon":5.356739,"is_reserved":false,"is_disabled":false,"rental_uris":{"android":"levelo://app?vid=db774753-4382-453e-a138-c32d538f9839","ios":"levelo://app?vid=db774753-4382-453e-a138-c32d538f9839"},"vehicle_type_id":"4","last_reported":1702836494,"current_range_meters":10400,"station_id":"","pricing_plan_id":"free"},{"bike_id":"3ec397f0-b8da-4e84-be43-f4abb20ebecf","system_id":"levelo_inurba_marseille","lat":43.276627,"lon":5.411798,"is_reserved":false,"is_disabled":false,"rental_uris":{"android":"levelo://app?vid=3ec397f0-b8da-4e84-be43-f4abb20ebecf","ios":"levelo://app?vid=3ec397f0-b8da-4e84-be43-f4abb20ebecf"},"vehicle_type_id":"4","last_reported":1702836494,"current_range_meters":26800,"station_id":"","pricing_plan_id":"free"},{"bike_id":"7298f0ff-dd91-4f80-af50-3319f36303b4","system_id":"levelo_inurba_marseille","lat":43.265571,"lon":5.390032,"is_reserved":false,"is_disabled":false,"rental_uris":{"android":"levelo://app?vid=7298f0ff-dd91-4f80-af50-3319f36303b4","ios":"levelo://app?vid=7298f0ff-dd91-4f80-af50-3319f36303b4"},"vehicle_type_id":"4","last_reported":1702836494,"current_range_meters":22800,"station_id":"ce4bhe12rcd13ifvqf30","pricing_plan_id":"free"},{"bike_id":"536dad1d-ac10-4603-b7ee-677a3761187a","system_id":"levelo_inurba_marseille","lat":43.271368,"lon":5.40928,"is_reserved":false,"is_disabled":false,"rental_uris":{"android":"levelo://app?vid=536dad1d-ac10-4603-b7ee-677a3761187a","ios":"levelo://app?vid=536dad1d-ac10-4603-b7ee-677a3761187a"},"vehicle_type_id":"4","last_reported":1702836494,"current_range_meters":26800,"station_id":"ce4bhl12rcd13ifvqgf0","pricing_plan_id":"free"},{"bike_id":"0d18db20-19d5-4f47-aeb3-a1b49319ce96","system_id":"levelo_inurba_marseille","lat":43.26806,"lon":5.40269,"is_reserved":false,"is_disabled":false,"rental_uris":{"android":"levelo://app?vid=0d18db20-19d5-4f47-aeb3-a1b49319ce96","ios":"levelo://app?vid=0d18db20-19d5-4f47-aeb3-a1b49319ce96"},"vehicle_type_id":"4","last_reported":1702836494,"current_range_meters":0,"station_id":"ce501612rcd8frsf0b60","pricing_plan_id":"free"},{"bike_id":"7743d713-d033-44f0-9919-d35e21ec4494","system_id":"levelo_inurba_marseille","lat":43.26501,"lon":5.39549,"is_reserved":false,"is_disabled":false,"rental_uris":{"android":"levelo://app?vid=7743d713-d033-44f0-9919-d35e21ec4494","ios":"levelo://app?vid=7743d713-d033-44f0-9919-d35e21ec4494"},"vehicle_type_id":"4","last_reported":1702836494,"current_range_meters":16400,"station_id":"","pricing_plan_id":"free"},{"bike_id":"dab6846e-864c-478d-9454-ac667831cc52","system_id":"levelo_inurba_marseille","lat":43.281548,"lon":5.42643,"is_reserved":false,"is_disabled":false,"rental_uris":{"android":"levelo://app?vid=dab6846e-864c-478d-9454-ac667831cc52","ios":"levelo://app?vid=dab6846e-864c-478d-9454-ac667831cc52"},"vehicle_type_id":"4","last_reported":1702836494,"current_range_meters":21200,"station_id":"ce4bhnh2rcd13ifvqgug","pricing_plan_id":"free"},{"bike_id":"82baed80-82a8-4a1a-ac7d-eb2a2bef5bc7","system_id":"levelo_inurba_marseille","lat":43.281548,"lon":5.42643,"is_reserved":false,"is_disabled":false,"rental_uris":{"android":"levelo://app?vid=82baed80-82a8-4a1a-ac7d-eb2a2bef5bc7","ios":"levelo://app?vid=82baed80-82a8-4a1a-ac7d-eb2a2bef5bc7"},"vehicle_type_id":"4","last_reported":1702836494,"current_range_meters":19200,"station_id":"ce4bhnh2rcd13ifvqgug","pricing_plan_id":"free"},{"bike_id":"789899a7-63a0-46b3-843c-64ff0b8e294b","system_id":"levelo_inurba_marseille","lat":43.28152,"lon":5.42639,"is_reserved":false,"is_disabled":false,"rental_uris":{"android":"levelo://app?vid=789899a7-63a0-46b3-843c-64ff0b8e294b","ios":"levelo://app?vid=789899a7-63a0-46b3-843c-64ff0b8e294b"},"vehicle_type_id":"4","last_reported":1702836494,"current_range_meters":2000,"station_id":"ce4bhnh2rcd13ifvqgug","pricing_plan_id":"free"},{"bike_id":"ddbf5051-c90b-46f5-bffe-7b7e7bcd726d","system_id":"levelo_inurba_marseille","lat":43.281548,"lon":5.42643,"is_reserved":false,"is_disabled":false,"rental_uris":{"android":"levelo://app?vid=ddbf5051-c90b-46f5-bffe-7b7e7bcd726d","ios":"levelo://app?vid=ddbf5051-c90b-46f5-bffe-7b7e7bcd726d"},"vehicle_type_id":"4","last_reported":1702836494,"current_range_meters":18000,"station_id":"ce4bhnh2rcd13ifvqgug","pricing_plan_id":"free"},{"bike_id":"446310d1-d9c3-4788-b11b-99ff77eeb8cb","system_id":"levelo_inurba_marseille","lat":43.2607,"lon":5.393983,"is_reserved":false,"is_disabled":false,"rental_uris":{"android":"levelo://app?vid=446310d1-d9c3-4788-b11b-99ff77eeb8cb","ios":"levelo://app?vid=446310d1-d9c3-4788-b11b-99ff77eeb8cb"},"vehicle_type_id":"4","last_reported":1702836494,"current_range_meters":31200,"station_id":"ce4bhh92rcd13ifvqfj0","pricing_plan_id":"free"},{"bike_id":"d2007443-4338-42cb-923c-147041d30edf","system_id":"levelo_inurba_marseille","lat":43.275028,"lon":5.424534,"is_reserved":false,"is_disabled":false,"rental_uris":{"android":"levelo://app?vid=d2007443-4338-42cb-923c-147041d30edf","ios":"levelo://app?vid=d2007443-4338-42cb-923c-147041d30edf"},"vehicle_type_id":"4","last_reported":1702836494,"current_range_meters":26000,"station_id":"ce4bhn92rcd13ifvqgrg","pricing_plan_id":"free"},{"bike_id":"b6836b5c-bf87-43d1-afcb-477e491235ab","system_id":"levelo_inurba_marseille","lat":43.260832,"lon":5.397633,"is_reserved":false,"is_disabled":false,"rental_uris":{"android":"levelo://app?vid=b6836b5c-bf87-43d1-afcb-477e491235ab","ios":"levelo://app?vid=b6836b5c-bf87-43d1-afcb-477e491235ab"},"vehicle_type_id":"4","last_reported":1702836494,"current_range_meters":0,"station_id":"","pricing_plan_id":"free"},{"bike_id":"894c7bfd-1457-4b5b-aa99-ce098fef9992","system_id":"levelo_inurba_marseille","lat":43.25829,"lon":5.39429,"is_reserved":false,"is_disabled":false,"rental_uris":{"android":"levelo://app?vid=894c7bfd-1457-4b5b-aa99-ce098fef9992","ios":"levelo://app?vid=894c7bfd-1457-4b5b-aa99-ce098fef9992"},"vehicle_type_id":"4","last_reported":1702836494,"current_range_meters":23600,"station_id":"ce4bhip2rcd13ifvqft0","pricing_plan_id":"free"},{"bike_id":"cd6d2313-b283-4c06-a81e-09afb81bbb3a","system_id":"levelo_inurba_marseille","lat":43.258224,"lon":5.394369,"is_reserved":false,"is_disabled":false,"rental_uris":{"android":"levelo://app?vid=cd6d2313-b283-4c06-a81e-09afb81bbb3a","ios":"levelo://app?vid=cd6d2313-b283-4c06-a81e-09afb81bbb3a"},"vehicle_type_id":"4","last_reported":1702836494,"current_range_meters":28800,"station_id":"ce4bhip2rcd13ifvqft0","pricing_plan_id":"free"},{"bike_id":"dd8f327e-a681-417b-870f-b2663be3f56e","system_id":"levelo_inurba_marseille","lat":43.25819,"lon":5.39433,"is_reserved":false,"is_disabled":false,"rental_uris":{"android":"levelo://app?vid=dd8f327e-a681-417b-870f-b2663be3f56e","ios":"levelo://app?vid=dd8f327e-a681-417b-870f-b2663be3f56e"},"vehicle_type_id":"4","last_reported":1702836494,"current_range_meters":2800,"station_id":"ce4bhip2rcd13ifvqft0","pricing_plan_id":"free"},{"bike_id":"2d57c9a4-fa6f-4edf-857b-107297fcf971","system_id":"levelo_inurba_marseille","lat":43.258658,"lon":5.398935,"is_reserved":false,"is_disabled":false,"rental_uris":{"android":"levelo://app?vid=2d57c9a4-fa6f-4edf-857b-107297fcf971","ios":"levelo://app?vid=2d57c9a4-fa6f-4edf-857b-107297fcf971"},"vehicle_type_id":"4","last_reported":1702836494,"current_range_meters":0,"station_id":"ce4bhl92rcd13ifvqghg","pricing_plan_id":"free"},{"bike_id":"82d9b786-2d01-49f9-96bc-6cb49865c2cc","system_id":"levelo_inurba_marseille","lat":43.25937,"lon":5.40901,"is_reserved":false,"is_disabled":false,"rental_uris":{"android":"levelo://app?vid=82d9b786-2d01-49f9-96bc-6cb49865c2cc","ios":"levelo://app?vid=82d9b786-2d01-49f9-96bc-6cb49865c2cc"},"vehicle_type_id":"4","last_reported":1702836494,"current_range_meters":0,"station_id":"ce4bhm92rcd13ifvqglg","pricing_plan_id":"free"},{"bike_id":"12e6f69a-c21c-4196-9de8-7fc6dbb8d05e","system_id":"levelo_inurba_marseille","lat":43.25932,"lon":5.40908,"is_reserved":false,"is_disabled":false,"rental_uris":{"android":"levelo://app?vid=12e6f69a-c21c-4196-9de8-7fc6dbb8d05e","ios":"levelo://app?vid=12e6f69a-c21c-4196-9de8-7fc6dbb8d05e"},"vehicle_type_id":"4","last_reported":1702836494,"current_range_meters":17600,"station_id":"ce4bhm92rcd13ifvqglg","pricing_plan_id":"free"},{"bike_id":"61a4c449-70c1-4d31-941e-a3fe596474dd","system_id":"levelo_inurba_marseille","lat":43.259278,"lon":5.409126,"is_reserved":false,"is_disabled":false,"rental_uris":{"android":"levelo://app?vid=61a4c449-70c1-4d31-941e-a3fe596474dd","ios":"levelo://app?vid=61a4c449-70c1-4d31-941e-a3fe596474dd"},"vehicle_type_id":"4","last_reported":1702836494,"current_range_meters":31200,"station_id":"ce4bhm92rcd13ifvqglg","pricing_plan_id":"free"},{"bike_id":"118d6971-ccf8-413b-a5f3-5bcb58db73da","system_id":"levelo_inurba_marseille","lat":43.257079,"lon":5.411051,"is_reserved":false,"is_disabled":false,"rental_uris":{"android":"levelo://app?vid=118d6971-ccf8-413b-a5f3-5bcb58db73da","ios":"levelo://app?vid=118d6971-ccf8-413b-a5f3-5bcb58db73da"},"vehicle_type_id":"4","last_reported":1702836494,"current_range_meters":18400,"station_id":"ce4bhkp2rcd13ifvqgd0","pricing_plan_id":"free"},{"bike_id":"67d4480c-ec71-4499-9e4f-01cd61597d70","system_id":"levelo_inurba_marseille","lat":43.257079,"lon":5.411051,"is_reserved":false,"is_disabled":false,"rental_uris":{"android":"levelo://app?vid=67d4480c-ec71-4499-9e4f-01cd61597d70","ios":"levelo://app?vid=67d4480c-ec71-4499-9e4f-01cd61597d70"},"vehicle_type_id":"4","last_reported":1702836494,"current_range_meters":15600,"station_id":"ce4bhkp2rcd13ifvqgd0","pricing_plan_id":"free"},{"bike_id":"458f438c-c772-4f53-bea4-5f5d58494161","system_id":"levelo_inurba_marseille","lat":43.250009,"lon":5.389195,"is_reserved":false,"is_disabled":false,"rental_uris":{"android":"levelo://app?vid=458f438c-c772-4f53-bea4-5f5d58494161","ios":"levelo://app?vid=458f438c-c772-4f53-bea4-5f5d58494161"},"vehicle_type_id":"4","last_reported":1702836494,"current_range_meters":7600,"station_id":"ce4bhgp2rcd13ifvqfd0","pricing_plan_id":"free"},{"bike_id":"17ec82a7-a075-4c53-84c1-a60158f8545d","system_id":"levelo_inurba_marseille","lat":43.250966,"lon":5.395186,"is_reserved":false,"is_disabled":false,"rental_uris":{"android":"levelo://app?vid=17ec82a7-a075-4c53-84c1-a60158f8545d","ios":"levelo://app?vid=17ec82a7-a075-4c53-84c1-a60158f8545d"},"vehicle_type_id":"4","last_reported":1702836494,"current_range_meters":31600,"station_id":"ce4bhm12rcd13ifvqgkg","pricing_plan_id":"free"},{"bike_id":"c1990bdb-4017-4dd6-b9ba-79a531ab0cee","system_id":"levelo_inurba_marseille","lat":43.250966,"lon":5.395186,"is_reserved":false,"is_disabled":false,"rental_uris":{"android":"levelo://app?vid=c1990bdb-4017-4dd6-b9ba-79a531ab0cee","ios":"levelo://app?vid=c1990bdb-4017-4dd6-b9ba-79a531ab0cee"},"vehicle_type_id":"4","last_reported":1702836494,"current_range_meters":17200,"station_id":"ce4bhm12rcd13ifvqgkg","pricing_plan_id":"free"},{"bike_id":"1e3f0e65-d4f8-4a80-9ec3-0d49c53493b9","system_id":"levelo_inurba_marseille","lat":43.250966,"lon":5.395186,"is_reserved":false,"is_disabled":false,"rental_uris":{"android":"levelo://app?vid=1e3f0e65-d4f8-4a80-9ec3-0d49c53493b9","ios":"levelo://app?vid=1e3f0e65-d4f8-4a80-9ec3-0d49c53493b9"},"vehicle_type_id":"4","last_reported":1702836494,"current_range_meters":9600,"station_id":"ce4bhm12rcd13ifvqgkg","pricing_plan_id":"free"},{"bike_id":"5065f1c1-0d9e-438b-a54c-a6bd79eab63b","system_id":"levelo_inurba_marseille","lat":43.2508,"lon":5.39519,"is_reserved":false,"is_disabled":false,"rental_uris":{"android":"levelo://app?vid=5065f1c1-0d9e-438b-a54c-a6bd79eab63b","ios":"levelo://app?vid=5065f1c1-0d9e-438b-a54c-a6bd79eab63b"},"vehicle_type_id":"4","last_reported":1702836494,"current_range_meters":16400,"station_id":"ce4bhm12rcd13ifvqgkg","pricing_plan_id":"free"},{"bike_id":"ca777156-7ad4-4d23-8ab0-18cea2cff913","system_id":"levelo_inurba_marseille","lat":43.2466,"lon":5.38165,"is_reserved":false,"is_disabled":false,"rental_uris":{"android":"levelo://app?vid=ca777156-7ad4-4d23-8ab0-18cea2cff913","ios":"levelo://app?vid=ca777156-7ad4-4d23-8ab0-18cea2cff913"},"vehicle_type_id":"4","last_reported":1702836494,"current_range_meters":9200,"station_id":"ce4bhih2rcd13ifvqfr0","pricing_plan_id":"free"},{"bike_id":"cda151f2-9ad2-46c9-9115-b73ba9a06619","system_id":"levelo_inurba_marseille","lat":43.25218,"lon":5.40642,"is_reserved":false,"is_disabled":false,"rental_uris":{"android":"levelo://app?vid=cda151f2-9ad2-46c9-9115-b73ba9a06619","ios":"levelo://app?vid=cda151f2-9ad2-46c9-9115-b73ba9a06619"},"vehicle_type_id":"4","last_reported":1702836494,"current_range_meters":0,"station_id":"","pricing_plan_id":"free"},{"bike_id":"6a54eb6b-faf7-4d67-9f92-b8ef104fabd7","system_id":"levelo_inurba_marseille","lat":43.24386,"lon":5.37055,"is_reserved":false,"is_disabled":false,"rental_uris":{"android":"levelo://app?vid=6a54eb6b-faf7-4d67-9f92-b8ef104fabd7","ios":"levelo://app?vid=6a54eb6b-faf7-4d67-9f92-b8ef104fabd7"},"vehicle_type_id":"4","last_reported":1702836494,"current_range_meters":30800,"station_id":"ce4bhhh2rcd13ifvqfk0","pricing_plan_id":"free"},{"bike_id":"c7978104-24ef-4e1d-8dc8-cc046b6c7589","system_id":"levelo_inurba_marseille","lat":43.243884,"lon":5.370737,"is_reserved":false,"is_disabled":false,"rental_uris":{"android":"levelo://app?vid=c7978104-24ef-4e1d-8dc8-cc046b6c7589","ios":"levelo://app?vid=c7978104-24ef-4e1d-8dc8-cc046b6c7589"},"vehicle_type_id":"4","last_reported":1702836494,"current_range_meters":16800,"station_id":"ce4bhhh2rcd13ifvqfk0","pricing_plan_id":"free"},{"bike_id":"c26d6df2-50c5-4e14-9967-4ccd466285c9","system_id":"levelo_inurba_marseille","lat":43.243884,"lon":5.370736,"is_reserved":false,"is_disabled":false,"rental_uris":{"android":"levelo://app?vid=c26d6df2-50c5-4e14-9967-4ccd466285c9","ios":"levelo://app?vid=c26d6df2-50c5-4e14-9967-4ccd466285c9"},"vehicle_type_id":"4","last_reported":1702836494,"current_range_meters":27600,"station_id":"ce4bhhh2rcd13ifvqfk0","pricing_plan_id":"free"},{"bike_id":"bfc09dd1-ee9f-467a-8fd9-017443a3e28a","system_id":"levelo_inurba_marseille","lat":43.24549,"lon":5.39524,"is_reserved":false,"is_disabled":false,"rental_uris":{"android":"levelo://app?vid=bfc09dd1-ee9f-467a-8fd9-017443a3e28a","ios":"levelo://app?vid=bfc09dd1-ee9f-467a-8fd9-017443a3e28a"},"vehicle_type_id":"4","last_reported":1702836494,"current_range_meters":0,"station_id":"ce4bhlp2rcd13ifvqgjg","pricing_plan_id":"free"},{"bike_id":"06bea5c1-932e-4686-a69e-73c3a94a649c","system_id":"levelo_inurba_marseille","lat":43.24076,"lon":5.37766,"is_reserved":false,"is_disabled":false,"rental_uris":{"android":"levelo://app?vid=06bea5c1-932e-4686-a69e-73c3a94a649c","ios":"levelo://app?vid=06bea5c1-932e-4686-a69e-73c3a94a649c"},"vehicle_type_id":"4","last_reported":1702836494,"current_range_meters":30000,"station_id":"ce4bhnp2rcd13ifvqgvg","pricing_plan_id":"free"},{"bike_id":"aa97c409-4ac7-48ec-8a79-8af04518d4fe","system_id":"levelo_inurba_marseille","lat":43.24075,"lon":5.37759,"is_reserved":false,"is_disabled":false,"rental_uris":{"android":"levelo://app?vid=aa97c409-4ac7-48ec-8a79-8af04518d4fe","ios":"levelo://app?vid=aa97c409-4ac7-48ec-8a79-8af04518d4fe"},"vehicle_type_id":"4","last_reported":1702836494,"current_range_meters":17600,"station_id":"ce4bhnp2rcd13ifvqgvg","pricing_plan_id":"free"},{"bike_id":"bf18716f-b52c-4345-a69f-b9b1cd13bfa8","system_id":"levelo_inurba_marseille","lat":43.240623,"lon":5.377642,"is_reserved":false,"is_disabled":false,"rental_uris":{"android":"levelo://app?vid=bf18716f-b52c-4345-a69f-b9b1cd13bfa8","ios":"levelo://app?vid=bf18716f-b52c-4345-a69f-b9b1cd13bfa8"},"vehicle_type_id":"4","last_reported":1702836494,"current_range_meters":0,"station_id":"ce4bhnp2rcd13ifvqgvg","pricing_plan_id":"free"},{"bike_id":"06b4f2b0-f274-474c-a1c2-df6e6c70ba20","system_id":"levelo_inurba_marseille","lat":43.240671,"lon":5.377611,"is_reserved":false,"is_disabled":false,"rental_uris":{"android":"levelo://app?vid=06b4f2b0-f274-474c-a1c2-df6e6c70ba20","ios":"levelo://app?vid=06b4f2b0-f274-474c-a1c2-df6e6c70ba20"},"vehicle_type_id":"4","last_reported":1702836494,"current_range_meters":31200,"station_id":"ce4bhnp2rcd13ifvqgvg","pricing_plan_id":"free"},{"bike_id":"348c8008-eb97-45e9-b5a7-a3bb3c3d64df","system_id":"levelo_inurba_marseille","lat":43.24062,"lon":5.37756,"is_reserved":false,"is_disabled":false,"rental_uris":{"android":"levelo://app?vid=348c8008-eb97-45e9-b5a7-a3bb3c3d64df","ios":"levelo://app?vid=348c8008-eb97-45e9-b5a7-a3bb3c3d64df"},"vehicle_type_id":"4","last_reported":1702836494,"current_range_meters":19200,"station_id":"ce4bhnp2rcd13ifvqgvg","pricing_plan_id":"free"},{"bike_id":"1a0aaa3c-7b25-4d9a-9a1b-04aaf2445cf4","system_id":"levelo_inurba_marseille","lat":43.239588,"lon":5.366238,"is_reserved":false,"is_disabled":false,"rental_uris":{"android":"levelo://app?vid=1a0aaa3c-7b25-4d9a-9a1b-04aaf2445cf4","ios":"levelo://app?vid=1a0aaa3c-7b25-4d9a-9a1b-04aaf2445cf4"},"vehicle_type_id":"4","last_reported":1702836494,"current_range_meters":21200,"station_id":"ce4bhi12rcd13ifvqfp0","pricing_plan_id":"free"},{"bike_id":"ab53bb42-61c7-49e6-9264-16f1931406aa","system_id":"levelo_inurba_marseille","lat":43.23965,"lon":5.36622,"is_reserved":false,"is_disabled":false,"rental_uris":{"android":"levelo://app?vid=ab53bb42-61c7-49e6-9264-16f1931406aa","ios":"levelo://app?vid=ab53bb42-61c7-49e6-9264-16f1931406aa"},"vehicle_type_id":"4","last_reported":1702836494,"current_range_meters":20800,"station_id":"ce4bhi12rcd13ifvqfp0","pricing_plan_id":"free"},{"bike_id":"630cf2f9-baf1-4860-be47-7a66ce2ac839","system_id":"levelo_inurba_marseille","lat":43.23959,"lon":5.3663,"is_reserved":false,"is_disabled":false,"rental_uris":{"android":"levelo://app?vid=630cf2f9-baf1-4860-be47-7a66ce2ac839","ios":"levelo://app?vid=630cf2f9-baf1-4860-be47-7a66ce2ac839"},"vehicle_type_id":"4","last_reported":1702836494,"current_range_meters":23600,"station_id":"ce4bhi12rcd13ifvqfp0","pricing_plan_id":"free"},{"bike_id":"391d21ee-50f4-4ad5-9205-d2446648b03a","system_id":"levelo_inurba_marseille","lat":43.239588,"lon":5.366238,"is_reserved":false,"is_disabled":false,"rental_uris":{"android":"levelo://app?vid=391d21ee-50f4-4ad5-9205-d2446648b03a","ios":"levelo://app?vid=391d21ee-50f4-4ad5-9205-d2446648b03a"},"vehicle_type_id":"4","last_reported":1702836494,"current_range_meters":28000,"station_id":"ce4bhi12rcd13ifvqfp0","pricing_plan_id":"free"},{"bike_id":"27ba2b70-7808-484e-9ba2-68ee6811dbcf","system_id":"levelo_inurba_marseille","lat":43.241782,"lon":5.397261,"is_reserved":false,"is_disabled":false,"rental_uris":{"android":"levelo://app?vid=27ba2b70-7808-484e-9ba2-68ee6811dbcf","ios":"levelo://app?vid=27ba2b70-7808-484e-9ba2-68ee6811dbcf"},"vehicle_type_id":"4","last_reported":1702836494,"current_range_meters":29600,"station_id":"ce4bhn12rcd13ifvqgpg","pricing_plan_id":"free"},{"bike_id":"7544b8c0-a29f-44c5-8842-21760cbddff8","system_id":"levelo_inurba_marseille","lat":43.241782,"lon":5.397261,"is_reserved":false,"is_disabled":false,"rental_uris":{"android":"levelo://app?vid=7544b8c0-a29f-44c5-8842-21760cbddff8","ios":"levelo://app?vid=7544b8c0-a29f-44c5-8842-21760cbddff8"},"vehicle_type_id":"4","last_reported":1702836494,"current_range_meters":8400,"station_id":"ce4bhn12rcd13ifvqgpg","pricing_plan_id":"free"},{"bike_id":"83e81e69-db0f-47f9-a374-f01b664427a3","system_id":"levelo_inurba_marseille","lat":43.241782,"lon":5.397261,"is_reserved":false,"is_disabled":false,"rental_uris":{"android":"levelo://app?vid=83e81e69-db0f-47f9-a374-f01b664427a3","ios":"levelo://app?vid=83e81e69-db0f-47f9-a374-f01b664427a3"},"vehicle_type_id":"4","last_reported":1702836494,"current_range_meters":22800,"station_id":"ce4bhn12rcd13ifvqgpg","pricing_plan_id":"free"},{"bike_id":"6407938b-389d-4533-9ecb-2228594d1ac0","system_id":"levelo_inurba_marseille","lat":43.232022,"lon":5.35548,"is_reserved":false,"is_disabled":false,"rental_uris":{"android":"levelo://app?vid=6407938b-389d-4533-9ecb-2228594d1ac0","ios":"levelo://app?vid=6407938b-389d-4533-9ecb-2228594d1ac0"},"vehicle_type_id":"4","last_reported":1702836494,"current_range_meters":15200,"station_id":"ce4bhu92rcd13ifvqi70","pricing_plan_id":"free"},{"bike_id":"8fa8dcad-9213-4682-9e78-bced4d248910","system_id":"levelo_inurba_marseille","lat":43.23201,"lon":5.35551,"is_reserved":false,"is_disabled":false,"rental_uris":{"android":"levelo://app?vid=8fa8dcad-9213-4682-9e78-bced4d248910","ios":"levelo://app?vid=8fa8dcad-9213-4682-9e78-bced4d248910"},"vehicle_type_id":"4","last_reported":1702836494,"current_range_meters":11600,"station_id":"ce4bhu92rcd13ifvqi70","pricing_plan_id":"free"},{"bike_id":"deb8549c-895f-4c6d-b68c-130ea343f1e6","system_id":"levelo_inurba_marseille","lat":43.23194,"lon":5.35555,"is_reserved":false,"is_disabled":false,"rental_uris":{"android":"levelo://app?vid=deb8549c-895f-4c6d-b68c-130ea343f1e6","ios":"levelo://app?vid=deb8549c-895f-4c6d-b68c-130ea343f1e6"},"vehicle_type_id":"4","last_reported":1702836494,"current_range_meters":19200,"station_id":"ce4bhu92rcd13ifvqi70","pricing_plan_id":"free"},{"bike_id":"d9e90a00-4eaf-4c9c-9eec-79e0be0c0bc3","system_id":"levelo_inurba_marseille","lat":43.231794,"lon":5.400052,"is_reserved":false,"is_disabled":false,"rental_uris":{"android":"levelo://app?vid=d9e90a00-4eaf-4c9c-9eec-79e0be0c0bc3","ios":"levelo://app?vid=d9e90a00-4eaf-4c9c-9eec-79e0be0c0bc3"},"vehicle_type_id":"4","last_reported":1702836494,"current_range_meters":12800,"station_id":"ce4bhn12rcd13ifvqgqg","pricing_plan_id":"free"},{"bike_id":"82b0b121-d2e6-4f04-8530-97cda8a0fbcd","system_id":"levelo_inurba_marseille","lat":43.231794,"lon":5.400052,"is_reserved":false,"is_disabled":false,"rental_uris":{"android":"levelo://app?vid=82b0b121-d2e6-4f04-8530-97cda8a0fbcd","ios":"levelo://app?vid=82b0b121-d2e6-4f04-8530-97cda8a0fbcd"},"vehicle_type_id":"4","last_reported":1702836494,"current_range_meters":31600,"station_id":"ce4bhn12rcd13ifvqgqg","pricing_plan_id":"free"},{"bike_id":"3ee0ea00-8e05-48c0-a38d-caf8a81146cd","system_id":"levelo_inurba_marseille","lat":43.231794,"lon":5.400052,"is_reserved":false,"is_disabled":false,"rental_uris":{"android":"levelo://app?vid=3ee0ea00-8e05-48c0-a38d-caf8a81146cd","ios":"levelo://app?vid=3ee0ea00-8e05-48c0-a38d-caf8a81146cd"},"vehicle_type_id":"4","last_reported":1702836494,"current_range_meters":30800,"station_id":"ce4bhn12rcd13ifvqgqg","pricing_plan_id":"free"},{"bike_id":"d5206a6c-92a9-4a75-8859-313a2b40fcd2","system_id":"levelo_inurba_marseille","lat":43.231793,"lon":5.400044,"is_reserved":false,"is_disabled":false,"rental_uris":{"android":"levelo://app?vid=d5206a6c-92a9-4a75-8859-313a2b40fcd2","ios":"levelo://app?vid=d5206a6c-92a9-4a75-8859-313a2b40fcd2"},"vehicle_type_id":"4","last_reported":1702836494,"current_range_meters":31600,"station_id":"ce4bhn12rcd13ifvqgqg","pricing_plan_id":"free"},{"bike_id":"f24eb76b-d777-4231-a0c9-e86572250025","system_id":"levelo_inurba_marseille","lat":43.231793,"lon":5.400044,"is_reserved":false,"is_disabled":false,"rental_uris":{"android":"levelo://app?vid=f24eb76b-d777-4231-a0c9-e86572250025","ios":"levelo://app?vid=f24eb76b-d777-4231-a0c9-e86572250025"},"vehicle_type_id":"4","last_reported":1702836494,"current_range_meters":16000,"station_id":"ce4bhn12rcd13ifvqgqg","pricing_plan_id":"free"},{"bike_id":"56e5134b-2d66-4511-b569-3c4bfa4ce73d","system_id":"levelo_inurba_marseille","lat":43.231804,"lon":5.399871,"is_reserved":false,"is_disabled":false,"rental_uris":{"android":"levelo://app?vid=56e5134b-2d66-4511-b569-3c4bfa4ce73d","ios":"levelo://app?vid=56e5134b-2d66-4511-b569-3c4bfa4ce73d"},"vehicle_type_id":"4","last_reported":1702836494,"current_range_meters":2000,"station_id":"ce4bhn12rcd13ifvqgqg","pricing_plan_id":"free"},{"bike_id":"9eda3020-71fa-42b3-86ef-c71f0f5d8c14","system_id":"levelo_inurba_marseille","lat":43.231794,"lon":5.400052,"is_reserved":false,"is_disabled":false,"rental_uris":{"android":"levelo://app?vid=9eda3020-71fa-42b3-86ef-c71f0f5d8c14","ios":"levelo://app?vid=9eda3020-71fa-42b3-86ef-c71f0f5d8c14"},"vehicle_type_id":"4","last_reported":1702836494,"current_range_meters":11200,"station_id":"ce4bhn12rcd13ifvqgqg","pricing_plan_id":"free"},{"bike_id":"1a9f340c-e51f-4203-955a-ec15fcead8aa","system_id":"levelo_inurba_marseille","lat":43.231794,"lon":5.400052,"is_reserved":false,"is_disabled":false,"rental_uris":{"android":"levelo://app?vid=1a9f340c-e51f-4203-955a-ec15fcead8aa","ios":"levelo://app?vid=1a9f340c-e51f-4203-955a-ec15fcead8aa"},"vehicle_type_id":"4","last_reported":1702836494,"current_range_meters":24800,"station_id":"ce4bhn12rcd13ifvqgqg","pricing_plan_id":"free"},{"bike_id":"a0a25d8d-07fa-47e8-a43b-30fb24b3ce53","system_id":"levelo_inurba_marseille","lat":43.231794,"lon":5.400052,"is_reserved":false,"is_disabled":false,"rental_uris":{"android":"levelo://app?vid=a0a25d8d-07fa-47e8-a43b-30fb24b3ce53","ios":"levelo://app?vid=a0a25d8d-07fa-47e8-a43b-30fb24b3ce53"},"vehicle_type_id":"4","last_reported":1702836494,"current_range_meters":14400,"station_id":"ce4bhn12rcd13ifvqgqg","pricing_plan_id":"free"},{"bike_id":"8fc3d730-5b0f-4365-bffe-3f7b838e64f7","system_id":"levelo_inurba_marseille","lat":43.231793,"lon":5.400044,"is_reserved":false,"is_disabled":false,"rental_uris":{"android":"levelo://app?vid=8fc3d730-5b0f-4365-bffe-3f7b838e64f7","ios":"levelo://app?vid=8fc3d730-5b0f-4365-bffe-3f7b838e64f7"},"vehicle_type_id":"4","last_reported":1702836494,"current_range_meters":16800,"station_id":"ce4bhn12rcd13ifvqgqg","pricing_plan_id":"free"},{"bike_id":"9cd53cf9-f70e-47ff-be51-e331fe369460","system_id":"levelo_inurba_marseille","lat":43.231562,"lon":5.436933,"is_reserved":false,"is_disabled":false,"rental_uris":{"android":"levelo://app?vid=9cd53cf9-f70e-47ff-be51-e331fe369460","ios":"levelo://app?vid=9cd53cf9-f70e-47ff-be51-e331fe369460"},"vehicle_type_id":"4","last_reported":1702836494,"current_range_meters":20000,"station_id":"ce4bhmp2rcd13ifvqgog","pricing_plan_id":"free"},{"bike_id":"d5b5365d-ae87-4306-bbc5-b0c9d03f1445","system_id":"levelo_inurba_marseille","lat":43.231562,"lon":5.436933,"is_reserved":false,"is_disabled":false,"rental_uris":{"android":"levelo://app?vid=d5b5365d-ae87-4306-bbc5-b0c9d03f1445","ios":"levelo://app?vid=d5b5365d-ae87-4306-bbc5-b0c9d03f1445"},"vehicle_type_id":"4","last_reported":1702836494,"current_range_meters":15200,"station_id":"ce4bhmp2rcd13ifvqgog","pricing_plan_id":"free"}]}}