{"last_updated":1739959791,"ttl":60,"version":"2.2","data":{"bikes":[{"bike_id":"ad5bfadb-7e42-4df3-87c9-982f252de69f","system_id":"levelo_inurba_marseille","lat":43.3133,"lon":5.3673,"is_reserved":false,"is_disabled":false,"rental_uris":{"android":"levelo://app?vid=ad5bfadb-7e42-4df3-87c9-982f252de69f","ios":"levelo://app?vid=ad5bfadb-7e42-4df3-87c9-982f252de69f"},"vehicle_type_id":"4","last_reported":1739959791,"current_range_meters":2800,"station_id":"","pricing_plan_id":"cebpf4jnsgd1na2vs0mg"},{"bike_id":"7b85ab77-b4da-49c0-828e-288db2e9b9ca","system_id":"levelo_inurba_marseille","lat":43.27833,"lon":5.39206,"is_reserved":false,"is_disabled":false,"rental_uris":{"android":"levelo://app?vid=7b85ab77-b4da-49c0-828e-288db2e9b9ca","ios":"levelo://app?vid=7b85ab77-b4da-49c0-828e-288db2e9b9ca"},"vehicle_type_id":"4","last_reported":1739959791,"current_range_meters":3200,"station_id":"ce4bhjp2rcd13ifvqga0","pricing_plan_id":"cebpf4jnsgd1na2vs0mg"},{"bike_id":"4aebea14-4cfb-4d7d-8d65-9d2647cce87e","system_id":"levelo_inurba_marseille","lat":43.2713,"lon":5.39239,"is_reserved":false,"is_disabled":false,"rental_uris":{"android":"levelo://app?vid=4aebea14-4cfb-4d7d-8d65-9d2647cce87e","ios":"levelo://app?vid=4aebea14-4cfb-4d7d-8d65-9d2647cce87e"},"vehicle_type_id":"4","last_reported":1739959791,"current_range_meters":3200,"station_id":"ce4bhhp2rcd13ifvqfm0","pricing_plan_id":"cebpf4jnsgd1na2vs0mg"},{"bike_id":"d26850d0-243b-45ca-ad06-7a292cc6551f","system_id":"levelo_inurba_marseille","lat":43.23963,"lon":5.36633,"is_reserved":false,"is_disabled":false,"rental_uris":{"android":"levelo://app?vid=d26850d0-243b-45ca-ad06-7a292cc6551f","ios":"levelo://app?vid=d26850d0-243b-45ca-ad06-7a292cc6551f"},"vehicle_type_id":"4","last_reported":1739959791,"current_range_meters":3200,"station_id":"ce4bhi12rcd13ifvqfp0","pricing_plan_id":"cebpf4jnsgd1na2vs0mg"},{"bike_id":"603ca884-b8b4-45be-8f14-e1933b47c427","system_id":"levelo_inurba_marseille","lat":43.26057,"lon":5.39398,"is_reserved":false,"is_disabled":false,"rental_uris":{"android":"levelo://app?vid=603ca884-b8b4-45be-8f14-e1933b47c427","ios":"levelo://app?vid=603ca884-b8b4-45be-8f14-e1933b47c427"},"vehicle_type_id":"4","last_reported":1739959791,"current_range_meters":3200,"station_id":"ce4bhh92rcd13ifvqfj0","pricing_plan_id":"cebpf4jnsgd1na2vs0mg"},{"bike_id":"5df3845c-4ea1-44a3-9174-1142afb018d2","system_id":"levelo_inurba_marseille","lat":43.26561,"lon":5.37321,"is_reserved":false,"is_disabled":false,"rental_uris":{"android":"levelo://app?vid=5df3845c-4ea1-44a3-9174-1142afb018d2","ios":"levelo://app?vid=5df3845c-4ea1-44a3-9174-1142afb018d2"},"vehicle_type_id":"4","last_reported":1739959791,"current_range_meters":3600,"station_id":"","pricing_plan_id":"cebpf4jnsgd1na2vs0mg"},{"bike_id":"835f1e51-caf8-448d-bd1b-35a23765b975","system_id":"levelo_inurba_marseille","lat":43.27811,"lon":5.40738,"is_reserved":false,"is_disabled":false,"rental_uris":{"android":"levelo://app?vid=835f1e51-caf8-448d-bd1b-35a23765b975","ios":"levelo://app?vid=835f1e51-caf8-448d-bd1b-35a23765b975"},"vehicle_type_id":"4","last_reported":1739959791,"current_range_meters":3600,"station_id":"ce4bhnh2rcd13ifvqgtg","pricing_plan_id":"cebpf4jnsgd1na2vs0mg"},{"bike_id":"22316336-a3e3-4d65-becc-99d77738bef1","system_id":"levelo_inurba_marseille","lat":43.28359,"lon":5.38649,"is_reserved":false,"is_disabled":false,"rental_uris":{"android":"levelo://app?vid=22316336-a3e3-4d65-becc-99d77738bef1","ios":"levelo://app?vid=22316336-a3e3-4d65-becc-99d77738bef1"},"vehicle_type_id":"4","last_reported":1739959791,"current_range_meters":3600,"station_id":"ce4bh492rcd13ifvqdvg","pricing_plan_id":"cebpf4jnsgd1na2vs0mg"},{"bike_id":"0b9e6c18-1f88-4568-b205-9935e1dd0ba7","system_id":"levelo_inurba_marseille","lat":43.32483,"lon":5.36563,"is_reserved":false,"is_disabled":false,"rental_uris":{"android":"levelo://app?vid=0b9e6c18-1f88-4568-b205-9935e1dd0ba7","ios":"levelo://app?vid=0b9e6c18-1f88-4568-b205-9935e1dd0ba7"},"vehicle_type_id":"4","last_reported":1739959791,"current_range_meters":4000,"station_id":"ce4bhs12rcd13ifvqhvg","pricing_plan_id":"cebpf4jnsgd1na2vs0mg"},{"bike_id":"02766e68-cb05-4b8c-ad5d-2a48ff6d2d28","system_id":"levelo_inurba_marseille","lat":43.2927,"lon":5.40125,"is_reserved":false,"is_disabled":false,"rental_uris":{"android":"levelo://app?vid=02766e68-cb05-4b8c-ad5d-2a48ff6d2d28","ios":"levelo://app?vid=02766e68-cb05-4b8c-ad5d-2a48ff6d2d28"},"vehicle_type_id":"4","last_reported":1739959791,"current_range_meters":4000,"station_id":"ce4bh312rcd13ifvqdk0","pricing_plan_id":"cebpf4jnsgd1na2vs0mg"},{"bike_id":"96e21aff-c3cb-4b34-888a-4e387df75bb2","system_id":"levelo_inurba_marseille","lat":43.296021,"lon":5.381079,"is_reserved":false,"is_disabled":false,"rental_uris":{"android":"levelo://app?vid=96e21aff-c3cb-4b34-888a-4e387df75bb2","ios":"levelo://app?vid=96e21aff-c3cb-4b34-888a-4e387df75bb2"},"vehicle_type_id":"4","last_reported":1739959791,"current_range_meters":4000,"station_id":"ce4bgl12rcd13ifvqbo0","pricing_plan_id":"cebpf4jnsgd1na2vs0mg"},{"bike_id":"2069b0f4-c1bc-4617-b31d-7bff8f3d5434","system_id":"levelo_inurba_marseille","lat":43.29627,"lon":5.37745,"is_reserved":false,"is_disabled":false,"rental_uris":{"android":"levelo://app?vid=2069b0f4-c1bc-4617-b31d-7bff8f3d5434","ios":"levelo://app?vid=2069b0f4-c1bc-4617-b31d-7bff8f3d5434"},"vehicle_type_id":"4","last_reported":1739959791,"current_range_meters":4400,"station_id":"ce4bgi92rcd13ifvqb90","pricing_plan_id":"cebpf4jnsgd1na2vs0mg"},{"bike_id":"0d49c6b7-7f31-4c7e-92e5-41b7bdf852cd","system_id":"levelo_inurba_marseille","lat":43.28383,"lon":5.35004,"is_reserved":false,"is_disabled":false,"rental_uris":{"android":"levelo://app?vid=0d49c6b7-7f31-4c7e-92e5-41b7bdf852cd","ios":"levelo://app?vid=0d49c6b7-7f31-4c7e-92e5-41b7bdf852cd"},"vehicle_type_id":"4","last_reported":1739959791,"current_range_meters":4400,"station_id":"ce4bgvp2rcd13ifvqcu0","pricing_plan_id":"cebpf4jnsgd1na2vs0mg"},{"bike_id":"020f9db3-6048-4a83-8c59-4acc533112c8","system_id":"levelo_inurba_marseille","lat":43.28162,"lon":5.42632,"is_reserved":false,"is_disabled":false,"rental_uris":{"android":"levelo://app?vid=020f9db3-6048-4a83-8c59-4acc533112c8","ios":"levelo://app?vid=020f9db3-6048-4a83-8c59-4acc533112c8"},"vehicle_type_id":"4","last_reported":1739959791,"current_range_meters":4400,"station_id":"ce4bhnh2rcd13ifvqgug","pricing_plan_id":"cebpf4jnsgd1na2vs0mg"},{"bike_id":"3f8a7573-ed17-44ef-ba58-3ffcbe5d2815","system_id":"levelo_inurba_marseille","lat":43.28796,"lon":5.39146,"is_reserved":false,"is_disabled":true,"rental_uris":{"android":"levelo://app?vid=3f8a7573-ed17-44ef-ba58-3ffcbe5d2815","ios":"levelo://app?vid=3f8a7573-ed17-44ef-ba58-3ffcbe5d2815"},"vehicle_type_id":"4","last_reported":1739959791,"current_range_meters":4400,"station_id":"","pricing_plan_id":"cebpf4jnsgd1na2vs0mg"},{"bike_id":"811901b7-6a39-4b98-9209-f363e05c2482","system_id":"levelo_inurba_marseille","lat":43.2815,"lon":5.42642,"is_reserved":false,"is_disabled":false,"rental_uris":{"android":"levelo://app?vid=811901b7-6a39-4b98-9209-f363e05c2482","ios":"levelo://app?vid=811901b7-6a39-4b98-9209-f363e05c2482"},"vehicle_type_id":"4","last_reported":1739959791,"current_range_meters":5600,"station_id":"ce4bhnh2rcd13ifvqgug","pricing_plan_id":"cebpf4jnsgd1na2vs0mg"},{"bike_id":"408d6a3c-1677-425d-a36c-289af725df89","system_id":"levelo_inurba_marseille","lat":43.30139,"lon":5.37415,"is_reserved":false,"is_disabled":false,"rental_uris":{"android":"levelo://app?vid=408d6a3c-1677-425d-a36c-289af725df89","ios":"levelo://app?vid=408d6a3c-1677-425d-a36c-289af725df89"},"vehicle_type_id":"4","last_reported":1739959791,"current_range_meters":5600,"station_id":"ce4bgs92rcd13ifvqcc0","pricing_plan_id":"cebpf4jnsgd1na2vs0mg"},{"bike_id":"e1e0a4ec-a55f-4e7e-9428-59f275f37ecf","system_id":"levelo_inurba_marseille","lat":43.23188,"lon":5.39988,"is_reserved":false,"is_disabled":false,"rental_uris":{"android":"levelo://app?vid=e1e0a4ec-a55f-4e7e-9428-59f275f37ecf","ios":"levelo://app?vid=e1e0a4ec-a55f-4e7e-9428-59f275f37ecf"},"vehicle_type_id":"4","last_reported":1739959791,"current_range_meters":5600,"station_id":"","pricing_plan_id":"cebpf4jnsgd1na2vs0mg"},{"bike_id":"6528e792-6c2b-41ab-b102-37d30001a0e7","system_id":"levelo_inurba_marseille","lat":43.27223,"lon":5.4008,"is_reserved":false,"is_disabled":false,"rental_uris":{"android":"levelo://app?vid=6528e792-6c2b-41ab-b102-37d30001a0e7","ios":"levelo://app?vid=6528e792-6c2b-41ab-b102-37d30001a0e7"},"vehicle_type_id":"4","last_reported":1739959791,"current_range_meters":6000,"station_id":"","pricing_plan_id":"cebpf4jnsgd1na2vs0mg"},{"bike_id":"a5e0f20c-c7dc-4bb7-98ad-d2dcc7f356bd","system_id":"levelo_inurba_marseille","lat":43.2656,"lon":5.37293,"is_reserved":false,"is_disabled":false,"rental_uris":{"android":"levelo://app?vid=a5e0f20c-c7dc-4bb7-98ad-d2dcc7f356bd","ios":"levelo://app?vid=a5e0f20c-c7dc-4bb7-98ad-d2dcc7f356bd"},"vehicle_type_id":"4","last_reported":1739959791,"current_range_meters":6000,"station_id":"ce4bhg12rcd13ifvqf70","pricing_plan_id":"cebpf4jnsgd1na2vs0mg"},{"bike_id":"2462e692-8d29-4f01-80ad-d6a921ae40b3","system_id":"levelo_inurba_marseille","lat":43.23147,"lon":5.43733,"is_reserved":false,"is_disabled":false,"rental_uris":{"android":"levelo://app?vid=2462e692-8d29-4f01-80ad-d6a921ae40b3","ios":"levelo://app?vid=2462e692-8d29-4f01-80ad-d6a921ae40b3"},"vehicle_type_id":"4","last_reported":1739959791,"current_range_meters":6000,"station_id":"ce4bhmp2rcd13ifvqgog","pricing_plan_id":"cebpf4jnsgd1na2vs0mg"},{"bike_id":"0083c1da-4cdd-4ee8-a782-3b0ace8e357e","system_id":"levelo_inurba_marseille","lat":43.30142,"lon":5.38785,"is_reserved":false,"is_disabled":false,"rental_uris":{"android":"levelo://app?vid=0083c1da-4cdd-4ee8-a782-3b0ace8e357e","ios":"levelo://app?vid=0083c1da-4cdd-4ee8-a782-3b0ace8e357e"},"vehicle_type_id":"4","last_reported":1739959791,"current_range_meters":6000,"station_id":"ce4bghh2rcd13ifvqb60","pricing_plan_id":"cebpf4jnsgd1na2vs0mg"},{"bike_id":"85b329dc-ecfd-47e9-ae09-c4f6725d9361","system_id":"levelo_inurba_marseille","lat":43.30589,"lon":5.39365,"is_reserved":false,"is_disabled":false,"rental_uris":{"android":"levelo://app?vid=85b329dc-ecfd-47e9-ae09-c4f6725d9361","ios":"levelo://app?vid=85b329dc-ecfd-47e9-ae09-c4f6725d9361"},"vehicle_type_id":"4","last_reported":1739959791,"current_range_meters":6400,"station_id":"ce4bh0p2rcd13ifvqd80","pricing_plan_id":"cebpf4jnsgd1na2vs0mg"},{"bike_id":"dcaa5d09-ad4d-4077-9a1e-bfb165ed7859","system_id":"levelo_inurba_marseille","lat":43.31216,"lon":5.36853,"is_reserved":false,"is_disabled":false,"rental_uris":{"android":"levelo://app?vid=dcaa5d09-ad4d-4077-9a1e-bfb165ed7859","ios":"levelo://app?vid=dcaa5d09-ad4d-4077-9a1e-bfb165ed7859"},"vehicle_type_id":"4","last_reported":1739959791,"current_range_meters":6400,"station_id":"ce4bgl92rcd13ifvqbq0","pricing_plan_id":"cebpf4jnsgd1na2vs0mg"},{"bike_id":"0e9ae8c5-7a7e-467d-afe2-bb8df6bfeefc","system_id":"levelo_inurba_marseille","lat":43.23334,"lon":5.40299,"is_reserved":false,"is_disabled":false,"rental_uris":{"android":"levelo://app?vid=0e9ae8c5-7a7e-467d-afe2-bb8df6bfeefc","ios":"levelo://app?vid=0e9ae8c5-7a7e-467d-afe2-bb8df6bfeefc"},"vehicle_type_id":"4","last_reported":1739959791,"current_range_meters":6400,"station_id":"","pricing_plan_id":"cebpf4jnsgd1na2vs0mg"},{"bike_id":"c2b0e040-ca67-4d26-b93a-7b3835331b35","system_id":"levelo_inurba_marseille","lat":43.23212,"lon":5.43748,"is_reserved":false,"is_disabled":false,"rental_uris":{"android":"levelo://app?vid=c2b0e040-ca67-4d26-b93a-7b3835331b35","ios":"levelo://app?vid=c2b0e040-ca67-4d26-b93a-7b3835331b35"},"vehicle_type_id":"4","last_reported":1739959791,"current_range_meters":6400,"station_id":"ce4bhmp2rcd13ifvqgog","pricing_plan_id":"cebpf4jnsgd1na2vs0mg"},{"bike_id":"574c987f-56b6-4d50-9df9-18c785204bef","system_id":"levelo_inurba_marseille","lat":43.30589,"lon":5.3652,"is_reserved":false,"is_disabled":false,"rental_uris":{"android":"levelo://app?vid=574c987f-56b6-4d50-9df9-18c785204bef","ios":"levelo://app?vid=574c987f-56b6-4d50-9df9-18c785204bef"},"vehicle_type_id":"4","last_reported":1739959791,"current_range_meters":6400,"station_id":"ce4bgs12rcd13ifvqcag","pricing_plan_id":"cebpf4jnsgd1na2vs0mg"},{"bike_id":"7174b859-40d2-4d93-8784-578ab557e269","system_id":"levelo_inurba_marseille","lat":43.30957,"lon":5.39034,"is_reserved":false,"is_disabled":false,"rental_uris":{"android":"levelo://app?vid=7174b859-40d2-4d93-8784-578ab557e269","ios":"levelo://app?vid=7174b859-40d2-4d93-8784-578ab557e269"},"vehicle_type_id":"4","last_reported":1739959791,"current_range_meters":6400,"station_id":"ce4bgup2rcd13ifvqco0","pricing_plan_id":"cebpf4jnsgd1na2vs0mg"},{"bike_id":"66bdaba1-8ea6-4d2c-ad9c-6d213bc14ad8","system_id":"levelo_inurba_marseille","lat":43.26212,"lon":5.37922,"is_reserved":false,"is_disabled":false,"rental_uris":{"android":"levelo://app?vid=66bdaba1-8ea6-4d2c-ad9c-6d213bc14ad8","ios":"levelo://app?vid=66bdaba1-8ea6-4d2c-ad9c-6d213bc14ad8"},"vehicle_type_id":"4","last_reported":1739959791,"current_range_meters":6400,"station_id":"ce4bhjp2rcd13ifvqg90","pricing_plan_id":"cebpf4jnsgd1na2vs0mg"},{"bike_id":"3efa0318-6b41-4e35-a21a-19aea79a188d","system_id":"levelo_inurba_marseille","lat":43.23966,"lon":5.36626,"is_reserved":false,"is_disabled":false,"rental_uris":{"android":"levelo://app?vid=3efa0318-6b41-4e35-a21a-19aea79a188d","ios":"levelo://app?vid=3efa0318-6b41-4e35-a21a-19aea79a188d"},"vehicle_type_id":"4","last_reported":1739959791,"current_range_meters":6800,"station_id":"","pricing_plan_id":"cebpf4jnsgd1na2vs0mg"},{"bike_id":"cf23090e-79eb-462f-9655-43667ae5b267","system_id":"levelo_inurba_marseille","lat":43.280386,"lon":5.369427,"is_reserved":false,"is_disabled":false,"rental_uris":{"android":"levelo://app?vid=cf23090e-79eb-462f-9655-43667ae5b267","ios":"levelo://app?vid=cf23090e-79eb-462f-9655-43667ae5b267"},"vehicle_type_id":"4","last_reported":1739959791,"current_range_meters":6800,"station_id":"ce4bhbp2rcd13ifvqesg","pricing_plan_id":"cebpf4jnsgd1na2vs0mg"},{"bike_id":"12b33330-5dcb-4644-8a5c-3a95dc32ce98","system_id":"levelo_inurba_marseille","lat":43.28156,"lon":5.42645,"is_reserved":false,"is_disabled":false,"rental_uris":{"android":"levelo://app?vid=12b33330-5dcb-4644-8a5c-3a95dc32ce98","ios":"levelo://app?vid=12b33330-5dcb-4644-8a5c-3a95dc32ce98"},"vehicle_type_id":"4","last_reported":1739959791,"current_range_meters":6800,"station_id":"ce4bhnh2rcd13ifvqgug","pricing_plan_id":"cebpf4jnsgd1na2vs0mg"},{"bike_id":"fe9e9092-a10a-486d-95dc-4e70a3cbff4c","system_id":"levelo_inurba_marseille","lat":43.2816,"lon":5.42786,"is_reserved":false,"is_disabled":false,"rental_uris":{"android":"levelo://app?vid=fe9e9092-a10a-486d-95dc-4e70a3cbff4c","ios":"levelo://app?vid=fe9e9092-a10a-486d-95dc-4e70a3cbff4c"},"vehicle_type_id":"4","last_reported":1739959791,"current_range_meters":6800,"station_id":"","pricing_plan_id":"cebpf4jnsgd1na2vs0mg"},{"bike_id":"b1ab74a4-5876-4a37-aacb-5f51048a1c0b","system_id":"levelo_inurba_marseille","lat":43.29546,"lon":5.42284,"is_reserved":false,"is_disabled":false,"rental_uris":{"android":"levelo://app?vid=b1ab74a4-5876-4a37-aacb-5f51048a1c0b","ios":"levelo://app?vid=b1ab74a4-5876-4a37-aacb-5f51048a1c0b"},"vehicle_type_id":"4","last_reported":1739959791,"current_range_meters":6800,"station_id":"ce4bhph2rcd13ifvqhdg","pricing_plan_id":"cebpf4jnsgd1na2vs0mg"},{"bike_id":"f6887ea5-0bff-4a48-aee3-eb33c7a27b0c","system_id":"levelo_inurba_marseille","lat":43.267837,"lon":5.394145,"is_reserved":false,"is_disabled":false,"rental_uris":{"android":"levelo://app?vid=f6887ea5-0bff-4a48-aee3-eb33c7a27b0c","ios":"levelo://app?vid=f6887ea5-0bff-4a48-aee3-eb33c7a27b0c"},"vehicle_type_id":"4","last_reported":1739959791,"current_range_meters":6800,"station_id":"ce4bhh12rcd13ifvqfg0","pricing_plan_id":"cebpf4jnsgd1na2vs0mg"},{"bike_id":"935876a3-7ad5-4c76-8087-a14d2e9c3614","system_id":"levelo_inurba_marseille","lat":43.30147,"lon":5.37424,"is_reserved":false,"is_disabled":false,"rental_uris":{"android":"levelo://app?vid=935876a3-7ad5-4c76-8087-a14d2e9c3614","ios":"levelo://app?vid=935876a3-7ad5-4c76-8087-a14d2e9c3614"},"vehicle_type_id":"4","last_reported":1739959791,"current_range_meters":7200,"station_id":"ce4bgs92rcd13ifvqcc0","pricing_plan_id":"cebpf4jnsgd1na2vs0mg"},{"bike_id":"ecb8043e-7d99-48a7-818f-caac02fe3344","system_id":"levelo_inurba_marseille","lat":43.315,"lon":5.37301,"is_reserved":false,"is_disabled":false,"rental_uris":{"android":"levelo://app?vid=ecb8043e-7d99-48a7-818f-caac02fe3344","ios":"levelo://app?vid=ecb8043e-7d99-48a7-818f-caac02fe3344"},"vehicle_type_id":"4","last_reported":1739959791,"current_range_meters":7200,"station_id":"ce4bgt12rcd13ifvqcd0","pricing_plan_id":"cebpf4jnsgd1na2vs0mg"},{"bike_id":"989a1c05-c74a-4632-af21-81b3f55f7909","system_id":"levelo_inurba_marseille","lat":43.29217,"lon":5.36049,"is_reserved":false,"is_disabled":true,"rental_uris":{"android":"levelo://app?vid=989a1c05-c74a-4632-af21-81b3f55f7909","ios":"levelo://app?vid=989a1c05-c74a-4632-af21-81b3f55f7909"},"vehicle_type_id":"4","last_reported":1739959791,"current_range_meters":7200,"station_id":"","pricing_plan_id":"cebpf4jnsgd1na2vs0mg"},{"bike_id":"1d77e5a3-41a9-4184-8b1a-f46ebc6ec995","system_id":"levelo_inurba_marseille","lat":43.30104,"lon":5.39079,"is_reserved":false,"is_disabled":false,"rental_uris":{"android":"levelo://app?vid=1d77e5a3-41a9-4184-8b1a-f46ebc6ec995","ios":"levelo://app?vid=1d77e5a3-41a9-4184-8b1a-f46ebc6ec995"},"vehicle_type_id":"4","last_reported":1739959791,"current_range_meters":7200,"station_id":"","pricing_plan_id":"cebpf4jnsgd1na2vs0mg"},{"bike_id":"19a82d90-5fb5-475e-9359-653b37581c65","system_id":"levelo_inurba_marseille","lat":43.24198,"lon":5.39731,"is_reserved":false,"is_disabled":false,"rental_uris":{"android":"levelo://app?vid=19a82d90-5fb5-475e-9359-653b37581c65","ios":"levelo://app?vid=19a82d90-5fb5-475e-9359-653b37581c65"},"vehicle_type_id":"4","last_reported":1739959791,"current_range_meters":8000,"station_id":"ce4bhn12rcd13ifvqgpg","pricing_plan_id":"cebpf4jnsgd1na2vs0mg"},{"bike_id":"8072f034-69d4-48c5-b234-451357393f04","system_id":"levelo_inurba_marseille","lat":43.23963,"lon":5.36627,"is_reserved":false,"is_disabled":false,"rental_uris":{"android":"levelo://app?vid=8072f034-69d4-48c5-b234-451357393f04","ios":"levelo://app?vid=8072f034-69d4-48c5-b234-451357393f04"},"vehicle_type_id":"4","last_reported":1739959791,"current_range_meters":8000,"station_id":"ce4bhi12rcd13ifvqfp0","pricing_plan_id":"cebpf4jnsgd1na2vs0mg"},{"bike_id":"07460ddc-72b2-47b9-ae7a-e7f9041dd312","system_id":"levelo_inurba_marseille","lat":43.2394,"lon":5.36654,"is_reserved":false,"is_disabled":false,"rental_uris":{"android":"levelo://app?vid=07460ddc-72b2-47b9-ae7a-e7f9041dd312","ios":"levelo://app?vid=07460ddc-72b2-47b9-ae7a-e7f9041dd312"},"vehicle_type_id":"4","last_reported":1739959791,"current_range_meters":8000,"station_id":"","pricing_plan_id":"cebpf4jnsgd1na2vs0mg"},{"bike_id":"ba585d35-5c02-4e3b-b000-b2f1dcca5b41","system_id":"levelo_inurba_marseille","lat":43.26069,"lon":5.40661,"is_reserved":false,"is_disabled":false,"rental_uris":{"android":"levelo://app?vid=ba585d35-5c02-4e3b-b000-b2f1dcca5b41","ios":"levelo://app?vid=ba585d35-5c02-4e3b-b000-b2f1dcca5b41"},"vehicle_type_id":"4","last_reported":1739959791,"current_range_meters":8000,"station_id":"","pricing_plan_id":"cebpf4jnsgd1na2vs0mg"},{"bike_id":"0471ef9b-e05b-4c07-ad26-cbfbd92bd5b9","system_id":"levelo_inurba_marseille","lat":43.32435,"lon":5.36617,"is_reserved":false,"is_disabled":false,"rental_uris":{"android":"levelo://app?vid=0471ef9b-e05b-4c07-ad26-cbfbd92bd5b9","ios":"levelo://app?vid=0471ef9b-e05b-4c07-ad26-cbfbd92bd5b9"},"vehicle_type_id":"4","last_reported":1739959791,"current_range_meters":8000,"station_id":"ce4bhs12rcd13ifvqhvg","pricing_plan_id":"cebpf4jnsgd1na2vs0mg"},{"bike_id":"cd189a51-ee99-4048-9ef7-2fc5d8a8f9b2","system_id":"levelo_inurba_marseille","lat":43.3212,"lon":5.36763,"is_reserved":false,"is_disabled":false,"rental_uris":{"android":"levelo://app?vid=cd189a51-ee99-4048-9ef7-2fc5d8a8f9b2","ios":"levelo://app?vid=cd189a51-ee99-4048-9ef7-2fc5d8a8f9b2"},"vehicle_type_id":"4","last_reported":1739959791,"current_range_meters":8000,"station_id":"ce4bhrh2rcd13ifvqhug","pricing_plan_id":"cebpf4jnsgd1na2vs0mg"},{"bike_id":"c9071df5-5664-4a5e-b1b2-1df958a7db03","system_id":"levelo_inurba_marseille","lat":43.2393,"lon":5.36665,"is_reserved":false,"is_disabled":false,"rental_uris":{"android":"levelo://app?vid=c9071df5-5664-4a5e-b1b2-1df958a7db03","ios":"levelo://app?vid=c9071df5-5664-4a5e-b1b2-1df958a7db03"},"vehicle_type_id":"4","last_reported":1739959791,"current_range_meters":8000,"station_id":"ce4bhi12rcd13ifvqfp0","pricing_plan_id":"cebpf4jnsgd1na2vs0mg"},{"bike_id":"53feaf20-a7f6-4631-b805-97555a63e29b","system_id":"levelo_inurba_marseille","lat":43.27431,"lon":5.40942,"is_reserved":false,"is_disabled":false,"rental_uris":{"android":"levelo://app?vid=53feaf20-a7f6-4631-b805-97555a63e29b","ios":"levelo://app?vid=53feaf20-a7f6-4631-b805-97555a63e29b"},"vehicle_type_id":"4","last_reported":1739959791,"current_range_meters":8000,"station_id":"","pricing_plan_id":"cebpf4jnsgd1na2vs0mg"},{"bike_id":"d2227766-42ff-490e-bf62-57b8247de61c","system_id":"levelo_inurba_marseille","lat":43.30901,"lon":5.40149,"is_reserved":false,"is_disabled":false,"rental_uris":{"android":"levelo://app?vid=d2227766-42ff-490e-bf62-57b8247de61c","ios":"levelo://app?vid=d2227766-42ff-490e-bf62-57b8247de61c"},"vehicle_type_id":"4","last_reported":1739959791,"current_range_meters":8000,"station_id":"ce4bgvp2rcd13ifvqct0","pricing_plan_id":"cebpf4jnsgd1na2vs0mg"},{"bike_id":"8ea2634d-1c3f-44d7-a557-3e9b86ecd606","system_id":"levelo_inurba_marseille","lat":43.266843,"lon":5.38276,"is_reserved":false,"is_disabled":false,"rental_uris":{"android":"levelo://app?vid=8ea2634d-1c3f-44d7-a557-3e9b86ecd606","ios":"levelo://app?vid=8ea2634d-1c3f-44d7-a557-3e9b86ecd606"},"vehicle_type_id":"4","last_reported":1739959791,"current_range_meters":8400,"station_id":"ce4bhg92rcd13ifvqf90","pricing_plan_id":"cebpf4jnsgd1na2vs0mg"},{"bike_id":"fccc404e-2370-4130-9865-f7405476797e","system_id":"levelo_inurba_marseille","lat":43.23965,"lon":5.3663,"is_reserved":false,"is_disabled":false,"rental_uris":{"android":"levelo://app?vid=fccc404e-2370-4130-9865-f7405476797e","ios":"levelo://app?vid=fccc404e-2370-4130-9865-f7405476797e"},"vehicle_type_id":"4","last_reported":1739959791,"current_range_meters":8400,"station_id":"ce4bhi12rcd13ifvqfp0","pricing_plan_id":"cebpf4jnsgd1na2vs0mg"},{"bike_id":"5ae0012d-6179-440f-a02a-a607c9208eb9","system_id":"levelo_inurba_marseille","lat":43.24659,"lon":5.38167,"is_reserved":false,"is_disabled":false,"rental_uris":{"android":"levelo://app?vid=5ae0012d-6179-440f-a02a-a607c9208eb9","ios":"levelo://app?vid=5ae0012d-6179-440f-a02a-a607c9208eb9"},"vehicle_type_id":"4","last_reported":1739959791,"current_range_meters":8400,"station_id":"ce4bhih2rcd13ifvqfr0","pricing_plan_id":"cebpf4jnsgd1na2vs0mg"},{"bike_id":"5f1a985f-2c6d-4888-9bc0-cd85ccd8bff0","system_id":"levelo_inurba_marseille","lat":43.30205,"lon":5.36627,"is_reserved":false,"is_disabled":false,"rental_uris":{"android":"levelo://app?vid=5f1a985f-2c6d-4888-9bc0-cd85ccd8bff0","ios":"levelo://app?vid=5f1a985f-2c6d-4888-9bc0-cd85ccd8bff0"},"vehicle_type_id":"4","last_reported":1739959791,"current_range_meters":8800,"station_id":"ce4bgrh2rcd13ifvqc8g","pricing_plan_id":"cebpf4jnsgd1na2vs0mg"},{"bike_id":"68190e97-a692-45ca-ac1b-c2b508322dad","system_id":"levelo_inurba_marseille","lat":43.31377,"lon":5.38506,"is_reserved":false,"is_disabled":false,"rental_uris":{"android":"levelo://app?vid=68190e97-a692-45ca-ac1b-c2b508322dad","ios":"levelo://app?vid=68190e97-a692-45ca-ac1b-c2b508322dad"},"vehicle_type_id":"4","last_reported":1739959791,"current_range_meters":8800,"station_id":"","pricing_plan_id":"cebpf4jnsgd1na2vs0mg"},{"bike_id":"3ea0b1ad-f3ea-4211-8e3b-d3f0c9a0f631","system_id":"levelo_inurba_marseille","lat":43.30958,"lon":5.39044,"is_reserved":false,"is_disabled":false,"rental_uris":{"android":"levelo://app?vid=3ea0b1ad-f3ea-4211-8e3b-d3f0c9a0f631","ios":"levelo://app?vid=3ea0b1ad-f3ea-4211-8e3b-d3f0c9a0f631"},"vehicle_type_id":"4","last_reported":1739959791,"current_range_meters":8800,"station_id":"","pricing_plan_id":"cebpf4jnsgd1na2vs0mg"},{"bike_id":"4089f1a0-cd12-42d3-a6c3-01d445970a86","system_id":"levelo_inurba_marseille","lat":43.31289,"lon":5.37422,"is_reserved":false,"is_disabled":false,"rental_uris":{"android":"levelo://app?vid=4089f1a0-cd12-42d3-a6c3-01d445970a86","ios":"levelo://app?vid=4089f1a0-cd12-42d3-a6c3-01d445970a86"},"vehicle_type_id":"4","last_reported":1739959791,"current_range_meters":8800,"station_id":"","pricing_plan_id":"cebpf4jnsgd1na2vs0mg"},{"bike_id":"0329e953-c092-4cd5-acc9-326776e223a8","system_id":"levelo_inurba_marseille","lat":43.28275,"lon":5.35086,"is_reserved":false,"is_disabled":true,"rental_uris":{"android":"levelo://app?vid=0329e953-c092-4cd5-acc9-326776e223a8","ios":"levelo://app?vid=0329e953-c092-4cd5-acc9-326776e223a8"},"vehicle_type_id":"4","last_reported":1739959791,"current_range_meters":8800,"station_id":"ce4bhbp2rcd13ifvqerg","pricing_plan_id":"cebpf4jnsgd1na2vs0mg"},{"bike_id":"261b2581-68c0-4927-a980-0a9dd5763b3b","system_id":"levelo_inurba_marseille","lat":43.24186,"lon":5.3973,"is_reserved":false,"is_disabled":false,"rental_uris":{"android":"levelo://app?vid=261b2581-68c0-4927-a980-0a9dd5763b3b","ios":"levelo://app?vid=261b2581-68c0-4927-a980-0a9dd5763b3b"},"vehicle_type_id":"4","last_reported":1739959791,"current_range_meters":9200,"station_id":"ce4bhn12rcd13ifvqgpg","pricing_plan_id":"cebpf4jnsgd1na2vs0mg"},{"bike_id":"91bf3218-0a05-4226-acc9-b3131b7d5a8d","system_id":"levelo_inurba_marseille","lat":43.23956,"lon":5.36633,"is_reserved":false,"is_disabled":false,"rental_uris":{"android":"levelo://app?vid=91bf3218-0a05-4226-acc9-b3131b7d5a8d","ios":"levelo://app?vid=91bf3218-0a05-4226-acc9-b3131b7d5a8d"},"vehicle_type_id":"4","last_reported":1739959791,"current_range_meters":9200,"station_id":"ce4bhi12rcd13ifvqfp0","pricing_plan_id":"cebpf4jnsgd1na2vs0mg"},{"bike_id":"10c134e7-7862-45ed-8103-0b6221fb4b66","system_id":"levelo_inurba_marseille","lat":43.25002,"lon":5.38935,"is_reserved":false,"is_disabled":false,"rental_uris":{"android":"levelo://app?vid=10c134e7-7862-45ed-8103-0b6221fb4b66","ios":"levelo://app?vid=10c134e7-7862-45ed-8103-0b6221fb4b66"},"vehicle_type_id":"4","last_reported":1739959791,"current_range_meters":9200,"station_id":"","pricing_plan_id":"cebpf4jnsgd1na2vs0mg"},{"bike_id":"9b03b96d-2041-4d92-a949-290d7b50f943","system_id":"levelo_inurba_marseille","lat":43.27174,"lon":5.40986,"is_reserved":false,"is_disabled":false,"rental_uris":{"android":"levelo://app?vid=9b03b96d-2041-4d92-a949-290d7b50f943","ios":"levelo://app?vid=9b03b96d-2041-4d92-a949-290d7b50f943"},"vehicle_type_id":"4","last_reported":1739959791,"current_range_meters":9200,"station_id":"","pricing_plan_id":"cebpf4jnsgd1na2vs0mg"},{"bike_id":"130bec80-cd0a-420b-9e67-d8e62029acfc","system_id":"levelo_inurba_marseille","lat":43.26213,"lon":5.37441,"is_reserved":false,"is_disabled":false,"rental_uris":{"android":"levelo://app?vid=130bec80-cd0a-420b-9e67-d8e62029acfc","ios":"levelo://app?vid=130bec80-cd0a-420b-9e67-d8e62029acfc"},"vehicle_type_id":"4","last_reported":1739959791,"current_range_meters":9200,"station_id":"ce4bhgp2rcd13ifvqfc0","pricing_plan_id":"cebpf4jnsgd1na2vs0mg"},{"bike_id":"e02b1847-3058-4d73-92b3-23b207347b80","system_id":"levelo_inurba_marseille","lat":43.30156,"lon":5.38088,"is_reserved":false,"is_disabled":false,"rental_uris":{"android":"levelo://app?vid=e02b1847-3058-4d73-92b3-23b207347b80","ios":"levelo://app?vid=e02b1847-3058-4d73-92b3-23b207347b80"},"vehicle_type_id":"4","last_reported":1739959791,"current_range_meters":9200,"station_id":"ce4bgjp2rcd13ifvqbh0","pricing_plan_id":"cebpf4jnsgd1na2vs0mg"},{"bike_id":"18368891-0c3a-4202-aa26-0c46fc585663","system_id":"levelo_inurba_marseille","lat":43.23958,"lon":5.36634,"is_reserved":false,"is_disabled":false,"rental_uris":{"android":"levelo://app?vid=18368891-0c3a-4202-aa26-0c46fc585663","ios":"levelo://app?vid=18368891-0c3a-4202-aa26-0c46fc585663"},"vehicle_type_id":"4","last_reported":1739959791,"current_range_meters":9200,"station_id":"ce4bhi12rcd13ifvqfp0","pricing_plan_id":"cebpf4jnsgd1na2vs0mg"},{"bike_id":"46ea923b-1a59-495a-a45f-bcf3c15a4145","system_id":"levelo_inurba_marseille","lat":43.31712,"lon":5.37709,"is_reserved":false,"is_disabled":false,"rental_uris":{"android":"levelo://app?vid=46ea923b-1a59-495a-a45f-bcf3c15a4145","ios":"levelo://app?vid=46ea923b-1a59-495a-a45f-bcf3c15a4145"},"vehicle_type_id":"4","last_reported":1739959791,"current_range_meters":9200,"station_id":"ce4bgth2rcd13ifvqch0","pricing_plan_id":"cebpf4jnsgd1na2vs0mg"},{"bike_id":"bb852df7-dd74-43f4-8582-0650a376dfcb","system_id":"levelo_inurba_marseille","lat":43.337444,"lon":5.374475,"is_reserved":false,"is_disabled":false,"rental_uris":{"android":"levelo://app?vid=bb852df7-dd74-43f4-8582-0650a376dfcb","ios":"levelo://app?vid=bb852df7-dd74-43f4-8582-0650a376dfcb"},"vehicle_type_id":"4","last_reported":1739959791,"current_range_meters":9200,"station_id":"ce4bhn92rcd13ifvqgrg","pricing_plan_id":"cebpf4jnsgd1na2vs0mg"},{"bike_id":"9198c6ef-bd5b-45d9-bd7b-e058d791d44b","system_id":"levelo_inurba_marseille","lat":43.24818,"lon":5.37474,"is_reserved":false,"is_disabled":false,"rental_uris":{"android":"levelo://app?vid=9198c6ef-bd5b-45d9-bd7b-e058d791d44b","ios":"levelo://app?vid=9198c6ef-bd5b-45d9-bd7b-e058d791d44b"},"vehicle_type_id":"4","last_reported":1739959791,"current_range_meters":9200,"station_id":"ce4bhgh2rcd13ifvqfb0","pricing_plan_id":"cebpf4jnsgd1na2vs0mg"},{"bike_id":"4a1a485d-5090-470d-8e81-07355fccf458","system_id":"levelo_inurba_marseille","lat":43.28862,"lon":5.39302,"is_reserved":false,"is_disabled":false,"rental_uris":{"android":"levelo://app?vid=4a1a485d-5090-470d-8e81-07355fccf458","ios":"levelo://app?vid=4a1a485d-5090-470d-8e81-07355fccf458"},"vehicle_type_id":"4","last_reported":1739959791,"current_range_meters":8800,"station_id":"ce4bh2p2rcd13ifvqdi0","pricing_plan_id":"cebpf4jnsgd1na2vs0mg"},{"bike_id":"62aee166-68dc-44c2-b042-2ebd671a7116","system_id":"levelo_inurba_marseille","lat":43.29855,"lon":5.36274,"is_reserved":false,"is_disabled":false,"rental_uris":{"android":"levelo://app?vid=62aee166-68dc-44c2-b042-2ebd671a7116","ios":"levelo://app?vid=62aee166-68dc-44c2-b042-2ebd671a7116"},"vehicle_type_id":"4","last_reported":1739959791,"current_range_meters":9600,"station_id":"ce4bgpp2rcd13ifvqc3g","pricing_plan_id":"cebpf4jnsgd1na2vs0mg"},{"bike_id":"08cd248b-1030-4604-9308-27408f7dbce3","system_id":"levelo_inurba_marseille","lat":43.27332,"lon":5.39103,"is_reserved":false,"is_disabled":false,"rental_uris":{"android":"levelo://app?vid=08cd248b-1030-4604-9308-27408f7dbce3","ios":"levelo://app?vid=08cd248b-1030-4604-9308-27408f7dbce3"},"vehicle_type_id":"4","last_reported":1739959791,"current_range_meters":9600,"station_id":"ce4bhgp2rcd13ifvqfe0","pricing_plan_id":"cebpf4jnsgd1na2vs0mg"},{"bike_id":"1c4b0a92-da0e-4437-b5da-9c6a52a9fb5e","system_id":"levelo_inurba_marseille","lat":43.29327,"lon":5.40147,"is_reserved":false,"is_disabled":false,"rental_uris":{"android":"levelo://app?vid=1c4b0a92-da0e-4437-b5da-9c6a52a9fb5e","ios":"levelo://app?vid=1c4b0a92-da0e-4437-b5da-9c6a52a9fb5e"},"vehicle_type_id":"4","last_reported":1739959791,"current_range_meters":9600,"station_id":"ce4bh312rcd13ifvqdk0","pricing_plan_id":"cebpf4jnsgd1na2vs0mg"},{"bike_id":"3e4d4f37-1350-4ba1-b6ea-50f9d852c287","system_id":"levelo_inurba_marseille","lat":43.29028,"lon":5.37563,"is_reserved":false,"is_disabled":false,"rental_uris":{"android":"levelo://app?vid=3e4d4f37-1350-4ba1-b6ea-50f9d852c287","ios":"levelo://app?vid=3e4d4f37-1350-4ba1-b6ea-50f9d852c287"},"vehicle_type_id":"4","last_reported":1739959791,"current_range_meters":9600,"station_id":"ce4bh692rcd13ifvqe90","pricing_plan_id":"cebpf4jnsgd1na2vs0mg"},{"bike_id":"f0f61fdf-e262-479f-a259-1997ef9b3f40","system_id":"levelo_inurba_marseille","lat":43.28169,"lon":5.42653,"is_reserved":false,"is_disabled":false,"rental_uris":{"android":"levelo://app?vid=f0f61fdf-e262-479f-a259-1997ef9b3f40","ios":"levelo://app?vid=f0f61fdf-e262-479f-a259-1997ef9b3f40"},"vehicle_type_id":"4","last_reported":1739959791,"current_range_meters":9600,"station_id":"","pricing_plan_id":"cebpf4jnsgd1na2vs0mg"},{"bike_id":"fc1759fc-f01a-4d36-800a-54a797599b72","system_id":"levelo_inurba_marseille","lat":43.30134,"lon":5.38092,"is_reserved":false,"is_disabled":false,"rental_uris":{"android":"levelo://app?vid=fc1759fc-f01a-4d36-800a-54a797599b72","ios":"levelo://app?vid=fc1759fc-f01a-4d36-800a-54a797599b72"},"vehicle_type_id":"4","last_reported":1739959791,"current_range_meters":10000,"station_id":"ce4bhah2rcd13ifvqei0","pricing_plan_id":"cebpf4jnsgd1na2vs0mg"},{"bike_id":"db7f2d58-492d-4297-aa78-ce0ad99a0a74","system_id":"levelo_inurba_marseille","lat":43.27436,"lon":5.41041,"is_reserved":false,"is_disabled":false,"rental_uris":{"android":"levelo://app?vid=db7f2d58-492d-4297-aa78-ce0ad99a0a74","ios":"levelo://app?vid=db7f2d58-492d-4297-aa78-ce0ad99a0a74"},"vehicle_type_id":"4","last_reported":1739959791,"current_range_meters":10000,"station_id":"ce4bhb92rcd13ifvqen0","pricing_plan_id":"cebpf4jnsgd1na2vs0mg"},{"bike_id":"85e87220-f6a3-46be-8172-f6efecf3643e","system_id":"levelo_inurba_marseille","lat":43.28159,"lon":5.42643,"is_reserved":false,"is_disabled":false,"rental_uris":{"android":"levelo://app?vid=85e87220-f6a3-46be-8172-f6efecf3643e","ios":"levelo://app?vid=85e87220-f6a3-46be-8172-f6efecf3643e"},"vehicle_type_id":"4","last_reported":1739959791,"current_range_meters":10000,"station_id":"","pricing_plan_id":"cebpf4jnsgd1na2vs0mg"},{"bike_id":"e48f7856-5f3a-438b-8632-fb1793338399","system_id":"levelo_inurba_marseille","lat":43.296975,"lon":5.376934,"is_reserved":false,"is_disabled":false,"rental_uris":{"android":"levelo://app?vid=e48f7856-5f3a-438b-8632-fb1793338399","ios":"levelo://app?vid=e48f7856-5f3a-438b-8632-fb1793338399"},"vehicle_type_id":"4","last_reported":1739959791,"current_range_meters":10000,"station_id":"ce4bhoh2rcd13ifvqh6g","pricing_plan_id":"cebpf4jnsgd1na2vs0mg"},{"bike_id":"65e2c5ec-9394-4b87-9de6-ba3af064758f","system_id":"levelo_inurba_marseille","lat":43.30948,"lon":5.39032,"is_reserved":false,"is_disabled":false,"rental_uris":{"android":"levelo://app?vid=65e2c5ec-9394-4b87-9de6-ba3af064758f","ios":"levelo://app?vid=65e2c5ec-9394-4b87-9de6-ba3af064758f"},"vehicle_type_id":"4","last_reported":1739959791,"current_range_meters":10000,"station_id":"","pricing_plan_id":"cebpf4jnsgd1na2vs0mg"},{"bike_id":"ea1519e7-b5fe-42ac-aa41-a04f66c121d4","system_id":"levelo_inurba_marseille","lat":43.24059,"lon":5.37721,"is_reserved":false,"is_disabled":false,"rental_uris":{"android":"levelo://app?vid=ea1519e7-b5fe-42ac-aa41-a04f66c121d4","ios":"levelo://app?vid=ea1519e7-b5fe-42ac-aa41-a04f66c121d4"},"vehicle_type_id":"4","last_reported":1739959791,"current_range_meters":10000,"station_id":"ce4bhnp2rcd13ifvqgvg","pricing_plan_id":"cebpf4jnsgd1na2vs0mg"},{"bike_id":"6b61a15f-d255-41a0-8166-7f2b93e7d846","system_id":"levelo_inurba_marseille","lat":43.23973,"lon":5.36609,"is_reserved":false,"is_disabled":false,"rental_uris":{"android":"levelo://app?vid=6b61a15f-d255-41a0-8166-7f2b93e7d846","ios":"levelo://app?vid=6b61a15f-d255-41a0-8166-7f2b93e7d846"},"vehicle_type_id":"4","last_reported":1739959791,"current_range_meters":10000,"station_id":"ce4bhi12rcd13ifvqfp0","pricing_plan_id":"cebpf4jnsgd1na2vs0mg"},{"bike_id":"63c3cd00-11c7-4524-b204-67fe33d094f2","system_id":"levelo_inurba_marseille","lat":43.26541,"lon":5.3901,"is_reserved":false,"is_disabled":true,"rental_uris":{"android":"levelo://app?vid=63c3cd00-11c7-4524-b204-67fe33d094f2","ios":"levelo://app?vid=63c3cd00-11c7-4524-b204-67fe33d094f2"},"vehicle_type_id":"4","last_reported":1739959791,"current_range_meters":10800,"station_id":"ce4bhe12rcd13ifvqf30","pricing_plan_id":"cebpf4jnsgd1na2vs0mg"},{"bike_id":"e9bc9423-76d3-4960-a7d3-af6a899cbe0c","system_id":"levelo_inurba_marseille","lat":43.29312,"lon":5.37424,"is_reserved":false,"is_disabled":false,"rental_uris":{"android":"levelo://app?vid=e9bc9423-76d3-4960-a7d3-af6a899cbe0c","ios":"levelo://app?vid=e9bc9423-76d3-4960-a7d3-af6a899cbe0c"},"vehicle_type_id":"4","last_reported":1739959791,"current_range_meters":10000,"station_id":"ce4bgi12rcd13ifvqb70","pricing_plan_id":"cebpf4jnsgd1na2vs0mg"},{"bike_id":"fd9ecd35-e3f0-4691-92cf-d273f0c9f41f","system_id":"levelo_inurba_marseille","lat":43.29715,"lon":5.36606,"is_reserved":false,"is_disabled":false,"rental_uris":{"android":"levelo://app?vid=fd9ecd35-e3f0-4691-92cf-d273f0c9f41f","ios":"levelo://app?vid=fd9ecd35-e3f0-4691-92cf-d273f0c9f41f"},"vehicle_type_id":"4","last_reported":1739959791,"current_range_meters":10000,"station_id":"ce4bgn12rcd13ifvqbt0","pricing_plan_id":"cebpf4jnsgd1na2vs0mg"},{"bike_id":"6defbe51-bc6f-4430-b5ab-60dc5cf67e7b","system_id":"levelo_inurba_marseille","lat":43.24177,"lon":5.39737,"is_reserved":false,"is_disabled":false,"rental_uris":{"android":"levelo://app?vid=6defbe51-bc6f-4430-b5ab-60dc5cf67e7b","ios":"levelo://app?vid=6defbe51-bc6f-4430-b5ab-60dc5cf67e7b"},"vehicle_type_id":"4","last_reported":1739959791,"current_range_meters":10800,"station_id":"ce4bhn12rcd13ifvqgpg","pricing_plan_id":"cebpf4jnsgd1na2vs0mg"},{"bike_id":"d8f6dbed-3d13-4c3f-9f56-736df9ae1572","system_id":"levelo_inurba_marseille","lat":43.27504,"lon":5.42442,"is_reserved":false,"is_disabled":false,"rental_uris":{"android":"levelo://app?vid=d8f6dbed-3d13-4c3f-9f56-736df9ae1572","ios":"levelo://app?vid=d8f6dbed-3d13-4c3f-9f56-736df9ae1572"},"vehicle_type_id":"4","last_reported":1739959791,"current_range_meters":11200,"station_id":"ce4bhn92rcd13ifvqgrg","pricing_plan_id":"cebpf4jnsgd1na2vs0mg"},{"bike_id":"98b1401a-7342-47bc-852f-3b0a705035c6","system_id":"levelo_inurba_marseille","lat":43.23965,"lon":5.36649,"is_reserved":false,"is_disabled":false,"rental_uris":{"android":"levelo://app?vid=98b1401a-7342-47bc-852f-3b0a705035c6","ios":"levelo://app?vid=98b1401a-7342-47bc-852f-3b0a705035c6"},"vehicle_type_id":"4","last_reported":1739959791,"current_range_meters":11200,"station_id":"ce4bhi12rcd13ifvqfp0","pricing_plan_id":"cebpf4jnsgd1na2vs0mg"},{"bike_id":"f027fe38-3f5d-42fa-b16a-68ca60104c09","system_id":"levelo_inurba_marseille","lat":43.24174,"lon":5.36413,"is_reserved":false,"is_disabled":false,"rental_uris":{"android":"levelo://app?vid=f027fe38-3f5d-42fa-b16a-68ca60104c09","ios":"levelo://app?vid=f027fe38-3f5d-42fa-b16a-68ca60104c09"},"vehicle_type_id":"4","last_reported":1739959791,"current_range_meters":11200,"station_id":"","pricing_plan_id":"cebpf4jnsgd1na2vs0mg"},{"bike_id":"433d70db-5cd5-4835-afa5-0e926709321b","system_id":"levelo_inurba_marseille","lat":43.28468,"lon":5.35883,"is_reserved":false,"is_disabled":false,"rental_uris":{"android":"levelo://app?vid=433d70db-5cd5-4835-afa5-0e926709321b","ios":"levelo://app?vid=433d70db-5cd5-4835-afa5-0e926709321b"},"vehicle_type_id":"4","last_reported":1739959791,"current_range_meters":11200,"station_id":"","pricing_plan_id":"cebpf4jnsgd1na2vs0mg"},{"bike_id":"625a0283-da2e-4ad7-83b9-f607769d319c","system_id":"levelo_inurba_marseille","lat":43.30892,"lon":5.37191,"is_reserved":false,"is_disabled":false,"rental_uris":{"android":"levelo://app?vid=625a0283-da2e-4ad7-83b9-f607769d319c","ios":"levelo://app?vid=625a0283-da2e-4ad7-83b9-f607769d319c"},"vehicle_type_id":"4","last_reported":1739959791,"current_range_meters":11200,"station_id":"ce4bguh2rcd13ifvqckg","pricing_plan_id":"cebpf4jnsgd1na2vs0mg"},{"bike_id":"f35fca1c-3c60-4494-bdcb-0ba0ac4d3aa5","system_id":"levelo_inurba_marseille","lat":43.31385,"lon":5.3684,"is_reserved":false,"is_disabled":false,"rental_uris":{"android":"levelo://app?vid=f35fca1c-3c60-4494-bdcb-0ba0ac4d3aa5","ios":"levelo://app?vid=f35fca1c-3c60-4494-bdcb-0ba0ac4d3aa5"},"vehicle_type_id":"4","last_reported":1739959791,"current_range_meters":11600,"station_id":"","pricing_plan_id":"cebpf4jnsgd1na2vs0mg"},{"bike_id":"2f64e979-d528-4fb4-8c4f-816e1ee3f843","system_id":"levelo_inurba_marseille","lat":43.23191,"lon":5.39986,"is_reserved":false,"is_disabled":false,"rental_uris":{"android":"levelo://app?vid=2f64e979-d528-4fb4-8c4f-816e1ee3f843","ios":"levelo://app?vid=2f64e979-d528-4fb4-8c4f-816e1ee3f843"},"vehicle_type_id":"4","last_reported":1739959791,"current_range_meters":11600,"station_id":"","pricing_plan_id":"cebpf4jnsgd1na2vs0mg"},{"bike_id":"e518b960-9afe-4f96-ade4-2e085c39f8ad","system_id":"levelo_inurba_marseille","lat":43.23166,"lon":5.43737,"is_reserved":false,"is_disabled":false,"rental_uris":{"android":"levelo://app?vid=e518b960-9afe-4f96-ade4-2e085c39f8ad","ios":"levelo://app?vid=e518b960-9afe-4f96-ade4-2e085c39f8ad"},"vehicle_type_id":"4","last_reported":1739959791,"current_range_meters":11600,"station_id":"ce4bhmp2rcd13ifvqgog","pricing_plan_id":"cebpf4jnsgd1na2vs0mg"},{"bike_id":"63c4cf47-dbff-4d5e-a88a-080b99df99de","system_id":"levelo_inurba_marseille","lat":43.29506,"lon":5.38888,"is_reserved":false,"is_disabled":true,"rental_uris":{"android":"levelo://app?vid=63c4cf47-dbff-4d5e-a88a-080b99df99de","ios":"levelo://app?vid=63c4cf47-dbff-4d5e-a88a-080b99df99de"},"vehicle_type_id":"4","last_reported":1739959791,"current_range_meters":12000,"station_id":"","pricing_plan_id":"cebpf4jnsgd1na2vs0mg"},{"bike_id":"d1dec037-ee4c-4db9-a655-1087d8ee1f4f","system_id":"levelo_inurba_marseille","lat":43.28444,"lon":5.39175,"is_reserved":false,"is_disabled":true,"rental_uris":{"android":"levelo://app?vid=d1dec037-ee4c-4db9-a655-1087d8ee1f4f","ios":"levelo://app?vid=d1dec037-ee4c-4db9-a655-1087d8ee1f4f"},"vehicle_type_id":"4","last_reported":1739959791,"current_range_meters":12000,"station_id":"","pricing_plan_id":"cebpf4jnsgd1na2vs0mg"},{"bike_id":"1d63a175-89ef-49ff-9ead-dfe9ed6c22cf","system_id":"levelo_inurba_marseille","lat":43.24693,"lon":5.39437,"is_reserved":false,"is_disabled":false,"rental_uris":{"android":"levelo://app?vid=1d63a175-89ef-49ff-9ead-dfe9ed6c22cf","ios":"levelo://app?vid=1d63a175-89ef-49ff-9ead-dfe9ed6c22cf"},"vehicle_type_id":"4","last_reported":1739959791,"current_range_meters":12000,"station_id":"","pricing_plan_id":"cebpf4jnsgd1na2vs0mg"},{"bike_id":"bfc5b164-cc8e-4bd3-ab5b-b3c07e4d2279","system_id":"levelo_inurba_marseille","lat":43.27669,"lon":5.38885,"is_reserved":false,"is_disabled":false,"rental_uris":{"android":"levelo://app?vid=bfc5b164-cc8e-4bd3-ab5b-b3c07e4d2279","ios":"levelo://app?vid=bfc5b164-cc8e-4bd3-ab5b-b3c07e4d2279"},"vehicle_type_id":"4","last_reported":1739959791,"current_range_meters":12000,"station_id":"ce4bhi12rcd13ifvqfo0","pricing_plan_id":"cebpf4jnsgd1na2vs0mg"},{"bike_id":"2f0159d6-67d6-4164-bb19-cb2ab133b4ae","system_id":"levelo_inurba_marseille","lat":43.23961,"lon":5.36643,"is_reserved":false,"is_disabled":false,"rental_uris":{"android":"levelo://app?vid=2f0159d6-67d6-4164-bb19-cb2ab133b4ae","ios":"levelo://app?vid=2f0159d6-67d6-4164-bb19-cb2ab133b4ae"},"vehicle_type_id":"4","last_reported":1739959791,"current_range_meters":12000,"station_id":"","pricing_plan_id":"cebpf4jnsgd1na2vs0mg"},{"bike_id":"8749fc54-5032-4eac-8cb3-53640bf5ffc9","system_id":"levelo_inurba_marseille","lat":43.30551,"lon":5.36559,"is_reserved":false,"is_disabled":false,"rental_uris":{"android":"levelo://app?vid=8749fc54-5032-4eac-8cb3-53640bf5ffc9","ios":"levelo://app?vid=8749fc54-5032-4eac-8cb3-53640bf5ffc9"},"vehicle_type_id":"4","last_reported":1739959791,"current_range_meters":12000,"station_id":"ce4bgs12rcd13ifvqcag","pricing_plan_id":"cebpf4jnsgd1na2vs0mg"},{"bike_id":"c186b769-21b0-4010-925d-7e3b55aba84a","system_id":"levelo_inurba_marseille","lat":43.30165,"lon":5.3808,"is_reserved":false,"is_disabled":false,"rental_uris":{"android":"levelo://app?vid=c186b769-21b0-4010-925d-7e3b55aba84a","ios":"levelo://app?vid=c186b769-21b0-4010-925d-7e3b55aba84a"},"vehicle_type_id":"4","last_reported":1739959791,"current_range_meters":12400,"station_id":"ce4bgjp2rcd13ifvqbh0","pricing_plan_id":"cebpf4jnsgd1na2vs0mg"},{"bike_id":"4b46213d-cc44-42f0-b429-3cf23c4c3aab","system_id":"levelo_inurba_marseille","lat":43.30489,"lon":5.37907,"is_reserved":false,"is_disabled":false,"rental_uris":{"android":"levelo://app?vid=4b46213d-cc44-42f0-b429-3cf23c4c3aab","ios":"levelo://app?vid=4b46213d-cc44-42f0-b429-3cf23c4c3aab"},"vehicle_type_id":"4","last_reported":1739959791,"current_range_meters":12400,"station_id":"","pricing_plan_id":"cebpf4jnsgd1na2vs0mg"},{"bike_id":"f1ef0f2b-aceb-4fe1-8e45-90f1104684ec","system_id":"levelo_inurba_marseille","lat":43.30958,"lon":5.39034,"is_reserved":false,"is_disabled":true,"rental_uris":{"android":"levelo://app?vid=f1ef0f2b-aceb-4fe1-8e45-90f1104684ec","ios":"levelo://app?vid=f1ef0f2b-aceb-4fe1-8e45-90f1104684ec"},"vehicle_type_id":"4","last_reported":1739959791,"current_range_meters":12400,"station_id":"","pricing_plan_id":"cebpf4jnsgd1na2vs0mg"},{"bike_id":"8c7d71c0-cccd-4fee-a398-01482e0b83c4","system_id":"levelo_inurba_marseille","lat":43.23153,"lon":5.43714,"is_reserved":false,"is_disabled":false,"rental_uris":{"android":"levelo://app?vid=8c7d71c0-cccd-4fee-a398-01482e0b83c4","ios":"levelo://app?vid=8c7d71c0-cccd-4fee-a398-01482e0b83c4"},"vehicle_type_id":"4","last_reported":1739959791,"current_range_meters":12000,"station_id":"ce4bhmp2rcd13ifvqgog","pricing_plan_id":"cebpf4jnsgd1na2vs0mg"},{"bike_id":"62613826-4aec-4f29-8a06-e60f5f637ded","system_id":"levelo_inurba_marseille","lat":43.3054,"lon":5.3654,"is_reserved":false,"is_disabled":false,"rental_uris":{"android":"levelo://app?vid=62613826-4aec-4f29-8a06-e60f5f637ded","ios":"levelo://app?vid=62613826-4aec-4f29-8a06-e60f5f637ded"},"vehicle_type_id":"4","last_reported":1739959791,"current_range_meters":12400,"station_id":"ce4bgs12rcd13ifvqcag","pricing_plan_id":"cebpf4jnsgd1na2vs0mg"},{"bike_id":"a8c89a23-99a6-4794-9ee3-4e5c07f642a3","system_id":"levelo_inurba_marseille","lat":43.30212,"lon":5.3946,"is_reserved":false,"is_disabled":false,"rental_uris":{"android":"levelo://app?vid=a8c89a23-99a6-4794-9ee3-4e5c07f642a3","ios":"levelo://app?vid=a8c89a23-99a6-4794-9ee3-4e5c07f642a3"},"vehicle_type_id":"4","last_reported":1739959791,"current_range_meters":12400,"station_id":"ce4bh0p2rcd13ifvqd70","pricing_plan_id":"cebpf4jnsgd1na2vs0mg"},{"bike_id":"f06e9da7-55e1-4f7c-af34-7a7971579920","system_id":"levelo_inurba_marseille","lat":43.26561,"lon":5.37306,"is_reserved":false,"is_disabled":false,"rental_uris":{"android":"levelo://app?vid=f06e9da7-55e1-4f7c-af34-7a7971579920","ios":"levelo://app?vid=f06e9da7-55e1-4f7c-af34-7a7971579920"},"vehicle_type_id":"4","last_reported":1739959791,"current_range_meters":12400,"station_id":"ce4bhg12rcd13ifvqf70","pricing_plan_id":"cebpf4jnsgd1na2vs0mg"},{"bike_id":"c25b8dfb-6504-412f-97e7-f6faee019763","system_id":"levelo_inurba_marseille","lat":43.26608,"lon":5.39594,"is_reserved":false,"is_disabled":false,"rental_uris":{"android":"levelo://app?vid=c25b8dfb-6504-412f-97e7-f6faee019763","ios":"levelo://app?vid=c25b8dfb-6504-412f-97e7-f6faee019763"},"vehicle_type_id":"4","last_reported":1739959791,"current_range_meters":12800,"station_id":"ce4bhi12rcd13ifvqfq0","pricing_plan_id":"cebpf4jnsgd1na2vs0mg"},{"bike_id":"a00fb5cd-e0d2-4f96-befb-5275c0df0c87","system_id":"levelo_inurba_marseille","lat":43.27988,"lon":5.4166,"is_reserved":false,"is_disabled":false,"rental_uris":{"android":"levelo://app?vid=a00fb5cd-e0d2-4f96-befb-5275c0df0c87","ios":"levelo://app?vid=a00fb5cd-e0d2-4f96-befb-5275c0df0c87"},"vehicle_type_id":"4","last_reported":1739959791,"current_range_meters":12800,"station_id":"ce4bho12rcd13ifvqh1g","pricing_plan_id":"cebpf4jnsgd1na2vs0mg"},{"bike_id":"604f7321-9b57-43e6-ac34-d829ba236f38","system_id":"levelo_inurba_marseille","lat":43.301,"lon":5.39083,"is_reserved":false,"is_disabled":false,"rental_uris":{"android":"levelo://app?vid=604f7321-9b57-43e6-ac34-d829ba236f38","ios":"levelo://app?vid=604f7321-9b57-43e6-ac34-d829ba236f38"},"vehicle_type_id":"4","last_reported":1739959791,"current_range_meters":12800,"station_id":"ce4bh192rcd13ifvqdb0","pricing_plan_id":"cebpf4jnsgd1na2vs0mg"},{"bike_id":"3bfb27ea-05ac-4ab0-b11a-4769e727c3bf","system_id":"levelo_inurba_marseille","lat":43.28276,"lon":5.35079,"is_reserved":false,"is_disabled":false,"rental_uris":{"android":"levelo://app?vid=3bfb27ea-05ac-4ab0-b11a-4769e727c3bf","ios":"levelo://app?vid=3bfb27ea-05ac-4ab0-b11a-4769e727c3bf"},"vehicle_type_id":"4","last_reported":1739959791,"current_range_meters":12800,"station_id":"","pricing_plan_id":"cebpf4jnsgd1na2vs0mg"},{"bike_id":"59c06e16-2c1f-4444-a3f6-6a7b6c9c893e","system_id":"levelo_inurba_marseille","lat":43.3029,"lon":5.39215,"is_reserved":false,"is_disabled":true,"rental_uris":{"android":"levelo://app?vid=59c06e16-2c1f-4444-a3f6-6a7b6c9c893e","ios":"levelo://app?vid=59c06e16-2c1f-4444-a3f6-6a7b6c9c893e"},"vehicle_type_id":"4","last_reported":1739959791,"current_range_meters":12800,"station_id":"ce4bgkh2rcd13ifvqbk0","pricing_plan_id":"cebpf4jnsgd1na2vs0mg"},{"bike_id":"397b80cf-cbf3-4f7e-9d00-ad56509053a2","system_id":"levelo_inurba_marseille","lat":43.29177,"lon":5.39759,"is_reserved":false,"is_disabled":false,"rental_uris":{"android":"levelo://app?vid=397b80cf-cbf3-4f7e-9d00-ad56509053a2","ios":"levelo://app?vid=397b80cf-cbf3-4f7e-9d00-ad56509053a2"},"vehicle_type_id":"4","last_reported":1739959791,"current_range_meters":12800,"station_id":"","pricing_plan_id":"cebpf4jnsgd1na2vs0mg"},{"bike_id":"3588d7fd-f43b-4c80-9e29-81123a752771","system_id":"levelo_inurba_marseille","lat":43.31705,"lon":5.40477,"is_reserved":false,"is_disabled":false,"rental_uris":{"android":"levelo://app?vid=3588d7fd-f43b-4c80-9e29-81123a752771","ios":"levelo://app?vid=3588d7fd-f43b-4c80-9e29-81123a752771"},"vehicle_type_id":"4","last_reported":1739959791,"current_range_meters":13600,"station_id":"ce4bh012rcd13ifvqd00","pricing_plan_id":"cebpf4jnsgd1na2vs0mg"},{"bike_id":"53e54bd0-8233-4ff8-b25e-794e3b0dd698","system_id":"levelo_inurba_marseille","lat":43.27822,"lon":5.39207,"is_reserved":false,"is_disabled":false,"rental_uris":{"android":"levelo://app?vid=53e54bd0-8233-4ff8-b25e-794e3b0dd698","ios":"levelo://app?vid=53e54bd0-8233-4ff8-b25e-794e3b0dd698"},"vehicle_type_id":"4","last_reported":1739959791,"current_range_meters":13600,"station_id":"ce4bhjp2rcd13ifvqga0","pricing_plan_id":"cebpf4jnsgd1na2vs0mg"},{"bike_id":"c67fb496-8441-458a-af2d-8f07c087bdd0","system_id":"levelo_inurba_marseille","lat":43.24137,"lon":5.36388,"is_reserved":false,"is_disabled":true,"rental_uris":{"android":"levelo://app?vid=c67fb496-8441-458a-af2d-8f07c087bdd0","ios":"levelo://app?vid=c67fb496-8441-458a-af2d-8f07c087bdd0"},"vehicle_type_id":"4","last_reported":1739959791,"current_range_meters":13600,"station_id":"","pricing_plan_id":"cebpf4jnsgd1na2vs0mg"},{"bike_id":"24dd12c1-4d8a-40c0-b521-a98d2d462c41","system_id":"levelo_inurba_marseille","lat":43.24169,"lon":5.36397,"is_reserved":false,"is_disabled":false,"rental_uris":{"android":"levelo://app?vid=24dd12c1-4d8a-40c0-b521-a98d2d462c41","ios":"levelo://app?vid=24dd12c1-4d8a-40c0-b521-a98d2d462c41"},"vehicle_type_id":"4","last_reported":1739959791,"current_range_meters":13600,"station_id":"","pricing_plan_id":"cebpf4jnsgd1na2vs0mg"},{"bike_id":"6716e5b2-6125-4158-a92d-15363a5ebeb2","system_id":"levelo_inurba_marseille","lat":43.28269,"lon":5.35058,"is_reserved":false,"is_disabled":false,"rental_uris":{"android":"levelo://app?vid=6716e5b2-6125-4158-a92d-15363a5ebeb2","ios":"levelo://app?vid=6716e5b2-6125-4158-a92d-15363a5ebeb2"},"vehicle_type_id":"4","last_reported":1739959791,"current_range_meters":12800,"station_id":"ce4bhbp2rcd13ifvqerg","pricing_plan_id":"cebpf4jnsgd1na2vs0mg"},{"bike_id":"77ccb14a-5470-401b-abec-5807ad06d4d7","system_id":"levelo_inurba_marseille","lat":43.241799,"lon":5.397249,"is_reserved":false,"is_disabled":false,"rental_uris":{"android":"levelo://app?vid=77ccb14a-5470-401b-abec-5807ad06d4d7","ios":"levelo://app?vid=77ccb14a-5470-401b-abec-5807ad06d4d7"},"vehicle_type_id":"4","last_reported":1739959791,"current_range_meters":13600,"station_id":"ce4bhn12rcd13ifvqgpg","pricing_plan_id":"cebpf4jnsgd1na2vs0mg"},{"bike_id":"437bb01f-bd3c-49cd-9e3b-6cb22839a2bb","system_id":"levelo_inurba_marseille","lat":43.30562,"lon":5.36527,"is_reserved":false,"is_disabled":false,"rental_uris":{"android":"levelo://app?vid=437bb01f-bd3c-49cd-9e3b-6cb22839a2bb","ios":"levelo://app?vid=437bb01f-bd3c-49cd-9e3b-6cb22839a2bb"},"vehicle_type_id":"4","last_reported":1739959791,"current_range_meters":14000,"station_id":"ce4bgs12rcd13ifvqcag","pricing_plan_id":"cebpf4jnsgd1na2vs0mg"},{"bike_id":"6706c9a6-5127-4880-951e-c69e44cef34e","system_id":"levelo_inurba_marseille","lat":43.2991,"lon":5.38938,"is_reserved":false,"is_disabled":false,"rental_uris":{"android":"levelo://app?vid=6706c9a6-5127-4880-951e-c69e44cef34e","ios":"levelo://app?vid=6706c9a6-5127-4880-951e-c69e44cef34e"},"vehicle_type_id":"4","last_reported":1739959791,"current_range_meters":14000,"station_id":"ce4bh392rcd13ifvqdl0","pricing_plan_id":"cebpf4jnsgd1na2vs0mg"},{"bike_id":"34d14ec0-9a1d-4d07-8158-52ff5d0c0371","system_id":"levelo_inurba_marseille","lat":43.29421,"lon":5.38043,"is_reserved":false,"is_disabled":false,"rental_uris":{"android":"levelo://app?vid=34d14ec0-9a1d-4d07-8158-52ff5d0c0371","ios":"levelo://app?vid=34d14ec0-9a1d-4d07-8158-52ff5d0c0371"},"vehicle_type_id":"4","last_reported":1739959791,"current_range_meters":14000,"station_id":"","pricing_plan_id":"cebpf4jnsgd1na2vs0mg"},{"bike_id":"5a53eb6b-200f-4ac0-8efb-be28f6b20f01","system_id":"levelo_inurba_marseille","lat":43.23969,"lon":5.36639,"is_reserved":false,"is_disabled":false,"rental_uris":{"android":"levelo://app?vid=5a53eb6b-200f-4ac0-8efb-be28f6b20f01","ios":"levelo://app?vid=5a53eb6b-200f-4ac0-8efb-be28f6b20f01"},"vehicle_type_id":"4","last_reported":1739959791,"current_range_meters":14000,"station_id":"","pricing_plan_id":"cebpf4jnsgd1na2vs0mg"},{"bike_id":"fc971b16-bef3-4b6d-813c-ffc8ffa48842","system_id":"levelo_inurba_marseille","lat":43.2841,"lon":5.34986,"is_reserved":false,"is_disabled":true,"rental_uris":{"android":"levelo://app?vid=fc971b16-bef3-4b6d-813c-ffc8ffa48842","ios":"levelo://app?vid=fc971b16-bef3-4b6d-813c-ffc8ffa48842"},"vehicle_type_id":"4","last_reported":1739959791,"current_range_meters":14000,"station_id":"","pricing_plan_id":"cebpf4jnsgd1na2vs0mg"},{"bike_id":"63ea6c06-3267-4c39-8356-2342b6f650e8","system_id":"levelo_inurba_marseille","lat":43.29642,"lon":5.37812,"is_reserved":false,"is_disabled":false,"rental_uris":{"android":"levelo://app?vid=63ea6c06-3267-4c39-8356-2342b6f650e8","ios":"levelo://app?vid=63ea6c06-3267-4c39-8356-2342b6f650e8"},"vehicle_type_id":"4","last_reported":1739959791,"current_range_meters":14000,"station_id":"ce4bgup2rcd13ifvqco0","pricing_plan_id":"cebpf4jnsgd1na2vs0mg"},{"bike_id":"a64e62bf-df65-4bbd-a13e-9803b7db88e6","system_id":"levelo_inurba_marseille","lat":43.2952,"lon":5.39404,"is_reserved":false,"is_disabled":false,"rental_uris":{"android":"levelo://app?vid=a64e62bf-df65-4bbd-a13e-9803b7db88e6","ios":"levelo://app?vid=a64e62bf-df65-4bbd-a13e-9803b7db88e6"},"vehicle_type_id":"4","last_reported":1739959791,"current_range_meters":13600,"station_id":"ce4bh292rcd13ifvqdf0","pricing_plan_id":"cebpf4jnsgd1na2vs0mg"},{"bike_id":"5180f318-4948-4085-aaf1-5f3160b57dbe","system_id":"levelo_inurba_marseille","lat":43.27608,"lon":5.36112,"is_reserved":false,"is_disabled":true,"rental_uris":{"android":"levelo://app?vid=5180f318-4948-4085-aaf1-5f3160b57dbe","ios":"levelo://app?vid=5180f318-4948-4085-aaf1-5f3160b57dbe"},"vehicle_type_id":"4","last_reported":1739959791,"current_range_meters":14000,"station_id":"","pricing_plan_id":"cebpf4jnsgd1na2vs0mg"},{"bike_id":"3b874ce9-06c4-4d4c-a273-16e5194cf637","system_id":"levelo_inurba_marseille","lat":43.2842,"lon":5.39185,"is_reserved":false,"is_disabled":false,"rental_uris":{"android":"levelo://app?vid=3b874ce9-06c4-4d4c-a273-16e5194cf637","ios":"levelo://app?vid=3b874ce9-06c4-4d4c-a273-16e5194cf637"},"vehicle_type_id":"4","last_reported":1739959791,"current_range_meters":14000,"station_id":"ce4bhoh2rcd13ifvqh5g","pricing_plan_id":"cebpf4jnsgd1na2vs0mg"},{"bike_id":"e3422978-e3d1-4168-a7a6-5ae7ec99e03f","system_id":"levelo_inurba_marseille","lat":43.271766,"lon":5.409876,"is_reserved":false,"is_disabled":false,"rental_uris":{"android":"levelo://app?vid=e3422978-e3d1-4168-a7a6-5ae7ec99e03f","ios":"levelo://app?vid=e3422978-e3d1-4168-a7a6-5ae7ec99e03f"},"vehicle_type_id":"4","last_reported":1739959791,"current_range_meters":14400,"station_id":"","pricing_plan_id":"cebpf4jnsgd1na2vs0mg"},{"bike_id":"eb75e2ac-b61e-4c90-95cb-c16878504d94","system_id":"levelo_inurba_marseille","lat":43.2657,"lon":5.39035,"is_reserved":false,"is_disabled":false,"rental_uris":{"android":"levelo://app?vid=eb75e2ac-b61e-4c90-95cb-c16878504d94","ios":"levelo://app?vid=eb75e2ac-b61e-4c90-95cb-c16878504d94"},"vehicle_type_id":"4","last_reported":1739959791,"current_range_meters":14400,"station_id":"ce4bhe12rcd13ifvqf30","pricing_plan_id":"cebpf4jnsgd1na2vs0mg"},{"bike_id":"b64778c2-2434-4409-b125-e965a1fd469a","system_id":"levelo_inurba_marseille","lat":43.30305,"lon":5.3669,"is_reserved":false,"is_disabled":false,"rental_uris":{"android":"levelo://app?vid=b64778c2-2434-4409-b125-e965a1fd469a","ios":"levelo://app?vid=b64778c2-2434-4409-b125-e965a1fd469a"},"vehicle_type_id":"4","last_reported":1739959791,"current_range_meters":14400,"station_id":"ce4bgs12rcd13ifvqcag","pricing_plan_id":"cebpf4jnsgd1na2vs0mg"},{"bike_id":"e2596add-e568-49b6-a063-b6868f5c61f8","system_id":"levelo_inurba_marseille","lat":43.24811,"lon":5.37451,"is_reserved":false,"is_disabled":false,"rental_uris":{"android":"levelo://app?vid=e2596add-e568-49b6-a063-b6868f5c61f8","ios":"levelo://app?vid=e2596add-e568-49b6-a063-b6868f5c61f8"},"vehicle_type_id":"4","last_reported":1739959791,"current_range_meters":14800,"station_id":"ce4bhgh2rcd13ifvqfb0","pricing_plan_id":"cebpf4jnsgd1na2vs0mg"},{"bike_id":"79a8de8e-6448-4651-a4fc-e7e896fb3b6a","system_id":"levelo_inurba_marseille","lat":43.25586,"lon":5.3823,"is_reserved":false,"is_disabled":false,"rental_uris":{"android":"levelo://app?vid=79a8de8e-6448-4651-a4fc-e7e896fb3b6a","ios":"levelo://app?vid=79a8de8e-6448-4651-a4fc-e7e896fb3b6a"},"vehicle_type_id":"4","last_reported":1739959791,"current_range_meters":14800,"station_id":"ce4bhih2rcd13ifvqfs0","pricing_plan_id":"cebpf4jnsgd1na2vs0mg"},{"bike_id":"9a20bf4a-2838-4260-9d28-debd745460c0","system_id":"levelo_inurba_marseille","lat":43.30881,"lon":5.37812,"is_reserved":false,"is_disabled":false,"rental_uris":{"android":"levelo://app?vid=9a20bf4a-2838-4260-9d28-debd745460c0","ios":"levelo://app?vid=9a20bf4a-2838-4260-9d28-debd745460c0"},"vehicle_type_id":"4","last_reported":1739959791,"current_range_meters":14800,"station_id":"ce4bgv92rcd13ifvqcq0","pricing_plan_id":"cebpf4jnsgd1na2vs0mg"},{"bike_id":"5b80abf9-df02-44a7-b61b-dd0a85631c27","system_id":"levelo_inurba_marseille","lat":43.23962,"lon":5.36657,"is_reserved":false,"is_disabled":false,"rental_uris":{"android":"levelo://app?vid=5b80abf9-df02-44a7-b61b-dd0a85631c27","ios":"levelo://app?vid=5b80abf9-df02-44a7-b61b-dd0a85631c27"},"vehicle_type_id":"4","last_reported":1739959791,"current_range_meters":14800,"station_id":"","pricing_plan_id":"cebpf4jnsgd1na2vs0mg"},{"bike_id":"5f9ede52-c720-4107-a864-980fb2608395","system_id":"levelo_inurba_marseille","lat":43.24106,"lon":5.38687,"is_reserved":false,"is_disabled":false,"rental_uris":{"android":"levelo://app?vid=5f9ede52-c720-4107-a864-980fb2608395","ios":"levelo://app?vid=5f9ede52-c720-4107-a864-980fb2608395"},"vehicle_type_id":"4","last_reported":1739959791,"current_range_meters":15200,"station_id":"","pricing_plan_id":"cebpf4jnsgd1na2vs0mg"},{"bike_id":"0b1a3b32-459a-4ff9-a388-d16482304482","system_id":"levelo_inurba_marseille","lat":43.27994,"lon":5.40013,"is_reserved":false,"is_disabled":true,"rental_uris":{"android":"levelo://app?vid=0b1a3b32-459a-4ff9-a388-d16482304482","ios":"levelo://app?vid=0b1a3b32-459a-4ff9-a388-d16482304482"},"vehicle_type_id":"4","last_reported":1739959791,"current_range_meters":15200,"station_id":"","pricing_plan_id":"cebpf4jnsgd1na2vs0mg"},{"bike_id":"d2669529-28de-4ea2-9659-0826d1688056","system_id":"levelo_inurba_marseille","lat":43.2904,"lon":5.39962,"is_reserved":false,"is_disabled":false,"rental_uris":{"android":"levelo://app?vid=d2669529-28de-4ea2-9659-0826d1688056","ios":"levelo://app?vid=d2669529-28de-4ea2-9659-0826d1688056"},"vehicle_type_id":"4","last_reported":1739959791,"current_range_meters":15200,"station_id":"","pricing_plan_id":"cebpf4jnsgd1na2vs0mg"},{"bike_id":"5089bb88-a0cd-4434-a1a9-f3d5b67361c6","system_id":"levelo_inurba_marseille","lat":43.24369,"lon":5.38745,"is_reserved":false,"is_disabled":false,"rental_uris":{"android":"levelo://app?vid=5089bb88-a0cd-4434-a1a9-f3d5b67361c6","ios":"levelo://app?vid=5089bb88-a0cd-4434-a1a9-f3d5b67361c6"},"vehicle_type_id":"4","last_reported":1739959791,"current_range_meters":15200,"station_id":"","pricing_plan_id":"cebpf4jnsgd1na2vs0mg"},{"bike_id":"d3699658-ddb7-475c-abfb-4e991b75b6d3","system_id":"levelo_inurba_marseille","lat":43.26941,"lon":5.38617,"is_reserved":false,"is_disabled":false,"rental_uris":{"android":"levelo://app?vid=d3699658-ddb7-475c-abfb-4e991b75b6d3","ios":"levelo://app?vid=d3699658-ddb7-475c-abfb-4e991b75b6d3"},"vehicle_type_id":"4","last_reported":1739959791,"current_range_meters":16000,"station_id":"ce4bhh92rcd13ifvqfh0","pricing_plan_id":"cebpf4jnsgd1na2vs0mg"},{"bike_id":"a0af3547-0f5a-4ee7-a39d-23ed992db956","system_id":"levelo_inurba_marseille","lat":43.23418,"lon":5.40452,"is_reserved":false,"is_disabled":false,"rental_uris":{"android":"levelo://app?vid=a0af3547-0f5a-4ee7-a39d-23ed992db956","ios":"levelo://app?vid=a0af3547-0f5a-4ee7-a39d-23ed992db956"},"vehicle_type_id":"4","last_reported":1739959791,"current_range_meters":16000,"station_id":"","pricing_plan_id":"cebpf4jnsgd1na2vs0mg"},{"bike_id":"4e8f47d6-66a4-4e48-adb5-481d4ebced23","system_id":"levelo_inurba_marseille","lat":43.30526,"lon":5.38428,"is_reserved":false,"is_disabled":false,"rental_uris":{"android":"levelo://app?vid=4e8f47d6-66a4-4e48-adb5-481d4ebced23","ios":"levelo://app?vid=4e8f47d6-66a4-4e48-adb5-481d4ebced23"},"vehicle_type_id":"4","last_reported":1739959791,"current_range_meters":16000,"station_id":"ce4bgg92rcd13ifvqb30","pricing_plan_id":"cebpf4jnsgd1na2vs0mg"},{"bike_id":"c835c6b7-91aa-4f5c-95c8-b13cffbebdef","system_id":"levelo_inurba_marseille","lat":43.27178,"lon":5.40984,"is_reserved":false,"is_disabled":false,"rental_uris":{"android":"levelo://app?vid=c835c6b7-91aa-4f5c-95c8-b13cffbebdef","ios":"levelo://app?vid=c835c6b7-91aa-4f5c-95c8-b13cffbebdef"},"vehicle_type_id":"4","last_reported":1739959791,"current_range_meters":16000,"station_id":"","pricing_plan_id":"cebpf4jnsgd1na2vs0mg"},{"bike_id":"ba6293f6-c5a3-4b1d-b111-439b722346cc","system_id":"levelo_inurba_marseille","lat":43.2656,"lon":5.37291,"is_reserved":false,"is_disabled":false,"rental_uris":{"android":"levelo://app?vid=ba6293f6-c5a3-4b1d-b111-439b722346cc","ios":"levelo://app?vid=ba6293f6-c5a3-4b1d-b111-439b722346cc"},"vehicle_type_id":"4","last_reported":1739959791,"current_range_meters":16400,"station_id":"ce4bhg12rcd13ifvqf70","pricing_plan_id":"cebpf4jnsgd1na2vs0mg"},{"bike_id":"b85644ed-f65a-4039-a397-da921e97276e","system_id":"levelo_inurba_marseille","lat":43.23959,"lon":5.36661,"is_reserved":false,"is_disabled":false,"rental_uris":{"android":"levelo://app?vid=b85644ed-f65a-4039-a397-da921e97276e","ios":"levelo://app?vid=b85644ed-f65a-4039-a397-da921e97276e"},"vehicle_type_id":"4","last_reported":1739959791,"current_range_meters":16400,"station_id":"ce4bhi12rcd13ifvqfp0","pricing_plan_id":"cebpf4jnsgd1na2vs0mg"},{"bike_id":"259617e0-e7e9-4a4d-aee7-15927e833679","system_id":"levelo_inurba_marseille","lat":43.26558,"lon":5.39028,"is_reserved":false,"is_disabled":false,"rental_uris":{"android":"levelo://app?vid=259617e0-e7e9-4a4d-aee7-15927e833679","ios":"levelo://app?vid=259617e0-e7e9-4a4d-aee7-15927e833679"},"vehicle_type_id":"4","last_reported":1739959791,"current_range_meters":16800,"station_id":"","pricing_plan_id":"cebpf4jnsgd1na2vs0mg"},{"bike_id":"eea53ece-49bb-4ab5-9642-ef74284e4e2b","system_id":"levelo_inurba_marseille","lat":43.27057,"lon":5.40268,"is_reserved":false,"is_disabled":false,"rental_uris":{"android":"levelo://app?vid=eea53ece-49bb-4ab5-9642-ef74284e4e2b","ios":"levelo://app?vid=eea53ece-49bb-4ab5-9642-ef74284e4e2b"},"vehicle_type_id":"4","last_reported":1739959791,"current_range_meters":16400,"station_id":"ce4bhk92rcd13ifvqgc0","pricing_plan_id":"cebpf4jnsgd1na2vs0mg"},{"bike_id":"3ebccf99-7b15-415f-963f-1118a4f4046e","system_id":"levelo_inurba_marseille","lat":43.27558,"lon":5.38436,"is_reserved":false,"is_disabled":false,"rental_uris":{"android":"levelo://app?vid=3ebccf99-7b15-415f-963f-1118a4f4046e","ios":"levelo://app?vid=3ebccf99-7b15-415f-963f-1118a4f4046e"},"vehicle_type_id":"4","last_reported":1739959791,"current_range_meters":16000,"station_id":"ce4bhh92rcd13ifvqfi0","pricing_plan_id":"cebpf4jnsgd1na2vs0mg"},{"bike_id":"bea52ef0-c8a0-4690-a230-4954bd8469e5","system_id":"levelo_inurba_marseille","lat":43.29852,"lon":5.36284,"is_reserved":false,"is_disabled":false,"rental_uris":{"android":"levelo://app?vid=bea52ef0-c8a0-4690-a230-4954bd8469e5","ios":"levelo://app?vid=bea52ef0-c8a0-4690-a230-4954bd8469e5"},"vehicle_type_id":"4","last_reported":1739959791,"current_range_meters":16400,"station_id":"ce4bgpp2rcd13ifvqc3g","pricing_plan_id":"cebpf4jnsgd1na2vs0mg"},{"bike_id":"b2ce4519-b126-4b1a-a3be-0476bbdf6190","system_id":"levelo_inurba_marseille","lat":43.26931,"lon":5.3892,"is_reserved":false,"is_disabled":false,"rental_uris":{"android":"levelo://app?vid=b2ce4519-b126-4b1a-a3be-0476bbdf6190","ios":"levelo://app?vid=b2ce4519-b126-4b1a-a3be-0476bbdf6190"},"vehicle_type_id":"4","last_reported":1739959791,"current_range_meters":16400,"station_id":"ce4bhhh2rcd13ifvqfl0","pricing_plan_id":"cebpf4jnsgd1na2vs0mg"},{"bike_id":"af246186-84c5-47ac-9840-acf8926725e0","system_id":"levelo_inurba_marseille","lat":43.23945,"lon":5.36638,"is_reserved":false,"is_disabled":false,"rental_uris":{"android":"levelo://app?vid=af246186-84c5-47ac-9840-acf8926725e0","ios":"levelo://app?vid=af246186-84c5-47ac-9840-acf8926725e0"},"vehicle_type_id":"4","last_reported":1739959791,"current_range_meters":16400,"station_id":"","pricing_plan_id":"cebpf4jnsgd1na2vs0mg"},{"bike_id":"18ac2dcf-bf55-44f2-b8e0-3c8557a5bc78","system_id":"levelo_inurba_marseille","lat":43.30911,"lon":5.36873,"is_reserved":false,"is_disabled":false,"rental_uris":{"android":"levelo://app?vid=18ac2dcf-bf55-44f2-b8e0-3c8557a5bc78","ios":"levelo://app?vid=18ac2dcf-bf55-44f2-b8e0-3c8557a5bc78"},"vehicle_type_id":"4","last_reported":1739959791,"current_range_meters":16400,"station_id":"ce4bgn92rcd13ifvqbvg","pricing_plan_id":"cebpf4jnsgd1na2vs0mg"},{"bike_id":"4df47e88-41bc-4b68-b0d1-97f3b41c726a","system_id":"levelo_inurba_marseille","lat":43.30134,"lon":5.39884,"is_reserved":false,"is_disabled":true,"rental_uris":{"android":"levelo://app?vid=4df47e88-41bc-4b68-b0d1-97f3b41c726a","ios":"levelo://app?vid=4df47e88-41bc-4b68-b0d1-97f3b41c726a"},"vehicle_type_id":"4","last_reported":1739959791,"current_range_meters":16400,"station_id":"ce4bh0h2rcd13ifvqd40","pricing_plan_id":"cebpf4jnsgd1na2vs0mg"},{"bike_id":"7ffdcef8-5a79-4157-b739-8caeff1ffcad","system_id":"levelo_inurba_marseille","lat":43.29549,"lon":5.42293,"is_reserved":false,"is_disabled":false,"rental_uris":{"android":"levelo://app?vid=7ffdcef8-5a79-4157-b739-8caeff1ffcad","ios":"levelo://app?vid=7ffdcef8-5a79-4157-b739-8caeff1ffcad"},"vehicle_type_id":"4","last_reported":1739959791,"current_range_meters":16400,"station_id":"ce4bhph2rcd13ifvqhdg","pricing_plan_id":"cebpf4jnsgd1na2vs0mg"},{"bike_id":"5428c4a6-2268-45c5-aff9-a5f8e308d92b","system_id":"levelo_inurba_marseille","lat":43.30875,"lon":5.37292,"is_reserved":false,"is_disabled":false,"rental_uris":{"android":"levelo://app?vid=5428c4a6-2268-45c5-aff9-a5f8e308d92b","ios":"levelo://app?vid=5428c4a6-2268-45c5-aff9-a5f8e308d92b"},"vehicle_type_id":"4","last_reported":1739959791,"current_range_meters":16800,"station_id":"ce4bguh2rcd13ifvqckg","pricing_plan_id":"cebpf4jnsgd1na2vs0mg"},{"bike_id":"c7cd0f4d-e049-4efa-9fba-d2b6f0a2a591","system_id":"levelo_inurba_marseille","lat":43.30107,"lon":5.39074,"is_reserved":false,"is_disabled":false,"rental_uris":{"android":"levelo://app?vid=c7cd0f4d-e049-4efa-9fba-d2b6f0a2a591","ios":"levelo://app?vid=c7cd0f4d-e049-4efa-9fba-d2b6f0a2a591"},"vehicle_type_id":"4","last_reported":1739959791,"current_range_meters":16800,"station_id":"","pricing_plan_id":"cebpf4jnsgd1na2vs0mg"},{"bike_id":"4f8c6e34-a292-4c0d-bae1-b64a4a014f69","system_id":"levelo_inurba_marseille","lat":43.262,"lon":5.37947,"is_reserved":false,"is_disabled":false,"rental_uris":{"android":"levelo://app?vid=4f8c6e34-a292-4c0d-bae1-b64a4a014f69","ios":"levelo://app?vid=4f8c6e34-a292-4c0d-bae1-b64a4a014f69"},"vehicle_type_id":"4","last_reported":1739959791,"current_range_meters":16800,"station_id":"ce4bhjp2rcd13ifvqg90","pricing_plan_id":"cebpf4jnsgd1na2vs0mg"},{"bike_id":"3ba7c0ba-9a24-4027-b102-406b2a6a1c42","system_id":"levelo_inurba_marseille","lat":43.29626,"lon":5.37707,"is_reserved":false,"is_disabled":false,"rental_uris":{"android":"levelo://app?vid=3ba7c0ba-9a24-4027-b102-406b2a6a1c42","ios":"levelo://app?vid=3ba7c0ba-9a24-4027-b102-406b2a6a1c42"},"vehicle_type_id":"4","last_reported":1739959791,"current_range_meters":16800,"station_id":"","pricing_plan_id":"cebpf4jnsgd1na2vs0mg"},{"bike_id":"e5e2ed65-0a50-46fd-af77-1264dac67336","system_id":"levelo_inurba_marseille","lat":43.24169,"lon":5.36396,"is_reserved":false,"is_disabled":false,"rental_uris":{"android":"levelo://app?vid=e5e2ed65-0a50-46fd-af77-1264dac67336","ios":"levelo://app?vid=e5e2ed65-0a50-46fd-af77-1264dac67336"},"vehicle_type_id":"4","last_reported":1739959791,"current_range_meters":16800,"station_id":"","pricing_plan_id":"cebpf4jnsgd1na2vs0mg"},{"bike_id":"c4022f23-7abb-4231-b131-8a10f8cc4f82","system_id":"levelo_inurba_marseille","lat":43.29783,"lon":5.37095,"is_reserved":false,"is_disabled":false,"rental_uris":{"android":"levelo://app?vid=c4022f23-7abb-4231-b131-8a10f8cc4f82","ios":"levelo://app?vid=c4022f23-7abb-4231-b131-8a10f8cc4f82"},"vehicle_type_id":"4","last_reported":1739959791,"current_range_meters":16400,"station_id":"ce4bgop2rcd13ifvqc1g","pricing_plan_id":"cebpf4jnsgd1na2vs0mg"},{"bike_id":"77b1c145-0121-4959-995e-7fe0b08ff9d1","system_id":"levelo_inurba_marseille","lat":43.26677,"lon":5.38278,"is_reserved":false,"is_disabled":false,"rental_uris":{"android":"levelo://app?vid=77b1c145-0121-4959-995e-7fe0b08ff9d1","ios":"levelo://app?vid=77b1c145-0121-4959-995e-7fe0b08ff9d1"},"vehicle_type_id":"4","last_reported":1739959791,"current_range_meters":16400,"station_id":"ce4bhg92rcd13ifvqf90","pricing_plan_id":"cebpf4jnsgd1na2vs0mg"},{"bike_id":"0afc5850-4886-4c3a-9497-1e829261a0cf","system_id":"levelo_inurba_marseille","lat":43.29852,"lon":5.36288,"is_reserved":false,"is_disabled":false,"rental_uris":{"android":"levelo://app?vid=0afc5850-4886-4c3a-9497-1e829261a0cf","ios":"levelo://app?vid=0afc5850-4886-4c3a-9497-1e829261a0cf"},"vehicle_type_id":"4","last_reported":1739959791,"current_range_meters":16800,"station_id":"ce4bgpp2rcd13ifvqc3g","pricing_plan_id":"cebpf4jnsgd1na2vs0mg"},{"bike_id":"82de7fdf-fb6e-4296-bdd1-ecdfb5778c65","system_id":"levelo_inurba_marseille","lat":43.23153,"lon":5.43718,"is_reserved":false,"is_disabled":false,"rental_uris":{"android":"levelo://app?vid=82de7fdf-fb6e-4296-bdd1-ecdfb5778c65","ios":"levelo://app?vid=82de7fdf-fb6e-4296-bdd1-ecdfb5778c65"},"vehicle_type_id":"4","last_reported":1739959791,"current_range_meters":16800,"station_id":"ce4bhmp2rcd13ifvqgog","pricing_plan_id":"cebpf4jnsgd1na2vs0mg"},{"bike_id":"7c7ecf27-517d-4352-9e8d-a91de593eee8","system_id":"levelo_inurba_marseille","lat":43.32487,"lon":5.36561,"is_reserved":false,"is_disabled":false,"rental_uris":{"android":"levelo://app?vid=7c7ecf27-517d-4352-9e8d-a91de593eee8","ios":"levelo://app?vid=7c7ecf27-517d-4352-9e8d-a91de593eee8"},"vehicle_type_id":"4","last_reported":1739959791,"current_range_meters":16800,"station_id":"ce4bhs12rcd13ifvqhvg","pricing_plan_id":"cebpf4jnsgd1na2vs0mg"},{"bike_id":"41b1f5b8-75f3-4ec6-8344-959b9791673e","system_id":"levelo_inurba_marseille","lat":43.23201,"lon":5.40011,"is_reserved":false,"is_disabled":false,"rental_uris":{"android":"levelo://app?vid=41b1f5b8-75f3-4ec6-8344-959b9791673e","ios":"levelo://app?vid=41b1f5b8-75f3-4ec6-8344-959b9791673e"},"vehicle_type_id":"4","last_reported":1739959791,"current_range_meters":17200,"station_id":"ce4bhn12rcd13ifvqgqg","pricing_plan_id":"cebpf4jnsgd1na2vs0mg"},{"bike_id":"4f141a03-004e-4af8-9cff-6a8b88c85f0f","system_id":"levelo_inurba_marseille","lat":43.29099,"lon":5.3815,"is_reserved":false,"is_disabled":false,"rental_uris":{"android":"levelo://app?vid=4f141a03-004e-4af8-9cff-6a8b88c85f0f","ios":"levelo://app?vid=4f141a03-004e-4af8-9cff-6a8b88c85f0f"},"vehicle_type_id":"4","last_reported":1739959791,"current_range_meters":17200,"station_id":"ce4bh512rcd13ifvqe2g","pricing_plan_id":"cebpf4jnsgd1na2vs0mg"},{"bike_id":"ba379239-9216-4e46-a96c-a73988d910ff","system_id":"levelo_inurba_marseille","lat":43.26489,"lon":5.37146,"is_reserved":false,"is_disabled":false,"rental_uris":{"android":"levelo://app?vid=ba379239-9216-4e46-a96c-a73988d910ff","ios":"levelo://app?vid=ba379239-9216-4e46-a96c-a73988d910ff"},"vehicle_type_id":"4","last_reported":1739959791,"current_range_meters":17200,"station_id":"","pricing_plan_id":"cebpf4jnsgd1na2vs0mg"},{"bike_id":"f6252ebe-e34b-41d9-b45b-e84845f5b947","system_id":"levelo_inurba_marseille","lat":43.313705,"lon":5.384881,"is_reserved":false,"is_disabled":false,"rental_uris":{"android":"levelo://app?vid=f6252ebe-e34b-41d9-b45b-e84845f5b947","ios":"levelo://app?vid=f6252ebe-e34b-41d9-b45b-e84845f5b947"},"vehicle_type_id":"4","last_reported":1739959791,"current_range_meters":17200,"station_id":"","pricing_plan_id":"cebpf4jnsgd1na2vs0mg"},{"bike_id":"ffe9eab2-d4dc-4453-a33d-12df5bd7df9c","system_id":"levelo_inurba_marseille","lat":43.2816,"lon":5.42626,"is_reserved":false,"is_disabled":true,"rental_uris":{"android":"levelo://app?vid=ffe9eab2-d4dc-4453-a33d-12df5bd7df9c","ios":"levelo://app?vid=ffe9eab2-d4dc-4453-a33d-12df5bd7df9c"},"vehicle_type_id":"4","last_reported":1739959791,"current_range_meters":17200,"station_id":"ce4bhnh2rcd13ifvqgug","pricing_plan_id":"cebpf4jnsgd1na2vs0mg"},{"bike_id":"94ce4c1f-b676-43e1-9e28-ed9f6f6c8e2b","system_id":"levelo_inurba_marseille","lat":43.23619,"lon":5.39158,"is_reserved":false,"is_disabled":false,"rental_uris":{"android":"levelo://app?vid=94ce4c1f-b676-43e1-9e28-ed9f6f6c8e2b","ios":"levelo://app?vid=94ce4c1f-b676-43e1-9e28-ed9f6f6c8e2b"},"vehicle_type_id":"4","last_reported":1739959791,"current_range_meters":17200,"station_id":"","pricing_plan_id":"cebpf4jnsgd1na2vs0mg"},{"bike_id":"3cf409db-ea1f-40ef-9a60-ba2f1f323925","system_id":"levelo_inurba_marseille","lat":43.24174,"lon":5.39733,"is_reserved":false,"is_disabled":false,"rental_uris":{"android":"levelo://app?vid=3cf409db-ea1f-40ef-9a60-ba2f1f323925","ios":"levelo://app?vid=3cf409db-ea1f-40ef-9a60-ba2f1f323925"},"vehicle_type_id":"4","last_reported":1739959791,"current_range_meters":17200,"station_id":"ce4bhn12rcd13ifvqgpg","pricing_plan_id":"cebpf4jnsgd1na2vs0mg"},{"bike_id":"405cf569-37f9-4594-9b4a-2262610a63b0","system_id":"levelo_inurba_marseille","lat":43.31223,"lon":5.36855,"is_reserved":false,"is_disabled":false,"rental_uris":{"android":"levelo://app?vid=405cf569-37f9-4594-9b4a-2262610a63b0","ios":"levelo://app?vid=405cf569-37f9-4594-9b4a-2262610a63b0"},"vehicle_type_id":"4","last_reported":1739959791,"current_range_meters":17200,"station_id":"","pricing_plan_id":"cebpf4jnsgd1na2vs0mg"},{"bike_id":"ea031cfd-983d-4062-9049-587751f7276b","system_id":"levelo_inurba_marseille","lat":43.30467,"lon":5.379,"is_reserved":false,"is_disabled":false,"rental_uris":{"android":"levelo://app?vid=ea031cfd-983d-4062-9049-587751f7276b","ios":"levelo://app?vid=ea031cfd-983d-4062-9049-587751f7276b"},"vehicle_type_id":"4","last_reported":1739959791,"current_range_meters":17200,"station_id":"ce4bgup2rcd13ifvqcn0","pricing_plan_id":"cebpf4jnsgd1na2vs0mg"},{"bike_id":"e633acab-79d2-4739-904f-a73e5653a597","system_id":"levelo_inurba_marseille","lat":43.2873,"lon":5.37933,"is_reserved":false,"is_disabled":false,"rental_uris":{"android":"levelo://app?vid=e633acab-79d2-4739-904f-a73e5653a597","ios":"levelo://app?vid=e633acab-79d2-4739-904f-a73e5653a597"},"vehicle_type_id":"4","last_reported":1739959791,"current_range_meters":17200,"station_id":"","pricing_plan_id":"cebpf4jnsgd1na2vs0mg"},{"bike_id":"5f3d59fe-f484-434a-b30c-fb9f9124213e","system_id":"levelo_inurba_marseille","lat":43.30543,"lon":5.36551,"is_reserved":false,"is_disabled":false,"rental_uris":{"android":"levelo://app?vid=5f3d59fe-f484-434a-b30c-fb9f9124213e","ios":"levelo://app?vid=5f3d59fe-f484-434a-b30c-fb9f9124213e"},"vehicle_type_id":"4","last_reported":1739959791,"current_range_meters":17200,"station_id":"ce4bgs12rcd13ifvqcag","pricing_plan_id":"cebpf4jnsgd1na2vs0mg"},{"bike_id":"e645b05d-0c39-4cb8-bea8-ed8cefac4a7d","system_id":"levelo_inurba_marseille","lat":43.2657,"lon":5.39008,"is_reserved":false,"is_disabled":false,"rental_uris":{"android":"levelo://app?vid=e645b05d-0c39-4cb8-bea8-ed8cefac4a7d","ios":"levelo://app?vid=e645b05d-0c39-4cb8-bea8-ed8cefac4a7d"},"vehicle_type_id":"4","last_reported":1739959791,"current_range_meters":17200,"station_id":"ce4bhe12rcd13ifvqf30","pricing_plan_id":"cebpf4jnsgd1na2vs0mg"},{"bike_id":"e60c3759-052a-41b1-87c3-fb58e6ee0579","system_id":"levelo_inurba_marseille","lat":43.29699,"lon":5.37699,"is_reserved":false,"is_disabled":false,"rental_uris":{"android":"levelo://app?vid=e60c3759-052a-41b1-87c3-fb58e6ee0579","ios":"levelo://app?vid=e60c3759-052a-41b1-87c3-fb58e6ee0579"},"vehicle_type_id":"4","last_reported":1739959791,"current_range_meters":17600,"station_id":"ce4bgkh2rcd13ifvqbl0","pricing_plan_id":"cebpf4jnsgd1na2vs0mg"},{"bike_id":"fa359e85-2e17-4f39-8936-157abb872521","system_id":"levelo_inurba_marseille","lat":43.24065,"lon":5.37758,"is_reserved":false,"is_disabled":false,"rental_uris":{"android":"levelo://app?vid=fa359e85-2e17-4f39-8936-157abb872521","ios":"levelo://app?vid=fa359e85-2e17-4f39-8936-157abb872521"},"vehicle_type_id":"4","last_reported":1739959791,"current_range_meters":17600,"station_id":"ce4bhnp2rcd13ifvqgvg","pricing_plan_id":"cebpf4jnsgd1na2vs0mg"},{"bike_id":"6c695163-13d1-4682-b513-311ea8d75027","system_id":"levelo_inurba_marseille","lat":43.30906,"lon":5.37432,"is_reserved":false,"is_disabled":false,"rental_uris":{"android":"levelo://app?vid=6c695163-13d1-4682-b513-311ea8d75027","ios":"levelo://app?vid=6c695163-13d1-4682-b513-311ea8d75027"},"vehicle_type_id":"4","last_reported":1739959791,"current_range_meters":17600,"station_id":"ce4bgs12rcd13ifvqcag","pricing_plan_id":"cebpf4jnsgd1na2vs0mg"},{"bike_id":"b51aecbb-b84b-48b3-96e3-2aaadad6c3b8","system_id":"levelo_inurba_marseille","lat":43.28924,"lon":5.39655,"is_reserved":false,"is_disabled":false,"rental_uris":{"android":"levelo://app?vid=b51aecbb-b84b-48b3-96e3-2aaadad6c3b8","ios":"levelo://app?vid=b51aecbb-b84b-48b3-96e3-2aaadad6c3b8"},"vehicle_type_id":"4","last_reported":1739959791,"current_range_meters":17600,"station_id":"ce4bh3h2rcd13ifvqdn0","pricing_plan_id":"cebpf4jnsgd1na2vs0mg"},{"bike_id":"7a952dbc-58ff-4751-8033-08d9395af264","system_id":"levelo_inurba_marseille","lat":43.33732,"lon":5.39186,"is_reserved":false,"is_disabled":false,"rental_uris":{"android":"levelo://app?vid=7a952dbc-58ff-4751-8033-08d9395af264","ios":"levelo://app?vid=7a952dbc-58ff-4751-8033-08d9395af264"},"vehicle_type_id":"4","last_reported":1739959791,"current_range_meters":17200,"station_id":"ce4bhr92rcd13ifvqhsg","pricing_plan_id":"cebpf4jnsgd1na2vs0mg"},{"bike_id":"726142b0-f566-4076-99c8-642a737aafa9","system_id":"levelo_inurba_marseille","lat":43.23965,"lon":5.36638,"is_reserved":false,"is_disabled":false,"rental_uris":{"android":"levelo://app?vid=726142b0-f566-4076-99c8-642a737aafa9","ios":"levelo://app?vid=726142b0-f566-4076-99c8-642a737aafa9"},"vehicle_type_id":"4","last_reported":1739959791,"current_range_meters":17600,"station_id":"ce4bhi12rcd13ifvqfp0","pricing_plan_id":"cebpf4jnsgd1na2vs0mg"},{"bike_id":"a660e4ed-7420-4112-ae54-aeacfbc54016","system_id":"levelo_inurba_marseille","lat":43.30597,"lon":5.37234,"is_reserved":false,"is_disabled":false,"rental_uris":{"android":"levelo://app?vid=a660e4ed-7420-4112-ae54-aeacfbc54016","ios":"levelo://app?vid=a660e4ed-7420-4112-ae54-aeacfbc54016"},"vehicle_type_id":"4","last_reported":1739959791,"current_range_meters":17600,"station_id":"ce4bgqh2rcd13ifvqc4g","pricing_plan_id":"cebpf4jnsgd1na2vs0mg"},{"bike_id":"d9102e21-6294-472e-8da2-16dfb746ec2b","system_id":"levelo_inurba_marseille","lat":43.28138,"lon":5.4457,"is_reserved":false,"is_disabled":false,"rental_uris":{"android":"levelo://app?vid=d9102e21-6294-472e-8da2-16dfb746ec2b","ios":"levelo://app?vid=d9102e21-6294-472e-8da2-16dfb746ec2b"},"vehicle_type_id":"4","last_reported":1739959791,"current_range_meters":17600,"station_id":"ce4bhnh2rcd13ifvqgtg","pricing_plan_id":"cebpf4jnsgd1na2vs0mg"},{"bike_id":"534ef1d2-6349-4154-8082-59034e468f56","system_id":"levelo_inurba_marseille","lat":43.23145,"lon":5.43738,"is_reserved":false,"is_disabled":false,"rental_uris":{"android":"levelo://app?vid=534ef1d2-6349-4154-8082-59034e468f56","ios":"levelo://app?vid=534ef1d2-6349-4154-8082-59034e468f56"},"vehicle_type_id":"4","last_reported":1739959791,"current_range_meters":17600,"station_id":"ce4bhmp2rcd13ifvqgog","pricing_plan_id":"cebpf4jnsgd1na2vs0mg"},{"bike_id":"2888daef-335d-4f97-a6dd-1f217b442569","system_id":"levelo_inurba_marseille","lat":43.29054,"lon":5.3995,"is_reserved":false,"is_disabled":false,"rental_uris":{"android":"levelo://app?vid=2888daef-335d-4f97-a6dd-1f217b442569","ios":"levelo://app?vid=2888daef-335d-4f97-a6dd-1f217b442569"},"vehicle_type_id":"4","last_reported":1739959791,"current_range_meters":18000,"station_id":"","pricing_plan_id":"cebpf4jnsgd1na2vs0mg"},{"bike_id":"89f8f979-8802-4164-b37e-0106cff1f720","system_id":"levelo_inurba_marseille","lat":43.3057,"lon":5.3654,"is_reserved":false,"is_disabled":false,"rental_uris":{"android":"levelo://app?vid=89f8f979-8802-4164-b37e-0106cff1f720","ios":"levelo://app?vid=89f8f979-8802-4164-b37e-0106cff1f720"},"vehicle_type_id":"4","last_reported":1739959791,"current_range_meters":18000,"station_id":"ce4bgs12rcd13ifvqcag","pricing_plan_id":"cebpf4jnsgd1na2vs0mg"},{"bike_id":"003c44c1-3cd5-48e6-afbd-3e395aa9e710","system_id":"levelo_inurba_marseille","lat":43.29913,"lon":5.43657,"is_reserved":false,"is_disabled":false,"rental_uris":{"android":"levelo://app?vid=003c44c1-3cd5-48e6-afbd-3e395aa9e710","ios":"levelo://app?vid=003c44c1-3cd5-48e6-afbd-3e395aa9e710"},"vehicle_type_id":"4","last_reported":1739959791,"current_range_meters":18000,"station_id":"ce4bhpp2rcd13ifvqhfg","pricing_plan_id":"cebpf4jnsgd1na2vs0mg"},{"bike_id":"a05a3d92-92ca-419c-a708-17432dbb3038","system_id":"levelo_inurba_marseille","lat":43.32482,"lon":5.36565,"is_reserved":false,"is_disabled":false,"rental_uris":{"android":"levelo://app?vid=a05a3d92-92ca-419c-a708-17432dbb3038","ios":"levelo://app?vid=a05a3d92-92ca-419c-a708-17432dbb3038"},"vehicle_type_id":"4","last_reported":1739959791,"current_range_meters":18000,"station_id":"ce4bhs12rcd13ifvqhvg","pricing_plan_id":"cebpf4jnsgd1na2vs0mg"},{"bike_id":"ba0a4dbe-d370-492e-a789-44c6ef69c02b","system_id":"levelo_inurba_marseille","lat":43.28619,"lon":5.35094,"is_reserved":false,"is_disabled":true,"rental_uris":{"android":"levelo://app?vid=ba0a4dbe-d370-492e-a789-44c6ef69c02b","ios":"levelo://app?vid=ba0a4dbe-d370-492e-a789-44c6ef69c02b"},"vehicle_type_id":"4","last_reported":1739959791,"current_range_meters":18000,"station_id":"ce4bhch2rcd13ifvqeug","pricing_plan_id":"cebpf4jnsgd1na2vs0mg"},{"bike_id":"bb6d7882-20c0-4c0a-acc8-5a53728eecf7","system_id":"levelo_inurba_marseille","lat":43.30164,"lon":5.37399,"is_reserved":false,"is_disabled":false,"rental_uris":{"android":"levelo://app?vid=bb6d7882-20c0-4c0a-acc8-5a53728eecf7","ios":"levelo://app?vid=bb6d7882-20c0-4c0a-acc8-5a53728eecf7"},"vehicle_type_id":"4","last_reported":1739959791,"current_range_meters":18000,"station_id":"ce4bgs92rcd13ifvqcc0","pricing_plan_id":"cebpf4jnsgd1na2vs0mg"},{"bike_id":"38188398-9cb6-4e04-b867-a77507e878dd","system_id":"levelo_inurba_marseille","lat":43.2957,"lon":5.39972,"is_reserved":false,"is_disabled":false,"rental_uris":{"android":"levelo://app?vid=38188398-9cb6-4e04-b867-a77507e878dd","ios":"levelo://app?vid=38188398-9cb6-4e04-b867-a77507e878dd"},"vehicle_type_id":"4","last_reported":1739959791,"current_range_meters":17600,"station_id":"ce4bh312rcd13ifvqdj0","pricing_plan_id":"cebpf4jnsgd1na2vs0mg"},{"bike_id":"89442ded-a4b5-4615-a345-4e64096cfee7","system_id":"levelo_inurba_marseille","lat":43.29634,"lon":5.37152,"is_reserved":false,"is_disabled":false,"rental_uris":{"android":"levelo://app?vid=89442ded-a4b5-4615-a345-4e64096cfee7","ios":"levelo://app?vid=89442ded-a4b5-4615-a345-4e64096cfee7"},"vehicle_type_id":"4","last_reported":1739959791,"current_range_meters":18000,"station_id":"ce4bgnh2rcd13ifvqc0g","pricing_plan_id":"cebpf4jnsgd1na2vs0mg"},{"bike_id":"6a9e80a8-008f-4d6f-99dc-2189ff728426","system_id":"levelo_inurba_marseille","lat":43.25927,"lon":5.4099,"is_reserved":false,"is_disabled":false,"rental_uris":{"android":"levelo://app?vid=6a9e80a8-008f-4d6f-99dc-2189ff728426","ios":"levelo://app?vid=6a9e80a8-008f-4d6f-99dc-2189ff728426"},"vehicle_type_id":"4","last_reported":1739959791,"current_range_meters":18000,"station_id":"","pricing_plan_id":"cebpf4jnsgd1na2vs0mg"},{"bike_id":"6c9c8bd6-ad0f-4b8d-a2bc-9a73d0c24657","system_id":"levelo_inurba_marseille","lat":43.3136,"lon":5.36699,"is_reserved":false,"is_disabled":false,"rental_uris":{"android":"levelo://app?vid=6c9c8bd6-ad0f-4b8d-a2bc-9a73d0c24657","ios":"levelo://app?vid=6c9c8bd6-ad0f-4b8d-a2bc-9a73d0c24657"},"vehicle_type_id":"4","last_reported":1739959791,"current_range_meters":18000,"station_id":"ce4bgt92rcd13ifvqcf0","pricing_plan_id":"cebpf4jnsgd1na2vs0mg"},{"bike_id":"a7b596e4-e00c-4f0d-9ce9-3fa83e028f63","system_id":"levelo_inurba_marseille","lat":43.302543,"lon":5.400699,"is_reserved":false,"is_disabled":false,"rental_uris":{"android":"levelo://app?vid=a7b596e4-e00c-4f0d-9ce9-3fa83e028f63","ios":"levelo://app?vid=a7b596e4-e00c-4f0d-9ce9-3fa83e028f63"},"vehicle_type_id":"4","last_reported":1739959791,"current_range_meters":18000,"station_id":"chh1huq6cuj3fo74tm60","pricing_plan_id":"cebpf4jnsgd1na2vs0mg"},{"bike_id":"5e3169da-341b-4a28-a0fa-8738c73aa79e","system_id":"levelo_inurba_marseille","lat":43.23182,"lon":5.39987,"is_reserved":false,"is_disabled":false,"rental_uris":{"android":"levelo://app?vid=5e3169da-341b-4a28-a0fa-8738c73aa79e","ios":"levelo://app?vid=5e3169da-341b-4a28-a0fa-8738c73aa79e"},"vehicle_type_id":"4","last_reported":1739959791,"current_range_meters":18000,"station_id":"ce4bhn12rcd13ifvqgqg","pricing_plan_id":"cebpf4jnsgd1na2vs0mg"},{"bike_id":"477ac2db-8f8c-4cbc-8427-0ab644b57a7a","system_id":"levelo_inurba_marseille","lat":43.25007,"lon":5.38917,"is_reserved":false,"is_disabled":false,"rental_uris":{"android":"levelo://app?vid=477ac2db-8f8c-4cbc-8427-0ab644b57a7a","ios":"levelo://app?vid=477ac2db-8f8c-4cbc-8427-0ab644b57a7a"},"vehicle_type_id":"4","last_reported":1739959791,"current_range_meters":18000,"station_id":"ce4bhgp2rcd13ifvqfd0","pricing_plan_id":"cebpf4jnsgd1na2vs0mg"},{"bike_id":"24422274-89fa-4a71-8136-2471e2d9789a","system_id":"levelo_inurba_marseille","lat":43.30492,"lon":5.37914,"is_reserved":false,"is_disabled":false,"rental_uris":{"android":"levelo://app?vid=24422274-89fa-4a71-8136-2471e2d9789a","ios":"levelo://app?vid=24422274-89fa-4a71-8136-2471e2d9789a"},"vehicle_type_id":"4","last_reported":1739959791,"current_range_meters":18000,"station_id":"ce4bgup2rcd13ifvqcn0","pricing_plan_id":"cebpf4jnsgd1na2vs0mg"},{"bike_id":"0a9f9112-0ddd-4c9c-aaf6-d6dd17163457","system_id":"levelo_inurba_marseille","lat":43.26219,"lon":5.37456,"is_reserved":false,"is_disabled":false,"rental_uris":{"android":"levelo://app?vid=0a9f9112-0ddd-4c9c-aaf6-d6dd17163457","ios":"levelo://app?vid=0a9f9112-0ddd-4c9c-aaf6-d6dd17163457"},"vehicle_type_id":"4","last_reported":1739959791,"current_range_meters":18000,"station_id":"ce4bhgp2rcd13ifvqfc0","pricing_plan_id":"cebpf4jnsgd1na2vs0mg"},{"bike_id":"3bc9c81d-1885-4d47-bc5c-7252a131ac49","system_id":"levelo_inurba_marseille","lat":43.2318,"lon":5.39992,"is_reserved":false,"is_disabled":false,"rental_uris":{"android":"levelo://app?vid=3bc9c81d-1885-4d47-bc5c-7252a131ac49","ios":"levelo://app?vid=3bc9c81d-1885-4d47-bc5c-7252a131ac49"},"vehicle_type_id":"4","last_reported":1739959791,"current_range_meters":18000,"station_id":"ce4bhn12rcd13ifvqgqg","pricing_plan_id":"cebpf4jnsgd1na2vs0mg"},{"bike_id":"8becd64c-893d-4a08-8876-b1598e031c70","system_id":"levelo_inurba_marseille","lat":43.27941,"lon":5.38684,"is_reserved":false,"is_disabled":true,"rental_uris":{"android":"levelo://app?vid=8becd64c-893d-4a08-8876-b1598e031c70","ios":"levelo://app?vid=8becd64c-893d-4a08-8876-b1598e031c70"},"vehicle_type_id":"4","last_reported":1739959791,"current_range_meters":18800,"station_id":"","pricing_plan_id":"cebpf4jnsgd1na2vs0mg"},{"bike_id":"bdc412a8-ab57-4942-907d-94e7ad50b3fa","system_id":"levelo_inurba_marseille","lat":43.25928,"lon":5.40856,"is_reserved":false,"is_disabled":false,"rental_uris":{"android":"levelo://app?vid=bdc412a8-ab57-4942-907d-94e7ad50b3fa","ios":"levelo://app?vid=bdc412a8-ab57-4942-907d-94e7ad50b3fa"},"vehicle_type_id":"4","last_reported":1739959791,"current_range_meters":18800,"station_id":"ce4bhm92rcd13ifvqglg","pricing_plan_id":"cebpf4jnsgd1na2vs0mg"},{"bike_id":"96f24ef9-abc0-486a-ba9a-cbd79e54a702","system_id":"levelo_inurba_marseille","lat":43.30952,"lon":5.39031,"is_reserved":false,"is_disabled":false,"rental_uris":{"android":"levelo://app?vid=96f24ef9-abc0-486a-ba9a-cbd79e54a702","ios":"levelo://app?vid=96f24ef9-abc0-486a-ba9a-cbd79e54a702"},"vehicle_type_id":"4","last_reported":1739959791,"current_range_meters":18800,"station_id":"ce4bgup2rcd13ifvqco0","pricing_plan_id":"cebpf4jnsgd1na2vs0mg"},{"bike_id":"e3047d30-58fc-4d98-94dc-26c779b7f319","system_id":"levelo_inurba_marseille","lat":43.25497,"lon":5.3765,"is_reserved":false,"is_disabled":false,"rental_uris":{"android":"levelo://app?vid=e3047d30-58fc-4d98-94dc-26c779b7f319","ios":"levelo://app?vid=e3047d30-58fc-4d98-94dc-26c779b7f319"},"vehicle_type_id":"4","last_reported":1739959791,"current_range_meters":18800,"station_id":"ce4bhh12rcd13ifvqff0","pricing_plan_id":"cebpf4jnsgd1na2vs0mg"},{"bike_id":"66b5a43e-2798-4c72-8acc-33d23152963b","system_id":"levelo_inurba_marseille","lat":43.27201,"lon":5.41007,"is_reserved":false,"is_disabled":false,"rental_uris":{"android":"levelo://app?vid=66b5a43e-2798-4c72-8acc-33d23152963b","ios":"levelo://app?vid=66b5a43e-2798-4c72-8acc-33d23152963b"},"vehicle_type_id":"4","last_reported":1739959791,"current_range_meters":18800,"station_id":"ce4bhl12rcd13ifvqgf0","pricing_plan_id":"cebpf4jnsgd1na2vs0mg"},{"bike_id":"75673006-1fda-46a1-a573-0e1cfeae28aa","system_id":"levelo_inurba_marseille","lat":43.29492,"lon":5.3828,"is_reserved":false,"is_disabled":false,"rental_uris":{"android":"levelo://app?vid=75673006-1fda-46a1-a573-0e1cfeae28aa","ios":"levelo://app?vid=75673006-1fda-46a1-a573-0e1cfeae28aa"},"vehicle_type_id":"4","last_reported":1739959791,"current_range_meters":18800,"station_id":"","pricing_plan_id":"cebpf4jnsgd1na2vs0mg"},{"bike_id":"b3a013f7-dc34-4955-b4ab-7904906a7997","system_id":"levelo_inurba_marseille","lat":43.28163,"lon":5.42669,"is_reserved":false,"is_disabled":false,"rental_uris":{"android":"levelo://app?vid=b3a013f7-dc34-4955-b4ab-7904906a7997","ios":"levelo://app?vid=b3a013f7-dc34-4955-b4ab-7904906a7997"},"vehicle_type_id":"4","last_reported":1739959791,"current_range_meters":18800,"station_id":"ce4bhnh2rcd13ifvqgug","pricing_plan_id":"cebpf4jnsgd1na2vs0mg"},{"bike_id":"c5556645-e375-4a3e-9527-a13df1b6f2e0","system_id":"levelo_inurba_marseille","lat":43.31998,"lon":5.38165,"is_reserved":false,"is_disabled":false,"rental_uris":{"android":"levelo://app?vid=c5556645-e375-4a3e-9527-a13df1b6f2e0","ios":"levelo://app?vid=c5556645-e375-4a3e-9527-a13df1b6f2e0"},"vehicle_type_id":"4","last_reported":1739959791,"current_range_meters":18800,"station_id":"ce4bhr12rcd13ifvqhpg","pricing_plan_id":"cebpf4jnsgd1na2vs0mg"},{"bike_id":"efb58bf1-4403-4b9f-b67d-a8970e8c3a7f","system_id":"levelo_inurba_marseille","lat":43.25022,"lon":5.38921,"is_reserved":false,"is_disabled":false,"rental_uris":{"android":"levelo://app?vid=efb58bf1-4403-4b9f-b67d-a8970e8c3a7f","ios":"levelo://app?vid=efb58bf1-4403-4b9f-b67d-a8970e8c3a7f"},"vehicle_type_id":"4","last_reported":1739959791,"current_range_meters":18800,"station_id":"ce4bhgp2rcd13ifvqfd0","pricing_plan_id":"cebpf4jnsgd1na2vs0mg"},{"bike_id":"418cf512-f4f7-4926-a4e7-73be06e6100b","system_id":"levelo_inurba_marseille","lat":43.29872,"lon":5.36295,"is_reserved":false,"is_disabled":false,"rental_uris":{"android":"levelo://app?vid=418cf512-f4f7-4926-a4e7-73be06e6100b","ios":"levelo://app?vid=418cf512-f4f7-4926-a4e7-73be06e6100b"},"vehicle_type_id":"4","last_reported":1739959791,"current_range_meters":19200,"station_id":"ce4bgpp2rcd13ifvqc3g","pricing_plan_id":"cebpf4jnsgd1na2vs0mg"},{"bike_id":"3addd8d2-327f-4e60-8639-267e28d7c956","system_id":"levelo_inurba_marseille","lat":43.28673,"lon":5.38666,"is_reserved":false,"is_disabled":false,"rental_uris":{"android":"levelo://app?vid=3addd8d2-327f-4e60-8639-267e28d7c956","ios":"levelo://app?vid=3addd8d2-327f-4e60-8639-267e28d7c956"},"vehicle_type_id":"4","last_reported":1739959791,"current_range_meters":19200,"station_id":"","pricing_plan_id":"cebpf4jnsgd1na2vs0mg"},{"bike_id":"c4ed7000-d813-4b3a-b512-fb78605269e7","system_id":"levelo_inurba_marseille","lat":43.28466,"lon":5.38554,"is_reserved":false,"is_disabled":false,"rental_uris":{"android":"levelo://app?vid=c4ed7000-d813-4b3a-b512-fb78605269e7","ios":"levelo://app?vid=c4ed7000-d813-4b3a-b512-fb78605269e7"},"vehicle_type_id":"4","last_reported":1739959791,"current_range_meters":19200,"station_id":"ce4bh8p2rcd13ifvqeb0","pricing_plan_id":"cebpf4jnsgd1na2vs0mg"},{"bike_id":"0f119bb9-42f5-484d-a273-90a601312646","system_id":"levelo_inurba_marseille","lat":43.27072,"lon":5.42302,"is_reserved":false,"is_disabled":false,"rental_uris":{"android":"levelo://app?vid=0f119bb9-42f5-484d-a273-90a601312646","ios":"levelo://app?vid=0f119bb9-42f5-484d-a273-90a601312646"},"vehicle_type_id":"4","last_reported":1739959791,"current_range_meters":19200,"station_id":"ce4bhk92rcd13ifvqgb0","pricing_plan_id":"cebpf4jnsgd1na2vs0mg"},{"bike_id":"a6a4bd4c-5557-47c1-a8dd-81d465362acd","system_id":"levelo_inurba_marseille","lat":43.312408,"lon":5.368964,"is_reserved":false,"is_disabled":false,"rental_uris":{"android":"levelo://app?vid=a6a4bd4c-5557-47c1-a8dd-81d465362acd","ios":"levelo://app?vid=a6a4bd4c-5557-47c1-a8dd-81d465362acd"},"vehicle_type_id":"4","last_reported":1739959791,"current_range_meters":19200,"station_id":"ce4bgl92rcd13ifvqbq0","pricing_plan_id":"cebpf4jnsgd1na2vs0mg"},{"bike_id":"1566ad87-96fe-4cd6-b1ac-72fad266a438","system_id":"levelo_inurba_marseille","lat":43.30544,"lon":5.38431,"is_reserved":false,"is_disabled":false,"rental_uris":{"android":"levelo://app?vid=1566ad87-96fe-4cd6-b1ac-72fad266a438","ios":"levelo://app?vid=1566ad87-96fe-4cd6-b1ac-72fad266a438"},"vehicle_type_id":"4","last_reported":1739959791,"current_range_meters":19600,"station_id":"ce4bgg92rcd13ifvqb30","pricing_plan_id":"cebpf4jnsgd1na2vs0mg"},{"bike_id":"19cb1d70-d817-49ef-acc2-119dd085f543","system_id":"levelo_inurba_marseille","lat":43.30944,"lon":5.39025,"is_reserved":false,"is_disabled":false,"rental_uris":{"android":"levelo://app?vid=19cb1d70-d817-49ef-acc2-119dd085f543","ios":"levelo://app?vid=19cb1d70-d817-49ef-acc2-119dd085f543"},"vehicle_type_id":"4","last_reported":1739959791,"current_range_meters":19600,"station_id":"ce4bgup2rcd13ifvqco0","pricing_plan_id":"cebpf4jnsgd1na2vs0mg"},{"bike_id":"f2977fd8-466c-4012-ad1d-793d4943b17d","system_id":"levelo_inurba_marseille","lat":43.2849,"lon":5.38559,"is_reserved":false,"is_disabled":false,"rental_uris":{"android":"levelo://app?vid=f2977fd8-466c-4012-ad1d-793d4943b17d","ios":"levelo://app?vid=f2977fd8-466c-4012-ad1d-793d4943b17d"},"vehicle_type_id":"4","last_reported":1739959791,"current_range_meters":19600,"station_id":"ce4bh8p2rcd13ifvqeb0","pricing_plan_id":"cebpf4jnsgd1na2vs0mg"},{"bike_id":"5ad608a7-42b5-4e9b-a6a1-1474497683bf","system_id":"levelo_inurba_marseille","lat":43.27053,"lon":5.40266,"is_reserved":false,"is_disabled":false,"rental_uris":{"android":"levelo://app?vid=5ad608a7-42b5-4e9b-a6a1-1474497683bf","ios":"levelo://app?vid=5ad608a7-42b5-4e9b-a6a1-1474497683bf"},"vehicle_type_id":"4","last_reported":1739959791,"current_range_meters":19600,"station_id":"ce4bhk92rcd13ifvqgc0","pricing_plan_id":"cebpf4jnsgd1na2vs0mg"},{"bike_id":"feacb390-cfad-4e7f-834a-87e63195ccd1","system_id":"levelo_inurba_marseille","lat":43.28148,"lon":5.42654,"is_reserved":false,"is_disabled":false,"rental_uris":{"android":"levelo://app?vid=feacb390-cfad-4e7f-834a-87e63195ccd1","ios":"levelo://app?vid=feacb390-cfad-4e7f-834a-87e63195ccd1"},"vehicle_type_id":"4","last_reported":1739959791,"current_range_meters":19600,"station_id":"ce4bhnh2rcd13ifvqgug","pricing_plan_id":"cebpf4jnsgd1na2vs0mg"},{"bike_id":"af796aad-06de-4192-97f3-fae5ef96c238","system_id":"levelo_inurba_marseille","lat":43.3089,"lon":5.36846,"is_reserved":false,"is_disabled":false,"rental_uris":{"android":"levelo://app?vid=af796aad-06de-4192-97f3-fae5ef96c238","ios":"levelo://app?vid=af796aad-06de-4192-97f3-fae5ef96c238"},"vehicle_type_id":"4","last_reported":1739959791,"current_range_meters":19600,"station_id":"ce4bgn92rcd13ifvqbvg","pricing_plan_id":"cebpf4jnsgd1na2vs0mg"},{"bike_id":"3b142ec0-5d28-4d61-96c6-b4039df9831f","system_id":"levelo_inurba_marseille","lat":43.32391,"lon":5.36994,"is_reserved":false,"is_disabled":true,"rental_uris":{"android":"levelo://app?vid=3b142ec0-5d28-4d61-96c6-b4039df9831f","ios":"levelo://app?vid=3b142ec0-5d28-4d61-96c6-b4039df9831f"},"vehicle_type_id":"4","last_reported":1739959791,"current_range_meters":19600,"station_id":"","pricing_plan_id":"cebpf4jnsgd1na2vs0mg"},{"bike_id":"767f6015-5710-4ce3-8e2a-efdfb6f0116b","system_id":"levelo_inurba_marseille","lat":43.26547,"lon":5.37306,"is_reserved":false,"is_disabled":false,"rental_uris":{"android":"levelo://app?vid=767f6015-5710-4ce3-8e2a-efdfb6f0116b","ios":"levelo://app?vid=767f6015-5710-4ce3-8e2a-efdfb6f0116b"},"vehicle_type_id":"4","last_reported":1739959791,"current_range_meters":19600,"station_id":"ce4bhg12rcd13ifvqf70","pricing_plan_id":"cebpf4jnsgd1na2vs0mg"},{"bike_id":"e10ee805-00a4-49f3-8e0e-e563becf2bf8","system_id":"levelo_inurba_marseille","lat":43.298,"lon":5.38097,"is_reserved":false,"is_disabled":false,"rental_uris":{"android":"levelo://app?vid=e10ee805-00a4-49f3-8e0e-e563becf2bf8","ios":"levelo://app?vid=e10ee805-00a4-49f3-8e0e-e563becf2bf8"},"vehicle_type_id":"4","last_reported":1739959791,"current_range_meters":19600,"station_id":"ce4bgip2rcd13ifvqbb0","pricing_plan_id":"cebpf4jnsgd1na2vs0mg"},{"bike_id":"24b034ae-81d8-4b0e-9d7b-9309f18a47ae","system_id":"levelo_inurba_marseille","lat":43.29121,"lon":5.37194,"is_reserved":false,"is_disabled":false,"rental_uris":{"android":"levelo://app?vid=24b034ae-81d8-4b0e-9d7b-9309f18a47ae","ios":"levelo://app?vid=24b034ae-81d8-4b0e-9d7b-9309f18a47ae"},