{"last_updated":1728112110,"ttl":60,"version":"2.2","data":{"bikes":[{"bike_id":"7b5918c9-286b-4a5d-8c11-f495ad5c7f7a","system_id":"levelo_inurba_marseille","lat":43.30796,"lon":5.43517,"is_reserved":false,"is_disabled":false,"rental_uris":{"android":"levelo://app?vid=7b5918c9-286b-4a5d-8c11-f495ad5c7f7a","ios":"levelo://app?vid=7b5918c9-286b-4a5d-8c11-f495ad5c7f7a"},"vehicle_type_id":"4","last_reported":1728112110,"current_range_meters":8800,"station_id":"ce4bhph2rcd13ifvqheg","pricing_plan_id":"cebpf4jnsgd1na2vs0mg"},{"bike_id":"e4b84675-a2ef-4a08-972b-c8ccf50cd9f9","system_id":"levelo_inurba_marseille","lat":43.23204,"lon":5.40016,"is_reserved":false,"is_disabled":false,"rental_uris":{"android":"levelo://app?vid=e4b84675-a2ef-4a08-972b-c8ccf50cd9f9","ios":"levelo://app?vid=e4b84675-a2ef-4a08-972b-c8ccf50cd9f9"},"vehicle_type_id":"4","last_reported":1728112110,"current_range_meters":24000,"station_id":"ce4bhn12rcd13ifvqgqg","pricing_plan_id":"cebpf4jnsgd1na2vs0mg"},{"bike_id":"f08c1645-fa60-4c74-b75e-991b77bc2f70","system_id":"levelo_inurba_marseille","lat":43.29299,"lon":5.37463,"is_reserved":false,"is_disabled":false,"rental_uris":{"android":"levelo://app?vid=f08c1645-fa60-4c74-b75e-991b77bc2f70","ios":"levelo://app?vid=f08c1645-fa60-4c74-b75e-991b77bc2f70"},"vehicle_type_id":"4","last_reported":1728112110,"current_range_meters":10000,"station_id":"ce4bgi12rcd13ifvqb70","pricing_plan_id":"cebpf4jnsgd1na2vs0mg"},{"bike_id":"7244a60b-bd29-46a8-b6b6-1ba592f74ded","system_id":"levelo_inurba_marseille","lat":43.25113,"lon":5.40315,"is_reserved":false,"is_disabled":false,"rental_uris":{"android":"levelo://app?vid=7244a60b-bd29-46a8-b6b6-1ba592f74ded","ios":"levelo://app?vid=7244a60b-bd29-46a8-b6b6-1ba592f74ded"},"vehicle_type_id":"4","last_reported":1728112110,"current_range_meters":20400,"station_id":"ce4bhlh2rcd13ifvqgig","pricing_plan_id":"cebpf4jnsgd1na2vs0mg"},{"bike_id":"f4595530-d232-414f-97eb-1f8005c70977","system_id":"levelo_inurba_marseille","lat":43.32346,"lon":5.38909,"is_reserved":false,"is_disabled":false,"rental_uris":{"android":"levelo://app?vid=f4595530-d232-414f-97eb-1f8005c70977","ios":"levelo://app?vid=f4595530-d232-414f-97eb-1f8005c70977"},"vehicle_type_id":"4","last_reported":1728112110,"current_range_meters":38400,"station_id":"ce4bhqp2rcd13ifvqhog","pricing_plan_id":"cebpf4jnsgd1na2vs0mg"},{"bike_id":"526fef74-1129-4650-92d6-8537b2b448f3","system_id":"levelo_inurba_marseille","lat":43.31116,"lon":5.37765,"is_reserved":false,"is_disabled":false,"rental_uris":{"android":"levelo://app?vid=526fef74-1129-4650-92d6-8537b2b448f3","ios":"levelo://app?vid=526fef74-1129-4650-92d6-8537b2b448f3"},"vehicle_type_id":"4","last_reported":1728112110,"current_range_meters":27600,"station_id":"ce4bgt92rcd13ifvqcg0","pricing_plan_id":"cebpf4jnsgd1na2vs0mg"},{"bike_id":"fc4cd310-d92c-4df7-a20f-bde8894c63db","system_id":"levelo_inurba_marseille","lat":43.25122,"lon":5.40331,"is_reserved":false,"is_disabled":false,"rental_uris":{"android":"levelo://app?vid=fc4cd310-d92c-4df7-a20f-bde8894c63db","ios":"levelo://app?vid=fc4cd310-d92c-4df7-a20f-bde8894c63db"},"vehicle_type_id":"4","last_reported":1728112110,"current_range_meters":3600,"station_id":"ce4bhlh2rcd13ifvqgig","pricing_plan_id":"cebpf4jnsgd1na2vs0mg"},{"bike_id":"4286a9ee-5432-43ae-b74b-d2672a11fe7f","system_id":"levelo_inurba_marseille","lat":43.25855,"lon":5.39901,"is_reserved":false,"is_disabled":false,"rental_uris":{"android":"levelo://app?vid=4286a9ee-5432-43ae-b74b-d2672a11fe7f","ios":"levelo://app?vid=4286a9ee-5432-43ae-b74b-d2672a11fe7f"},"vehicle_type_id":"4","last_reported":1728112110,"current_range_meters":27200,"station_id":"ce4bhl92rcd13ifvqghg","pricing_plan_id":"cebpf4jnsgd1na2vs0mg"},{"bike_id":"a56c66a8-2c2c-450d-99ae-17d6eaa42433","system_id":"levelo_inurba_marseille","lat":43.2439,"lon":5.37062,"is_reserved":false,"is_disabled":false,"rental_uris":{"android":"levelo://app?vid=a56c66a8-2c2c-450d-99ae-17d6eaa42433","ios":"levelo://app?vid=a56c66a8-2c2c-450d-99ae-17d6eaa42433"},"vehicle_type_id":"4","last_reported":1728112110,"current_range_meters":38000,"station_id":"ce4bhhh2rcd13ifvqfk0","pricing_plan_id":"cebpf4jnsgd1na2vs0mg"},{"bike_id":"40fa03b7-66ea-4ec1-9bdc-41ec2b95b381","system_id":"levelo_inurba_marseille","lat":43.31093,"lon":5.42437,"is_reserved":false,"is_disabled":false,"rental_uris":{"android":"levelo://app?vid=40fa03b7-66ea-4ec1-9bdc-41ec2b95b381","ios":"levelo://app?vid=40fa03b7-66ea-4ec1-9bdc-41ec2b95b381"},"vehicle_type_id":"4","last_reported":1728112110,"current_range_meters":14400,"station_id":"ce4bhp92rcd13ifvqhag","pricing_plan_id":"cebpf4jnsgd1na2vs0mg"},{"bike_id":"0ab31a2b-100e-46ba-8518-e3de7fc7122e","system_id":"levelo_inurba_marseille","lat":43.33754,"lon":5.37439,"is_reserved":false,"is_disabled":false,"rental_uris":{"android":"levelo://app?vid=0ab31a2b-100e-46ba-8518-e3de7fc7122e","ios":"levelo://app?vid=0ab31a2b-100e-46ba-8518-e3de7fc7122e"},"vehicle_type_id":"4","last_reported":1728112110,"current_range_meters":33200,"station_id":"","pricing_plan_id":"cebpf4jnsgd1na2vs0mg"},{"bike_id":"74c7d066-3397-4384-9159-7995f69e0cb0","system_id":"levelo_inurba_marseille","lat":43.25844,"lon":5.39861,"is_reserved":false,"is_disabled":false,"rental_uris":{"android":"levelo://app?vid=74c7d066-3397-4384-9159-7995f69e0cb0","ios":"levelo://app?vid=74c7d066-3397-4384-9159-7995f69e0cb0"},"vehicle_type_id":"4","last_reported":1728112110,"current_range_meters":7200,"station_id":"ce4bhl92rcd13ifvqghg","pricing_plan_id":"cebpf4jnsgd1na2vs0mg"},{"bike_id":"756088e4-bd38-4606-aa6f-cbbf1461af00","system_id":"levelo_inurba_marseille","lat":43.22936,"lon":5.35379,"is_reserved":false,"is_disabled":false,"rental_uris":{"android":"levelo://app?vid=756088e4-bd38-4606-aa6f-cbbf1461af00","ios":"levelo://app?vid=756088e4-bd38-4606-aa6f-cbbf1461af00"},"vehicle_type_id":"4","last_reported":1728112110,"current_range_meters":8400,"station_id":"cpo3532slgdg3j2ikp40","pricing_plan_id":"cebpf4jnsgd1na2vs0mg"},{"bike_id":"8faccf64-4b91-42f6-9a93-1bed72b6887a","system_id":"levelo_inurba_marseille","lat":43.29796,"lon":5.38058,"is_reserved":false,"is_disabled":false,"rental_uris":{"android":"levelo://app?vid=8faccf64-4b91-42f6-9a93-1bed72b6887a","ios":"levelo://app?vid=8faccf64-4b91-42f6-9a93-1bed72b6887a"},"vehicle_type_id":"4","last_reported":1728112110,"current_range_meters":35200,"station_id":"ce4bgip2rcd13ifvqbb0","pricing_plan_id":"cebpf4jnsgd1na2vs0mg"},{"bike_id":"469e4615-69fd-4f50-ab75-3a5649cbabf7","system_id":"levelo_inurba_marseille","lat":43.308,"lon":5.43524,"is_reserved":false,"is_disabled":false,"rental_uris":{"android":"levelo://app?vid=469e4615-69fd-4f50-ab75-3a5649cbabf7","ios":"levelo://app?vid=469e4615-69fd-4f50-ab75-3a5649cbabf7"},"vehicle_type_id":"4","last_reported":1728112110,"current_range_meters":7200,"station_id":"ce4bhph2rcd13ifvqheg","pricing_plan_id":"cebpf4jnsgd1na2vs0mg"},{"bike_id":"b8fd588e-62e7-45fd-a6b3-489e40bd5ea0","system_id":"levelo_inurba_marseille","lat":43.29048,"lon":5.3591,"is_reserved":false,"is_disabled":false,"rental_uris":{"android":"levelo://app?vid=b8fd588e-62e7-45fd-a6b3-489e40bd5ea0","ios":"levelo://app?vid=b8fd588e-62e7-45fd-a6b3-489e40bd5ea0"},"vehicle_type_id":"4","last_reported":1728112110,"current_range_meters":33200,"station_id":"ce4bha92rcd13ifvqeg0","pricing_plan_id":"cebpf4jnsgd1na2vs0mg"},{"bike_id":"4ec9b8ee-f818-4917-8470-7517e62e9ff3","system_id":"levelo_inurba_marseille","lat":43.30455,"lon":5.37905,"is_reserved":false,"is_disabled":false,"rental_uris":{"android":"levelo://app?vid=4ec9b8ee-f818-4917-8470-7517e62e9ff3","ios":"levelo://app?vid=4ec9b8ee-f818-4917-8470-7517e62e9ff3"},"vehicle_type_id":"4","last_reported":1728112110,"current_range_meters":16800,"station_id":"ce4bgup2rcd13ifvqcn0","pricing_plan_id":"cebpf4jnsgd1na2vs0mg"},{"bike_id":"b533c485-8de5-4435-9b8a-7bede3d5f21f","system_id":"levelo_inurba_marseille","lat":43.31112,"lon":5.37753,"is_reserved":false,"is_disabled":false,"rental_uris":{"android":"levelo://app?vid=b533c485-8de5-4435-9b8a-7bede3d5f21f","ios":"levelo://app?vid=b533c485-8de5-4435-9b8a-7bede3d5f21f"},"vehicle_type_id":"4","last_reported":1728112110,"current_range_meters":38000,"station_id":"ce4bgt92rcd13ifvqcg0","pricing_plan_id":"cebpf4jnsgd1na2vs0mg"},{"bike_id":"b781b559-2d2c-4659-9984-837493ba32e5","system_id":"levelo_inurba_marseille","lat":43.30164,"lon":5.38083,"is_reserved":false,"is_disabled":false,"rental_uris":{"android":"levelo://app?vid=b781b559-2d2c-4659-9984-837493ba32e5","ios":"levelo://app?vid=b781b559-2d2c-4659-9984-837493ba32e5"},"vehicle_type_id":"4","last_reported":1728112110,"current_range_meters":32400,"station_id":"ce4bgjp2rcd13ifvqbh0","pricing_plan_id":"cebpf4jnsgd1na2vs0mg"},{"bike_id":"4baa9b83-4430-4f18-814e-ddb2add7d50a","system_id":"levelo_inurba_marseille","lat":43.30928,"lon":5.4014,"is_reserved":false,"is_disabled":false,"rental_uris":{"android":"levelo://app?vid=4baa9b83-4430-4f18-814e-ddb2add7d50a","ios":"levelo://app?vid=4baa9b83-4430-4f18-814e-ddb2add7d50a"},"vehicle_type_id":"4","last_reported":1728112110,"current_range_meters":38800,"station_id":"ce4bgvp2rcd13ifvqct0","pricing_plan_id":"cebpf4jnsgd1na2vs0mg"},{"bike_id":"e39b807b-bfe7-4b93-b866-2504a0411880","system_id":"levelo_inurba_marseille","lat":43.28722,"lon":5.37937,"is_reserved":false,"is_disabled":false,"rental_uris":{"android":"levelo://app?vid=e39b807b-bfe7-4b93-b866-2504a0411880","ios":"levelo://app?vid=e39b807b-bfe7-4b93-b866-2504a0411880"},"vehicle_type_id":"4","last_reported":1728112110,"current_range_meters":35200,"station_id":"ce4bh9p2rcd13ifvqec0","pricing_plan_id":"cebpf4jnsgd1na2vs0mg"},{"bike_id":"2a9c42b4-04e7-40b1-80e3-f8e1a226caa6","system_id":"levelo_inurba_marseille","lat":43.31679,"lon":5.40465,"is_reserved":false,"is_disabled":false,"rental_uris":{"android":"levelo://app?vid=2a9c42b4-04e7-40b1-80e3-f8e1a226caa6","ios":"levelo://app?vid=2a9c42b4-04e7-40b1-80e3-f8e1a226caa6"},"vehicle_type_id":"4","last_reported":1728112110,"current_range_meters":24800,"station_id":"ce4bh012rcd13ifvqd00","pricing_plan_id":"cebpf4jnsgd1na2vs0mg"},{"bike_id":"e5a282ac-f003-4b24-85f3-6a97a2c39269","system_id":"levelo_inurba_marseille","lat":43.31486,"lon":5.37293,"is_reserved":false,"is_disabled":false,"rental_uris":{"android":"levelo://app?vid=e5a282ac-f003-4b24-85f3-6a97a2c39269","ios":"levelo://app?vid=e5a282ac-f003-4b24-85f3-6a97a2c39269"},"vehicle_type_id":"4","last_reported":1728112110,"current_range_meters":38000,"station_id":"ce4bgt12rcd13ifvqcd0","pricing_plan_id":"cebpf4jnsgd1na2vs0mg"},{"bike_id":"37042c1b-99f0-4379-a7d0-0b6867cdb669","system_id":"levelo_inurba_marseille","lat":43.2317,"lon":5.39978,"is_reserved":false,"is_disabled":false,"rental_uris":{"android":"levelo://app?vid=37042c1b-99f0-4379-a7d0-0b6867cdb669","ios":"levelo://app?vid=37042c1b-99f0-4379-a7d0-0b6867cdb669"},"vehicle_type_id":"4","last_reported":1728112110,"current_range_meters":37600,"station_id":"ce4bhn12rcd13ifvqgqg","pricing_plan_id":"cebpf4jnsgd1na2vs0mg"},{"bike_id":"3ce484e3-191e-4ae8-9e88-8439e7d61e7f","system_id":"levelo_inurba_marseille","lat":43.27202,"lon":5.39178,"is_reserved":false,"is_disabled":false,"rental_uris":{"android":"levelo://app?vid=3ce484e3-191e-4ae8-9e88-8439e7d61e7f","ios":"levelo://app?vid=3ce484e3-191e-4ae8-9e88-8439e7d61e7f"},"vehicle_type_id":"4","last_reported":1728112110,"current_range_meters":38800,"station_id":"ce4bhhp2rcd13ifvqfm0","pricing_plan_id":"cebpf4jnsgd1na2vs0mg"},{"bike_id":"54bdf2b3-276c-4120-9669-e4f33b6b5914","system_id":"levelo_inurba_marseille","lat":43.28408,"lon":5.34975,"is_reserved":false,"is_disabled":false,"rental_uris":{"android":"levelo://app?vid=54bdf2b3-276c-4120-9669-e4f33b6b5914","ios":"levelo://app?vid=54bdf2b3-276c-4120-9669-e4f33b6b5914"},"vehicle_type_id":"4","last_reported":1728112110,"current_range_meters":38800,"station_id":"ce4bhbh2rcd13ifvqepg","pricing_plan_id":"cebpf4jnsgd1na2vs0mg"},{"bike_id":"59cb6c7c-acd7-49cc-a41a-3dd61ffa8aba","system_id":"levelo_inurba_marseille","lat":43.30539,"lon":5.38425,"is_reserved":false,"is_disabled":false,"rental_uris":{"android":"levelo://app?vid=59cb6c7c-acd7-49cc-a41a-3dd61ffa8aba","ios":"levelo://app?vid=59cb6c7c-acd7-49cc-a41a-3dd61ffa8aba"},"vehicle_type_id":"4","last_reported":1728112110,"current_range_meters":15200,"station_id":"ce4bgg92rcd13ifvqb30","pricing_plan_id":"cebpf4jnsgd1na2vs0mg"},{"bike_id":"2d896952-6ff6-494b-a49d-54b8317b93b6","system_id":"levelo_inurba_marseille","lat":43.27832,"lon":5.39207,"is_reserved":false,"is_disabled":false,"rental_uris":{"android":"levelo://app?vid=2d896952-6ff6-494b-a49d-54b8317b93b6","ios":"levelo://app?vid=2d896952-6ff6-494b-a49d-54b8317b93b6"},"vehicle_type_id":"4","last_reported":1728112110,"current_range_meters":18000,"station_id":"ce4bhjp2rcd13ifvqga0","pricing_plan_id":"cebpf4jnsgd1na2vs0mg"},{"bike_id":"0dc8198c-8784-429a-9654-bc3e6d0ff90b","system_id":"levelo_inurba_marseille","lat":43.23958,"lon":5.36636,"is_reserved":false,"is_disabled":false,"rental_uris":{"android":"levelo://app?vid=0dc8198c-8784-429a-9654-bc3e6d0ff90b","ios":"levelo://app?vid=0dc8198c-8784-429a-9654-bc3e6d0ff90b"},"vehicle_type_id":"4","last_reported":1728112110,"current_range_meters":17600,"station_id":"ce4bhi12rcd13ifvqfp0","pricing_plan_id":"cebpf4jnsgd1na2vs0mg"},{"bike_id":"63c8fa7d-6106-4fec-a19a-c06be543e12d","system_id":"levelo_inurba_marseille","lat":43.29055,"lon":5.35901,"is_reserved":false,"is_disabled":false,"rental_uris":{"android":"levelo://app?vid=63c8fa7d-6106-4fec-a19a-c06be543e12d","ios":"levelo://app?vid=63c8fa7d-6106-4fec-a19a-c06be543e12d"},"vehicle_type_id":"4","last_reported":1728112110,"current_range_meters":13600,"station_id":"ce4bha92rcd13ifvqeg0","pricing_plan_id":"cebpf4jnsgd1na2vs0mg"},{"bike_id":"c68cc33a-4a9b-4083-b265-cd063174559a","system_id":"levelo_inurba_marseille","lat":43.28457,"lon":5.35889,"is_reserved":false,"is_disabled":false,"rental_uris":{"android":"levelo://app?vid=c68cc33a-4a9b-4083-b265-cd063174559a","ios":"levelo://app?vid=c68cc33a-4a9b-4083-b265-cd063174559a"},"vehicle_type_id":"4","last_reported":1728112110,"current_range_meters":40000,"station_id":"ce4bhah2rcd13ifvqei0","pricing_plan_id":"cebpf4jnsgd1na2vs0mg"},{"bike_id":"5a484b9f-0ab5-40c4-af5c-dba35c9c07cb","system_id":"levelo_inurba_marseille","lat":43.30336,"lon":5.40462,"is_reserved":false,"is_disabled":false,"rental_uris":{"android":"levelo://app?vid=5a484b9f-0ab5-40c4-af5c-dba35c9c07cb","ios":"levelo://app?vid=5a484b9f-0ab5-40c4-af5c-dba35c9c07cb"},"vehicle_type_id":"4","last_reported":1728112110,"current_range_meters":7200,"station_id":"ce4bh012rcd13ifvqd10","pricing_plan_id":"cebpf4jnsgd1na2vs0mg"},{"bike_id":"69b2ab72-6eb7-403d-85c7-be72aa2ab82b","system_id":"levelo_inurba_marseille","lat":43.30078,"lon":5.40005,"is_reserved":false,"is_disabled":false,"rental_uris":{"android":"levelo://app?vid=69b2ab72-6eb7-403d-85c7-be72aa2ab82b","ios":"levelo://app?vid=69b2ab72-6eb7-403d-85c7-be72aa2ab82b"},"vehicle_type_id":"4","last_reported":1728112110,"current_range_meters":18800,"station_id":"","pricing_plan_id":"cebpf4jnsgd1na2vs0mg"},{"bike_id":"d4946c27-dd1b-43ff-95a6-3bd5fbdf2a88","system_id":"levelo_inurba_marseille","lat":43.295746,"lon":5.375692,"is_reserved":false,"is_disabled":false,"rental_uris":{"android":"levelo://app?vid=d4946c27-dd1b-43ff-95a6-3bd5fbdf2a88","ios":"levelo://app?vid=d4946c27-dd1b-43ff-95a6-3bd5fbdf2a88"},"vehicle_type_id":"4","last_reported":1728112110,"current_range_meters":34000,"station_id":"","pricing_plan_id":"cebpf4jnsgd1na2vs0mg"},{"bike_id":"f82688bf-f42b-4445-b1a3-a8eafaa90405","system_id":"levelo_inurba_marseille","lat":43.26943,"lon":5.40252,"is_reserved":false,"is_disabled":false,"rental_uris":{"android":"levelo://app?vid=f82688bf-f42b-4445-b1a3-a8eafaa90405","ios":"levelo://app?vid=f82688bf-f42b-4445-b1a3-a8eafaa90405"},"vehicle_type_id":"4","last_reported":1728112110,"current_range_meters":38800,"station_id":"ce4bhih2rcd13ifvqfs0","pricing_plan_id":"cebpf4jnsgd1na2vs0mg"},{"bike_id":"73a24e0e-e6db-43a8-bdc3-253983d48aa8","system_id":"levelo_inurba_marseille","lat":43.25577,"lon":5.38231,"is_reserved":false,"is_disabled":false,"rental_uris":{"android":"levelo://app?vid=73a24e0e-e6db-43a8-bdc3-253983d48aa8","ios":"levelo://app?vid=73a24e0e-e6db-43a8-bdc3-253983d48aa8"},"vehicle_type_id":"4","last_reported":1728112110,"current_range_meters":38400,"station_id":"ce4bhih2rcd13ifvqfs0","pricing_plan_id":"cebpf4jnsgd1na2vs0mg"},{"bike_id":"2ee470a2-f6fc-41c4-9ed0-be15e787887a","system_id":"levelo_inurba_marseille","lat":43.23968,"lon":5.36637,"is_reserved":false,"is_disabled":false,"rental_uris":{"android":"levelo://app?vid=2ee470a2-f6fc-41c4-9ed0-be15e787887a","ios":"levelo://app?vid=2ee470a2-f6fc-41c4-9ed0-be15e787887a"},"vehicle_type_id":"4","last_reported":1728112110,"current_range_meters":40000,"station_id":"ce4bhi12rcd13ifvqfp0","pricing_plan_id":"cebpf4jnsgd1na2vs0mg"},{"bike_id":"a9cd8ef9-5de1-41de-9136-7414b29e70d3","system_id":"levelo_inurba_marseille","lat":43.30925,"lon":5.40146,"is_reserved":false,"is_disabled":false,"rental_uris":{"android":"levelo://app?vid=a9cd8ef9-5de1-41de-9136-7414b29e70d3","ios":"levelo://app?vid=a9cd8ef9-5de1-41de-9136-7414b29e70d3"},"vehicle_type_id":"4","last_reported":1728112110,"current_range_meters":38800,"station_id":"ce4bgvp2rcd13ifvqct0","pricing_plan_id":"cebpf4jnsgd1na2vs0mg"},{"bike_id":"4782596d-3e6e-4437-8d44-1e1923d90165","system_id":"levelo_inurba_marseille","lat":43.31114,"lon":5.37769,"is_reserved":false,"is_disabled":false,"rental_uris":{"android":"levelo://app?vid=4782596d-3e6e-4437-8d44-1e1923d90165","ios":"levelo://app?vid=4782596d-3e6e-4437-8d44-1e1923d90165"},"vehicle_type_id":"4","last_reported":1728112110,"current_range_meters":36400,"station_id":"ce4bgt92rcd13ifvqcg0","pricing_plan_id":"cebpf4jnsgd1na2vs0mg"},{"bike_id":"e6b2df58-b4a0-4aec-933d-a62e42f34d34","system_id":"levelo_inurba_marseille","lat":43.33718,"lon":5.39194,"is_reserved":false,"is_disabled":false,"rental_uris":{"android":"levelo://app?vid=e6b2df58-b4a0-4aec-933d-a62e42f34d34","ios":"levelo://app?vid=e6b2df58-b4a0-4aec-933d-a62e42f34d34"},"vehicle_type_id":"4","last_reported":1728112110,"current_range_meters":14800,"station_id":"ce4bhr92rcd13ifvqhsg","pricing_plan_id":"cebpf4jnsgd1na2vs0mg"},{"bike_id":"76273702-041e-4fe2-98a9-e567e023d0e0","system_id":"levelo_inurba_marseille","lat":43.30082,"lon":5.39081,"is_reserved":false,"is_disabled":false,"rental_uris":{"android":"levelo://app?vid=76273702-041e-4fe2-98a9-e567e023d0e0","ios":"levelo://app?vid=76273702-041e-4fe2-98a9-e567e023d0e0"},"vehicle_type_id":"4","last_reported":1728112110,"current_range_meters":34000,"station_id":"ce4bh192rcd13ifvqdb0","pricing_plan_id":"cebpf4jnsgd1na2vs0mg"},{"bike_id":"1622c62b-20ed-43b2-a8d0-b02098367a11","system_id":"levelo_inurba_marseille","lat":43.26202,"lon":5.37937,"is_reserved":false,"is_disabled":false,"rental_uris":{"android":"levelo://app?vid=1622c62b-20ed-43b2-a8d0-b02098367a11","ios":"levelo://app?vid=1622c62b-20ed-43b2-a8d0-b02098367a11"},"vehicle_type_id":"4","last_reported":1728112110,"current_range_meters":38000,"station_id":"ce4bhjp2rcd13ifvqg90","pricing_plan_id":"cebpf4jnsgd1na2vs0mg"},{"bike_id":"d77938b7-ff1e-465c-a8b9-4b07085a5cc9","system_id":"levelo_inurba_marseille","lat":43.23062,"lon":5.35488,"is_reserved":false,"is_disabled":false,"rental_uris":{"android":"levelo://app?vid=d77938b7-ff1e-465c-a8b9-4b07085a5cc9","ios":"levelo://app?vid=d77938b7-ff1e-465c-a8b9-4b07085a5cc9"},"vehicle_type_id":"4","last_reported":1728112110,"current_range_meters":14000,"station_id":"cpo3342slgdg3j2ifvpg","pricing_plan_id":"cebpf4jnsgd1na2vs0mg"},{"bike_id":"852457a1-813f-46b8-bb13-232384e208e9","system_id":"levelo_inurba_marseille","lat":43.3377,"lon":5.37441,"is_reserved":false,"is_disabled":false,"rental_uris":{"android":"levelo://app?vid=852457a1-813f-46b8-bb13-232384e208e9","ios":"levelo://app?vid=852457a1-813f-46b8-bb13-232384e208e9"},"vehicle_type_id":"4","last_reported":1728112110,"current_range_meters":35200,"station_id":"","pricing_plan_id":"cebpf4jnsgd1na2vs0mg"},{"bike_id":"0d79ef91-e03a-4511-b960-a6f350f28d65","system_id":"levelo_inurba_marseille","lat":43.23062,"lon":5.35491,"is_reserved":false,"is_disabled":false,"rental_uris":{"android":"levelo://app?vid=0d79ef91-e03a-4511-b960-a6f350f28d65","ios":"levelo://app?vid=0d79ef91-e03a-4511-b960-a6f350f28d65"},"vehicle_type_id":"4","last_reported":1728112110,"current_range_meters":20800,"station_id":"cpo3342slgdg3j2ifvpg","pricing_plan_id":"cebpf4jnsgd1na2vs0mg"},{"bike_id":"1cb4a8d6-c871-4d09-bd39-77cd7e09191c","system_id":"levelo_inurba_marseille","lat":43.323352,"lon":5.406285,"is_reserved":false,"is_disabled":false,"rental_uris":{"android":"levelo://app?vid=1cb4a8d6-c871-4d09-bd39-77cd7e09191c","ios":"levelo://app?vid=1cb4a8d6-c871-4d09-bd39-77cd7e09191c"},"vehicle_type_id":"4","last_reported":1728112110,"current_range_meters":4800,"station_id":"ce4bhq92rcd13ifvqhjg","pricing_plan_id":"cebpf4jnsgd1na2vs0mg"},{"bike_id":"9b18cf93-c198-45f5-b6a7-cf89d02d2117","system_id":"levelo_inurba_marseille","lat":43.28265,"lon":5.35061,"is_reserved":false,"is_disabled":false,"rental_uris":{"android":"levelo://app?vid=9b18cf93-c198-45f5-b6a7-cf89d02d2117","ios":"levelo://app?vid=9b18cf93-c198-45f5-b6a7-cf89d02d2117"},"vehicle_type_id":"4","last_reported":1728112110,"current_range_meters":16400,"station_id":"ce4bhbp2rcd13ifvqerg","pricing_plan_id":"cebpf4jnsgd1na2vs0mg"},{"bike_id":"2872d4cc-9922-4c18-8d4d-312fe4d7c35b","system_id":"levelo_inurba_marseille","lat":43.31529,"lon":5.38032,"is_reserved":false,"is_disabled":false,"rental_uris":{"android":"levelo://app?vid=2872d4cc-9922-4c18-8d4d-312fe4d7c35b","ios":"levelo://app?vid=2872d4cc-9922-4c18-8d4d-312fe4d7c35b"},"vehicle_type_id":"4","last_reported":1728112110,"current_range_meters":36800,"station_id":"ce4bhsp2rcd13ifvqi50","pricing_plan_id":"cebpf4jnsgd1na2vs0mg"},{"bike_id":"e5eec57e-9b0f-4559-b4c4-8a0dc3855cc7","system_id":"levelo_inurba_marseille","lat":43.27376,"lon":5.3626,"is_reserved":false,"is_disabled":false,"rental_uris":{"android":"levelo://app?vid=e5eec57e-9b0f-4559-b4c4-8a0dc3855cc7","ios":"levelo://app?vid=e5eec57e-9b0f-4559-b4c4-8a0dc3855cc7"},"vehicle_type_id":"4","last_reported":1728112110,"current_range_meters":35200,"station_id":"ce4bhbh2rcd13ifvqeo0","pricing_plan_id":"cebpf4jnsgd1na2vs0mg"},{"bike_id":"54d09a39-e79d-434c-8a05-a8f2660c6a94","system_id":"levelo_inurba_marseille","lat":43.29902,"lon":5.43673,"is_reserved":false,"is_disabled":false,"rental_uris":{"android":"levelo://app?vid=54d09a39-e79d-434c-8a05-a8f2660c6a94","ios":"levelo://app?vid=54d09a39-e79d-434c-8a05-a8f2660c6a94"},"vehicle_type_id":"4","last_reported":1728112110,"current_range_meters":12400,"station_id":"ce4bhpp2rcd13ifvqhfg","pricing_plan_id":"cebpf4jnsgd1na2vs0mg"},{"bike_id":"e88589c2-9daf-4f7c-9d5a-36ecf8f63f21","system_id":"levelo_inurba_marseille","lat":43.3266,"lon":5.40983,"is_reserved":false,"is_disabled":false,"rental_uris":{"android":"levelo://app?vid=e88589c2-9daf-4f7c-9d5a-36ecf8f63f21","ios":"levelo://app?vid=e88589c2-9daf-4f7c-9d5a-36ecf8f63f21"},"vehicle_type_id":"4","last_reported":1728112110,"current_range_meters":38000,"station_id":"ce4bhpp2rcd13ifvqhgg","pricing_plan_id":"cebpf4jnsgd1na2vs0mg"},{"bike_id":"2f6471d4-b16d-44e6-92e3-eb26e2526693","system_id":"levelo_inurba_marseille","lat":43.28411,"lon":5.37511,"is_reserved":false,"is_disabled":false,"rental_uris":{"android":"levelo://app?vid=2f6471d4-b16d-44e6-92e3-eb26e2526693","ios":"levelo://app?vid=2f6471d4-b16d-44e6-92e3-eb26e2526693"},"vehicle_type_id":"4","last_reported":1728112110,"current_range_meters":27200,"station_id":"ce4bh412rcd13ifvqds0","pricing_plan_id":"cebpf4jnsgd1na2vs0mg"},{"bike_id":"e58cd69b-6df5-4dfd-9113-9904cf6e07c3","system_id":"levelo_inurba_marseille","lat":43.24388,"lon":5.37059,"is_reserved":false,"is_disabled":false,"rental_uris":{"android":"levelo://app?vid=e58cd69b-6df5-4dfd-9113-9904cf6e07c3","ios":"levelo://app?vid=e58cd69b-6df5-4dfd-9113-9904cf6e07c3"},"vehicle_type_id":"4","last_reported":1728112110,"current_range_meters":31200,"station_id":"ce4bhhh2rcd13ifvqfk0","pricing_plan_id":"cebpf4jnsgd1na2vs0mg"},{"bike_id":"c6a4d201-b40f-4e73-bde2-eef6682d2234","system_id":"levelo_inurba_marseille","lat":43.30139,"lon":5.38072,"is_reserved":false,"is_disabled":false,"rental_uris":{"android":"levelo://app?vid=c6a4d201-b40f-4e73-bde2-eef6682d2234","ios":"levelo://app?vid=c6a4d201-b40f-4e73-bde2-eef6682d2234"},"vehicle_type_id":"4","last_reported":1728112110,"current_range_meters":36000,"station_id":"ce4bgjp2rcd13ifvqbh0","pricing_plan_id":"cebpf4jnsgd1na2vs0mg"},{"bike_id":"a2757abc-4224-428a-a673-690954ea5d2d","system_id":"levelo_inurba_marseille","lat":43.25005,"lon":5.38196,"is_reserved":false,"is_disabled":false,"rental_uris":{"android":"levelo://app?vid=a2757abc-4224-428a-a673-690954ea5d2d","ios":"levelo://app?vid=a2757abc-4224-428a-a673-690954ea5d2d"},"vehicle_type_id":"4","last_reported":1728112110,"current_range_meters":22800,"station_id":"","pricing_plan_id":"cebpf4jnsgd1na2vs0mg"},{"bike_id":"736a6f16-ccc5-431e-994b-d1593733f6ed","system_id":"levelo_inurba_marseille","lat":43.30788,"lon":5.3765,"is_reserved":false,"is_disabled":false,"rental_uris":{"android":"levelo://app?vid=736a6f16-ccc5-431e-994b-d1593733f6ed","ios":"levelo://app?vid=736a6f16-ccc5-431e-994b-d1593733f6ed"},"vehicle_type_id":"4","last_reported":1728112110,"current_range_meters":4400,"station_id":"ce4bgv92rcd13ifvqcq0","pricing_plan_id":"cebpf4jnsgd1na2vs0mg"},{"bike_id":"308ae973-a71c-45c1-9a03-b73643f01e25","system_id":"levelo_inurba_marseille","lat":43.3171,"lon":5.43706,"is_reserved":false,"is_disabled":false,"rental_uris":{"android":"levelo://app?vid=308ae973-a71c-45c1-9a03-b73643f01e25","ios":"levelo://app?vid=308ae973-a71c-45c1-9a03-b73643f01e25"},"vehicle_type_id":"4","last_reported":1728112110,"current_range_meters":24400,"station_id":"ce4bhp92rcd13ifvqhcg","pricing_plan_id":"cebpf4jnsgd1na2vs0mg"},{"bike_id":"3ab35772-ab98-4e0e-bb77-b34f7802889b","system_id":"levelo_inurba_marseille","lat":43.25113,"lon":5.4032,"is_reserved":false,"is_disabled":false,"rental_uris":{"android":"levelo://app?vid=3ab35772-ab98-4e0e-bb77-b34f7802889b","ios":"levelo://app?vid=3ab35772-ab98-4e0e-bb77-b34f7802889b"},"vehicle_type_id":"4","last_reported":1728112110,"current_range_meters":24800,"station_id":"ce4bhlh2rcd13ifvqgig","pricing_plan_id":"cebpf4jnsgd1na2vs0mg"},{"bike_id":"1cae8565-318d-421a-b85c-05410ceb9c3f","system_id":"levelo_inurba_marseille","lat":43.25932,"lon":5.40907,"is_reserved":false,"is_disabled":false,"rental_uris":{"android":"levelo://app?vid=1cae8565-318d-421a-b85c-05410ceb9c3f","ios":"levelo://app?vid=1cae8565-318d-421a-b85c-05410ceb9c3f"},"vehicle_type_id":"4","last_reported":1728112110,"current_range_meters":36800,"station_id":"ce4bhm92rcd13ifvqglg","pricing_plan_id":"cebpf4jnsgd1na2vs0mg"},{"bike_id":"0ba4bc15-e352-4dab-af47-0c05f9f898df","system_id":"levelo_inurba_marseille","lat":43.28145,"lon":5.42648,"is_reserved":false,"is_disabled":false,"rental_uris":{"android":"levelo://app?vid=0ba4bc15-e352-4dab-af47-0c05f9f898df","ios":"levelo://app?vid=0ba4bc15-e352-4dab-af47-0c05f9f898df"},"vehicle_type_id":"4","last_reported":1728112110,"current_range_meters":38800,"station_id":"ce4bhnh2rcd13ifvqgug","pricing_plan_id":"cebpf4jnsgd1na2vs0mg"},{"bike_id":"07eefe98-c43d-44fa-94fc-f276eab1ed35","system_id":"levelo_inurba_marseille","lat":43.28101,"lon":5.37828,"is_reserved":false,"is_disabled":false,"rental_uris":{"android":"levelo://app?vid=07eefe98-c43d-44fa-94fc-f276eab1ed35","ios":"levelo://app?vid=07eefe98-c43d-44fa-94fc-f276eab1ed35"},"vehicle_type_id":"4","last_reported":1728112110,"current_range_meters":9200,"station_id":"ce4bha12rcd13ifvqee0","pricing_plan_id":"cebpf4jnsgd1na2vs0mg"},{"bike_id":"e6bca4b3-499d-4074-a83e-a532736363d4","system_id":"levelo_inurba_marseille","lat":43.31162,"lon":5.38695,"is_reserved":false,"is_disabled":false,"rental_uris":{"android":"levelo://app?vid=e6bca4b3-499d-4074-a83e-a532736363d4","ios":"levelo://app?vid=e6bca4b3-499d-4074-a83e-a532736363d4"},"vehicle_type_id":"4","last_reported":1728112110,"current_range_meters":33600,"station_id":"ce4bgv12rcd13ifvqcp0","pricing_plan_id":"cebpf4jnsgd1na2vs0mg"},{"bike_id":"015abb97-0f96-4260-bfde-c551e4a1363b","system_id":"levelo_inurba_marseille","lat":43.31165,"lon":5.38707,"is_reserved":false,"is_disabled":false,"rental_uris":{"android":"levelo://app?vid=015abb97-0f96-4260-bfde-c551e4a1363b","ios":"levelo://app?vid=015abb97-0f96-4260-bfde-c551e4a1363b"},"vehicle_type_id":"4","last_reported":1728112110,"current_range_meters":40000,"station_id":"ce4bgv12rcd13ifvqcp0","pricing_plan_id":"cebpf4jnsgd1na2vs0mg"},{"bike_id":"bf214ee5-bcc3-48ed-b2c5-a945b0468078","system_id":"levelo_inurba_marseille","lat":43.24642,"lon":5.38898,"is_reserved":false,"is_disabled":false,"rental_uris":{"android":"levelo://app?vid=bf214ee5-bcc3-48ed-b2c5-a945b0468078","ios":"levelo://app?vid=bf214ee5-bcc3-48ed-b2c5-a945b0468078"},"vehicle_type_id":"4","last_reported":1728112110,"current_range_meters":18800,"station_id":"ce4bhg12rcd13ifvqf60","pricing_plan_id":"cebpf4jnsgd1na2vs0mg"},{"bike_id":"4a822ed5-5dac-4529-9e8b-5e6054b1cdb3","system_id":"levelo_inurba_marseille","lat":43.246555,"lon":5.381552,"is_reserved":false,"is_disabled":false,"rental_uris":{"android":"levelo://app?vid=4a822ed5-5dac-4529-9e8b-5e6054b1cdb3","ios":"levelo://app?vid=4a822ed5-5dac-4529-9e8b-5e6054b1cdb3"},"vehicle_type_id":"4","last_reported":1728112110,"current_range_meters":35600,"station_id":"ce4bhih2rcd13ifvqfr0","pricing_plan_id":"cebpf4jnsgd1na2vs0mg"},{"bike_id":"6102bacc-0bb3-4c79-854a-2d4ec81b21c1","system_id":"levelo_inurba_marseille","lat":43.31714,"lon":5.42398,"is_reserved":false,"is_disabled":false,"rental_uris":{"android":"levelo://app?vid=6102bacc-0bb3-4c79-854a-2d4ec81b21c1","ios":"levelo://app?vid=6102bacc-0bb3-4c79-854a-2d4ec81b21c1"},"vehicle_type_id":"4","last_reported":1728112110,"current_range_meters":38800,"station_id":"ce4bhp92rcd13ifvqhbg","pricing_plan_id":"cebpf4jnsgd1na2vs0mg"},{"bike_id":"3b7da802-3755-48af-a961-032b7d7ffa1b","system_id":"levelo_inurba_marseille","lat":43.25822,"lon":5.3944,"is_reserved":false,"is_disabled":false,"rental_uris":{"android":"levelo://app?vid=3b7da802-3755-48af-a961-032b7d7ffa1b","ios":"levelo://app?vid=3b7da802-3755-48af-a961-032b7d7ffa1b"},"vehicle_type_id":"4","last_reported":1728112110,"current_range_meters":12000,"station_id":"ce4bhip2rcd13ifvqft0","pricing_plan_id":"cebpf4jnsgd1na2vs0mg"},{"bike_id":"64135920-5938-4a79-9c58-1ca30316df2c","system_id":"levelo_inurba_marseille","lat":43.31356,"lon":5.38503,"is_reserved":false,"is_disabled":false,"rental_uris":{"android":"levelo://app?vid=64135920-5938-4a79-9c58-1ca30316df2c","ios":"levelo://app?vid=64135920-5938-4a79-9c58-1ca30316df2c"},"vehicle_type_id":"4","last_reported":1728112110,"current_range_meters":38000,"station_id":"ce4bgt92rcd13ifvqcf0","pricing_plan_id":"cebpf4jnsgd1na2vs0mg"},{"bike_id":"13a35d1a-1c21-4cdd-9282-17040c700716","system_id":"levelo_inurba_marseille","lat":43.32535,"lon":5.41444,"is_reserved":false,"is_disabled":false,"rental_uris":{"android":"levelo://app?vid=13a35d1a-1c21-4cdd-9282-17040c700716","ios":"levelo://app?vid=13a35d1a-1c21-4cdd-9282-17040c700716"},"vehicle_type_id":"4","last_reported":1728112110,"current_range_meters":38800,"station_id":"ce4bhq12rcd13ifvqhhg","pricing_plan_id":"cebpf4jnsgd1na2vs0mg"},{"bike_id":"5991f84f-21f0-4a7e-908b-cd019d1c55c9","system_id":"levelo_inurba_marseille","lat":43.29184,"lon":5.35797,"is_reserved":false,"is_disabled":false,"rental_uris":{"android":"levelo://app?vid=5991f84f-21f0-4a7e-908b-cd019d1c55c9","ios":"levelo://app?vid=5991f84f-21f0-4a7e-908b-cd019d1c55c9"},"vehicle_type_id":"4","last_reported":1728112110,"current_range_meters":38400,"station_id":"ce4bhb12rcd13ifvqel0","pricing_plan_id":"cebpf4jnsgd1na2vs0mg"},{"bike_id":"6069b2c9-bef2-4e62-bd0b-326d633c9d8f","system_id":"levelo_inurba_marseille","lat":43.26803,"lon":5.40262,"is_reserved":false,"is_disabled":false,"rental_uris":{"android":"levelo://app?vid=6069b2c9-bef2-4e62-bd0b-326d633c9d8f","ios":"levelo://app?vid=6069b2c9-bef2-4e62-bd0b-326d633c9d8f"},"vehicle_type_id":"4","last_reported":1728112110,"current_range_meters":4800,"station_id":"ce501612rcd8frsf0b60","pricing_plan_id":"cebpf4jnsgd1na2vs0mg"},{"bike_id":"696644f5-1423-4196-8c71-bccdf5f2a225","system_id":"levelo_inurba_marseille","lat":43.2841,"lon":5.34977,"is_reserved":false,"is_disabled":false,"rental_uris":{"android":"levelo://app?vid=696644f5-1423-4196-8c71-bccdf5f2a225","ios":"levelo://app?vid=696644f5-1423-4196-8c71-bccdf5f2a225"},"vehicle_type_id":"4","last_reported":1728112110,"current_range_meters":38800,"station_id":"ce4bhbh2rcd13ifvqepg","pricing_plan_id":"cebpf4jnsgd1na2vs0mg"},{"bike_id":"d5969c4c-98ec-4ce5-aaff-2beaafd1904f","system_id":"levelo_inurba_marseille","lat":43.27307,"lon":5.39084,"is_reserved":false,"is_disabled":false,"rental_uris":{"android":"levelo://app?vid=d5969c4c-98ec-4ce5-aaff-2beaafd1904f","ios":"levelo://app?vid=d5969c4c-98ec-4ce5-aaff-2beaafd1904f"},"vehicle_type_id":"4","last_reported":1728112110,"current_range_meters":38800,"station_id":"ce4bhgp2rcd13ifvqfe0","pricing_plan_id":"cebpf4jnsgd1na2vs0mg"},{"bike_id":"1677b5fa-03d6-4b3a-8db2-15450297f672","system_id":"levelo_inurba_marseille","lat":43.28722,"lon":5.36093,"is_reserved":false,"is_disabled":false,"rental_uris":{"android":"levelo://app?vid=1677b5fa-03d6-4b3a-8db2-15450297f672","ios":"levelo://app?vid=1677b5fa-03d6-4b3a-8db2-15450297f672"},"vehicle_type_id":"4","last_reported":1728112110,"current_range_meters":32000,"station_id":"cki0cbj6b192h4jlfktg","pricing_plan_id":"cebpf4jnsgd1na2vs0mg"},{"bike_id":"3b331ddc-b6e0-4524-a213-681816e88962","system_id":"levelo_inurba_marseille","lat":43.32364,"lon":5.38876,"is_reserved":false,"is_disabled":false,"rental_uris":{"android":"levelo://app?vid=3b331ddc-b6e0-4524-a213-681816e88962","ios":"levelo://app?vid=3b331ddc-b6e0-4524-a213-681816e88962"},"vehicle_type_id":"4","last_reported":1728112110,"current_range_meters":22000,"station_id":"ce4bhqp2rcd13ifvqhog","pricing_plan_id":"cebpf4jnsgd1na2vs0mg"},{"bike_id":"ffc2f399-08e8-40c1-86d1-d728d8c4be5c","system_id":"levelo_inurba_marseille","lat":43.27821,"lon":5.39201,"is_reserved":false,"is_disabled":false,"rental_uris":{"android":"levelo://app?vid=ffc2f399-08e8-40c1-86d1-d728d8c4be5c","ios":"levelo://app?vid=ffc2f399-08e8-40c1-86d1-d728d8c4be5c"},"vehicle_type_id":"4","last_reported":1728112110,"current_range_meters":26800,"station_id":"ce4bhjp2rcd13ifvqga0","pricing_plan_id":"cebpf4jnsgd1na2vs0mg"},{"bike_id":"0bc4da86-c871-4c42-9afa-cbea77a620ca","system_id":"levelo_inurba_marseille","lat":43.28034,"lon":5.36942,"is_reserved":false,"is_disabled":false,"rental_uris":{"android":"levelo://app?vid=0bc4da86-c871-4c42-9afa-cbea77a620ca","ios":"levelo://app?vid=0bc4da86-c871-4c42-9afa-cbea77a620ca"},"vehicle_type_id":"4","last_reported":1728112110,"current_range_meters":38800,"station_id":"ce4bha12rcd13ifvqef0","pricing_plan_id":"cebpf4jnsgd1na2vs0mg"},{"bike_id":"e08c062f-61a2-493a-875d-6e296e2965d6","system_id":"levelo_inurba_marseille","lat":43.33752,"lon":5.37454,"is_reserved":false,"is_disabled":false,"rental_uris":{"android":"levelo://app?vid=e08c062f-61a2-493a-875d-6e296e2965d6","ios":"levelo://app?vid=e08c062f-61a2-493a-875d-6e296e2965d6"},"vehicle_type_id":"4","last_reported":1728112110,"current_range_meters":28000,"station_id":"","pricing_plan_id":"cebpf4jnsgd1na2vs0mg"},{"bike_id":"767b5572-7a96-45fd-9ea6-1b05056115f2","system_id":"levelo_inurba_marseille","lat":43.33021,"lon":5.39042,"is_reserved":false,"is_disabled":false,"rental_uris":{"android":"levelo://app?vid=767b5572-7a96-45fd-9ea6-1b05056115f2","ios":"levelo://app?vid=767b5572-7a96-45fd-9ea6-1b05056115f2"},"vehicle_type_id":"4","last_reported":1728112110,"current_range_meters":32800,"station_id":"ce4bhr92rcd13ifvqhrg","pricing_plan_id":"cebpf4jnsgd1na2vs0mg"},{"bike_id":"a6b131c0-5835-4e0f-8e09-731d52e578e8","system_id":"levelo_inurba_marseille","lat":43.31167,"lon":5.38716,"is_reserved":false,"is_disabled":false,"rental_uris":{"android":"levelo://app?vid=a6b131c0-5835-4e0f-8e09-731d52e578e8","ios":"levelo://app?vid=a6b131c0-5835-4e0f-8e09-731d52e578e8"},"vehicle_type_id":"4","last_reported":1728112110,"current_range_meters":36400,"station_id":"ce4bgv12rcd13ifvqcp0","pricing_plan_id":"cebpf4jnsgd1na2vs0mg"},{"bike_id":"b871d3e1-c5d5-4d1f-8267-43a325f41cf2","system_id":"levelo_inurba_marseille","lat":43.25081,"lon":5.39505,"is_reserved":false,"is_disabled":false,"rental_uris":{"android":"levelo://app?vid=b871d3e1-c5d5-4d1f-8267-43a325f41cf2","ios":"levelo://app?vid=b871d3e1-c5d5-4d1f-8267-43a325f41cf2"},"vehicle_type_id":"4","last_reported":1728112110,"current_range_meters":37600,"station_id":"ce4bhm12rcd13ifvqgkg","pricing_plan_id":"cebpf4jnsgd1na2vs0mg"},{"bike_id":"9fd9ae4d-b0a8-4e67-8a22-2043de4dd180","system_id":"levelo_inurba_marseille","lat":43.25084,"lon":5.39509,"is_reserved":false,"is_disabled":false,"rental_uris":{"android":"levelo://app?vid=9fd9ae4d-b0a8-4e67-8a22-2043de4dd180","ios":"levelo://app?vid=9fd9ae4d-b0a8-4e67-8a22-2043de4dd180"},"vehicle_type_id":"4","last_reported":1728112110,"current_range_meters":23200,"station_id":"ce4bhm12rcd13ifvqgkg","pricing_plan_id":"cebpf4jnsgd1na2vs0mg"},{"bike_id":"c36813eb-5bb0-42fa-97b7-5da8fcf45ed5","system_id":"levelo_inurba_marseille","lat":43.30884,"lon":5.3966,"is_reserved":false,"is_disabled":false,"rental_uris":{"android":"levelo://app?vid=c36813eb-5bb0-42fa-97b7-5da8fcf45ed5","ios":"levelo://app?vid=c36813eb-5bb0-42fa-97b7-5da8fcf45ed5"},"vehicle_type_id":"4","last_reported":1728112110,"current_range_meters":32800,"station_id":"ce4bh012rcd13ifvqcv0","pricing_plan_id":"cebpf4jnsgd1na2vs0mg"},{"bike_id":"bf4c4672-e9cc-4c0f-b11a-ad8c4add20a2","system_id":"levelo_inurba_marseille","lat":43.26924,"lon":5.38908,"is_reserved":false,"is_disabled":false,"rental_uris":{"android":"levelo://app?vid=bf4c4672-e9cc-4c0f-b11a-ad8c4add20a2","ios":"levelo://app?vid=bf4c4672-e9cc-4c0f-b11a-ad8c4add20a2"},"vehicle_type_id":"4","last_reported":1728112110,"current_range_meters":38000,"station_id":"ce4bhhh2rcd13ifvqfl0","pricing_plan_id":"cebpf4jnsgd1na2vs0mg"},{"bike_id":"c7f0adda-97ce-4098-ad1b-3d764f19c5aa","system_id":"levelo_inurba_marseille","lat":43.25505,"lon":5.37648,"is_reserved":false,"is_disabled":false,"rental_uris":{"android":"levelo://app?vid=c7f0adda-97ce-4098-ad1b-3d764f19c5aa","ios":"levelo://app?vid=c7f0adda-97ce-4098-ad1b-3d764f19c5aa"},"vehicle_type_id":"4","last_reported":1728112110,"current_range_meters":22800,"station_id":"ce4bhh12rcd13ifvqff0","pricing_plan_id":"cebpf4jnsgd1na2vs0mg"},{"bike_id":"4fb3e50b-e8a2-4f4d-ac04-bfe37d711d3a","system_id":"levelo_inurba_marseille","lat":43.23952,"lon":5.36642,"is_reserved":false,"is_disabled":false,"rental_uris":{"android":"levelo://app?vid=4fb3e50b-e8a2-4f4d-ac04-bfe37d711d3a","ios":"levelo://app?vid=4fb3e50b-e8a2-4f4d-ac04-bfe37d711d3a"},"vehicle_type_id":"4","last_reported":1728112110,"current_range_meters":24800,"station_id":"ce4bhi12rcd13ifvqfp0","pricing_plan_id":"cebpf4jnsgd1na2vs0mg"},{"bike_id":"fcfb42de-cde1-4ec3-8e89-f197fdfcc1a8","system_id":"levelo_inurba_marseille","lat":43.23961,"lon":5.3664,"is_reserved":false,"is_disabled":false,"rental_uris":{"android":"levelo://app?vid=fcfb42de-cde1-4ec3-8e89-f197fdfcc1a8","ios":"levelo://app?vid=fcfb42de-cde1-4ec3-8e89-f197fdfcc1a8"},"vehicle_type_id":"4","last_reported":1728112110,"current_range_meters":40000,"station_id":"ce4bhi12rcd13ifvqfp0","pricing_plan_id":"cebpf4jnsgd1na2vs0mg"},{"bike_id":"7101b9db-d328-47cf-a085-f83e3e2a7f92","system_id":"levelo_inurba_marseille","lat":43.26805,"lon":5.40264,"is_reserved":false,"is_disabled":false,"rental_uris":{"android":"levelo://app?vid=7101b9db-d328-47cf-a085-f83e3e2a7f92","ios":"levelo://app?vid=7101b9db-d328-47cf-a085-f83e3e2a7f92"},"vehicle_type_id":"4","last_reported":1728112110,"current_range_meters":8800,"station_id":"ce501612rcd8frsf0b60","pricing_plan_id":"cebpf4jnsgd1na2vs0mg"},{"bike_id":"633d2344-d99e-4174-b6fb-920c3267e701","system_id":"levelo_inurba_marseille","lat":43.337171,"lon":5.391777,"is_reserved":false,"is_disabled":false,"rental_uris":{"android":"levelo://app?vid=633d2344-d99e-4174-b6fb-920c3267e701","ios":"levelo://app?vid=633d2344-d99e-4174-b6fb-920c3267e701"},"vehicle_type_id":"4","last_reported":1728112110,"current_range_meters":25200,"station_id":"ce4bhr92rcd13ifvqhsg","pricing_plan_id":"cebpf4jnsgd1na2vs0mg"},{"bike_id":"5f8d3d8f-1503-41ea-a148-3895c82e3ec7","system_id":"levelo_inurba_marseille","lat":43.28155,"lon":5.4264,"is_reserved":false,"is_disabled":false,"rental_uris":{"android":"levelo://app?vid=5f8d3d8f-1503-41ea-a148-3895c82e3ec7","ios":"levelo://app?vid=5f8d3d8f-1503-41ea-a148-3895c82e3ec7"},"vehicle_type_id":"4","last_reported":1728112110,"current_range_meters":12000,"station_id":"ce4bhnh2rcd13ifvqgug","pricing_plan_id":"cebpf4jnsgd1na2vs0mg"},{"bike_id":"5bb9570c-3c0f-4333-a6a5-c18ec6187253","system_id":"levelo_inurba_marseille","lat":43.2464,"lon":5.38886,"is_reserved":false,"is_disabled":false,"rental_uris":{"android":"levelo://app?vid=5bb9570c-3c0f-4333-a6a5-c18ec6187253","ios":"levelo://app?vid=5bb9570c-3c0f-4333-a6a5-c18ec6187253"},"vehicle_type_id":"4","last_reported":1728112110,"current_range_meters":22800,"station_id":"ce4bhg12rcd13ifvqf60","pricing_plan_id":"cebpf4jnsgd1na2vs0mg"},{"bike_id":"7f1928b3-0d88-42d9-9b18-5af01efec86a","system_id":"levelo_inurba_marseille","lat":43.24807,"lon":5.37455,"is_reserved":false,"is_disabled":false,"rental_uris":{"android":"levelo://app?vid=7f1928b3-0d88-42d9-9b18-5af01efec86a","ios":"levelo://app?vid=7f1928b3-0d88-42d9-9b18-5af01efec86a"},"vehicle_type_id":"4","last_reported":1728112110,"current_range_meters":14000,"station_id":"ce4bhgh2rcd13ifvqfb0","pricing_plan_id":"cebpf4jnsgd1na2vs0mg"},{"bike_id":"340a45dd-fbef-468b-90c9-1587281633bb","system_id":"levelo_inurba_marseille","lat":43.30465,"lon":5.37906,"is_reserved":false,"is_disabled":false,"rental_uris":{"android":"levelo://app?vid=340a45dd-fbef-468b-90c9-1587281633bb","ios":"levelo://app?vid=340a45dd-fbef-468b-90c9-1587281633bb"},"vehicle_type_id":"4","last_reported":1728112110,"current_range_meters":28000,"station_id":"ce4bgup2rcd13ifvqcn0","pricing_plan_id":"cebpf4jnsgd1na2vs0mg"},{"bike_id":"c64737d2-3f80-470f-90c0-efd4b209a1c7","system_id":"levelo_inurba_marseille","lat":43.2862,"lon":5.35089,"is_reserved":false,"is_disabled":false,"rental_uris":{"android":"levelo://app?vid=c64737d2-3f80-470f-90c0-efd4b209a1c7","ios":"levelo://app?vid=c64737d2-3f80-470f-90c0-efd4b209a1c7"},"vehicle_type_id":"4","last_reported":1728112110,"current_range_meters":38800,"station_id":"ce4bhch2rcd13ifvqeug","pricing_plan_id":"cebpf4jnsgd1na2vs0mg"},{"bike_id":"79b9780c-0672-46ff-af34-19be6dec4043","system_id":"levelo_inurba_marseille","lat":43.3171,"lon":5.43705,"is_reserved":false,"is_disabled":false,"rental_uris":{"android":"levelo://app?vid=79b9780c-0672-46ff-af34-19be6dec4043","ios":"levelo://app?vid=79b9780c-0672-46ff-af34-19be6dec4043"},"vehicle_type_id":"4","last_reported":1728112110,"current_range_meters":25200,"station_id":"ce4bhp92rcd13ifvqhcg","pricing_plan_id":"cebpf4jnsgd1na2vs0mg"},{"bike_id":"c1961fab-fda7-428d-a767-c1856d317d07","system_id":"levelo_inurba_marseille","lat":43.30778,"lon":5.37655,"is_reserved":false,"is_disabled":false,"rental_uris":{"android":"levelo://app?vid=c1961fab-fda7-428d-a767-c1856d317d07","ios":"levelo://app?vid=c1961fab-fda7-428d-a767-c1856d317d07"},"vehicle_type_id":"4","last_reported":1728112110,"current_range_meters":23200,"station_id":"ce4bgv92rcd13ifvqcq0","pricing_plan_id":"cebpf4jnsgd1na2vs0mg"},{"bike_id":"88d763e9-254b-4f45-a733-903d4efd49e1","system_id":"levelo_inurba_marseille","lat":43.31054,"lon":5.38344,"is_reserved":false,"is_disabled":false,"rental_uris":{"android":"levelo://app?vid=88d763e9-254b-4f45-a733-903d4efd49e1","ios":"levelo://app?vid=88d763e9-254b-4f45-a733-903d4efd49e1"},"vehicle_type_id":"4","last_reported":1728112110,"current_range_meters":36000,"station_id":"ce4bgv92rcd13ifvqcr0","pricing_plan_id":"cebpf4jnsgd1na2vs0mg"},{"bike_id":"fd872ba7-9877-4e67-9269-d8995abba644","system_id":"levelo_inurba_marseille","lat":43.22936,"lon":5.35379,"is_reserved":false,"is_disabled":false,"rental_uris":{"android":"levelo://app?vid=fd872ba7-9877-4e67-9269-d8995abba644","ios":"levelo://app?vid=fd872ba7-9877-4e67-9269-d8995abba644"},"vehicle_type_id":"4","last_reported":1728112110,"current_range_meters":16000,"station_id":"cpo3532slgdg3j2ikp40","pricing_plan_id":"cebpf4jnsgd1na2vs0mg"},{"bike_id":"fe069c0c-ab7e-4066-b369-24f70f595c37","system_id":"levelo_inurba_marseille","lat":43.32479,"lon":5.36556,"is_reserved":false,"is_disabled":false,"rental_uris":{"android":"levelo://app?vid=fe069c0c-ab7e-4066-b369-24f70f595c37","ios":"levelo://app?vid=fe069c0c-ab7e-4066-b369-24f70f595c37"},"vehicle_type_id":"4","last_reported":1728112110,"current_range_meters":39200,"station_id":"ce4bhs12rcd13ifvqhvg","pricing_plan_id":"cebpf4jnsgd1na2vs0mg"},{"bike_id":"d65d21e5-77a3-42c8-bb7f-67f3fd5c5213","system_id":"levelo_inurba_marseille","lat":43.30548,"lon":5.36528,"is_reserved":false,"is_disabled":false,"rental_uris":{"android":"levelo://app?vid=d65d21e5-77a3-42c8-bb7f-67f3fd5c5213","ios":"levelo://app?vid=d65d21e5-77a3-42c8-bb7f-67f3fd5c5213"},"vehicle_type_id":"4","last_reported":1728112110,"current_range_meters":38800,"station_id":"ce4bgs12rcd13ifvqcag","pricing_plan_id":"cebpf4jnsgd1na2vs0mg"},{"bike_id":"112ff9e5-2341-4236-9e5d-95135df99031","system_id":"levelo_inurba_marseille","lat":43.30086,"lon":5.39089,"is_reserved":false,"is_disabled":false,"rental_uris":{"android":"levelo://app?vid=112ff9e5-2341-4236-9e5d-95135df99031","ios":"levelo://app?vid=112ff9e5-2341-4236-9e5d-95135df99031"},"vehicle_type_id":"4","last_reported":1728112110,"current_range_meters":36400,"station_id":"ce4bh192rcd13ifvqdb0","pricing_plan_id":"cebpf4jnsgd1na2vs0mg"},{"bike_id":"e1ec301a-7688-41c9-9533-8458796dfbba","system_id":"levelo_inurba_marseille","lat":43.28715,"lon":5.37937,"is_reserved":false,"is_disabled":false,"rental_uris":{"android":"levelo://app?vid=e1ec301a-7688-41c9-9533-8458796dfbba","ios":"levelo://app?vid=e1ec301a-7688-41c9-9533-8458796dfbba"},"vehicle_type_id":"4","last_reported":1728112110,"current_range_meters":39200,"station_id":"ce4bh9p2rcd13ifvqec0","pricing_plan_id":"cebpf4jnsgd1na2vs0mg"},{"bike_id":"737fed70-0157-42cd-b1d0-c99f6a548a82","system_id":"levelo_inurba_marseille","lat":43.27984,"lon":5.41655,"is_reserved":false,"is_disabled":false,"rental_uris":{"android":"levelo://app?vid=737fed70-0157-42cd-b1d0-c99f6a548a82","ios":"levelo://app?vid=737fed70-0157-42cd-b1d0-c99f6a548a82"},"vehicle_type_id":"4","last_reported":1728112110,"current_range_meters":24800,"station_id":"ce4bho12rcd13ifvqh1g","pricing_plan_id":"cebpf4jnsgd1na2vs0mg"},{"bike_id":"f0043234-0e52-4e57-b874-f56582004648","system_id":"levelo_inurba_marseille","lat":43.29952,"lon":5.41324,"is_reserved":false,"is_disabled":false,"rental_uris":{"android":"levelo://app?vid=f0043234-0e52-4e57-b874-f56582004648","ios":"levelo://app?vid=f0043234-0e52-4e57-b874-f56582004648"},"vehicle_type_id":"4","last_reported":1728112110,"current_range_meters":4000,"station_id":"ce4bhp12rcd13ifvqh9g","pricing_plan_id":"cebpf4jnsgd1na2vs0mg"},{"bike_id":"ffd2ef54-459a-425a-bbbd-15122bf2e93e","system_id":"levelo_inurba_marseille","lat":43.29556,"lon":5.42285,"is_reserved":false,"is_disabled":false,"rental_uris":{"android":"levelo://app?vid=ffd2ef54-459a-425a-bbbd-15122bf2e93e","ios":"levelo://app?vid=ffd2ef54-459a-425a-bbbd-15122bf2e93e"},"vehicle_type_id":"4","last_reported":1728112110,"current_range_meters":19200,"station_id":"ce4bhph2rcd13ifvqhdg","pricing_plan_id":"cebpf4jnsgd1na2vs0mg"},{"bike_id":"02287b3e-a2e5-4db9-badc-4f46622493bb","system_id":"levelo_inurba_marseille","lat":43.27066,"lon":5.42275,"is_reserved":false,"is_disabled":false,"rental_uris":{"android":"levelo://app?vid=02287b3e-a2e5-4db9-badc-4f46622493bb","ios":"levelo://app?vid=02287b3e-a2e5-4db9-badc-4f46622493bb"},"vehicle_type_id":"4","last_reported":1728112110,"current_range_meters":40000,"station_id":"ce4bhk92rcd13ifvqgb0","pricing_plan_id":"cebpf4jnsgd1na2vs0mg"},{"bike_id":"2dfa250e-fa81-43be-b763-8f49843284b7","system_id":"levelo_inurba_marseille","lat":43.23195,"lon":5.39981,"is_reserved":false,"is_disabled":false,"rental_uris":{"android":"levelo://app?vid=2dfa250e-fa81-43be-b763-8f49843284b7","ios":"levelo://app?vid=2dfa250e-fa81-43be-b763-8f49843284b7"},"vehicle_type_id":"4","last_reported":1728112110,"current_range_meters":37600,"station_id":"ce4bhn12rcd13ifvqgqg","pricing_plan_id":"cebpf4jnsgd1na2vs0mg"},{"bike_id":"8d7ea08a-7b78-4502-aa14-382f52ee4866","system_id":"levelo_inurba_marseille","lat":43.279543,"lon":5.410495,"is_reserved":false,"is_disabled":false,"rental_uris":{"android":"levelo://app?vid=8d7ea08a-7b78-4502-aa14-382f52ee4866","ios":"levelo://app?vid=8d7ea08a-7b78-4502-aa14-382f52ee4866"},"vehicle_type_id":"4","last_reported":1728112110,"current_range_meters":33200,"station_id":"ce4bhnp2rcd13ifvqh0g","pricing_plan_id":"cebpf4jnsgd1na2vs0mg"},{"bike_id":"56e290b8-baea-47bd-8cbe-7fd9ea0f5e8d","system_id":"levelo_inurba_marseille","lat":43.25863,"lon":5.39901,"is_reserved":false,"is_disabled":false,"rental_uris":{"android":"levelo://app?vid=56e290b8-baea-47bd-8cbe-7fd9ea0f5e8d","ios":"levelo://app?vid=56e290b8-baea-47bd-8cbe-7fd9ea0f5e8d"},"vehicle_type_id":"4","last_reported":1728112110,"current_range_meters":36800,"station_id":"ce4bhl92rcd13ifvqghg","pricing_plan_id":"cebpf4jnsgd1na2vs0mg"},{"bike_id":"a78fda36-cada-4a47-9104-4198396bc09e","system_id":"levelo_inurba_marseille","lat":43.30884,"lon":5.39646,"is_reserved":false,"is_disabled":false,"rental_uris":{"android":"levelo://app?vid=a78fda36-cada-4a47-9104-4198396bc09e","ios":"levelo://app?vid=a78fda36-cada-4a47-9104-4198396bc09e"},"vehicle_type_id":"4","last_reported":1728112110,"current_range_meters":38800,"station_id":"ce4bh012rcd13ifvqcv0","pricing_plan_id":"cebpf4jnsgd1na2vs0mg"},{"bike_id":"2127827a-03bd-4f9a-a0c5-31598fd2cadd","system_id":"levelo_inurba_marseille","lat":43.32652,"lon":5.4099,"is_reserved":false,"is_disabled":false,"rental_uris":{"android":"levelo://app?vid=2127827a-03bd-4f9a-a0c5-31598fd2cadd","ios":"levelo://app?vid=2127827a-03bd-4f9a-a0c5-31598fd2cadd"},"vehicle_type_id":"4","last_reported":1728112110,"current_range_meters":6000,"station_id":"ce4bhpp2rcd13ifvqhgg","pricing_plan_id":"cebpf4jnsgd1na2vs0mg"},{"bike_id":"a58107d1-c24a-43af-b609-12b7b4fc6dc2","system_id":"levelo_inurba_marseille","lat":43.29004,"lon":5.35614,"is_reserved":false,"is_disabled":false,"rental_uris":{"android":"levelo://app?vid=a58107d1-c24a-43af-b609-12b7b4fc6dc2","ios":"levelo://app?vid=a58107d1-c24a-43af-b609-12b7b4fc6dc2"},"vehicle_type_id":"4","last_reported":1728112110,"current_range_meters":38800,"station_id":"ce4bhb92rcd13ifvqen0","pricing_plan_id":"cebpf4jnsgd1na2vs0mg"},{"bike_id":"7ffe9289-3247-41d5-9101-b2fa83067f40","system_id":"levelo_inurba_marseille","lat":43.23955,"lon":5.36634,"is_reserved":false,"is_disabled":false,"rental_uris":{"android":"levelo://app?vid=7ffe9289-3247-41d5-9101-b2fa83067f40","ios":"levelo://app?vid=7ffe9289-3247-41d5-9101-b2fa83067f40"},"vehicle_type_id":"4","last_reported":1728112110,"current_range_meters":36800,"station_id":"ce4bhi12rcd13ifvqfp0","pricing_plan_id":"cebpf4jnsgd1na2vs0mg"},{"bike_id":"8d649653-d550-4c65-b604-56d61f5daa25","system_id":"levelo_inurba_marseille","lat":43.28264,"lon":5.35059,"is_reserved":false,"is_disabled":false,"rental_uris":{"android":"levelo://app?vid=8d649653-d550-4c65-b604-56d61f5daa25","ios":"levelo://app?vid=8d649653-d550-4c65-b604-56d61f5daa25"},"vehicle_type_id":"4","last_reported":1728112110,"current_range_meters":38800,"station_id":"ce4bhbp2rcd13ifvqerg","pricing_plan_id":"cebpf4jnsgd1na2vs0mg"},{"bike_id":"82fb1d9b-f78d-4572-93cd-c097376a885d","system_id":"levelo_inurba_marseille","lat":43.23145,"lon":5.43722,"is_reserved":false,"is_disabled":false,"rental_uris":{"android":"levelo://app?vid=82fb1d9b-f78d-4572-93cd-c097376a885d","ios":"levelo://app?vid=82fb1d9b-f78d-4572-93cd-c097376a885d"},"vehicle_type_id":"4","last_reported":1728112110,"current_range_meters":3600,"station_id":"ce4bhmp2rcd13ifvqgog","pricing_plan_id":"cebpf4jnsgd1na2vs0mg"},{"bike_id":"e04e5431-207d-4263-8b72-762e4c4878e5","system_id":"levelo_inurba_marseille","lat":43.23063,"lon":5.35494,"is_reserved":false,"is_disabled":false,"rental_uris":{"android":"levelo://app?vid=e04e5431-207d-4263-8b72-762e4c4878e5","ios":"levelo://app?vid=e04e5431-207d-4263-8b72-762e4c4878e5"},"vehicle_type_id":"4","last_reported":1728112110,"current_range_meters":16800,"station_id":"cpo3342slgdg3j2ifvpg","pricing_plan_id":"cebpf4jnsgd1na2vs0mg"},{"bike_id":"1a5410ba-9fbb-4266-a0fe-2364c4d5e366","system_id":"levelo_inurba_marseille","lat":43.31353,"lon":5.36706,"is_reserved":false,"is_disabled":false,"rental_uris":{"android":"levelo://app?vid=1a5410ba-9fbb-4266-a0fe-2364c4d5e366","ios":"levelo://app?vid=1a5410ba-9fbb-4266-a0fe-2364c4d5e366"},"vehicle_type_id":"4","last_reported":1728112110,"current_range_meters":24400,"station_id":"ce4bgr92rcd13ifvqc6g","pricing_plan_id":"cebpf4jnsgd1na2vs0mg"},{"bike_id":"50e6aeb8-7e25-4c09-9781-24c9f5d23dff","system_id":"levelo_inurba_marseille","lat":43.33746,"lon":5.37437,"is_reserved":false,"is_disabled":false,"rental_uris":{"android":"levelo://app?vid=50e6aeb8-7e25-4c09-9781-24c9f5d23dff","ios":"levelo://app?vid=50e6aeb8-7e25-4c09-9781-24c9f5d23dff"},"vehicle_type_id":"4","last_reported":1728112110,"current_range_meters":28000,"station_id":"","pricing_plan_id":"cebpf4jnsgd1na2vs0mg"},{"bike_id":"03ab3da6-0cf8-4367-b90e-0c5c5e8e2cae","system_id":"levelo_inurba_marseille","lat":43.29892,"lon":5.43656,"is_reserved":false,"is_disabled":false,"rental_uris":{"android":"levelo://app?vid=03ab3da6-0cf8-4367-b90e-0c5c5e8e2cae","ios":"levelo://app?vid=03ab3da6-0cf8-4367-b90e-0c5c5e8e2cae"},"vehicle_type_id":"4","last_reported":1728112110,"current_range_meters":38000,"station_id":"ce4bhpp2rcd13ifvqhfg","pricing_plan_id":"cebpf4jnsgd1na2vs0mg"},{"bike_id":"7e5a4ffa-6310-4511-a1dc-2dedfd26f1bc","system_id":"levelo_inurba_marseille","lat":43.29553,"lon":5.42279,"is_reserved":false,"is_disabled":false,"rental_uris":{"android":"levelo://app?vid=7e5a4ffa-6310-4511-a1dc-2dedfd26f1bc","ios":"levelo://app?vid=7e5a4ffa-6310-4511-a1dc-2dedfd26f1bc"},"vehicle_type_id":"4","last_reported":1728112110,"current_range_meters":4000,"station_id":"ce4bhph2rcd13ifvqhdg","pricing_plan_id":"cebpf4jnsgd1na2vs0mg"},{"bike_id":"2a2564cf-7a01-401e-b3bf-b991d7ccb375","system_id":"levelo_inurba_marseille","lat":43.2922,"lon":5.36075,"is_reserved":false,"is_disabled":false,"rental_uris":{"android":"levelo://app?vid=2a2564cf-7a01-401e-b3bf-b991d7ccb375","ios":"levelo://app?vid=2a2564cf-7a01-401e-b3bf-b991d7ccb375"},"vehicle_type_id":"4","last_reported":1728112110,"current_range_meters":24000,"station_id":"ce4bhbh2rcd13ifvqeqg","pricing_plan_id":"cebpf4jnsgd1na2vs0mg"},{"bike_id":"094b268c-4cc2-43fc-862b-773d8ae92352","system_id":"levelo_inurba_marseille","lat":43.31125,"lon":5.37781,"is_reserved":false,"is_disabled":false,"rental_uris":{"android":"levelo://app?vid=094b268c-4cc2-43fc-862b-773d8ae92352","ios":"levelo://app?vid=094b268c-4cc2-43fc-862b-773d8ae92352"},"vehicle_type_id":"4","last_reported":1728112110,"current_range_meters":36800,"station_id":"ce4bgt92rcd13ifvqcg0","pricing_plan_id":"cebpf4jnsgd1na2vs0mg"},{"bike_id":"ccd3f326-f359-40fa-85b4-b599532ed989","system_id":"levelo_inurba_marseille","lat":43.28679,"lon":5.38665,"is_reserved":false,"is_disabled":false,"rental_uris":{"android":"levelo://app?vid=ccd3f326-f359-40fa-85b4-b599532ed989","ios":"levelo://app?vid=ccd3f326-f359-40fa-85b4-b599532ed989"},"vehicle_type_id":"4","last_reported":1728112110,"current_range_meters":16400,"station_id":"ce4bh492rcd13ifvqdug","pricing_plan_id":"cebpf4jnsgd1na2vs0mg"},{"bike_id":"23916c89-585f-48bf-be27-3f0989556740","system_id":"levelo_inurba_marseille","lat":43.30144,"lon":5.38079,"is_reserved":false,"is_disabled":false,"rental_uris":{"android":"levelo://app?vid=23916c89-585f-48bf-be27-3f0989556740","ios":"levelo://app?vid=23916c89-585f-48bf-be27-3f0989556740"},"vehicle_type_id":"4","last_reported":1728112110,"current_range_meters":32000,"station_id":"ce4bgjp2rcd13ifvqbh0","pricing_plan_id":"cebpf4jnsgd1na2vs0mg"},{"bike_id":"8afb9829-5b79-4b79-899f-8b231e8accfe","system_id":"levelo_inurba_marseille","lat":43.29295,"lon":5.37463,"is_reserved":false,"is_disabled":false,"rental_uris":{"android":"levelo://app?vid=8afb9829-5b79-4b79-899f-8b231e8accfe","ios":"levelo://app?vid=8afb9829-5b79-4b79-899f-8b231e8accfe"},"vehicle_type_id":"4","last_reported":1728112110,"current_range_meters":24000,"station_id":"ce4bgi12rcd13ifvqb70","pricing_plan_id":"cebpf4jnsgd1na2vs0mg"},{"bike_id":"be855d3f-aa37-4c69-9485-bcd30590fee9","system_id":"levelo_inurba_marseille","lat":43.31084,"lon":5.3837,"is_reserved":false,"is_disabled":false,"rental_uris":{"android":"levelo://app?vid=be855d3f-aa37-4c69-9485-bcd30590fee9","ios":"levelo://app?vid=be855d3f-aa37-4c69-9485-bcd30590fee9"},"vehicle_type_id":"4","last_reported":1728112110,"current_range_meters":37600,"station_id":"ce4bgv92rcd13ifvqcr0","pricing_plan_id":"cebpf4jnsgd1na2vs0mg"},{"bike_id":"98fe9666-1214-4d75-b1e8-91292b88bd3c","system_id":"levelo_inurba_marseille","lat":43.28847,"lon":5.35848,"is_reserved":false,"is_disabled":false,"rental_uris":{"android":"levelo://app?vid=98fe9666-1214-4d75-b1e8-91292b88bd3c","ios":"levelo://app?vid=98fe9666-1214-4d75-b1e8-91292b88bd3c"},"vehicle_type_id":"4","last_reported":1728112110,"current_range_meters":20800,"station_id":"ce4bhb12rcd13ifvqem0","pricing_plan_id":"cebpf4jnsgd1na2vs0mg"},{"bike_id":"058dfd6f-1596-4e58-be3e-e52faf3a5db8","system_id":"levelo_inurba_marseille","lat":43.27819,"lon":5.39195,"is_reserved":false,"is_disabled":false,"rental_uris":{"android":"levelo://app?vid=058dfd6f-1596-4e58-be3e-e52faf3a5db8","ios":"levelo://app?vid=058dfd6f-1596-4e58-be3e-e52faf3a5db8"},"vehicle_type_id":"4","last_reported":1728112110,"current_range_meters":36400,"station_id":"ce4bhjp2rcd13ifvqga0","pricing_plan_id":"cebpf4jnsgd1na2vs0mg"},{"bike_id":"764d6263-9186-4a2e-8569-f08474927f30","system_id":"levelo_inurba_marseille","lat":43.2511,"lon":5.40314,"is_reserved":false,"is_disabled":false,"rental_uris":{"android":"levelo://app?vid=764d6263-9186-4a2e-8569-f08474927f30","ios":"levelo://app?vid=764d6263-9186-4a2e-8569-f08474927f30"},"vehicle_type_id":"4","last_reported":1728112110,"current_range_meters":16000,"station_id":"ce4bhlh2rcd13ifvqgig","pricing_plan_id":"cebpf4jnsgd1na2vs0mg"},{"bike_id":"32982700-27ec-4c8a-b1b9-9a018c3024e7","system_id":"levelo_inurba_marseille","lat":43.27964,"lon":5.3871,"is_reserved":false,"is_disabled":false,"rental_uris":{"android":"levelo://app?vid=32982700-27ec-4c8a-b1b9-9a018c3024e7","ios":"levelo://app?vid=32982700-27ec-4c8a-b1b9-9a018c3024e7"},"vehicle_type_id":"4","last_reported":1728112110,"current_range_meters":36000,"station_id":"ce4bhg12rcd13ifvqf80","pricing_plan_id":"cebpf4jnsgd1na2vs0mg"},{"bike_id":"3cc4d07d-3eee-4b93-9fc0-d4f2d12e1e80","system_id":"levelo_inurba_marseille","lat":43.30324,"lon":5.40459,"is_reserved":false,"is_disabled":false,"rental_uris":{"android":"levelo://app?vid=3cc4d07d-3eee-4b93-9fc0-d4f2d12e1e80","ios":"levelo://app?vid=3cc4d07d-3eee-4b93-9fc0-d4f2d12e1e80"},"vehicle_type_id":"4","last_reported":1728112110,"current_range_meters":4400,"station_id":"ce4bh012rcd13ifvqd10","pricing_plan_id":"cebpf4jnsgd1na2vs0mg"},{"bike_id":"a597efc5-5d22-4f5d-8ee5-128196ffff5e","system_id":"levelo_inurba_marseille","lat":43.27992,"lon":5.41657,"is_reserved":false,"is_disabled":false,"rental_uris":{"android":"levelo://app?vid=a597efc5-5d22-4f5d-8ee5-128196ffff5e","ios":"levelo://app?vid=a597efc5-5d22-4f5d-8ee5-128196ffff5e"},"vehicle_type_id":"4","last_reported":1728112110,"current_range_meters":28400,"station_id":"ce4bho12rcd13ifvqh1g","pricing_plan_id":"cebpf4jnsgd1na2vs0mg"},{"bike_id":"ad4e8f5a-894a-4c94-9f6d-c0d7dda88988","system_id":"levelo_inurba_marseille","lat":43.23967,"lon":5.36621,"is_reserved":false,"is_disabled":false,"rental_uris":{"android":"levelo://app?vid=ad4e8f5a-894a-4c94-9f6d-c0d7dda88988","ios":"levelo://app?vid=ad4e8f5a-894a-4c94-9f6d-c0d7dda88988"},"vehicle_type_id":"4","last_reported":1728112110,"current_range_meters":20800,"station_id":"ce4bhi12rcd13ifvqfp0","pricing_plan_id":"cebpf4jnsgd1na2vs0mg"},{"bike_id":"6f64a686-ad6f-4ce2-bcf4-09d2371d9624","system_id":"levelo_inurba_marseille","lat":43.24995,"lon":5.3893,"is_reserved":false,"is_disabled":false,"rental_uris":{"android":"levelo://app?vid=6f64a686-ad6f-4ce2-bcf4-09d2371d9624","ios":"levelo://app?vid=6f64a686-ad6f-4ce2-bcf4-09d2371d9624"},"vehicle_type_id":"4","last_reported":1728112110,"current_range_meters":6800,"station_id":"ce4bhgp2rcd13ifvqfd0","pricing_plan_id":"cebpf4jnsgd1na2vs0mg"},{"bike_id":"9232b280-f2c9-46e5-a1bd-a0aaa03c2e44","system_id":"levelo_inurba_marseille","lat":43.30628,"lon":5.40078,"is_reserved":false,"is_disabled":false,"rental_uris":{"android":"levelo://app?vid=9232b280-f2c9-46e5-a1bd-a0aaa03c2e44","ios":"levelo://app?vid=9232b280-f2c9-46e5-a1bd-a0aaa03c2e44"},"vehicle_type_id":"4","last_reported":1728112110,"current_range_meters":30800,"station_id":"ce4bh112rcd13ifvqda0","pricing_plan_id":"cebpf4jnsgd1na2vs0mg"},{"bike_id":"664b32d0-7018-4f12-a00a-696d99fabd17","system_id":"levelo_inurba_marseille","lat":43.29036,"lon":5.39949,"is_reserved":false,"is_disabled":false,"rental_uris":{"android":"levelo://app?vid=664b32d0-7018-4f12-a00a-696d99fabd17","ios":"levelo://app?vid=664b32d0-7018-4f12-a00a-696d99fabd17"},"vehicle_type_id":"4","last_reported":1728112110,"current_range_meters":13600,"station_id":"ce4bh392rcd13ifvqdm0","pricing_plan_id":"cebpf4jnsgd1na2vs0mg"},{"bike_id":"f804678f-f648-4841-9a62-5e8ad493f990","system_id":"levelo_inurba_marseille","lat":43.3094,"lon":5.39029,"is_reserved":false,"is_disabled":false,"rental_uris":{"android":"levelo://app?vid=f804678f-f648-4841-9a62-5e8ad493f990","ios":"levelo://app?vid=f804678f-f648-4841-9a62-5e8ad493f990"},"vehicle_type_id":"4","last_reported":1728112110,"current_range_meters":37600,"station_id":"ce4bgup2rcd13ifvqco0","pricing_plan_id":"cebpf4jnsgd1na2vs0mg"},{"bike_id":"57d5d1f8-5acf-49ec-a460-f52cbdbdbef8","system_id":"levelo_inurba_marseille","lat":43.28405,"lon":5.3498,"is_reserved":false,"is_disabled":false,"rental_uris":{"android":"levelo://app?vid=57d5d1f8-5acf-49ec-a460-f52cbdbdbef8","ios":"levelo://app?vid=57d5d1f8-5acf-49ec-a460-f52cbdbdbef8"},"vehicle_type_id":"4","last_reported":1728112110,"current_range_meters":38000,"station_id":"ce4bhbh2rcd13ifvqepg","pricing_plan_id":"cebpf4jnsgd1na2vs0mg"},{"bike_id":"b539cef5-a0ee-4eb9-af10-1c3a300ff81c","system_id":"levelo_inurba_marseille","lat":43.32102,"lon":5.36771,"is_reserved":false,"is_disabled":false,"rental_uris":{"android":"levelo://app?vid=b539cef5-a0ee-4eb9-af10-1c3a300ff81c","ios":"levelo://app?vid=b539cef5-a0ee-4eb9-af10-1c3a300ff81c"},"vehicle_type_id":"4","last_reported":1728112110,"current_range_meters":34800,"station_id":"ce4bhrh2rcd13ifvqhug","pricing_plan_id":"cebpf4jnsgd1na2vs0mg"},{"bike_id":"095c8e4a-aa8e-42c3-8041-ee0b2f20cf9c","system_id":"levelo_inurba_marseille","lat":43.30459,"lon":5.37903,"is_reserved":false,"is_disabled":false,"rental_uris":{"android":"levelo://app?vid=095c8e4a-aa8e-42c3-8041-ee0b2f20cf9c","ios":"levelo://app?vid=095c8e4a-aa8e-42c3-8041-ee0b2f20cf9c"},"vehicle_type_id":"4","last_reported":1728112110,"current_range_meters":34000,"station_id":"ce4bgup2rcd13ifvqcn0","pricing_plan_id":"cebpf4jnsgd1na2vs0mg"},{"bike_id":"e4799af4-41eb-4d01-aef5-61968171aedc","system_id":"levelo_inurba_marseille","lat":43.28613,"lon":5.35101,"is_reserved":false,"is_disabled":false,"rental_uris":{"android":"levelo://app?vid=e4799af4-41eb-4d01-aef5-61968171aedc","ios":"levelo://app?vid=e4799af4-41eb-4d01-aef5-61968171aedc"},"vehicle_type_id":"4","last_reported":1728112110,"current_range_meters":38000,"station_id":"ce4bhch2rcd13ifvqeug","pricing_plan_id":"cebpf4jnsgd1na2vs0mg"},{"bike_id":"500956c9-eeb0-4c1a-8001-8490f6e76b14","system_id":"levelo_inurba_marseille","lat":43.23175,"lon":5.39982,"is_reserved":false,"is_disabled":false,"rental_uris":{"android":"levelo://app?vid=500956c9-eeb0-4c1a-8001-8490f6e76b14","ios":"levelo://app?vid=500956c9-eeb0-4c1a-8001-8490f6e76b14"},"vehicle_type_id":"4","last_reported":1728112110,"current_range_meters":16400,"station_id":"ce4bhn12rcd13ifvqgqg","pricing_plan_id":"cebpf4jnsgd1na2vs0mg"},{"bike_id":"a57357ff-3195-4b18-9583-de0233767d8a","system_id":"levelo_inurba_marseille","lat":43.306637,"lon":5.400864,"is_reserved":false,"is_disabled":false,"rental_uris":{"android":"levelo://app?vid=a57357ff-3195-4b18-9583-de0233767d8a","ios":"levelo://app?vid=a57357ff-3195-4b18-9583-de0233767d8a"},"vehicle_type_id":"4","last_reported":1728112110,"current_range_meters":28800,"station_id":"ce4bh112rcd13ifvqda0","pricing_plan_id":"cebpf4jnsgd1na2vs0mg"},{"bike_id":"0dcf805a-462e-4514-b299-663185b51e0a","system_id":"levelo_inurba_marseille","lat":43.29223,"lon":5.36069,"is_reserved":false,"is_disabled":false,"rental_uris":{"android":"levelo://app?vid=0dcf805a-462e-4514-b299-663185b51e0a","ios":"levelo://app?vid=0dcf805a-462e-4514-b299-663185b51e0a"},"vehicle_type_id":"4","last_reported":1728112110,"current_range_meters":34800,"station_id":"ce4bhbh2rcd13ifvqeqg","pricing_plan_id":"cebpf4jnsgd1na2vs0mg"},{"bike_id":"206bf6bf-09ad-4763-85da-6f36c3ad29a0","system_id":"levelo_inurba_marseille","lat":43.27991,"lon":5.41659,"is_reserved":false,"is_disabled":false,"rental_uris":{"android":"levelo://app?vid=206bf6bf-09ad-4763-85da-6f36c3ad29a0","ios":"levelo://app?vid=206bf6bf-09ad-4763-85da-6f36c3ad29a0"},"vehicle_type_id":"4","last_reported":1728112110,"current_range_meters":22800,"station_id":"ce4bho12rcd13ifvqh1g","pricing_plan_id":"cebpf4jnsgd1na2vs0mg"},{"bike_id":"13be14ca-4720-4940-8cca-f041d53bd149","system_id":"levelo_inurba_marseille","lat":43.24999,"lon":5.38924,"is_reserved":false,"is_disabled":false,"rental_uris":{"android":"levelo://app?vid=13be14ca-4720-4940-8cca-f041d53bd149","ios":"levelo://app?vid=13be14ca-4720-4940-8cca-f041d53bd149"},"vehicle_type_id":"4","last_reported":1728112110,"current_range_meters":16000,"station_id":"ce4bhgp2rcd13ifvqfd0","pricing_plan_id":"cebpf4jnsgd1na2vs0mg"},{"bike_id":"cebe3c67-d41a-43e6-a853-969ec8b7b5da","system_id":"levelo_inurba_marseille","lat":43.28095,"lon":5.37843,"is_reserved":false,"is_disabled":false,"rental_uris":{"android":"levelo://app?vid=cebe3c67-d41a-43e6-a853-969ec8b7b5da","ios":"levelo://app?vid=cebe3c67-d41a-43e6-a853-969ec8b7b5da"},"vehicle_type_id":"4","last_reported":1728112110,"current_range_meters":34000,"station_id":"ce4bha12rcd13ifvqee0","pricing_plan_id":"cebpf4jnsgd1na2vs0mg"},{"bike_id":"bb5f5452-4b9b-417d-b148-b396a874f3d9","system_id":"levelo_inurba_marseille","lat":43.3376,"lon":5.37439,"is_reserved":false,"is_disabled":false,"rental_uris":{"android":"levelo://app?vid=bb5f5452-4b9b-417d-b148-b396a874f3d9","ios":"levelo://app?vid=bb5f5452-4b9b-417d-b148-b396a874f3d9"},"vehicle_type_id":"4","last_reported":1728112110,"current_range_meters":32800,"station_id":"","pricing_plan_id":"cebpf4jnsgd1na2vs0mg"},{"bike_id":"58a23eeb-f9f9-4acf-985e-1c41017c3542","system_id":"levelo_inurba_marseille","lat":43.2651,"lon":5.39549,"is_reserved":false,"is_disabled":false,"rental_uris":{"android":"levelo://app?vid=58a23eeb-f9f9-4acf-985e-1c41017c3542","ios":"levelo://app?vid=58a23eeb-f9f9-4acf-985e-1c41017c3542"},"vehicle_type_id":"4","last_reported":1728112110,"current_range_meters":36800,"station_id":"ce4bhi12rcd13ifvqfq0","pricing_plan_id":"cebpf4jnsgd1na2vs0mg"},{"bike_id":"82d2602c-a9f5-451e-8f2e-69c892008fa9","system_id":"levelo_inurba_marseille","lat":43.28946,"lon":5.36402,"is_reserved":false,"is_disabled":false,"rental_uris":{"android":"levelo://app?vid=82d2602c-a9f5-451e-8f2e-69c892008fa9","ios":"levelo://app?vid=82d2602c-a9f5-451e-8f2e-69c892008fa9"},"vehicle_type_id":"4","last_reported":1728112110,"current_range_meters":32400,"station_id":"ce4bhc92rcd13ifvqetg","pricing_plan_id":"cebpf4jnsgd1na2vs0mg"},{"bike_id":"745ed244-76cd-4c23-a987-6d60e3a4cb1b","system_id":"levelo_inurba_marseille","lat":43.29181,"lon":5.35796,"is_reserved":false,"is_disabled":false,"rental_uris":{"android":"levelo://app?vid=745ed244-76cd-4c23-a987-6d60e3a4cb1b","ios":"levelo://app?vid=745ed244-76cd-4c23-a987-6d60e3a4cb1b"},"vehicle_type_id":"4","last_reported":1728112110,"current_range_meters":38800,"station_id":"ce4bhb12rcd13ifvqel0","pricing_plan_id":"cebpf4jnsgd1na2vs0mg"},{"bike_id":"5522a723-7146-4651-b0b7-bab1f29c8534","system_id":"levelo_inurba_marseille","lat":43.28607,"lon":5.37063,"is_reserved":false,"is_disabled":false,"rental_uris":{"android":"levelo://app?vid=5522a723-7146-4651-b0b7-bab1f29c8534","ios":"levelo://app?vid=5522a723-7146-4651-b0b7-bab1f29c8534"},"vehicle_type_id":"4","last_reported":1728112110,"current_range_meters":37600,"station_id":"ce4bht12rcd13ifvqi60","pricing_plan_id":"cebpf4jnsgd1na2vs0mg"},{"bike_id":"d7a0298f-5c2b-438d-ab05-5d6a7ac83160","system_id":"levelo_inurba_marseille","lat":43.30799,"lon":5.43521,"is_reserved":false,"is_disabled":false,"rental_uris":{"android":"levelo://app?vid=d7a0298f-5c2b-438d-ab05-5d6a7ac83160","ios":"levelo://app?vid=d7a0298f-5c2b-438d-ab05-5d6a7ac83160"},"vehicle_type_id":"4","last_reported":1728112110,"current_range_meters":37600,"station_id":"ce4bhph2rcd13ifvqheg","pricing_plan_id":"cebpf4jnsgd1na2vs0mg"},{"bike_id":"621d9c86-2034-44eb-ab16-1d18fab24db9","system_id":"levelo_inurba_marseille","lat":43.316996,"lon":5.377634,"is_reserved":false,"is_disabled":false,"rental_uris":{"android":"levelo://app?vid=621d9c86-2034-44eb-ab16-1d18fab24db9","ios":"levelo://app?vid=621d9c86-2034-44eb-ab16-1d18fab24db9"},"vehicle_type_id":"4","last_reported":1728112110,"current_range_meters":40000,"station_id":"ce4bgth2rcd13ifvqch0","pricing_plan_id":"cebpf4jnsgd1na2vs0mg"},{"bike_id":"b8fcc49f-9739-4ac8-ab70-8e7941e0b2e7","system_id":"levelo_inurba_marseille","lat":43.31358,"lon":5.38487,"is_reserved":false,"is_disabled":false,"rental_uris":{"android":"levelo://app?vid=b8fcc49f-9739-4ac8-ab70-8e7941e0b2e7","ios":"levelo://app?vid=b8fcc49f-9739-4ac8-ab70-8e7941e0b2e7"},"vehicle_type_id":"4","last_reported":1728112110,"current_range_meters":38800,"station_id":"ce4bgt92rcd13ifvqcf0","pricing_plan_id":"cebpf4jnsgd1na2vs0mg"},{"bike_id":"5efa7fc7-fcac-4385-ab16-16409c55305a","system_id":"levelo_inurba_marseille","lat":43.29195,"lon":5.35806,"is_reserved":false,"is_disabled":false,"rental_uris":{"android":"levelo://app?vid=5efa7fc7-fcac-4385-ab16-16409c55305a","ios":"levelo://app?vid=5efa7fc7-fcac-4385-ab16-16409c55305a"},"vehicle_type_id":"4","last_reported":1728112110,"current_range_meters":10000,"station_id":"ce4bhb12rcd13ifvqel0","pricing_plan_id":"cebpf4jnsgd1na2vs0mg"},{"bike_id":"751288db-5c2d-4384-8dc9-cff7844f7c61","system_id":"levelo_inurba_marseille","lat":43.293152,"lon":5.36816,"is_reserved":false,"is_disabled":false,"rental_uris":{"android":"levelo://app?vid=751288db-5c2d-4384-8dc9-cff7844f7c61","ios":"levelo://app?vid=751288db-5c2d-4384-8dc9-cff7844f7c61"},"vehicle_type_id":"4","last_reported":1728112110,"current_range_meters":38400,"station_id":"ce4bhbp2rcd13ifvqesg","pricing_plan_id":"cebpf4jnsgd1na2vs0mg"},{"bike_id":"2d7f0ca1-4e15-444e-88eb-6aff8b7e1392","system_id":"levelo_inurba_marseille","lat":43.29168,"lon":5.37175,"is_reserved":false,"is_disabled":false,"rental_uris":{"android":"levelo://app?vid=2d7f0ca1-4e15-444e-88eb-6aff8b7e1392","ios":"levelo://app?vid=2d7f0ca1-4e15-444e-88eb-6aff8b7e1392"},"vehicle_type_id":"4","last_reported":1728112110,"current_range_meters":27600,"station_id":"ce4bha92rcd13ifvqeh0","pricing_plan_id":"cebpf4jnsgd1na2vs0mg"},{"bike_id":"b0dc2897-cb6b-44e2-947a-9e1de3e6a940","system_id":"levelo_inurba_marseille","lat":43.28153,"lon":5.42642,"is_reserved":false,"is_disabled":false,"rental_uris":{"android":"levelo://app?vid=b0dc2897-cb6b-44e2-947a-9e1de3e6a940","ios":"levelo://app?vid=b0dc2897-cb6b-44e2-947a-9e1de3e6a940"},"vehicle_type_id":"4","last_reported":1728112110,"current_range_meters":6000,"station_id":"ce4bhnh2rcd13ifvqgug","pricing_plan_id":"cebpf4jnsgd1na2vs0mg"},{"bike_id":"69d22968-5985-4dc4-b82a-a054e66a9462","system_id":"levelo_inurba_marseille","lat":43.33604,"lon":5.41022,"is_reserved":false,"is_disabled":false,"rental_uris":{"android":"levelo://app?vid=69d22968-5985-4dc4-b82a-a054e66a9462","ios":"levelo://app?vid=69d22968-5985-4dc4-b82a-a054e66a9462"},"vehicle_type_id":"4","last_reported":1728112110,"current_range_meters":30800,"station_id":"ce4bhqh2rcd13ifvqhmg","pricing_plan_id":"cebpf4jnsgd1na2vs0mg"},{"bike_id":"43fc5487-6973-4fc7-a12f-6a97ffe8a3ce","system_id":"levelo_inurba_marseille","lat":43.25103,"lon":5.40319,"is_reserved":false,"is_disabled":false,"rental_uris":{"android":"levelo://app?vid=43fc5487-6973-4fc7-a12f-6a97ffe8a3ce","ios":"levelo://app?vid=43fc5487-6973-4fc7-a12f-6a97ffe8a3ce"},"vehicle_type_id":"4","last_reported":1728112110,"current_range_meters":38000,"station_id":"ce4bhlh2rcd13ifvqgig","pricing_plan_id":"cebpf4jnsgd1na2vs0mg"},{"bike_id":"2eaa0040-6ce1-4a14-a1ce-ca4c4f1a6624","system_id":"levelo_inurba_marseille","lat":43.29051,"lon":5.35904,"is_reserved":false,"is_disabled":false,"rental_uris":{"android":"levelo://app?vid=2eaa0040-6ce1-4a14-a1ce-ca4c4f1a6624","ios":"levelo://app?vid=2eaa0040-6ce1-4a14-a1ce-ca4c4f1a6624"},"vehicle_type_id":"4","last_reported":1728112110,"current_range_meters":38800,"station_id":"ce4bha92rcd13ifvqeg0","pricing_plan_id":"cebpf4jnsgd1na2vs0mg"},{"bike_id":"219df1b6-9d69-46f8-bdd5-caa50ce674cf","system_id":"levelo_inurba_marseille","lat":43.255493,"lon":5.37674,"is_reserved":false,"is_disabled":false,"rental_uris":{"android":"levelo://app?vid=219df1b6-9d69-46f8-bdd5-caa50ce674cf","ios":"levelo://app?vid=219df1b6-9d69-46f8-bdd5-caa50ce674cf"},"vehicle_type_id":"4","last_reported":1728112110,"current_range_meters":10800,"station_id":"","pricing_plan_id":"cebpf4jnsgd1na2vs0mg"},{"bike_id":"034e404b-7118-4ae3-866b-ddb41e09353f","system_id":"levelo_inurba_marseille","lat":43.28106,"lon":5.37839,"is_reserved":false,"is_disabled":false,"rental_uris":{"android":"levelo://app?vid=034e404b-7118-4ae3-866b-ddb41e09353f","ios":"levelo://app?vid=034e404b-7118-4ae3-866b-ddb41e09353f"},"vehicle_type_id":"4","last_reported":1728112110,"current_range_meters":26000,"station_id":"ce4bha12rcd13ifvqee0","pricing_plan_id":"cebpf4jnsgd1na2vs0mg"},{"bike_id":"c82a5eaf-5e98-42ee-a232-e80e5978fd87","system_id":"levelo_inurba_marseille","lat":43.29592,"lon":5.38103,"is_reserved":false,"is_disabled":false,"rental_uris":{"android":"levelo://app?vid=c82a5eaf-5e98-42ee-a232-e80e5978fd87","ios":"levelo://app?vid=c82a5eaf-5e98-42ee-a232-e80e5978fd87"},"vehicle_type_id":"4","last_reported":1728112110,"current_range_meters":35600,"station_id":"ce4bgl12rcd13ifvqbo0","pricing_plan_id":"cebpf4jnsgd1na2vs0mg"},{"bike_id":"ec712d60-8a85-4221-b9f0-598475c5f635","system_id":"levelo_inurba_marseille","lat":43.25495,"lon":5.3766,"is_reserved":false,"is_disabled":false,"rental_uris":{"android":"levelo://app?vid=ec712d60-8a85-4221-b9f0-598475c5f635","ios":"levelo://app?vid=ec712d60-8a85-4221-b9f0-598475c5f635"},"vehicle_type_id":"4","last_reported":1728112110,"current_range_meters":37600,"station_id":"ce4bhh12rcd13ifvqff0","pricing_plan_id":"cebpf4jnsgd1na2vs0mg"},{"bike_id":"6a4b0bea-a36c-4e34-8edb-b3ea3c6da77f","system_id":"levelo_inurba_marseille","lat":43.2512,"lon":5.4032,"is_reserved":false,"is_disabled":false,"rental_uris":{"android":"levelo://app?vid=6a4b0bea-a36c-4e34-8edb-b3ea3c6da77f","ios":"levelo://app?vid=6a4b0bea-a36c-4e34-8edb-b3ea3c6da77f"},"vehicle_type_id":"4","last_reported":1728112110,"current_range_meters":24000,"station_id":"ce4bhlh2rcd13ifvqgig","pricing_plan_id":"cebpf4jnsgd1na2vs0mg"},{"bike_id":"28d863a6-8c9c-4fca-8750-d55e35c7faa7","system_id":"levelo_inurba_marseille","lat":43.30089,"lon":5.39078,"is_reserved":false,"is_disabled":false,"rental_uris":{"android":"levelo://app?vid=28d863a6-8c9c-4fca-8750-d55e35c7faa7","ios":"levelo://app?vid=28d863a6-8c9c-4fca-8750-d55e35c7faa7"},"vehicle_type_id":"4","last_reported":1728112110,"current_range_meters":34000,"station_id":"ce4bh192rcd13ifvqdb0","pricing_plan_id":"cebpf4jnsgd1na2vs0mg"},{"bike_id":"57d7b7bf-9a1e-4c35-8388-96cc980f8410","system_id":"levelo_inurba_marseille","lat":43.22924,"lon":5.35376,"is_reserved":false,"is_disabled":false,"rental_uris":{"android":"levelo://app?vid=57d7b7bf-9a1e-4c35-8388-96cc980f8410","ios":"levelo://app?vid=57d7b7bf-9a1e-4c35-8388-96cc980f8410"},"vehicle_type_id":"4","last_reported":1728112110,"current_range_meters":16000,"station_id":"cpo3532slgdg3j2ikp40","pricing_plan_id":"cebpf4jnsgd1na2vs0mg"},{"bike_id":"f54b123e-fbdd-415f-9c97-e034d979e1ec","system_id":"levelo_inurba_marseille","lat":43.3048,"lon":5.37916,"is_reserved":false,"is_disabled":false,"rental_uris":{"android":"levelo://app?vid=f54b123e-fbdd-415f-9c97-e034d979e1ec","ios":"levelo://app?vid=f54b123e-fbdd-415f-9c97-e034d979e1ec"},"vehicle_type_id":"4","last_reported":1728112110,"current_range_meters":30000,"station_id":"ce4bgup2rcd13ifvqcn0","pricing_plan_id":"cebpf4jnsgd1na2vs0mg"},{"bike_id":"82f49e4e-fcac-4087-aece-6f5af1299050","system_id":"levelo_inurba_marseille","lat":43.28411,"lon":5.34988,"is_reserved":false,"is_disabled":false,"rental_uris":{"android":"levelo://app?vid=82f49e4e-fcac-4087-aece-6f5af1299050","ios":"levelo://app?vid=82f49e4e-fcac-4087-aece-6f5af1299050"},"vehicle_type_id":"4","last_reported":1728112110,"current_range_meters":34800,"station_id":"ce4bhbh2rcd13ifvqepg","pricing_plan_id":"cebpf4jnsgd1na2vs0mg"},{"bike_id":"e194d986-0055-453c-88f9-259ba45226bc","system_id":"levelo_inurba_marseille","lat":43.30512,"lon":5.36699,"is_reserved":false,"is_disabled":false,"rental_uris":{"android":"levelo://app?vid=e194d986-0055-453c-88f9-259ba45226bc","ios":"levelo://app?vid=e194d986-0055-453c-88f9-259ba45226bc"},"vehicle_type_id":"4","last_reported":1728112110,"current_range_meters":38000,"station_id":"ce4bgrp2rcd13ifvqc9g","pricing_plan_id":"cebpf4jnsgd1na2vs0mg"},{"bike_id":"e9fbfdc1-4b72-407f-8534-de81b6153f9f","system_id":"levelo_inurba_marseille","lat":43.2511,"lon":5.40315,"is_reserved":false,"is_disabled":false,"rental_uris":{"android":"levelo://app?vid=e9fbfdc1-4b72-407f-8534-de81b6153f9f","ios":"levelo://app?vid=e9fbfdc1-4b72-407f-8534-de81b6153f9f"},"vehicle_type_id":"4","last_reported":1728112110,"current_range_meters":26800,"station_id":"ce4bhlh2rcd13ifvqgig","pricing_plan_id":"cebpf4jnsgd1na2vs0mg"},{"bike_id":"ea0f2492-2138-468f-bd77-ebaca7a464f3","system_id":"levelo_inurba_marseille","lat":43.28413,"lon":5.3498,"is_reserved":false,"is_disabled":false,"rental_uris":{"android":"levelo://app?vid=ea0f2492-2138-468f-bd77-ebaca7a464f3","ios":"levelo://app?vid=ea0f2492-2138-468f-bd77-ebaca7a464f3"},"vehicle_type_id":"4","last_reported":1728112110,"current_range_meters":38800,"station_id":"ce4bhbh2rcd13ifvqepg","pricing_plan_id":"cebpf4jnsgd1na2vs0mg"},{"bike_id":"77c59eab-5250-44c4-be86-099c0defe9c4","system_id":"levelo_inurba_marseille","lat":43.33751,"lon":5.37456,"is_reserved":false,"is_disabled":false,"rental_uris":{"android":"levelo://app?vid=77c59eab-5250-44c4-be86-099c0defe9c4","ios":"levelo://app?vid=77c59eab-5250-44c4-be86-099c0defe9c4"},"vehicle_type_id":"4","last_reported":1728112110,"current_range_meters":26800,"station_id":"","pricing_plan_id":"cebpf4jnsgd1na2vs0mg"},{"bike_id":"449d415f-05ac-4b50-969e-a471643013e9","system_id":"levelo_inurba_marseille","lat":43.31352,"lon":5.38498,"is_reserved":false,"is_disabled":false,"rental_uris":{"android":"levelo://app?vid=449d415f-05ac-4b50-969e-a471643013e9","ios":"levelo://app?vid=449d415f-05ac-4b50-969e-a471643013e9"},"vehicle_type_id":"4","last_reported":1728112110,"current_range_meters":36400,"station_id":"ce4bgt92rcd13ifvqcf0","pricing_plan_id":"cebpf4jnsgd1na2vs0mg"},{"bike_id":"c9b68f56-64ee-42b4-8db0-f7451aef9767","system_id":"levelo_inurba_marseille","lat":43.25087,"lon":5.39515,"is_reserved":false,"is_disabled":false,"rental_uris":{"android":"levelo://app?vid=c9b68f56-64ee-42b4-8db0-f7451aef9767","ios":"levelo://app?vid=c9b68f56-64ee-42b4-8db0-f7451aef9767"},"vehicle_type_id":"4","last_reported":1728112110,"current_range_meters":12800,"station_id":"ce4bhm12rcd13ifvqgkg","pricing_plan_id":"cebpf4jnsgd1na2vs0mg"},{"bike_id":"23c9dddb-6558-4a58-8f57-24e58ca2b8af","system_id":"levelo_inurba_marseille","lat":43.28392,"lon":5.37508,"is_reserved":false,"is_disabled":false,"rental_uris":{"android":"levelo://app?vid=23c9dddb-6558-4a58-8f57-24e58ca2b8af","ios":"levelo://app?vid=23c9dddb-6558-4a58-8f57-24e58ca2b8af"},"vehicle_type_id":"4","last_reported":1728112110,"current_range_meters":38000,"station_id":"ce4bh412rcd13ifvqds0","pricing_plan_id":"cebpf4jnsgd1na2vs0mg"},{"bike_id":"3338b0ed-8ca7-4b1b-951c-e1c59940a0cc","system_id":"levelo_inurba_marseille","lat":43.23961,"lon":5.36629,"is_reserved":false,"is_disabled":false,"rental_uris":{"android":"levelo://app?vid=3338b0ed-8ca7-4b1b-951c-e1c59940a0cc","ios":"levelo://app?vid=3338b0ed-8ca7-4b1b-951c-e1c59940a0cc"},"vehicle_type_id":"4","last_reported":1728112110,"current_range_meters":38800,"station_id":"ce4bhi12rcd13ifvqfp0","pricing_plan_id":"cebpf4jnsgd1na2vs0mg"},{"bike_id":"84b07b81-8a90-4e9c-96ec-461a75726f5b","system_id":"levelo_inurba_marseille","lat":43.32003,"lon":5.38143,"is_reserved":false,"is_disabled":false,"rental_uris":{"android":"levelo://app?vid=84b07b81-8a90-4e9c-96ec-461a75726f5b","ios":"levelo://app?vid=84b07b81-8a90-4e9c-96ec-461a75726f5b"},"vehicle_type_id":"4","last_reported":1728112110,"current_range_meters":8000,"station_id":"ce4bhr12rcd13ifvqhpg","pricing_plan_id":"cebpf4jnsgd1na2vs0mg"},{"bike_id":"d3831008-2e40-49ed-9feb-19f1d9f96d9c","system_id":"levelo_inurba_marseille","lat":43.31171,"lon":5.38708,"is_reserved":false,"is_disabled":false,"rental_uris":{"android":"levelo://app?vid=d3831008-2e40-49ed-9feb-19f1d9f96d9c","ios":"levelo://app?vid=d3831008-2e40-49ed-9feb-19f1d9f96d9c"},"vehicle_type_id":"4","last_reported":1728112110,"current_range_meters":19200,"station_id":"ce4bgv12rcd13ifvqcp0","pricing_plan_id":"cebpf4jnsgd1na2vs0mg"},{"bike_id":"adabf0b5-63fc-4095-abd4-50e77fc7ae6c","system_id":"levelo_inurba_marseille","lat":43.30804,"lon":5.38151,"is_reserved":false,"is_disabled":false,"rental_uris":{"android":"levelo://app?vid=adabf0b5-63fc-4095-abd4-50e77fc7ae6c","ios":"levelo://app?vid=adabf0b5-63fc-4095-abd4-50e77fc7ae6c"},"vehicle_type_id":"4","last_reported":1728112110,"current_range_meters":38800,"station_id":"ce4bgt12rcd13ifvqce0","pricing_plan_id":"cebpf4jnsgd1na2vs0mg"},{"bike_id":"22ebda54-2930-45ed-9441-4757dddde4f4","system_id":"levelo_inurba_marseille","lat":43.2757,"lon":5.38408,"is_reserved":false,"is_disabled":false,"rental_uris":{"android":"levelo://app?vid=22ebda54-2930-45ed-9441-4757dddde4f4","ios":"levelo://app?vid=22ebda54-2930-45ed-9441-4757dddde4f4"},"vehicle_type_id":"4","last_reported":1728112110,"current_range_meters":33600,"station_id":"ce4bhh92rcd13ifvqfi0","pricing_plan_id":"cebpf4jnsgd1na2vs0mg"},{"bike_id":"32ceac28-dacd-4d4c-9c55-d75f7e6d1aa1","system_id":"levelo_inurba_marseille","lat":43.308,"lon":5.43516,"is_reserved":false,"is_disabled":false,"rental_uris":{"android":"levelo://app?vid=32ceac28-dacd-4d4c-9c55-d75f7e6d1aa1","ios":"levelo://app?vid=32ceac28-dacd-4d4c-9c55-d75f7e6d1aa1"},"vehicle_type_id":"4","last_reported":1728112110,"current_range_meters":10800,"station_id":"ce4bhph2rcd13ifvqheg","pricing_plan_id":"cebpf4jnsgd1na2vs0mg"},{"bike_id":"ca47570b-2efc-4631-b07a-832edc9b204f","system_id":"levelo_inurba_marseille","lat":43.23178,"lon":5.39986,"is_reserved":false,"is_disabled":false,"rental_uris":{"android":"levelo://app?vid=ca47570b-2efc-4631-b07a-832edc9b204f","ios":"levelo://app?vid=ca47570b-2efc-4631-b07a-832edc9b204f"},"vehicle_type_id":"4","last_reported":1728112110,"current_range_meters":28000,"station_id":"ce4bhn12rcd13ifvqgqg","pricing_plan_id":"cebpf4jnsgd1na2vs0mg"},{"bike_id":"76c56b9d-64bc-46d6-9979-03fa503b2a8a","system_id":"levelo_inurba_marseille","lat":43.29301,"lon":5.3747,"is_reserved":false,"is_disabled":false,"rental_uris":{"android":"levelo://app?vid=76c56b9d-64bc-46d6-9979-03fa503b2a8a","ios":"levelo://app?vid=76c56b9d-64bc-46d6-9979-03fa503b2a8a"},"vehicle_type_id":"4","last_reported":1728112110,"current_range_meters":28800,"station_id":"ce4bgi12rcd13ifvqb70","pricing_plan_id":"cebpf4jnsgd1na2vs0mg"},{"bike_id":"f00942e1-532d-49fd-ad01-de6eea2e91e3","system_id":"levelo_inurba_marseille","lat":43.28842,"lon":5.35855,"is_reserved":false,"is_disabled":false,"rental_uris":{"android":"levelo://app?vid=f00942e1-532d-49fd-ad01-de6eea2e91e3","ios":"levelo://app?vid=f00942e1-532d-49fd-ad01-de6eea2e91e3"},"vehicle_type_id":"4","last_reported":1728112110,"current_range_meters":25200,"station_id":"ce4bhb12rcd13ifvqem0","pricing_plan_id":"cebpf4jnsgd1na2vs0mg"},{"bike_id":"3e0ada6c-630f-49c5-bd04-c47d3b9da6d5","system_id":"levelo_inurba_marseille","lat":43.27068,"lon":5.4228,"is_reserved":false,"is_disabled":false,"rental_uris":{"android":"levelo://app?vid=3e0ada6c-630f-49c5-bd04-c47d3b9da6d5","ios":"levelo://app?vid=3e0ada6c-630f-49c5-bd04-c47d3b9da6d5"},"vehicle_type_id":"4","last_reported":1728112110,"current_range_meters":34000,"station_id":"ce4bhk92rcd13ifvqgb0","pricing_plan_id":"cebpf4jnsgd1na2vs0mg"},{"bike_id":"1e6a44e2-821a-4ca1-8b03-7291f86f1d6f","system_id":"levelo_inurba_marseille","lat":43.29272,"lon":5.36848,"is_reserved":false,"is_disabled":false,"rental_uris":{"android":"levelo://app?vid=1e6a44e2-821a-4ca1-8b03-7291f86f1d6f","ios":"levelo://app?vid=1e6a44e2-821a-4ca1-8b03-7291f86f1d6f"},"vehicle_type_id":"4","last_reported":1728112110,"current_range_meters":3600,"station_id":"ce4bhbp2rcd13ifvqesg","pricing_plan_id":"cebpf4jnsgd1na2vs0mg"},{"bike_id":"b417a8d0-1fac-4a2b-9294-35cea48e57c1","system_id":"levelo_inurba_marseille","lat":43.33024,"lon":5.39044,"is_reserved":false,"is_disabled":false,"rental_uris":{"android":"levelo://app?vid=b417a8d0-1fac-4a2b-9294-35cea48e57c1","ios":"levelo://app?vid=b417a8d0-1fac-4a2b-9294-35cea48e57c1"},"vehicle_type_id":"4","last_reported":1728112110,"current_range_meters":28000,"station_id":"ce4bhr92rcd13ifvqhrg","pricing_plan_id":"cebpf4jnsgd1na2vs0mg"},{"bike_id":"d54b1158-ec6f-4dc3-a7e1-2d0b5958261d","system_id":"levelo_inurba_marseille","lat":43.295502,"lon":5.422891,"is_reserved":false,"is_disabled":false,"rental_uris":{"android":"levelo://app?vid=d54b1158-ec6f-4dc3-a7e1-2d0b5958261d","ios":"levelo://app?vid=d54b1158-ec6f-4dc3-a7e1-2d0b5958261d"},"vehicle_type_id":"4","last_reported":1728112110,"current_range_meters":38800,"station_id":"ce4bhph2rcd13ifvqhdg","pricing_plan_id":"cebpf4jnsgd1na2vs0mg"},{"bike_id":"dceb5268-2d59-4313-9937-cee88239e7ab","system_id":"levelo_inurba_marseille","lat":43.30587,"lon":5.39332,"is_reserved":false,"is_disabled":false,"rental_uris":{"android":"levelo://app?vid=dceb5268-2d59-4313-9937-cee88239e7ab","ios":"levelo://app?vid=dceb5268-2d59-4313-9937-cee88239e7ab"},"vehicle_type_id":"4","last_reported":1728112110,"current_range_meters":28800,"station_id":"ce4bh0p2rcd13ifvqd80","pricing_plan_id":"cebpf4jnsgd1na2vs0mg"},{"bike_id":"d5c43e4f-ec76-4579-b5d4-6acbbae67566","system_id":"levelo_inurba_marseille","lat":43.22928,"lon":5.3537,"is_reserved":false,"is_disabled":false,"rental_uris":{"android":"levelo://app?vid=d5c43e4f-ec76-4579-b5d4-6acbbae67566","ios":"levelo://app?vid=d5c43e4f-ec76-4579-b5d4-6acbbae67566"},"vehicle_type_id":"4","last_reported":1728112110,"current_range_meters":22400,"station_id":"cpo3532slgdg3j2ikp40","pricing_plan_id":"cebpf4jnsgd1na2vs0mg"},{"bike_id":"f9e559a2-35ab-4cea-90d1-ad6e65c19c9b","system_id":"levelo_inurba_marseille","lat":43.28614,"lon":5.351,"is_reserved":false,"is_disabled":false,"rental_uris":{"android":"levelo://app?vid=f9e559a2-35ab-4cea-90d1-ad6e65c19c9b","ios":"levelo://app?vid=f9e559a2-35ab-4cea-90d1-ad6e65c19c9b"},"vehicle_type_id":"4","last_reported":1728112110,"current_range_meters":10800,"station_id":"ce4bhch2rcd13ifvqeug","pricing_plan_id":"cebpf4jnsgd1na2vs0mg"},{"bike_id":"d3404d93-b1d4-4785-a824-c0b9e1db9cc1","system_id":"levelo_inurba_marseille","lat":43.2872,"lon":5.36103,"is_reserved":false,"is_disabled":false,"rental_uris":{"android":"levelo://app?vid=d3404d93-b1d4-4785-a824-c0b9e1db9cc1","ios":"levelo://app?vid=d3404d93-b1d4-4785-a824-c0b9e1db9cc1"},"vehicle_type_id":"4","last_reported":1728112110,"current_range_meters":38000,"station_id":"cki0cbj6b192h4jlfktg","pricing_plan_id":"cebpf4jnsgd1na2vs0mg"},{"bike_id":"3a8473b5-11d9-48cf-b2cc-cb4f2c2828cf","system_id":"levelo_inurba_marseille","lat":43.33609,"lon":5.41032,"is_reserved":false,"is_disabled":false,"rental_uris":{"android":"levelo://app?vid=3a8473b5-11d9-48cf-b2cc-cb4f2c2828cf","ios":"levelo://app?vid=3a8473b5-11d9-48cf-b2cc-cb4f2c2828cf"},"vehicle_type_id":"4","last_reported":1728112110,"current_range_meters":35600,"station_id":"ce4bhqh2rcd13ifvqhmg","pricing_plan_id":"cebpf4jnsgd1na2vs0mg"},{"bike_id":"2652d87d-e51f-4777-97ca-7914dd0fe606","system_id":"levelo_inurba_marseille","lat":43.30452,"lon":5.3789,"is_reserved":false,"is_disabled":false,"rental_uris":{"android":"levelo://app?vid=2652d87d-e51f-4777-97ca-7914dd0fe606","ios":"levelo://app?vid=2652d87d-e51f-4777-97ca-7914dd0fe606"},"vehicle_type_id":"4","last_reported":1728112110,"current_range_meters":38800,"station_id":"ce4bgup2rcd13ifvqcn0","pricing_plan_id":"cebpf4jnsgd1na2vs0mg"},{"bike_id":"d925fb99-7f28-4465-be58-e6f249509109","system_id":"levelo_inurba_marseille","lat":43.29001,"lon":5.35604,"is_reserved":false,"is_disabled":false,"rental_uris":{"android":"levelo://app?vid=d925fb99-7f28-4465-be58-e6f249509109","ios":"levelo://app?vid=d925fb99-7f28-4465-be58-e6f249509109"},"vehicle_type_id":"4","last_reported":1728112110,"current_range_meters":38800,"station_id":"ce4bhb92rcd13ifvqen0","pricing_plan_id":"cebpf4jnsgd1na2vs0mg"},{"bike_id":"28b97c78-056c-481b-b1f9-99b6a226adca","system_id":"levelo_inurba_marseille","lat":43.28698,"lon":5.39978,"is_reserved":false,"is_disabled":false,"rental_uris":{"android":"levelo://app?vid=28b97c78-056c-481b-b1f9-99b6a226adca","ios":"levelo://app?vid=28b97c78-056c-481b-b1f9-99b6a226adca"},"vehicle_type_id":"4","last_reported":1728112110,"current_range_meters":37600,"station_id":"ce4bho92rcd13ifvqh3g","pricing_plan_id":"cebpf4jnsgd1na2vs0mg"},{"bike_id":"8444ed0b-fdac-4648-a368-f82ca7e16cd9","system_id":"levelo_inurba_marseille","lat":43.25109,"lon":5.40325,"is_reserved":false,"is_disabled":false,"rental_uris":{"android":"levelo://app?vid=8444ed0b-fdac-4648-a368-f82ca7e16cd9","ios":"levelo://app?vid=8444ed0b-fdac-4648-a368-f82ca7e16cd9"},"vehicle_type_id":"4","last_reported":1728112110,"current_range_meters":4000,"station_id":"ce4bhlh2rcd13ifvqgig","pricing_plan_id":"cebpf4jnsgd1na2vs0mg"},{"bike_id":"43460ace-040d-41be-a8fd-f862e590f6a3","system_id":"levelo_inurba_marseille","lat":43.30146,"lon":5.37413,"is_reserved":false,"is_disabled":false,"rental_uris":{"android":"levelo://app?vid=43460ace-040d-41be-a8fd-f862e590f6a3","ios":"levelo://app?vid=43460ace-040d-41be-a8fd-f862e590f6a3"},"vehicle_type_id":"4","last_reported":1728112110,"current_range_meters":36000,"station_id":"ce4bgs92rcd13ifvqcc0","pricing_plan_id":"cebpf4jnsgd1na2vs0mg"},{"bike_id":"305287cc-28a9-45ab-a4dd-c4c6e179f781","system_id":"levelo_inurba_marseille","lat":43.304673,"lon":5.379023,"is_reserved":false,"is_disabled":false,"rental_uris":{"android":"levelo://app?vid=305287cc-28a9-45ab-a4dd-c4c6e179f781","ios":"levelo://app?vid=305287cc-28a9-45ab-a4dd-c4c6e179f781"},"vehicle_type_id":"4","last_reported":1728112110,"current_range_meters":33200,"station_id":"ce4bgup2rcd13ifvqcn0","pricing_plan_id":"cebpf4jnsgd1na2vs0mg"},{"bike_id":"97c3ddce-4e7d-43dc-9cb9-dad625978cd8","system_id":"levelo_inurba_marseille","lat":43.31751,"lon":5.39018,"is_reserved":false,"is_disabled":false,"rental_uris":{"android":"levelo://app?vid=97c3ddce-4e7d-43dc-9cb9-dad625978cd8","ios":"levelo://app?vid=97c3ddce-4e7d-43dc-9cb9-dad625978cd8"},"vehicle_type_id":"4","last_reported":1728112110,"current_range_meters":38400,"station_id":"ce4bhqp2rcd13ifvqhng","pricing_plan_id":"cebpf4jnsgd1na2vs0mg"},{"bike_id":"f7993679-59ec-4684-8474-f23f1c970528","system_id":"levelo_inurba_marseille","lat":43.30152,"lon":5.38077,"is_reserved":false,"is_disabled":false,"rental_uris":{"android":"levelo://app?vid=f7993679-59ec-4684-8474-f23f1c970528","ios":"levelo://app?vid=f7993679-59ec-4684-8474-f23f1c970528"},"vehicle_type_id":"4","last_reported":1728112110,"current_range_meters":28000,"station_id":"ce4bgjp2rcd13ifvqbh0","pricing_plan_id":"cebpf4jnsgd1na2vs0mg"},{"bike_id":"038659cc-f47d-4af4-a9f0-2f143f2253ad","system_id":"levelo_inurba_marseille","lat":43.30606,"lon":5.37222,"is_reserved":false,"is_disabled":false,"rental_uris":{"android":"levelo://app?vid=038659cc-f47d-4af4-a9f0-2f143f2253ad","ios":"levelo://app?vid=038659cc-f47d-4af4-a9f0-2f143f2253ad"},"vehicle_type_id":"4","last_reported":1728112110,"current_range_meters":32800,"station_id":"ce4bgqh2rcd13ifvqc4g","pricing_plan_id":"cebpf4jnsgd1na2vs0mg"},{"bike_id":"21af6422-8f85-4c18-9237-da3ba75c0021","system_id":"levelo_inurba_marseille","lat":43.311764,"lon":5.387111,"is_reserved":false,"is_disabled":false,"rental_uris":{"android":"levelo://app?vid=21af6422-8f85-4c18-9237-da3ba75c0021","ios":"levelo://app?vid=21af6422-8f85-4c18-9237-da3ba75c0021"},"vehicle_type_id":"4","last_reported":1728112110,"current_range_meters":27600,"station_id":"ce4bgv12rcd13ifvqcp0","pricing_plan_id":"cebpf4jnsgd1na2vs0mg"},{"bike_id":"d2801287-9a07-410c-8860-548ca5010bd3","system_id":"levelo_inurba_marseille","lat":43.29225,"lon":5.36049,"is_reserved":false,"is_disabled":false,"rental_uris":{"android":"levelo://app?vid=d2801287-9a07-410c-8860-548ca5010bd3","ios":"levelo://app?vid=d2801287-9a07-410c-8860-548ca5010bd3"},"vehicle_type_id":"4","last_reported":1728112110,"current_range_meters":38000,"station_id":"ce4bhbh2rcd13ifvqeqg","pricing_plan_id":"cebpf4jnsgd1na2vs0mg"},{"bike_id":"d9513a24-3235-43a7-b9a5-1c5cfe37603f","system_id":"levelo_inurba_marseille","lat":43.23052,"lon":5.35486,"is_reserved":false,"is_disabled":false,"rental_uris":{"android":"levelo://app?vid=d9513a24-3235-43a7-b9a5-1c5cfe37603f","ios":"levelo://app?vid=d9513a24-3235-43a7-b9a5-1c5cfe37603f"},"vehicle_type_id":"4","last_reported":1728112110,"current_range_meters":20400,"station_id":"cpo3342slgdg3j2ifvpg","pricing_plan_id":"cebpf4jnsgd1na2vs0mg"},{"bike_id":"61b8e147-1e03-48bd-b16d-2fe479ee3990","system_id":"levelo_inurba_marseille","lat":43.320455,"lon":5.415516,"is_reserved":false,"is_disabled":false,"rental_uris":{"android":"levelo://app?vid=61b8e147-1e03-48bd-b16d-2fe479ee3990","ios":"levelo://app?vid=61b8e147-1e03-48bd-b16d-2fe479ee3990"},"vehicle_type_id":"4","last_reported":1728112110,"current_range_meters":7200,"station_id":"ce4bhq92rcd13ifvqhkg","pricing_plan_id":"cebpf4jnsgd1na2vs0mg"},{"bike_id":"009d6d0e-c1a8-4ddc-b330-ebf04e9c45b9","system_id":"levelo_inurba_marseille","lat":43.29902,"lon":5.43674,"is_reserved":false,"is_disabled":false,"rental_uris":{"android":"levelo://app?vid=009d6d0e-c1a8-4ddc-b330-ebf04e9c45b9","ios":"levelo://app?vid=009d6d0e-c1a8-4ddc-b330-ebf04e9c45b9"},"vehicle_type_id":"4","last_reported":1728112110,"current_range_meters":22400,"station_id":"ce4bhpp2rcd13ifvqhfg","pricing_plan_id":"cebpf4jnsgd1na2vs0mg"},{"bike_id":"5d911539-a47d-48c5-8a34-970ce317e29a","system_id":"levelo_inurba_marseille","lat":43.30144,"lon":5.38072,"is_reserved":false,"is_disabled":false,"rental_uris":{"android":"levelo://app?vid=5d911539-a47d-48c5-8a34-970ce317e29a","ios":"levelo://app?vid=5d911539-a47d-48c5-8a34-970ce317e29a"},"vehicle_type_id":"4","last_reported":1728112110,"current_range_meters":22000,"station_id":"ce4bgjp2rcd13ifvqbh0","pricing_plan_id":"cebpf4jnsgd1na2vs0mg"},{"bike_id":"ffcb00f3-15af-4ad3-8fc9-e8853e92a8ec","system_id":"levelo_inurba_marseille","lat":43.27374,"lon":5.36257,"is_reserved":false,"is_disabled":false,"rental_uris":{"android":"levelo://app?vid=ffcb00f3-15af-4ad3-8fc9-e8853e92a8ec","ios":"levelo://app?vid=ffcb00f3-15af-4ad3-8fc9-e8853e92a8ec"},"vehicle_type_id":"4","last_reported":1728112110,"current_range_meters":33600,"station_id":"ce4bhbh2rcd13ifvqeo0","pricing_plan_id":"cebpf4jnsgd1na2vs0mg"},{"bike_id":"4cbe474b-a6b7-4311-807d-403eaef31c4a","system_id":"levelo_inurba_marseille","lat":43.31057,"lon":5.38343,"is_reserved":false,"is_disabled":false,"rental_uris":{"android":"levelo://app?vid=4cbe474b-a6b7-4311-807d-403eaef31c4a","ios":"levelo://app?vid=4cbe474b-a6b7-4311-807d-403eaef31c4a"},"vehicle_type_id":"4","last_reported":1728112110,"current_range_meters":38000,"station_id":"ce4bgv92rcd13ifvqcr0","pricing_plan_id":"cebpf4jnsgd1na2vs0mg"},{"bike_id":"e801b355-6ede-41f3-aa7c-a02edf287c12","system_id":"levelo_inurba_marseille","lat":43.23188,"lon":5.35549,"is_reserved":false,"is_disabled":false,"rental_uris":{"android":"levelo://app?vid=e801b355-6ede-41f3-aa7c-a02edf287c12","ios":"levelo://app?vid=e801b355-6ede-41f3-aa7c-a02edf287c12"},"vehicle_type_id":"4","last_reported":1728112110,"current_range_meters":19200,"station_id":"ce4bhu92rcd13ifvqi70","pricing_plan_id":"cebpf4jnsgd1na2vs0mg"},{"bike_id":"3132358e-d356-4f2f-a108-6588cbc7bcb2","system_id":"levelo_inurba_marseille","lat":43.30119,"lon":5.39868,"is_reserved":false,"is_disabled":false,"rental_uris":{"android":"levelo://app?vid=3132358e-d356-4f2f-a108-6588cbc7bcb2","ios":"levelo://app?vid=3132358e-d356-4f2f-a108-6588cbc7bcb2"},"vehicle_type_id":"4","last_reported":1728112110,"current_range_meters":30800,"station_id":"ce4bh0h2rcd13ifvqd40","pricing_plan_id":"cebpf4jnsgd1na2vs0mg"},{"bike_id":"d0898481-3578-40b2-9add-8b714658de6d","system_id":"levelo_inurba_marseille","lat":43.28152,"lon":5.42639,"is_reserved":false,"is_disabled":false,"rental_uris":{"android":"levelo://app?vid=d0898481-3578-40b2-9add-8b714658de6d","ios":"levelo://app?vid=d0898481-3578-40b2-9add-8b714658de6d"},"vehicle_type_id":"4","last_reported":1728112110,"current_range_meters":25600,"station_id":"ce4bhnh2rcd13ifvqgug","pricing_plan_id":"cebpf4jnsgd1na2vs0mg"},{"bike_id":"9c2ed353-e0c3-4e49-ae26-291d7de7b953","system_id":"levelo_inurba_marseille","lat":43.30269,"lon":5.37688,"is_reserved":false,"is_disabled":false,"rental_uris":{"android":"levelo://app?vid=9c2ed353-e0c3-4e49-ae26-291d7de7b953","ios":"levelo://app?vid=9c2ed353-e0c3-4e49-ae26-291d7de7b953"},"vehicle_type_id":"4","last_reported":1728112110,"current_range_meters":33200,"station_id":"ce4bguh2rcd13ifvqcj0","pricing_plan_id":"cebpf4jnsgd1na2vs0mg"},{"bike_id":"4e0c83a2-b0c3-4894-8559-e509681998d3","system_id":"levelo_inurba_marseille","lat":43.31117,"lon":5.38333,"is_reserved":false,"is_disabled":false,"rental_uris":{"android":"levelo://app?vid=4e0c83a2-b0c3-4894-8559-e509681998d3","ios":"levelo://app?vid=4e0c83a2-b0c3-4894-8559-e509681998d3"},"vehicle_type_id":"4","last_reported":1728112110,"current_range_meters":17600,"station_id":"ce4bgv92rcd13ifvqcr0","pricing_plan_id":"cebpf4jnsgd1na2vs0mg"},{"bike_id":"c2f21302-0bda-4485-a5df-98d1ef9f2991","system_id":"levelo_inurba_marseille","lat":43.23947,"lon":5.38284,"is_reserved":false,"is_disabled":false,"rental_uris":{"android":"levelo://app?vid=c2f21302-0bda-4485-a5df-98d1ef9f2991","ios":"levelo://app?vid=c2f21302-0bda-4485-a5df-98d1ef9f2991"},"vehicle_type_id":"4","last_reported":1728112110,"current_range_meters":8800,"station_id":"","pricing_plan_id":"cebpf4jnsgd1na2vs0mg"},