{"last_updated":1729944978,"ttl":60,"version":"2.2","data":{"bikes":[{"bike_id":"c894f70f-2a6f-425b-ba00-c08216f3e7e3","system_id":"levelo_inurba_marseille","lat":43.29627,"lon":5.37164,"is_reserved":false,"is_disabled":false,"rental_uris":{"android":"levelo://app?vid=c894f70f-2a6f-425b-ba00-c08216f3e7e3","ios":"levelo://app?vid=c894f70f-2a6f-425b-ba00-c08216f3e7e3"},"vehicle_type_id":"4","last_reported":1729944979,"current_range_meters":38800,"station_id":"ce4bgnh2rcd13ifvqc0g","pricing_plan_id":"cebpf4jnsgd1na2vs0mg"},{"bike_id":"5b1e2fa4-576f-4e03-93b6-f18b4e49b26f","system_id":"levelo_inurba_marseille","lat":43.30797,"lon":5.43516,"is_reserved":false,"is_disabled":false,"rental_uris":{"android":"levelo://app?vid=5b1e2fa4-576f-4e03-93b6-f18b4e49b26f","ios":"levelo://app?vid=5b1e2fa4-576f-4e03-93b6-f18b4e49b26f"},"vehicle_type_id":"4","last_reported":1729944979,"current_range_meters":30800,"station_id":"ce4bhph2rcd13ifvqheg","pricing_plan_id":"cebpf4jnsgd1na2vs0mg"},{"bike_id":"4205dcc5-6983-44e0-9e90-fda32e5799f1","system_id":"levelo_inurba_marseille","lat":43.26498,"lon":5.3953,"is_reserved":false,"is_disabled":false,"rental_uris":{"android":"levelo://app?vid=4205dcc5-6983-44e0-9e90-fda32e5799f1","ios":"levelo://app?vid=4205dcc5-6983-44e0-9e90-fda32e5799f1"},"vehicle_type_id":"4","last_reported":1729944979,"current_range_meters":37600,"station_id":"ce4bhi12rcd13ifvqfq0","pricing_plan_id":"cebpf4jnsgd1na2vs0mg"},{"bike_id":"163eddd4-107c-441d-b897-daa82cca5a31","system_id":"levelo_inurba_marseille","lat":43.28079,"lon":5.39654,"is_reserved":false,"is_disabled":false,"rental_uris":{"android":"levelo://app?vid=163eddd4-107c-441d-b897-daa82cca5a31","ios":"levelo://app?vid=163eddd4-107c-441d-b897-daa82cca5a31"},"vehicle_type_id":"4","last_reported":1729944979,"current_range_meters":38800,"station_id":"ce4bho12rcd13ifvqh2g","pricing_plan_id":"cebpf4jnsgd1na2vs0mg"},{"bike_id":"24f8ed1e-18a5-488b-a0db-0dbded07c6b1","system_id":"levelo_inurba_marseille","lat":43.2848,"lon":5.38548,"is_reserved":false,"is_disabled":false,"rental_uris":{"android":"levelo://app?vid=24f8ed1e-18a5-488b-a0db-0dbded07c6b1","ios":"levelo://app?vid=24f8ed1e-18a5-488b-a0db-0dbded07c6b1"},"vehicle_type_id":"4","last_reported":1729944979,"current_range_meters":30800,"station_id":"ce4bh8p2rcd13ifvqeb0","pricing_plan_id":"cebpf4jnsgd1na2vs0mg"},{"bike_id":"26d518f2-e761-46eb-bc7c-d62463112389","system_id":"levelo_inurba_marseille","lat":43.29687,"lon":5.37284,"is_reserved":false,"is_disabled":false,"rental_uris":{"android":"levelo://app?vid=26d518f2-e761-46eb-bc7c-d62463112389","ios":"levelo://app?vid=26d518f2-e761-46eb-bc7c-d62463112389"},"vehicle_type_id":"4","last_reported":1729944979,"current_range_meters":38000,"station_id":"ce4bgk12rcd13ifvqbj0","pricing_plan_id":"cebpf4jnsgd1na2vs0mg"},{"bike_id":"48660d12-eacc-4f93-a06c-04c2aa9e37e4","system_id":"levelo_inurba_marseille","lat":43.268,"lon":5.40263,"is_reserved":false,"is_disabled":false,"rental_uris":{"android":"levelo://app?vid=48660d12-eacc-4f93-a06c-04c2aa9e37e4","ios":"levelo://app?vid=48660d12-eacc-4f93-a06c-04c2aa9e37e4"},"vehicle_type_id":"4","last_reported":1729944979,"current_range_meters":24000,"station_id":"ce501612rcd8frsf0b60","pricing_plan_id":"cebpf4jnsgd1na2vs0mg"},{"bike_id":"87b0ca95-10d4-46a5-b0a3-ed147c016f2f","system_id":"levelo_inurba_marseille","lat":43.31228,"lon":5.36844,"is_reserved":false,"is_disabled":false,"rental_uris":{"android":"levelo://app?vid=87b0ca95-10d4-46a5-b0a3-ed147c016f2f","ios":"levelo://app?vid=87b0ca95-10d4-46a5-b0a3-ed147c016f2f"},"vehicle_type_id":"4","last_reported":1729944979,"current_range_meters":37600,"station_id":"ce4bgl92rcd13ifvqbq0","pricing_plan_id":"cebpf4jnsgd1na2vs0mg"},{"bike_id":"3381cd79-1316-4c50-ad86-ee5056cd0e14","system_id":"levelo_inurba_marseille","lat":43.25124,"lon":5.40313,"is_reserved":false,"is_disabled":false,"rental_uris":{"android":"levelo://app?vid=3381cd79-1316-4c50-ad86-ee5056cd0e14","ios":"levelo://app?vid=3381cd79-1316-4c50-ad86-ee5056cd0e14"},"vehicle_type_id":"4","last_reported":1729944979,"current_range_meters":36400,"station_id":"ce4bhlh2rcd13ifvqgig","pricing_plan_id":"cebpf4jnsgd1na2vs0mg"},{"bike_id":"ef9d1303-b3a7-4f64-b1ea-62f7e508d231","system_id":"levelo_inurba_marseille","lat":43.28082,"lon":5.39657,"is_reserved":false,"is_disabled":false,"rental_uris":{"android":"levelo://app?vid=ef9d1303-b3a7-4f64-b1ea-62f7e508d231","ios":"levelo://app?vid=ef9d1303-b3a7-4f64-b1ea-62f7e508d231"},"vehicle_type_id":"4","last_reported":1729944979,"current_range_meters":28800,"station_id":"ce4bho12rcd13ifvqh2g","pricing_plan_id":"cebpf4jnsgd1na2vs0mg"},{"bike_id":"58aeb2f0-ba7d-4922-9751-360ba555721c","system_id":"levelo_inurba_marseille","lat":43.30221,"lon":5.39474,"is_reserved":false,"is_disabled":false,"rental_uris":{"android":"levelo://app?vid=58aeb2f0-ba7d-4922-9751-360ba555721c","ios":"levelo://app?vid=58aeb2f0-ba7d-4922-9751-360ba555721c"},"vehicle_type_id":"4","last_reported":1729944979,"current_range_meters":33200,"station_id":"ce4bh0p2rcd13ifvqd70","pricing_plan_id":"cebpf4jnsgd1na2vs0mg"},{"bike_id":"b647c58d-e48c-45de-b271-e96bb79b7e39","system_id":"levelo_inurba_marseille","lat":43.30531,"lon":5.38428,"is_reserved":false,"is_disabled":false,"rental_uris":{"android":"levelo://app?vid=b647c58d-e48c-45de-b271-e96bb79b7e39","ios":"levelo://app?vid=b647c58d-e48c-45de-b271-e96bb79b7e39"},"vehicle_type_id":"4","last_reported":1729944979,"current_range_meters":38800,"station_id":"ce4bgg92rcd13ifvqb30","pricing_plan_id":"cebpf4jnsgd1na2vs0mg"},{"bike_id":"d33b21ec-4310-4291-b133-a0ac75f58382","system_id":"levelo_inurba_marseille","lat":43.30646,"lon":5.40077,"is_reserved":false,"is_disabled":false,"rental_uris":{"android":"levelo://app?vid=d33b21ec-4310-4291-b133-a0ac75f58382","ios":"levelo://app?vid=d33b21ec-4310-4291-b133-a0ac75f58382"},"vehicle_type_id":"4","last_reported":1729944979,"current_range_meters":38800,"station_id":"ce4bh112rcd13ifvqda0","pricing_plan_id":"cebpf4jnsgd1na2vs0mg"},{"bike_id":"1e6e2bfc-7583-41d7-8b7b-c4a99bfe72bb","system_id":"levelo_inurba_marseille","lat":43.28414,"lon":5.34974,"is_reserved":false,"is_disabled":false,"rental_uris":{"android":"levelo://app?vid=1e6e2bfc-7583-41d7-8b7b-c4a99bfe72bb","ios":"levelo://app?vid=1e6e2bfc-7583-41d7-8b7b-c4a99bfe72bb"},"vehicle_type_id":"4","last_reported":1729944979,"current_range_meters":38000,"station_id":"ce4bhbh2rcd13ifvqepg","pricing_plan_id":"cebpf4jnsgd1na2vs0mg"},{"bike_id":"123f9339-b4ef-46cd-9a9a-cd9661aa78ef","system_id":"levelo_inurba_marseille","lat":43.27418,"lon":5.3941,"is_reserved":false,"is_disabled":false,"rental_uris":{"android":"levelo://app?vid=123f9339-b4ef-46cd-9a9a-cd9661aa78ef","ios":"levelo://app?vid=123f9339-b4ef-46cd-9a9a-cd9661aa78ef"},"vehicle_type_id":"4","last_reported":1729944979,"current_range_meters":16400,"station_id":"ce4bhdp2rcd13ifvqf20","pricing_plan_id":"cebpf4jnsgd1na2vs0mg"},{"bike_id":"18e99a9e-fa60-42a9-99d3-4791ccab2a6e","system_id":"levelo_inurba_marseille","lat":43.29843,"lon":5.36275,"is_reserved":false,"is_disabled":false,"rental_uris":{"android":"levelo://app?vid=18e99a9e-fa60-42a9-99d3-4791ccab2a6e","ios":"levelo://app?vid=18e99a9e-fa60-42a9-99d3-4791ccab2a6e"},"vehicle_type_id":"4","last_reported":1729944979,"current_range_meters":36400,"station_id":"ce4bgpp2rcd13ifvqc3g","pricing_plan_id":"cebpf4jnsgd1na2vs0mg"},{"bike_id":"09c99594-1473-42f3-95a7-d59f9597efbb","system_id":"levelo_inurba_marseille","lat":43.292175,"lon":5.383367,"is_reserved":false,"is_disabled":false,"rental_uris":{"android":"levelo://app?vid=09c99594-1473-42f3-95a7-d59f9597efbb","ios":"levelo://app?vid=09c99594-1473-42f3-95a7-d59f9597efbb"},"vehicle_type_id":"4","last_reported":1729944979,"current_range_meters":2800,"station_id":"ce4bh692rcd13ifvqea0","pricing_plan_id":"cebpf4jnsgd1na2vs0mg"},{"bike_id":"79bd2af5-c7a8-42a2-a85c-ece5c82e9b12","system_id":"levelo_inurba_marseille","lat":43.30157,"lon":5.38086,"is_reserved":false,"is_disabled":false,"rental_uris":{"android":"levelo://app?vid=79bd2af5-c7a8-42a2-a85c-ece5c82e9b12","ios":"levelo://app?vid=79bd2af5-c7a8-42a2-a85c-ece5c82e9b12"},"vehicle_type_id":"4","last_reported":1729944979,"current_range_meters":36800,"station_id":"ce4bgjp2rcd13ifvqbh0","pricing_plan_id":"cebpf4jnsgd1na2vs0mg"},{"bike_id":"edd1b1f3-92ce-46d7-b86c-224ef5590f8c","system_id":"levelo_inurba_marseille","lat":43.29368,"lon":5.37823,"is_reserved":false,"is_disabled":false,"rental_uris":{"android":"levelo://app?vid=edd1b1f3-92ce-46d7-b86c-224ef5590f8c","ios":"levelo://app?vid=edd1b1f3-92ce-46d7-b86c-224ef5590f8c"},"vehicle_type_id":"4","last_reported":1729944979,"current_range_meters":36000,"station_id":"ce4bgjh2rcd13ifvqbf0","pricing_plan_id":"cebpf4jnsgd1na2vs0mg"},{"bike_id":"ec16d84c-a043-4757-bab0-64f7d0a6a9fa","system_id":"levelo_inurba_marseille","lat":43.28266,"lon":5.35061,"is_reserved":false,"is_disabled":false,"rental_uris":{"android":"levelo://app?vid=ec16d84c-a043-4757-bab0-64f7d0a6a9fa","ios":"levelo://app?vid=ec16d84c-a043-4757-bab0-64f7d0a6a9fa"},"vehicle_type_id":"4","last_reported":1729944979,"current_range_meters":38800,"station_id":"ce4bhbp2rcd13ifvqerg","pricing_plan_id":"cebpf4jnsgd1na2vs0mg"},{"bike_id":"7c0ddf56-b30a-4da6-9d1b-472e658126d2","system_id":"levelo_inurba_marseille","lat":43.31226,"lon":5.36852,"is_reserved":false,"is_disabled":false,"rental_uris":{"android":"levelo://app?vid=7c0ddf56-b30a-4da6-9d1b-472e658126d2","ios":"levelo://app?vid=7c0ddf56-b30a-4da6-9d1b-472e658126d2"},"vehicle_type_id":"4","last_reported":1729944979,"current_range_meters":38800,"station_id":"ce4bgl92rcd13ifvqbq0","pricing_plan_id":"cebpf4jnsgd1na2vs0mg"},{"bike_id":"633bdd84-8a27-486c-8d5a-62bd9dd56f9f","system_id":"levelo_inurba_marseille","lat":43.26949,"lon":5.40252,"is_reserved":false,"is_disabled":false,"rental_uris":{"android":"levelo://app?vid=633bdd84-8a27-486c-8d5a-62bd9dd56f9f","ios":"levelo://app?vid=633bdd84-8a27-486c-8d5a-62bd9dd56f9f"},"vehicle_type_id":"4","last_reported":1729944979,"current_range_meters":38800,"station_id":"cjm6bp8fraef2m0cb0m0","pricing_plan_id":"cebpf4jnsgd1na2vs0mg"},{"bike_id":"365042da-fe2f-49c8-bdd1-2a0373063ba3","system_id":"levelo_inurba_marseille","lat":43.29624,"lon":5.37172,"is_reserved":false,"is_disabled":false,"rental_uris":{"android":"levelo://app?vid=365042da-fe2f-49c8-bdd1-2a0373063ba3","ios":"levelo://app?vid=365042da-fe2f-49c8-bdd1-2a0373063ba3"},"vehicle_type_id":"4","last_reported":1729944979,"current_range_meters":31200,"station_id":"ce4bgnh2rcd13ifvqc0g","pricing_plan_id":"cebpf4jnsgd1na2vs0mg"},{"bike_id":"7ad5cee9-1700-4df5-9506-106d58079bca","system_id":"levelo_inurba_marseille","lat":43.29628,"lon":5.37154,"is_reserved":false,"is_disabled":false,"rental_uris":{"android":"levelo://app?vid=7ad5cee9-1700-4df5-9506-106d58079bca","ios":"levelo://app?vid=7ad5cee9-1700-4df5-9506-106d58079bca"},"vehicle_type_id":"4","last_reported":1729944979,"current_range_meters":19600,"station_id":"ce4bgnh2rcd13ifvqc0g","pricing_plan_id":"cebpf4jnsgd1na2vs0mg"},{"bike_id":"090d6208-0a1b-4739-846f-ee75a9ed97d4","system_id":"levelo_inurba_marseille","lat":43.27844,"lon":5.39201,"is_reserved":false,"is_disabled":false,"rental_uris":{"android":"levelo://app?vid=090d6208-0a1b-4739-846f-ee75a9ed97d4","ios":"levelo://app?vid=090d6208-0a1b-4739-846f-ee75a9ed97d4"},"vehicle_type_id":"4","last_reported":1729944979,"current_range_meters":38800,"station_id":"ce4bhjp2rcd13ifvqga0","pricing_plan_id":"cebpf4jnsgd1na2vs0mg"},{"bike_id":"a7d532c4-0bf8-40b2-95d5-49d87905db87","system_id":"levelo_inurba_marseille","lat":43.29078,"lon":5.37164,"is_reserved":false,"is_disabled":false,"rental_uris":{"android":"levelo://app?vid=a7d532c4-0bf8-40b2-95d5-49d87905db87","ios":"levelo://app?vid=a7d532c4-0bf8-40b2-95d5-49d87905db87"},"vehicle_type_id":"4","last_reported":1729944979,"current_range_meters":38000,"station_id":"ce4bh5p2rcd13ifvqe4g","pricing_plan_id":"cebpf4jnsgd1na2vs0mg"},{"bike_id":"ae1d3e88-caaa-4a41-8217-3f1c57adec90","system_id":"levelo_inurba_marseille","lat":43.29783,"lon":5.37105,"is_reserved":false,"is_disabled":false,"rental_uris":{"android":"levelo://app?vid=ae1d3e88-caaa-4a41-8217-3f1c57adec90","ios":"levelo://app?vid=ae1d3e88-caaa-4a41-8217-3f1c57adec90"},"vehicle_type_id":"4","last_reported":1729944979,"current_range_meters":11600,"station_id":"ce4bgop2rcd13ifvqc1g","pricing_plan_id":"cebpf4jnsgd1na2vs0mg"},{"bike_id":"e6fa7636-d39b-4c7b-afd0-5181e66f08fc","system_id":"levelo_inurba_marseille","lat":43.26954,"lon":5.38641,"is_reserved":false,"is_disabled":false,"rental_uris":{"android":"levelo://app?vid=e6fa7636-d39b-4c7b-afd0-5181e66f08fc","ios":"levelo://app?vid=e6fa7636-d39b-4c7b-afd0-5181e66f08fc"},"vehicle_type_id":"4","last_reported":1729944979,"current_range_meters":8400,"station_id":"ce4bhh92rcd13ifvqfh0","pricing_plan_id":"cebpf4jnsgd1na2vs0mg"},{"bike_id":"c8f33dbe-8d46-4679-b0bd-686b38e43e1d","system_id":"levelo_inurba_marseille","lat":43.24554,"lon":5.39521,"is_reserved":false,"is_disabled":false,"rental_uris":{"android":"levelo://app?vid=c8f33dbe-8d46-4679-b0bd-686b38e43e1d","ios":"levelo://app?vid=c8f33dbe-8d46-4679-b0bd-686b38e43e1d"},"vehicle_type_id":"4","last_reported":1729944979,"current_range_meters":35200,"station_id":"ce4bhlp2rcd13ifvqgjg","pricing_plan_id":"cebpf4jnsgd1na2vs0mg"},{"bike_id":"0cc6c837-1266-40ee-b30b-67ff09b3fc34","system_id":"levelo_inurba_marseille","lat":43.28413,"lon":5.34986,"is_reserved":false,"is_disabled":false,"rental_uris":{"android":"levelo://app?vid=0cc6c837-1266-40ee-b30b-67ff09b3fc34","ios":"levelo://app?vid=0cc6c837-1266-40ee-b30b-67ff09b3fc34"},"vehicle_type_id":"4","last_reported":1729944979,"current_range_meters":30000,"station_id":"ce4bhbh2rcd13ifvqepg","pricing_plan_id":"cebpf4jnsgd1na2vs0mg"},{"bike_id":"5a7c3bf3-7a64-4a9b-a11b-73f8f8bc3fd1","system_id":"levelo_inurba_marseille","lat":43.30189,"lon":5.36605,"is_reserved":false,"is_disabled":false,"rental_uris":{"android":"levelo://app?vid=5a7c3bf3-7a64-4a9b-a11b-73f8f8bc3fd1","ios":"levelo://app?vid=5a7c3bf3-7a64-4a9b-a11b-73f8f8bc3fd1"},"vehicle_type_id":"4","last_reported":1729944979,"current_range_meters":38800,"station_id":"ce4bgrh2rcd13ifvqc8g","pricing_plan_id":"cebpf4jnsgd1na2vs0mg"},{"bike_id":"408583ad-bed8-45b8-87b1-c4eda1ac1c7d","system_id":"levelo_inurba_marseille","lat":43.28718,"lon":5.37931,"is_reserved":false,"is_disabled":false,"rental_uris":{"android":"levelo://app?vid=408583ad-bed8-45b8-87b1-c4eda1ac1c7d","ios":"levelo://app?vid=408583ad-bed8-45b8-87b1-c4eda1ac1c7d"},"vehicle_type_id":"4","last_reported":1729944979,"current_range_meters":37600,"station_id":"ce4bh9p2rcd13ifvqec0","pricing_plan_id":"cebpf4jnsgd1na2vs0mg"},{"bike_id":"683bb5c6-9206-4984-895c-10f04b82311b","system_id":"levelo_inurba_marseille","lat":43.29582,"lon":5.36747,"is_reserved":false,"is_disabled":false,"rental_uris":{"android":"levelo://app?vid=683bb5c6-9206-4984-895c-10f04b82311b","ios":"levelo://app?vid=683bb5c6-9206-4984-895c-10f04b82311b"},"vehicle_type_id":"4","last_reported":1729944979,"current_range_meters":24400,"station_id":"ce4bgph2rcd13ifvqc2g","pricing_plan_id":"cebpf4jnsgd1na2vs0mg"},{"bike_id":"b4c1c861-a75e-46c9-86c7-2e2349bb876d","system_id":"levelo_inurba_marseille","lat":43.255843,"lon":5.382367,"is_reserved":false,"is_disabled":false,"rental_uris":{"android":"levelo://app?vid=b4c1c861-a75e-46c9-86c7-2e2349bb876d","ios":"levelo://app?vid=b4c1c861-a75e-46c9-86c7-2e2349bb876d"},"vehicle_type_id":"4","last_reported":1729944979,"current_range_meters":28400,"station_id":"ce4bhih2rcd13ifvqfs0","pricing_plan_id":"cebpf4jnsgd1na2vs0mg"},{"bike_id":"0197a995-14d6-405e-84ea-a3fa0187e008","system_id":"levelo_inurba_marseille","lat":43.2694,"lon":5.40268,"is_reserved":false,"is_disabled":false,"rental_uris":{"android":"levelo://app?vid=0197a995-14d6-405e-84ea-a3fa0187e008","ios":"levelo://app?vid=0197a995-14d6-405e-84ea-a3fa0187e008"},"vehicle_type_id":"4","last_reported":1729944979,"current_range_meters":38800,"station_id":"cjm6bp8fraef2m0cb0m0","pricing_plan_id":"cebpf4jnsgd1na2vs0mg"},{"bike_id":"195351c3-2982-4b38-a129-eb84836134a1","system_id":"levelo_inurba_marseille","lat":43.28607,"lon":5.3706,"is_reserved":false,"is_disabled":false,"rental_uris":{"android":"levelo://app?vid=195351c3-2982-4b38-a129-eb84836134a1","ios":"levelo://app?vid=195351c3-2982-4b38-a129-eb84836134a1"},"vehicle_type_id":"4","last_reported":1729944979,"current_range_meters":29600,"station_id":"ce4bht12rcd13ifvqi60","pricing_plan_id":"cebpf4jnsgd1na2vs0mg"},{"bike_id":"b68a0d01-ef7e-46b8-922f-b8cb2b2e1819","system_id":"levelo_inurba_marseille","lat":43.30535,"lon":5.36533,"is_reserved":false,"is_disabled":false,"rental_uris":{"android":"levelo://app?vid=b68a0d01-ef7e-46b8-922f-b8cb2b2e1819","ios":"levelo://app?vid=b68a0d01-ef7e-46b8-922f-b8cb2b2e1819"},"vehicle_type_id":"4","last_reported":1729944979,"current_range_meters":16800,"station_id":"ce4bgs12rcd13ifvqcag","pricing_plan_id":"cebpf4jnsgd1na2vs0mg"},{"bike_id":"9b192d3d-f63a-4103-b503-f2e0fe79a5ec","system_id":"levelo_inurba_marseille","lat":43.30192,"lon":5.36613,"is_reserved":false,"is_disabled":false,"rental_uris":{"android":"levelo://app?vid=9b192d3d-f63a-4103-b503-f2e0fe79a5ec","ios":"levelo://app?vid=9b192d3d-f63a-4103-b503-f2e0fe79a5ec"},"vehicle_type_id":"4","last_reported":1729944979,"current_range_meters":24400,"station_id":"ce4bgrh2rcd13ifvqc8g","pricing_plan_id":"cebpf4jnsgd1na2vs0mg"},{"bike_id":"ffb91a87-5864-4809-b166-910146a3e016","system_id":"levelo_inurba_marseille","lat":43.28926,"lon":5.38388,"is_reserved":false,"is_disabled":false,"rental_uris":{"android":"levelo://app?vid=ffb91a87-5864-4809-b166-910146a3e016","ios":"levelo://app?vid=ffb91a87-5864-4809-b166-910146a3e016"},"vehicle_type_id":"4","last_reported":1729944979,"current_range_meters":38800,"station_id":"ce4bh612rcd13ifvqe6g","pricing_plan_id":"cebpf4jnsgd1na2vs0mg"},{"bike_id":"8719b141-2b28-4ecd-97a4-85f7c5594895","system_id":"levelo_inurba_marseille","lat":43.26194,"lon":5.37444,"is_reserved":false,"is_disabled":false,"rental_uris":{"android":"levelo://app?vid=8719b141-2b28-4ecd-97a4-85f7c5594895","ios":"levelo://app?vid=8719b141-2b28-4ecd-97a4-85f7c5594895"},"vehicle_type_id":"4","last_reported":1729944979,"current_range_meters":30000,"station_id":"ce4bhgp2rcd13ifvqfc0","pricing_plan_id":"cebpf4jnsgd1na2vs0mg"},{"bike_id":"373beb12-0cb8-4203-a7f1-f364e7fa360d","system_id":"levelo_inurba_marseille","lat":43.28224,"lon":5.3873,"is_reserved":false,"is_disabled":false,"rental_uris":{"android":"levelo://app?vid=373beb12-0cb8-4203-a7f1-f364e7fa360d","ios":"levelo://app?vid=373beb12-0cb8-4203-a7f1-f364e7fa360d"},"vehicle_type_id":"4","last_reported":1729944979,"current_range_meters":25200,"station_id":"ce4bhih2rcd13ifvqfs0","pricing_plan_id":"cebpf4jnsgd1na2vs0mg"},{"bike_id":"c25d9b60-5434-4e6f-b007-7ec2e900a21f","system_id":"levelo_inurba_marseille","lat":43.29311,"lon":5.37169,"is_reserved":false,"is_disabled":false,"rental_uris":{"android":"levelo://app?vid=c25d9b60-5434-4e6f-b007-7ec2e900a21f","ios":"levelo://app?vid=c25d9b60-5434-4e6f-b007-7ec2e900a21f"},"vehicle_type_id":"4","last_reported":1729944979,"current_range_meters":38800,"station_id":"ce4bgh92rcd13ifvqb40","pricing_plan_id":"cebpf4jnsgd1na2vs0mg"},{"bike_id":"dbeaee0c-400a-448b-8f4a-c8bc406c49fe","system_id":"levelo_inurba_marseille","lat":43.28933,"lon":5.36628,"is_reserved":false,"is_disabled":false,"rental_uris":{"android":"levelo://app?vid=dbeaee0c-400a-448b-8f4a-c8bc406c49fe","ios":"levelo://app?vid=dbeaee0c-400a-448b-8f4a-c8bc406c49fe"},"vehicle_type_id":"4","last_reported":1729944979,"current_range_meters":27200,"station_id":"ce4bhap2rcd13ifvqek0","pricing_plan_id":"cebpf4jnsgd1na2vs0mg"},{"bike_id":"a38406e8-974b-4557-b58b-ff4f2157ecb1","system_id":"levelo_inurba_marseille","lat":43.29273,"lon":5.38434,"is_reserved":false,"is_disabled":false,"rental_uris":{"android":"levelo://app?vid=a38406e8-974b-4557-b58b-ff4f2157ecb1","ios":"levelo://app?vid=a38406e8-974b-4557-b58b-ff4f2157ecb1"},"vehicle_type_id":"4","last_reported":1729944979,"current_range_meters":36400,"station_id":"ce4bh692rcd13ifvqea0","pricing_plan_id":"cebpf4jnsgd1na2vs0mg"},{"bike_id":"e7360508-6978-487a-a79b-5e2dad5d0ea3","system_id":"levelo_inurba_marseille","lat":43.22928,"lon":5.3538,"is_reserved":false,"is_disabled":false,"rental_uris":{"android":"levelo://app?vid=e7360508-6978-487a-a79b-5e2dad5d0ea3","ios":"levelo://app?vid=e7360508-6978-487a-a79b-5e2dad5d0ea3"},"vehicle_type_id":"4","last_reported":1729944979,"current_range_meters":30400,"station_id":"cpo3532slgdg3j2ikp40","pricing_plan_id":"cebpf4jnsgd1na2vs0mg"},{"bike_id":"f6e7e454-6059-41f8-8524-3ea4c541be8c","system_id":"levelo_inurba_marseille","lat":43.297826,"lon":5.371111,"is_reserved":false,"is_disabled":false,"rental_uris":{"android":"levelo://app?vid=f6e7e454-6059-41f8-8524-3ea4c541be8c","ios":"levelo://app?vid=f6e7e454-6059-41f8-8524-3ea4c541be8c"},"vehicle_type_id":"4","last_reported":1729944979,"current_range_meters":36000,"station_id":"ce4bgop2rcd13ifvqc1g","pricing_plan_id":"cebpf4jnsgd1na2vs0mg"},{"bike_id":"7aa6a09c-1e1f-43f1-b6d3-eafe3cbc0c2f","system_id":"levelo_inurba_marseille","lat":43.31173,"lon":5.38722,"is_reserved":false,"is_disabled":false,"rental_uris":{"android":"levelo://app?vid=7aa6a09c-1e1f-43f1-b6d3-eafe3cbc0c2f","ios":"levelo://app?vid=7aa6a09c-1e1f-43f1-b6d3-eafe3cbc0c2f"},"vehicle_type_id":"4","last_reported":1729944979,"current_range_meters":36000,"station_id":"ce4bgv12rcd13ifvqcp0","pricing_plan_id":"cebpf4jnsgd1na2vs0mg"},{"bike_id":"65a0b432-1bb9-4e43-a87c-f8817a6ed636","system_id":"levelo_inurba_marseille","lat":43.24078,"lon":5.37741,"is_reserved":false,"is_disabled":false,"rental_uris":{"android":"levelo://app?vid=65a0b432-1bb9-4e43-a87c-f8817a6ed636","ios":"levelo://app?vid=65a0b432-1bb9-4e43-a87c-f8817a6ed636"},"vehicle_type_id":"4","last_reported":1729944979,"current_range_meters":16000,"station_id":"ce4bhnp2rcd13ifvqgvg","pricing_plan_id":"cebpf4jnsgd1na2vs0mg"},{"bike_id":"cef8a6c5-52e4-4542-955f-8afe13b8a51c","system_id":"levelo_inurba_marseille","lat":43.29967,"lon":5.41319,"is_reserved":false,"is_disabled":false,"rental_uris":{"android":"levelo://app?vid=cef8a6c5-52e4-4542-955f-8afe13b8a51c","ios":"levelo://app?vid=cef8a6c5-52e4-4542-955f-8afe13b8a51c"},"vehicle_type_id":"4","last_reported":1729944979,"current_range_meters":35600,"station_id":"ce4bhp12rcd13ifvqh9g","pricing_plan_id":"cebpf4jnsgd1na2vs0mg"},{"bike_id":"3c96de04-8935-4802-8c1c-5422a5649649","system_id":"levelo_inurba_marseille","lat":43.29779,"lon":5.37086,"is_reserved":false,"is_disabled":false,"rental_uris":{"android":"levelo://app?vid=3c96de04-8935-4802-8c1c-5422a5649649","ios":"levelo://app?vid=3c96de04-8935-4802-8c1c-5422a5649649"},"vehicle_type_id":"4","last_reported":1729944979,"current_range_meters":17600,"station_id":"ce4bgop2rcd13ifvqc1g","pricing_plan_id":"cebpf4jnsgd1na2vs0mg"},{"bike_id":"54c40bcf-b242-4974-90cc-aed0b83b1904","system_id":"levelo_inurba_marseille","lat":43.29302,"lon":5.3717,"is_reserved":false,"is_disabled":false,"rental_uris":{"android":"levelo://app?vid=54c40bcf-b242-4974-90cc-aed0b83b1904","ios":"levelo://app?vid=54c40bcf-b242-4974-90cc-aed0b83b1904"},"vehicle_type_id":"4","last_reported":1729944979,"current_range_meters":30400,"station_id":"ce4bgh92rcd13ifvqb40","pricing_plan_id":"cebpf4jnsgd1na2vs0mg"},{"bike_id":"34c0b19e-e327-425b-bf09-25bec92dd9c4","system_id":"levelo_inurba_marseille","lat":43.2932,"lon":5.45465,"is_reserved":false,"is_disabled":false,"rental_uris":{"android":"levelo://app?vid=34c0b19e-e327-425b-bf09-25bec92dd9c4","ios":"levelo://app?vid=34c0b19e-e327-425b-bf09-25bec92dd9c4"},"vehicle_type_id":"4","last_reported":1729944979,"current_range_meters":17200,"station_id":"","pricing_plan_id":"cebpf4jnsgd1na2vs0mg"},{"bike_id":"e04e646e-4aa5-42ed-bc86-270038f3333c","system_id":"levelo_inurba_marseille","lat":43.29588,"lon":5.36737,"is_reserved":false,"is_disabled":false,"rental_uris":{"android":"levelo://app?vid=e04e646e-4aa5-42ed-bc86-270038f3333c","ios":"levelo://app?vid=e04e646e-4aa5-42ed-bc86-270038f3333c"},"vehicle_type_id":"4","last_reported":1729944979,"current_range_meters":4000,"station_id":"ce4bgph2rcd13ifvqc2g","pricing_plan_id":"cebpf4jnsgd1na2vs0mg"},{"bike_id":"1d1d656f-4780-4c04-b7aa-1044f7f3ec42","system_id":"levelo_inurba_marseille","lat":43.31531,"lon":5.380221,"is_reserved":false,"is_disabled":false,"rental_uris":{"android":"levelo://app?vid=1d1d656f-4780-4c04-b7aa-1044f7f3ec42","ios":"levelo://app?vid=1d1d656f-4780-4c04-b7aa-1044f7f3ec42"},"vehicle_type_id":"4","last_reported":1729944979,"current_range_meters":36800,"station_id":"ce4bhsp2rcd13ifvqi50","pricing_plan_id":"cebpf4jnsgd1na2vs0mg"},{"bike_id":"53c9a2d1-b3f0-48d6-bf0a-529f174f63d5","system_id":"levelo_inurba_marseille","lat":43.33024,"lon":5.39045,"is_reserved":false,"is_disabled":false,"rental_uris":{"android":"levelo://app?vid=53c9a2d1-b3f0-48d6-bf0a-529f174f63d5","ios":"levelo://app?vid=53c9a2d1-b3f0-48d6-bf0a-529f174f63d5"},"vehicle_type_id":"4","last_reported":1729944979,"current_range_meters":30800,"station_id":"ce4bhr92rcd13ifvqhrg","pricing_plan_id":"cebpf4jnsgd1na2vs0mg"},{"bike_id":"5063f4af-2df5-4a8d-971c-2e45b710db02","system_id":"levelo_inurba_marseille","lat":43.25585,"lon":5.3823,"is_reserved":false,"is_disabled":false,"rental_uris":{"android":"levelo://app?vid=5063f4af-2df5-4a8d-971c-2e45b710db02","ios":"levelo://app?vid=5063f4af-2df5-4a8d-971c-2e45b710db02"},"vehicle_type_id":"4","last_reported":1729944979,"current_range_meters":37600,"station_id":"ce4bhih2rcd13ifvqfs0","pricing_plan_id":"cebpf4jnsgd1na2vs0mg"},{"bike_id":"e16ba0fb-c8f9-4074-a1c8-ad626ad5602f","system_id":"levelo_inurba_marseille","lat":43.26938,"lon":5.40264,"is_reserved":false,"is_disabled":false,"rental_uris":{"android":"levelo://app?vid=e16ba0fb-c8f9-4074-a1c8-ad626ad5602f","ios":"levelo://app?vid=e16ba0fb-c8f9-4074-a1c8-ad626ad5602f"},"vehicle_type_id":"4","last_reported":1729944979,"current_range_meters":38800,"station_id":"cjm6bp8fraef2m0cb0m0","pricing_plan_id":"cebpf4jnsgd1na2vs0mg"},{"bike_id":"5282a92c-181d-4f7f-940f-0f5009b22aa8","system_id":"levelo_inurba_marseille","lat":43.27209,"lon":5.39184,"is_reserved":false,"is_disabled":false,"rental_uris":{"android":"levelo://app?vid=5282a92c-181d-4f7f-940f-0f5009b22aa8","ios":"levelo://app?vid=5282a92c-181d-4f7f-940f-0f5009b22aa8"},"vehicle_type_id":"4","last_reported":1729944979,"current_range_meters":38800,"station_id":"ce4bhhp2rcd13ifvqfm0","pricing_plan_id":"cebpf4jnsgd1na2vs0mg"},{"bike_id":"cd6085f0-abe4-4e31-91e6-31eaf858a0e1","system_id":"levelo_inurba_marseille","lat":43.30961,"lon":5.39023,"is_reserved":false,"is_disabled":false,"rental_uris":{"android":"levelo://app?vid=cd6085f0-abe4-4e31-91e6-31eaf858a0e1","ios":"levelo://app?vid=cd6085f0-abe4-4e31-91e6-31eaf858a0e1"},"vehicle_type_id":"4","last_reported":1729944979,"current_range_meters":27600,"station_id":"ce4bgup2rcd13ifvqco0","pricing_plan_id":"cebpf4jnsgd1na2vs0mg"},{"bike_id":"6f3e4e8d-904a-4ca8-903f-1024e76f0255","system_id":"levelo_inurba_marseille","lat":43.2696,"lon":5.38625,"is_reserved":false,"is_disabled":false,"rental_uris":{"android":"levelo://app?vid=6f3e4e8d-904a-4ca8-903f-1024e76f0255","ios":"levelo://app?vid=6f3e4e8d-904a-4ca8-903f-1024e76f0255"},"vehicle_type_id":"4","last_reported":1729944979,"current_range_meters":33200,"station_id":"ce4bhh92rcd13ifvqfh0","pricing_plan_id":"cebpf4jnsgd1na2vs0mg"},{"bike_id":"cde1e905-d555-4310-806f-11298f497bad","system_id":"levelo_inurba_marseille","lat":43.29519,"lon":5.37495,"is_reserved":false,"is_disabled":false,"rental_uris":{"android":"levelo://app?vid=cde1e905-d555-4310-806f-11298f497bad","ios":"levelo://app?vid=cde1e905-d555-4310-806f-11298f497bad"},"vehicle_type_id":"4","last_reported":1729944979,"current_range_meters":37600,"station_id":"ce4bgkp2rcd13ifvqbmg","pricing_plan_id":"cebpf4jnsgd1na2vs0mg"},{"bike_id":"270d1fbb-4583-48ba-8c59-eb4250e3c47b","system_id":"levelo_inurba_marseille","lat":43.28707,"lon":5.37385,"is_reserved":false,"is_disabled":false,"rental_uris":{"android":"levelo://app?vid=270d1fbb-4583-48ba-8c59-eb4250e3c47b","ios":"levelo://app?vid=270d1fbb-4583-48ba-8c59-eb4250e3c47b"},"vehicle_type_id":"4","last_reported":1729944979,"current_range_meters":29600,"station_id":"ce4bh3p2rcd13ifvqdq0","pricing_plan_id":"cebpf4jnsgd1na2vs0mg"},{"bike_id":"05f3612a-7bab-4410-9448-4f50dc6ad31b","system_id":"levelo_inurba_marseille","lat":43.25004,"lon":5.38937,"is_reserved":false,"is_disabled":false,"rental_uris":{"android":"levelo://app?vid=05f3612a-7bab-4410-9448-4f50dc6ad31b","ios":"levelo://app?vid=05f3612a-7bab-4410-9448-4f50dc6ad31b"},"vehicle_type_id":"4","last_reported":1729944979,"current_range_meters":36400,"station_id":"ce4bhgp2rcd13ifvqfd0","pricing_plan_id":"cebpf4jnsgd1na2vs0mg"},{"bike_id":"81a79566-0322-46ac-900d-8d127f21c4ba","system_id":"levelo_inurba_marseille","lat":43.31767,"lon":5.3901,"is_reserved":false,"is_disabled":false,"rental_uris":{"android":"levelo://app?vid=81a79566-0322-46ac-900d-8d127f21c4ba","ios":"levelo://app?vid=81a79566-0322-46ac-900d-8d127f21c4ba"},"vehicle_type_id":"4","last_reported":1729944979,"current_range_meters":39200,"station_id":"ce4bhqp2rcd13ifvqhng","pricing_plan_id":"cebpf4jnsgd1na2vs0mg"},{"bike_id":"889e4acd-dea2-4e5b-91ea-b561581ead61","system_id":"levelo_inurba_marseille","lat":43.2656,"lon":5.39006,"is_reserved":false,"is_disabled":false,"rental_uris":{"android":"levelo://app?vid=889e4acd-dea2-4e5b-91ea-b561581ead61","ios":"levelo://app?vid=889e4acd-dea2-4e5b-91ea-b561581ead61"},"vehicle_type_id":"4","last_reported":1729944979,"current_range_meters":38800,"station_id":"ce4bhe12rcd13ifvqf30","pricing_plan_id":"cebpf4jnsgd1na2vs0mg"},{"bike_id":"dc690ca7-52fc-47f8-a2bd-076e56f966ed","system_id":"levelo_inurba_marseille","lat":43.27051,"lon":5.4026,"is_reserved":false,"is_disabled":false,"rental_uris":{"android":"levelo://app?vid=dc690ca7-52fc-47f8-a2bd-076e56f966ed","ios":"levelo://app?vid=dc690ca7-52fc-47f8-a2bd-076e56f966ed"},"vehicle_type_id":"4","last_reported":1729944979,"current_range_meters":37600,"station_id":"ce4bhk92rcd13ifvqgc0","pricing_plan_id":"cebpf4jnsgd1na2vs0mg"},{"bike_id":"1c14cc70-dba6-4007-90bb-09c77a87c357","system_id":"levelo_inurba_marseille","lat":43.2668,"lon":5.38259,"is_reserved":false,"is_disabled":false,"rental_uris":{"android":"levelo://app?vid=1c14cc70-dba6-4007-90bb-09c77a87c357","ios":"levelo://app?vid=1c14cc70-dba6-4007-90bb-09c77a87c357"},"vehicle_type_id":"4","last_reported":1729944979,"current_range_meters":38800,"station_id":"ce4bhg92rcd13ifvqf90","pricing_plan_id":"cebpf4jnsgd1na2vs0mg"},{"bike_id":"3a9bfb16-0c1d-4441-a397-be908d793bb9","system_id":"levelo_inurba_marseille","lat":43.2549,"lon":5.37649,"is_reserved":false,"is_disabled":false,"rental_uris":{"android":"levelo://app?vid=3a9bfb16-0c1d-4441-a397-be908d793bb9","ios":"levelo://app?vid=3a9bfb16-0c1d-4441-a397-be908d793bb9"},"vehicle_type_id":"4","last_reported":1729944979,"current_range_meters":32400,"station_id":"ce4bhh12rcd13ifvqff0","pricing_plan_id":"cebpf4jnsgd1na2vs0mg"},{"bike_id":"6c990c37-116e-41cb-a5de-cb44083ded54","system_id":"levelo_inurba_marseille","lat":43.28073,"lon":5.39639,"is_reserved":false,"is_disabled":false,"rental_uris":{"android":"levelo://app?vid=6c990c37-116e-41cb-a5de-cb44083ded54","ios":"levelo://app?vid=6c990c37-116e-41cb-a5de-cb44083ded54"},"vehicle_type_id":"4","last_reported":1729944979,"current_range_meters":38800,"station_id":"ce4bho12rcd13ifvqh2g","pricing_plan_id":"cebpf4jnsgd1na2vs0mg"},{"bike_id":"457011a0-e690-4a79-a04b-f72faa42e946","system_id":"levelo_inurba_marseille","lat":43.29297,"lon":5.37452,"is_reserved":false,"is_disabled":false,"rental_uris":{"android":"levelo://app?vid=457011a0-e690-4a79-a04b-f72faa42e946","ios":"levelo://app?vid=457011a0-e690-4a79-a04b-f72faa42e946"},"vehicle_type_id":"4","last_reported":1729944979,"current_range_meters":38800,"station_id":"ce4bgi12rcd13ifvqb70","pricing_plan_id":"cebpf4jnsgd1na2vs0mg"},{"bike_id":"dd444345-b5ca-4346-b71d-3a11eb9c325b","system_id":"levelo_inurba_marseille","lat":43.27814,"lon":5.40704,"is_reserved":false,"is_disabled":false,"rental_uris":{"android":"levelo://app?vid=dd444345-b5ca-4346-b71d-3a11eb9c325b","ios":"levelo://app?vid=dd444345-b5ca-4346-b71d-3a11eb9c325b"},"vehicle_type_id":"4","last_reported":1729944979,"current_range_meters":12400,"station_id":"ce4bhnh2rcd13ifvqgtg","pricing_plan_id":"cebpf4jnsgd1na2vs0mg"},{"bike_id":"d06a9c1c-9f1b-4654-8371-4f19bc149c10","system_id":"levelo_inurba_marseille","lat":43.32659,"lon":5.40993,"is_reserved":false,"is_disabled":false,"rental_uris":{"android":"levelo://app?vid=d06a9c1c-9f1b-4654-8371-4f19bc149c10","ios":"levelo://app?vid=d06a9c1c-9f1b-4654-8371-4f19bc149c10"},"vehicle_type_id":"4","last_reported":1729944979,"current_range_meters":38800,"station_id":"ce4bhpp2rcd13ifvqhgg","pricing_plan_id":"cebpf4jnsgd1na2vs0mg"},{"bike_id":"ff081448-e28f-428a-9a44-e656d8dcc5d8","system_id":"levelo_inurba_marseille","lat":43.28929,"lon":5.36636,"is_reserved":false,"is_disabled":false,"rental_uris":{"android":"levelo://app?vid=ff081448-e28f-428a-9a44-e656d8dcc5d8","ios":"levelo://app?vid=ff081448-e28f-428a-9a44-e656d8dcc5d8"},"vehicle_type_id":"4","last_reported":1729944979,"current_range_meters":30800,"station_id":"ce4bhap2rcd13ifvqek0","pricing_plan_id":"cebpf4jnsgd1na2vs0mg"},{"bike_id":"600943db-8acc-4d0c-a03d-5e75e1a32988","system_id":"levelo_inurba_marseille","lat":43.29895,"lon":5.43669,"is_reserved":false,"is_disabled":false,"rental_uris":{"android":"levelo://app?vid=600943db-8acc-4d0c-a03d-5e75e1a32988","ios":"levelo://app?vid=600943db-8acc-4d0c-a03d-5e75e1a32988"},"vehicle_type_id":"4","last_reported":1729944979,"current_range_meters":24000,"station_id":"ce4bhpp2rcd13ifvqhfg","pricing_plan_id":"cebpf4jnsgd1na2vs0mg"},{"bike_id":"72d4fe02-7ad5-4cd4-aa12-822b9a78e2cb","system_id":"levelo_inurba_marseille","lat":43.30935,"lon":5.40134,"is_reserved":false,"is_disabled":false,"rental_uris":{"android":"levelo://app?vid=72d4fe02-7ad5-4cd4-aa12-822b9a78e2cb","ios":"levelo://app?vid=72d4fe02-7ad5-4cd4-aa12-822b9a78e2cb"},"vehicle_type_id":"4","last_reported":1729944979,"current_range_meters":36800,"station_id":"ce4bgvp2rcd13ifvqct0","pricing_plan_id":"cebpf4jnsgd1na2vs0mg"},{"bike_id":"c620abc8-2626-440f-878c-1efbd192a62e","system_id":"levelo_inurba_marseille","lat":43.25004,"lon":5.38922,"is_reserved":false,"is_disabled":false,"rental_uris":{"android":"levelo://app?vid=c620abc8-2626-440f-878c-1efbd192a62e","ios":"levelo://app?vid=c620abc8-2626-440f-878c-1efbd192a62e"},"vehicle_type_id":"4","last_reported":1729944979,"current_range_meters":38800,"station_id":"ce4bhgp2rcd13ifvqfd0","pricing_plan_id":"cebpf4jnsgd1na2vs0mg"},{"bike_id":"03c3662f-d9b5-485a-8a89-75c166e95f18","system_id":"levelo_inurba_marseille","lat":43.3016,"lon":5.38083,"is_reserved":false,"is_disabled":false,"rental_uris":{"android":"levelo://app?vid=03c3662f-d9b5-485a-8a89-75c166e95f18","ios":"levelo://app?vid=03c3662f-d9b5-485a-8a89-75c166e95f18"},"vehicle_type_id":"4","last_reported":1729944979,"current_range_meters":27600,"station_id":"ce4bgjp2rcd13ifvqbh0","pricing_plan_id":"cebpf4jnsgd1na2vs0mg"},{"bike_id":"48e86b98-5791-48d7-bd22-5c97543ca699","system_id":"levelo_inurba_marseille","lat":43.29587,"lon":5.36733,"is_reserved":false,"is_disabled":false,"rental_uris":{"android":"levelo://app?vid=48e86b98-5791-48d7-bd22-5c97543ca699","ios":"levelo://app?vid=48e86b98-5791-48d7-bd22-5c97543ca699"},"vehicle_type_id":"4","last_reported":1729944979,"current_range_meters":39200,"station_id":"ce4bgph2rcd13ifvqc2g","pricing_plan_id":"cebpf4jnsgd1na2vs0mg"},{"bike_id":"f73eb936-9c2a-478f-b577-3db04ff09a3e","system_id":"levelo_inurba_marseille","lat":43.29251,"lon":5.40909,"is_reserved":false,"is_disabled":false,"rental_uris":{"android":"levelo://app?vid=f73eb936-9c2a-478f-b577-3db04ff09a3e","ios":"levelo://app?vid=f73eb936-9c2a-478f-b577-3db04ff09a3e"},"vehicle_type_id":"4","last_reported":1729944979,"current_range_meters":38800,"station_id":"ce4bh192rcd13ifvqdc0","pricing_plan_id":"cebpf4jnsgd1na2vs0mg"},{"bike_id":"e00cefd2-b35f-4c6b-a657-0ed9ac2806c3","system_id":"levelo_inurba_marseille","lat":43.25121,"lon":5.40315,"is_reserved":false,"is_disabled":false,"rental_uris":{"android":"levelo://app?vid=e00cefd2-b35f-4c6b-a657-0ed9ac2806c3","ios":"levelo://app?vid=e00cefd2-b35f-4c6b-a657-0ed9ac2806c3"},"vehicle_type_id":"4","last_reported":1729944979,"current_range_meters":6400,"station_id":"ce4bhlh2rcd13ifvqgig","pricing_plan_id":"cebpf4jnsgd1na2vs0mg"},{"bike_id":"f4315c3d-1c70-4f5d-9cd1-2ff84d610473","system_id":"levelo_inurba_marseille","lat":43.26941,"lon":5.38641,"is_reserved":false,"is_disabled":false,"rental_uris":{"android":"levelo://app?vid=f4315c3d-1c70-4f5d-9cd1-2ff84d610473","ios":"levelo://app?vid=f4315c3d-1c70-4f5d-9cd1-2ff84d610473"},"vehicle_type_id":"4","last_reported":1729944979,"current_range_meters":39200,"station_id":"ce4bhh92rcd13ifvqfh0","pricing_plan_id":"cebpf4jnsgd1na2vs0mg"},{"bike_id":"0746b5ef-d14c-48d4-b50d-3a9822f0004c","system_id":"levelo_inurba_marseille","lat":43.22937,"lon":5.35378,"is_reserved":false,"is_disabled":false,"rental_uris":{"android":"levelo://app?vid=0746b5ef-d14c-48d4-b50d-3a9822f0004c","ios":"levelo://app?vid=0746b5ef-d14c-48d4-b50d-3a9822f0004c"},"vehicle_type_id":"4","last_reported":1729944979,"current_range_meters":36800,"station_id":"cpo3532slgdg3j2ikp40","pricing_plan_id":"cebpf4jnsgd1na2vs0mg"},{"bike_id":"fcc3a32b-6373-425b-be0a-b1a445ac3c61","system_id":"levelo_inurba_marseille","lat":43.304858,"lon":5.401644,"is_reserved":false,"is_disabled":false,"rental_uris":{"android":"levelo://app?vid=fcc3a32b-6373-425b-be0a-b1a445ac3c61","ios":"levelo://app?vid=fcc3a32b-6373-425b-be0a-b1a445ac3c61"},"vehicle_type_id":"4","last_reported":1729944979,"current_range_meters":2800,"station_id":"ce4bgh92rcd13ifvqb50","pricing_plan_id":"cebpf4jnsgd1na2vs0mg"},{"bike_id":"3c6c8f01-0c7e-489a-90d0-255ca982db1d","system_id":"levelo_inurba_marseille","lat":43.29263,"lon":5.38435,"is_reserved":false,"is_disabled":false,"rental_uris":{"android":"levelo://app?vid=3c6c8f01-0c7e-489a-90d0-255ca982db1d","ios":"levelo://app?vid=3c6c8f01-0c7e-489a-90d0-255ca982db1d"},"vehicle_type_id":"4","last_reported":1729944979,"current_range_meters":38800,"station_id":"ce4bh692rcd13ifvqea0","pricing_plan_id":"cebpf4jnsgd1na2vs0mg"},{"bike_id":"9301cb24-76ce-463d-a0d4-e9352290ce27","system_id":"levelo_inurba_marseille","lat":43.25492,"lon":5.37648,"is_reserved":false,"is_disabled":false,"rental_uris":{"android":"levelo://app?vid=9301cb24-76ce-463d-a0d4-e9352290ce27","ios":"levelo://app?vid=9301cb24-76ce-463d-a0d4-e9352290ce27"},"vehicle_type_id":"4","last_reported":1729944979,"current_range_meters":38400,"station_id":"ce4bhh12rcd13ifvqff0","pricing_plan_id":"cebpf4jnsgd1na2vs0mg"},{"bike_id":"390643ba-64c4-4db5-ac2a-2b26eb43c28f","system_id":"levelo_inurba_marseille","lat":43.28043,"lon":5.36936,"is_reserved":false,"is_disabled":false,"rental_uris":{"android":"levelo://app?vid=390643ba-64c4-4db5-ac2a-2b26eb43c28f","ios":"levelo://app?vid=390643ba-64c4-4db5-ac2a-2b26eb43c28f"},"vehicle_type_id":"4","last_reported":1729944979,"current_range_meters":12400,"station_id":"ce4bha12rcd13ifvqef0","pricing_plan_id":"cebpf4jnsgd1na2vs0mg"},{"bike_id":"5b304c83-865f-4544-a606-2995da4d1e73","system_id":"levelo_inurba_marseille","lat":43.28855,"lon":5.35838,"is_reserved":false,"is_disabled":false,"rental_uris":{"android":"levelo://app?vid=5b304c83-865f-4544-a606-2995da4d1e73","ios":"levelo://app?vid=5b304c83-865f-4544-a606-2995da4d1e73"},"vehicle_type_id":"4","last_reported":1729944979,"current_range_meters":38800,"station_id":"ce4bhb12rcd13ifvqem0","pricing_plan_id":"cebpf4jnsgd1na2vs0mg"},{"bike_id":"ef136fa5-257b-4ee5-bd73-f0de7405e6ba","system_id":"levelo_inurba_marseille","lat":43.24539,"lon":5.39519,"is_reserved":false,"is_disabled":false,"rental_uris":{"android":"levelo://app?vid=ef136fa5-257b-4ee5-bd73-f0de7405e6ba","ios":"levelo://app?vid=ef136fa5-257b-4ee5-bd73-f0de7405e6ba"},"vehicle_type_id":"4","last_reported":1729944979,"current_range_meters":29600,"station_id":"ce4bhlp2rcd13ifvqgjg","pricing_plan_id":"cebpf4jnsgd1na2vs0mg"},{"bike_id":"ca20f193-a7fc-418d-a3ae-dbb2bd510d2d","system_id":"levelo_inurba_marseille","lat":43.30788,"lon":5.376383,"is_reserved":false,"is_disabled":false,"rental_uris":{"android":"levelo://app?vid=ca20f193-a7fc-418d-a3ae-dbb2bd510d2d","ios":"levelo://app?vid=ca20f193-a7fc-418d-a3ae-dbb2bd510d2d"},"vehicle_type_id":"4","last_reported":1729944979,"current_range_meters":25600,"station_id":"ce4bgv92rcd13ifvqcq0","pricing_plan_id":"cebpf4jnsgd1na2vs0mg"},{"bike_id":"5004519a-eca4-4739-9620-0c1d565549c1","system_id":"levelo_inurba_marseille","lat":43.23056,"lon":5.35498,"is_reserved":false,"is_disabled":false,"rental_uris":{"android":"levelo://app?vid=5004519a-eca4-4739-9620-0c1d565549c1","ios":"levelo://app?vid=5004519a-eca4-4739-9620-0c1d565549c1"},"vehicle_type_id":"4","last_reported":1729944979,"current_range_meters":15200,"station_id":"cpo3342slgdg3j2ifvpg","pricing_plan_id":"cebpf4jnsgd1na2vs0mg"},{"bike_id":"9295b118-4bed-4528-a35e-890783db516d","system_id":"levelo_inurba_marseille","lat":43.30188,"lon":5.36603,"is_reserved":false,"is_disabled":false,"rental_uris":{"android":"levelo://app?vid=9295b118-4bed-4528-a35e-890783db516d","ios":"levelo://app?vid=9295b118-4bed-4528-a35e-890783db516d"},"vehicle_type_id":"4","last_reported":1729944979,"current_range_meters":39200,"station_id":"ce4bgrh2rcd13ifvqc8g","pricing_plan_id":"cebpf4jnsgd1na2vs0mg"},{"bike_id":"9488ca84-aa5e-4311-bde9-38d634703444","system_id":"levelo_inurba_marseille","lat":43.32487,"lon":5.36555,"is_reserved":false,"is_disabled":false,"rental_uris":{"android":"levelo://app?vid=9488ca84-aa5e-4311-bde9-38d634703444","ios":"levelo://app?vid=9488ca84-aa5e-4311-bde9-38d634703444"},"vehicle_type_id":"4","last_reported":1729944979,"current_range_meters":37600,"station_id":"ce4bhs12rcd13ifvqhvg","pricing_plan_id":"cebpf4jnsgd1na2vs0mg"},{"bike_id":"3c5ddb2f-20a7-4146-ac62-db8b76c8aa3c","system_id":"levelo_inurba_marseille","lat":43.26806,"lon":5.40257,"is_reserved":false,"is_disabled":false,"rental_uris":{"android":"levelo://app?vid=3c5ddb2f-20a7-4146-ac62-db8b76c8aa3c","ios":"levelo://app?vid=3c5ddb2f-20a7-4146-ac62-db8b76c8aa3c"},"vehicle_type_id":"4","last_reported":1729944979,"current_range_meters":30400,"station_id":"ce501612rcd8frsf0b60","pricing_plan_id":"cebpf4jnsgd1na2vs0mg"},{"bike_id":"19842355-7deb-4315-b718-98ced67fcc85","system_id":"levelo_inurba_marseille","lat":43.3043,"lon":5.39744,"is_reserved":false,"is_disabled":false,"rental_uris":{"android":"levelo://app?vid=19842355-7deb-4315-b718-98ced67fcc85","ios":"levelo://app?vid=19842355-7deb-4315-b718-98ced67fcc85"},"vehicle_type_id":"4","last_reported":1729944979,"current_range_meters":38800,"station_id":"ce4bh092rcd13ifvqd20","pricing_plan_id":"cebpf4jnsgd1na2vs0mg"},{"bike_id":"b4930aef-1e61-4824-8bc4-f63f1ec0274f","system_id":"levelo_inurba_marseille","lat":43.30602,"lon":5.37222,"is_reserved":false,"is_disabled":false,"rental_uris":{"android":"levelo://app?vid=b4930aef-1e61-4824-8bc4-f63f1ec0274f","ios":"levelo://app?vid=b4930aef-1e61-4824-8bc4-f63f1ec0274f"},"vehicle_type_id":"4","last_reported":1729944979,"current_range_meters":38800,"station_id":"ce4bgqh2rcd13ifvqc4g","pricing_plan_id":"cebpf4jnsgd1na2vs0mg"},{"bike_id":"a5c10523-9e0d-428e-859e-d6234f3b6b9f","system_id":"levelo_inurba_marseille","lat":43.29803,"lon":5.40407,"is_reserved":false,"is_disabled":false,"rental_uris":{"android":"levelo://app?vid=a5c10523-9e0d-428e-859e-d6234f3b6b9f","ios":"levelo://app?vid=a5c10523-9e0d-428e-859e-d6234f3b6b9f"},"vehicle_type_id":"4","last_reported":1729944979,"current_range_meters":38800,"station_id":"ce4bh112rcd13ifvqd90","pricing_plan_id":"cebpf4jnsgd1na2vs0mg"},{"bike_id":"601916c5-3274-4e01-863c-d96df39ce3b1","system_id":"levelo_inurba_marseille","lat":43.26558,"lon":5.39,"is_reserved":false,"is_disabled":false,"rental_uris":{"android":"levelo://app?vid=601916c5-3274-4e01-863c-d96df39ce3b1","ios":"levelo://app?vid=601916c5-3274-4e01-863c-d96df39ce3b1"},"vehicle_type_id":"4","last_reported":1729944979,"current_range_meters":36400,"station_id":"ce4bhe12rcd13ifvqf30","pricing_plan_id":"cebpf4jnsgd1na2vs0mg"},{"bike_id":"14a76e75-36f8-4740-a470-b424aaf788f7","system_id":"levelo_inurba_marseille","lat":43.30475,"lon":5.37902,"is_reserved":false,"is_disabled":false,"rental_uris":{"android":"levelo://app?vid=14a76e75-36f8-4740-a470-b424aaf788f7","ios":"levelo://app?vid=14a76e75-36f8-4740-a470-b424aaf788f7"},"vehicle_type_id":"4","last_reported":1729944979,"current_range_meters":37600,"station_id":"ce4bgup2rcd13ifvqcn0","pricing_plan_id":"cebpf4jnsgd1na2vs0mg"},{"bike_id":"dc72e49c-b26a-401b-87fe-367cb03380d0","system_id":"levelo_inurba_marseille","lat":43.28079,"lon":5.39662,"is_reserved":false,"is_disabled":false,"rental_uris":{"android":"levelo://app?vid=dc72e49c-b26a-401b-87fe-367cb03380d0","ios":"levelo://app?vid=dc72e49c-b26a-401b-87fe-367cb03380d0"},"vehicle_type_id":"4","last_reported":1729944979,"current_range_meters":17600,"station_id":"ce4bho12rcd13ifvqh2g","pricing_plan_id":"cebpf4jnsgd1na2vs0mg"},{"bike_id":"1fafbe93-2ba4-4077-bfcf-7b3992b30a25","system_id":"levelo_inurba_marseille","lat":43.29551,"lon":5.4228,"is_reserved":false,"is_disabled":false,"rental_uris":{"android":"levelo://app?vid=1fafbe93-2ba4-4077-bfcf-7b3992b30a25","ios":"levelo://app?vid=1fafbe93-2ba4-4077-bfcf-7b3992b30a25"},"vehicle_type_id":"4","last_reported":1729944979,"current_range_meters":38800,"station_id":"ce4bhph2rcd13ifvqhdg","pricing_plan_id":"cebpf4jnsgd1na2vs0mg"},{"bike_id":"7b9bb9f6-2747-4f5c-a936-06f552492e45","system_id":"levelo_inurba_marseille","lat":43.31727,"lon":5.42395,"is_reserved":false,"is_disabled":false,"rental_uris":{"android":"levelo://app?vid=7b9bb9f6-2747-4f5c-a936-06f552492e45","ios":"levelo://app?vid=7b9bb9f6-2747-4f5c-a936-06f552492e45"},"vehicle_type_id":"4","last_reported":1729944979,"current_range_meters":37600,"station_id":"ce4bhp92rcd13ifvqhbg","pricing_plan_id":"cebpf4jnsgd1na2vs0mg"},{"bike_id":"2590678a-7e59-4da8-a7ce-c3417fc4e12c","system_id":"levelo_inurba_marseille","lat":43.2953,"lon":5.38535,"is_reserved":false,"is_disabled":false,"rental_uris":{"android":"levelo://app?vid=2590678a-7e59-4da8-a7ce-c3417fc4e12c","ios":"levelo://app?vid=2590678a-7e59-4da8-a7ce-c3417fc4e12c"},"vehicle_type_id":"4","last_reported":1729944979,"current_range_meters":28800,"station_id":"ce4bgih2rcd13ifvqba0","pricing_plan_id":"cebpf4jnsgd1na2vs0mg"},{"bike_id":"a6a5412d-25cc-4ab7-8978-8b51410244f5","system_id":"levelo_inurba_marseille","lat":43.27918,"lon":5.39581,"is_reserved":false,"is_disabled":false,"rental_uris":{"android":"levelo://app?vid=a6a5412d-25cc-4ab7-8978-8b51410244f5","ios":"levelo://app?vid=a6a5412d-25cc-4ab7-8978-8b51410244f5"},"vehicle_type_id":"4","last_reported":1729944979,"current_range_meters":24800,"station_id":"ce4bhf92rcd13ifvqf40","pricing_plan_id":"cebpf4jnsgd1na2vs0mg"},{"bike_id":"8a55373d-8f54-4890-9729-5db301ba9fa0","system_id":"levelo_inurba_marseille","lat":43.25006,"lon":5.38912,"is_reserved":false,"is_disabled":false,"rental_uris":{"android":"levelo://app?vid=8a55373d-8f54-4890-9729-5db301ba9fa0","ios":"levelo://app?vid=8a55373d-8f54-4890-9729-5db301ba9fa0"},"vehicle_type_id":"4","last_reported":1729944979,"current_range_meters":36800,"station_id":"ce4bhgp2rcd13ifvqfd0","pricing_plan_id":"cebpf4jnsgd1na2vs0mg"},{"bike_id":"d69c50b6-009d-4b86-a209-155be199527e","system_id":"levelo_inurba_marseille","lat":43.31083,"lon":5.42424,"is_reserved":false,"is_disabled":false,"rental_uris":{"android":"levelo://app?vid=d69c50b6-009d-4b86-a209-155be199527e","ios":"levelo://app?vid=d69c50b6-009d-4b86-a209-155be199527e"},"vehicle_type_id":"4","last_reported":1729944979,"current_range_meters":37600,"station_id":"ce4bhp92rcd13ifvqhag","pricing_plan_id":"cebpf4jnsgd1na2vs0mg"},{"bike_id":"d9e32773-0daf-4f7c-9546-3cc1c4c63498","system_id":"levelo_inurba_marseille","lat":43.28942,"lon":5.36635,"is_reserved":false,"is_disabled":false,"rental_uris":{"android":"levelo://app?vid=d9e32773-0daf-4f7c-9546-3cc1c4c63498","ios":"levelo://app?vid=d9e32773-0daf-4f7c-9546-3cc1c4c63498"},"vehicle_type_id":"4","last_reported":1729944979,"current_range_meters":35200,"station_id":"ce4bhap2rcd13ifvqek0","pricing_plan_id":"cebpf4jnsgd1na2vs0mg"},{"bike_id":"7569b810-af8d-4c95-be87-76834cbad9fe","system_id":"levelo_inurba_marseille","lat":43.27317,"lon":5.39099,"is_reserved":false,"is_disabled":false,"rental_uris":{"android":"levelo://app?vid=7569b810-af8d-4c95-be87-76834cbad9fe","ios":"levelo://app?vid=7569b810-af8d-4c95-be87-76834cbad9fe"},"vehicle_type_id":"4","last_reported":1729944979,"current_range_meters":27200,"station_id":"ce4bhgp2rcd13ifvqfe0","pricing_plan_id":"cebpf4jnsgd1na2vs0mg"},{"bike_id":"f52dc158-649d-4a31-90c8-1d3f191fd52c","system_id":"levelo_inurba_marseille","lat":43.27059,"lon":5.40262,"is_reserved":false,"is_disabled":false,"rental_uris":{"android":"levelo://app?vid=f52dc158-649d-4a31-90c8-1d3f191fd52c","ios":"levelo://app?vid=f52dc158-649d-4a31-90c8-1d3f191fd52c"},"vehicle_type_id":"4","last_reported":1729944979,"current_range_meters":6400,"station_id":"ce4bhk92rcd13ifvqgc0","pricing_plan_id":"cebpf4jnsgd1na2vs0mg"},{"bike_id":"c5342152-eaa7-4487-b5ac-2c3245f2bd54","system_id":"levelo_inurba_marseille","lat":43.28489,"lon":5.38426,"is_reserved":false,"is_disabled":false,"rental_uris":{"android":"levelo://app?vid=c5342152-eaa7-4487-b5ac-2c3245f2bd54","ios":"levelo://app?vid=c5342152-eaa7-4487-b5ac-2c3245f2bd54"},"vehicle_type_id":"4","last_reported":1729944979,"current_range_meters":18800,"station_id":"ce4bh512rcd13ifvqe3g","pricing_plan_id":"cebpf4jnsgd1na2vs0mg"},{"bike_id":"b16977e5-a179-4486-942f-cb962ca2667c","system_id":"levelo_inurba_marseille","lat":43.30283,"lon":5.37694,"is_reserved":false,"is_disabled":false,"rental_uris":{"android":"levelo://app?vid=b16977e5-a179-4486-942f-cb962ca2667c","ios":"levelo://app?vid=b16977e5-a179-4486-942f-cb962ca2667c"},"vehicle_type_id":"4","last_reported":1729944979,"current_range_meters":34000,"station_id":"ce4bguh2rcd13ifvqcj0","pricing_plan_id":"cebpf4jnsgd1na2vs0mg"},{"bike_id":"a57007c5-4677-4dd1-a320-66b5f5c3835a","system_id":"levelo_inurba_marseille","lat":43.29029,"lon":5.37558,"is_reserved":false,"is_disabled":false,"rental_uris":{"android":"levelo://app?vid=a57007c5-4677-4dd1-a320-66b5f5c3835a","ios":"levelo://app?vid=a57007c5-4677-4dd1-a320-66b5f5c3835a"},"vehicle_type_id":"4","last_reported":1729944979,"current_range_meters":38800,"station_id":"ce4bh692rcd13ifvqe90","pricing_plan_id":"cebpf4jnsgd1na2vs0mg"},{"bike_id":"bf291e7e-22e0-40c3-9fbf-804e4d125b27","system_id":"levelo_inurba_marseille","lat":43.25583,"lon":5.38236,"is_reserved":false,"is_disabled":false,"rental_uris":{"android":"levelo://app?vid=bf291e7e-22e0-40c3-9fbf-804e4d125b27","ios":"levelo://app?vid=bf291e7e-22e0-40c3-9fbf-804e4d125b27"},"vehicle_type_id":"4","last_reported":1729944979,"current_range_meters":19600,"station_id":"ce4bhih2rcd13ifvqfs0","pricing_plan_id":"cebpf4jnsgd1na2vs0mg"},{"bike_id":"704ff70b-3044-4cc0-a1b3-72bc6b15acdb","system_id":"levelo_inurba_marseille","lat":43.28481,"lon":5.38537,"is_reserved":false,"is_disabled":false,"rental_uris":{"android":"levelo://app?vid=704ff70b-3044-4cc0-a1b3-72bc6b15acdb","ios":"levelo://app?vid=704ff70b-3044-4cc0-a1b3-72bc6b15acdb"},"vehicle_type_id":"4","last_reported":1729944979,"current_range_meters":37600,"station_id":"ce4bh8p2rcd13ifvqeb0","pricing_plan_id":"cebpf4jnsgd1na2vs0mg"},{"bike_id":"79c7ebe1-7a54-4b93-b68a-abae41a12b29","system_id":"levelo_inurba_marseille","lat":43.25008,"lon":5.38918,"is_reserved":false,"is_disabled":false,"rental_uris":{"android":"levelo://app?vid=79c7ebe1-7a54-4b93-b68a-abae41a12b29","ios":"levelo://app?vid=79c7ebe1-7a54-4b93-b68a-abae41a12b29"},"vehicle_type_id":"4","last_reported":1729944979,"current_range_meters":36800,"station_id":"ce4bhgp2rcd13ifvqfd0","pricing_plan_id":"cebpf4jnsgd1na2vs0mg"},{"bike_id":"73c2c8ad-3512-479e-8e48-8e695e24feab","system_id":"levelo_inurba_marseille","lat":43.32364,"lon":5.36754,"is_reserved":false,"is_disabled":false,"rental_uris":{"android":"levelo://app?vid=73c2c8ad-3512-479e-8e48-8e695e24feab","ios":"levelo://app?vid=73c2c8ad-3512-479e-8e48-8e695e24feab"},"vehicle_type_id":"4","last_reported":1729944979,"current_range_meters":25600,"station_id":"ce4bhsh2rcd13ifvqi2g","pricing_plan_id":"cebpf4jnsgd1na2vs0mg"},{"bike_id":"c3ebbc5b-25fd-4dd3-998f-772b34c825c0","system_id":"levelo_inurba_marseille","lat":43.23155,"lon":5.43705,"is_reserved":false,"is_disabled":false,"rental_uris":{"android":"levelo://app?vid=c3ebbc5b-25fd-4dd3-998f-772b34c825c0","ios":"levelo://app?vid=c3ebbc5b-25fd-4dd3-998f-772b34c825c0"},"vehicle_type_id":"4","last_reported":1729944979,"current_range_meters":22800,"station_id":"ce4bhmp2rcd13ifvqgog","pricing_plan_id":"cebpf4jnsgd1na2vs0mg"},{"bike_id":"5e840611-e92f-421a-a7b9-a27075e76721","system_id":"levelo_inurba_marseille","lat":43.27909,"lon":5.39576,"is_reserved":false,"is_disabled":false,"rental_uris":{"android":"levelo://app?vid=5e840611-e92f-421a-a7b9-a27075e76721","ios":"levelo://app?vid=5e840611-e92f-421a-a7b9-a27075e76721"},"vehicle_type_id":"4","last_reported":1729944979,"current_range_meters":27200,"station_id":"ce4bhf92rcd13ifvqf40","pricing_plan_id":"cebpf4jnsgd1na2vs0mg"},{"bike_id":"763f5dbb-276a-40ae-aed0-f11835e3b041","system_id":"levelo_inurba_marseille","lat":43.22936,"lon":5.35382,"is_reserved":false,"is_disabled":false,"rental_uris":{"android":"levelo://app?vid=763f5dbb-276a-40ae-aed0-f11835e3b041","ios":"levelo://app?vid=763f5dbb-276a-40ae-aed0-f11835e3b041"},"vehicle_type_id":"4","last_reported":1729944979,"current_range_meters":23200,"station_id":"cpo3532slgdg3j2ikp40","pricing_plan_id":"cebpf4jnsgd1na2vs0mg"},{"bike_id":"361ec233-7c4e-4e69-a079-9345367740ac","system_id":"levelo_inurba_marseille","lat":43.30783,"lon":5.37643,"is_reserved":false,"is_disabled":false,"rental_uris":{"android":"levelo://app?vid=361ec233-7c4e-4e69-a079-9345367740ac","ios":"levelo://app?vid=361ec233-7c4e-4e69-a079-9345367740ac"},"vehicle_type_id":"4","last_reported":1729944979,"current_range_meters":38800,"station_id":"ce4bgv92rcd13ifvqcq0","pricing_plan_id":"cebpf4jnsgd1na2vs0mg"},{"bike_id":"a4cdb9e2-dcee-478e-b833-1e72009d3ae3","system_id":"levelo_inurba_marseille","lat":43.30417,"lon":5.4128,"is_reserved":false,"is_disabled":false,"rental_uris":{"android":"levelo://app?vid=a4cdb9e2-dcee-478e-b833-1e72009d3ae3","ios":"levelo://app?vid=a4cdb9e2-dcee-478e-b833-1e72009d3ae3"},"vehicle_type_id":"4","last_reported":1729944979,"current_range_meters":6400,"station_id":"ce4bhop2rcd13ifvqh8g","pricing_plan_id":"cebpf4jnsgd1na2vs0mg"},{"bike_id":"066db38b-bbf2-4017-ba70-939039c7d4a3","system_id":"levelo_inurba_marseille","lat":43.30356,"lon":5.41872,"is_reserved":false,"is_disabled":false,"rental_uris":{"android":"levelo://app?vid=066db38b-bbf2-4017-ba70-939039c7d4a3","ios":"levelo://app?vid=066db38b-bbf2-4017-ba70-939039c7d4a3"},"vehicle_type_id":"4","last_reported":1729944979,"current_range_meters":39200,"station_id":"ce4bhop2rcd13ifvqh7g","pricing_plan_id":"cebpf4jnsgd1na2vs0mg"},{"bike_id":"cdbbb7bf-eee3-47be-9fbd-41adba71a569","system_id":"levelo_inurba_marseille","lat":43.28932,"lon":5.3663,"is_reserved":false,"is_disabled":false,"rental_uris":{"android":"levelo://app?vid=cdbbb7bf-eee3-47be-9fbd-41adba71a569","ios":"levelo://app?vid=cdbbb7bf-eee3-47be-9fbd-41adba71a569"},"vehicle_type_id":"4","last_reported":1729944979,"current_range_meters":38800,"station_id":"ce4bhap2rcd13ifvqek0","pricing_plan_id":"cebpf4jnsgd1na2vs0mg"},{"bike_id":"7993c3c6-8627-409c-8d7e-2d80fc199ec1","system_id":"levelo_inurba_marseille","lat":43.33605,"lon":5.41012,"is_reserved":false,"is_disabled":false,"rental_uris":{"android":"levelo://app?vid=7993c3c6-8627-409c-8d7e-2d80fc199ec1","ios":"levelo://app?vid=7993c3c6-8627-409c-8d7e-2d80fc199ec1"},"vehicle_type_id":"4","last_reported":1729944979,"current_range_meters":26000,"station_id":"ce4bhqh2rcd13ifvqhmg","pricing_plan_id":"cebpf4jnsgd1na2vs0mg"},{"bike_id":"3d73d8fc-7b5f-43d2-95a2-3b5cde846654","system_id":"levelo_inurba_marseille","lat":43.25873,"lon":5.39896,"is_reserved":false,"is_disabled":false,"rental_uris":{"android":"levelo://app?vid=3d73d8fc-7b5f-43d2-95a2-3b5cde846654","ios":"levelo://app?vid=3d73d8fc-7b5f-43d2-95a2-3b5cde846654"},"vehicle_type_id":"4","last_reported":1729944979,"current_range_meters":15200,"station_id":"ce4bhl92rcd13ifvqghg","pricing_plan_id":"cebpf4jnsgd1na2vs0mg"},{"bike_id":"d7ff7165-6d5c-4f76-865c-b2ea1a2a3c7a","system_id":"levelo_inurba_marseille","lat":43.27504,"lon":5.42456,"is_reserved":false,"is_disabled":false,"rental_uris":{"android":"levelo://app?vid=d7ff7165-6d5c-4f76-865c-b2ea1a2a3c7a","ios":"levelo://app?vid=d7ff7165-6d5c-4f76-865c-b2ea1a2a3c7a"},"vehicle_type_id":"4","last_reported":1729944979,"current_range_meters":10800,"station_id":"ce4bhn92rcd13ifvqgrg","pricing_plan_id":"cebpf4jnsgd1na2vs0mg"},{"bike_id":"578fec5a-8a35-4232-ab6c-e7d31c04260b","system_id":"levelo_inurba_marseille","lat":43.29594,"lon":5.38099,"is_reserved":false,"is_disabled":false,"rental_uris":{"android":"levelo://app?vid=578fec5a-8a35-4232-ab6c-e7d31c04260b","ios":"levelo://app?vid=578fec5a-8a35-4232-ab6c-e7d31c04260b"},"vehicle_type_id":"4","last_reported":1729944979,"current_range_meters":37600,"station_id":"ce4bgl12rcd13ifvqbo0","pricing_plan_id":"cebpf4jnsgd1na2vs0mg"},{"bike_id":"1ad40787-4c81-4192-a91f-766e096a2fd7","system_id":"levelo_inurba_marseille","lat":43.31129,"lon":5.37766,"is_reserved":false,"is_disabled":false,"rental_uris":{"android":"levelo://app?vid=1ad40787-4c81-4192-a91f-766e096a2fd7","ios":"levelo://app?vid=1ad40787-4c81-4192-a91f-766e096a2fd7"},"vehicle_type_id":"4","last_reported":1729944979,"current_range_meters":9600,"station_id":"ce4bgt92rcd13ifvqcg0","pricing_plan_id":"cebpf4jnsgd1na2vs0mg"},{"bike_id":"d13cfe8d-6bc1-49c8-b259-26c297560ecd","system_id":"levelo_inurba_marseille","lat":43.29794,"lon":5.38096,"is_reserved":false,"is_disabled":false,"rental_uris":{"android":"levelo://app?vid=d13cfe8d-6bc1-49c8-b259-26c297560ecd","ios":"levelo://app?vid=d13cfe8d-6bc1-49c8-b259-26c297560ecd"},"vehicle_type_id":"4","last_reported":1729944979,"current_range_meters":38800,"station_id":"ce4bgip2rcd13ifvqbb0","pricing_plan_id":"cebpf4jnsgd1na2vs0mg"},{"bike_id":"8001b44d-9ab0-46f5-80ea-c34d9f92effc","system_id":"levelo_inurba_marseille","lat":43.26941,"lon":5.40252,"is_reserved":false,"is_disabled":false,"rental_uris":{"android":"levelo://app?vid=8001b44d-9ab0-46f5-80ea-c34d9f92effc","ios":"levelo://app?vid=8001b44d-9ab0-46f5-80ea-c34d9f92effc"},"vehicle_type_id":"4","last_reported":1729944979,"current_range_meters":38800,"station_id":"cjm6bp8fraef2m0cb0m0","pricing_plan_id":"cebpf4jnsgd1na2vs0mg"},{"bike_id":"17243270-b8a4-4820-bfc1-f4893a87f2a4","system_id":"levelo_inurba_marseille","lat":43.24999,"lon":5.38932,"is_reserved":false,"is_disabled":false,"rental_uris":{"android":"levelo://app?vid=17243270-b8a4-4820-bfc1-f4893a87f2a4","ios":"levelo://app?vid=17243270-b8a4-4820-bfc1-f4893a87f2a4"},"vehicle_type_id":"4","last_reported":1729944979,"current_range_meters":36400,"station_id":"ce4bhgp2rcd13ifvqfd0","pricing_plan_id":"cebpf4jnsgd1na2vs0mg"},{"bike_id":"c55e53e9-5c05-40ed-9bd6-9b0749bafc17","system_id":"levelo_inurba_marseille","lat":43.2971,"lon":5.36604,"is_reserved":false,"is_disabled":false,"rental_uris":{"android":"levelo://app?vid=c55e53e9-5c05-40ed-9bd6-9b0749bafc17","ios":"levelo://app?vid=c55e53e9-5c05-40ed-9bd6-9b0749bafc17"},"vehicle_type_id":"4","last_reported":1729944979,"current_range_meters":32400,"station_id":"ce4bgn12rcd13ifvqbt0","pricing_plan_id":"cebpf4jnsgd1na2vs0mg"},{"bike_id":"0c965fa6-f5df-4a10-8318-ecdb5eb64c59","system_id":"levelo_inurba_marseille","lat":43.33754,"lon":5.3743,"is_reserved":false,"is_disabled":false,"rental_uris":{"android":"levelo://app?vid=0c965fa6-f5df-4a10-8318-ecdb5eb64c59","ios":"levelo://app?vid=0c965fa6-f5df-4a10-8318-ecdb5eb64c59"},"vehicle_type_id":"4","last_reported":1729944979,"current_range_meters":32800,"station_id":"","pricing_plan_id":"cebpf4jnsgd1na2vs0mg"},{"bike_id":"a19e53cd-6405-4f1f-a645-4c4b22071002","system_id":"levelo_inurba_marseille","lat":43.284157,"lon":5.349882,"is_reserved":false,"is_disabled":false,"rental_uris":{"android":"levelo://app?vid=a19e53cd-6405-4f1f-a645-4c4b22071002","ios":"levelo://app?vid=a19e53cd-6405-4f1f-a645-4c4b22071002"},"vehicle_type_id":"4","last_reported":1729944979,"current_range_meters":19200,"station_id":"ce4bhbh2rcd13ifvqepg","pricing_plan_id":"cebpf4jnsgd1na2vs0mg"},{"bike_id":"31554b55-47d7-43b1-ad82-9d997bccc8c1","system_id":"levelo_inurba_marseille","lat":43.30103,"lon":5.39084,"is_reserved":false,"is_disabled":false,"rental_uris":{"android":"levelo://app?vid=31554b55-47d7-43b1-ad82-9d997bccc8c1","ios":"levelo://app?vid=31554b55-47d7-43b1-ad82-9d997bccc8c1"},"vehicle_type_id":"4","last_reported":1729944979,"current_range_meters":28000,"station_id":"ce4bh192rcd13ifvqdb0","pricing_plan_id":"cebpf4jnsgd1na2vs0mg"},{"bike_id":"d4aec44f-ddca-4104-91b2-0d4ceaa50166","system_id":"levelo_inurba_marseille","lat":43.28078,"lon":5.39652,"is_reserved":false,"is_disabled":false,"rental_uris":{"android":"levelo://app?vid=d4aec44f-ddca-4104-91b2-0d4ceaa50166","ios":"levelo://app?vid=d4aec44f-ddca-4104-91b2-0d4ceaa50166"},"vehicle_type_id":"4","last_reported":1729944979,"current_range_meters":38800,"station_id":"ce4bho12rcd13ifvqh2g","pricing_plan_id":"cebpf4jnsgd1na2vs0mg"},{"bike_id":"3d52c75e-21c8-425b-a6d2-0cf7c2a167ed","system_id":"levelo_inurba_marseille","lat":43.28642,"lon":5.4077,"is_reserved":false,"is_disabled":false,"rental_uris":{"android":"levelo://app?vid=3d52c75e-21c8-425b-a6d2-0cf7c2a167ed","ios":"levelo://app?vid=3d52c75e-21c8-425b-a6d2-0cf7c2a167ed"},"vehicle_type_id":"4","last_reported":1729944979,"current_range_meters":9200,"station_id":"","pricing_plan_id":"cebpf4jnsgd1na2vs0mg"},{"bike_id":"f9dd0103-b045-4d3e-97f0-feaf4a2d3923","system_id":"levelo_inurba_marseille","lat":43.25008,"lon":5.38912,"is_reserved":false,"is_disabled":false,"rental_uris":{"android":"levelo://app?vid=f9dd0103-b045-4d3e-97f0-feaf4a2d3923","ios":"levelo://app?vid=f9dd0103-b045-4d3e-97f0-feaf4a2d3923"},"vehicle_type_id":"4","last_reported":1729944979,"current_range_meters":9200,"station_id":"ce4bhgp2rcd13ifvqfd0","pricing_plan_id":"cebpf4jnsgd1na2vs0mg"},{"bike_id":"225be540-bd75-4636-8a6a-362c5613f52a","system_id":"levelo_inurba_marseille","lat":43.27927,"lon":5.39586,"is_reserved":false,"is_disabled":false,"rental_uris":{"android":"levelo://app?vid=225be540-bd75-4636-8a6a-362c5613f52a","ios":"levelo://app?vid=225be540-bd75-4636-8a6a-362c5613f52a"},"vehicle_type_id":"4","last_reported":1729944979,"current_range_meters":18000,"station_id":"ce4bhf92rcd13ifvqf40","pricing_plan_id":"cebpf4jnsgd1na2vs0mg"},{"bike_id":"45762a51-15f0-4a01-8913-533a2ec0e59b","system_id":"levelo_inurba_marseille","lat":43.31087,"lon":5.42422,"is_reserved":false,"is_disabled":false,"rental_uris":{"android":"levelo://app?vid=45762a51-15f0-4a01-8913-533a2ec0e59b","ios":"levelo://app?vid=45762a51-15f0-4a01-8913-533a2ec0e59b"},"vehicle_type_id":"4","last_reported":1729944979,"current_range_meters":32800,"station_id":"ce4bhp92rcd13ifvqhag","pricing_plan_id":"cebpf4jnsgd1na2vs0mg"},{"bike_id":"c35847dd-3fd4-4b17-8a06-da8fbf47376e","system_id":"levelo_inurba_marseille","lat":43.30532,"lon":5.36537,"is_reserved":false,"is_disabled":false,"rental_uris":{"android":"levelo://app?vid=c35847dd-3fd4-4b17-8a06-da8fbf47376e","ios":"levelo://app?vid=c35847dd-3fd4-4b17-8a06-da8fbf47376e"},"vehicle_type_id":"4","last_reported":1729944979,"current_range_meters":26800,"station_id":"ce4bgs12rcd13ifvqcag","pricing_plan_id":"cebpf4jnsgd1na2vs0mg"},{"bike_id":"634fe65e-1374-4ea6-9bcd-a13c44b56c25","system_id":"levelo_inurba_marseille","lat":43.29628,"lon":5.40593,"is_reserved":false,"is_disabled":false,"rental_uris":{"android":"levelo://app?vid=634fe65e-1374-4ea6-9bcd-a13c44b56c25","ios":"levelo://app?vid=634fe65e-1374-4ea6-9bcd-a13c44b56c25"},"vehicle_type_id":"4","last_reported":1729944979,"current_range_meters":33600,"station_id":"ce4bh0h2rcd13ifvqd60","pricing_plan_id":"cebpf4jnsgd1na2vs0mg"},{"bike_id":"2b23aec1-908f-45c5-97d8-78660a004bd1","system_id":"levelo_inurba_marseille","lat":43.30539,"lon":5.38428,"is_reserved":false,"is_disabled":false,"rental_uris":{"android":"levelo://app?vid=2b23aec1-908f-45c5-97d8-78660a004bd1","ios":"levelo://app?vid=2b23aec1-908f-45c5-97d8-78660a004bd1"},"vehicle_type_id":"4","last_reported":1729944979,"current_range_meters":38800,"station_id":"ce4bgg92rcd13ifvqb30","pricing_plan_id":"cebpf4jnsgd1na2vs0mg"},{"bike_id":"fe0863da-9a70-466a-9350-47fdf2c8cc05","system_id":"levelo_inurba_marseille","lat":43.27056,"lon":5.40259,"is_reserved":false,"is_disabled":false,"rental_uris":{"android":"levelo://app?vid=fe0863da-9a70-466a-9350-47fdf2c8cc05","ios":"levelo://app?vid=fe0863da-9a70-466a-9350-47fdf2c8cc05"},"vehicle_type_id":"4","last_reported":1729944979,"current_range_meters":16800,"station_id":"ce4bhk92rcd13ifvqgc0","pricing_plan_id":"cebpf4jnsgd1na2vs0mg"},{"bike_id":"e586cb8e-3d89-4b69-b15d-f04652b4e5d8","system_id":"levelo_inurba_marseille","lat":43.29277,"lon":5.40118,"is_reserved":false,"is_disabled":false,"rental_uris":{"android":"levelo://app?vid=e586cb8e-3d89-4b69-b15d-f04652b4e5d8","ios":"levelo://app?vid=e586cb8e-3d89-4b69-b15d-f04652b4e5d8"},"vehicle_type_id":"4","last_reported":1729944979,"current_range_meters":26000,"station_id":"ce4bh312rcd13ifvqdk0","pricing_plan_id":"cebpf4jnsgd1na2vs0mg"},{"bike_id":"376af249-9c47-489a-b6b3-a9289c54e08f","system_id":"levelo_inurba_marseille","lat":43.28845,"lon":5.35848,"is_reserved":false,"is_disabled":false,"rental_uris":{"android":"levelo://app?vid=376af249-9c47-489a-b6b3-a9289c54e08f","ios":"levelo://app?vid=376af249-9c47-489a-b6b3-a9289c54e08f"},"vehicle_type_id":"4","last_reported":1729944979,"current_range_meters":36400,"station_id":"ce4bhb12rcd13ifvqem0","pricing_plan_id":"cebpf4jnsgd1na2vs0mg"},{"bike_id":"a74aab59-f513-4ccf-9d77-884c693a6030","system_id":"levelo_inurba_marseille","lat":43.30132,"lon":5.38783,"is_reserved":false,"is_disabled":false,"rental_uris":{"android":"levelo://app?vid=a74aab59-f513-4ccf-9d77-884c693a6030","ios":"levelo://app?vid=a74aab59-f513-4ccf-9d77-884c693a6030"},"vehicle_type_id":"4","last_reported":1729944979,"current_range_meters":38800,"station_id":"ce4bghh2rcd13ifvqb60","pricing_plan_id":"cebpf4jnsgd1na2vs0mg"},{"bike_id":"9710488d-6aae-4f66-a1e4-52e8e4c71cf2","system_id":"levelo_inurba_marseille","lat":43.32368,"lon":5.3887,"is_reserved":false,"is_disabled":false,"rental_uris":{"android":"levelo://app?vid=9710488d-6aae-4f66-a1e4-52e8e4c71cf2","ios":"levelo://app?vid=9710488d-6aae-4f66-a1e4-52e8e4c71cf2"},"vehicle_type_id":"4","last_reported":1729944979,"current_range_meters":9200,"station_id":"ce4bhqp2rcd13ifvqhog","pricing_plan_id":"cebpf4jnsgd1na2vs0mg"},{"bike_id":"2931539b-307a-4a04-b0d1-e3402c4d581d","system_id":"levelo_inurba_marseille","lat":43.31367,"lon":5.36825,"is_reserved":false,"is_disabled":false,"rental_uris":{"android":"levelo://app?vid=2931539b-307a-4a04-b0d1-e3402c4d581d","ios":"levelo://app?vid=2931539b-307a-4a04-b0d1-e3402c4d581d"},"vehicle_type_id":"4","last_reported":1729944979,"current_range_meters":38800,"station_id":"","pricing_plan_id":"cebpf4jnsgd1na2vs0mg"},{"bike_id":"f762acd9-b02a-46fd-958c-66071ffaafb4","system_id":"levelo_inurba_marseille","lat":43.29787,"lon":5.3711,"is_reserved":false,"is_disabled":false,"rental_uris":{"android":"levelo://app?vid=f762acd9-b02a-46fd-958c-66071ffaafb4","ios":"levelo://app?vid=f762acd9-b02a-46fd-958c-66071ffaafb4"},"vehicle_type_id":"4","last_reported":1729944979,"current_range_meters":38800,"station_id":"ce4bgop2rcd13ifvqc1g","pricing_plan_id":"cebpf4jnsgd1na2vs0mg"},{"bike_id":"79789d3b-fcac-4224-af4d-75a300fd730b","system_id":"levelo_inurba_marseille","lat":43.30094,"lon":5.39067,"is_reserved":false,"is_disabled":false,"rental_uris":{"android":"levelo://app?vid=79789d3b-fcac-4224-af4d-75a300fd730b","ios":"levelo://app?vid=79789d3b-fcac-4224-af4d-75a300fd730b"},"vehicle_type_id":"4","last_reported":1729944979,"current_range_meters":37600,"station_id":"ce4bh192rcd13ifvqdb0","pricing_plan_id":"cebpf4jnsgd1na2vs0mg"},{"bike_id":"6ad42991-76f5-48a2-bfb6-24802271d6c6","system_id":"levelo_inurba_marseille","lat":43.27208,"lon":5.3917,"is_reserved":false,"is_disabled":false,"rental_uris":{"android":"levelo://app?vid=6ad42991-76f5-48a2-bfb6-24802271d6c6","ios":"levelo://app?vid=6ad42991-76f5-48a2-bfb6-24802271d6c6"},"vehicle_type_id":"4","last_reported":1729944979,"current_range_meters":38800,"station_id":"ce4bhhp2rcd13ifvqfm0","pricing_plan_id":"cebpf4jnsgd1na2vs0mg"},{"bike_id":"3440d9b5-3e68-45f4-98be-6b0e41381653","system_id":"levelo_inurba_marseille","lat":43.28444,"lon":5.39188,"is_reserved":false,"is_disabled":false,"rental_uris":{"android":"levelo://app?vid=3440d9b5-3e68-45f4-98be-6b0e41381653","ios":"levelo://app?vid=3440d9b5-3e68-45f4-98be-6b0e41381653"},"vehicle_type_id":"4","last_reported":1729944979,"current_range_meters":27200,"station_id":"ce4bhoh2rcd13ifvqh5g","pricing_plan_id":"cebpf4jnsgd1na2vs0mg"},{"bike_id":"f6a5ef30-cd45-4f33-acc1-40cc262286be","system_id":"levelo_inurba_marseille","lat":43.26948,"lon":5.40247,"is_reserved":false,"is_disabled":false,"rental_uris":{"android":"levelo://app?vid=f6a5ef30-cd45-4f33-acc1-40cc262286be","ios":"levelo://app?vid=f6a5ef30-cd45-4f33-acc1-40cc262286be"},"vehicle_type_id":"4","last_reported":1729944979,"current_range_meters":38800,"station_id":"cjm6bp8fraef2m0cb0m0","pricing_plan_id":"cebpf4jnsgd1na2vs0mg"},{"bike_id":"4746fe8f-a6ef-4e1b-aaef-5a4b9fc83054","system_id":"levelo_inurba_marseille","lat":43.29896,"lon":5.4365,"is_reserved":false,"is_disabled":false,"rental_uris":{"android":"levelo://app?vid=4746fe8f-a6ef-4e1b-aaef-5a4b9fc83054","ios":"levelo://app?vid=4746fe8f-a6ef-4e1b-aaef-5a4b9fc83054"},"vehicle_type_id":"4","last_reported":1729944979,"current_range_meters":38000,"station_id":"ce4bhpp2rcd13ifvqhfg","pricing_plan_id":"cebpf4jnsgd1na2vs0mg"},{"bike_id":"c4f16691-f8e1-494d-b2b9-e447f16bf18a","system_id":"levelo_inurba_marseille","lat":43.25822,"lon":5.39424,"is_reserved":false,"is_disabled":false,"rental_uris":{"android":"levelo://app?vid=c4f16691-f8e1-494d-b2b9-e447f16bf18a","ios":"levelo://app?vid=c4f16691-f8e1-494d-b2b9-e447f16bf18a"},"vehicle_type_id":"4","last_reported":1729944979,"current_range_meters":26000,"station_id":"ce4bhip2rcd13ifvqft0","pricing_plan_id":"cebpf4jnsgd1na2vs0mg"},{"bike_id":"386c6a7e-cd6c-4112-aa78-c50040cf1776","system_id":"levelo_inurba_marseille","lat":43.25082,"lon":5.3952,"is_reserved":false,"is_disabled":false,"rental_uris":{"android":"levelo://app?vid=386c6a7e-cd6c-4112-aa78-c50040cf1776","ios":"levelo://app?vid=386c6a7e-cd6c-4112-aa78-c50040cf1776"},"vehicle_type_id":"4","last_reported":1729944979,"current_range_meters":38800,"station_id":"ce4bhm12rcd13ifvqgkg","pricing_plan_id":"cebpf4jnsgd1na2vs0mg"},{"bike_id":"9befed88-9f8c-464c-b07b-093bd97066bb","system_id":"levelo_inurba_marseille","lat":43.29805,"lon":5.37136,"is_reserved":false,"is_disabled":false,"rental_uris":{"android":"levelo://app?vid=9befed88-9f8c-464c-b07b-093bd97066bb","ios":"levelo://app?vid=9befed88-9f8c-464c-b07b-093bd97066bb"},"vehicle_type_id":"4","last_reported":1729944979,"current_range_meters":24400,"station_id":"","pricing_plan_id":"cebpf4jnsgd1na2vs0mg"},{"bike_id":"4bc13f6b-8c08-406e-8471-cb78474530dd","system_id":"levelo_inurba_marseille","lat":43.28347,"lon":5.38088,"is_reserved":false,"is_disabled":false,"rental_uris":{"android":"levelo://app?vid=4bc13f6b-8c08-406e-8471-cb78474530dd","ios":"levelo://app?vid=4bc13f6b-8c08-406e-8471-cb78474530dd"},"vehicle_type_id":"4","last_reported":1729944979,"current_range_meters":24800,"station_id":"ce4bh412rcd13ifvqdr0","pricing_plan_id":"cebpf4jnsgd1na2vs0mg"},{"bike_id":"c9e8b5a2-8ac3-4a82-a772-27cec38c9982","system_id":"levelo_inurba_marseille","lat":43.26793,"lon":5.39408,"is_reserved":false,"is_disabled":false,"rental_uris":{"android":"levelo://app?vid=c9e8b5a2-8ac3-4a82-a772-27cec38c9982","ios":"levelo://app?vid=c9e8b5a2-8ac3-4a82-a772-27cec38c9982"},"vehicle_type_id":"4","last_reported":1729944979,"current_range_meters":36000,"station_id":"ce4bhh12rcd13ifvqfg0","pricing_plan_id":"cebpf4jnsgd1na2vs0mg"},{"bike_id":"3c962cc6-b107-4188-88be-2b8cdb861df0","system_id":"levelo_inurba_marseille","lat":43.29577,"lon":5.37503,"is_reserved":false,"is_disabled":false,"rental_uris":{"android":"levelo://app?vid=3c962cc6-b107-4188-88be-2b8cdb861df0","ios":"levelo://app?vid=3c962cc6-b107-4188-88be-2b8cdb861df0"},"vehicle_type_id":"4","last_reported":1729944979,"current_range_meters":40000,"station_id":"ce4bgh92rcd13ifvqb50","pricing_plan_id":"cebpf4jnsgd1na2vs0mg"},{"bike_id":"8f69a9ad-8a50-48c9-8b45-90cf32eb4af8","system_id":"levelo_inurba_marseille","lat":43.29716,"lon":5.3769,"is_reserved":false,"is_disabled":false,"rental_uris":{"android":"levelo://app?vid=8f69a9ad-8a50-48c9-8b45-90cf32eb4af8","ios":"levelo://app?vid=8f69a9ad-8a50-48c9-8b45-90cf32eb4af8"},"vehicle_type_id":"4","last_reported":1729944979,"current_range_meters":12000,"station_id":"ce4bgkh2rcd13ifvqbl0","pricing_plan_id":"cebpf4jnsgd1na2vs0mg"},{"bike_id":"a4d2aac1-98f7-4ee9-bb54-2720ee698eac","system_id":"levelo_inurba_marseille","lat":43.25588,"lon":5.38231,"is_reserved":false,"is_disabled":false,"rental_uris":{"android":"levelo://app?vid=a4d2aac1-98f7-4ee9-bb54-2720ee698eac","ios":"levelo://app?vid=a4d2aac1-98f7-4ee9-bb54-2720ee698eac"},"vehicle_type_id":"4","last_reported":1729944979,"current_range_meters":35600,"station_id":"ce4bhih2rcd13ifvqfs0","pricing_plan_id":"cebpf4jnsgd1na2vs0mg"},{"bike_id":"9f741eb8-4308-4511-8be3-1cde4f07cf7e","system_id":"levelo_inurba_marseille","lat":43.2587,"lon":5.39896,"is_reserved":false,"is_disabled":false,"rental_uris":{"android":"levelo://app?vid=9f741eb8-4308-4511-8be3-1cde4f07cf7e","ios":"levelo://app?vid=9f741eb8-4308-4511-8be3-1cde4f07cf7e"},"vehicle_type_id":"4","last_reported":1729944979,"current_range_meters":33200,"station_id":"ce4bhl92rcd13ifvqghg","pricing_plan_id":"cebpf4jnsgd1na2vs0mg"},{"bike_id":"5c8d47df-cace-44d5-9922-d4ea86fc841f","system_id":"levelo_inurba_marseille","lat":43.23963,"lon":5.36634,"is_reserved":false,"is_disabled":false,"rental_uris":{"android":"levelo://app?vid=5c8d47df-cace-44d5-9922-d4ea86fc841f","ios":"levelo://app?vid=5c8d47df-cace-44d5-9922-d4ea86fc841f"},"vehicle_type_id":"4","last_reported":1729944979,"current_range_meters":22000,"station_id":"ce4bhi12rcd13ifvqfp0","pricing_plan_id":"cebpf4jnsgd1na2vs0mg"},{"bike_id":"b8fbf6cb-4344-49f0-aa51-6bf07fd511fe","system_id":"levelo_inurba_marseille","lat":43.2549,"lon":5.37646,"is_reserved":false,"is_disabled":false,"rental_uris":{"android":"levelo://app?vid=b8fbf6cb-4344-49f0-aa51-6bf07fd511fe","ios":"levelo://app?vid=b8fbf6cb-4344-49f0-aa51-6bf07fd511fe"},"vehicle_type_id":"4","last_reported":1729944979,"current_range_meters":27600,"station_id":"ce4bhh12rcd13ifvqff0","pricing_plan_id":"cebpf4jnsgd1na2vs0mg"},{"bike_id":"55841616-52dc-4da7-abf2-e48d73a5e891","system_id":"levelo_inurba_marseille","lat":43.25936,"lon":5.4091,"is_reserved":false,"is_disabled":false,"rental_uris":{"android":"levelo://app?vid=55841616-52dc-4da7-abf2-e48d73a5e891","ios":"levelo://app?vid=55841616-52dc-4da7-abf2-e48d73a5e891"},"vehicle_type_id":"4","last_reported":1729944979,"current_range_meters":34800,"station_id":"ce4bhm92rcd13ifvqglg","pricing_plan_id":"cebpf4jnsgd1na2vs0mg"},{"bike_id":"fa0d9b42-8430-42f7-b028-e598c8f32fe4","system_id":"levelo_inurba_marseille","lat":43.27559,"lon":5.384,"is_reserved":false,"is_disabled":false,"rental_uris":{"android":"levelo://app?vid=fa0d9b42-8430-42f7-b028-e598c8f32fe4","ios":"levelo://app?vid=fa0d9b42-8430-42f7-b028-e598c8f32fe4"},"vehicle_type_id":"4","last_reported":1729944979,"current_range_meters":14400,"station_id":"ce4bhh92rcd13ifvqfi0","pricing_plan_id":"cebpf4jnsgd1na2vs0mg"},{"bike_id":"78fe5887-32b3-4abc-bf3a-d9e9dae1fbd2","system_id":"levelo_inurba_marseille","lat":43.27057,"lon":5.40252,"is_reserved":false,"is_disabled":false,"rental_uris":{"android":"levelo://app?vid=78fe5887-32b3-4abc-bf3a-d9e9dae1fbd2","ios":"levelo://app?vid=78fe5887-32b3-4abc-bf3a-d9e9dae1fbd2"},"vehicle_type_id":"4","last_reported":1729944979,"current_range_meters":37600,"station_id":"ce4bhk92rcd13ifvqgc0","pricing_plan_id":"cebpf4jnsgd1na2vs0mg"},{"bike_id":"63dffe58-b321-4992-b66b-9f28a3e3e3b4","system_id":"levelo_inurba_marseille","lat":43.29962,"lon":5.41318,"is_reserved":false,"is_disabled":false,"rental_uris":{"android":"levelo://app?vid=63dffe58-b321-4992-b66b-9f28a3e3e3b4","ios":"levelo://app?vid=63dffe58-b321-4992-b66b-9f28a3e3e3b4"},"vehicle_type_id":"4","last_reported":1729944979,"current_range_meters":30000,"station_id":"ce4bhp12rcd13ifvqh9g","pricing_plan_id":"cebpf4jnsgd1na2vs0mg"},{"bike_id":"0f3c8ac4-6ddb-4ab9-bf74-403d7db9e9b9","system_id":"levelo_inurba_marseille","lat":43.24646,"lon":5.38893,"is_reserved":false,"is_disabled":false,"rental_uris":{"android":"levelo://app?vid=0f3c8ac4-6ddb-4ab9-bf74-403d7db9e9b9","ios":"levelo://app?vid=0f3c8ac4-6ddb-4ab9-bf74-403d7db9e9b9"},"vehicle_type_id":"4","last_reported":1729944979,"current_range_meters":38800,"station_id":"ce4bhg12rcd13ifvqf60","pricing_plan_id":"cebpf4jnsgd1na2vs0mg"},{"bike_id":"0dd7b1e0-0573-492f-afff-9a7072cc3069","system_id":"levelo_inurba_marseille","lat":43.29968,"lon":5.38486,"is_reserved":false,"is_disabled":false,"rental_uris":{"android":"levelo://app?vid=0dd7b1e0-0573-492f-afff-9a7072cc3069","ios":"levelo://app?vid=0dd7b1e0-0573-492f-afff-9a7072cc3069"},"vehicle_type_id":"4","last_reported":1729944979,"current_range_meters":28000,"station_id":"ce4bgj92rcd13ifvqbd0","pricing_plan_id":"cebpf4jnsgd1na2vs0mg"},{"bike_id":"7c70cd4a-33e3-4c77-a306-3bc6a08a5191","system_id":"levelo_inurba_marseille","lat":43.29368,"lon":5.37839,"is_reserved":false,"is_disabled":false,"rental_uris":{"android":"levelo://app?vid=7c70cd4a-33e3-4c77-a306-3bc6a08a5191","ios":"levelo://app?vid=7c70cd4a-33e3-4c77-a306-3bc6a08a5191"},"vehicle_type_id":"4","last_reported":1729944979,"current_range_meters":38800,"station_id":"ce4bgjh2rcd13ifvqbf0","pricing_plan_id":"cebpf4jnsgd1na2vs0mg"},{"bike_id":"66194b2a-f144-4471-9d9e-acbadd78f0a4","system_id":"levelo_inurba_marseille","lat":43.2998,"lon":5.37176,"is_reserved":false,"is_disabled":false,"rental_uris":{"android":"levelo://app?vid=66194b2a-f144-4471-9d9e-acbadd78f0a4","ios":"levelo://app?vid=66194b2a-f144-4471-9d9e-acbadd78f0a4"},"vehicle_type_id":"4","last_reported":1729944979,"current_range_meters":38800,"station_id":"ce4bgr92rcd13ifvqc7g","pricing_plan_id":"cebpf4jnsgd1na2vs0mg"},{"bike_id":"b5f80f50-9b56-41b3-b656-5da59068349a","system_id":"levelo_inurba_marseille","lat":43.30591,"lon":5.39352,"is_reserved":false,"is_disabled":false,"rental_uris":{"android":"levelo://app?vid=b5f80f50-9b56-41b3-b656-5da59068349a","ios":"levelo://app?vid=b5f80f50-9b56-41b3-b656-5da59068349a"},"vehicle_type_id":"4","last_reported":1729944979,"current_range_meters":30800,"station_id":"ce4bh0p2rcd13ifvqd80","pricing_plan_id":"cebpf4jnsgd1na2vs0mg"},{"bike_id":"f092f188-890e-415c-bcfe-54d392c6e1bb","system_id":"levelo_inurba_marseille","lat":43.30422,"lon":5.41268,"is_reserved":false,"is_disabled":false,"rental_uris":{"android":"levelo://app?vid=f092f188-890e-415c-bcfe-54d392c6e1bb","ios":"levelo://app?vid=f092f188-890e-415c-bcfe-54d392c6e1bb"},"vehicle_type_id":"4","last_reported":1729944979,"current_range_meters":37600,"station_id":"ce4bhop2rcd13ifvqh8g","pricing_plan_id":"cebpf4jnsgd1na2vs0mg"},{"bike_id":"b3445027-a8e2-4aea-a331-71ddc6fc9484","system_id":"levelo_inurba_marseille","lat":43.24649,"lon":5.38891,"is_reserved":false,"is_disabled":false,"rental_uris":{"android":"levelo://app?vid=b3445027-a8e2-4aea-a331-71ddc6fc9484","ios":"levelo://app?vid=b3445027-a8e2-4aea-a331-71ddc6fc9484"},"vehicle_type_id":"4","last_reported":1729944979,"current_range_meters":38800,"station_id":"ce4bhg12rcd13ifvqf60","pricing_plan_id":"cebpf4jnsgd1na2vs0mg"},{"bike_id":"e86b4ba7-359d-46a4-beca-d297d8deccb3","system_id":"levelo_inurba_marseille","lat":43.28035,"lon":5.36951,"is_reserved":false,"is_disabled":false,"rental_uris":{"android":"levelo://app?vid=e86b4ba7-359d-46a4-beca-d297d8deccb3","ios":"levelo://app?vid=e86b4ba7-359d-46a4-beca-d297d8deccb3"},"vehicle_type_id":"4","last_reported":1729944979,"current_range_meters":28000,"station_id":"ce4bha12rcd13ifvqef0","pricing_plan_id":"cebpf4jnsgd1na2vs0mg"},{"bike_id":"14b64457-c1ec-4c68-9b5b-e976a8f3d019","system_id":"levelo_inurba_marseille","lat":43.27191,"lon":5.39145,"is_reserved":false,"is_disabled":false,"rental_uris":{"android":"levelo://app?vid=14b64457-c1ec-4c68-9b5b-e976a8f3d019","ios":"levelo://app?vid=14b64457-c1ec-4c68-9b5b-e976a8f3d019"},"vehicle_type_id":"4","last_reported":1729944979,"current_range_meters":39200,"station_id":"ce4bhhp2rcd13ifvqfm0","pricing_plan_id":"cebpf4jnsgd1na2vs0mg"},{"bike_id":"ff0a3573-003d-4966-a881-5959109e57ba","system_id":"levelo_inurba_marseille","lat":43.30956,"lon":5.3905,"is_reserved":false,"is_disabled":false,"rental_uris":{"android":"levelo://app?vid=ff0a3573-003d-4966-a881-5959109e57ba","ios":"levelo://app?vid=ff0a3573-003d-4966-a881-5959109e57ba"},"vehicle_type_id":"4","last_reported":1729944979,"current_range_meters":39200,"station_id":"ce4bgup2rcd13ifvqco0","pricing_plan_id":"cebpf4jnsgd1na2vs0mg"},{"bike_id":"d3cc5ab0-9e3a-41ba-9860-c06c0ddb4613","system_id":"levelo_inurba_marseille","lat":43.22934,"lon":5.35379,"is_reserved":false,"is_disabled":false,"rental_uris":{"android":"levelo://app?vid=d3cc5ab0-9e3a-41ba-9860-c06c0ddb4613","ios":"levelo://app?vid=d3cc5ab0-9e3a-41ba-9860-c06c0ddb4613"},"vehicle_type_id":"4","last_reported":1729944979,"current_range_meters":36400,"station_id":"cpo3532slgdg3j2ikp40","pricing_plan_id":"cebpf4jnsgd1na2vs0mg"},{"bike_id":"b425a53a-2ca1-45d6-9375-1a007f59f76d","system_id":"levelo_inurba_marseille","lat":43.27417,"lon":5.39406,"is_reserved":false,"is_disabled":false,"rental_uris":{"android":"levelo://app?vid=b425a53a-2ca1-45d6-9375-1a007f59f76d","ios":"levelo://app?vid=b425a53a-2ca1-45d6-9375-1a007f59f76d"},"vehicle_type_id":"4","last_reported":1729944979,"current_range_meters":20000,"station_id":"ce4bhdp2rcd13ifvqf20","pricing_plan_id":"cebpf4jnsgd1na2vs0mg"},{"bike_id":"cff8651c-77f0-4779-a7d1-9202230ceabd","system_id":"levelo_inurba_marseille","lat":43.28413,"lon":5.34979,"is_reserved":false,"is_disabled":false,"rental_uris":{"android":"levelo://app?vid=cff8651c-77f0-4779-a7d1-9202230ceabd","ios":"levelo://app?vid=cff8651c-77f0-4779-a7d1-9202230ceabd"},"vehicle_type_id":"4","last_reported":1729944979,"current_range_meters":8800,"station_id":"ce4bhbh2rcd13ifvqepg","pricing_plan_id":"cebpf4jnsgd1na2vs0mg"},{"bike_id":"c8f4ec36-b8d1-4073-8561-2e24c5958732","system_id":"levelo_inurba_marseille","lat":43.336,"lon":5.41011,"is_reserved":false,"is_disabled":false,"rental_uris":{"android":"levelo://app?vid=c8f4ec36-b8d1-4073-8561-2e24c5958732","ios":"levelo://app?vid=c8f4ec36-b8d1-4073-8561-2e24c5958732"},"vehicle_type_id":"4","last_reported":1729944979,"current_range_meters":38800,"station_id":"ce4bhqh2rcd13ifvqhmg","pricing_plan_id":"cebpf4jnsgd1na2vs0mg"},{"bike_id":"53c5f996-6ad5-48af-b7ab-eb0d176e34d5","system_id":"levelo_inurba_marseille","lat":43.32403,"lon":5.38923,"is_reserved":false,"is_disabled":false,"rental_uris":{"android":"levelo://app?vid=53c5f996-6ad5-48af-b7ab-eb0d176e34d5","ios":"levelo://app?vid=53c5f996-6ad5-48af-b7ab-eb0d176e34d5"},"vehicle_type_id":"4","last_reported":1729944979,"current_range_meters":8800,"station_id":"","pricing_plan_id":"cebpf4jnsgd1na2vs0mg"},{"bike_id":"30c69a91-d82e-450c-9bcd-90cae2f86e5b","system_id":"levelo_inurba_marseille","lat":43.2957,"lon":5.3751,"is_reserved":false,"is_disabled":false,"rental_uris":{"android":"levelo://app?vid=30c69a91-d82e-450c-9bcd-90cae2f86e5b","ios":"levelo://app?vid=30c69a91-d82e-450c-9bcd-90cae2f86e5b"},"vehicle_type_id":"4","last_reported":1729944979,"current_range_meters":37600,"station_id":"ce4bgh92rcd13ifvqb50","pricing_plan_id":"cebpf4jnsgd1na2vs0mg"},{"bike_id":"1c122e80-7b9e-4700-9eaa-1e7c46ed2f63","system_id":"levelo_inurba_marseille","lat":43.28435,"lon":5.39177,"is_reserved":false,"is_disabled":false,"rental_uris":{"android":"levelo://app?vid=1c122e80-7b9e-4700-9eaa-1e7c46ed2f63","ios":"levelo://app?vid=1c122e80-7b9e-4700-9eaa-1e7c46ed2f63"},"vehicle_type_id":"4","last_reported":1729944979,"current_range_meters":38800,"station_id":"ce4bhoh2rcd13ifvqh5g","pricing_plan_id":"cebpf4jnsgd1na2vs0mg"},{"bike_id":"efefdf43-3a1c-4160-8f57-acdd65b13337","system_id":"levelo_inurba_marseille","lat":43.29383,"lon":5.3784,"is_reserved":false,"is_disabled":false,"rental_uris":{"android":"levelo://app?vid=efefdf43-3a1c-4160-8f57-acdd65b13337","ios":"levelo://app?vid=efefdf43-3a1c-4160-8f57-acdd65b13337"},"vehicle_type_id":"4","last_reported":1729944979,"current_range_meters":37600,"station_id":"ce4bgjh2rcd13ifvqbf0","pricing_plan_id":"cebpf4jnsgd1na2vs0mg"},{"bike_id":"6910ba25-a427-4bde-9b09-025c6510bfe7","system_id":"levelo_inurba_marseille","lat":43.29729,"lon":5.3769,"is_reserved":false,"is_disabled":false,"rental_uris":{"android":"levelo://app?vid=6910ba25-a427-4bde-9b09-025c6510bfe7","ios":"levelo://app?vid=6910ba25-a427-4bde-9b09-025c6510bfe7"},"vehicle_type_id":"4","last_reported":1729944979,"current_range_meters":38400,"station_id":"ce4bgkh2rcd13ifvqbl0","pricing_plan_id":"cebpf4jnsgd1na2vs0mg"},{"bike_id":"a9558a09-0211-4266-aca9-08ae6eb247dc","system_id":"levelo_inurba_marseille","lat":43.29278,"lon":5.40119,"is_reserved":false,"is_disabled":false,"rental_uris":{"android":"levelo://app?vid=a9558a09-0211-4266-aca9-08ae6eb247dc","ios":"levelo://app?vid=a9558a09-0211-4266-aca9-08ae6eb247dc"},"vehicle_type_id":"4","last_reported":1729944979,"current_range_meters":23200,"station_id":"ce4bh312rcd13ifvqdk0","pricing_plan_id":"cebpf4jnsgd1na2vs0mg"},{"bike_id":"643078c7-06cc-427e-aea5-d8d7144e4daa","system_id":"levelo_inurba_marseille","lat":43.28001,"lon":5.41668,"is_reserved":false,"is_disabled":false,"rental_uris":{"android":"levelo://app?vid=643078c7-06cc-427e-aea5-d8d7144e4daa","ios":"levelo://app?vid=643078c7-06cc-427e-aea5-d8d7144e4daa"},"vehicle_type_id":"4","last_reported":1729944979,"current_range_meters":28000,"station_id":"ce4bho12rcd13ifvqh1g","pricing_plan_id":"cebpf4jnsgd1na2vs0mg"},{"bike_id":"3f18dece-9b93-402b-8a52-6acb4616b706","system_id":"levelo_inurba_marseille","lat":43.28484,"lon":5.38403,"is_reserved":false,"is_disabled":false,"rental_uris":{"android":"levelo://app?vid=3f18dece-9b93-402b-8a52-6acb4616b706","ios":"levelo://app?vid=3f18dece-9b93-402b-8a52-6acb4616b706"},"vehicle_type_id":"4","last_reported":1729944979,"current_range_meters":30800,"station_id":"ce4bh512rcd13ifvqe3g","pricing_plan_id":"cebpf4jnsgd1na2vs0mg"},{"bike_id":"4b91d869-2485-4cdd-b4d1-3ec8373ce668","system_id":"levelo_inurba_marseille","lat":43.30435,"lon":5.38881,"is_reserved":false,"is_disabled":false,"rental_uris":{"android":"levelo://app?vid=4b91d869-2485-4cdd-b4d1-3ec8373ce668","ios":"levelo://app?vid=4b91d869-2485-4cdd-b4d1-3ec8373ce668"},"vehicle_type_id":"4","last_reported":1729944979,"current_range_meters":37600,"station_id":"ce4bgk12rcd13ifvqbi0","pricing_plan_id":"cebpf4jnsgd1na2vs0mg"},{"bike_id":"a30a2464-b3f0-4b2a-958b-33d4aeffb1b6","system_id":"levelo_inurba_marseille","lat":43.29722,"lon":5.37686,"is_reserved":false,"is_disabled":false,"rental_uris":{"android":"levelo://app?vid=a30a2464-b3f0-4b2a-958b-33d4aeffb1b6","ios":"levelo://app?vid=a30a2464-b3f0-4b2a-958b-33d4aeffb1b6"},"vehicle_type_id":"4","last_reported":1729944979,"current_range_meters":28000,"station_id":"ce4bgkh2rcd13ifvqbl0","pricing_plan_id":"cebpf4jnsgd1na2vs0mg"},{"bike_id":"a3a32520-c902-4f28-8853-079d50e068c3","system_id":"levelo_inurba_marseille","lat":43.26197,"lon":5.3792,"is_reserved":false,"is_disabled":false,"rental_uris":{"android":"levelo://app?vid=a3a32520-c902-4f28-8853-079d50e068c3","ios":"levelo://app?vid=a3a32520-c902-4f28-8853-079d50e068c3"},"vehicle_type_id":"4","last_reported":1729944979,"current_range_meters":38400,"station_id":"ce4bhjp2rcd13ifvqg90","pricing_plan_id":"cebpf4jnsgd1na2vs0mg"},{"bike_id":"6e22c836-51fc-4e59-8a25-9d8d03e7c92e","system_id":"levelo_inurba_marseille","lat":43.29301,"lon":5.3745,"is_reserved":false,"is_disabled":false,"rental_uris":{"android":"levelo://app?vid=6e22c836-51fc-4e59-8a25-9d8d03e7c92e","ios":"levelo://app?vid=6e22c836-51fc-4e59-8a25-9d8d03e7c92e"},"vehicle_type_id":"4","last_reported":1729944979,"current_range_meters":35600,"station_id":"ce4bgi12rcd13ifvqb70","pricing_plan_id":"cebpf4jnsgd1na2vs0mg"},{"bike_id":"d36dfeb4-c31e-48df-ab3c-ae4e4ad62517","system_id":"levelo_inurba_marseille","lat":43.31192,"lon":5.38707,"is_reserved":false,"is_disabled":false,"rental_uris":{"android":"levelo://app?vid=d36dfeb4-c31e-48df-ab3c-ae4e4ad62517","ios":"levelo://app?vid=d36dfeb4-c31e-48df-ab3c-ae4e4ad62517"},"vehicle_type_id":"4","last_reported":1729944979,"current_range_meters":30000,"station_id":"ce4bgv12rcd13ifvqcp0","pricing_plan_id":"cebpf4jnsgd1na2vs0mg"},{"bike_id":"3e1205ab-0bc6-479c-9e06-2c971082cf74","system_id":"levelo_inurba_marseille","lat":43.32053,"lon":5.41554,"is_reserved":false,"is_disabled":false,"rental_uris":{"android":"levelo://app?vid=3e1205ab-0bc6-479c-9e06-2c971082cf74","ios":"levelo://app?vid=3e1205ab-0bc6-479c-9e06-2c971082cf74"},"vehicle_type_id":"4","last_reported":1729944979,"current_range_meters":18000,"station_id":"ce4bhq92rcd13ifvqhkg","pricing_plan_id":"cebpf4jnsgd1na2vs0mg"},{"bike_id":"8a7ea3b3-7c19-4f13-a31a-07202c98e2c3","system_id":"levelo_inurba_marseille","lat":43.32491,"lon":5.36553,"is_reserved":false,"is_disabled":false,"rental_uris":{"android":"levelo://app?vid=8a7ea3b3-7c19-4f13-a31a-07202c98e2c3","ios":"levelo://app?vid=8a7ea3b3-7c19-4f13-a31a-07202c98e2c3"},"vehicle_type_id":"4","last_reported":1729944979,"current_range_meters":26000,"station_id":"ce4bhs12rcd13ifvqhvg","pricing_plan_id":"cebpf4jnsgd1na2vs0mg"},{"bike_id":"db97a606-2f59-41c8-8cd6-75aba7fa29a7","system_id":"levelo_inurba_marseille","lat":43.24806,"lon":5.37446,"is_reserved":false,"is_disabled":false,"rental_uris":{"android":"levelo://app?vid=db97a606-2f59-41c8-8cd6-75aba7fa29a7","ios":"levelo://app?vid=db97a606-2f59-41c8-8cd6-75aba7fa29a7"},"vehicle_type_id":"4","last_reported":1729944979,"current_range_meters":39200,"station_id":"ce4bhgh2rcd13ifvqfb0","pricing_plan_id":"cebpf4jnsgd1na2vs0mg"},{"bike_id":"3d537944-7a77-435d-8e52-b9b7b4261932","system_id":"levelo_inurba_marseille","lat":43.29622,"lon":5.37154,"is_reserved":false,"is_disabled":false,"rental_uris":{"android":"levelo://app?vid=3d537944-7a77-435d-8e52-b9b7b4261932","ios":"levelo://app?vid=3d537944-7a77-435d-8e52-b9b7b4261932"},"vehicle_type_id":"4","last_reported":1729944979,"current_range_meters":24000,"station_id":"ce4bgnh2rcd13ifvqc0g","pricing_plan_id":"cebpf4jnsgd1na2vs0mg"},{"bike_id":"60528b55-e747-4a9e-8ca0-272ea3a19644","system_id":"levelo_inurba_marseille","lat":43.27844,"lon":5.39197,"is_reserved":false,"is_disabled":false,"rental_uris":{"android":"levelo://app?vid=60528b55-e747-4a9e-8ca0-272ea3a19644","ios":"levelo://app?vid=60528b55-e747-4a9e-8ca0-272ea3a19644"},"vehicle_type_id":"4","last_reported":1729944979,"current_range_meters":38800,"station_id":"ce4bhjp2rcd13ifvqga0","pricing_plan_id":"cebpf4jnsgd1na2vs0mg"},{"bike_id":"4475e448-ff5f-4d53-a231-0fc04263b1a5","system_id":"levelo_inurba_marseille","lat":43.23149,"lon":5.43715,"is_reserved":false,"is_disabled":false,"rental_uris":{"android":"levelo://app?vid=4475e448-ff5f-4d53-a231-0fc04263b1a5","ios":"levelo://app?vid=4475e448-ff5f-4d53-a231-0fc04263b1a5"},"vehicle_type_id":"4","last_reported":1729944979,"current_range_meters":6400,"station_id":"ce4bhmp2rcd13ifvqgog","pricing_plan_id":"cebpf4jnsgd1na2vs0mg"},{"bike_id":"c99defe0-8efc-4702-86ff-f4db4c3ca963","system_id":"levelo_inurba_marseille","lat":43.27429,"lon":5.39411,"is_reserved":false,"is_disabled":false,"rental_uris":{"android":"levelo://app?vid=c99defe0-8efc-4702-86ff-f4db4c3ca963","ios":"levelo://app?vid=c99defe0-8efc-4702-86ff-f4db4c3ca963"},"vehicle_type_id":"4","last_reported":1729944979,"current_range_meters":30000,"station_id":"ce4bhdp2rcd13ifvqf20","pricing_plan_id":"cebpf4jnsgd1na2vs0mg"},{"bike_id":"dee36d10-75d4-4e73-abec-e2f0f4df095c","system_id":"levelo_inurba_marseille","lat":43.30102,"lon":5.39066,"is_reserved":false,"is_disabled":false,"rental_uris":{"android":"levelo://app?vid=dee36d10-75d4-4e73-abec-e2f0f4df095c","ios":"levelo://app?vid=dee36d10-75d4-4e73-abec-e2f0f4df095c"},"vehicle_type_id":"4","last_reported":1729944979,"current_range_meters":13600,"station_id":"ce4bh192rcd13ifvqdb0","pricing_plan_id":"cebpf4jnsgd1na2vs0mg"},{"bike_id":"ea3e1731-b36c-4610-a6ed-4c0ae786e496","system_id":"levelo_inurba_marseille","lat":43.29778,"lon":5.37096,"is_reserved":false,"is_disabled":false,"rental_uris":{"android":"levelo://app?vid=ea3e1731-b36c-4610-a6ed-4c0ae786e496","ios":"levelo://app?vid=ea3e1731-b36c-4610-a6ed-4c0ae786e496"},"vehicle_type_id":"4","last_reported":1729944979,"current_range_meters":24400,"station_id":"ce4bgop2rcd13ifvqc1g","pricing_plan_id":"cebpf4jnsgd1na2vs0mg"},{"bike_id":"960c25fd-a513-4486-9205-28e40f919a67","system_id":"levelo_inurba_marseille","lat":43.2844,"lon":5.39176,"is_reserved":false,"is_disabled":false,"rental_uris":{"android":"levelo://app?vid=960c25fd-a513-4486-9205-28e40f919a67","ios":"levelo://app?vid=960c25fd-a513-4486-9205-28e40f919a67"},"vehicle_type_id":"4","last_reported":1729944979,"current_range_meters":31200,"station_id":"ce4bhoh2rcd13ifvqh5g","pricing_plan_id":"cebpf4jnsgd1na2vs0mg"},{"bike_id":"374c6b0b-5583-4ed8-8e1b-71051917a33b","system_id":"levelo_inurba_marseille","lat":43.29984,"lon":5.37181,"is_reserved":false,"is_disabled":false,"rental_uris":{"android":"levelo://app?vid=374c6b0b-5583-4ed8-8e1b-71051917a33b","ios":"levelo://app?vid=374c6b0b-5583-4ed8-8e1b-71051917a33b"},"vehicle_type_id":"4","last_reported":1729944979,"current_range_meters":16800,"station_id":"ce4bgr92rcd13ifvqc7g","pricing_plan_id":"cebpf4jnsgd1na2vs0mg"},{"bike_id":"fe0bcdcb-7824-46f6-bef1-aa8d81a4f99f","system_id":"levelo_inurba_marseille","lat":43.29024,"lon":5.39962,"is_reserved":false,"is_disabled":false,"rental_uris":{"android":"levelo://app?vid=fe0bcdcb-7824-46f6-bef1-aa8d81a4f99f","ios":"levelo://app?vid=fe0bcdcb-7824-46f6-bef1-aa8d81a4f99f"},"vehicle_type_id":"4","last_reported":1729944979,"current_range_meters":16000,"station_id":"ce4bh392rcd13ifvqdm0","pricing_plan_id":"cebpf4jnsgd1na2vs0mg"},{"bike_id":"fe6829a4-6084-49d3-8f9b-b6d45d9de389","system_id":"levelo_inurba_marseille","lat":43.27212,"lon":5.39182,"is_reserved":false,"is_disabled":false,"rental_uris":{"android":"levelo://app?vid=fe6829a4-6084-49d3-8f9b-b6d45d9de389","ios":"levelo://app?vid=fe6829a4-6084-49d3-8f9b-b6d45d9de389"},"vehicle_type_id":"4","last_reported":1729944979,"current_range_meters":29600,"station_id":"ce4bhhp2rcd13ifvqfm0","pricing_plan_id":"cebpf4jnsgd1na2vs0mg"},{"bike_id":"e54fdd1c-94cb-4143-be20-dac4b0a057a3","system_id":"levelo_inurba_marseille","lat":43.28695,"lon":5.37378,"is_reserved":false,"is_disabled":false,"rental_uris":{"android":"levelo://app?vid=e54fdd1c-94cb-4143-be20-dac4b0a057a3","ios":"levelo://app?vid=e54fdd1c-94cb-4143-be20-dac4b0a057a3"},"vehicle_type_id":"4","last_reported":1729944979,"current_range_meters":37600,"station_id":"ce4bh3p2rcd13ifvqdq0","pricing_plan_id":"cebpf4jnsgd1na2vs0mg"},{"bike_id":"31a6db64-589c-44d5-9406-03d8ebf4a3e5","system_id":"levelo_inurba_marseille","lat":43.30434,"lon":5.39746,"is_reserved":false,"is_disabled":false,"rental_uris":{"android":"levelo://app?vid=31a6db64-589c-44d5-9406-03d8ebf4a3e5","ios":"levelo://app?vid=31a6db64-589c-44d5-9406-03d8ebf4a3e5"},"vehicle_type_id":"4","last_reported":1729944979,"current_range_meters":33200,"station_id":"ce4bh092rcd13ifvqd20","pricing_plan_id":"cebpf4jnsgd1na2vs0mg"},{"bike_id":"45b5e6d6-32fd-49dd-9328-597ec709b243","system_id":"levelo_inurba_marseille","lat":43.32489,"lon":5.3656,"is_reserved":false,"is_disabled":false,"rental_uris":{"android":"levelo://app?vid=45b5e6d6-32fd-49dd-9328-597ec709b243","ios":"levelo://app?vid=45b5e6d6-32fd-49dd-9328-597ec709b243"},"vehicle_type_id":"4","last_reported":1729944979,"current_range_meters":28400,"station_id":"ce4bhs12rcd13ifvqhvg","pricing_plan_id":"cebpf4jnsgd1na2vs0mg"},{"bike_id":"e8ff6e07-6eef-4e18-aa8b-2237221f8600","system_id":"levelo_inurba_marseille","lat":43.30469,"lon":5.379,"is_reserved":false,"is_disabled":false,"rental_uris":{"android":"levelo://app?vid=e8ff6e07-6eef-4e18-aa8b-2237221f8600","ios":"levelo://app?vid=e8ff6e07-6eef-4e18-aa8b-2237221f8600"},"vehicle_type_id":"4","last_reported":1729944979,"current_range_meters":38400,"station_id":"ce4bgup2rcd13ifvqcn0","pricing_plan_id":"cebpf4jnsgd1na2vs0mg"},{"bike_id":"46e8db6c-b8ff-4d4a-b829-14fbbea17b4b","system_id":"levelo_inurba_marseille","lat":43.28614,"lon":5.35102,"is_reserved":false,"is_disabled":false,"rental_uris":{"android":"levelo://app?vid=46e8db6c-b8ff-4d4a-b829-14fbbea17b4b","ios":"levelo://app?vid=46e8db6c-b8ff-4d4a-b829-14fbbea17b4b"},"vehicle_type_id":"4","last_reported":1729944979,"current_range_meters":21600,"station_id":"ce4bhch2rcd13ifvqeug","pricing_plan_id":"cebpf4jnsgd1na2vs0mg"},{"bike_id":"c8da618d-d2a6-46c8-951d-2deea4914c38","system_id":"levelo_inurba_marseille","lat":43.30887,"lon":5.3719,"is_reserved":false,"is_disabled":false,"rental_uris":{"android":"levelo://app?vid=c8da618d-d2a6-46c8-951d-2deea4914c38","ios":"levelo://app?vid=c8da618d-d2a6-46c8-951d-2deea4914c38"},"vehicle_type_id":"4","last_reported":1729944979,"current_range_meters":38800,"station_id":"ce4bguh2rcd13ifvqckg","pricing_plan_id":"cebpf4jnsgd1na2vs0mg"},{"bike_id":"b2f6c733-db13-49a2-8f50-29f2a74e7b59","system_id":"levelo_inurba_marseille","lat":43.27209,"lon":5.39188,"is_reserved":false,"is_disabled":false,"rental_uris":{"android":"levelo://app?vid=b2f6c733-db13-49a2-8f50-29f2a74e7b59","ios":"levelo://app?vid=b2f6c733-db13-49a2-8f50-29f2a74e7b59"},"vehicle_type_id":"4","last_reported":1729944979,"current_range_meters":23200,"station_id":"ce4bhhp2rcd13ifvqfm0","pricing_plan_id":"cebpf4jnsgd1na2vs0mg"},{"bike_id":"683b28ae-5904-4925-b38f-87fed941d5b5","system_id":"levelo_inurba_marseille","lat":43.29568,"lon":5.37511,"is_reserved":false,"is_disabled":false,"rental_uris":{"android":"levelo://app?vid=683b28ae-5904-4925-b38f-87fed941d5b5","ios":"levelo://app?vid=683b28ae-5904-4925-b38f-87fed941d5b5"},"vehicle_type_id":"4","last_reported":1729944979,"current_range_meters":30800,"station_id":"ce4bgh92rcd13ifvqb50","pricing_plan_id":"cebpf4jnsgd1na2vs0mg"},{"bike_id":"4f07ad21-5b4a-48fd-b5e5-da89c71cf8b1","system_id":"levelo_inurba_marseille","lat":43.24179,"lon":5.39729,"is_reserved":false,"is_disabled":false,"rental_uris":{"android":"levelo://app?vid=4f07ad21-5b4a-48fd-b5e5-da89c71cf8b1","ios":"levelo://app?vid=4f07ad21-5b4a-48fd-b5e5-da89c71cf8b1"},"vehicle_type_id":"4","last_reported":1729944979,"current_range_meters":3600,"station_id":"ce4bhn12rcd13ifvqgpg","pricing_plan_id":"cebpf4jnsgd1na2vs0mg"},{"bike_id":"69ef8c23-84ac-4168-a717-6664e53ead75","system_id":"levelo_inurba_marseille","lat":43.32497,"lon":5.36568,"is_reserved":false,"is_disabled":false,"rental_uris":{"android":"levelo://app?vid=69ef8c23-84ac-4168-a717-6664e53ead75","ios":"levelo://app?vid=69ef8c23-84ac-4168-a717-6664e53ead75"},"vehicle_type_id":"4","last_reported":1729944979,"current_range_meters":25600,"station_id":"ce4bhs12rcd13ifvqhvg","pricing_plan_id":"cebpf4jnsgd1na2vs0mg"},