{"last_updated":1731665402,"ttl":60,"version":"2.2","data":{"bikes":[{"bike_id":"9a26e6e1-36e4-4d8c-9ffd-32f523fa68bf","system_id":"levelo_inurba_marseille","lat":43.26509,"lon":5.39547,"is_reserved":false,"is_disabled":false,"rental_uris":{"android":"levelo://app?vid=9a26e6e1-36e4-4d8c-9ffd-32f523fa68bf","ios":"levelo://app?vid=9a26e6e1-36e4-4d8c-9ffd-32f523fa68bf"},"vehicle_type_id":"4","last_reported":1731665402,"current_range_meters":38800,"station_id":"ce4bhi12rcd13ifvqfq0","pricing_plan_id":"cebpf4jnsgd1na2vs0mg"},{"bike_id":"77f8b02a-4a72-464f-a196-72d3bfddc4cb","system_id":"levelo_inurba_marseille","lat":43.317,"lon":5.40466,"is_reserved":false,"is_disabled":false,"rental_uris":{"android":"levelo://app?vid=77f8b02a-4a72-464f-a196-72d3bfddc4cb","ios":"levelo://app?vid=77f8b02a-4a72-464f-a196-72d3bfddc4cb"},"vehicle_type_id":"4","last_reported":1731665402,"current_range_meters":39200,"station_id":"ce4bh012rcd13ifvqd00","pricing_plan_id":"cebpf4jnsgd1na2vs0mg"},{"bike_id":"87c2a588-1db0-46fc-8fc3-d42b85c5bb74","system_id":"levelo_inurba_marseille","lat":43.284,"lon":5.3753,"is_reserved":false,"is_disabled":false,"rental_uris":{"android":"levelo://app?vid=87c2a588-1db0-46fc-8fc3-d42b85c5bb74","ios":"levelo://app?vid=87c2a588-1db0-46fc-8fc3-d42b85c5bb74"},"vehicle_type_id":"4","last_reported":1731665402,"current_range_meters":27600,"station_id":"ce4bh412rcd13ifvqds0","pricing_plan_id":"cebpf4jnsgd1na2vs0mg"},{"bike_id":"c07071db-afe0-4ce2-886c-57f99196990f","system_id":"levelo_inurba_marseille","lat":43.282705,"lon":5.35062,"is_reserved":false,"is_disabled":false,"rental_uris":{"android":"levelo://app?vid=c07071db-afe0-4ce2-886c-57f99196990f","ios":"levelo://app?vid=c07071db-afe0-4ce2-886c-57f99196990f"},"vehicle_type_id":"4","last_reported":1731665402,"current_range_meters":26800,"station_id":"ce4bhbp2rcd13ifvqerg","pricing_plan_id":"cebpf4jnsgd1na2vs0mg"},{"bike_id":"1a59b816-bbb1-4950-9131-7ce955eddad1","system_id":"levelo_inurba_marseille","lat":43.2695,"lon":5.38621,"is_reserved":false,"is_disabled":false,"rental_uris":{"android":"levelo://app?vid=1a59b816-bbb1-4950-9131-7ce955eddad1","ios":"levelo://app?vid=1a59b816-bbb1-4950-9131-7ce955eddad1"},"vehicle_type_id":"4","last_reported":1731665402,"current_range_meters":36800,"station_id":"ce4bhh92rcd13ifvqfh0","pricing_plan_id":"cebpf4jnsgd1na2vs0mg"},{"bike_id":"bba30ccd-2b4f-42d8-b68d-f3f8cfd6f6dd","system_id":"levelo_inurba_marseille","lat":43.31228,"lon":5.36846,"is_reserved":false,"is_disabled":false,"rental_uris":{"android":"levelo://app?vid=bba30ccd-2b4f-42d8-b68d-f3f8cfd6f6dd","ios":"levelo://app?vid=bba30ccd-2b4f-42d8-b68d-f3f8cfd6f6dd"},"vehicle_type_id":"4","last_reported":1731665402,"current_range_meters":36000,"station_id":"ce4bgl92rcd13ifvqbq0","pricing_plan_id":"cebpf4jnsgd1na2vs0mg"},{"bike_id":"d9847e7e-8407-4b3b-8aa7-64d3afcb8734","system_id":"levelo_inurba_marseille","lat":43.26034,"lon":5.37547,"is_reserved":false,"is_disabled":false,"rental_uris":{"android":"levelo://app?vid=d9847e7e-8407-4b3b-8aa7-64d3afcb8734","ios":"levelo://app?vid=d9847e7e-8407-4b3b-8aa7-64d3afcb8734"},"vehicle_type_id":"4","last_reported":1731665402,"current_range_meters":38000,"station_id":"ce4bhgh2rcd13ifvqfa0","pricing_plan_id":"cebpf4jnsgd1na2vs0mg"},{"bike_id":"e008ad74-0d07-450e-abd5-f64024b77168","system_id":"levelo_inurba_marseille","lat":43.26685,"lon":5.3827,"is_reserved":false,"is_disabled":false,"rental_uris":{"android":"levelo://app?vid=e008ad74-0d07-450e-abd5-f64024b77168","ios":"levelo://app?vid=e008ad74-0d07-450e-abd5-f64024b77168"},"vehicle_type_id":"4","last_reported":1731665402,"current_range_meters":26800,"station_id":"ce4bhg92rcd13ifvqf90","pricing_plan_id":"cebpf4jnsgd1na2vs0mg"},{"bike_id":"78b77ac8-4c63-432d-b19f-de7fa33d9847","system_id":"levelo_inurba_marseille","lat":43.34151,"lon":5.40904,"is_reserved":false,"is_disabled":false,"rental_uris":{"android":"levelo://app?vid=78b77ac8-4c63-432d-b19f-de7fa33d9847","ios":"levelo://app?vid=78b77ac8-4c63-432d-b19f-de7fa33d9847"},"vehicle_type_id":"4","last_reported":1731665402,"current_range_meters":39200,"station_id":"ce4bhqh2rcd13ifvqhlg","pricing_plan_id":"cebpf4jnsgd1na2vs0mg"},{"bike_id":"80e1fc0b-099a-420a-8a13-c4ea7058954e","system_id":"levelo_inurba_marseille","lat":43.30556,"lon":5.36522,"is_reserved":false,"is_disabled":false,"rental_uris":{"android":"levelo://app?vid=80e1fc0b-099a-420a-8a13-c4ea7058954e","ios":"levelo://app?vid=80e1fc0b-099a-420a-8a13-c4ea7058954e"},"vehicle_type_id":"4","last_reported":1731665402,"current_range_meters":26000,"station_id":"ce4bgs12rcd13ifvqcag","pricing_plan_id":"cebpf4jnsgd1na2vs0mg"},{"bike_id":"638c3933-c3dd-479e-bd0a-dfff64106917","system_id":"levelo_inurba_marseille","lat":43.26931,"lon":5.38636,"is_reserved":false,"is_disabled":false,"rental_uris":{"android":"levelo://app?vid=638c3933-c3dd-479e-bd0a-dfff64106917","ios":"levelo://app?vid=638c3933-c3dd-479e-bd0a-dfff64106917"},"vehicle_type_id":"4","last_reported":1731665402,"current_range_meters":28800,"station_id":"ce4bhh92rcd13ifvqfh0","pricing_plan_id":"cebpf4jnsgd1na2vs0mg"},{"bike_id":"335b6df9-87ea-4757-91ac-caac10410f86","system_id":"levelo_inurba_marseille","lat":43.30139,"lon":5.39866,"is_reserved":false,"is_disabled":false,"rental_uris":{"android":"levelo://app?vid=335b6df9-87ea-4757-91ac-caac10410f86","ios":"levelo://app?vid=335b6df9-87ea-4757-91ac-caac10410f86"},"vehicle_type_id":"4","last_reported":1731665402,"current_range_meters":4800,"station_id":"ce4bh0h2rcd13ifvqd40","pricing_plan_id":"cebpf4jnsgd1na2vs0mg"},{"bike_id":"1d9c49c9-ee91-4089-a94f-8cbfcd96a196","system_id":"levelo_inurba_marseille","lat":43.31362,"lon":5.36712,"is_reserved":false,"is_disabled":false,"rental_uris":{"android":"levelo://app?vid=1d9c49c9-ee91-4089-a94f-8cbfcd96a196","ios":"levelo://app?vid=1d9c49c9-ee91-4089-a94f-8cbfcd96a196"},"vehicle_type_id":"4","last_reported":1731665402,"current_range_meters":11200,"station_id":"ce4bgr92rcd13ifvqc6g","pricing_plan_id":"cebpf4jnsgd1na2vs0mg"},{"bike_id":"35cbe6ad-d4c3-4584-96c3-34723fe6d44b","system_id":"levelo_inurba_marseille","lat":43.27683,"lon":5.3887,"is_reserved":false,"is_disabled":false,"rental_uris":{"android":"levelo://app?vid=35cbe6ad-d4c3-4584-96c3-34723fe6d44b","ios":"levelo://app?vid=35cbe6ad-d4c3-4584-96c3-34723fe6d44b"},"vehicle_type_id":"4","last_reported":1731665402,"current_range_meters":33200,"station_id":"ce4bhi12rcd13ifvqfo0","pricing_plan_id":"cebpf4jnsgd1na2vs0mg"},{"bike_id":"8493f734-829c-49d7-b548-3b13f464b836","system_id":"levelo_inurba_marseille","lat":43.293,"lon":5.37445,"is_reserved":false,"is_disabled":false,"rental_uris":{"android":"levelo://app?vid=8493f734-829c-49d7-b548-3b13f464b836","ios":"levelo://app?vid=8493f734-829c-49d7-b548-3b13f464b836"},"vehicle_type_id":"4","last_reported":1731665402,"current_range_meters":39200,"station_id":"ce4bgi12rcd13ifvqb70","pricing_plan_id":"cebpf4jnsgd1na2vs0mg"},{"bike_id":"96f8c52c-6c28-48a4-af3a-06cc99ebc119","system_id":"levelo_inurba_marseille","lat":43.24073,"lon":5.37759,"is_reserved":false,"is_disabled":false,"rental_uris":{"android":"levelo://app?vid=96f8c52c-6c28-48a4-af3a-06cc99ebc119","ios":"levelo://app?vid=96f8c52c-6c28-48a4-af3a-06cc99ebc119"},"vehicle_type_id":"4","last_reported":1731665402,"current_range_meters":28400,"station_id":"ce4bhnp2rcd13ifvqgvg","pricing_plan_id":"cebpf4jnsgd1na2vs0mg"},{"bike_id":"9ef76943-592f-4d3b-a0f1-da70d440e9b4","system_id":"levelo_inurba_marseille","lat":43.29898,"lon":5.43671,"is_reserved":false,"is_disabled":false,"rental_uris":{"android":"levelo://app?vid=9ef76943-592f-4d3b-a0f1-da70d440e9b4","ios":"levelo://app?vid=9ef76943-592f-4d3b-a0f1-da70d440e9b4"},"vehicle_type_id":"4","last_reported":1731665402,"current_range_meters":24400,"station_id":"ce4bhpp2rcd13ifvqhfg","pricing_plan_id":"cebpf4jnsgd1na2vs0mg"},{"bike_id":"ff9e8fbd-afb5-4332-8f0e-8863372f7ff1","system_id":"levelo_inurba_marseille","lat":43.28155,"lon":5.42647,"is_reserved":false,"is_disabled":false,"rental_uris":{"android":"levelo://app?vid=ff9e8fbd-afb5-4332-8f0e-8863372f7ff1","ios":"levelo://app?vid=ff9e8fbd-afb5-4332-8f0e-8863372f7ff1"},"vehicle_type_id":"4","last_reported":1731665402,"current_range_meters":17200,"station_id":"ce4bhnh2rcd13ifvqgug","pricing_plan_id":"cebpf4jnsgd1na2vs0mg"},{"bike_id":"8c5074af-8d27-44b6-b447-aae99cf06d34","system_id":"levelo_inurba_marseille","lat":43.27991,"lon":5.41652,"is_reserved":false,"is_disabled":false,"rental_uris":{"android":"levelo://app?vid=8c5074af-8d27-44b6-b447-aae99cf06d34","ios":"levelo://app?vid=8c5074af-8d27-44b6-b447-aae99cf06d34"},"vehicle_type_id":"4","last_reported":1731665402,"current_range_meters":35600,"station_id":"ce4bho12rcd13ifvqh1g","pricing_plan_id":"cebpf4jnsgd1na2vs0mg"},{"bike_id":"d9e695fc-913d-4089-90d1-0b4ac35f153c","system_id":"levelo_inurba_marseille","lat":43.27495,"lon":5.42445,"is_reserved":false,"is_disabled":false,"rental_uris":{"android":"levelo://app?vid=d9e695fc-913d-4089-90d1-0b4ac35f153c","ios":"levelo://app?vid=d9e695fc-913d-4089-90d1-0b4ac35f153c"},"vehicle_type_id":"4","last_reported":1731665402,"current_range_meters":37600,"station_id":"ce4bhn92rcd13ifvqgrg","pricing_plan_id":"cebpf4jnsgd1na2vs0mg"},{"bike_id":"abc6a11f-01d3-4db2-8b33-52e2ca7e3242","system_id":"levelo_inurba_marseille","lat":43.30468,"lon":5.37893,"is_reserved":false,"is_disabled":false,"rental_uris":{"android":"levelo://app?vid=abc6a11f-01d3-4db2-8b33-52e2ca7e3242","ios":"levelo://app?vid=abc6a11f-01d3-4db2-8b33-52e2ca7e3242"},"vehicle_type_id":"4","last_reported":1731665402,"current_range_meters":30000,"station_id":"ce4bgup2rcd13ifvqcn0","pricing_plan_id":"cebpf4jnsgd1na2vs0mg"},{"bike_id":"9c562531-5eee-46f4-bf05-e92d5f3226a0","system_id":"levelo_inurba_marseille","lat":43.295776,"lon":5.399675,"is_reserved":false,"is_disabled":false,"rental_uris":{"android":"levelo://app?vid=9c562531-5eee-46f4-bf05-e92d5f3226a0","ios":"levelo://app?vid=9c562531-5eee-46f4-bf05-e92d5f3226a0"},"vehicle_type_id":"4","last_reported":1731665402,"current_range_meters":38000,"station_id":"ce4bh312rcd13ifvqdj0","pricing_plan_id":"cebpf4jnsgd1na2vs0mg"},{"bike_id":"354f040a-9ab6-488a-9d26-4c39ec3baaa7","system_id":"levelo_inurba_marseille","lat":43.231924,"lon":5.355618,"is_reserved":false,"is_disabled":false,"rental_uris":{"android":"levelo://app?vid=354f040a-9ab6-488a-9d26-4c39ec3baaa7","ios":"levelo://app?vid=354f040a-9ab6-488a-9d26-4c39ec3baaa7"},"vehicle_type_id":"4","last_reported":1731665402,"current_range_meters":38800,"station_id":"ce4bhu92rcd13ifvqi70","pricing_plan_id":"cebpf4jnsgd1na2vs0mg"},{"bike_id":"8cb2b79d-4663-4fa0-8232-a96c323a9959","system_id":"levelo_inurba_marseille","lat":43.25499,"lon":5.37649,"is_reserved":false,"is_disabled":false,"rental_uris":{"android":"levelo://app?vid=8cb2b79d-4663-4fa0-8232-a96c323a9959","ios":"levelo://app?vid=8cb2b79d-4663-4fa0-8232-a96c323a9959"},"vehicle_type_id":"4","last_reported":1731665402,"current_range_meters":37600,"station_id":"ce4bhh12rcd13ifvqff0","pricing_plan_id":"cebpf4jnsgd1na2vs0mg"},{"bike_id":"6ae7bea2-e357-4478-a0f9-74c3626f2f01","system_id":"levelo_inurba_marseille","lat":43.30187,"lon":5.36635,"is_reserved":false,"is_disabled":false,"rental_uris":{"android":"levelo://app?vid=6ae7bea2-e357-4478-a0f9-74c3626f2f01","ios":"levelo://app?vid=6ae7bea2-e357-4478-a0f9-74c3626f2f01"},"vehicle_type_id":"4","last_reported":1731665402,"current_range_meters":9200,"station_id":"ce4bgrh2rcd13ifvqc8g","pricing_plan_id":"cebpf4jnsgd1na2vs0mg"},{"bike_id":"040040e9-4c85-4e53-8c2e-f19fb2939f18","system_id":"levelo_inurba_marseille","lat":43.245213,"lon":5.395053,"is_reserved":false,"is_disabled":false,"rental_uris":{"android":"levelo://app?vid=040040e9-4c85-4e53-8c2e-f19fb2939f18","ios":"levelo://app?vid=040040e9-4c85-4e53-8c2e-f19fb2939f18"},"vehicle_type_id":"4","last_reported":1731665402,"current_range_meters":38800,"station_id":"ce4bhlp2rcd13ifvqgjg","pricing_plan_id":"cebpf4jnsgd1na2vs0mg"},{"bike_id":"4a74f469-1d99-48ee-a8ca-9199898c00a4","system_id":"levelo_inurba_marseille","lat":43.23206,"lon":5.35545,"is_reserved":false,"is_disabled":false,"rental_uris":{"android":"levelo://app?vid=4a74f469-1d99-48ee-a8ca-9199898c00a4","ios":"levelo://app?vid=4a74f469-1d99-48ee-a8ca-9199898c00a4"},"vehicle_type_id":"4","last_reported":1731665402,"current_range_meters":16000,"station_id":"ce4bhu92rcd13ifvqi70","pricing_plan_id":"cebpf4jnsgd1na2vs0mg"},{"bike_id":"f1237c76-3739-45d2-bc41-08ab56ce718a","system_id":"levelo_inurba_marseille","lat":43.30913,"lon":5.36834,"is_reserved":false,"is_disabled":false,"rental_uris":{"android":"levelo://app?vid=f1237c76-3739-45d2-bc41-08ab56ce718a","ios":"levelo://app?vid=f1237c76-3739-45d2-bc41-08ab56ce718a"},"vehicle_type_id":"4","last_reported":1731665402,"current_range_meters":20000,"station_id":"ce4bgn92rcd13ifvqbvg","pricing_plan_id":"cebpf4jnsgd1na2vs0mg"},{"bike_id":"5a9487f5-1f4a-4526-91df-278697abb58b","system_id":"levelo_inurba_marseille","lat":43.28164,"lon":5.42643,"is_reserved":false,"is_disabled":false,"rental_uris":{"android":"levelo://app?vid=5a9487f5-1f4a-4526-91df-278697abb58b","ios":"levelo://app?vid=5a9487f5-1f4a-4526-91df-278697abb58b"},"vehicle_type_id":"4","last_reported":1731665402,"current_range_meters":20000,"station_id":"ce4bhnh2rcd13ifvqgug","pricing_plan_id":"cebpf4jnsgd1na2vs0mg"},{"bike_id":"ad90e739-0a27-4799-866e-18492760e810","system_id":"levelo_inurba_marseille","lat":43.24388,"lon":5.3706,"is_reserved":false,"is_disabled":false,"rental_uris":{"android":"levelo://app?vid=ad90e739-0a27-4799-866e-18492760e810","ios":"levelo://app?vid=ad90e739-0a27-4799-866e-18492760e810"},"vehicle_type_id":"4","last_reported":1731665402,"current_range_meters":25600,"station_id":"ce4bhhh2rcd13ifvqfk0","pricing_plan_id":"cebpf4jnsgd1na2vs0mg"},{"bike_id":"8885d62c-9dfa-4505-84b8-7c71fe2b4650","system_id":"levelo_inurba_marseille","lat":43.29853,"lon":5.36285,"is_reserved":false,"is_disabled":false,"rental_uris":{"android":"levelo://app?vid=8885d62c-9dfa-4505-84b8-7c71fe2b4650","ios":"levelo://app?vid=8885d62c-9dfa-4505-84b8-7c71fe2b4650"},"vehicle_type_id":"4","last_reported":1731665402,"current_range_meters":8800,"station_id":"ce4bgpp2rcd13ifvqc3g","pricing_plan_id":"cebpf4jnsgd1na2vs0mg"},{"bike_id":"1de227ef-ff01-4f5a-a873-e92e72d0ec6b","system_id":"levelo_inurba_marseille","lat":43.29182,"lon":5.3716,"is_reserved":false,"is_disabled":false,"rental_uris":{"android":"levelo://app?vid=1de227ef-ff01-4f5a-a873-e92e72d0ec6b","ios":"levelo://app?vid=1de227ef-ff01-4f5a-a873-e92e72d0ec6b"},"vehicle_type_id":"4","last_reported":1731665402,"current_range_meters":38000,"station_id":"ce4bha92rcd13ifvqeh0","pricing_plan_id":"cebpf4jnsgd1na2vs0mg"},{"bike_id":"148b0530-2dbd-4aba-a22a-d0ffd4bd08f1","system_id":"levelo_inurba_marseille","lat":43.30482,"lon":5.37901,"is_reserved":false,"is_disabled":false,"rental_uris":{"android":"levelo://app?vid=148b0530-2dbd-4aba-a22a-d0ffd4bd08f1","ios":"levelo://app?vid=148b0530-2dbd-4aba-a22a-d0ffd4bd08f1"},"vehicle_type_id":"4","last_reported":1731665402,"current_range_meters":16400,"station_id":"ce4bgup2rcd13ifvqcn0","pricing_plan_id":"cebpf4jnsgd1na2vs0mg"},{"bike_id":"34894f31-0d58-4b99-bedf-fbccfa834d04","system_id":"levelo_inurba_marseille","lat":43.24075,"lon":5.37709,"is_reserved":false,"is_disabled":false,"rental_uris":{"android":"levelo://app?vid=34894f31-0d58-4b99-bedf-fbccfa834d04","ios":"levelo://app?vid=34894f31-0d58-4b99-bedf-fbccfa834d04"},"vehicle_type_id":"4","last_reported":1731665402,"current_range_meters":35600,"station_id":"ce4bhnp2rcd13ifvqgvg","pricing_plan_id":"cebpf4jnsgd1na2vs0mg"},{"bike_id":"a7afc8fd-358a-400d-8456-669e8d7f203f","system_id":"levelo_inurba_marseille","lat":43.2938,"lon":5.37845,"is_reserved":false,"is_disabled":false,"rental_uris":{"android":"levelo://app?vid=a7afc8fd-358a-400d-8456-669e8d7f203f","ios":"levelo://app?vid=a7afc8fd-358a-400d-8456-669e8d7f203f"},"vehicle_type_id":"4","last_reported":1731665402,"current_range_meters":38400,"station_id":"ce4bgjh2rcd13ifvqbf0","pricing_plan_id":"cebpf4jnsgd1na2vs0mg"},{"bike_id":"eaea8bc1-645d-49af-aff3-3cd4e2c04cee","system_id":"levelo_inurba_marseille","lat":43.25864,"lon":5.3991,"is_reserved":false,"is_disabled":false,"rental_uris":{"android":"levelo://app?vid=eaea8bc1-645d-49af-aff3-3cd4e2c04cee","ios":"levelo://app?vid=eaea8bc1-645d-49af-aff3-3cd4e2c04cee"},"vehicle_type_id":"4","last_reported":1731665402,"current_range_meters":38800,"station_id":"ce4bhl92rcd13ifvqghg","pricing_plan_id":"cebpf4jnsgd1na2vs0mg"},{"bike_id":"522c77e1-576c-44ae-b901-8cc2ab476370","system_id":"levelo_inurba_marseille","lat":43.30019,"lon":5.36663,"is_reserved":false,"is_disabled":false,"rental_uris":{"android":"levelo://app?vid=522c77e1-576c-44ae-b901-8cc2ab476370","ios":"levelo://app?vid=522c77e1-576c-44ae-b901-8cc2ab476370"},"vehicle_type_id":"4","last_reported":1731665402,"current_range_meters":24800,"station_id":"ce4bgm92rcd13ifvqbr0","pricing_plan_id":"cebpf4jnsgd1na2vs0mg"},{"bike_id":"35e01212-b351-4d69-9a5c-2f6a238cff53","system_id":"levelo_inurba_marseille","lat":43.26805,"lon":5.40267,"is_reserved":false,"is_disabled":false,"rental_uris":{"android":"levelo://app?vid=35e01212-b351-4d69-9a5c-2f6a238cff53","ios":"levelo://app?vid=35e01212-b351-4d69-9a5c-2f6a238cff53"},"vehicle_type_id":"4","last_reported":1731665402,"current_range_meters":26000,"station_id":"ce501612rcd8frsf0b60","pricing_plan_id":"cebpf4jnsgd1na2vs0mg"},{"bike_id":"01178768-ca9d-437f-897f-0c33982d99d5","system_id":"levelo_inurba_marseille","lat":43.30137,"lon":5.37426,"is_reserved":false,"is_disabled":false,"rental_uris":{"android":"levelo://app?vid=01178768-ca9d-437f-897f-0c33982d99d5","ios":"levelo://app?vid=01178768-ca9d-437f-897f-0c33982d99d5"},"vehicle_type_id":"4","last_reported":1731665402,"current_range_meters":27200,"station_id":"ce4bgs92rcd13ifvqcc0","pricing_plan_id":"cebpf4jnsgd1na2vs0mg"},{"bike_id":"035cc09f-5965-49b7-ba42-6ddf5ce96b29","system_id":"levelo_inurba_marseille","lat":43.29846,"lon":5.36259,"is_reserved":false,"is_disabled":false,"rental_uris":{"android":"levelo://app?vid=035cc09f-5965-49b7-ba42-6ddf5ce96b29","ios":"levelo://app?vid=035cc09f-5965-49b7-ba42-6ddf5ce96b29"},"vehicle_type_id":"4","last_reported":1731665402,"current_range_meters":39200,"station_id":"ce4bgpp2rcd13ifvqc3g","pricing_plan_id":"cebpf4jnsgd1na2vs0mg"},{"bike_id":"8952161e-ca98-4ae9-960a-2b69d6f9f38e","system_id":"levelo_inurba_marseille","lat":43.34147,"lon":5.40907,"is_reserved":false,"is_disabled":false,"rental_uris":{"android":"levelo://app?vid=8952161e-ca98-4ae9-960a-2b69d6f9f38e","ios":"levelo://app?vid=8952161e-ca98-4ae9-960a-2b69d6f9f38e"},"vehicle_type_id":"4","last_reported":1731665402,"current_range_meters":39200,"station_id":"ce4bhqh2rcd13ifvqhlg","pricing_plan_id":"cebpf4jnsgd1na2vs0mg"},{"bike_id":"0dd5c336-8bf7-409f-a046-4f44d557e694","system_id":"levelo_inurba_marseille","lat":43.33723,"lon":5.39183,"is_reserved":false,"is_disabled":false,"rental_uris":{"android":"levelo://app?vid=0dd5c336-8bf7-409f-a046-4f44d557e694","ios":"levelo://app?vid=0dd5c336-8bf7-409f-a046-4f44d557e694"},"vehicle_type_id":"4","last_reported":1731665402,"current_range_meters":38400,"station_id":"ce4bhr92rcd13ifvqhsg","pricing_plan_id":"cebpf4jnsgd1na2vs0mg"},{"bike_id":"fa72eb15-f7eb-4a38-971b-148c4a6a30f3","system_id":"levelo_inurba_marseille","lat":43.27071,"lon":5.42277,"is_reserved":false,"is_disabled":false,"rental_uris":{"android":"levelo://app?vid=fa72eb15-f7eb-4a38-971b-148c4a6a30f3","ios":"levelo://app?vid=fa72eb15-f7eb-4a38-971b-148c4a6a30f3"},"vehicle_type_id":"4","last_reported":1731665402,"current_range_meters":30800,"station_id":"ce4bhk92rcd13ifvqgb0","pricing_plan_id":"cebpf4jnsgd1na2vs0mg"},{"bike_id":"81ae86e3-fd97-47ec-8d3f-516ea7be3bb2","system_id":"levelo_inurba_marseille","lat":43.30176,"lon":5.38067,"is_reserved":false,"is_disabled":false,"rental_uris":{"android":"levelo://app?vid=81ae86e3-fd97-47ec-8d3f-516ea7be3bb2","ios":"levelo://app?vid=81ae86e3-fd97-47ec-8d3f-516ea7be3bb2"},"vehicle_type_id":"4","last_reported":1731665402,"current_range_meters":28400,"station_id":"ce4bgjp2rcd13ifvqbh0","pricing_plan_id":"cebpf4jnsgd1na2vs0mg"},{"bike_id":"e31bbb8e-c85d-41f4-b6b3-10d1aa98a957","system_id":"levelo_inurba_marseille","lat":43.28275,"lon":5.35068,"is_reserved":false,"is_disabled":false,"rental_uris":{"android":"levelo://app?vid=e31bbb8e-c85d-41f4-b6b3-10d1aa98a957","ios":"levelo://app?vid=e31bbb8e-c85d-41f4-b6b3-10d1aa98a957"},"vehicle_type_id":"4","last_reported":1731665402,"current_range_meters":34800,"station_id":"ce4bhbp2rcd13ifvqerg","pricing_plan_id":"cebpf4jnsgd1na2vs0mg"},{"bike_id":"4d28ebeb-b071-40be-83ae-a72c38016b9c","system_id":"levelo_inurba_marseille","lat":43.2465,"lon":5.38912,"is_reserved":false,"is_disabled":false,"rental_uris":{"android":"levelo://app?vid=4d28ebeb-b071-40be-83ae-a72c38016b9c","ios":"levelo://app?vid=4d28ebeb-b071-40be-83ae-a72c38016b9c"},"vehicle_type_id":"4","last_reported":1731665402,"current_range_meters":38800,"station_id":"ce4bhg12rcd13ifvqf60","pricing_plan_id":"cebpf4jnsgd1na2vs0mg"},{"bike_id":"631284bc-ca79-4566-a19e-c81968ea3fef","system_id":"levelo_inurba_marseille","lat":43.26691,"lon":5.38274,"is_reserved":false,"is_disabled":false,"rental_uris":{"android":"levelo://app?vid=631284bc-ca79-4566-a19e-c81968ea3fef","ios":"levelo://app?vid=631284bc-ca79-4566-a19e-c81968ea3fef"},"vehicle_type_id":"4","last_reported":1731665402,"current_range_meters":30400,"station_id":"ce4bhg92rcd13ifvqf90","pricing_plan_id":"cebpf4jnsgd1na2vs0mg"},{"bike_id":"7857af21-8d4b-431a-a0af-a6cbd0cfd56f","system_id":"levelo_inurba_marseille","lat":43.31237,"lon":5.36855,"is_reserved":false,"is_disabled":false,"rental_uris":{"android":"levelo://app?vid=7857af21-8d4b-431a-a0af-a6cbd0cfd56f","ios":"levelo://app?vid=7857af21-8d4b-431a-a0af-a6cbd0cfd56f"},"vehicle_type_id":"4","last_reported":1731665402,"current_range_meters":18800,"station_id":"ce4bgl92rcd13ifvqbq0","pricing_plan_id":"cebpf4jnsgd1na2vs0mg"},{"bike_id":"913a4160-2863-4466-8491-0f2d64cb513c","system_id":"levelo_inurba_marseille","lat":43.28158,"lon":5.4263,"is_reserved":false,"is_disabled":false,"rental_uris":{"android":"levelo://app?vid=913a4160-2863-4466-8491-0f2d64cb513c","ios":"levelo://app?vid=913a4160-2863-4466-8491-0f2d64cb513c"},"vehicle_type_id":"4","last_reported":1731665402,"current_range_meters":36800,"station_id":"ce4bhnh2rcd13ifvqgug","pricing_plan_id":"cebpf4jnsgd1na2vs0mg"},{"bike_id":"1d462b25-0ee3-472f-bfe8-421b37804482","system_id":"levelo_inurba_marseille","lat":43.33611,"lon":5.41027,"is_reserved":false,"is_disabled":false,"rental_uris":{"android":"levelo://app?vid=1d462b25-0ee3-472f-bfe8-421b37804482","ios":"levelo://app?vid=1d462b25-0ee3-472f-bfe8-421b37804482"},"vehicle_type_id":"4","last_reported":1731665402,"current_range_meters":8000,"station_id":"ce4bhqh2rcd13ifvqhmg","pricing_plan_id":"cebpf4jnsgd1na2vs0mg"},{"bike_id":"479e282c-6a76-4428-8089-41607fc5fd13","system_id":"levelo_inurba_marseille","lat":43.23958,"lon":5.36635,"is_reserved":false,"is_disabled":false,"rental_uris":{"android":"levelo://app?vid=479e282c-6a76-4428-8089-41607fc5fd13","ios":"levelo://app?vid=479e282c-6a76-4428-8089-41607fc5fd13"},"vehicle_type_id":"4","last_reported":1731665402,"current_range_meters":20800,"station_id":"ce4bhi12rcd13ifvqfp0","pricing_plan_id":"cebpf4jnsgd1na2vs0mg"},{"bike_id":"675fe710-f9e5-46cf-95f1-88cbcbaf9606","system_id":"levelo_inurba_marseille","lat":43.28153,"lon":5.42648,"is_reserved":false,"is_disabled":false,"rental_uris":{"android":"levelo://app?vid=675fe710-f9e5-46cf-95f1-88cbcbaf9606","ios":"levelo://app?vid=675fe710-f9e5-46cf-95f1-88cbcbaf9606"},"vehicle_type_id":"4","last_reported":1731665402,"current_range_meters":26800,"station_id":"ce4bhnh2rcd13ifvqgug","pricing_plan_id":"cebpf4jnsgd1na2vs0mg"},{"bike_id":"6605d477-88c9-46cf-a1a0-5328d877191a","system_id":"levelo_inurba_marseille","lat":43.29848,"lon":5.36271,"is_reserved":false,"is_disabled":false,"rental_uris":{"android":"levelo://app?vid=6605d477-88c9-46cf-a1a0-5328d877191a","ios":"levelo://app?vid=6605d477-88c9-46cf-a1a0-5328d877191a"},"vehicle_type_id":"4","last_reported":1731665402,"current_range_meters":37600,"station_id":"ce4bgpp2rcd13ifvqc3g","pricing_plan_id":"cebpf4jnsgd1na2vs0mg"},{"bike_id":"fb38d09f-8f31-4b54-98b0-e7b81493d4c1","system_id":"levelo_inurba_marseille","lat":43.24544,"lon":5.39524,"is_reserved":false,"is_disabled":false,"rental_uris":{"android":"levelo://app?vid=fb38d09f-8f31-4b54-98b0-e7b81493d4c1","ios":"levelo://app?vid=fb38d09f-8f31-4b54-98b0-e7b81493d4c1"},"vehicle_type_id":"4","last_reported":1731665402,"current_range_meters":38800,"station_id":"ce4bhlp2rcd13ifvqgjg","pricing_plan_id":"cebpf4jnsgd1na2vs0mg"},{"bike_id":"e9ddeabe-3a0d-4a3b-904c-9105182d741a","system_id":"levelo_inurba_marseille","lat":43.25823,"lon":5.39428,"is_reserved":false,"is_disabled":false,"rental_uris":{"android":"levelo://app?vid=e9ddeabe-3a0d-4a3b-904c-9105182d741a","ios":"levelo://app?vid=e9ddeabe-3a0d-4a3b-904c-9105182d741a"},"vehicle_type_id":"4","last_reported":1731665402,"current_range_meters":30400,"station_id":"ce4bhip2rcd13ifvqft0","pricing_plan_id":"cebpf4jnsgd1na2vs0mg"},{"bike_id":"60ada8e0-3945-4ec4-91e0-63668bee2318","system_id":"levelo_inurba_marseille","lat":43.2509,"lon":5.39523,"is_reserved":false,"is_disabled":false,"rental_uris":{"android":"levelo://app?vid=60ada8e0-3945-4ec4-91e0-63668bee2318","ios":"levelo://app?vid=60ada8e0-3945-4ec4-91e0-63668bee2318"},"vehicle_type_id":"4","last_reported":1731665402,"current_range_meters":20400,"station_id":"ce4bhm12rcd13ifvqgkg","pricing_plan_id":"cebpf4jnsgd1na2vs0mg"},{"bike_id":"5c3c2aeb-4289-4df4-8ebc-555845349f49","system_id":"levelo_inurba_marseille","lat":43.27568,"lon":5.38434,"is_reserved":false,"is_disabled":false,"rental_uris":{"android":"levelo://app?vid=5c3c2aeb-4289-4df4-8ebc-555845349f49","ios":"levelo://app?vid=5c3c2aeb-4289-4df4-8ebc-555845349f49"},"vehicle_type_id":"4","last_reported":1731665402,"current_range_meters":36000,"station_id":"ce4bhh92rcd13ifvqfi0","pricing_plan_id":"cebpf4jnsgd1na2vs0mg"},{"bike_id":"43da6cda-e917-45fb-8057-6df6961ab9cb","system_id":"levelo_inurba_marseille","lat":43.240746,"lon":5.377501,"is_reserved":false,"is_disabled":false,"rental_uris":{"android":"levelo://app?vid=43da6cda-e917-45fb-8057-6df6961ab9cb","ios":"levelo://app?vid=43da6cda-e917-45fb-8057-6df6961ab9cb"},"vehicle_type_id":"4","last_reported":1731665402,"current_range_meters":35200,"station_id":"ce4bhnp2rcd13ifvqgvg","pricing_plan_id":"cebpf4jnsgd1na2vs0mg"},{"bike_id":"70ef70aa-730b-4ad9-97ab-3f94a53bd5fa","system_id":"levelo_inurba_marseille","lat":43.29621,"lon":5.37156,"is_reserved":false,"is_disabled":false,"rental_uris":{"android":"levelo://app?vid=70ef70aa-730b-4ad9-97ab-3f94a53bd5fa","ios":"levelo://app?vid=70ef70aa-730b-4ad9-97ab-3f94a53bd5fa"},"vehicle_type_id":"4","last_reported":1731665402,"current_range_meters":35600,"station_id":"ce4bgnh2rcd13ifvqc0g","pricing_plan_id":"cebpf4jnsgd1na2vs0mg"},{"bike_id":"fbc5c5ed-c707-4094-9d84-6927f027ec81","system_id":"levelo_inurba_marseille","lat":43.31186,"lon":5.38729,"is_reserved":false,"is_disabled":false,"rental_uris":{"android":"levelo://app?vid=fbc5c5ed-c707-4094-9d84-6927f027ec81","ios":"levelo://app?vid=fbc5c5ed-c707-4094-9d84-6927f027ec81"},"vehicle_type_id":"4","last_reported":1731665402,"current_range_meters":29600,"station_id":"ce4bgv12rcd13ifvqcp0","pricing_plan_id":"cebpf4jnsgd1na2vs0mg"},{"bike_id":"3a89ec44-1c0c-4589-9cdf-fedc997f57ba","system_id":"levelo_inurba_marseille","lat":43.26952,"lon":5.3862,"is_reserved":false,"is_disabled":false,"rental_uris":{"android":"levelo://app?vid=3a89ec44-1c0c-4589-9cdf-fedc997f57ba","ios":"levelo://app?vid=3a89ec44-1c0c-4589-9cdf-fedc997f57ba"},"vehicle_type_id":"4","last_reported":1731665402,"current_range_meters":20400,"station_id":"ce4bhh92rcd13ifvqfh0","pricing_plan_id":"cebpf4jnsgd1na2vs0mg"},{"bike_id":"a8ed0c73-4e0e-4aa2-9626-be12b8a29df3","system_id":"levelo_inurba_marseille","lat":43.27975,"lon":5.38752,"is_reserved":false,"is_disabled":false,"rental_uris":{"android":"levelo://app?vid=a8ed0c73-4e0e-4aa2-9626-be12b8a29df3","ios":"levelo://app?vid=a8ed0c73-4e0e-4aa2-9626-be12b8a29df3"},"vehicle_type_id":"4","last_reported":1731665402,"current_range_meters":12800,"station_id":"ce4bhg12rcd13ifvqf80","pricing_plan_id":"cebpf4jnsgd1na2vs0mg"},{"bike_id":"103d474b-1417-48c6-95ae-80e20088963e","system_id":"levelo_inurba_marseille","lat":43.30536,"lon":5.36543,"is_reserved":false,"is_disabled":false,"rental_uris":{"android":"levelo://app?vid=103d474b-1417-48c6-95ae-80e20088963e","ios":"levelo://app?vid=103d474b-1417-48c6-95ae-80e20088963e"},"vehicle_type_id":"4","last_reported":1731665402,"current_range_meters":38800,"station_id":"ce4bgs12rcd13ifvqcag","pricing_plan_id":"cebpf4jnsgd1na2vs0mg"},{"bike_id":"f86a601e-26e3-440e-a7e5-894f75bad9f4","system_id":"levelo_inurba_marseille","lat":43.337444,"lon":5.374475,"is_reserved":false,"is_disabled":false,"rental_uris":{"android":"levelo://app?vid=f86a601e-26e3-440e-a7e5-894f75bad9f4","ios":"levelo://app?vid=f86a601e-26e3-440e-a7e5-894f75bad9f4"},"vehicle_type_id":"4","last_reported":1731665402,"current_range_meters":24000,"station_id":"","pricing_plan_id":"cebpf4jnsgd1na2vs0mg"},{"bike_id":"85b53427-d19a-4c23-9a60-760294c6f564","system_id":"levelo_inurba_marseille","lat":43.30191,"lon":5.36612,"is_reserved":false,"is_disabled":false,"rental_uris":{"android":"levelo://app?vid=85b53427-d19a-4c23-9a60-760294c6f564","ios":"levelo://app?vid=85b53427-d19a-4c23-9a60-760294c6f564"},"vehicle_type_id":"4","last_reported":1731665402,"current_range_meters":39200,"station_id":"ce4bgrh2rcd13ifvqc8g","pricing_plan_id":"cebpf4jnsgd1na2vs0mg"},{"bike_id":"30aa79f1-0668-46be-86d8-f310708ee696","system_id":"levelo_inurba_marseille","lat":43.32543,"lon":5.41439,"is_reserved":false,"is_disabled":false,"rental_uris":{"android":"levelo://app?vid=30aa79f1-0668-46be-86d8-f310708ee696","ios":"levelo://app?vid=30aa79f1-0668-46be-86d8-f310708ee696"},"vehicle_type_id":"4","last_reported":1731665402,"current_range_meters":35200,"station_id":"ce4bhq12rcd13ifvqhhg","pricing_plan_id":"cebpf4jnsgd1na2vs0mg"},{"bike_id":"7fb67920-5b00-4e3f-9dd5-d1ed407cc4c9","system_id":"levelo_inurba_marseille","lat":43.30473,"lon":5.37907,"is_reserved":false,"is_disabled":false,"rental_uris":{"android":"levelo://app?vid=7fb67920-5b00-4e3f-9dd5-d1ed407cc4c9","ios":"levelo://app?vid=7fb67920-5b00-4e3f-9dd5-d1ed407cc4c9"},"vehicle_type_id":"4","last_reported":1731665402,"current_range_meters":32400,"station_id":"ce4bgup2rcd13ifvqcn0","pricing_plan_id":"cebpf4jnsgd1na2vs0mg"},{"bike_id":"4a8ed5b0-4e4b-4951-a226-d3fea4f209e8","system_id":"levelo_inurba_marseille","lat":43.2407,"lon":5.37766,"is_reserved":false,"is_disabled":false,"rental_uris":{"android":"levelo://app?vid=4a8ed5b0-4e4b-4951-a226-d3fea4f209e8","ios":"levelo://app?vid=4a8ed5b0-4e4b-4951-a226-d3fea4f209e8"},"vehicle_type_id":"4","last_reported":1731665402,"current_range_meters":17200,"station_id":"ce4bhnp2rcd13ifvqgvg","pricing_plan_id":"cebpf4jnsgd1na2vs0mg"},{"bike_id":"dbc8b448-d58b-4627-845a-5605bb9c31aa","system_id":"levelo_inurba_marseille","lat":43.304648,"lon":5.378971,"is_reserved":false,"is_disabled":false,"rental_uris":{"android":"levelo://app?vid=dbc8b448-d58b-4627-845a-5605bb9c31aa","ios":"levelo://app?vid=dbc8b448-d58b-4627-845a-5605bb9c31aa"},"vehicle_type_id":"4","last_reported":1731665402,"current_range_meters":10000,"station_id":"ce4bgup2rcd13ifvqcn0","pricing_plan_id":"cebpf4jnsgd1na2vs0mg"},{"bike_id":"d350fedf-60b0-42df-ad14-4c7fc83d04db","system_id":"levelo_inurba_marseille","lat":43.31114,"lon":5.37787,"is_reserved":false,"is_disabled":false,"rental_uris":{"android":"levelo://app?vid=d350fedf-60b0-42df-ad14-4c7fc83d04db","ios":"levelo://app?vid=d350fedf-60b0-42df-ad14-4c7fc83d04db"},"vehicle_type_id":"4","last_reported":1731665402,"current_range_meters":30000,"station_id":"ce4bgt92rcd13ifvqcg0","pricing_plan_id":"cebpf4jnsgd1na2vs0mg"},{"bike_id":"d0f6f75c-4490-4a54-be6f-c8cc30a85fb2","system_id":"levelo_inurba_marseille","lat":43.33745,"lon":5.37442,"is_reserved":false,"is_disabled":false,"rental_uris":{"android":"levelo://app?vid=d0f6f75c-4490-4a54-be6f-c8cc30a85fb2","ios":"levelo://app?vid=d0f6f75c-4490-4a54-be6f-c8cc30a85fb2"},"vehicle_type_id":"4","last_reported":1731665402,"current_range_meters":33600,"station_id":"","pricing_plan_id":"cebpf4jnsgd1na2vs0mg"},{"bike_id":"77fed747-2cb1-4ebc-969e-6d965968535b","system_id":"levelo_inurba_marseille","lat":43.26795,"lon":5.39413,"is_reserved":false,"is_disabled":false,"rental_uris":{"android":"levelo://app?vid=77fed747-2cb1-4ebc-969e-6d965968535b","ios":"levelo://app?vid=77fed747-2cb1-4ebc-969e-6d965968535b"},"vehicle_type_id":"4","last_reported":1731665402,"current_range_meters":30800,"station_id":"ce4bhh12rcd13ifvqfg0","pricing_plan_id":"cebpf4jnsgd1na2vs0mg"},{"bike_id":"f194aaab-021f-449c-991a-be83b9bd6d9f","system_id":"levelo_inurba_marseille","lat":43.31351,"lon":5.36716,"is_reserved":false,"is_disabled":false,"rental_uris":{"android":"levelo://app?vid=f194aaab-021f-449c-991a-be83b9bd6d9f","ios":"levelo://app?vid=f194aaab-021f-449c-991a-be83b9bd6d9f"},"vehicle_type_id":"4","last_reported":1731665402,"current_range_meters":26800,"station_id":"ce4bgr92rcd13ifvqc6g","pricing_plan_id":"cebpf4jnsgd1na2vs0mg"},{"bike_id":"ef9ae1d4-5e8d-49bb-8007-8961ec41f40b","system_id":"levelo_inurba_marseille","lat":43.2749,"lon":5.42462,"is_reserved":false,"is_disabled":false,"rental_uris":{"android":"levelo://app?vid=ef9ae1d4-5e8d-49bb-8007-8961ec41f40b","ios":"levelo://app?vid=ef9ae1d4-5e8d-49bb-8007-8961ec41f40b"},"vehicle_type_id":"4","last_reported":1731665402,"current_range_meters":24000,"station_id":"ce4bhn92rcd13ifvqgrg","pricing_plan_id":"cebpf4jnsgd1na2vs0mg"},{"bike_id":"d4ed2bfe-0a93-43a6-b1d0-5dca09f03080","system_id":"levelo_inurba_marseille","lat":43.27373,"lon":5.36235,"is_reserved":false,"is_disabled":false,"rental_uris":{"android":"levelo://app?vid=d4ed2bfe-0a93-43a6-b1d0-5dca09f03080","ios":"levelo://app?vid=d4ed2bfe-0a93-43a6-b1d0-5dca09f03080"},"vehicle_type_id":"4","last_reported":1731665402,"current_range_meters":6800,"station_id":"ce4bhbh2rcd13ifvqeo0","pricing_plan_id":"cebpf4jnsgd1na2vs0mg"},{"bike_id":"9ac599f0-c3db-40c1-b15c-489906c4382b","system_id":"levelo_inurba_marseille","lat":43.24081,"lon":5.37738,"is_reserved":false,"is_disabled":false,"rental_uris":{"android":"levelo://app?vid=9ac599f0-c3db-40c1-b15c-489906c4382b","ios":"levelo://app?vid=9ac599f0-c3db-40c1-b15c-489906c4382b"},"vehicle_type_id":"4","last_reported":1731665402,"current_range_meters":6400,"station_id":"ce4bhnp2rcd13ifvqgvg","pricing_plan_id":"cebpf4jnsgd1na2vs0mg"},{"bike_id":"b178992f-5a02-4413-a253-ab67b2e40184","system_id":"levelo_inurba_marseille","lat":43.31362,"lon":5.36712,"is_reserved":false,"is_disabled":false,"rental_uris":{"android":"levelo://app?vid=b178992f-5a02-4413-a253-ab67b2e40184","ios":"levelo://app?vid=b178992f-5a02-4413-a253-ab67b2e40184"},"vehicle_type_id":"4","last_reported":1731665402,"current_range_meters":38800,"station_id":"ce4bgr92rcd13ifvqc6g","pricing_plan_id":"cebpf4jnsgd1na2vs0mg"},{"bike_id":"89cdbcf3-73e9-4bb3-ac91-e843ea0fd8f2","system_id":"levelo_inurba_marseille","lat":43.30963,"lon":5.39035,"is_reserved":false,"is_disabled":false,"rental_uris":{"android":"levelo://app?vid=89cdbcf3-73e9-4bb3-ac91-e843ea0fd8f2","ios":"levelo://app?vid=89cdbcf3-73e9-4bb3-ac91-e843ea0fd8f2"},"vehicle_type_id":"4","last_reported":1731665402,"current_range_meters":18800,"station_id":"ce4bgup2rcd13ifvqco0","pricing_plan_id":"cebpf4jnsgd1na2vs0mg"},{"bike_id":"b62cae68-a6eb-436e-b41f-3230e36152a0","system_id":"levelo_inurba_marseille","lat":43.32535,"lon":5.4146,"is_reserved":false,"is_disabled":false,"rental_uris":{"android":"levelo://app?vid=b62cae68-a6eb-436e-b41f-3230e36152a0","ios":"levelo://app?vid=b62cae68-a6eb-436e-b41f-3230e36152a0"},"vehicle_type_id":"4","last_reported":1731665402,"current_range_meters":28400,"station_id":"ce4bhq12rcd13ifvqhhg","pricing_plan_id":"cebpf4jnsgd1na2vs0mg"},{"bike_id":"0a33733c-24ae-419f-8ce5-e3fd3fc7ece1","system_id":"levelo_inurba_marseille","lat":43.28359,"lon":5.38104,"is_reserved":false,"is_disabled":false,"rental_uris":{"android":"levelo://app?vid=0a33733c-24ae-419f-8ce5-e3fd3fc7ece1","ios":"levelo://app?vid=0a33733c-24ae-419f-8ce5-e3fd3fc7ece1"},"vehicle_type_id":"4","last_reported":1731665402,"current_range_meters":32000,"station_id":"ce4bh412rcd13ifvqdr0","pricing_plan_id":"cebpf4jnsgd1na2vs0mg"},{"bike_id":"a94a72ad-d279-4bee-85f1-6c8142969e68","system_id":"levelo_inurba_marseille","lat":43.26214,"lon":5.37441,"is_reserved":false,"is_disabled":false,"rental_uris":{"android":"levelo://app?vid=a94a72ad-d279-4bee-85f1-6c8142969e68","ios":"levelo://app?vid=a94a72ad-d279-4bee-85f1-6c8142969e68"},"vehicle_type_id":"4","last_reported":1731665402,"current_range_meters":16400,"station_id":"ce4bhgp2rcd13ifvqfc0","pricing_plan_id":"cebpf4jnsgd1na2vs0mg"},{"bike_id":"62a400bb-9b7a-4c31-8a10-596f348a6827","system_id":"levelo_inurba_marseille","lat":43.24084,"lon":5.3774,"is_reserved":false,"is_disabled":false,"rental_uris":{"android":"levelo://app?vid=62a400bb-9b7a-4c31-8a10-596f348a6827","ios":"levelo://app?vid=62a400bb-9b7a-4c31-8a10-596f348a6827"},"vehicle_type_id":"4","last_reported":1731665402,"current_range_meters":35600,"station_id":"ce4bhnp2rcd13ifvqgvg","pricing_plan_id":"cebpf4jnsgd1na2vs0mg"},{"bike_id":"898343a1-2642-491c-a1ab-47e0e0534d2f","system_id":"levelo_inurba_marseille","lat":43.33607,"lon":5.41026,"is_reserved":false,"is_disabled":false,"rental_uris":{"android":"levelo://app?vid=898343a1-2642-491c-a1ab-47e0e0534d2f","ios":"levelo://app?vid=898343a1-2642-491c-a1ab-47e0e0534d2f"},"vehicle_type_id":"4","last_reported":1731665402,"current_range_meters":10800,"station_id":"ce4bhqh2rcd13ifvqhmg","pricing_plan_id":"cebpf4jnsgd1na2vs0mg"},{"bike_id":"07d8d3e7-31e2-4a93-b5c6-97a0bcec130a","system_id":"levelo_inurba_marseille","lat":43.258757,"lon":5.398934,"is_reserved":false,"is_disabled":false,"rental_uris":{"android":"levelo://app?vid=07d8d3e7-31e2-4a93-b5c6-97a0bcec130a","ios":"levelo://app?vid=07d8d3e7-31e2-4a93-b5c6-97a0bcec130a"},"vehicle_type_id":"4","last_reported":1731665402,"current_range_meters":38800,"station_id":"ce4bhl92rcd13ifvqghg","pricing_plan_id":"cebpf4jnsgd1na2vs0mg"},{"bike_id":"bf7c14f0-6cb2-4ed3-aa5c-dd9f397c1202","system_id":"levelo_inurba_marseille","lat":43.27995,"lon":5.41656,"is_reserved":false,"is_disabled":false,"rental_uris":{"android":"levelo://app?vid=bf7c14f0-6cb2-4ed3-aa5c-dd9f397c1202","ios":"levelo://app?vid=bf7c14f0-6cb2-4ed3-aa5c-dd9f397c1202"},"vehicle_type_id":"4","last_reported":1731665402,"current_range_meters":27200,"station_id":"ce4bho12rcd13ifvqh1g","pricing_plan_id":"cebpf4jnsgd1na2vs0mg"},{"bike_id":"192b0771-c333-4751-8865-c4cdc3ea2303","system_id":"levelo_inurba_marseille","lat":43.28269,"lon":5.35067,"is_reserved":false,"is_disabled":false,"rental_uris":{"android":"levelo://app?vid=192b0771-c333-4751-8865-c4cdc3ea2303","ios":"levelo://app?vid=192b0771-c333-4751-8865-c4cdc3ea2303"},"vehicle_type_id":"4","last_reported":1731665402,"current_range_meters":30800,"station_id":"ce4bhbp2rcd13ifvqerg","pricing_plan_id":"cebpf4jnsgd1na2vs0mg"},{"bike_id":"507af49a-ce39-427e-89c7-5774852476c0","system_id":"levelo_inurba_marseille","lat":43.30911,"lon":5.3685,"is_reserved":false,"is_disabled":false,"rental_uris":{"android":"levelo://app?vid=507af49a-ce39-427e-89c7-5774852476c0","ios":"levelo://app?vid=507af49a-ce39-427e-89c7-5774852476c0"},"vehicle_type_id":"4","last_reported":1731665402,"current_range_meters":40000,"station_id":"ce4bgn92rcd13ifvqbvg","pricing_plan_id":"cebpf4jnsgd1na2vs0mg"},{"bike_id":"83d0c08b-53e5-4e1d-aa28-dd3ec259f354","system_id":"levelo_inurba_marseille","lat":43.27933,"lon":5.42321,"is_reserved":false,"is_disabled":false,"rental_uris":{"android":"levelo://app?vid=83d0c08b-53e5-4e1d-aa28-dd3ec259f354","ios":"levelo://app?vid=83d0c08b-53e5-4e1d-aa28-dd3ec259f354"},"vehicle_type_id":"4","last_reported":1731665402,"current_range_meters":8800,"station_id":"","pricing_plan_id":"cebpf4jnsgd1na2vs0mg"},{"bike_id":"4149f1bb-b16d-4491-a43d-004502347fb5","system_id":"levelo_inurba_marseille","lat":43.24387,"lon":5.37061,"is_reserved":false,"is_disabled":false,"rental_uris":{"android":"levelo://app?vid=4149f1bb-b16d-4491-a43d-004502347fb5","ios":"levelo://app?vid=4149f1bb-b16d-4491-a43d-004502347fb5"},"vehicle_type_id":"4","last_reported":1731665402,"current_range_meters":28800,"station_id":"ce4bhhh2rcd13ifvqfk0","pricing_plan_id":"cebpf4jnsgd1na2vs0mg"},{"bike_id":"17709244-3cb1-468c-8028-e3e06ece4dea","system_id":"levelo_inurba_marseille","lat":43.24083,"lon":5.37741,"is_reserved":false,"is_disabled":false,"rental_uris":{"android":"levelo://app?vid=17709244-3cb1-468c-8028-e3e06ece4dea","ios":"levelo://app?vid=17709244-3cb1-468c-8028-e3e06ece4dea"},"vehicle_type_id":"4","last_reported":1731665402,"current_range_meters":32000,"station_id":"ce4bhnp2rcd13ifvqgvg","pricing_plan_id":"cebpf4jnsgd1na2vs0mg"},{"bike_id":"92e3ad17-17c9-4714-a148-ef9436ad6113","system_id":"levelo_inurba_marseille","lat":43.22937,"lon":5.35376,"is_reserved":false,"is_disabled":false,"rental_uris":{"android":"levelo://app?vid=92e3ad17-17c9-4714-a148-ef9436ad6113","ios":"levelo://app?vid=92e3ad17-17c9-4714-a148-ef9436ad6113"},"vehicle_type_id":"4","last_reported":1731665402,"current_range_meters":38800,"station_id":"cpo3532slgdg3j2ikp40","pricing_plan_id":"cebpf4jnsgd1na2vs0mg"},{"bike_id":"39c4ef52-fe92-41ec-8197-da3647f83583","system_id":"levelo_inurba_marseille","lat":43.30145,"lon":5.38079,"is_reserved":false,"is_disabled":false,"rental_uris":{"android":"levelo://app?vid=39c4ef52-fe92-41ec-8197-da3647f83583","ios":"levelo://app?vid=39c4ef52-fe92-41ec-8197-da3647f83583"},"vehicle_type_id":"4","last_reported":1731665402,"current_range_meters":8800,"station_id":"ce4bgjp2rcd13ifvqbh0","pricing_plan_id":"cebpf4jnsgd1na2vs0mg"},{"bike_id":"8224ee73-4e3f-494d-bf5f-e64063f77fc8","system_id":"levelo_inurba_marseille","lat":43.24083,"lon":5.37737,"is_reserved":false,"is_disabled":false,"rental_uris":{"android":"levelo://app?vid=8224ee73-4e3f-494d-bf5f-e64063f77fc8","ios":"levelo://app?vid=8224ee73-4e3f-494d-bf5f-e64063f77fc8"},"vehicle_type_id":"4","last_reported":1731665402,"current_range_meters":9600,"station_id":"ce4bhnp2rcd13ifvqgvg","pricing_plan_id":"cebpf4jnsgd1na2vs0mg"},{"bike_id":"48fb35ba-4168-4dfc-ba7d-2e735d4cbc85","system_id":"levelo_inurba_marseille","lat":43.27841,"lon":5.39207,"is_reserved":false,"is_disabled":false,"rental_uris":{"android":"levelo://app?vid=48fb35ba-4168-4dfc-ba7d-2e735d4cbc85","ios":"levelo://app?vid=48fb35ba-4168-4dfc-ba7d-2e735d4cbc85"},"vehicle_type_id":"4","last_reported":1731665402,"current_range_meters":23200,"station_id":"ce4bhjp2rcd13ifvqga0","pricing_plan_id":"cebpf4jnsgd1na2vs0mg"},{"bike_id":"5326c5f8-bba7-40e6-bfc7-8e986a3bddf3","system_id":"levelo_inurba_marseille","lat":43.31049,"lon":5.37464,"is_reserved":false,"is_disabled":false,"rental_uris":{"android":"levelo://app?vid=5326c5f8-bba7-40e6-bfc7-8e986a3bddf3","ios":"levelo://app?vid=5326c5f8-bba7-40e6-bfc7-8e986a3bddf3"},"vehicle_type_id":"4","last_reported":1731665402,"current_range_meters":23200,"station_id":"ce4bgt12rcd13ifvqcd0","pricing_plan_id":"cebpf4jnsgd1na2vs0mg"},{"bike_id":"99f0def7-88b4-40f3-b210-57c372cfc6e9","system_id":"levelo_inurba_marseille","lat":43.27676,"lon":5.38894,"is_reserved":false,"is_disabled":false,"rental_uris":{"android":"levelo://app?vid=99f0def7-88b4-40f3-b210-57c372cfc6e9","ios":"levelo://app?vid=99f0def7-88b4-40f3-b210-57c372cfc6e9"},"vehicle_type_id":"4","last_reported":1731665402,"current_range_meters":39200,"station_id":"ce4bhi12rcd13ifvqfo0","pricing_plan_id":"cebpf4jnsgd1na2vs0mg"},{"bike_id":"55f5cfa5-62f5-4849-8e56-d0f7566a1398","system_id":"levelo_inurba_marseille","lat":43.28261,"lon":5.35058,"is_reserved":false,"is_disabled":false,"rental_uris":{"android":"levelo://app?vid=55f5cfa5-62f5-4849-8e56-d0f7566a1398","ios":"levelo://app?vid=55f5cfa5-62f5-4849-8e56-d0f7566a1398"},"vehicle_type_id":"4","last_reported":1731665402,"current_range_meters":24800,"station_id":"ce4bhbp2rcd13ifvqerg","pricing_plan_id":"cebpf4jnsgd1na2vs0mg"},{"bike_id":"f1e9fc4f-4524-48c2-bea5-288ea485b230","system_id":"levelo_inurba_marseille","lat":43.23157,"lon":5.43723,"is_reserved":false,"is_disabled":false,"rental_uris":{"android":"levelo://app?vid=f1e9fc4f-4524-48c2-bea5-288ea485b230","ios":"levelo://app?vid=f1e9fc4f-4524-48c2-bea5-288ea485b230"},"vehicle_type_id":"4","last_reported":1731665402,"current_range_meters":22400,"station_id":"ce4bhmp2rcd13ifvqgog","pricing_plan_id":"cebpf4jnsgd1na2vs0mg"},{"bike_id":"b78fc79c-2eed-493f-9673-97e64cee4002","system_id":"levelo_inurba_marseille","lat":43.24168,"lon":5.3639,"is_reserved":false,"is_disabled":false,"rental_uris":{"android":"levelo://app?vid=b78fc79c-2eed-493f-9673-97e64cee4002","ios":"levelo://app?vid=b78fc79c-2eed-493f-9673-97e64cee4002"},"vehicle_type_id":"4","last_reported":1731665402,"current_range_meters":18000,"station_id":"cpo36qri1sfpv3e86is0","pricing_plan_id":"cebpf4jnsgd1na2vs0mg"},{"bike_id":"2bc483ce-cc7c-4ff4-8f56-dc791152925b","system_id":"levelo_inurba_marseille","lat":43.26686,"lon":5.3827,"is_reserved":false,"is_disabled":false,"rental_uris":{"android":"levelo://app?vid=2bc483ce-cc7c-4ff4-8f56-dc791152925b","ios":"levelo://app?vid=2bc483ce-cc7c-4ff4-8f56-dc791152925b"},"vehicle_type_id":"4","last_reported":1731665402,"current_range_meters":28400,"station_id":"ce4bhg92rcd13ifvqf90","pricing_plan_id":"cebpf4jnsgd1na2vs0mg"},{"bike_id":"feca3b77-9b16-4f1f-8742-27d5e1074087","system_id":"levelo_inurba_marseille","lat":43.26576,"lon":5.39006,"is_reserved":false,"is_disabled":false,"rental_uris":{"android":"levelo://app?vid=feca3b77-9b16-4f1f-8742-27d5e1074087","ios":"levelo://app?vid=feca3b77-9b16-4f1f-8742-27d5e1074087"},"vehicle_type_id":"4","last_reported":1731665402,"current_range_meters":36400,"station_id":"ce4bhe12rcd13ifvqf30","pricing_plan_id":"cebpf4jnsgd1na2vs0mg"},{"bike_id":"5c578575-0d9c-4f3c-919a-904c262b75ca","system_id":"levelo_inurba_marseille","lat":43.3117,"lon":5.38709,"is_reserved":false,"is_disabled":false,"rental_uris":{"android":"levelo://app?vid=5c578575-0d9c-4f3c-919a-904c262b75ca","ios":"levelo://app?vid=5c578575-0d9c-4f3c-919a-904c262b75ca"},"vehicle_type_id":"4","last_reported":1731665402,"current_range_meters":38800,"station_id":"ce4bgv12rcd13ifvqcp0","pricing_plan_id":"cebpf4jnsgd1na2vs0mg"},{"bike_id":"91f938f1-d19b-44d9-ad33-83b8655861ee","system_id":"levelo_inurba_marseille","lat":43.25111,"lon":5.40321,"is_reserved":false,"is_disabled":false,"rental_uris":{"android":"levelo://app?vid=91f938f1-d19b-44d9-ad33-83b8655861ee","ios":"levelo://app?vid=91f938f1-d19b-44d9-ad33-83b8655861ee"},"vehicle_type_id":"4","last_reported":1731665402,"current_range_meters":36400,"station_id":"ce4bhlh2rcd13ifvqgig","pricing_plan_id":"cebpf4jnsgd1na2vs0mg"},{"bike_id":"14ec0dcf-913b-4f6d-9327-5395fe151b5e","system_id":"levelo_inurba_marseille","lat":43.24077,"lon":5.37756,"is_reserved":false,"is_disabled":false,"rental_uris":{"android":"levelo://app?vid=14ec0dcf-913b-4f6d-9327-5395fe151b5e","ios":"levelo://app?vid=14ec0dcf-913b-4f6d-9327-5395fe151b5e"},"vehicle_type_id":"4","last_reported":1731665402,"current_range_meters":27600,"station_id":"ce4bhnp2rcd13ifvqgvg","pricing_plan_id":"cebpf4jnsgd1na2vs0mg"},{"bike_id":"f958f471-cf92-436a-bc8d-8e57613d3090","system_id":"levelo_inurba_marseille","lat":43.28426,"lon":5.34993,"is_reserved":false,"is_disabled":false,"rental_uris":{"android":"levelo://app?vid=f958f471-cf92-436a-bc8d-8e57613d3090","ios":"levelo://app?vid=f958f471-cf92-436a-bc8d-8e57613d3090"},"vehicle_type_id":"4","last_reported":1731665402,"current_range_meters":38800,"station_id":"ce4bhbh2rcd13ifvqepg","pricing_plan_id":"cebpf4jnsgd1na2vs0mg"},{"bike_id":"2e7c1ab3-f1d7-4720-aa65-dbaac86150a8","system_id":"levelo_inurba_marseille","lat":43.28266,"lon":5.35059,"is_reserved":false,"is_disabled":false,"rental_uris":{"android":"levelo://app?vid=2e7c1ab3-f1d7-4720-aa65-dbaac86150a8","ios":"levelo://app?vid=2e7c1ab3-f1d7-4720-aa65-dbaac86150a8"},"vehicle_type_id":"4","last_reported":1731665402,"current_range_meters":14400,"station_id":"ce4bhbp2rcd13ifvqerg","pricing_plan_id":"cebpf4jnsgd1na2vs0mg"},{"bike_id":"b54def14-42ed-423a-aa72-5d79f1d845fe","system_id":"levelo_inurba_marseille","lat":43.2418,"lon":5.39735,"is_reserved":false,"is_disabled":false,"rental_uris":{"android":"levelo://app?vid=b54def14-42ed-423a-aa72-5d79f1d845fe","ios":"levelo://app?vid=b54def14-42ed-423a-aa72-5d79f1d845fe"},"vehicle_type_id":"4","last_reported":1731665402,"current_range_meters":22800,"station_id":"ce4bhn12rcd13ifvqgpg","pricing_plan_id":"cebpf4jnsgd1na2vs0mg"},{"bike_id":"d4357b6e-382d-42fb-a863-ff7fd5649955","system_id":"levelo_inurba_marseille","lat":43.250063,"lon":5.38925,"is_reserved":false,"is_disabled":false,"rental_uris":{"android":"levelo://app?vid=d4357b6e-382d-42fb-a863-ff7fd5649955","ios":"levelo://app?vid=d4357b6e-382d-42fb-a863-ff7fd5649955"},"vehicle_type_id":"4","last_reported":1731665402,"current_range_meters":38000,"station_id":"ce4bhgp2rcd13ifvqfd0","pricing_plan_id":"cebpf4jnsgd1na2vs0mg"},{"bike_id":"e977bef6-1482-47fc-acd2-bd2f29cfcb25","system_id":"levelo_inurba_marseille","lat":43.30527,"lon":5.36707,"is_reserved":false,"is_disabled":false,"rental_uris":{"android":"levelo://app?vid=e977bef6-1482-47fc-acd2-bd2f29cfcb25","ios":"levelo://app?vid=e977bef6-1482-47fc-acd2-bd2f29cfcb25"},"vehicle_type_id":"4","last_reported":1731665402,"current_range_meters":28400,"station_id":"ce4bgrp2rcd13ifvqc9g","pricing_plan_id":"cebpf4jnsgd1na2vs0mg"},{"bike_id":"8db07b76-9054-465a-89b4-68d17707961b","system_id":"levelo_inurba_marseille","lat":43.28425,"lon":5.34984,"is_reserved":false,"is_disabled":false,"rental_uris":{"android":"levelo://app?vid=8db07b76-9054-465a-89b4-68d17707961b","ios":"levelo://app?vid=8db07b76-9054-465a-89b4-68d17707961b"},"vehicle_type_id":"4","last_reported":1731665402,"current_range_meters":31200,"station_id":"ce4bhbh2rcd13ifvqepg","pricing_plan_id":"cebpf4jnsgd1na2vs0mg"},{"bike_id":"79294977-6401-4835-8c97-7dcc2f35c689","system_id":"levelo_inurba_marseille","lat":43.30913,"lon":5.36858,"is_reserved":false,"is_disabled":false,"rental_uris":{"android":"levelo://app?vid=79294977-6401-4835-8c97-7dcc2f35c689","ios":"levelo://app?vid=79294977-6401-4835-8c97-7dcc2f35c689"},"vehicle_type_id":"4","last_reported":1731665402,"current_range_meters":28400,"station_id":"ce4bgn92rcd13ifvqbvg","pricing_plan_id":"cebpf4jnsgd1na2vs0mg"},{"bike_id":"6190abe0-aae9-4a80-a526-d67e8d93d29d","system_id":"levelo_inurba_marseille","lat":43.26948,"lon":5.38634,"is_reserved":false,"is_disabled":false,"rental_uris":{"android":"levelo://app?vid=6190abe0-aae9-4a80-a526-d67e8d93d29d","ios":"levelo://app?vid=6190abe0-aae9-4a80-a526-d67e8d93d29d"},"vehicle_type_id":"4","last_reported":1731665402,"current_range_meters":28400,"station_id":"ce4bhh92rcd13ifvqfh0","pricing_plan_id":"cebpf4jnsgd1na2vs0mg"},{"bike_id":"3442e6dc-1f7c-41f8-b5a8-274b9b734912","system_id":"levelo_inurba_marseille","lat":43.33606,"lon":5.41032,"is_reserved":false,"is_disabled":false,"rental_uris":{"android":"levelo://app?vid=3442e6dc-1f7c-41f8-b5a8-274b9b734912","ios":"levelo://app?vid=3442e6dc-1f7c-41f8-b5a8-274b9b734912"},"vehicle_type_id":"4","last_reported":1731665402,"current_range_meters":24000,"station_id":"ce4bhqh2rcd13ifvqhmg","pricing_plan_id":"cebpf4jnsgd1na2vs0mg"},{"bike_id":"a14cdd86-e0de-47a1-a512-c489ce6e06fc","system_id":"levelo_inurba_marseille","lat":43.27497,"lon":5.42453,"is_reserved":false,"is_disabled":false,"rental_uris":{"android":"levelo://app?vid=a14cdd86-e0de-47a1-a512-c489ce6e06fc","ios":"levelo://app?vid=a14cdd86-e0de-47a1-a512-c489ce6e06fc"},"vehicle_type_id":"4","last_reported":1731665402,"current_range_meters":24000,"station_id":"ce4bhn92rcd13ifvqgrg","pricing_plan_id":"cebpf4jnsgd1na2vs0mg"},{"bike_id":"088e31f0-2d9d-4dfe-b158-9254d4346655","system_id":"levelo_inurba_marseille","lat":43.30785,"lon":5.3764,"is_reserved":false,"is_disabled":false,"rental_uris":{"android":"levelo://app?vid=088e31f0-2d9d-4dfe-b158-9254d4346655","ios":"levelo://app?vid=088e31f0-2d9d-4dfe-b158-9254d4346655"},"vehicle_type_id":"4","last_reported":1731665402,"current_range_meters":24400,"station_id":"ce4bgv92rcd13ifvqcq0","pricing_plan_id":"cebpf4jnsgd1na2vs0mg"},{"bike_id":"710be78e-6682-4bac-af70-e7db11610c84","system_id":"levelo_inurba_marseille","lat":43.29271,"lon":5.40898,"is_reserved":false,"is_disabled":false,"rental_uris":{"android":"levelo://app?vid=710be78e-6682-4bac-af70-e7db11610c84","ios":"levelo://app?vid=710be78e-6682-4bac-af70-e7db11610c84"},"vehicle_type_id":"4","last_reported":1731665402,"current_range_meters":36400,"station_id":"ce4bh192rcd13ifvqdc0","pricing_plan_id":"cebpf4jnsgd1na2vs0mg"},{"bike_id":"3954dd37-8389-4e48-b138-27e1c188a614","system_id":"levelo_inurba_marseille","lat":43.31231,"lon":5.36848,"is_reserved":false,"is_disabled":false,"rental_uris":{"android":"levelo://app?vid=3954dd37-8389-4e48-b138-27e1c188a614","ios":"levelo://app?vid=3954dd37-8389-4e48-b138-27e1c188a614"},"vehicle_type_id":"4","last_reported":1731665402,"current_range_meters":36000,"station_id":"ce4bgl92rcd13ifvqbq0","pricing_plan_id":"cebpf4jnsgd1na2vs0mg"},{"bike_id":"334f6cf6-336b-4452-8b70-8d818d81053c","system_id":"levelo_inurba_marseille","lat":43.24073,"lon":5.37759,"is_reserved":false,"is_disabled":false,"rental_uris":{"android":"levelo://app?vid=334f6cf6-336b-4452-8b70-8d818d81053c","ios":"levelo://app?vid=334f6cf6-336b-4452-8b70-8d818d81053c"},"vehicle_type_id":"4","last_reported":1731665402,"current_range_meters":20400,"station_id":"ce4bhnp2rcd13ifvqgvg","pricing_plan_id":"cebpf4jnsgd1na2vs0mg"},{"bike_id":"9c09a538-ab29-4eb3-a90f-53fedb4fde44","system_id":"levelo_inurba_marseille","lat":43.27946,"lon":5.41042,"is_reserved":false,"is_disabled":false,"rental_uris":{"android":"levelo://app?vid=9c09a538-ab29-4eb3-a90f-53fedb4fde44","ios":"levelo://app?vid=9c09a538-ab29-4eb3-a90f-53fedb4fde44"},"vehicle_type_id":"4","last_reported":1731665402,"current_range_meters":30800,"station_id":"ce4bhnp2rcd13ifvqh0g","pricing_plan_id":"cebpf4jnsgd1na2vs0mg"},{"bike_id":"dcb8926e-b0a0-4382-89d3-09fd46710797","system_id":"levelo_inurba_marseille","lat":43.30433,"lon":5.39746,"is_reserved":false,"is_disabled":false,"rental_uris":{"android":"levelo://app?vid=dcb8926e-b0a0-4382-89d3-09fd46710797","ios":"levelo://app?vid=dcb8926e-b0a0-4382-89d3-09fd46710797"},"vehicle_type_id":"4","last_reported":1731665402,"current_range_meters":10000,"station_id":"ce4bh092rcd13ifvqd20","pricing_plan_id":"cebpf4jnsgd1na2vs0mg"},{"bike_id":"6d29914a-34df-4433-ad9f-15556840fe26","system_id":"levelo_inurba_marseille","lat":43.281006,"lon":5.378262,"is_reserved":false,"is_disabled":false,"rental_uris":{"android":"levelo://app?vid=6d29914a-34df-4433-ad9f-15556840fe26","ios":"levelo://app?vid=6d29914a-34df-4433-ad9f-15556840fe26"},"vehicle_type_id":"4","last_reported":1731665402,"current_range_meters":38400,"station_id":"ce4bha12rcd13ifvqee0","pricing_plan_id":"cebpf4jnsgd1na2vs0mg"},{"bike_id":"b47cb991-57c8-4ef2-ba6f-88a50e1a1219","system_id":"levelo_inurba_marseille","lat":43.22935,"lon":5.35378,"is_reserved":false,"is_disabled":false,"rental_uris":{"android":"levelo://app?vid=b47cb991-57c8-4ef2-ba6f-88a50e1a1219","ios":"levelo://app?vid=b47cb991-57c8-4ef2-ba6f-88a50e1a1219"},"vehicle_type_id":"4","last_reported":1731665402,"current_range_meters":37600,"station_id":"cpo3532slgdg3j2ikp40","pricing_plan_id":"cebpf4jnsgd1na2vs0mg"},{"bike_id":"b8770ea3-6405-406e-ab35-17fb2524915c","system_id":"levelo_inurba_marseille","lat":43.28267,"lon":5.35059,"is_reserved":false,"is_disabled":false,"rental_uris":{"android":"levelo://app?vid=b8770ea3-6405-406e-ab35-17fb2524915c","ios":"levelo://app?vid=b8770ea3-6405-406e-ab35-17fb2524915c"},"vehicle_type_id":"4","last_reported":1731665402,"current_range_meters":24800,"station_id":"ce4bhbp2rcd13ifvqerg","pricing_plan_id":"cebpf4jnsgd1na2vs0mg"},{"bike_id":"e2bf3ce5-892e-42fa-9ed5-c1e386a99b9d","system_id":"levelo_inurba_marseille","lat":43.31364,"lon":5.38502,"is_reserved":false,"is_disabled":false,"rental_uris":{"android":"levelo://app?vid=e2bf3ce5-892e-42fa-9ed5-c1e386a99b9d","ios":"levelo://app?vid=e2bf3ce5-892e-42fa-9ed5-c1e386a99b9d"},"vehicle_type_id":"4","last_reported":1731665402,"current_range_meters":39200,"station_id":"ce4bgt92rcd13ifvqcf0","pricing_plan_id":"cebpf4jnsgd1na2vs0mg"},{"bike_id":"3be187de-5e5a-4eb9-a6fc-b5be1ff54724","system_id":"levelo_inurba_marseille","lat":43.24079,"lon":5.37742,"is_reserved":false,"is_disabled":false,"rental_uris":{"android":"levelo://app?vid=3be187de-5e5a-4eb9-a6fc-b5be1ff54724","ios":"levelo://app?vid=3be187de-5e5a-4eb9-a6fc-b5be1ff54724"},"vehicle_type_id":"4","last_reported":1731665402,"current_range_meters":30400,"station_id":"ce4bhnp2rcd13ifvqgvg","pricing_plan_id":"cebpf4jnsgd1na2vs0mg"},{"bike_id":"1d36ec1c-d89d-4bb1-8e0d-ff1c762508b7","system_id":"levelo_inurba_marseille","lat":43.22938,"lon":5.35375,"is_reserved":false,"is_disabled":false,"rental_uris":{"android":"levelo://app?vid=1d36ec1c-d89d-4bb1-8e0d-ff1c762508b7","ios":"levelo://app?vid=1d36ec1c-d89d-4bb1-8e0d-ff1c762508b7"},"vehicle_type_id":"4","last_reported":1731665402,"current_range_meters":9600,"station_id":"cpo3532slgdg3j2ikp40","pricing_plan_id":"cebpf4jnsgd1na2vs0mg"},{"bike_id":"25e6dfad-f4f3-456f-84c6-08e0edc9f847","system_id":"levelo_inurba_marseille","lat":43.32544,"lon":5.41451,"is_reserved":false,"is_disabled":false,"rental_uris":{"android":"levelo://app?vid=25e6dfad-f4f3-456f-84c6-08e0edc9f847","ios":"levelo://app?vid=25e6dfad-f4f3-456f-84c6-08e0edc9f847"},"vehicle_type_id":"4","last_reported":1731665402,"current_range_meters":6800,"station_id":"ce4bhq12rcd13ifvqhhg","pricing_plan_id":"cebpf4jnsgd1na2vs0mg"},{"bike_id":"9c233db4-834b-4c1b-b7d5-54a44a7cefcd","system_id":"levelo_inurba_marseille","lat":43.29788,"lon":5.38096,"is_reserved":false,"is_disabled":false,"rental_uris":{"android":"levelo://app?vid=9c233db4-834b-4c1b-b7d5-54a44a7cefcd","ios":"levelo://app?vid=9c233db4-834b-4c1b-b7d5-54a44a7cefcd"},"vehicle_type_id":"4","last_reported":1731665402,"current_range_meters":21600,"station_id":"ce4bgip2rcd13ifvqbb0","pricing_plan_id":"cebpf4jnsgd1na2vs0mg"},{"bike_id":"37212eb8-cfa6-47ba-9ed7-bfed51287466","system_id":"levelo_inurba_marseille","lat":43.3143,"lon":5.37049,"is_reserved":false,"is_disabled":false,"rental_uris":{"android":"levelo://app?vid=37212eb8-cfa6-47ba-9ed7-bfed51287466","ios":"levelo://app?vid=37212eb8-cfa6-47ba-9ed7-bfed51287466"},"vehicle_type_id":"4","last_reported":1731665402,"current_range_meters":36800,"station_id":"","pricing_plan_id":"cebpf4jnsgd1na2vs0mg"},{"bike_id":"773c84d3-bcbd-46da-9519-6ef9ccfc0304","system_id":"levelo_inurba_marseille","lat":43.24072,"lon":5.37758,"is_reserved":false,"is_disabled":false,"rental_uris":{"android":"levelo://app?vid=773c84d3-bcbd-46da-9519-6ef9ccfc0304","ios":"levelo://app?vid=773c84d3-bcbd-46da-9519-6ef9ccfc0304"},"vehicle_type_id":"4","last_reported":1731665402,"current_range_meters":12000,"station_id":"ce4bhnp2rcd13ifvqgvg","pricing_plan_id":"cebpf4jnsgd1na2vs0mg"},{"bike_id":"51c4154f-cf3b-4f21-a119-e72f208a3f98","system_id":"levelo_inurba_marseille","lat":43.2971,"lon":5.36613,"is_reserved":false,"is_disabled":false,"rental_uris":{"android":"levelo://app?vid=51c4154f-cf3b-4f21-a119-e72f208a3f98","ios":"levelo://app?vid=51c4154f-cf3b-4f21-a119-e72f208a3f98"},"vehicle_type_id":"4","last_reported":1731665402,"current_range_meters":35200,"station_id":"ce4bgn12rcd13ifvqbt0","pricing_plan_id":"cebpf4jnsgd1na2vs0mg"},{"bike_id":"5f4496a2-dc1f-4c6c-87bb-f44d8c27445d","system_id":"levelo_inurba_marseille","lat":43.31356,"lon":5.36713,"is_reserved":false,"is_disabled":false,"rental_uris":{"android":"levelo://app?vid=5f4496a2-dc1f-4c6c-87bb-f44d8c27445d","ios":"levelo://app?vid=5f4496a2-dc1f-4c6c-87bb-f44d8c27445d"},"vehicle_type_id":"4","last_reported":1731665402,"current_range_meters":7200,"station_id":"ce4bgr92rcd13ifvqc6g","pricing_plan_id":"cebpf4jnsgd1na2vs0mg"},{"bike_id":"76fda271-4bcd-4529-8397-8074a1eff7fe","system_id":"levelo_inurba_marseille","lat":43.337444,"lon":5.374475,"is_reserved":false,"is_disabled":false,"rental_uris":{"android":"levelo://app?vid=76fda271-4bcd-4529-8397-8074a1eff7fe","ios":"levelo://app?vid=76fda271-4bcd-4529-8397-8074a1eff7fe"},"vehicle_type_id":"4","last_reported":1731665402,"current_range_meters":38400,"station_id":"","pricing_plan_id":"cebpf4jnsgd1na2vs0mg"},{"bike_id":"bef7ca68-0ccd-456c-a245-4471193ed987","system_id":"levelo_inurba_marseille","lat":43.26059,"lon":5.39393,"is_reserved":false,"is_disabled":false,"rental_uris":{"android":"levelo://app?vid=bef7ca68-0ccd-456c-a245-4471193ed987","ios":"levelo://app?vid=bef7ca68-0ccd-456c-a245-4471193ed987"},"vehicle_type_id":"4","last_reported":1731665402,"current_range_meters":38800,"station_id":"ce4bhh92rcd13ifvqfj0","pricing_plan_id":"cebpf4jnsgd1na2vs0mg"},{"bike_id":"7125cda5-6cac-4f0d-b24c-2d801b2955b5","system_id":"levelo_inurba_marseille","lat":43.24082,"lon":5.37759,"is_reserved":false,"is_disabled":false,"rental_uris":{"android":"levelo://app?vid=7125cda5-6cac-4f0d-b24c-2d801b2955b5","ios":"levelo://app?vid=7125cda5-6cac-4f0d-b24c-2d801b2955b5"},"vehicle_type_id":"4","last_reported":1731665402,"current_range_meters":30800,"station_id":"ce4bhn12rcd13ifvqgqg","pricing_plan_id":"cebpf4jnsgd1na2vs0mg"},{"bike_id":"396b14a7-ec5c-4223-b8a4-d83c3b052ae5","system_id":"levelo_inurba_marseille","lat":43.29266,"lon":5.40902,"is_reserved":false,"is_disabled":false,"rental_uris":{"android":"levelo://app?vid=396b14a7-ec5c-4223-b8a4-d83c3b052ae5","ios":"levelo://app?vid=396b14a7-ec5c-4223-b8a4-d83c3b052ae5"},"vehicle_type_id":"4","last_reported":1731665402,"current_range_meters":36800,"station_id":"ce4bh192rcd13ifvqdc0","pricing_plan_id":"cebpf4jnsgd1na2vs0mg"},{"bike_id":"99ba81e0-b14b-4795-9d9b-8b81b0f97ffb","system_id":"levelo_inurba_marseille","lat":43.29232,"lon":5.36071,"is_reserved":false,"is_disabled":false,"rental_uris":{"android":"levelo://app?vid=99ba81e0-b14b-4795-9d9b-8b81b0f97ffb","ios":"levelo://app?vid=99ba81e0-b14b-4795-9d9b-8b81b0f97ffb"},"vehicle_type_id":"4","last_reported":1731665402,"current_range_meters":9600,"station_id":"ce4bhbh2rcd13ifvqeqg","pricing_plan_id":"cebpf4jnsgd1na2vs0mg"},{"bike_id":"44815e61-26cd-436c-a4f1-12abbf60ddce","system_id":"levelo_inurba_marseille","lat":43.2867,"lon":5.3635,"is_reserved":false,"is_disabled":false,"rental_uris":{"android":"levelo://app?vid=44815e61-26cd-436c-a4f1-12abbf60ddce","ios":"levelo://app?vid=44815e61-26cd-436c-a4f1-12abbf60ddce"},"vehicle_type_id":"4","last_reported":1731665402,"current_range_meters":32400,"station_id":"ce4bhah2rcd13ifvqej0","pricing_plan_id":"cebpf4jnsgd1na2vs0mg"},{"bike_id":"bccf3c87-5cb3-4395-b8d1-2d872bcb994d","system_id":"levelo_inurba_marseille","lat":43.27422,"lon":5.39419,"is_reserved":false,"is_disabled":false,"rental_uris":{"android":"levelo://app?vid=bccf3c87-5cb3-4395-b8d1-2d872bcb994d","ios":"levelo://app?vid=bccf3c87-5cb3-4395-b8d1-2d872bcb994d"},"vehicle_type_id":"4","last_reported":1731665402,"current_range_meters":16400,"station_id":"ce4bhdp2rcd13ifvqf20","pricing_plan_id":"cebpf4jnsgd1na2vs0mg"},{"bike_id":"b07e70d9-f184-4184-9eb1-f2074f2d8c6e","system_id":"levelo_inurba_marseille","lat":43.31349,"lon":5.36718,"is_reserved":false,"is_disabled":false,"rental_uris":{"android":"levelo://app?vid=b07e70d9-f184-4184-9eb1-f2074f2d8c6e","ios":"levelo://app?vid=b07e70d9-f184-4184-9eb1-f2074f2d8c6e"},"vehicle_type_id":"4","last_reported":1731665402,"current_range_meters":26800,"station_id":"ce4bgr92rcd13ifvqc6g","pricing_plan_id":"cebpf4jnsgd1na2vs0mg"},{"bike_id":"4df046c7-f0c5-486d-9b51-f6fe6d71eef8","system_id":"levelo_inurba_marseille","lat":43.23155,"lon":5.43714,"is_reserved":false,"is_disabled":false,"rental_uris":{"android":"levelo://app?vid=4df046c7-f0c5-486d-9b51-f6fe6d71eef8","ios":"levelo://app?vid=4df046c7-f0c5-486d-9b51-f6fe6d71eef8"},"vehicle_type_id":"4","last_reported":1731665402,"current_range_meters":34000,"station_id":"ce4bhmp2rcd13ifvqgog","pricing_plan_id":"cebpf4jnsgd1na2vs0mg"},{"bike_id":"94bcc280-7668-4cae-9472-84b313a52528","system_id":"levelo_inurba_marseille","lat":43.33608,"lon":5.41032,"is_reserved":false,"is_disabled":false,"rental_uris":{"android":"levelo://app?vid=94bcc280-7668-4cae-9472-84b313a52528","ios":"levelo://app?vid=94bcc280-7668-4cae-9472-84b313a52528"},"vehicle_type_id":"4","last_reported":1731665402,"current_range_meters":40000,"station_id":"ce4bhqh2rcd13ifvqhmg","pricing_plan_id":"cebpf4jnsgd1na2vs0mg"},{"bike_id":"6d757fef-4f26-43f9-ac2c-ffab39bf7dae","system_id":"levelo_inurba_marseille","lat":43.32249,"lon":5.36901,"is_reserved":false,"is_disabled":false,"rental_uris":{"android":"levelo://app?vid=6d757fef-4f26-43f9-ac2c-ffab39bf7dae","ios":"levelo://app?vid=6d757fef-4f26-43f9-ac2c-ffab39bf7dae"},"vehicle_type_id":"4","last_reported":1731665402,"current_range_meters":24800,"station_id":"","pricing_plan_id":"cebpf4jnsgd1na2vs0mg"},{"bike_id":"2d75e5fd-99a9-4a8a-873d-b848597da080","system_id":"levelo_inurba_marseille","lat":43.2901,"lon":5.381431,"is_reserved":false,"is_disabled":false,"rental_uris":{"android":"levelo://app?vid=2d75e5fd-99a9-4a8a-873d-b848597da080","ios":"levelo://app?vid=2d75e5fd-99a9-4a8a-873d-b848597da080"},"vehicle_type_id":"4","last_reported":1731665402,"current_range_meters":36400,"station_id":"ce4bh4p2rcd13ifvqe1g","pricing_plan_id":"cebpf4jnsgd1na2vs0mg"},{"bike_id":"32cd1b93-1601-47f1-941f-d1a5d6e1d53c","system_id":"levelo_inurba_marseille","lat":43.30959,"lon":5.39022,"is_reserved":false,"is_disabled":false,"rental_uris":{"android":"levelo://app?vid=32cd1b93-1601-47f1-941f-d1a5d6e1d53c","ios":"levelo://app?vid=32cd1b93-1601-47f1-941f-d1a5d6e1d53c"},"vehicle_type_id":"4","last_reported":1731665402,"current_range_meters":18800,"station_id":"ce4bgup2rcd13ifvqco0","pricing_plan_id":"cebpf4jnsgd1na2vs0mg"},{"bike_id":"966fb2fe-381c-428d-ade2-7bada907c111","system_id":"levelo_inurba_marseille","lat":43.24806,"lon":5.37456,"is_reserved":false,"is_disabled":false,"rental_uris":{"android":"levelo://app?vid=966fb2fe-381c-428d-ade2-7bada907c111","ios":"levelo://app?vid=966fb2fe-381c-428d-ade2-7bada907c111"},"vehicle_type_id":"4","last_reported":1731665402,"current_range_meters":37600,"station_id":"ce4bhgh2rcd13ifvqfb0","pricing_plan_id":"cebpf4jnsgd1na2vs0mg"},{"bike_id":"caabc84d-18d8-41e9-9bcd-07acc52828ec","system_id":"levelo_inurba_marseille","lat":43.30179,"lon":5.36604,"is_reserved":false,"is_disabled":false,"rental_uris":{"android":"levelo://app?vid=caabc84d-18d8-41e9-9bcd-07acc52828ec","ios":"levelo://app?vid=caabc84d-18d8-41e9-9bcd-07acc52828ec"},"vehicle_type_id":"4","last_reported":1731665402,"current_range_meters":28400,"station_id":"ce4bgrh2rcd13ifvqc8g","pricing_plan_id":"cebpf4jnsgd1na2vs0mg"},{"bike_id":"044e3ab9-a983-4b20-b8d4-4afec422bfdf","system_id":"levelo_inurba_marseille","lat":43.23965,"lon":5.36629,"is_reserved":false,"is_disabled":false,"rental_uris":{"android":"levelo://app?vid=044e3ab9-a983-4b20-b8d4-4afec422bfdf","ios":"levelo://app?vid=044e3ab9-a983-4b20-b8d4-4afec422bfdf"},"vehicle_type_id":"4","last_reported":1731665402,"current_range_meters":27600,"station_id":"ce4bhi12rcd13ifvqfp0","pricing_plan_id":"cebpf4jnsgd1na2vs0mg"},{"bike_id":"7d5d63d5-249a-452f-9690-63a9fd494b32","system_id":"levelo_inurba_marseille","lat":43.26564,"lon":5.39002,"is_reserved":false,"is_disabled":false,"rental_uris":{"android":"levelo://app?vid=7d5d63d5-249a-452f-9690-63a9fd494b32","ios":"levelo://app?vid=7d5d63d5-249a-452f-9690-63a9fd494b32"},"vehicle_type_id":"4","last_reported":1731665402,"current_range_meters":18000,"station_id":"ce4bhe12rcd13ifvqf30","pricing_plan_id":"cebpf4jnsgd1na2vs0mg"},{"bike_id":"4df7c49e-022d-40a5-b465-fbd364b6f490","system_id":"levelo_inurba_marseille","lat":43.32488,"lon":5.36556,"is_reserved":false,"is_disabled":false,"rental_uris":{"android":"levelo://app?vid=4df7c49e-022d-40a5-b465-fbd364b6f490","ios":"levelo://app?vid=4df7c49e-022d-40a5-b465-fbd364b6f490"},"vehicle_type_id":"4","last_reported":1731665402,"current_range_meters":40000,"station_id":"ce4bhs12rcd13ifvqhvg","pricing_plan_id":"cebpf4jnsgd1na2vs0mg"},{"bike_id":"99366b3f-5c8c-4a91-944d-612995f91b89","system_id":"levelo_inurba_marseille","lat":43.24079,"lon":5.37734,"is_reserved":false,"is_disabled":false,"rental_uris":{"android":"levelo://app?vid=99366b3f-5c8c-4a91-944d-612995f91b89","ios":"levelo://app?vid=99366b3f-5c8c-4a91-944d-612995f91b89"},"vehicle_type_id":"4","last_reported":1731665402,"current_range_meters":16000,"station_id":"ce4bhnp2rcd13ifvqgvg","pricing_plan_id":"cebpf4jnsgd1na2vs0mg"},{"bike_id":"5967a5e1-1158-4dac-a809-264904f2d9c4","system_id":"levelo_inurba_marseille","lat":43.28963,"lon":5.37844,"is_reserved":false,"is_disabled":false,"rental_uris":{"android":"levelo://app?vid=5967a5e1-1158-4dac-a809-264904f2d9c4","ios":"levelo://app?vid=5967a5e1-1158-4dac-a809-264904f2d9c4"},"vehicle_type_id":"4","last_reported":1731665402,"current_range_meters":36400,"station_id":"ce4bh9p2rcd13ifvqed0","pricing_plan_id":"cebpf4jnsgd1na2vs0mg"},{"bike_id":"0b8850c2-f140-44f5-a44f-dfc3cc65191a","system_id":"levelo_inurba_marseille","lat":43.24079,"lon":5.37759,"is_reserved":false,"is_disabled":false,"rental_uris":{"android":"levelo://app?vid=0b8850c2-f140-44f5-a44f-dfc3cc65191a","ios":"levelo://app?vid=0b8850c2-f140-44f5-a44f-dfc3cc65191a"},"vehicle_type_id":"4","last_reported":1731665402,"current_range_meters":23200,"station_id":"ce4bhnp2rcd13ifvqgvg","pricing_plan_id":"cebpf4jnsgd1na2vs0mg"},{"bike_id":"f05170e6-b81b-4b9d-a640-0c971a669fa3","system_id":"levelo_inurba_marseille","lat":43.25116,"lon":5.40317,"is_reserved":false,"is_disabled":false,"rental_uris":{"android":"levelo://app?vid=f05170e6-b81b-4b9d-a640-0c971a669fa3","ios":"levelo://app?vid=f05170e6-b81b-4b9d-a640-0c971a669fa3"},"vehicle_type_id":"4","last_reported":1731665402,"current_range_meters":38400,"station_id":"ce4bhlh2rcd13ifvqgig","pricing_plan_id":"cebpf4jnsgd1na2vs0mg"},{"bike_id":"3578083e-b77f-4d8e-b169-ede2084934ff","system_id":"levelo_inurba_marseille","lat":43.299116,"lon":5.365489,"is_reserved":false,"is_disabled":false,"rental_uris":{"android":"levelo://app?vid=3578083e-b77f-4d8e-b169-ede2084934ff","ios":"levelo://app?vid=3578083e-b77f-4d8e-b169-ede2084934ff"},"vehicle_type_id":"4","last_reported":1731665402,"current_range_meters":37600,"station_id":"ce4bgm92rcd13ifvqbr0","pricing_plan_id":"cebpf4jnsgd1na2vs0mg"},{"bike_id":"a42726e4-eba9-4d57-bcac-64b157fda479","system_id":"levelo_inurba_marseille","lat":43.3019,"lon":5.3661,"is_reserved":false,"is_disabled":false,"rental_uris":{"android":"levelo://app?vid=a42726e4-eba9-4d57-bcac-64b157fda479","ios":"levelo://app?vid=a42726e4-eba9-4d57-bcac-64b157fda479"},"vehicle_type_id":"4","last_reported":1731665402,"current_range_meters":33600,"station_id":"ce4bgrh2rcd13ifvqc8g","pricing_plan_id":"cebpf4jnsgd1na2vs0mg"},{"bike_id":"0551b7ca-936d-4232-8987-1b2c508f3b79","system_id":"levelo_inurba_marseille","lat":43.310669,"lon":5.383601,"is_reserved":false,"is_disabled":false,"rental_uris":{"android":"levelo://app?vid=0551b7ca-936d-4232-8987-1b2c508f3b79","ios":"levelo://app?vid=0551b7ca-936d-4232-8987-1b2c508f3b79"},"vehicle_type_id":"4","last_reported":1731665402,"current_range_meters":8000,"station_id":"ce4bgv92rcd13ifvqcr0","pricing_plan_id":"cebpf4jnsgd1na2vs0mg"},{"bike_id":"57055b96-8ac2-421b-903c-03d8dee7e518","system_id":"levelo_inurba_marseille","lat":43.28261,"lon":5.3506,"is_reserved":false,"is_disabled":false,"rental_uris":{"android":"levelo://app?vid=57055b96-8ac2-421b-903c-03d8dee7e518","ios":"levelo://app?vid=57055b96-8ac2-421b-903c-03d8dee7e518"},"vehicle_type_id":"4","last_reported":1731665402,"current_range_meters":25600,"station_id":"ce4bhbp2rcd13ifvqerg","pricing_plan_id":"cebpf4jnsgd1na2vs0mg"},{"bike_id":"b1a9cb73-d7a1-493e-9b85-98d572751a61","system_id":"levelo_inurba_marseille","lat":43.29305,"lon":5.37464,"is_reserved":false,"is_disabled":false,"rental_uris":{"android":"levelo://app?vid=b1a9cb73-d7a1-493e-9b85-98d572751a61","ios":"levelo://app?vid=b1a9cb73-d7a1-493e-9b85-98d572751a61"},"vehicle_type_id":"4","last_reported":1731665402,"current_range_meters":3200,"station_id":"ce4bgi12rcd13ifvqb70","pricing_plan_id":"cebpf4jnsgd1na2vs0mg"},{"bike_id":"34187729-5eec-49ed-88e0-40bfd675743d","system_id":"levelo_inurba_marseille","lat":43.24077,"lon":5.37754,"is_reserved":false,"is_disabled":false,"rental_uris":{"android":"levelo://app?vid=34187729-5eec-49ed-88e0-40bfd675743d","ios":"levelo://app?vid=34187729-5eec-49ed-88e0-40bfd675743d"},"vehicle_type_id":"4","last_reported":1731665402,"current_range_meters":6400,"station_id":"ce4bhnp2rcd13ifvqgvg","pricing_plan_id":"cebpf4jnsgd1na2vs0mg"},{"bike_id":"ad9e5643-959a-4636-935c-2a6093955f09","system_id":"levelo_inurba_marseille","lat":43.26193,"lon":5.37922,"is_reserved":false,"is_disabled":false,"rental_uris":{"android":"levelo://app?vid=ad9e5643-959a-4636-935c-2a6093955f09","ios":"levelo://app?vid=ad9e5643-959a-4636-935c-2a6093955f09"},"vehicle_type_id":"4","last_reported":1731665402,"current_range_meters":38800,"station_id":"ce4bhjp2rcd13ifvqg90","pricing_plan_id":"cebpf4jnsgd1na2vs0mg"},{"bike_id":"552211dc-a491-4ed2-979a-c90573abd910","system_id":"levelo_inurba_marseille","lat":43.280304,"lon":5.387312,"is_reserved":false,"is_disabled":false,"rental_uris":{"android":"levelo://app?vid=552211dc-a491-4ed2-979a-c90573abd910","ios":"levelo://app?vid=552211dc-a491-4ed2-979a-c90573abd910"},"vehicle_type_id":"4","last_reported":1731665402,"current_range_meters":4800,"station_id":"ce4bhg12rcd13ifvqf80","pricing_plan_id":"cebpf4jnsgd1na2vs0mg"},{"bike_id":"09bce074-317e-45a2-9f77-66d5b156314a","system_id":"levelo_inurba_marseille","lat":43.25118,"lon":5.40319,"is_reserved":false,"is_disabled":false,"rental_uris":{"android":"levelo://app?vid=09bce074-317e-45a2-9f77-66d5b156314a","ios":"levelo://app?vid=09bce074-317e-45a2-9f77-66d5b156314a"},"vehicle_type_id":"4","last_reported":1731665402,"current_range_meters":39200,"station_id":"ce4bhlh2rcd13ifvqgig","pricing_plan_id":"cebpf4jnsgd1na2vs0mg"},{"bike_id":"f2425546-a19d-4a2d-9bcb-6d7e45f5d15e","system_id":"levelo_inurba_marseille","lat":43.258647,"lon":5.39898,"is_reserved":false,"is_disabled":false,"rental_uris":{"android":"levelo://app?vid=f2425546-a19d-4a2d-9bcb-6d7e45f5d15e","ios":"levelo://app?vid=f2425546-a19d-4a2d-9bcb-6d7e45f5d15e"},"vehicle_type_id":"4","last_reported":1731665402,"current_range_meters":37600,"station_id":"ce4bhl92rcd13ifvqghg","pricing_plan_id":"cebpf4jnsgd1na2vs0mg"},{"bike_id":"ee74b3e0-04fa-4a1e-b025-e546d9f7a016","system_id":"levelo_inurba_marseille","lat":43.30483,"lon":5.37911,"is_reserved":false,"is_disabled":false,"rental_uris":{"android":"levelo://app?vid=ee74b3e0-04fa-4a1e-b025-e546d9f7a016","ios":"levelo://app?vid=ee74b3e0-04fa-4a1e-b025-e546d9f7a016"},"vehicle_type_id":"4","last_reported":1731665402,"current_range_meters":19200,"station_id":"ce4bgup2rcd13ifvqcn0","pricing_plan_id":"cebpf4jnsgd1na2vs0mg"},{"bike_id":"18035893-727b-418a-a325-7842e021e891","system_id":"levelo_inurba_marseille","lat":43.250877,"lon":5.39535,"is_reserved":false,"is_disabled":false,"rental_uris":{"android":"levelo://app?vid=18035893-727b-418a-a325-7842e021e891","ios":"levelo://app?vid=18035893-727b-418a-a325-7842e021e891"},"vehicle_type_id":"4","last_reported":1731665402,"current_range_meters":6000,"station_id":"ce4bhm12rcd13ifvqgkg","pricing_plan_id":"cebpf4jnsgd1na2vs0mg"},{"bike_id":"d75784fe-a983-4036-8fa4-fad5d019aed4","system_id":"levelo_inurba_marseille","lat":43.30542,"lon":5.36696,"is_reserved":false,"is_disabled":false,"rental_uris":{"android":"levelo://app?vid=d75784fe-a983-4036-8fa4-fad5d019aed4","ios":"levelo://app?vid=d75784fe-a983-4036-8fa4-fad5d019aed4"},"vehicle_type_id":"4","last_reported":1731665402,"current_range_meters":38800,"station_id":"ce4bgrp2rcd13ifvqc9g","pricing_plan_id":"cebpf4jnsgd1na2vs0mg"},{"bike_id":"8aea6c1e-1b4f-43f7-bf3e-fc2d652c73c6","system_id":"levelo_inurba_marseille","lat":43.25868,"lon":5.399,"is_reserved":false,"is_disabled":false,"rental_uris":{"android":"levelo://app?vid=8aea6c1e-1b4f-43f7-bf3e-fc2d652c73c6","ios":"levelo://app?vid=8aea6c1e-1b4f-43f7-bf3e-fc2d652c73c6"},"vehicle_type_id":"4","last_reported":1731665402,"current_range_meters":38800,"station_id":"ce4bhl92rcd13ifvqghg","pricing_plan_id":"cebpf4jnsgd1na2vs0mg"},{"bike_id":"916d2b09-423d-440b-8061-465f6b681955","system_id":"levelo_inurba_marseille","lat":43.28414,"lon":5.35,"is_reserved":false,"is_disabled":false,"rental_uris":{"android":"levelo://app?vid=916d2b09-423d-440b-8061-465f6b681955","ios":"levelo://app?vid=916d2b09-423d-440b-8061-465f6b681955"},"vehicle_type_id":"4","last_reported":1731665402,"current_range_meters":39200,"station_id":"ce4bhbh2rcd13ifvqepg","pricing_plan_id":"cebpf4jnsgd1na2vs0mg"},{"bike_id":"98091770-dcc5-4a56-8220-78a646028af1","system_id":"levelo_inurba_marseille","lat":43.26954,"lon":5.38632,"is_reserved":false,"is_disabled":false,"rental_uris":{"android":"levelo://app?vid=98091770-dcc5-4a56-8220-78a646028af1","ios":"levelo://app?vid=98091770-dcc5-4a56-8220-78a646028af1"},"vehicle_type_id":"4","last_reported":1731665402,"current_range_meters":36000,"station_id":"ce4bhh92rcd13ifvqfh0","pricing_plan_id":"cebpf4jnsgd1na2vs0mg"},{"bike_id":"b54f4471-f146-477a-ade3-58e1dea1b85e","system_id":"levelo_inurba_marseille","lat":43.337444,"lon":5.374475,"is_reserved":false,"is_disabled":false,"rental_uris":{"android":"levelo://app?vid=b54f4471-f146-477a-ade3-58e1dea1b85e","ios":"levelo://app?vid=b54f4471-f146-477a-ade3-58e1dea1b85e"},"vehicle_type_id":"4","last_reported":1731665402,"current_range_meters":38000,"station_id":"","pricing_plan_id":"cebpf4jnsgd1na2vs0mg"},{"bike_id":"6d6c2938-95fb-4e6b-911a-cc31cf922297","system_id":"levelo_inurba_marseille","lat":43.24078,"lon":5.37748,"is_reserved":false,"is_disabled":false,"rental_uris":{"android":"levelo://app?vid=6d6c2938-95fb-4e6b-911a-cc31cf922297","ios":"levelo://app?vid=6d6c2938-95fb-4e6b-911a-cc31cf922297"},"vehicle_type_id":"4","last_reported":1731665402,"current_range_meters":12400,"station_id":"ce4bhnp2rcd13ifvqgvg","pricing_plan_id":"cebpf4jnsgd1na2vs0mg"},{"bike_id":"e270c34e-9c66-4ca5-81d1-0c1270da9c85","system_id":"levelo_inurba_marseille","lat":43.26956,"lon":5.38623,"is_reserved":false,"is_disabled":false,"rental_uris":{"android":"levelo://app?vid=e270c34e-9c66-4ca5-81d1-0c1270da9c85","ios":"levelo://app?vid=e270c34e-9c66-4ca5-81d1-0c1270da9c85"},"vehicle_type_id":"4","last_reported":1731665402,"current_range_meters":38800,"station_id":"ce4bhh92rcd13ifvqfh0","pricing_plan_id":"cebpf4jnsgd1na2vs0mg"},{"bike_id":"3801d79e-aba9-453c-9e83-33f3550a7c41","system_id":"levelo_inurba_marseille","lat":43.24389,"lon":5.37053,"is_reserved":false,"is_disabled":false,"rental_uris":{"android":"levelo://app?vid=3801d79e-aba9-453c-9e83-33f3550a7c41","ios":"levelo://app?vid=3801d79e-aba9-453c-9e83-33f3550a7c41"},"vehicle_type_id":"4","last_reported":1731665402,"current_range_meters":38000,"station_id":"ce4bhhh2rcd13ifvqfk0","pricing_plan_id":"cebpf4jnsgd1na2vs0mg"},{"bike_id":"792531a3-4da6-4082-bd0a-16451cbb2558","system_id":"levelo_inurba_marseille","lat":43.26026,"lon":5.3755,"is_reserved":false,"is_disabled":false,"rental_uris":{"android":"levelo://app?vid=792531a3-4da6-4082-bd0a-16451cbb2558","ios":"levelo://app?vid=792531a3-4da6-4082-bd0a-16451cbb2558"},"vehicle_type_id":"4","last_reported":1731665402,"current_range_meters":22800,"station_id":"ce4bhgh2rcd13ifvqfa0","pricing_plan_id":"cebpf4jnsgd1na2vs0mg"},{"bike_id":"805cfe6b-be44-4949-bab5-57b1ce8478a4","system_id":"levelo_inurba_marseille","lat":43.33752,"lon":5.37459,"is_reserved":false,"is_disabled":false,"rental_uris":{"android":"levelo://app?vid=805cfe6b-be44-4949-bab5-57b1ce8478a4","ios":"levelo://app?vid=805cfe6b-be44-4949-bab5-57b1ce8478a4"},"vehicle_type_id":"4","last_reported":1731665402,"current_range_meters":34000,"station_id":"","pricing_plan_id":"cebpf4jnsgd1na2vs0mg"},{"bike_id":"f87cf030-2c24-4f87-b7a5-9e7172254a78","system_id":"levelo_inurba_marseille","lat":43.28421,"lon":5.3499,"is_reserved":false,"is_disabled":false,"rental_uris":{"android":"levelo://app?vid=f87cf030-2c24-4f87-b7a5-9e7172254a78","ios":"levelo://app?vid=f87cf030-2c24-4f87-b7a5-9e7172254a78"},"vehicle_type_id":"4","last_reported":1731665402,"current_range_meters":27600,"station_id":"ce4bhbh2rcd13ifvqepg","pricing_plan_id":"cebpf4jnsgd1na2vs0mg"},{"bike_id":"26157fb6-78f1-4167-8352-82864d46f115","system_id":"levelo_inurba_marseille","lat":43.25875,"lon":5.39896,"is_reserved":false,"is_disabled":false,"rental_uris":{"android":"levelo://app?vid=26157fb6-78f1-4167-8352-82864d46f115","ios":"levelo://app?vid=26157fb6-78f1-4167-8352-82864d46f115"},"vehicle_type_id":"4","last_reported":1731665402,"current_range_meters":17200,"station_id":"ce4bhl92rcd13ifvqghg","pricing_plan_id":"cebpf4jnsgd1na2vs0mg"},{"bike_id":"a6e0b929-b7bb-4ab1-a383-24a640716b25","system_id":"levelo_inurba_marseille","lat":43.23188,"lon":5.39985,"is_reserved":false,"is_disabled":false,"rental_uris":{"android":"levelo://app?vid=a6e0b929-b7bb-4ab1-a383-24a640716b25","ios":"levelo://app?vid=a6e0b929-b7bb-4ab1-a383-24a640716b25"},"vehicle_type_id":"4","last_reported":1731665402,"current_range_meters":38800,"station_id":"ce4bhn12rcd13ifvqgqg","pricing_plan_id":"cebpf4jnsgd1na2vs0mg"},{"bike_id":"b03bbc42-f9e3-408d-856d-f2ee9cfcf300","system_id":"levelo_inurba_marseille","lat":43.30286,"lon":5.37694,"is_reserved":false,"is_disabled":false,"rental_uris":{"android":"levelo://app?vid=b03bbc42-f9e3-408d-856d-f2ee9cfcf300","ios":"levelo://app?vid=b03bbc42-f9e3-408d-856d-f2ee9cfcf300"},"vehicle_type_id":"4","last_reported":1731665402,"current_range_meters":38800,"station_id":"ce4bguh2rcd13ifvqcj0","pricing_plan_id":"cebpf4jnsgd1na2vs0mg"},{"bike_id":"c0ac1168-21ff-4da4-a13f-e813768e4b83","system_id":"levelo_inurba_marseille","lat":43.34151,"lon":5.40906,"is_reserved":false,"is_disabled":false,"rental_uris":{"android":"levelo://app?vid=c0ac1168-21ff-4da4-a13f-e813768e4b83","ios":"levelo://app?vid=c0ac1168-21ff-4da4-a13f-e813768e4b83"},"vehicle_type_id":"4","last_reported":1731665402,"current_range_meters":40000,"station_id":"ce4bhqh2rcd13ifvqhlg","pricing_plan_id":"cebpf4jnsgd1na2vs0mg"},{"bike_id":"1e1616bd-3ec0-47d4-af3e-5de65aaf18f8","system_id":"levelo_inurba_marseille","lat":43.28269,"lon":5.35073,"is_reserved":false,"is_disabled":false,"rental_uris":{"android":"levelo://app?vid=1e1616bd-3ec0-47d4-af3e-5de65aaf18f8","ios":"levelo://app?vid=1e1616bd-3ec0-47d4-af3e-5de65aaf18f8"},"vehicle_type_id":"4","last_reported":1731665402,"current_range_meters":39200,"station_id":"ce4bhbp2rcd13ifvqerg","pricing_plan_id":"cebpf4jnsgd1na2vs0mg"},{"bike_id":"65270fdd-b17f-4778-b113-1f6e5b138a26","system_id":"levelo_inurba_marseille","lat":43.27319,"lon":5.3909,"is_reserved":false,"is_disabled":false,"rental_uris":{"android":"levelo://app?vid=65270fdd-b17f-4778-b113-1f6e5b138a26","ios":"levelo://app?vid=65270fdd-b17f-4778-b113-1f6e5b138a26"},"vehicle_type_id":"4","last_reported":1731665402,"current_range_meters":38800,"station_id":"ce4bhgp2rcd13ifvqfe0","pricing_plan_id":"cebpf4jnsgd1na2vs0mg"},{"bike_id":"d1425d99-0c44-479d-81e8-1035fed054e4","system_id":"levelo_inurba_marseille","lat":43.337444,"lon":5.374475,"is_reserved":false,"is_disabled":false,"rental_uris":{"android":"levelo://app?vid=d1425d99-0c44-479d-81e8-1035fed054e4","ios":"levelo://app?vid=d1425d99-0c44-479d-81e8-1035fed054e4"},"vehicle_type_id":"4","last_reported":1731665402,"current_range_meters":38000,"station_id":"","pricing_plan_id":"cebpf4jnsgd1na2vs0mg"},{"bike_id":"23aabbd6-8f88-45fc-bf14-a095c589f723","system_id":"levelo_inurba_marseille","lat":43.30469,"lon":5.37897,"is_reserved":false,"is_disabled":false,"rental_uris":{"android":"levelo://app?vid=23aabbd6-8f88-45fc-bf14-a095c589f723","ios":"levelo://app?vid=23aabbd6-8f88-45fc-bf14-a095c589f723"},"vehicle_type_id":"4","last_reported":1731665402,"current_range_meters":27600,"station_id":"ce4bgup2rcd13ifvqcn0","pricing_plan_id":"cebpf4jnsgd1na2vs0mg"},{"bike_id":"055729a5-2d3f-4651-98f8-b80eb2a43d84","system_id":"levelo_inurba_marseille","lat":43.337444,"lon":5.374475,"is_reserved":false,"is_disabled":false,"rental_uris":{"android":"levelo://app?vid=055729a5-2d3f-4651-98f8-b80eb2a43d84","ios":"levelo://app?vid=055729a5-2d3f-4651-98f8-b80eb2a43d84"},"vehicle_type_id":"4","last_reported":1731665402,"current_range_meters":38000,"station_id":"","pricing_plan_id":"cebpf4jnsgd1na2vs0mg"},{"bike_id":"a115b225-be87-4055-8030-7eb19937e4b5","system_id":"levelo_inurba_marseille","lat":43.29897,"lon":5.43662,"is_reserved":false,"is_disabled":false,"rental_uris":{"android":"levelo://app?vid=a115b225-be87-4055-8030-7eb19937e4b5","ios":"levelo://app?vid=a115b225-be87-4055-8030-7eb19937e4b5"},"vehicle_type_id":"4","last_reported":1731665402,"current_range_meters":29600,"station_id":"ce4bhpp2rcd13ifvqhfg","pricing_plan_id":"cebpf4jnsgd1na2vs0mg"},{"bike_id":"13bd3e15-2bc1-4d9e-9c40-442c0b772a78","system_id":"levelo_inurba_marseille","lat":43.30468,"lon":5.37902,"is_reserved":false,"is_disabled":false,"rental_uris":{"android":"levelo://app?vid=13bd3e15-2bc1-4d9e-9c40-442c0b772a78","ios":"levelo://app?vid=13bd3e15-2bc1-4d9e-9c40-442c0b772a78"},"vehicle_type_id":"4","last_reported":1731665402,"current_range_meters":36400,"station_id":"ce4bgup2rcd13ifvqcn0","pricing_plan_id":"cebpf4jnsgd1na2vs0mg"},{"bike_id":"ca655f3b-8380-4045-b3f8-8acaa0e83ede","system_id":"levelo_inurba_marseille","lat":43.33754,"lon":5.37451,"is_reserved":false,"is_disabled":false,"rental_uris":{"android":"levelo://app?vid=ca655f3b-8380-4045-b3f8-8acaa0e83ede","ios":"levelo://app?vid=ca655f3b-8380-4045-b3f8-8acaa0e83ede"},"vehicle_type_id":"4","last_reported":1731665402,"current_range_meters":36000,"station_id":"","pricing_plan_id":"cebpf4jnsgd1na2vs0mg"},{"bike_id":"c7d8c139-6b24-44c2-a47a-2486692d7a62","system_id":"levelo_inurba_marseille","lat":43.30534,"lon":5.36699,"is_reserved":false,"is_disabled":false,"rental_uris":{"android":"levelo://app?vid=c7d8c139-6b24-44c2-a47a-2486692d7a62","ios":"levelo://app?vid=c7d8c139-6b24-44c2-a47a-2486692d7a62"},"vehicle_type_id":"4","last_reported":1731665402,"current_range_meters":23200,"station_id":"ce4bgrp2rcd13ifvqc9g","pricing_plan_id":"cebpf4jnsgd1na2vs0mg"},{"bike_id":"a6b8c285-acc9-4039-9531-1aae39136a33","system_id":"levelo_inurba_marseille","lat":43.312042,"lon":5.367348,"is_reserved":false,"is_disabled":false,"rental_uris":{"android":"levelo://app?vid=a6b8c285-acc9-4039-9531-1aae39136a33","ios":"levelo://app?vid=a6b8c285-acc9-4039-9531-1aae39136a33"},"vehicle_type_id":"4","last_reported":1731665402,"current_range_meters":20000,"station_id":"","pricing_plan_id":"cebpf4jnsgd1na2vs0mg"},{"bike_id":"7bb570c0-977b-4afe-ba5f-f53cbc31fe9f","system_id":"levelo_inurba_marseille","lat":43.31698,"lon":5.37754,"is_reserved":false,"is_disabled":false,"rental_uris":{"android":"levelo://app?vid=7bb570c0-977b-4afe-ba5f-f53cbc31fe9f","ios":"levelo://app?vid=7bb570c0-977b-4afe-ba5f-f53cbc31fe9f"},"vehicle_type_id":"4","last_reported":1731665402,"current_range_meters":38000,"station_id":"ce4bgth2rcd13ifvqch0","pricing_plan_id":"cebpf4jnsgd1na2vs0mg"},{"bike_id":"15462ef7-c093-4c55-89a2-6a72e5084dc1","system_id":"levelo_inurba_marseille","lat":43.337444,"lon":5.374475,"is_reserved":false,"is_disabled":false,"rental_uris":{"android":"levelo://app?vid=15462ef7-c093-4c55-89a2-6a72e5084dc1","ios":"levelo://app?vid=15462ef7-c093-4c55-89a2-6a72e5084dc1"},"vehicle_type_id":"4","last_reported":1731665402,"current_range_meters":22000,"station_id":"","pricing_plan_id":"cebpf4jnsgd1na2vs0mg"},{"bike_id":"c40b621d-7d62-4ee0-97f1-b449423207cc","system_id":"levelo_inurba_marseille","lat":43.25579,"lon":5.38245,"is_reserved":false,"is_disabled":false,"rental_uris":{"android":"levelo://app?vid=c40b621d-7d62-4ee0-97f1-b449423207cc","ios":"levelo://app?vid=c40b621d-7d62-4ee0-97f1-b449423207cc"},"vehicle_type_id":"4","last_reported":1731665402,"current_range_meters":6400,"station_id":"ce4bhih2rcd13ifvqfs0","pricing_plan_id":"cebpf4jnsgd1na2vs0mg"},{"bike_id":"da3dd686-0685-436f-847a-8d878c0670e9","system_id":"levelo_inurba_marseille","lat":43.30185,"lon":5.36613,"is_reserved":false,"is_disabled":false,"rental_uris":{"android":"levelo://app?vid=da3dd686-0685-436f-847a-8d878c0670e9","ios":"levelo://app?vid=da3dd686-0685-436f-847a-8d878c0670e9"},"vehicle_type_id":"4","last_reported":1731665402,"current_range_meters":38800,"station_id":"ce4bgrh2rcd13ifvqc8g","pricing_plan_id":"cebpf4jnsgd1na2vs0mg"},{"bike_id":"73c187df-f444-486b-8c09-6b89cc0b88b4","system_id":"levelo_inurba_marseille","lat":43.31709,"lon":5.3775,"is_reserved":false,"is_disabled":false,"rental_uris":{"android":"levelo://app?vid=73c187df-f444-486b-8c09-6b89cc0b88b4","ios":"levelo://app?vid=73c187df-f444-486b-8c09-6b89cc0b88b4"},"vehicle_type_id":"4","last_reported":1731665402,"current_range_meters":28000,"station_id":"ce4bgth2rcd13ifvqch0","pricing_plan_id":"cebpf4jnsgd1na2vs0mg"},{"bike_id":"fb99fb82-1c03-4526-b862-280bcf8ac70c","system_id":"levelo_inurba_marseille","lat":43.23972,"lon":5.36631,"is_reserved":false,"is_disabled":false,"rental_uris":{"android":"levelo://app?vid=fb99fb82-1c03-4526-b862-280bcf8ac70c","ios":"levelo://app?vid=fb99fb82-1c03-4526-b862-280bcf8ac70c"},"vehicle_type_id":"4","last_reported":1731665402,"current_range_meters":16400,"station_id":"ce4bhi12rcd13ifvqfp0","pricing_plan_id":"cebpf4jnsgd1na2vs0mg"},{"bike_id":"e8312b5c-f2d3-4384-bc25-53e8fdd11988","system_id":"levelo_inurba_marseille","lat":43.31345,"lon":5.36717,"is_reserved":false,"is_disabled":false,"rental_uris":{"android":"levelo://app?vid=e8312b5c-f2d3-4384-bc25-53e8fdd11988","ios":"levelo://app?vid=e8312b5c-f2d3-4384-bc25-53e8fdd11988"},"vehicle_type_id":"4","last_reported":1731665402,"current_range_meters":11200,"station_id":"ce4bgr92rcd13ifvqc6g","pricing_plan_id":"cebpf4jnsgd1na2vs0mg"},{"bike_id":"1ae8fe75-00ad-479b-a755-74d45d76bfbe","system_id":"levelo_inurba_marseille","lat":43.24168,"lon":5.36402,"is_reserved":false,"is_disabled":false,"rental_uris":{"android":"levelo://app?vid=1ae8fe75-00ad-479b-a755-74d45d76bfbe","ios":"levelo://app?vid=1ae8fe75-00ad-479b-a755-74d45d76bfbe"},"vehicle_type_id":"4","last_reported":1731665402,"current_range_meters":12000,"station_id":"cpo36qri1sfpv3e86is0","pricing_plan_id":"cebpf4jnsgd1na2vs0mg"},{"bike_id":"b1d217cb-6370-4db2-b58b-9ca4bc6ade68","system_id":"levelo_inurba_marseille","lat":43.29939,"lon":5.36554,"is_reserved":false,"is_disabled":false,"rental_uris":{"android":"levelo://app?vid=b1d217cb-6370-4db2-b58b-9ca4bc6ade68","ios":"levelo://app?vid=b1d217cb-6370-4db2-b58b-9ca4bc6ade68"},"vehicle_type_id":"4","last_reported":1731665402,"current_range_meters":23200,"station_id":"ce4bgm92rcd13ifvqbr0","pricing_plan_id":"cebpf4jnsgd1na2vs0mg"},{"bike_id":"d1e78170-5fa0-4c6d-80de-47b3f2d87661","system_id":"levelo_inurba_marseille","lat":43.30288,"lon":5.376976,"is_reserved":false,"is_disabled":false,"rental_uris":{"android":"levelo://app?vid=d1e78170-5fa0-4c6d-80de-47b3f2d87661","ios":"levelo://app?vid=d1e78170-5fa0-4c6d-80de-47b3f2d87661"},"vehicle_type_id":"4","last_reported":1731665402,"current_range_meters":26000,"station_id":"ce4bguh2rcd13ifvqcj0","pricing_plan_id":"cebpf4jnsgd1na2vs0mg"},{"bike_id":"bb335ce8-237c-4afb-a077-43cbff4664c9","system_id":"levelo_inurba_marseille","lat":43.26681,"lon":5.38272,"is_reserved":false,"is_disabled":false,"rental_uris":{"android":"levelo://app?vid=bb335ce8-237c-4afb-a077-43cbff4664c9","ios":"levelo://app?vid=bb335ce8-237c-4afb-a077-43cbff4664c9"},"vehicle_type_id":"4","last_reported":1731665402,"current_range_meters":38800,"station_id":"ce4bhg92rcd13ifvqf90","pricing_plan_id":"cebpf4jnsgd1na2vs0mg"},{"bike_id":"92ac4858-87d6-4ceb-8f6e-004635a816a8","system_id":"levelo_inurba_marseille","lat":43.2779,"lon":5.40727,"is_reserved":false,"is_disabled":false,"rental_uris":{"android":"levelo://app?vid=92ac4858-87d6-4ceb-8f6e-004635a816a8","ios":"levelo://app?vid=92ac4858-87d6-4ceb-8f6e-004635a816a8"},"vehicle_type_id":"4","last_reported":1731665402,"current_range_meters":36800,"station_id":"ce4bhnh2rcd13ifvqgtg","pricing_plan_id":"cebpf4jnsgd1na2vs0mg"},{"bike_id":"858528d4-fae9-4585-9010-8c31b371a06e","system_id":"levelo_inurba_marseille","lat":43.27321,"lon":5.39084,"is_reserved":false,"is_disabled":false,"rental_uris":{"android":"levelo://app?vid=858528d4-fae9-4585-9010-8c31b371a06e","ios":"levelo://app?vid=858528d4-fae9-4585-9010-8c31b371a06e"},"vehicle_type_id":"4","last_reported":1731665402,"current_range_meters":19200,"station_id":"ce4bhgp2rcd13ifvqfe0","pricing_plan_id":"cebpf4jnsgd1na2vs0mg"},{"bike_id":"16c431de-b128-4380-a727-8a0a0eba5b1b","system_id":"levelo_inurba_marseille","lat":43.24389,"lon":5.37048,"is_reserved":false,"is_disabled":false,"rental_uris":{"android":"levelo://app?vid=16c431de-b128-4380-a727-8a0a0eba5b1b","ios":"levelo://app?vid=16c431de-b128-4380-a727-8a0a0eba5b1b"},"vehicle_type_id":"4","last_reported":1731665402,"current_range_meters":40000,"station_id":"ce4bhhh2rcd13ifvqfk0","pricing_plan_id":"cebpf4jnsgd1na2vs0mg"},{"bike_id":"d37a5777-a5f5-4b7f-b7f5-a1dae307da91","system_id":"levelo_inurba_marseille","lat":43.23192,"lon":5.35559,"is_reserved":false,"is_disabled":false,"rental_uris":{"android":"levelo://app?vid=d37a5777-a5f5-4b7f-b7f5-a1dae307da91","ios":"levelo://app?vid=d37a5777-a5f5-4b7f-b7f5-a1dae307da91"},"vehicle_type_id":"4","last_reported":1731665402,"current_range_meters":36800,"station_id":"ce4bhu92rcd13ifvqi70","pricing_plan_id":"cebpf4jnsgd1na2vs0mg"},{"bike_id":"728ade70-3726-40ee-9cc5-2f1d3904ab4c","system_id":"levelo_inurba_marseille","lat":43.31695,"lon":5.40466,"is_reserved":false,"is_disabled":false,"rental_uris":{"android":"levelo://app?vid=728ade70-3726-40ee-9cc5-2f1d3904ab4c","ios":"levelo://app?vid=728ade70-3726-40ee-9cc5-2f1d3904ab4c"},"vehicle_type_id":"4","last_reported":1731665402,"current_range_meters":21600,"station_id":"ce4bh012rcd13ifvqd00","pricing_plan_id":"cebpf4jnsgd1na2vs0mg"},{"bike_id":"edad222f-4866-410d-8c74-ff4dc3177eee","system_id":"levelo_inurba_marseille","lat":43.31354,"lon":5.38501,"is_reserved":false,"is_disabled":false,"rental_uris":{"android":"levelo://app?vid=edad222f-4866-410d-8c74-ff4dc3177eee","ios":"levelo://app?vid=edad222f-4866-410d-8c74-ff4dc3177eee"},"vehicle_type_id":"4","last_reported":1731665402,"current_range_meters":35600,"station_id":"ce4bgt92rcd13ifvqcf0","pricing_plan_id":"cebpf4jnsgd1na2vs0mg"},{"bike_id":"7d52319e-2faa-4103-93e2-b893558f71f3","system_id":"levelo_inurba_marseille","lat":43.30157,"lon":5.38083,"is_reserved":false,"is_disabled":false,"rental_uris":{"android":"levelo://app?vid=7d52319e-2faa-4103-93e2-b893558f71f3","ios":"levelo://app?vid=7d52319e-2faa-4103-93e2-b893558f71f3"},"vehicle_type_id":"4","last_reported":1731665402,"current_range_meters":28400,"station_id":"ce4bgjp2rcd13ifvqbh0","pricing_plan_id":"cebpf4jnsgd1na2vs0mg"},{"bike_id":"d68c2883-200d-45fc-a63f-149f16accfbb","system_id":"levelo_inurba_marseille","lat":43.24182,"lon":5.39724,"is_reserved":false,"is_disabled":false,"rental_uris":{"android":"levelo://app?vid=d68c2883-200d-45fc-a63f-149f16accfbb","ios":"levelo://app?vid=d68c2883-200d-45fc-a63f-149f16accfbb"},"vehicle_type_id":"4","last_reported":1731665402,"current_range_meters":8800,"station_id":"ce4bhn12rcd13ifvqgpg","pricing_plan_id":"cebpf4jnsgd1na2vs0mg"},{"bike_id":"674b0e8f-8c9e-4c11-a204-160fb5dcf762","system_id":"levelo_inurba_marseille","lat":43.24388,"lon":5.37054,"is_reserved":false,"is_disabled":false,"rental_uris":{"android":"levelo://app?vid=674b0e8f-8c9e-4c11-a204-160fb5dcf762","ios":"levelo://app?vid=674b0e8f-8c9e-4c11-a204-160fb5dcf762"},"vehicle_type_id":"4","last_reported":1731665402,"current_range_meters":40000,"station_id":"ce4bhhh2rcd13ifvqfk0","pricing_plan_id":"cebpf4jnsgd1na2vs0mg"},{"bike_id":"6e60504c-569a-4e94-9954-9085cbba6c20","system_id":"levelo_inurba_marseille","lat":43.27324,"lon":5.39066,"is_reserved":false,"is_disabled":false,"rental_uris":{"android":"levelo://app?vid=6e60504c-569a-4e94-9954-9085cbba6c20","ios":"levelo://app?vid=6e60504c-569a-4e94-9954-9085cbba6c20"},"vehicle_type_id":"4","last_reported":1731665402,"current_range_meters":30400,"station_id":"ce4bhgp2rcd13ifvqfe0","pricing_plan_id":"cebpf4jnsgd1na2vs0mg"},{"bike_id":"139d00fc-e67b-449a-9fd4-0db893561dc2","system_id":"levelo_inurba_marseille","lat":43.33777,"lon":5.37471,"is_reserved":false,"is_disabled":false,"rental_uris":{"android":"levelo://app?vid=139d00fc-e67b-449a-9fd4-0db893561dc2","ios":"levelo://app?vid=139d00fc-e67b-449a-9fd4-0db893561dc2"},"vehicle_type_id":"4","last_reported":1731665402,"current_range_meters":36400,"station_id":"","pricing_plan_id":"cebpf4jnsgd1na2vs0mg"},{"bike_id":"9a2fd9f5-e6f0-4451-bce7-490ba3b214c2","system_id":"levelo_inurba_marseille","lat":43.33611,"lon":5.41033,"is_reserved":false,"is_disabled":false,"rental_uris":{"android":"levelo://app?vid=9a2fd9f5-e6f0-4451-bce7-490ba3b214c2","ios":"levelo://app?vid=9a2fd9f5-e6f0-4451-bce7-490ba3b214c2"},"vehicle_type_id":"4","last_reported":1731665402,"current_range_meters":28000,"station_id":"ce4bhqh2rcd13ifvqhmg","pricing_plan_id":"cebpf4jnsgd1na2vs0mg"},{"bike_id":"faeb0115-051f-4da1-be55-f858aa021f49","system_id":"levelo_inurba_marseille","lat":43.27988,"lon":5.41661,"is_reserved":false,"is_disabled":false,"rental_uris":{"android":"levelo://app?vid=faeb0115-051f-4da1-be55-f858aa021f49","ios":"levelo://app?vid=faeb0115-051f-4da1-be55-f858aa021f49"},"vehicle_type_id":"4","last_reported":1731665402,"current_range_meters":16800,"station_id":"ce4bho12rcd13ifvqh1g","pricing_plan_id":"cebpf4jnsgd1na2vs0mg"},{"bike_id":"0248f019-9f80-4ee7-84ca-7c16264fe0ba","system_id":"levelo_inurba_marseille","lat":43.28709,"lon":5.39997,"is_reserved":false,"is_disabled":false,"rental_uris":{"android":"levelo://app?vid=0248f019-9f80-4ee7-84ca-7c16264fe0ba","ios":"levelo://app?vid=0248f019-9f80-4ee7-84ca-7c16264fe0ba"},"vehicle_type_id":"4","last_reported":1731665402,"current_range_meters":29600,"station_id":"ce4bho92rcd13ifvqh3g","pricing_plan_id":"cebpf4jnsgd1na2vs0mg"},{"bike_id":"f16df411-64d4-4fb9-bc4b-6d204f7a20be","system_id":"levelo_inurba_marseille","lat":43.27325,"lon":5.39096,"is_reserved":false,"is_disabled":false,"rental_uris":{"android":"levelo://app?vid=f16df411-64d4-4fb9-bc4b-6d204f7a20be","ios":"levelo://app?vid=f16df411-64d4-4fb9-bc4b-6d204f7a20be"},"vehicle_type_id":"4","last_reported":1731665402,"current_range_meters":38800,"station_id":"ce4bhgp2rcd13ifvqfe0","pricing_plan_id":"cebpf4jnsgd1na2vs0mg"},{"bike_id":"98121d5f-01e5-45e8-a04a-1b8c07d4a29c","system_id":"levelo_inurba_marseille","lat":43.23956,"lon":5.36635,"is_reserved":false,"is_disabled":false,"rental_uris":{"android":"levelo://app?vid=98121d5f-01e5-45e8-a04a-1b8c07d4a29c","ios":"levelo://app?vid=98121d5f-01e5-45e8-a04a-1b8c07d4a29c"},"vehicle_type_id":"4","last_reported":1731665402,"current_range_meters":14000,"station_id":"ce4bhi12rcd13ifvqfp0","pricing_plan_id":"cebpf4jnsgd1na2vs0mg"},{"bike_id":"a2093831-6093-4959-a0f7-dab6a243ed02","system_id":"levelo_inurba_marseille","lat":43.31221,"lon":5.3685,"is_reserved":false,"is_disabled":false,"rental_uris":{"android":"levelo://app?vid=a2093831-6093-4959-a0f7-dab6a243ed02","ios":"levelo://app?vid=a2093831-6093-4959-a0f7-dab6a243ed02"},"vehicle_type_id":"4","last_reported":1731665402,"current_range_meters":40000,"station_id":"ce4bgl92rcd13ifvqbq0","pricing_plan_id":"cebpf4jnsgd1na2vs0mg"},