{"last_updated":1753780622,"ttl":60,"version":"2.2","data":{"bikes":[{"bike_id":"b0335d04-8392-42c0-8945-5591783777c5","system_id":"levelo_inurba_marseille","lat":43.26212,"lon":5.37442,"is_reserved":false,"is_disabled":false,"rental_uris":{"android":"levelo://app?vid=b0335d04-8392-42c0-8945-5591783777c5","ios":"levelo://app?vid=b0335d04-8392-42c0-8945-5591783777c5"},"vehicle_type_id":"4","last_reported":1753780622,"current_range_meters":2800,"station_id":"ce4bhgp2rcd13ifvqfc0","pricing_plan_id":"cebpf4jnsgd1na2vs0mg"},{"bike_id":"91c7ece4-f393-42f0-9906-088664e4b4bd","system_id":"levelo_inurba_marseille","lat":43.27839,"lon":5.39211,"is_reserved":false,"is_disabled":false,"rental_uris":{"android":"levelo://app?vid=91c7ece4-f393-42f0-9906-088664e4b4bd","ios":"levelo://app?vid=91c7ece4-f393-42f0-9906-088664e4b4bd"},"vehicle_type_id":"4","last_reported":1753780622,"current_range_meters":2000,"station_id":"ce4bhjp2rcd13ifvqga0","pricing_plan_id":"cebpf4jnsgd1na2vs0mg"},{"bike_id":"ced264b1-febe-4a94-aad1-580d02f025bd","system_id":"levelo_inurba_marseille","lat":43.298615,"lon":5.397299,"is_reserved":false,"is_disabled":false,"rental_uris":{"android":"levelo://app?vid=ced264b1-febe-4a94-aad1-580d02f025bd","ios":"levelo://app?vid=ced264b1-febe-4a94-aad1-580d02f025bd"},"vehicle_type_id":"4","last_reported":1753780622,"current_range_meters":3200,"station_id":"ce4bh0h2rcd13ifvqd50","pricing_plan_id":"cebpf4jnsgd1na2vs0mg"},{"bike_id":"198a8a48-9082-408a-ac7c-20dca32fbf4e","system_id":"levelo_inurba_marseille","lat":43.3204,"lon":5.40963,"is_reserved":false,"is_disabled":true,"rental_uris":{"android":"levelo://app?vid=198a8a48-9082-408a-ac7c-20dca32fbf4e","ios":"levelo://app?vid=198a8a48-9082-408a-ac7c-20dca32fbf4e"},"vehicle_type_id":"4","last_reported":1753780622,"current_range_meters":3200,"station_id":"","pricing_plan_id":"cebpf4jnsgd1na2vs0mg"},{"bike_id":"4ec96cd7-55e1-4969-a86f-324e9add7f1a","system_id":"levelo_inurba_marseille","lat":43.29551,"lon":5.37528,"is_reserved":false,"is_disabled":false,"rental_uris":{"android":"levelo://app?vid=4ec96cd7-55e1-4969-a86f-324e9add7f1a","ios":"levelo://app?vid=4ec96cd7-55e1-4969-a86f-324e9add7f1a"},"vehicle_type_id":"4","last_reported":1753780622,"current_range_meters":3600,"station_id":"ce4bgh92rcd13ifvqb50","pricing_plan_id":"cebpf4jnsgd1na2vs0mg"},{"bike_id":"1b039ae0-bd90-4af5-b917-f9e20c56f19e","system_id":"levelo_inurba_marseille","lat":43.29901,"lon":5.3864,"is_reserved":false,"is_disabled":true,"rental_uris":{"android":"levelo://app?vid=1b039ae0-bd90-4af5-b917-f9e20c56f19e","ios":"levelo://app?vid=1b039ae0-bd90-4af5-b917-f9e20c56f19e"},"vehicle_type_id":"4","last_reported":1753780622,"current_range_meters":3600,"station_id":"","pricing_plan_id":"cebpf4jnsgd1na2vs0mg"},{"bike_id":"1d970d26-f67c-4f81-9894-93c58c022bb1","system_id":"levelo_inurba_marseille","lat":43.28723,"lon":5.38675,"is_reserved":false,"is_disabled":false,"rental_uris":{"android":"levelo://app?vid=1d970d26-f67c-4f81-9894-93c58c022bb1","ios":"levelo://app?vid=1d970d26-f67c-4f81-9894-93c58c022bb1"},"vehicle_type_id":"4","last_reported":1753780622,"current_range_meters":4000,"station_id":"ce4bh492rcd13ifvqdug","pricing_plan_id":"cebpf4jnsgd1na2vs0mg"},{"bike_id":"16c6ac9b-1f47-4108-9866-f88d1f2ebac1","system_id":"levelo_inurba_marseille","lat":43.23156,"lon":5.43753,"is_reserved":false,"is_disabled":false,"rental_uris":{"android":"levelo://app?vid=16c6ac9b-1f47-4108-9866-f88d1f2ebac1","ios":"levelo://app?vid=16c6ac9b-1f47-4108-9866-f88d1f2ebac1"},"vehicle_type_id":"4","last_reported":1753780622,"current_range_meters":4000,"station_id":"ce4bhmp2rcd13ifvqgog","pricing_plan_id":"cebpf4jnsgd1na2vs0mg"},{"bike_id":"57d2148b-4900-48dc-9253-f8ca7d2e9d8a","system_id":"levelo_inurba_marseille","lat":43.303122,"lon":5.405017,"is_reserved":false,"is_disabled":false,"rental_uris":{"android":"levelo://app?vid=57d2148b-4900-48dc-9253-f8ca7d2e9d8a","ios":"levelo://app?vid=57d2148b-4900-48dc-9253-f8ca7d2e9d8a"},"vehicle_type_id":"4","last_reported":1753780622,"current_range_meters":4000,"station_id":"","pricing_plan_id":"cebpf4jnsgd1na2vs0mg"},{"bike_id":"da055bef-84ba-4631-8505-4d6c32ae805a","system_id":"levelo_inurba_marseille","lat":43.27423,"lon":5.39424,"is_reserved":false,"is_disabled":false,"rental_uris":{"android":"levelo://app?vid=da055bef-84ba-4631-8505-4d6c32ae805a","ios":"levelo://app?vid=da055bef-84ba-4631-8505-4d6c32ae805a"},"vehicle_type_id":"4","last_reported":1753780622,"current_range_meters":4800,"station_id":"ce4bhdp2rcd13ifvqf20","pricing_plan_id":"cebpf4jnsgd1na2vs0mg"},{"bike_id":"463e03fe-b9b0-4212-a764-9bd6d78e3c2e","system_id":"levelo_inurba_marseille","lat":43.31014,"lon":5.38137,"is_reserved":false,"is_disabled":true,"rental_uris":{"android":"levelo://app?vid=463e03fe-b9b0-4212-a764-9bd6d78e3c2e","ios":"levelo://app?vid=463e03fe-b9b0-4212-a764-9bd6d78e3c2e"},"vehicle_type_id":"4","last_reported":1753780622,"current_range_meters":4800,"station_id":"","pricing_plan_id":"cebpf4jnsgd1na2vs0mg"},{"bike_id":"25a15290-9a6e-4be4-97e8-211e46bf4337","system_id":"levelo_inurba_marseille","lat":43.32272,"lon":5.38281,"is_reserved":false,"is_disabled":false,"rental_uris":{"android":"levelo://app?vid=25a15290-9a6e-4be4-97e8-211e46bf4337","ios":"levelo://app?vid=25a15290-9a6e-4be4-97e8-211e46bf4337"},"vehicle_type_id":"4","last_reported":1753780622,"current_range_meters":4800,"station_id":"ce4bhr12rcd13ifvqhqg","pricing_plan_id":"cebpf4jnsgd1na2vs0mg"},{"bike_id":"da0dea9a-07a2-4249-aa7c-2489e28d40de","system_id":"levelo_inurba_marseille","lat":43.29657,"lon":5.36197,"is_reserved":false,"is_disabled":false,"rental_uris":{"android":"levelo://app?vid=da0dea9a-07a2-4249-aa7c-2489e28d40de","ios":"levelo://app?vid=da0dea9a-07a2-4249-aa7c-2489e28d40de"},"vehicle_type_id":"4","last_reported":1753780622,"current_range_meters":6000,"station_id":"","pricing_plan_id":"cebpf4jnsgd1na2vs0mg"},{"bike_id":"777503a5-52d2-456f-ae28-9a6f34f07244","system_id":"levelo_inurba_marseille","lat":43.24809,"lon":5.37457,"is_reserved":false,"is_disabled":false,"rental_uris":{"android":"levelo://app?vid=777503a5-52d2-456f-ae28-9a6f34f07244","ios":"levelo://app?vid=777503a5-52d2-456f-ae28-9a6f34f07244"},"vehicle_type_id":"4","last_reported":1753780622,"current_range_meters":6000,"station_id":"ce4bhgh2rcd13ifvqfb0","pricing_plan_id":"cebpf4jnsgd1na2vs0mg"},{"bike_id":"5a67886b-2f40-46df-b0be-1179491cb0a7","system_id":"levelo_inurba_marseille","lat":43.299683,"lon":5.386239,"is_reserved":false,"is_disabled":false,"rental_uris":{"android":"levelo://app?vid=5a67886b-2f40-46df-b0be-1179491cb0a7","ios":"levelo://app?vid=5a67886b-2f40-46df-b0be-1179491cb0a7"},"vehicle_type_id":"4","last_reported":1753780622,"current_range_meters":6400,"station_id":"","pricing_plan_id":"cebpf4jnsgd1na2vs0mg"},{"bike_id":"bf295fbf-1f72-4e1a-a8f1-f319bb5fd736","system_id":"levelo_inurba_marseille","lat":43.29314,"lon":5.37035,"is_reserved":false,"is_disabled":false,"rental_uris":{"android":"levelo://app?vid=bf295fbf-1f72-4e1a-a8f1-f319bb5fd736","ios":"levelo://app?vid=bf295fbf-1f72-4e1a-a8f1-f319bb5fd736"},"vehicle_type_id":"4","last_reported":1753780622,"current_range_meters":6400,"station_id":"","pricing_plan_id":"cebpf4jnsgd1na2vs0mg"},{"bike_id":"952ac1ad-c93e-468f-9757-2dc9139a6ef9","system_id":"levelo_inurba_marseille","lat":43.28467,"lon":5.35894,"is_reserved":false,"is_disabled":false,"rental_uris":{"android":"levelo://app?vid=952ac1ad-c93e-468f-9757-2dc9139a6ef9","ios":"levelo://app?vid=952ac1ad-c93e-468f-9757-2dc9139a6ef9"},"vehicle_type_id":"4","last_reported":1753780622,"current_range_meters":6400,"station_id":"ce4bhah2rcd13ifvqei0","pricing_plan_id":"cebpf4jnsgd1na2vs0mg"},{"bike_id":"7eb5587c-cb0d-4f70-a221-0a702baacad8","system_id":"levelo_inurba_marseille","lat":43.315,"lon":5.37321,"is_reserved":false,"is_disabled":false,"rental_uris":{"android":"levelo://app?vid=7eb5587c-cb0d-4f70-a221-0a702baacad8","ios":"levelo://app?vid=7eb5587c-cb0d-4f70-a221-0a702baacad8"},"vehicle_type_id":"4","last_reported":1753780622,"current_range_meters":6400,"station_id":"ce4bgt12rcd13ifvqcd0","pricing_plan_id":"cebpf4jnsgd1na2vs0mg"},{"bike_id":"70b41f30-5c75-465a-a34c-ab79fee52c9a","system_id":"levelo_inurba_marseille","lat":43.28921,"lon":5.38417,"is_reserved":false,"is_disabled":false,"rental_uris":{"android":"levelo://app?vid=70b41f30-5c75-465a-a34c-ab79fee52c9a","ios":"levelo://app?vid=70b41f30-5c75-465a-a34c-ab79fee52c9a"},"vehicle_type_id":"4","last_reported":1753780622,"current_range_meters":6800,"station_id":"ce4bh612rcd13ifvqe6g","pricing_plan_id":"cebpf4jnsgd1na2vs0mg"},{"bike_id":"6cb11f4f-f451-4a1b-a7c5-61054d6b97f6","system_id":"levelo_inurba_marseille","lat":43.23674,"lon":5.40971,"is_reserved":false,"is_disabled":false,"rental_uris":{"android":"levelo://app?vid=6cb11f4f-f451-4a1b-a7c5-61054d6b97f6","ios":"levelo://app?vid=6cb11f4f-f451-4a1b-a7c5-61054d6b97f6"},"vehicle_type_id":"4","last_reported":1753780622,"current_range_meters":6800,"station_id":"","pricing_plan_id":"cebpf4jnsgd1na2vs0mg"},{"bike_id":"fb45cff3-08fa-4cc9-bf53-0d8295f6b8d1","system_id":"levelo_inurba_marseille","lat":43.27866,"lon":5.42831,"is_reserved":false,"is_disabled":false,"rental_uris":{"android":"levelo://app?vid=fb45cff3-08fa-4cc9-bf53-0d8295f6b8d1","ios":"levelo://app?vid=fb45cff3-08fa-4cc9-bf53-0d8295f6b8d1"},"vehicle_type_id":"4","last_reported":1753780622,"current_range_meters":7200,"station_id":"","pricing_plan_id":"cebpf4jnsgd1na2vs0mg"},{"bike_id":"45388ec2-015c-41a6-89f8-2443c9d299f1","system_id":"levelo_inurba_marseille","lat":43.22931,"lon":5.35373,"is_reserved":false,"is_disabled":false,"rental_uris":{"android":"levelo://app?vid=45388ec2-015c-41a6-89f8-2443c9d299f1","ios":"levelo://app?vid=45388ec2-015c-41a6-89f8-2443c9d299f1"},"vehicle_type_id":"4","last_reported":1753780622,"current_range_meters":7200,"station_id":"cpo3532slgdg3j2ikp40","pricing_plan_id":"cebpf4jnsgd1na2vs0mg"},{"bike_id":"b72eb64e-5585-44e9-946b-2f35e42c8259","system_id":"levelo_inurba_marseille","lat":43.30144,"lon":5.39864,"is_reserved":false,"is_disabled":false,"rental_uris":{"android":"levelo://app?vid=b72eb64e-5585-44e9-946b-2f35e42c8259","ios":"levelo://app?vid=b72eb64e-5585-44e9-946b-2f35e42c8259"},"vehicle_type_id":"4","last_reported":1753780622,"current_range_meters":7200,"station_id":"ce4bh0h2rcd13ifvqd40","pricing_plan_id":"cebpf4jnsgd1na2vs0mg"},{"bike_id":"20637d19-a8a0-422b-a211-52bc9b2625d6","system_id":"levelo_inurba_marseille","lat":43.311144,"lon":5.377637,"is_reserved":false,"is_disabled":false,"rental_uris":{"android":"levelo://app?vid=20637d19-a8a0-422b-a211-52bc9b2625d6","ios":"levelo://app?vid=20637d19-a8a0-422b-a211-52bc9b2625d6"},"vehicle_type_id":"4","last_reported":1753780622,"current_range_meters":7200,"station_id":"ce4bgt92rcd13ifvqcg0","pricing_plan_id":"cebpf4jnsgd1na2vs0mg"},{"bike_id":"3152576e-d602-4c3f-980e-717f41aed773","system_id":"levelo_inurba_marseille","lat":43.33737,"lon":5.37465,"is_reserved":false,"is_disabled":false,"rental_uris":{"android":"levelo://app?vid=3152576e-d602-4c3f-980e-717f41aed773","ios":"levelo://app?vid=3152576e-d602-4c3f-980e-717f41aed773"},"vehicle_type_id":"4","last_reported":1753780622,"current_range_meters":7200,"station_id":"","pricing_plan_id":"cebpf4jnsgd1na2vs0mg"},{"bike_id":"f33c36f7-2a48-435d-a3f9-42272441c5de","system_id":"levelo_inurba_marseille","lat":43.30911,"lon":5.36844,"is_reserved":false,"is_disabled":false,"rental_uris":{"android":"levelo://app?vid=f33c36f7-2a48-435d-a3f9-42272441c5de","ios":"levelo://app?vid=f33c36f7-2a48-435d-a3f9-42272441c5de"},"vehicle_type_id":"4","last_reported":1753780622,"current_range_meters":8000,"station_id":"ce4bgn92rcd13ifvqbvg","pricing_plan_id":"cebpf4jnsgd1na2vs0mg"},{"bike_id":"93f5d5a7-bb0a-4907-8041-d46384725889","system_id":"levelo_inurba_marseille","lat":43.31701,"lon":5.4052,"is_reserved":false,"is_disabled":false,"rental_uris":{"android":"levelo://app?vid=93f5d5a7-bb0a-4907-8041-d46384725889","ios":"levelo://app?vid=93f5d5a7-bb0a-4907-8041-d46384725889"},"vehicle_type_id":"4","last_reported":1753780622,"current_range_meters":8000,"station_id":"ce4bh012rcd13ifvqd00","pricing_plan_id":"cebpf4jnsgd1na2vs0mg"},{"bike_id":"f078f85b-29cc-469a-b7a1-13876bebe32b","system_id":"levelo_inurba_marseille","lat":43.295789,"lon":5.367445,"is_reserved":false,"is_disabled":false,"rental_uris":{"android":"levelo://app?vid=f078f85b-29cc-469a-b7a1-13876bebe32b","ios":"levelo://app?vid=f078f85b-29cc-469a-b7a1-13876bebe32b"},"vehicle_type_id":"4","last_reported":1753780622,"current_range_meters":8000,"station_id":"ce4bgph2rcd13ifvqc2g","pricing_plan_id":"cebpf4jnsgd1na2vs0mg"},{"bike_id":"386bbb7b-9fb3-402e-b95c-0e58e0b623fd","system_id":"levelo_inurba_marseille","lat":43.30155,"lon":5.38071,"is_reserved":false,"is_disabled":false,"rental_uris":{"android":"levelo://app?vid=386bbb7b-9fb3-402e-b95c-0e58e0b623fd","ios":"levelo://app?vid=386bbb7b-9fb3-402e-b95c-0e58e0b623fd"},"vehicle_type_id":"4","last_reported":1753780622,"current_range_meters":8000,"station_id":"ce4bgjp2rcd13ifvqbh0","pricing_plan_id":"cebpf4jnsgd1na2vs0mg"},{"bike_id":"a90e5de9-9b84-4371-b1b4-ee1fc1c0d663","system_id":"levelo_inurba_marseille","lat":43.29936,"lon":5.37456,"is_reserved":false,"is_disabled":false,"rental_uris":{"android":"levelo://app?vid=a90e5de9-9b84-4371-b1b4-ee1fc1c0d663","ios":"levelo://app?vid=a90e5de9-9b84-4371-b1b4-ee1fc1c0d663"},"vehicle_type_id":"4","last_reported":1753780622,"current_range_meters":8000,"station_id":"ce4bgjh2rcd13ifvqbg0","pricing_plan_id":"cebpf4jnsgd1na2vs0mg"},{"bike_id":"e114cd4b-5a0a-4c14-8260-0b3e62fd27a1","system_id":"levelo_inurba_marseille","lat":43.28622,"lon":5.3511,"is_reserved":false,"is_disabled":false,"rental_uris":{"android":"levelo://app?vid=e114cd4b-5a0a-4c14-8260-0b3e62fd27a1","ios":"levelo://app?vid=e114cd4b-5a0a-4c14-8260-0b3e62fd27a1"},"vehicle_type_id":"4","last_reported":1753780622,"current_range_meters":8400,"station_id":"ce4bhch2rcd13ifvqeug","pricing_plan_id":"cebpf4jnsgd1na2vs0mg"},{"bike_id":"1445f80b-1567-436e-9927-87993c5dfa14","system_id":"levelo_inurba_marseille","lat":43.29293,"lon":5.37457,"is_reserved":false,"is_disabled":false,"rental_uris":{"android":"levelo://app?vid=1445f80b-1567-436e-9927-87993c5dfa14","ios":"levelo://app?vid=1445f80b-1567-436e-9927-87993c5dfa14"},"vehicle_type_id":"4","last_reported":1753780622,"current_range_meters":8400,"station_id":"ce4bgi12rcd13ifvqb70","pricing_plan_id":"cebpf4jnsgd1na2vs0mg"},{"bike_id":"6aaedbb2-a4ef-429c-857b-8a6449876539","system_id":"levelo_inurba_marseille","lat":43.23963,"lon":5.36629,"is_reserved":false,"is_disabled":false,"rental_uris":{"android":"levelo://app?vid=6aaedbb2-a4ef-429c-857b-8a6449876539","ios":"levelo://app?vid=6aaedbb2-a4ef-429c-857b-8a6449876539"},"vehicle_type_id":"4","last_reported":1753780622,"current_range_meters":8000,"station_id":"ce4bhi12rcd13ifvqfp0","pricing_plan_id":"cebpf4jnsgd1na2vs0mg"},{"bike_id":"746044fb-607c-4f4d-8858-ac725aa93fb3","system_id":"levelo_inurba_marseille","lat":43.28409,"lon":5.3753,"is_reserved":false,"is_disabled":false,"rental_uris":{"android":"levelo://app?vid=746044fb-607c-4f4d-8858-ac725aa93fb3","ios":"levelo://app?vid=746044fb-607c-4f4d-8858-ac725aa93fb3"},"vehicle_type_id":"4","last_reported":1753780622,"current_range_meters":8400,"station_id":"ce4bh412rcd13ifvqds0","pricing_plan_id":"cebpf4jnsgd1na2vs0mg"},{"bike_id":"8bf2129d-0df0-4a35-ba38-615c802fc22c","system_id":"levelo_inurba_marseille","lat":43.27328,"lon":5.39057,"is_reserved":false,"is_disabled":false,"rental_uris":{"android":"levelo://app?vid=8bf2129d-0df0-4a35-ba38-615c802fc22c","ios":"levelo://app?vid=8bf2129d-0df0-4a35-ba38-615c802fc22c"},"vehicle_type_id":"4","last_reported":1753780622,"current_range_meters":8400,"station_id":"ce4bhgp2rcd13ifvqfe0","pricing_plan_id":"cebpf4jnsgd1na2vs0mg"},{"bike_id":"1708d129-003d-435f-a495-8865411d1a10","system_id":"levelo_inurba_marseille","lat":43.23187,"lon":5.39992,"is_reserved":false,"is_disabled":false,"rental_uris":{"android":"levelo://app?vid=1708d129-003d-435f-a495-8865411d1a10","ios":"levelo://app?vid=1708d129-003d-435f-a495-8865411d1a10"},"vehicle_type_id":"4","last_reported":1753780622,"current_range_meters":8800,"station_id":"ce4bhn12rcd13ifvqgqg","pricing_plan_id":"cebpf4jnsgd1na2vs0mg"},{"bike_id":"bba81057-2c59-44cf-bdcd-30fb0b6be3fb","system_id":"levelo_inurba_marseille","lat":43.25505,"lon":5.37624,"is_reserved":false,"is_disabled":false,"rental_uris":{"android":"levelo://app?vid=bba81057-2c59-44cf-bdcd-30fb0b6be3fb","ios":"levelo://app?vid=bba81057-2c59-44cf-bdcd-30fb0b6be3fb"},"vehicle_type_id":"4","last_reported":1753780622,"current_range_meters":8800,"station_id":"ce4bhh12rcd13ifvqff0","pricing_plan_id":"cebpf4jnsgd1na2vs0mg"},{"bike_id":"85cce63f-d37c-4701-a090-27c577d9b7fd","system_id":"levelo_inurba_marseille","lat":43.310544,"lon":5.400815,"is_reserved":false,"is_disabled":false,"rental_uris":{"android":"levelo://app?vid=85cce63f-d37c-4701-a090-27c577d9b7fd","ios":"levelo://app?vid=85cce63f-d37c-4701-a090-27c577d9b7fd"},"vehicle_type_id":"4","last_reported":1753780622,"current_range_meters":8800,"station_id":"ce4bh092rcd13ifvqd30","pricing_plan_id":"cebpf4jnsgd1na2vs0mg"},{"bike_id":"d6a6df5b-0470-47b8-bbfa-87647304f034","system_id":"levelo_inurba_marseille","lat":43.31356,"lon":5.3672,"is_reserved":false,"is_disabled":false,"rental_uris":{"android":"levelo://app?vid=d6a6df5b-0470-47b8-bbfa-87647304f034","ios":"levelo://app?vid=d6a6df5b-0470-47b8-bbfa-87647304f034"},"vehicle_type_id":"4","last_reported":1753780622,"current_range_meters":8800,"station_id":"ce4bgr92rcd13ifvqc6g","pricing_plan_id":"cebpf4jnsgd1na2vs0mg"},{"bike_id":"35d4431a-83ad-4f70-a807-8dec1887248c","system_id":"levelo_inurba_marseille","lat":43.27063,"lon":5.42276,"is_reserved":false,"is_disabled":false,"rental_uris":{"android":"levelo://app?vid=35d4431a-83ad-4f70-a807-8dec1887248c","ios":"levelo://app?vid=35d4431a-83ad-4f70-a807-8dec1887248c"},"vehicle_type_id":"4","last_reported":1753780622,"current_range_meters":8800,"station_id":"ce4bhk92rcd13ifvqgb0","pricing_plan_id":"cebpf4jnsgd1na2vs0mg"},{"bike_id":"b7dbc990-2740-43c0-85a6-662356794ff0","system_id":"levelo_inurba_marseille","lat":43.30531,"lon":5.36719,"is_reserved":false,"is_disabled":false,"rental_uris":{"android":"levelo://app?vid=b7dbc990-2740-43c0-85a6-662356794ff0","ios":"levelo://app?vid=b7dbc990-2740-43c0-85a6-662356794ff0"},"vehicle_type_id":"4","last_reported":1753780622,"current_range_meters":8800,"station_id":"ce4bgrp2rcd13ifvqc9g","pricing_plan_id":"cebpf4jnsgd1na2vs0mg"},{"bike_id":"fd144613-88c1-41d1-90c4-6f2da4136453","system_id":"levelo_inurba_marseille","lat":43.30377,"lon":5.42486,"is_reserved":false,"is_disabled":false,"rental_uris":{"android":"levelo://app?vid=fd144613-88c1-41d1-90c4-6f2da4136453","ios":"levelo://app?vid=fd144613-88c1-41d1-90c4-6f2da4136453"},"vehicle_type_id":"4","last_reported":1753780622,"current_range_meters":8800,"station_id":"ce4bhoh2rcd13ifvqh6g","pricing_plan_id":"cebpf4jnsgd1na2vs0mg"},{"bike_id":"eb92ee23-0747-41d5-ae36-9cf2105c1a18","system_id":"levelo_inurba_marseille","lat":43.287287,"lon":5.400202,"is_reserved":false,"is_disabled":false,"rental_uris":{"android":"levelo://app?vid=eb92ee23-0747-41d5-ae36-9cf2105c1a18","ios":"levelo://app?vid=eb92ee23-0747-41d5-ae36-9cf2105c1a18"},"vehicle_type_id":"4","last_reported":1753780622,"current_range_meters":8400,"station_id":"ce4bho92rcd13ifvqh3g","pricing_plan_id":"cebpf4jnsgd1na2vs0mg"},{"bike_id":"ccbb9fac-e696-4d8f-807e-dc13b8bf02a0","system_id":"levelo_inurba_marseille","lat":43.28853,"lon":5.3931,"is_reserved":false,"is_disabled":false,"rental_uris":{"android":"levelo://app?vid=ccbb9fac-e696-4d8f-807e-dc13b8bf02a0","ios":"levelo://app?vid=ccbb9fac-e696-4d8f-807e-dc13b8bf02a0"},"vehicle_type_id":"4","last_reported":1753780622,"current_range_meters":9200,"station_id":"ce4bh2p2rcd13ifvqdi0","pricing_plan_id":"cebpf4jnsgd1na2vs0mg"},{"bike_id":"80915a30-ef88-4d81-b5d1-969d1c17a42d","system_id":"levelo_inurba_marseille","lat":43.30431,"lon":5.4083,"is_reserved":false,"is_disabled":false,"rental_uris":{"android":"levelo://app?vid=80915a30-ef88-4d81-b5d1-969d1c17a42d","ios":"levelo://app?vid=80915a30-ef88-4d81-b5d1-969d1c17a42d"},"vehicle_type_id":"4","last_reported":1753780622,"current_range_meters":9200,"station_id":"","pricing_plan_id":"cebpf4jnsgd1na2vs0mg"},{"bike_id":"8e37ef79-bd01-46c2-9d9e-3d3f7741a07a","system_id":"levelo_inurba_marseille","lat":43.297302,"lon":5.374166,"is_reserved":false,"is_disabled":false,"rental_uris":{"android":"levelo://app?vid=8e37ef79-bd01-46c2-9d9e-3d3f7741a07a","ios":"levelo://app?vid=8e37ef79-bd01-46c2-9d9e-3d3f7741a07a"},"vehicle_type_id":"4","last_reported":1753780622,"current_range_meters":9200,"station_id":"","pricing_plan_id":"cebpf4jnsgd1na2vs0mg"},{"bike_id":"37fcf059-83b8-4b6e-bc28-0c83f77e3c05","system_id":"levelo_inurba_marseille","lat":43.337444,"lon":5.374475,"is_reserved":false,"is_disabled":false,"rental_uris":{"android":"levelo://app?vid=37fcf059-83b8-4b6e-bc28-0c83f77e3c05","ios":"levelo://app?vid=37fcf059-83b8-4b6e-bc28-0c83f77e3c05"},"vehicle_type_id":"4","last_reported":1753780622,"current_range_meters":9200,"station_id":"","pricing_plan_id":"cebpf4jnsgd1na2vs0mg"},{"bike_id":"3efe99ad-0b45-4c18-92ca-96f6cb43a670","system_id":"levelo_inurba_marseille","lat":43.32363,"lon":5.36729,"is_reserved":false,"is_disabled":false,"rental_uris":{"android":"levelo://app?vid=3efe99ad-0b45-4c18-92ca-96f6cb43a670","ios":"levelo://app?vid=3efe99ad-0b45-4c18-92ca-96f6cb43a670"},"vehicle_type_id":"4","last_reported":1753780622,"current_range_meters":9200,"station_id":"ce4bhsh2rcd13ifvqi2g","pricing_plan_id":"cebpf4jnsgd1na2vs0mg"},{"bike_id":"84036e62-78c0-42e9-a5c2-ad3d3703bc8c","system_id":"levelo_inurba_marseille","lat":43.27948,"lon":5.41049,"is_reserved":false,"is_disabled":true,"rental_uris":{"android":"levelo://app?vid=84036e62-78c0-42e9-a5c2-ad3d3703bc8c","ios":"levelo://app?vid=84036e62-78c0-42e9-a5c2-ad3d3703bc8c"},"vehicle_type_id":"4","last_reported":1753780622,"current_range_meters":9200,"station_id":"ce4bhnp2rcd13ifvqh0g","pricing_plan_id":"cebpf4jnsgd1na2vs0mg"},{"bike_id":"c85546d4-3ea8-44da-9c2d-e6b7bf575831","system_id":"levelo_inurba_marseille","lat":43.284343,"lon":5.350317,"is_reserved":false,"is_disabled":false,"rental_uris":{"android":"levelo://app?vid=c85546d4-3ea8-44da-9c2d-e6b7bf575831","ios":"levelo://app?vid=c85546d4-3ea8-44da-9c2d-e6b7bf575831"},"vehicle_type_id":"4","last_reported":1753780622,"current_range_meters":9200,"station_id":"ce4bhbh2rcd13ifvqepg","pricing_plan_id":"cebpf4jnsgd1na2vs0mg"},{"bike_id":"209c73e6-1f69-4d13-9fed-77cb46eecd05","system_id":"levelo_inurba_marseille","lat":43.34681,"lon":5.38065,"is_reserved":false,"is_disabled":false,"rental_uris":{"android":"levelo://app?vid=209c73e6-1f69-4d13-9fed-77cb46eecd05","ios":"levelo://app?vid=209c73e6-1f69-4d13-9fed-77cb46eecd05"},"vehicle_type_id":"4","last_reported":1753780622,"current_range_meters":9200,"station_id":"","pricing_plan_id":"cebpf4jnsgd1na2vs0mg"},{"bike_id":"3dddabfb-566b-4525-981e-f94e9915ce4e","system_id":"levelo_inurba_marseille","lat":43.23149,"lon":5.43725,"is_reserved":false,"is_disabled":false,"rental_uris":{"android":"levelo://app?vid=3dddabfb-566b-4525-981e-f94e9915ce4e","ios":"levelo://app?vid=3dddabfb-566b-4525-981e-f94e9915ce4e"},"vehicle_type_id":"4","last_reported":1753780622,"current_range_meters":9200,"station_id":"ce4bhmp2rcd13ifvqgog","pricing_plan_id":"cebpf4jnsgd1na2vs0mg"},{"bike_id":"88711c8e-0d35-4243-828a-d0c18d208246","system_id":"levelo_inurba_marseille","lat":43.28133,"lon":5.42662,"is_reserved":false,"is_disabled":false,"rental_uris":{"android":"levelo://app?vid=88711c8e-0d35-4243-828a-d0c18d208246","ios":"levelo://app?vid=88711c8e-0d35-4243-828a-d0c18d208246"},"vehicle_type_id":"4","last_reported":1753780622,"current_range_meters":9600,"station_id":"ce4bhnh2rcd13ifvqgug","pricing_plan_id":"cebpf4jnsgd1na2vs0mg"},{"bike_id":"05cbfde1-bc8b-4494-8924-fea2291ddb1f","system_id":"levelo_inurba_marseille","lat":43.29551,"lon":5.36579,"is_reserved":false,"is_disabled":false,"rental_uris":{"android":"levelo://app?vid=05cbfde1-bc8b-4494-8924-fea2291ddb1f","ios":"levelo://app?vid=05cbfde1-bc8b-4494-8924-fea2291ddb1f"},"vehicle_type_id":"4","last_reported":1753780622,"current_range_meters":9600,"station_id":"","pricing_plan_id":"cebpf4jnsgd1na2vs0mg"},{"bike_id":"95dd70e4-879c-49e7-b318-a6c71b22a43e","system_id":"levelo_inurba_marseille","lat":43.2703,"lon":5.39295,"is_reserved":false,"is_disabled":false,"rental_uris":{"android":"levelo://app?vid=95dd70e4-879c-49e7-b318-a6c71b22a43e","ios":"levelo://app?vid=95dd70e4-879c-49e7-b318-a6c71b22a43e"},"vehicle_type_id":"4","last_reported":1753780622,"current_range_meters":9600,"station_id":"","pricing_plan_id":"cebpf4jnsgd1na2vs0mg"},{"bike_id":"65e3db07-f188-422b-b687-3d06cfe2bcf8","system_id":"levelo_inurba_marseille","lat":43.28043,"lon":5.35016,"is_reserved":false,"is_disabled":false,"rental_uris":{"android":"levelo://app?vid=65e3db07-f188-422b-b687-3d06cfe2bcf8","ios":"levelo://app?vid=65e3db07-f188-422b-b687-3d06cfe2bcf8"},"vehicle_type_id":"4","last_reported":1753780622,"current_range_meters":9600,"station_id":"","pricing_plan_id":"cebpf4jnsgd1na2vs0mg"},{"bike_id":"149fbe11-3bce-47a0-b584-c7c7bd6bb12f","system_id":"levelo_inurba_marseille","lat":43.21632,"lon":5.34444,"is_reserved":false,"is_disabled":false,"rental_uris":{"android":"levelo://app?vid=149fbe11-3bce-47a0-b584-c7c7bd6bb12f","ios":"levelo://app?vid=149fbe11-3bce-47a0-b584-c7c7bd6bb12f"},"vehicle_type_id":"4","last_reported":1753780622,"current_range_meters":9600,"station_id":"","pricing_plan_id":"cebpf4jnsgd1na2vs0mg"},{"bike_id":"e464e35f-d910-4d4f-841a-4faff3835be4","system_id":"levelo_inurba_marseille","lat":43.25112,"lon":5.40327,"is_reserved":false,"is_disabled":false,"rental_uris":{"android":"levelo://app?vid=e464e35f-d910-4d4f-841a-4faff3835be4","ios":"levelo://app?vid=e464e35f-d910-4d4f-841a-4faff3835be4"},"vehicle_type_id":"4","last_reported":1753780622,"current_range_meters":9600,"station_id":"ce4bhlh2rcd13ifvqgig","pricing_plan_id":"cebpf4jnsgd1na2vs0mg"},{"bike_id":"12f6eca3-7412-4a9c-9ab0-b34e98d370d1","system_id":"levelo_inurba_marseille","lat":43.293,"lon":5.37457,"is_reserved":false,"is_disabled":false,"rental_uris":{"android":"levelo://app?vid=12f6eca3-7412-4a9c-9ab0-b34e98d370d1","ios":"levelo://app?vid=12f6eca3-7412-4a9c-9ab0-b34e98d370d1"},"vehicle_type_id":"4","last_reported":1753780622,"current_range_meters":9600,"station_id":"ce4bgi12rcd13ifvqb70","pricing_plan_id":"cebpf4jnsgd1na2vs0mg"},{"bike_id":"24e4fbdb-edb3-4f7d-8c37-f4ec34322a64","system_id":"levelo_inurba_marseille","lat":43.30894,"lon":5.37195,"is_reserved":false,"is_disabled":false,"rental_uris":{"android":"levelo://app?vid=24e4fbdb-edb3-4f7d-8c37-f4ec34322a64","ios":"levelo://app?vid=24e4fbdb-edb3-4f7d-8c37-f4ec34322a64"},"vehicle_type_id":"4","last_reported":1753780622,"current_range_meters":10000,"station_id":"ce4bguh2rcd13ifvqckg","pricing_plan_id":"cebpf4jnsgd1na2vs0mg"},{"bike_id":"495f9f77-34aa-4678-bcaf-8a3a4d726e8d","system_id":"levelo_inurba_marseille","lat":43.284224,"lon":5.34985,"is_reserved":false,"is_disabled":false,"rental_uris":{"android":"levelo://app?vid=495f9f77-34aa-4678-bcaf-8a3a4d726e8d","ios":"levelo://app?vid=495f9f77-34aa-4678-bcaf-8a3a4d726e8d"},"vehicle_type_id":"4","last_reported":1753780622,"current_range_meters":10000,"station_id":"ce4bhbh2rcd13ifvqepg","pricing_plan_id":"cebpf4jnsgd1na2vs0mg"},{"bike_id":"2d596e96-5a2b-4e72-a2df-115ba58324ee","system_id":"levelo_inurba_marseille","lat":43.25083,"lon":5.39507,"is_reserved":false,"is_disabled":false,"rental_uris":{"android":"levelo://app?vid=2d596e96-5a2b-4e72-a2df-115ba58324ee","ios":"levelo://app?vid=2d596e96-5a2b-4e72-a2df-115ba58324ee"},"vehicle_type_id":"4","last_reported":1753780622,"current_range_meters":10000,"station_id":"ce4bhm12rcd13ifvqgkg","pricing_plan_id":"cebpf4jnsgd1na2vs0mg"},{"bike_id":"2f6ee565-31e0-47cd-8193-c7ca68a19abb","system_id":"levelo_inurba_marseille","lat":43.337444,"lon":5.374475,"is_reserved":false,"is_disabled":true,"rental_uris":{"android":"levelo://app?vid=2f6ee565-31e0-47cd-8193-c7ca68a19abb","ios":"levelo://app?vid=2f6ee565-31e0-47cd-8193-c7ca68a19abb"},"vehicle_type_id":"4","last_reported":1753780622,"current_range_meters":10800,"station_id":"","pricing_plan_id":"cebpf4jnsgd1na2vs0mg"},{"bike_id":"b11f1456-4a1a-4e51-9dd4-b48933a25f68","system_id":"levelo_inurba_marseille","lat":43.25088,"lon":5.3952,"is_reserved":false,"is_disabled":false,"rental_uris":{"android":"levelo://app?vid=b11f1456-4a1a-4e51-9dd4-b48933a25f68","ios":"levelo://app?vid=b11f1456-4a1a-4e51-9dd4-b48933a25f68"},"vehicle_type_id":"4","last_reported":1753780622,"current_range_meters":10800,"station_id":"ce4bhm12rcd13ifvqgkg","pricing_plan_id":"cebpf4jnsgd1na2vs0mg"},{"bike_id":"c5d6c16c-667e-4c61-9e09-b5efae6e86bc","system_id":"levelo_inurba_marseille","lat":43.29904,"lon":5.43661,"is_reserved":false,"is_disabled":false,"rental_uris":{"android":"levelo://app?vid=c5d6c16c-667e-4c61-9e09-b5efae6e86bc","ios":"levelo://app?vid=c5d6c16c-667e-4c61-9e09-b5efae6e86bc"},"vehicle_type_id":"4","last_reported":1753780622,"current_range_meters":10800,"station_id":"ce4bhpp2rcd13ifvqhfg","pricing_plan_id":"cebpf4jnsgd1na2vs0mg"},{"bike_id":"feb40379-0815-4a68-aadb-305942f11d04","system_id":"levelo_inurba_marseille","lat":43.25007,"lon":5.38915,"is_reserved":false,"is_disabled":true,"rental_uris":{"android":"levelo://app?vid=feb40379-0815-4a68-aadb-305942f11d04","ios":"levelo://app?vid=feb40379-0815-4a68-aadb-305942f11d04"},"vehicle_type_id":"4","last_reported":1753780622,"current_range_meters":10800,"station_id":"ce4bhgp2rcd13ifvqfd0","pricing_plan_id":"cebpf4jnsgd1na2vs0mg"},{"bike_id":"e0ce0053-71c4-4b07-8b9e-379e7ce2bf22","system_id":"levelo_inurba_marseille","lat":43.30278,"lon":5.39819,"is_reserved":false,"is_disabled":false,"rental_uris":{"android":"levelo://app?vid=e0ce0053-71c4-4b07-8b9e-379e7ce2bf22","ios":"levelo://app?vid=e0ce0053-71c4-4b07-8b9e-379e7ce2bf22"},"vehicle_type_id":"4","last_reported":1753780622,"current_range_meters":10800,"station_id":"","pricing_plan_id":"cebpf4jnsgd1na2vs0mg"},{"bike_id":"2a3a9f20-00d1-4c95-a093-ba8e28724bc0","system_id":"levelo_inurba_marseille","lat":43.30669,"lon":5.37595,"is_reserved":false,"is_disabled":false,"rental_uris":{"android":"levelo://app?vid=2a3a9f20-00d1-4c95-a093-ba8e28724bc0","ios":"levelo://app?vid=2a3a9f20-00d1-4c95-a093-ba8e28724bc0"},"vehicle_type_id":"4","last_reported":1753780622,"current_range_meters":10800,"station_id":"","pricing_plan_id":"cebpf4jnsgd1na2vs0mg"},{"bike_id":"a7985060-8f49-4960-825c-91e3a3a0af58","system_id":"levelo_inurba_marseille","lat":43.29844,"lon":5.39776,"is_reserved":false,"is_disabled":false,"rental_uris":{"android":"levelo://app?vid=a7985060-8f49-4960-825c-91e3a3a0af58","ios":"levelo://app?vid=a7985060-8f49-4960-825c-91e3a3a0af58"},"vehicle_type_id":"4","last_reported":1753780622,"current_range_meters":11200,"station_id":"","pricing_plan_id":"cebpf4jnsgd1na2vs0mg"},{"bike_id":"773fd437-da0b-45d4-ac50-f8f90577242e","system_id":"levelo_inurba_marseille","lat":43.26687,"lon":5.38283,"is_reserved":false,"is_disabled":false,"rental_uris":{"android":"levelo://app?vid=773fd437-da0b-45d4-ac50-f8f90577242e","ios":"levelo://app?vid=773fd437-da0b-45d4-ac50-f8f90577242e"},"vehicle_type_id":"4","last_reported":1753780622,"current_range_meters":11200,"station_id":"ce4bhg92rcd13ifvqf90","pricing_plan_id":"cebpf4jnsgd1na2vs0mg"},{"bike_id":"c13ce413-660f-4ff8-9547-d17d0704485e","system_id":"levelo_inurba_marseille","lat":43.21215,"lon":5.35077,"is_reserved":false,"is_disabled":false,"rental_uris":{"android":"levelo://app?vid=c13ce413-660f-4ff8-9547-d17d0704485e","ios":"levelo://app?vid=c13ce413-660f-4ff8-9547-d17d0704485e"},"vehicle_type_id":"4","last_reported":1753780622,"current_range_meters":11200,"station_id":"","pricing_plan_id":"cebpf4jnsgd1na2vs0mg"},{"bike_id":"d60b707d-5baa-48e9-ae1e-f86f56415741","system_id":"levelo_inurba_marseille","lat":43.28361,"lon":5.38642,"is_reserved":false,"is_disabled":false,"rental_uris":{"android":"levelo://app?vid=d60b707d-5baa-48e9-ae1e-f86f56415741","ios":"levelo://app?vid=d60b707d-5baa-48e9-ae1e-f86f56415741"},"vehicle_type_id":"4","last_reported":1753780622,"current_range_meters":10800,"station_id":"ce4bh492rcd13ifvqdvg","pricing_plan_id":"cebpf4jnsgd1na2vs0mg"},{"bike_id":"7dd1a394-ac3b-45ae-8f59-195d372bf63b","system_id":"levelo_inurba_marseille","lat":43.30056,"lon":5.38068,"is_reserved":false,"is_disabled":true,"rental_uris":{"android":"levelo://app?vid=7dd1a394-ac3b-45ae-8f59-195d372bf63b","ios":"levelo://app?vid=7dd1a394-ac3b-45ae-8f59-195d372bf63b"},"vehicle_type_id":"4","last_reported":1753780622,"current_range_meters":11200,"station_id":"","pricing_plan_id":"cebpf4jnsgd1na2vs0mg"},{"bike_id":"3c6d990b-d853-4774-9e68-ab11c54c28bf","system_id":"levelo_inurba_marseille","lat":43.28419,"lon":5.34979,"is_reserved":false,"is_disabled":false,"rental_uris":{"android":"levelo://app?vid=3c6d990b-d853-4774-9e68-ab11c54c28bf","ios":"levelo://app?vid=3c6d990b-d853-4774-9e68-ab11c54c28bf"},"vehicle_type_id":"4","last_reported":1753780622,"current_range_meters":11200,"station_id":"ce4bhbh2rcd13ifvqepg","pricing_plan_id":"cebpf4jnsgd1na2vs0mg"},{"bike_id":"e4e79b86-6a76-46e6-a0ec-b3a0582d674b","system_id":"levelo_inurba_marseille","lat":43.2894,"lon":5.36391,"is_reserved":false,"is_disabled":false,"rental_uris":{"android":"levelo://app?vid=e4e79b86-6a76-46e6-a0ec-b3a0582d674b","ios":"levelo://app?vid=e4e79b86-6a76-46e6-a0ec-b3a0582d674b"},"vehicle_type_id":"4","last_reported":1753780622,"current_range_meters":11200,"station_id":"ce4bhc92rcd13ifvqetg","pricing_plan_id":"cebpf4jnsgd1na2vs0mg"},{"bike_id":"52fa2f88-6678-4b0d-bdeb-77d5e9331688","system_id":"levelo_inurba_marseille","lat":43.21204,"lon":5.35081,"is_reserved":false,"is_disabled":false,"rental_uris":{"android":"levelo://app?vid=52fa2f88-6678-4b0d-bdeb-77d5e9331688","ios":"levelo://app?vid=52fa2f88-6678-4b0d-bdeb-77d5e9331688"},"vehicle_type_id":"4","last_reported":1753780622,"current_range_meters":11200,"station_id":"st_cvj6sg6p6f1abm77japg","pricing_plan_id":"cebpf4jnsgd1na2vs0mg"},{"bike_id":"962879c5-ede6-4ad1-8ad6-e3e238b6e210","system_id":"levelo_inurba_marseille","lat":43.28268,"lon":5.3509,"is_reserved":false,"is_disabled":false,"rental_uris":{"android":"levelo://app?vid=962879c5-ede6-4ad1-8ad6-e3e238b6e210","ios":"levelo://app?vid=962879c5-ede6-4ad1-8ad6-e3e238b6e210"},"vehicle_type_id":"4","last_reported":1753780622,"current_range_meters":11600,"station_id":"ce4bhbp2rcd13ifvqerg","pricing_plan_id":"cebpf4jnsgd1na2vs0mg"},{"bike_id":"882bdff1-651a-41c1-9ab0-596f43205cf1","system_id":"levelo_inurba_marseille","lat":43.337444,"lon":5.374475,"is_reserved":false,"is_disabled":false,"rental_uris":{"android":"levelo://app?vid=882bdff1-651a-41c1-9ab0-596f43205cf1","ios":"levelo://app?vid=882bdff1-651a-41c1-9ab0-596f43205cf1"},"vehicle_type_id":"4","last_reported":1753780622,"current_range_meters":11600,"station_id":"ce4bgkp2rcd13ifvqbmg","pricing_plan_id":"cebpf4jnsgd1na2vs0mg"},{"bike_id":"f935bdfe-ce07-40e9-9f05-f13806b2bee8","system_id":"levelo_inurba_marseille","lat":43.225038,"lon":5.34779,"is_reserved":false,"is_disabled":false,"rental_uris":{"android":"levelo://app?vid=f935bdfe-ce07-40e9-9f05-f13806b2bee8","ios":"levelo://app?vid=f935bdfe-ce07-40e9-9f05-f13806b2bee8"},"vehicle_type_id":"4","last_reported":1753780622,"current_range_meters":11600,"station_id":"st_cvj5dfep6f1abm77gieg","pricing_plan_id":"cebpf4jnsgd1na2vs0mg"},{"bike_id":"72e03784-0704-41e0-b1f1-3eacc06d2c0c","system_id":"levelo_inurba_marseille","lat":43.308807,"lon":5.371822,"is_reserved":false,"is_disabled":false,"rental_uris":{"android":"levelo://app?vid=72e03784-0704-41e0-b1f1-3eacc06d2c0c","ios":"levelo://app?vid=72e03784-0704-41e0-b1f1-3eacc06d2c0c"},"vehicle_type_id":"4","last_reported":1753780622,"current_range_meters":11600,"station_id":"ce4bguh2rcd13ifvqckg","pricing_plan_id":"cebpf4jnsgd1na2vs0mg"},{"bike_id":"f297ecb0-f504-4ce2-a698-235b8f25b26b","system_id":"levelo_inurba_marseille","lat":43.24169,"lon":5.364025,"is_reserved":false,"is_disabled":false,"rental_uris":{"android":"levelo://app?vid=f297ecb0-f504-4ce2-a698-235b8f25b26b","ios":"levelo://app?vid=f297ecb0-f504-4ce2-a698-235b8f25b26b"},"vehicle_type_id":"4","last_reported":1753780622,"current_range_meters":11600,"station_id":"cpo36qri1sfpv3e86is0","pricing_plan_id":"cebpf4jnsgd1na2vs0mg"},{"bike_id":"da4d0b39-d20e-4fb8-9414-fb1a899238cd","system_id":"levelo_inurba_marseille","lat":43.2905,"lon":5.40048,"is_reserved":false,"is_disabled":false,"rental_uris":{"android":"levelo://app?vid=da4d0b39-d20e-4fb8-9414-fb1a899238cd","ios":"levelo://app?vid=da4d0b39-d20e-4fb8-9414-fb1a899238cd"},"vehicle_type_id":"4","last_reported":1753780622,"current_range_meters":11600,"station_id":"","pricing_plan_id":"cebpf4jnsgd1na2vs0mg"},{"bike_id":"20a40cc7-6b1e-49b3-8066-0bb241f80c44","system_id":"levelo_inurba_marseille","lat":43.310813,"lon":5.385331,"is_reserved":false,"is_disabled":false,"rental_uris":{"android":"levelo://app?vid=20a40cc7-6b1e-49b3-8066-0bb241f80c44","ios":"levelo://app?vid=20a40cc7-6b1e-49b3-8066-0bb241f80c44"},"vehicle_type_id":"4","last_reported":1753780622,"current_range_meters":11600,"station_id":"","pricing_plan_id":"cebpf4jnsgd1na2vs0mg"},{"bike_id":"68e0fb7c-ab44-4fd9-8ada-cf2dad1eedf0","system_id":"levelo_inurba_marseille","lat":43.26787,"lon":5.39419,"is_reserved":false,"is_disabled":false,"rental_uris":{"android":"levelo://app?vid=68e0fb7c-ab44-4fd9-8ada-cf2dad1eedf0","ios":"levelo://app?vid=68e0fb7c-ab44-4fd9-8ada-cf2dad1eedf0"},"vehicle_type_id":"4","last_reported":1753780622,"current_range_meters":12000,"station_id":"ce4bhh12rcd13ifvqfg0","pricing_plan_id":"cebpf4jnsgd1na2vs0mg"},{"bike_id":"a902a8c6-f2ad-405f-a38e-b8ffcadad353","system_id":"levelo_inurba_marseille","lat":43.282842,"lon":5.350575,"is_reserved":false,"is_disabled":false,"rental_uris":{"android":"levelo://app?vid=a902a8c6-f2ad-405f-a38e-b8ffcadad353","ios":"levelo://app?vid=a902a8c6-f2ad-405f-a38e-b8ffcadad353"},"vehicle_type_id":"4","last_reported":1753780622,"current_range_meters":12000,"station_id":"ce4bhbp2rcd13ifvqerg","pricing_plan_id":"cebpf4jnsgd1na2vs0mg"},{"bike_id":"9d81c361-5b7f-44dc-b0f1-1f6fccafd051","system_id":"levelo_inurba_marseille","lat":43.279894,"lon":5.416575,"is_reserved":false,"is_disabled":false,"rental_uris":{"android":"levelo://app?vid=9d81c361-5b7f-44dc-b0f1-1f6fccafd051","ios":"levelo://app?vid=9d81c361-5b7f-44dc-b0f1-1f6fccafd051"},"vehicle_type_id":"4","last_reported":1753780622,"current_range_meters":12000,"station_id":"ce4bho12rcd13ifvqh1g","pricing_plan_id":"cebpf4jnsgd1na2vs0mg"},{"bike_id":"d4b0442d-37e3-4887-8827-87b59f4e9086","system_id":"levelo_inurba_marseille","lat":43.2977,"lon":5.38108,"is_reserved":false,"is_disabled":false,"rental_uris":{"android":"levelo://app?vid=d4b0442d-37e3-4887-8827-87b59f4e9086","ios":"levelo://app?vid=d4b0442d-37e3-4887-8827-87b59f4e9086"},"vehicle_type_id":"4","last_reported":1753780622,"current_range_meters":12000,"station_id":"","pricing_plan_id":"cebpf4jnsgd1na2vs0mg"},{"bike_id":"f3222142-ff02-44ed-a959-fc2628a09f52","system_id":"levelo_inurba_marseille","lat":43.29705,"lon":5.37689,"is_reserved":false,"is_disabled":false,"rental_uris":{"android":"levelo://app?vid=f3222142-ff02-44ed-a959-fc2628a09f52","ios":"levelo://app?vid=f3222142-ff02-44ed-a959-fc2628a09f52"},"vehicle_type_id":"4","last_reported":1753780622,"current_range_meters":12000,"station_id":"ce4bgkh2rcd13ifvqbl0","pricing_plan_id":"cebpf4jnsgd1na2vs0mg"},{"bike_id":"7d0bc366-7472-4dec-a2f3-a1ab117a465c","system_id":"levelo_inurba_marseille","lat":43.32289,"lon":5.38287,"is_reserved":false,"is_disabled":false,"rental_uris":{"android":"levelo://app?vid=7d0bc366-7472-4dec-a2f3-a1ab117a465c","ios":"levelo://app?vid=7d0bc366-7472-4dec-a2f3-a1ab117a465c"},"vehicle_type_id":"4","last_reported":1753780622,"current_range_meters":12000,"station_id":"ce4bhr12rcd13ifvqhqg","pricing_plan_id":"cebpf4jnsgd1na2vs0mg"},{"bike_id":"a4d50ccb-83af-4aa3-86ff-d774e6543241","system_id":"levelo_inurba_marseille","lat":43.30522,"lon":5.3657,"is_reserved":false,"is_disabled":false,"rental_uris":{"android":"levelo://app?vid=a4d50ccb-83af-4aa3-86ff-d774e6543241","ios":"levelo://app?vid=a4d50ccb-83af-4aa3-86ff-d774e6543241"},"vehicle_type_id":"4","last_reported":1753780622,"current_range_meters":12000,"station_id":"ce4bgs12rcd13ifvqcag","pricing_plan_id":"cebpf4jnsgd1na2vs0mg"},{"bike_id":"0938e41e-f961-425a-8c0f-36baf4215fb9","system_id":"levelo_inurba_marseille","lat":43.270699,"lon":5.422764,"is_reserved":false,"is_disabled":false,"rental_uris":{"android":"levelo://app?vid=0938e41e-f961-425a-8c0f-36baf4215fb9","ios":"levelo://app?vid=0938e41e-f961-425a-8c0f-36baf4215fb9"},"vehicle_type_id":"4","last_reported":1753780622,"current_range_meters":12000,"station_id":"ce4bhk92rcd13ifvqgb0","pricing_plan_id":"cebpf4jnsgd1na2vs0mg"},{"bike_id":"6a15da0b-febf-4b10-ad54-b888298004ba","system_id":"levelo_inurba_marseille","lat":43.29625,"lon":5.37151,"is_reserved":false,"is_disabled":false,"rental_uris":{"android":"levelo://app?vid=6a15da0b-febf-4b10-ad54-b888298004ba","ios":"levelo://app?vid=6a15da0b-febf-4b10-ad54-b888298004ba"},"vehicle_type_id":"4","last_reported":1753780622,"current_range_meters":12400,"station_id":"ce4bgnh2rcd13ifvqc0g","pricing_plan_id":"cebpf4jnsgd1na2vs0mg"},{"bike_id":"f3771e98-d844-4ef8-b517-b069f29e3be1","system_id":"levelo_inurba_marseille","lat":43.30295,"lon":5.39212,"is_reserved":false,"is_disabled":false,"rental_uris":{"android":"levelo://app?vid=f3771e98-d844-4ef8-b517-b069f29e3be1","ios":"levelo://app?vid=f3771e98-d844-4ef8-b517-b069f29e3be1"},"vehicle_type_id":"4","last_reported":1753780622,"current_range_meters":12400,"station_id":"ce4bgkh2rcd13ifvqbk0","pricing_plan_id":"cebpf4jnsgd1na2vs0mg"},{"bike_id":"7cfa08c2-6c40-4990-8a11-659dfda85780","system_id":"levelo_inurba_marseille","lat":43.30146,"lon":5.38071,"is_reserved":false,"is_disabled":false,"rental_uris":{"android":"levelo://app?vid=7cfa08c2-6c40-4990-8a11-659dfda85780","ios":"levelo://app?vid=7cfa08c2-6c40-4990-8a11-659dfda85780"},"vehicle_type_id":"4","last_reported":1753780622,"current_range_meters":12400,"station_id":"ce4bgjp2rcd13ifvqbh0","pricing_plan_id":"cebpf4jnsgd1na2vs0mg"},{"bike_id":"1d599ca9-96fe-4939-8af9-7954ed58ad38","system_id":"levelo_inurba_marseille","lat":43.235474,"lon":5.360198,"is_reserved":false,"is_disabled":false,"rental_uris":{"android":"levelo://app?vid=1d599ca9-96fe-4939-8af9-7954ed58ad38","ios":"levelo://app?vid=1d599ca9-96fe-4939-8af9-7954ed58ad38"},"vehicle_type_id":"4","last_reported":1753780622,"current_range_meters":12400,"station_id":"","pricing_plan_id":"cebpf4jnsgd1na2vs0mg"},{"bike_id":"9b98e48c-42e2-4d54-912b-177ea01acad5","system_id":"levelo_inurba_marseille","lat":43.225038,"lon":5.347791,"is_reserved":false,"is_disabled":true,"rental_uris":{"android":"levelo://app?vid=9b98e48c-42e2-4d54-912b-177ea01acad5","ios":"levelo://app?vid=9b98e48c-42e2-4d54-912b-177ea01acad5"},"vehicle_type_id":"4","last_reported":1753780622,"current_range_meters":12400,"station_id":"st_cvj5dfep6f1abm77gieg","pricing_plan_id":"cebpf4jnsgd1na2vs0mg"},{"bike_id":"cd42ba41-c1cf-4478-893a-21a9292f479d","system_id":"levelo_inurba_marseille","lat":43.3249,"lon":5.3658,"is_reserved":false,"is_disabled":false,"rental_uris":{"android":"levelo://app?vid=cd42ba41-c1cf-4478-893a-21a9292f479d","ios":"levelo://app?vid=cd42ba41-c1cf-4478-893a-21a9292f479d"},"vehicle_type_id":"4","last_reported":1753780622,"current_range_meters":12800,"station_id":"ce4bhs12rcd13ifvqhvg","pricing_plan_id":"cebpf4jnsgd1na2vs0mg"},{"bike_id":"ca925fc2-2f2d-4856-ab96-1d6d55f0e4dc","system_id":"levelo_inurba_marseille","lat":43.28418,"lon":5.34988,"is_reserved":false,"is_disabled":false,"rental_uris":{"android":"levelo://app?vid=ca925fc2-2f2d-4856-ab96-1d6d55f0e4dc","ios":"levelo://app?vid=ca925fc2-2f2d-4856-ab96-1d6d55f0e4dc"},"vehicle_type_id":"4","last_reported":1753780622,"current_range_meters":12800,"station_id":"ce4bhbh2rcd13ifvqepg","pricing_plan_id":"cebpf4jnsgd1na2vs0mg"},{"bike_id":"4f0d56f5-e54c-465b-a15e-32b747ab0912","system_id":"levelo_inurba_marseille","lat":43.317139,"lon":5.4048,"is_reserved":false,"is_disabled":true,"rental_uris":{"android":"levelo://app?vid=4f0d56f5-e54c-465b-a15e-32b747ab0912","ios":"levelo://app?vid=4f0d56f5-e54c-465b-a15e-32b747ab0912"},"vehicle_type_id":"4","last_reported":1753780622,"current_range_meters":12800,"station_id":"ce4bh012rcd13ifvqd00","pricing_plan_id":"cebpf4jnsgd1na2vs0mg"},{"bike_id":"72d14541-db02-4d2f-b0b2-0120425437b5","system_id":"levelo_inurba_marseille","lat":43.28413,"lon":5.37512,"is_reserved":false,"is_disabled":false,"rental_uris":{"android":"levelo://app?vid=72d14541-db02-4d2f-b0b2-0120425437b5","ios":"levelo://app?vid=72d14541-db02-4d2f-b0b2-0120425437b5"},"vehicle_type_id":"4","last_reported":1753780622,"current_range_meters":12800,"station_id":"ce4bh412rcd13ifvqds0","pricing_plan_id":"cebpf4jnsgd1na2vs0mg"},{"bike_id":"d74a53f2-a358-4ccb-8d9f-ff313ea2ec34","system_id":"levelo_inurba_marseille","lat":43.211942,"lon":5.350744,"is_reserved":false,"is_disabled":false,"rental_uris":{"android":"levelo://app?vid=d74a53f2-a358-4ccb-8d9f-ff313ea2ec34","ios":"levelo://app?vid=d74a53f2-a358-4ccb-8d9f-ff313ea2ec34"},"vehicle_type_id":"4","last_reported":1753780622,"current_range_meters":12800,"station_id":"st_cvj6sg6p6f1abm77japg","pricing_plan_id":"cebpf4jnsgd1na2vs0mg"},{"bike_id":"905576ef-66ce-426e-9600-566828c3b671","system_id":"levelo_inurba_marseille","lat":43.21795,"lon":5.34584,"is_reserved":false,"is_disabled":true,"rental_uris":{"android":"levelo://app?vid=905576ef-66ce-426e-9600-566828c3b671","ios":"levelo://app?vid=905576ef-66ce-426e-9600-566828c3b671"},"vehicle_type_id":"4","last_reported":1753780622,"current_range_meters":13600,"station_id":"","pricing_plan_id":"cebpf4jnsgd1na2vs0mg"},{"bike_id":"4b03818f-38c0-4721-8299-a39ad77b6df1","system_id":"levelo_inurba_marseille","lat":43.32494,"lon":5.36567,"is_reserved":false,"is_disabled":false,"rental_uris":{"android":"levelo://app?vid=4b03818f-38c0-4721-8299-a39ad77b6df1","ios":"levelo://app?vid=4b03818f-38c0-4721-8299-a39ad77b6df1"},"vehicle_type_id":"4","last_reported":1753780622,"current_range_meters":13600,"station_id":"ce4bhs12rcd13ifvqhvg","pricing_plan_id":"cebpf4jnsgd1na2vs0mg"},{"bike_id":"edeebce6-e3cf-4eac-ac64-0399354a083c","system_id":"levelo_inurba_marseille","lat":43.309227,"lon":5.371854,"is_reserved":false,"is_disabled":false,"rental_uris":{"android":"levelo://app?vid=edeebce6-e3cf-4eac-ac64-0399354a083c","ios":"levelo://app?vid=edeebce6-e3cf-4eac-ac64-0399354a083c"},"vehicle_type_id":"4","last_reported":1753780622,"current_range_meters":14000,"station_id":"ce4bguh2rcd13ifvqckg","pricing_plan_id":"cebpf4jnsgd1na2vs0mg"},{"bike_id":"8f346c07-df4f-459b-ac59-d111eb9f0783","system_id":"levelo_inurba_marseille","lat":43.21761,"lon":5.34626,"is_reserved":false,"is_disabled":false,"rental_uris":{"android":"levelo://app?vid=8f346c07-df4f-459b-ac59-d111eb9f0783","ios":"levelo://app?vid=8f346c07-df4f-459b-ac59-d111eb9f0783"},"vehicle_type_id":"4","last_reported":1753780622,"current_range_meters":14000,"station_id":"st_cvj6r9ubvosntc0bgbag","pricing_plan_id":"cebpf4jnsgd1na2vs0mg"},{"bike_id":"fc610ef3-163c-4f1a-b59c-e6e6df538d41","system_id":"levelo_inurba_marseille","lat":43.3091,"lon":5.36864,"is_reserved":false,"is_disabled":false,"rental_uris":{"android":"levelo://app?vid=fc610ef3-163c-4f1a-b59c-e6e6df538d41","ios":"levelo://app?vid=fc610ef3-163c-4f1a-b59c-e6e6df538d41"},"vehicle_type_id":"4","last_reported":1753780622,"current_range_meters":14000,"station_id":"ce4bgn92rcd13ifvqbvg","pricing_plan_id":"cebpf4jnsgd1na2vs0mg"},{"bike_id":"a0757552-cef1-4156-a44e-da8e0ad06a62","system_id":"levelo_inurba_marseille","lat":43.22894,"lon":5.35406,"is_reserved":false,"is_disabled":false,"rental_uris":{"android":"levelo://app?vid=a0757552-cef1-4156-a44e-da8e0ad06a62","ios":"levelo://app?vid=a0757552-cef1-4156-a44e-da8e0ad06a62"},"vehicle_type_id":"4","last_reported":1753780622,"current_range_meters":14000,"station_id":"cpo3532slgdg3j2ikp40","pricing_plan_id":"cebpf4jnsgd1na2vs0mg"},{"bike_id":"d8c1fe92-58b8-4893-a256-6328335694e7","system_id":"levelo_inurba_marseille","lat":43.23153,"lon":5.43715,"is_reserved":false,"is_disabled":false,"rental_uris":{"android":"levelo://app?vid=d8c1fe92-58b8-4893-a256-6328335694e7","ios":"levelo://app?vid=d8c1fe92-58b8-4893-a256-6328335694e7"},"vehicle_type_id":"4","last_reported":1753780622,"current_range_meters":14000,"station_id":"ce4bhmp2rcd13ifvqgog","pricing_plan_id":"cebpf4jnsgd1na2vs0mg"},{"bike_id":"62f5da51-1009-4002-b725-5765ccaaf3ec","system_id":"levelo_inurba_marseille","lat":43.294246,"lon":5.432317,"is_reserved":false,"is_disabled":false,"rental_uris":{"android":"levelo://app?vid=62f5da51-1009-4002-b725-5765ccaaf3ec","ios":"levelo://app?vid=62f5da51-1009-4002-b725-5765ccaaf3ec"},"vehicle_type_id":"4","last_reported":1753780622,"current_range_meters":14000,"station_id":"","pricing_plan_id":"cebpf4jnsgd1na2vs0mg"},{"bike_id":"3d9f2061-7fb9-4387-9262-8d2451911c2b","system_id":"levelo_inurba_marseille","lat":43.22932,"lon":5.35378,"is_reserved":false,"is_disabled":false,"rental_uris":{"android":"levelo://app?vid=3d9f2061-7fb9-4387-9262-8d2451911c2b","ios":"levelo://app?vid=3d9f2061-7fb9-4387-9262-8d2451911c2b"},"vehicle_type_id":"4","last_reported":1753780622,"current_range_meters":14000,"station_id":"cpo3532slgdg3j2ikp40","pricing_plan_id":"cebpf4jnsgd1na2vs0mg"},{"bike_id":"d5593a85-cea5-49f7-9cab-83d2e11aab38","system_id":"levelo_inurba_marseille","lat":43.30773,"lon":5.37653,"is_reserved":false,"is_disabled":false,"rental_uris":{"android":"levelo://app?vid=d5593a85-cea5-49f7-9cab-83d2e11aab38","ios":"levelo://app?vid=d5593a85-cea5-49f7-9cab-83d2e11aab38"},"vehicle_type_id":"4","last_reported":1753780622,"current_range_meters":14000,"station_id":"ce4bgv92rcd13ifvqcq0","pricing_plan_id":"cebpf4jnsgd1na2vs0mg"},{"bike_id":"7cf62c04-91f9-4e0a-bdd9-c677d355fb11","system_id":"levelo_inurba_marseille","lat":43.292473,"lon":5.382669,"is_reserved":false,"is_disabled":false,"rental_uris":{"android":"levelo://app?vid=7cf62c04-91f9-4e0a-bdd9-c677d355fb11","ios":"levelo://app?vid=7cf62c04-91f9-4e0a-bdd9-c677d355fb11"},"vehicle_type_id":"4","last_reported":1753780622,"current_range_meters":14000,"station_id":"","pricing_plan_id":"cebpf4jnsgd1na2vs0mg"},{"bike_id":"6417f94c-7833-42a3-8770-bee520a8551e","system_id":"levelo_inurba_marseille","lat":43.25026,"lon":5.3892,"is_reserved":false,"is_disabled":false,"rental_uris":{"android":"levelo://app?vid=6417f94c-7833-42a3-8770-bee520a8551e","ios":"levelo://app?vid=6417f94c-7833-42a3-8770-bee520a8551e"},"vehicle_type_id":"4","last_reported":1753780622,"current_range_meters":14400,"station_id":"ce4bhgp2rcd13ifvqfd0","pricing_plan_id":"cebpf4jnsgd1na2vs0mg"},{"bike_id":"7f285575-b8ed-4f2b-889f-4147db68801a","system_id":"levelo_inurba_marseille","lat":43.29303,"lon":5.3744,"is_reserved":false,"is_disabled":false,"rental_uris":{"android":"levelo://app?vid=7f285575-b8ed-4f2b-889f-4147db68801a","ios":"levelo://app?vid=7f285575-b8ed-4f2b-889f-4147db68801a"},"vehicle_type_id":"4","last_reported":1753780622,"current_range_meters":14400,"station_id":"ce4bgi12rcd13ifvqb70","pricing_plan_id":"cebpf4jnsgd1na2vs0mg"},{"bike_id":"0e7a2def-5fa1-44b0-a321-6e6e48a8f6cd","system_id":"levelo_inurba_marseille","lat":43.290473,"lon":5.399293,"is_reserved":false,"is_disabled":false,"rental_uris":{"android":"levelo://app?vid=0e7a2def-5fa1-44b0-a321-6e6e48a8f6cd","ios":"levelo://app?vid=0e7a2def-5fa1-44b0-a321-6e6e48a8f6cd"},"vehicle_type_id":"4","last_reported":1753780622,"current_range_meters":14400,"station_id":"ce4bh392rcd13ifvqdm0","pricing_plan_id":"cebpf4jnsgd1na2vs0mg"},{"bike_id":"82641ba6-8d3f-4c37-98fc-43a2732b11ed","system_id":"levelo_inurba_marseille","lat":43.30895,"lon":5.36894,"is_reserved":false,"is_disabled":false,"rental_uris":{"android":"levelo://app?vid=82641ba6-8d3f-4c37-98fc-43a2732b11ed","ios":"levelo://app?vid=82641ba6-8d3f-4c37-98fc-43a2732b11ed"},"vehicle_type_id":"4","last_reported":1753780622,"current_range_meters":14400,"station_id":"ce4bgn92rcd13ifvqbvg","pricing_plan_id":"cebpf4jnsgd1na2vs0mg"},{"bike_id":"731cd626-0d26-4660-8190-f10f9fc1a3ff","system_id":"levelo_inurba_marseille","lat":43.29034,"lon":5.399545,"is_reserved":false,"is_disabled":false,"rental_uris":{"android":"levelo://app?vid=731cd626-0d26-4660-8190-f10f9fc1a3ff","ios":"levelo://app?vid=731cd626-0d26-4660-8190-f10f9fc1a3ff"},"vehicle_type_id":"4","last_reported":1753780622,"current_range_meters":14400,"station_id":"ce4bh392rcd13ifvqdm0","pricing_plan_id":"cebpf4jnsgd1na2vs0mg"},{"bike_id":"e137dc03-26cf-440c-b3ea-1ea522645199","system_id":"levelo_inurba_marseille","lat":43.280815,"lon":5.396626,"is_reserved":false,"is_disabled":false,"rental_uris":{"android":"levelo://app?vid=e137dc03-26cf-440c-b3ea-1ea522645199","ios":"levelo://app?vid=e137dc03-26cf-440c-b3ea-1ea522645199"},"vehicle_type_id":"4","last_reported":1753780622,"current_range_meters":14400,"station_id":"","pricing_plan_id":"cebpf4jnsgd1na2vs0mg"},{"bike_id":"5dfabdc2-b806-44aa-94b4-47dba92b8204","system_id":"levelo_inurba_marseille","lat":43.2293,"lon":5.35376,"is_reserved":false,"is_disabled":false,"rental_uris":{"android":"levelo://app?vid=5dfabdc2-b806-44aa-94b4-47dba92b8204","ios":"levelo://app?vid=5dfabdc2-b806-44aa-94b4-47dba92b8204"},"vehicle_type_id":"4","last_reported":1753780622,"current_range_meters":14800,"station_id":"cpo3532slgdg3j2ikp40","pricing_plan_id":"cebpf4jnsgd1na2vs0mg"},{"bike_id":"f0cab091-bb2c-451e-bb52-2caf06c3d1b3","system_id":"levelo_inurba_marseille","lat":43.30189,"lon":5.3663,"is_reserved":false,"is_disabled":false,"rental_uris":{"android":"levelo://app?vid=f0cab091-bb2c-451e-bb52-2caf06c3d1b3","ios":"levelo://app?vid=f0cab091-bb2c-451e-bb52-2caf06c3d1b3"},"vehicle_type_id":"4","last_reported":1753780622,"current_range_meters":14800,"station_id":"ce4bgrh2rcd13ifvqc8g","pricing_plan_id":"cebpf4jnsgd1na2vs0mg"},{"bike_id":"62e54455-0cad-476e-836b-6efe5dee6c34","system_id":"levelo_inurba_marseille","lat":43.225076,"lon":5.347842,"is_reserved":false,"is_disabled":false,"rental_uris":{"android":"levelo://app?vid=62e54455-0cad-476e-836b-6efe5dee6c34","ios":"levelo://app?vid=62e54455-0cad-476e-836b-6efe5dee6c34"},"vehicle_type_id":"4","last_reported":1753780622,"current_range_meters":14800,"station_id":"st_cvj5dfep6f1abm77gieg","pricing_plan_id":"cebpf4jnsgd1na2vs0mg"},{"bike_id":"c11f4789-7d37-4722-9529-2b6d43a6d56c","system_id":"levelo_inurba_marseille","lat":43.281538,"lon":5.426367,"is_reserved":false,"is_disabled":true,"rental_uris":{"android":"levelo://app?vid=c11f4789-7d37-4722-9529-2b6d43a6d56c","ios":"levelo://app?vid=c11f4789-7d37-4722-9529-2b6d43a6d56c"},"vehicle_type_id":"4","last_reported":1753780622,"current_range_meters":14800,"station_id":"ce4bhnh2rcd13ifvqgug","pricing_plan_id":"cebpf4jnsgd1na2vs0mg"},{"bike_id":"4d199580-883e-4a55-b503-2f2d48122bc5","system_id":"levelo_inurba_marseille","lat":43.25934,"lon":5.40912,"is_reserved":false,"is_disabled":false,"rental_uris":{"android":"levelo://app?vid=4d199580-883e-4a55-b503-2f2d48122bc5","ios":"levelo://app?vid=4d199580-883e-4a55-b503-2f2d48122bc5"},"vehicle_type_id":"4","last_reported":1753780622,"current_range_meters":15200,"station_id":"ce4bhm92rcd13ifvqglg","pricing_plan_id":"cebpf4jnsgd1na2vs0mg"},{"bike_id":"57927d23-89e7-4ddd-a64f-277b3ded0af3","system_id":"levelo_inurba_marseille","lat":43.24085,"lon":5.37738,"is_reserved":false,"is_disabled":true,"rental_uris":{"android":"levelo://app?vid=57927d23-89e7-4ddd-a64f-277b3ded0af3","ios":"levelo://app?vid=57927d23-89e7-4ddd-a64f-277b3ded0af3"},"vehicle_type_id":"4","last_reported":1753780622,"current_range_meters":15200,"station_id":"ce4bhnp2rcd13ifvqgvg","pricing_plan_id":"cebpf4jnsgd1na2vs0mg"},{"bike_id":"89f21450-7bba-4d28-bcfe-dd52593d6a57","system_id":"levelo_inurba_marseille","lat":43.31076,"lon":5.38346,"is_reserved":false,"is_disabled":false,"rental_uris":{"android":"levelo://app?vid=89f21450-7bba-4d28-bcfe-dd52593d6a57","ios":"levelo://app?vid=89f21450-7bba-4d28-bcfe-dd52593d6a57"},"vehicle_type_id":"4","last_reported":1753780622,"current_range_meters":15200,"station_id":"ce4bgv92rcd13ifvqcr0","pricing_plan_id":"cebpf4jnsgd1na2vs0mg"},{"bike_id":"2fb4fd2c-e2ec-4701-8635-3fc52bf777d2","system_id":"levelo_inurba_marseille","lat":43.3126,"lon":5.40176,"is_reserved":false,"is_disabled":false,"rental_uris":{"android":"levelo://app?vid=2fb4fd2c-e2ec-4701-8635-3fc52bf777d2","ios":"levelo://app?vid=2fb4fd2c-e2ec-4701-8635-3fc52bf777d2"},"vehicle_type_id":"4","last_reported":1753780622,"current_range_meters":15200,"station_id":"ce4bh092rcd13ifvqd30","pricing_plan_id":"cebpf4jnsgd1na2vs0mg"},{"bike_id":"75aa074a-8804-4fec-88d9-260a8abf5ca1","system_id":"levelo_inurba_marseille","lat":43.26553,"lon":5.37281,"is_reserved":false,"is_disabled":false,"rental_uris":{"android":"levelo://app?vid=75aa074a-8804-4fec-88d9-260a8abf5ca1","ios":"levelo://app?vid=75aa074a-8804-4fec-88d9-260a8abf5ca1"},"vehicle_type_id":"4","last_reported":1753780622,"current_range_meters":15200,"station_id":"ce4bhg12rcd13ifvqf70","pricing_plan_id":"cebpf4jnsgd1na2vs0mg"},{"bike_id":"e65acc05-153b-4942-8607-11c4ec4f142a","system_id":"levelo_inurba_marseille","lat":43.30903,"lon":5.36845,"is_reserved":false,"is_disabled":false,"rental_uris":{"android":"levelo://app?vid=e65acc05-153b-4942-8607-11c4ec4f142a","ios":"levelo://app?vid=e65acc05-153b-4942-8607-11c4ec4f142a"},"vehicle_type_id":"4","last_reported":1753780622,"current_range_meters":15200,"station_id":"ce4bgn92rcd13ifvqbvg","pricing_plan_id":"cebpf4jnsgd1na2vs0mg"},{"bike_id":"5d5e0ed8-53a8-4dd4-81bf-ff5624b38868","system_id":"levelo_inurba_marseille","lat":43.24198,"lon":5.397,"is_reserved":false,"is_disabled":false,"rental_uris":{"android":"levelo://app?vid=5d5e0ed8-53a8-4dd4-81bf-ff5624b38868","ios":"levelo://app?vid=5d5e0ed8-53a8-4dd4-81bf-ff5624b38868"},"vehicle_type_id":"4","last_reported":1753780622,"current_range_meters":15200,"station_id":"ce4bhn12rcd13ifvqgpg","pricing_plan_id":"cebpf4jnsgd1na2vs0mg"},{"bike_id":"947cf9dd-0905-42a3-aafb-8e1c05b7ea7a","system_id":"levelo_inurba_marseille","lat":43.30718,"lon":5.38425,"is_reserved":false,"is_disabled":false,"rental_uris":{"android":"levelo://app?vid=947cf9dd-0905-42a3-aafb-8e1c05b7ea7a","ios":"levelo://app?vid=947cf9dd-0905-42a3-aafb-8e1c05b7ea7a"},"vehicle_type_id":"4","last_reported":1753780622,"current_range_meters":15200,"station_id":"","pricing_plan_id":"cebpf4jnsgd1na2vs0mg"},{"bike_id":"2a8f7284-7cdc-4ce0-8ca0-a0ff147fa6be","system_id":"levelo_inurba_marseille","lat":43.25492,"lon":5.37682,"is_reserved":false,"is_disabled":false,"rental_uris":{"android":"levelo://app?vid=2a8f7284-7cdc-4ce0-8ca0-a0ff147fa6be","ios":"levelo://app?vid=2a8f7284-7cdc-4ce0-8ca0-a0ff147fa6be"},"vehicle_type_id":"4","last_reported":1753780622,"current_range_meters":15200,"station_id":"ce4bhh12rcd13ifvqff0","pricing_plan_id":"cebpf4jnsgd1na2vs0mg"},{"bike_id":"4ffc9d79-d56a-482d-b7d9-a5892348f435","system_id":"levelo_inurba_marseille","lat":43.28429,"lon":5.35026,"is_reserved":false,"is_disabled":false,"rental_uris":{"android":"levelo://app?vid=4ffc9d79-d56a-482d-b7d9-a5892348f435","ios":"levelo://app?vid=4ffc9d79-d56a-482d-b7d9-a5892348f435"},"vehicle_type_id":"4","last_reported":1753780622,"current_range_meters":16000,"station_id":"ce4bhbh2rcd13ifvqepg","pricing_plan_id":"cebpf4jnsgd1na2vs0mg"},{"bike_id":"df59e2f2-ebcb-4b5d-884c-2c743fa57461","system_id":"levelo_inurba_marseille","lat":43.286192,"lon":5.351029,"is_reserved":false,"is_disabled":false,"rental_uris":{"android":"levelo://app?vid=df59e2f2-ebcb-4b5d-884c-2c743fa57461","ios":"levelo://app?vid=df59e2f2-ebcb-4b5d-884c-2c743fa57461"},"vehicle_type_id":"4","last_reported":1753780622,"current_range_meters":16000,"station_id":"ce4bhch2rcd13ifvqeug","pricing_plan_id":"cebpf4jnsgd1na2vs0mg"},{"bike_id":"6f7ccb69-bf92-486d-92b3-1d25f0d6e17f","system_id":"levelo_inurba_marseille","lat":43.26241,"lon":5.37429,"is_reserved":false,"is_disabled":false,"rental_uris":{"android":"levelo://app?vid=6f7ccb69-bf92-486d-92b3-1d25f0d6e17f","ios":"levelo://app?vid=6f7ccb69-bf92-486d-92b3-1d25f0d6e17f"},"vehicle_type_id":"4","last_reported":1753780622,"current_range_meters":16000,"station_id":"ce4bhgp2rcd13ifvqfc0","pricing_plan_id":"cebpf4jnsgd1na2vs0mg"},{"bike_id":"f83690e0-8a91-4c7c-b444-611691645a2d","system_id":"levelo_inurba_marseille","lat":43.31158,"lon":5.38726,"is_reserved":false,"is_disabled":false,"rental_uris":{"android":"levelo://app?vid=f83690e0-8a91-4c7c-b444-611691645a2d","ios":"levelo://app?vid=f83690e0-8a91-4c7c-b444-611691645a2d"},"vehicle_type_id":"4","last_reported":1753780622,"current_range_meters":16000,"station_id":"ce4bgv12rcd13ifvqcp0","pricing_plan_id":"cebpf4jnsgd1na2vs0mg"},{"bike_id":"b7234136-bf62-4ef1-9964-a9c43529d354","system_id":"levelo_inurba_marseille","lat":43.318152,"lon":5.394427,"is_reserved":false,"is_disabled":false,"rental_uris":{"android":"levelo://app?vid=b7234136-bf62-4ef1-9964-a9c43529d354","ios":"levelo://app?vid=b7234136-bf62-4ef1-9964-a9c43529d354"},"vehicle_type_id":"4","last_reported":1753780622,"current_range_meters":16000,"station_id":"","pricing_plan_id":"cebpf4jnsgd1na2vs0mg"},{"bike_id":"1bcdfa8c-b7c5-4d85-9ac7-5cf58af714f6","system_id":"levelo_inurba_marseille","lat":43.29038,"lon":5.38652,"is_reserved":false,"is_disabled":false,"rental_uris":{"android":"levelo://app?vid=1bcdfa8c-b7c5-4d85-9ac7-5cf58af714f6","ios":"levelo://app?vid=1bcdfa8c-b7c5-4d85-9ac7-5cf58af714f6"},"vehicle_type_id":"4","last_reported":1753780622,"current_range_meters":16000,"station_id":"ce4bh4p2rcd13ifvqe0g","pricing_plan_id":"cebpf4jnsgd1na2vs0mg"},{"bike_id":"d8e6094c-0de7-412e-bab8-3969f4a35524","system_id":"levelo_inurba_marseille","lat":43.29847,"lon":5.37574,"is_reserved":false,"is_disabled":false,"rental_uris":{"android":"levelo://app?vid=d8e6094c-0de7-412e-bab8-3969f4a35524","ios":"levelo://app?vid=d8e6094c-0de7-412e-bab8-3969f4a35524"},"vehicle_type_id":"4","last_reported":1753780622,"current_range_meters":16000,"station_id":"","pricing_plan_id":"cebpf4jnsgd1na2vs0mg"},{"bike_id":"0284b153-ed18-4aff-854a-398618bd67fc","system_id":"levelo_inurba_marseille","lat":43.28434,"lon":5.34996,"is_reserved":false,"is_disabled":false,"rental_uris":{"android":"levelo://app?vid=0284b153-ed18-4aff-854a-398618bd67fc","ios":"levelo://app?vid=0284b153-ed18-4aff-854a-398618bd67fc"},"vehicle_type_id":"4","last_reported":1753780622,"current_range_meters":16000,"station_id":"ce4bhbh2rcd13ifvqepg","pricing_plan_id":"cebpf4jnsgd1na2vs0mg"},{"bike_id":"a911c590-3fc3-41d8-a717-3e33faf888d9","system_id":"levelo_inurba_marseille","lat":43.25088,"lon":5.39502,"is_reserved":false,"is_disabled":false,"rental_uris":{"android":"levelo://app?vid=a911c590-3fc3-41d8-a717-3e33faf888d9","ios":"levelo://app?vid=a911c590-3fc3-41d8-a717-3e33faf888d9"},"vehicle_type_id":"4","last_reported":1753780622,"current_range_meters":16400,"station_id":"ce4bhm12rcd13ifvqgkg","pricing_plan_id":"cebpf4jnsgd1na2vs0mg"},{"bike_id":"57c25787-5337-4fe9-8a83-3851365c86d4","system_id":"levelo_inurba_marseille","lat":43.28621,"lon":5.35122,"is_reserved":false,"is_disabled":false,"rental_uris":{"android":"levelo://app?vid=57c25787-5337-4fe9-8a83-3851365c86d4","ios":"levelo://app?vid=57c25787-5337-4fe9-8a83-3851365c86d4"},"vehicle_type_id":"4","last_reported":1753780622,"current_range_meters":16400,"station_id":"ce4bhch2rcd13ifvqeug","pricing_plan_id":"cebpf4jnsgd1na2vs0mg"},{"bike_id":"d52bd79a-479d-43b4-ad86-786143dffe7c","system_id":"levelo_inurba_marseille","lat":43.31086,"lon":5.42451,"is_reserved":false,"is_disabled":false,"rental_uris":{"android":"levelo://app?vid=d52bd79a-479d-43b4-ad86-786143dffe7c","ios":"levelo://app?vid=d52bd79a-479d-43b4-ad86-786143dffe7c"},"vehicle_type_id":"4","last_reported":1753780622,"current_range_meters":16400,"station_id":"ce4bhp92rcd13ifvqhag","pricing_plan_id":"cebpf4jnsgd1na2vs0mg"},{"bike_id":"a5d21f19-a2f8-4c79-9341-84f97b97beb0","system_id":"levelo_inurba_marseille","lat":43.334004,"lon":5.400914,"is_reserved":false,"is_disabled":false,"rental_uris":{"android":"levelo://app?vid=a5d21f19-a2f8-4c79-9341-84f97b97beb0","ios":"levelo://app?vid=a5d21f19-a2f8-4c79-9341-84f97b97beb0"},"vehicle_type_id":"4","last_reported":1753780622,"current_range_meters":16400,"station_id":"","pricing_plan_id":"cebpf4jnsgd1na2vs0mg"},{"bike_id":"af74ab65-e306-4d0e-ab5e-461b144ffe6a","system_id":"levelo_inurba_marseille","lat":43.29583,"lon":5.3752,"is_reserved":false,"is_disabled":false,"rental_uris":{"android":"levelo://app?vid=af74ab65-e306-4d0e-ab5e-461b144ffe6a","ios":"levelo://app?vid=af74ab65-e306-4d0e-ab5e-461b144ffe6a"},"vehicle_type_id":"4","last_reported":1753780622,"current_range_meters":16400,"station_id":"ce4bgh92rcd13ifvqb50","pricing_plan_id":"cebpf4jnsgd1na2vs0mg"},{"bike_id":"6ad44a24-4533-4da0-9fd0-e52d1925d207","system_id":"levelo_inurba_marseille","lat":43.229276,"lon":5.353842,"is_reserved":false,"is_disabled":false,"rental_uris":{"android":"levelo://app?vid=6ad44a24-4533-4da0-9fd0-e52d1925d207","ios":"levelo://app?vid=6ad44a24-4533-4da0-9fd0-e52d1925d207"},"vehicle_type_id":"4","last_reported":1753780622,"current_range_meters":16800,"station_id":"cpo3532slgdg3j2ikp40","pricing_plan_id":"cebpf4jnsgd1na2vs0mg"},{"bike_id":"ab9c577b-9cc3-4d9b-9e71-2ee231744295","system_id":"levelo_inurba_marseille","lat":43.281,"lon":5.38406,"is_reserved":false,"is_disabled":false,"rental_uris":{"android":"levelo://app?vid=ab9c577b-9cc3-4d9b-9e71-2ee231744295","ios":"levelo://app?vid=ab9c577b-9cc3-4d9b-9e71-2ee231744295"},"vehicle_type_id":"4","last_reported":1753780622,"current_range_meters":16800,"station_id":"","pricing_plan_id":"cebpf4jnsgd1na2vs0mg"},{"bike_id":"e37eb161-fcf7-4b1c-b6d0-bf936484f52c","system_id":"levelo_inurba_marseille","lat":43.26812,"lon":5.40285,"is_reserved":false,"is_disabled":false,"rental_uris":{"android":"levelo://app?vid=e37eb161-fcf7-4b1c-b6d0-bf936484f52c","ios":"levelo://app?vid=e37eb161-fcf7-4b1c-b6d0-bf936484f52c"},"vehicle_type_id":"4","last_reported":1753780622,"current_range_meters":16800,"station_id":"ce501612rcd8frsf0b60","pricing_plan_id":"cebpf4jnsgd1na2vs0mg"},{"bike_id":"dc3de39f-df7c-4501-9c2c-7ec99cc2b010","system_id":"levelo_inurba_marseille","lat":43.29037,"lon":5.38656,"is_reserved":false,"is_disabled":false,"rental_uris":{"android":"levelo://app?vid=dc3de39f-df7c-4501-9c2c-7ec99cc2b010","ios":"levelo://app?vid=dc3de39f-df7c-4501-9c2c-7ec99cc2b010"},"vehicle_type_id":"4","last_reported":1753780622,"current_range_meters":16800,"station_id":"ce4bh4p2rcd13ifvqe0g","pricing_plan_id":"cebpf4jnsgd1na2vs0mg"},{"bike_id":"3c65e3a4-d98b-4db2-8d36-951b9612ba65","system_id":"levelo_inurba_marseille","lat":43.23192,"lon":5.35552,"is_reserved":false,"is_disabled":false,"rental_uris":{"android":"levelo://app?vid=3c65e3a4-d98b-4db2-8d36-951b9612ba65","ios":"levelo://app?vid=3c65e3a4-d98b-4db2-8d36-951b9612ba65"},"vehicle_type_id":"4","last_reported":1753780622,"current_range_meters":16800,"station_id":"ce4bhu92rcd13ifvqi70","pricing_plan_id":"cebpf4jnsgd1na2vs0mg"},{"bike_id":"07eaa5c6-166d-4bb2-aacf-4829c97689fc","system_id":"levelo_inurba_marseille","lat":43.27912,"lon":5.39578,"is_reserved":false,"is_disabled":false,"rental_uris":{"android":"levelo://app?vid=07eaa5c6-166d-4bb2-aacf-4829c97689fc","ios":"levelo://app?vid=07eaa5c6-166d-4bb2-aacf-4829c97689fc"},"vehicle_type_id":"4","last_reported":1753780622,"current_range_meters":16800,"station_id":"ce4bhf92rcd13ifvqf40","pricing_plan_id":"cebpf4jnsgd1na2vs0mg"},{"bike_id":"f80360ba-0fe8-4b25-a649-77e551b6ca41","system_id":"levelo_inurba_marseille","lat":43.262122,"lon":5.374476,"is_reserved":false,"is_disabled":false,"rental_uris":{"android":"levelo://app?vid=f80360ba-0fe8-4b25-a649-77e551b6ca41","ios":"levelo://app?vid=f80360ba-0fe8-4b25-a649-77e551b6ca41"},"vehicle_type_id":"4","last_reported":1753780622,"current_range_meters":16800,"station_id":"ce4bhgp2rcd13ifvqfc0","pricing_plan_id":"cebpf4jnsgd1na2vs0mg"},{"bike_id":"65128901-820a-4659-b3ee-e2b5bd719a50","system_id":"levelo_inurba_marseille","lat":43.24419,"lon":5.37093,"is_reserved":false,"is_disabled":false,"rental_uris":{"android":"levelo://app?vid=65128901-820a-4659-b3ee-e2b5bd719a50","ios":"levelo://app?vid=65128901-820a-4659-b3ee-e2b5bd719a50"},"vehicle_type_id":"4","last_reported":1753780622,"current_range_meters":16800,"station_id":"ce4bhhh2rcd13ifvqfk0","pricing_plan_id":"cebpf4jnsgd1na2vs0mg"},{"bike_id":"ef65f066-de96-432a-a3bf-b1b3ad0e62a1","system_id":"levelo_inurba_marseille","lat":43.32094,"lon":5.36794,"is_reserved":false,"is_disabled":false,"rental_uris":{"android":"levelo://app?vid=ef65f066-de96-432a-a3bf-b1b3ad0e62a1","ios":"levelo://app?vid=ef65f066-de96-432a-a3bf-b1b3ad0e62a1"},"vehicle_type_id":"4","last_reported":1753780622,"current_range_meters":16800,"station_id":"ce4bhrh2rcd13ifvqhug","pricing_plan_id":"cebpf4jnsgd1na2vs0mg"},{"bike_id":"6688b234-e2ab-4042-9518-5f2fcd353a74","system_id":"levelo_inurba_marseille","lat":43.305284,"lon":5.36713,"is_reserved":false,"is_disabled":false,"rental_uris":{"android":"levelo://app?vid=6688b234-e2ab-4042-9518-5f2fcd353a74","ios":"levelo://app?vid=6688b234-e2ab-4042-9518-5f2fcd353a74"},"vehicle_type_id":"4","last_reported":1753780622,"current_range_meters":16800,"station_id":"ce4bgrp2rcd13ifvqc9g","pricing_plan_id":"cebpf4jnsgd1na2vs0mg"},{"bike_id":"44b95661-263f-4a06-9511-84c496a88338","system_id":"levelo_inurba_marseille","lat":43.27318,"lon":5.39122,"is_reserved":false,"is_disabled":false,"rental_uris":{"android":"levelo://app?vid=44b95661-263f-4a06-9511-84c496a88338","ios":"levelo://app?vid=44b95661-263f-4a06-9511-84c496a88338"},"vehicle_type_id":"4","last_reported":1753780622,"current_range_meters":16800,"station_id":"ce4bhgp2rcd13ifvqfe0","pricing_plan_id":"cebpf4jnsgd1na2vs0mg"},{"bike_id":"9ec8faa6-a535-4fad-aa79-6cc1d20d11a0","system_id":"levelo_inurba_marseille","lat":43.33728,"lon":5.3919,"is_reserved":false,"is_disabled":false,"rental_uris":{"android":"levelo://app?vid=9ec8faa6-a535-4fad-aa79-6cc1d20d11a0","ios":"levelo://app?vid=9ec8faa6-a535-4fad-aa79-6cc1d20d11a0"},"vehicle_type_id":"4","last_reported":1753780622,"current_range_meters":17200,"station_id":"ce4bhr92rcd13ifvqhsg","pricing_plan_id":"cebpf4jnsgd1na2vs0mg"},{"bike_id":"567bec51-a0ed-4d2c-be90-a649621e54e8","system_id":"levelo_inurba_marseille","lat":43.31252,"lon":5.36887,"is_reserved":false,"is_disabled":false,"rental_uris":{"android":"levelo://app?vid=567bec51-a0ed-4d2c-be90-a649621e54e8","ios":"levelo://app?vid=567bec51-a0ed-4d2c-be90-a649621e54e8"},"vehicle_type_id":"4","last_reported":1753780622,"current_range_meters":17200,"station_id":"ce4bgl92rcd13ifvqbq0","pricing_plan_id":"cebpf4jnsgd1na2vs0mg"},{"bike_id":"96f2817b-2168-4f43-87e5-f90384c5b505","system_id":"levelo_inurba_marseille","lat":43.231902,"lon":5.355611,"is_reserved":false,"is_disabled":false,"rental_uris":{"android":"levelo://app?vid=96f2817b-2168-4f43-87e5-f90384c5b505","ios":"levelo://app?vid=96f2817b-2168-4f43-87e5-f90384c5b505"},"vehicle_type_id":"4","last_reported":1753780622,"current_range_meters":17200,"station_id":"ce4bhu92rcd13ifvqi70","pricing_plan_id":"cebpf4jnsgd1na2vs0mg"},{"bike_id":"f3e5a00b-4300-4e91-ac9f-fb47cbfc1768","system_id":"levelo_inurba_marseille","lat":43.297516,"lon":5.371469,"is_reserved":false,"is_disabled":false,"rental_uris":{"android":"levelo://app?vid=f3e5a00b-4300-4e91-ac9f-fb47cbfc1768","ios":"levelo://app?vid=f3e5a00b-4300-4e91-ac9f-fb47cbfc1768"},"vehicle_type_id":"4","last_reported":1753780622,"current_range_meters":17600,"station_id":"ce4bgn12rcd13ifvqbt0","pricing_plan_id":"cebpf4jnsgd1na2vs0mg"},{"bike_id":"3890866e-14a6-4b7d-939c-2b1449234ab5","system_id":"levelo_inurba_marseille","lat":43.25939,"lon":5.40904,"is_reserved":false,"is_disabled":false,"rental_uris":{"android":"levelo://app?vid=3890866e-14a6-4b7d-939c-2b1449234ab5","ios":"levelo://app?vid=3890866e-14a6-4b7d-939c-2b1449234ab5"},"vehicle_type_id":"4","last_reported":1753780622,"current_range_meters":17200,"station_id":"ce4bhm92rcd13ifvqglg","pricing_plan_id":"cebpf4jnsgd1na2vs0mg"},{"bike_id":"3e632e67-e785-475b-93e1-b0a668624c02","system_id":"levelo_inurba_marseille","lat":43.28139,"lon":5.42666,"is_reserved":false,"is_disabled":false,"rental_uris":{"android":"levelo://app?vid=3e632e67-e785-475b-93e1-b0a668624c02","ios":"levelo://app?vid=3e632e67-e785-475b-93e1-b0a668624c02"},"vehicle_type_id":"4","last_reported":1753780622,"current_range_meters":17200,"station_id":"ce4bhnh2rcd13ifvqgug","pricing_plan_id":"cebpf4jnsgd1na2vs0mg"},{"bike_id":"6f2c6eba-ec47-4ae2-b440-26f9d3066d4d","system_id":"levelo_inurba_marseille","lat":43.28044,"lon":5.36944,"is_reserved":false,"is_disabled":false,"rental_uris":{"android":"levelo://app?vid=6f2c6eba-ec47-4ae2-b440-26f9d3066d4d","ios":"levelo://app?vid=6f2c6eba-ec47-4ae2-b440-26f9d3066d4d"},"vehicle_type_id":"4","last_reported":1753780622,"current_range_meters":17200,"station_id":"ce4bha12rcd13ifvqef0","pricing_plan_id":"cebpf4jnsgd1na2vs0mg"},{"bike_id":"fdca3727-541b-4ce9-86f5-622ebf37c2e3","system_id":"levelo_inurba_marseille","lat":43.29721,"lon":5.37689,"is_reserved":false,"is_disabled":false,"rental_uris":{"android":"levelo://app?vid=fdca3727-541b-4ce9-86f5-622ebf37c2e3","ios":"levelo://app?vid=fdca3727-541b-4ce9-86f5-622ebf37c2e3"},"vehicle_type_id":"4","last_reported":1753780622,"current_range_meters":17200,"station_id":"ce4bgkh2rcd13ifvqbl0","pricing_plan_id":"cebpf4jnsgd1na2vs0mg"},{"bike_id":"4f3ff636-0b64-45d2-875b-19e020722376","system_id":"levelo_inurba_marseille","lat":43.29557,"lon":5.42293,"is_reserved":false,"is_disabled":false,"rental_uris":{"android":"levelo://app?vid=4f3ff636-0b64-45d2-875b-19e020722376","ios":"levelo://app?vid=4f3ff636-0b64-45d2-875b-19e020722376"},"vehicle_type_id":"4","last_reported":1753780622,"current_range_meters":17600,"station_id":"ce4bhph2rcd13ifvqhdg","pricing_plan_id":"cebpf4jnsgd1na2vs0mg"},{"bike_id":"b48f5dd0-6dba-4454-bab2-8fe0e77c0439","system_id":"levelo_inurba_marseille","lat":43.241646,"lon":5.363967,"is_reserved":false,"is_disabled":false,"rental_uris":{"android":"levelo://app?vid=b48f5dd0-6dba-4454-bab2-8fe0e77c0439","ios":"levelo://app?vid=b48f5dd0-6dba-4454-bab2-8fe0e77c0439"},"vehicle_type_id":"4","last_reported":1753780622,"current_range_meters":17600,"station_id":"cpo36qri1sfpv3e86is0","pricing_plan_id":"cebpf4jnsgd1na2vs0mg"},{"bike_id":"863b2e2b-1f2d-4c94-b7fc-5e3cf1d176ec","system_id":"levelo_inurba_marseille","lat":43.32106,"lon":5.36805,"is_reserved":false,"is_disabled":false,"rental_uris":{"android":"levelo://app?vid=863b2e2b-1f2d-4c94-b7fc-5e3cf1d176ec","ios":"levelo://app?vid=863b2e2b-1f2d-4c94-b7fc-5e3cf1d176ec"},"vehicle_type_id":"4","last_reported":1753780622,"current_range_meters":17600,"station_id":"ce4bhrh2rcd13ifvqhug","pricing_plan_id":"cebpf4jnsgd1na2vs0mg"},{"bike_id":"83244a3b-3972-4244-b97e-9c252aedfa55","system_id":"levelo_inurba_marseille","lat":43.23965,"lon":5.36628,"is_reserved":false,"is_disabled":false,"rental_uris":{"android":"levelo://app?vid=83244a3b-3972-4244-b97e-9c252aedfa55","ios":"levelo://app?vid=83244a3b-3972-4244-b97e-9c252aedfa55"},"vehicle_type_id":"4","last_reported":1753780622,"current_range_meters":17600,"station_id":"ce4bhi12rcd13ifvqfp0","pricing_plan_id":"cebpf4jnsgd1na2vs0mg"},{"bike_id":"e1c154b9-ce6f-4a4d-9576-3fd2fc28cc81","system_id":"levelo_inurba_marseille","lat":43.29296,"lon":5.37455,"is_reserved":false,"is_disabled":false,"rental_uris":{"android":"levelo://app?vid=e1c154b9-ce6f-4a4d-9576-3fd2fc28cc81","ios":"levelo://app?vid=e1c154b9-ce6f-4a4d-9576-3fd2fc28cc81"},"vehicle_type_id":"4","last_reported":1753780622,"current_range_meters":17600,"station_id":"ce4bgi12rcd13ifvqb70","pricing_plan_id":"cebpf4jnsgd1na2vs0mg"},{"bike_id":"c37bba93-6e69-4a74-b368-3ac1880ace05","system_id":"levelo_inurba_marseille","lat":43.28578,"lon":5.39492,"is_reserved":false,"is_disabled":false,"rental_uris":{"android":"levelo://app?vid=c37bba93-6e69-4a74-b368-3ac1880ace05","ios":"levelo://app?vid=c37bba93-6e69-4a74-b368-3ac1880ace05"},"vehicle_type_id":"4","last_reported":1753780622,"current_range_meters":17600,"station_id":"ce4bh292rcd13ifvqdg0","pricing_plan_id":"cebpf4jnsgd1na2vs0mg"},{"bike_id":"e160a4fd-6d8f-49bd-b928-7a8011b4a799","system_id":"levelo_inurba_marseille","lat":43.28267,"lon":5.35062,"is_reserved":false,"is_disabled":false,"rental_uris":{"android":"levelo://app?vid=e160a4fd-6d8f-49bd-b928-7a8011b4a799","ios":"levelo://app?vid=e160a4fd-6d8f-49bd-b928-7a8011b4a799"},"vehicle_type_id":"4","last_reported":1753780622,"current_range_meters":17600,"station_id":"ce4bhbp2rcd13ifvqerg","pricing_plan_id":"cebpf4jnsgd1na2vs0mg"},{"bike_id":"583fe4cd-2e74-4e07-9efb-40c9db83ffb6","system_id":"levelo_inurba_marseille","lat":43.22512,"lon":5.34791,"is_reserved":false,"is_disabled":true,"rental_uris":{"android":"levelo://app?vid=583fe4cd-2e74-4e07-9efb-40c9db83ffb6","ios":"levelo://app?vid=583fe4cd-2e74-4e07-9efb-40c9db83ffb6"},"vehicle_type_id":"4","last_reported":1753780622,"current_range_meters":17600,"station_id":"st_cvj5dfep6f1abm77gieg","pricing_plan_id":"cebpf4jnsgd1na2vs0mg"},{"bike_id":"4ee8be87-6ed3-49ce-a049-7b71eefd091d","system_id":"levelo_inurba_marseille","lat":43.30315,"lon":5.36899,"is_reserved":false,"is_disabled":false,"rental_uris":{"android":"levelo://app?vid=4ee8be87-6ed3-49ce-a049-7b71eefd091d","ios":"levelo://app?vid=4ee8be87-6ed3-49ce-a049-7b71eefd091d"},"vehicle_type_id":"4","last_reported":1753780622,"current_range_meters":17600,"station_id":"ce4bgqh2rcd13ifvqc5g","pricing_plan_id":"cebpf4jnsgd1na2vs0mg"},{"bike_id":"35c04ed3-3f32-4bf9-8a1e-9f2898086490","system_id":"levelo_inurba_marseille","lat":43.24548,"lon":5.38047,"is_reserved":false,"is_disabled":false,"rental_uris":{"android":"levelo://app?vid=35c04ed3-3f32-4bf9-8a1e-9f2898086490","ios":"levelo://app?vid=35c04ed3-3f32-4bf9-8a1e-9f2898086490"},"vehicle_type_id":"4","last_reported":1753780622,"current_range_meters":18000,"station_id":"","pricing_plan_id":"cebpf4jnsgd1na2vs0mg"},{"bike_id":"dcfdafab-b01a-465c-90c8-169c274c9970","system_id":"levelo_inurba_marseille","lat":43.296055,"lon":5.377112,"is_reserved":false,"is_disabled":false,"rental_uris":{"android":"levelo://app?vid=dcfdafab-b01a-465c-90c8-169c274c9970","ios":"levelo://app?vid=dcfdafab-b01a-465c-90c8-169c274c9970"},"vehicle_type_id":"4","last_reported":1753780622,"current_range_meters":18000,"station_id":"","pricing_plan_id":"cebpf4jnsgd1na2vs0mg"},{"bike_id":"b4c74b11-a67e-40a3-9e0c-b42217416a86","system_id":"levelo_inurba_marseille","lat":43.26676,"lon":5.38265,"is_reserved":false,"is_disabled":false,"rental_uris":{"android":"levelo://app?vid=b4c74b11-a67e-40a3-9e0c-b42217416a86","ios":"levelo://app?vid=b4c74b11-a67e-40a3-9e0c-b42217416a86"},"vehicle_type_id":"4","last_reported":1753780622,"current_range_meters":18000,"station_id":"ce4bhg92rcd13ifvqf90","pricing_plan_id":"cebpf4jnsgd1na2vs0mg"},{"bike_id":"0cf845a0-39d9-4483-b421-70c739a5335a","system_id":"levelo_inurba_marseille","lat":43.2797,"lon":5.38748,"is_reserved":false,"is_disabled":false,"rental_uris":{"android":"levelo://app?vid=0cf845a0-39d9-4483-b421-70c739a5335a","ios":"levelo://app?vid=0cf845a0-39d9-4483-b421-70c739a5335a"},"vehicle_type_id":"4","last_reported":1753780622,"current_range_meters":18000,"station_id":"ce4bhg12rcd13ifvqf80","pricing_plan_id":"cebpf4jnsgd1na2vs0mg"},{"bike_id":"135ab1ea-fc9a-4785-9240-6bfa3adf7c7c","system_id":"levelo_inurba_marseille","lat":43.323653,"lon":5.36754,"is_reserved":false,"is_disabled":false,"rental_uris":{"android":"levelo://app?vid=135ab1ea-fc9a-4785-9240-6bfa3adf7c7c","ios":"levelo://app?vid=135ab1ea-fc9a-4785-9240-6bfa3adf7c7c"},"vehicle_type_id":"4","last_reported":1753780622,"current_range_meters":18000,"station_id":"ce4bhsh2rcd13ifvqi2g","pricing_plan_id":"cebpf4jnsgd1na2vs0mg"},{"bike_id":"9a6f8140-f860-4a66-b6dc-5db52176e0cf","system_id":"levelo_inurba_marseille","lat":43.23199,"lon":5.35578,"is_reserved":false,"is_disabled":false,"rental_uris":{"android":"levelo://app?vid=9a6f8140-f860-4a66-b6dc-5db52176e0cf","ios":"levelo://app?vid=9a6f8140-f860-4a66-b6dc-5db52176e0cf"},"vehicle_type_id":"4","last_reported":1753780622,"current_range_meters":18000,"station_id":"ce4bhu92rcd13ifvqi70","pricing_plan_id":"cebpf4jnsgd1na2vs0mg"},{"bike_id":"64d55015-af70-4bce-9f99-aaa8cb162c53","system_id":"levelo_inurba_marseille","lat":43.32483,"lon":5.36575,"is_reserved":false,"is_disabled":false,"rental_uris":{"android":"levelo://app?vid=64d55015-af70-4bce-9f99-aaa8cb162c53","ios":"levelo://app?vid=64d55015-af70-4bce-9f99-aaa8cb162c53"},"vehicle_type_id":"4","last_reported":1753780622,"current_range_meters":18000,"station_id":"ce4bhs12rcd13ifvqhvg","pricing_plan_id":"cebpf4jnsgd1na2vs0mg"},{"bike_id":"627f65aa-2ce0-4448-aeb9-436d30ec6ece","system_id":"levelo_inurba_marseille","lat":43.28155,"lon":5.42637,"is_reserved":false,"is_disabled":false,"rental_uris":{"android":"levelo://app?vid=627f65aa-2ce0-4448-aeb9-436d30ec6ece","ios":"levelo://app?vid=627f65aa-2ce0-4448-aeb9-436d30ec6ece"},"vehicle_type_id":"4","last_reported":1753780622,"current_range_meters":18000,"station_id":"ce4bhnh2rcd13ifvqgug","pricing_plan_id":"cebpf4jnsgd1na2vs0mg"},{"bike_id":"ae160175-06a8-4ec4-8cd4-b0c682909b29","system_id":"levelo_inurba_marseille","lat":43.28617,"lon":5.350993,"is_reserved":false,"is_disabled":false,"rental_uris":{"android":"levelo://app?vid=ae160175-06a8-4ec4-8cd4-b0c682909b29","ios":"levelo://app?vid=ae160175-06a8-4ec4-8cd4-b0c682909b29"},"vehicle_type_id":"4","last_reported":1753780622,"current_range_meters":18000,"station_id":"ce4bhch2rcd13ifvqeug","pricing_plan_id":"cebpf4jnsgd1na2vs0mg"},{"bike_id":"f27ec24b-b347-4246-b866-8c5cfd48194c","system_id":"levelo_inurba_marseille","lat":43.29282,"lon":5.40126,"is_reserved":false,"is_disabled":false,"rental_uris":{"android":"levelo://app?vid=f27ec24b-b347-4246-b866-8c5cfd48194c","ios":"levelo://app?vid=f27ec24b-b347-4246-b866-8c5cfd48194c"},"vehicle_type_id":"4","last_reported":1753780622,"current_range_meters":18000,"station_id":"ce4bh312rcd13ifvqdk0","pricing_plan_id":"cebpf4jnsgd1na2vs0mg"},{"bike_id":"24ddc855-9db1-447b-8cc7-fb33f85a47fb","system_id":"levelo_inurba_marseille","lat":43.30595,"lon":5.37213,"is_reserved":false,"is_disabled":false,"rental_uris":{"android":"levelo://app?vid=24ddc855-9db1-447b-8cc7-fb33f85a47fb","ios":"levelo://app?vid=24ddc855-9db1-447b-8cc7-fb33f85a47fb"},"vehicle_type_id":"4","last_reported":1753780622,"current_range_meters":18000,"station_id":"ce4bgqh2rcd13ifvqc4g","pricing_plan_id":"cebpf4jnsgd1na2vs0mg"},{"bike_id":"e94e1238-2f30-4079-9f05-2db7122f50b8","system_id":"levelo_inurba_marseille","lat":43.27308,"lon":5.39091,"is_reserved":false,"is_disabled":false,"rental_uris":{"android":"levelo://app?vid=e94e1238-2f30-4079-9f05-2db7122f50b8","ios":"levelo://app?vid=e94e1238-2f30-4079-9f05-2db7122f50b8"},"vehicle_type_id":"4","last_reported":1753780622,"current_range_meters":18000,"station_id":"ce4bhgp2rcd13ifvqfe0","pricing_plan_id":"cebpf4jnsgd1na2vs0mg"},{"bike_id":"a6a46ae2-d764-44ee-baf2-a76e49bd9084","system_id":"levelo_inurba_marseille","lat":43.26986,"lon":5.40311,"is_reserved":false,"is_disabled":false,"rental_uris":{"android":"levelo://app?vid=a6a46ae2-d764-44ee-baf2-a76e49bd9084","ios":"levelo://app?vid=a6a46ae2-d764-44ee-baf2-a76e49bd9084"},"vehicle_type_id":"4","last_reported":1753780622,"current_range_meters":18000,"station_id":"","pricing_plan_id":"cebpf4jnsgd1na2vs0mg"},{"bike_id":"00de3457-bb26-4f86-be97-d29604933a4d","system_id":"levelo_inurba_marseille","lat":43.286446,"lon":5.371763,"is_reserved":false,"is_disabled":false,"rental_uris":{"android":"levelo://app?vid=00de3457-bb26-4f86-be97-d29604933a4d","ios":"levelo://app?vid=00de3457-bb26-4f86-be97-d29604933a4d"},"vehicle_type_id":"4","last_reported":1753780622,"current_range_meters":18000,"station_id":"","pricing_plan_id":"cebpf4jnsgd1na2vs0mg"},{"bike_id":"585d357c-87fd-4435-8f2e-f272623916d8","system_id":"levelo_inurba_marseille","lat":43.29542,"lon":5.38548,"is_reserved":false,"is_disabled":true,"rental_uris":{"android":"levelo://app?vid=585d357c-87fd-4435-8f2e-f272623916d8","ios":"levelo://app?vid=585d357c-87fd-4435-8f2e-f272623916d8"},"vehicle_type_id":"4","last_reported":1753780622,"current_range_meters":18800,"station_id":"ce4bgih2rcd13ifvqba0","pricing_plan_id":"cebpf4jnsgd1na2vs0mg"},{"bike_id":"2fad1b6f-d0b7-4211-9b9d-661d7c090096","system_id":"levelo_inurba_marseille","lat":43.298146,"lon":5.43336,"is_reserved":false,"is_disabled":false,"rental_uris":{"android":"levelo://app?vid=2fad1b6f-d0b7-4211-9b9d-661d7c090096","ios":"levelo://app?vid=2fad1b6f-d0b7-4211-9b9d-661d7c090096"},"vehicle_type_id":"4","last_reported":1753780622,"current_range_meters":18800,"station_id":"","pricing_plan_id":"cebpf4jnsgd1na2vs0mg"},{"bike_id":"6a8221ad-83c9-40bd-8997-bb175766af1b","system_id":"levelo_inurba_marseille","lat":43.28423,"lon":5.35001,"is_reserved":false,"is_disabled":false,"rental_uris":{"android":"levelo://app?vid=6a8221ad-83c9-40bd-8997-bb175766af1b","ios":"levelo://app?vid=6a8221ad-83c9-40bd-8997-bb175766af1b"},"vehicle_type_id":"4","last_reported":1753780622,"current_range_meters":18800,"station_id":"ce4bhbh2rcd13ifvqepg","pricing_plan_id":"cebpf4jnsgd1na2vs0mg"},{"bike_id":"eba8ca75-8dd4-4f8a-8d08-eb7c57baa236","system_id":"levelo_inurba_marseille","lat":43.2122,"lon":5.35142,"is_reserved":false,"is_disabled":false,"rental_uris":{"android":"levelo://app?vid=eba8ca75-8dd4-4f8a-8d08-eb7c57baa236","ios":"levelo://app?vid=eba8ca75-8dd4-4f8a-8d08-eb7c57baa236"},"vehicle_type_id":"4","last_reported":1753780622,"current_range_meters":18800,"station_id":"","pricing_plan_id":"cebpf4jnsgd1na2vs0mg"},{"bike_id":"9334f34a-980a-401c-82f4-9a8b79f8762a","system_id":"levelo_inurba_marseille","lat":43.32482,"lon":5.3658,"is_reserved":false,"is_disabled":false,"rental_uris":{"android":"levelo://app?vid=9334f34a-980a-401c-82f4-9a8b79f8762a","ios":"levelo://app?vid=9334f34a-980a-401c-82f4-9a8b79f8762a"},"vehicle_type_id":"4","last_reported":1753780622,"current_range_meters":18800,"station_id":"ce4bhs12rcd13ifvqhvg","pricing_plan_id":"cebpf4jnsgd1na2vs0mg"},{"bike_id":"e7a548be-cab7-42f7-9bdc-e660ec352b7b","system_id":"levelo_inurba_marseille","lat":43.31164,"lon":5.38731,"is_reserved":false,"is_disabled":false,"rental_uris":{"android":"levelo://app?vid=e7a548be-cab7-42f7-9bdc-e660ec352b7b","ios":"levelo://app?vid=e7a548be-cab7-42f7-9bdc-e660ec352b7b"},"vehicle_type_id":"4","last_reported":1753780622,"current_range_meters":18800,"station_id":"ce4bgv12rcd13ifvqcp0","pricing_plan_id":"cebpf4jnsgd1na2vs0mg"},{"bike_id":"cfb9d1fa-97e6-408f-bb20-a25db5c9e6cb","system_id":"levelo_inurba_marseille","lat":43.303189,"lon":5.404355,"is_reserved":false,"is_disabled":false,"rental_uris":{"android":"levelo://app?vid=cfb9d1fa-97e6-408f-bb20-a25db5c9e6cb","ios":"levelo://app?vid=cfb9d1fa-97e6-408f-bb20-a25db5c9e6cb"},"vehicle_type_id":"4","last_reported":1753780622,"current_range_meters":18800,"station_id":"ce4bh012rcd13ifvqd10","pricing_plan_id":"cebpf4jnsgd1na2vs0mg"},{"bike_id":"6ba47dcc-edbb-4ace-b04d-13fdf49a86fd","system_id":"levelo_inurba_marseille","lat":43.27051,"lon":5.40261,"is_reserved":false,"is_disabled":false,"rental_uris":{"android":"levelo://app?vid=6ba47dcc-edbb-4ace-b04d-13fdf49a86fd","ios":"levelo://app?vid=6ba47dcc-edbb-4ace-b04d-13fdf49a86fd"},"vehicle_type_id":"4","last_reported":1753780622,"current_range_meters":18800,"station_id":"ce4bhk92rcd13ifvqgc0","pricing_plan_id":"cebpf4jnsgd1na2vs0mg"},{"bike_id":"5aae0171-8e81-41e3-9059-0b6db07bd8e8","system_id":"levelo_inurba_marseille","lat":43.28411,"lon":5.34989,"is_reserved":false,"is_disabled":false,"rental_uris":{"android":"levelo://app?vid=5aae0171-8e81-41e3-9059-0b6db07bd8e8","ios":"levelo://app?vid=5aae0171-8e81-41e3-9059-0b6db07bd8e8"},"vehicle_type_id":"4","last_reported":1753780622,"current_range_meters":18800,"station_id":"ce4bhbh2rcd13ifvqepg","pricing_plan_id":"cebpf4jnsgd1na2vs0mg"},{"bike_id":"47c3d62e-171a-4baa-aa46-c15faedaf53d","system_id":"levelo_inurba_marseille","lat":43.26933,"lon":5.389163,"is_reserved":false,"is_disabled":false,"rental_uris":{"android":"levelo://app?vid=47c3d62e-171a-4baa-aa46-c15faedaf53d","ios":"levelo://app?vid=47c3d62e-171a-4baa-aa46-c15faedaf53d"},"vehicle_type_id":"4","last_reported":1753780622,"current_range_meters":18800,"station_id":"ce4bhhh2rcd13ifvqfl0","pricing_plan_id":"cebpf4jnsgd1na2vs0mg"},{"bike_id":"c686771c-e4d6-4ee5-934b-f3ca190b833e","system_id":"levelo_inurba_marseille","lat":43.32765,"lon":5.39204,"is_reserved":false,"is_disabled":false,"rental_uris":{"android":"levelo://app?vid=c686771c-e4d6-4ee5-934b-f3ca190b833e","ios":"levelo://app?vid=c686771c-e4d6-4ee5-934b-f3ca190b833e"},"vehicle_type_id":"4","last_reported":1753780622,"current_range_meters":18800,"station_id":"","pricing_plan_id":"cebpf4jnsgd1na2vs0mg"},{"bike_id":"dc582e4d-d703-4a63-8f46-c733aaea17da","system_id":"levelo_inurba_marseille","lat":43.24662,"lon":5.38167,"is_reserved":false,"is_disabled":false,"rental_uris":{"android":"levelo://app?vid=dc582e4d-d703-4a63-8f46-c733aaea17da","ios":"levelo://app?vid=dc582e4d-d703-4a63-8f46-c733aaea17da"},"vehicle_type_id":"4","last_reported":1753780622,"current_range_meters":18800,"station_id":"ce4bhih2rcd13ifvqfr0","pricing_plan_id":"cebpf4jnsgd1na2vs0mg"},{"bike_id":"6c40ec02-1921-499d-8c43-12f25ee6244b","system_id":"levelo_inurba_marseille","lat":43.24096,"lon":5.37763,"is_reserved":false,"is_disabled":false,"rental_uris":{"android":"levelo://app?vid=6c40ec02-1921-499d-8c43-12f25ee6244b","ios":"levelo://app?vid=6c40ec02-1921-499d-8c43-12f25ee6244b"},"vehicle_type_id":"4","last_reported":1753780622,"current_range_meters":18800,"station_id":"ce4bhnp2rcd13ifvqgvg","pricing_plan_id":"cebpf4jnsgd1na2vs0mg"},{"bike_id":"376d5e0e-5279-4719-85d3-c90915196027","system_id":"levelo_inurba_marseille","lat":43.312673,"lon":5.3672,"is_reserved":false,"is_disabled":false,"rental_uris":{"android":"levelo://app?vid=376d5e0e-5279-4719-85d3-c90915196027","ios":"levelo://app?vid=376d5e0e-5279-4719-85d3-c90915196027"},"vehicle_type_id":"4","last_reported":1753780622,"current_range_meters":19200,"station_id":"ce4bgr92rcd13ifvqc6g","pricing_plan_id":"cebpf4jnsgd1na2vs0mg"},{"bike_id":"3b0fc468-0f53-43b2-bdc9-2accbf6297e5","system_id":"levelo_inurba_marseille","lat":43.29656,"lon":5.37931,"is_reserved":false,"is_disabled":false,"rental_uris":{"android":"levelo://app?vid=3b0fc468-0f53-43b2-bdc9-2accbf6297e5","ios":"levelo://app?vid=3b0fc468-0f53-43b2-bdc9-2accbf6297e5"},"vehicle_type_id":"4","last_reported":1753780622,"current_range_meters":19200,"station_id":"","pricing_plan_id":"cebpf4jnsgd1na2vs0mg"},{"bike_id":"b35604be-a46e-4139-b0aa-2106fe46284f","system_id":"levelo_inurba_marseille","lat":43.28438,"lon":5.34974,"is_reserved":false,"is_disabled":false,"rental_uris":{"android":"levelo://app?vid=b35604be-a46e-4139-b0aa-2106fe46284f","ios":"levelo://app?vid=b35604be-a46e-4139-b0aa-2106fe46284f"},"vehicle_type_id":"4","last_reported":1753780622,"current_range_meters":19200,"station_id":"ce4bhbh2rcd13ifvqepg","pricing_plan_id":"cebpf4jnsgd1na2vs0mg"},{"bike_id":"6899e2e9-11d4-4744-ba20-38a84388c2bc","system_id":"levelo_inurba_marseille","lat":43.3249,"lon":5.3656,"is_reserved":false,"is_disabled":false,"rental_uris":{"android":"levelo://app?vid=6899e2e9-11d4-4744-ba20-38a84388c2bc","ios":"levelo://app?vid=6899e2e9-11d4-4744-ba20-38a84388c2bc"},"vehicle_type_id":"4","last_reported":1753780622,"current_range_meters":19200,"station_id":"ce4bhs12rcd13ifvqhvg","pricing_plan_id":"cebpf4jnsgd1na2vs0mg"},{"bike_id":"e5025d75-0be2-4ade-983e-e7b1f4a71865","system_id":"levelo_inurba_marseille","lat":43.24387,"lon":5.3709,"is_reserved":false,"is_disabled":false,"rental_uris":{"android":"levelo://app?vid=e5025d75-0be2-4ade-983e-e7b1f4a71865","ios":"levelo://app?vid=e5025d75-0be2-4ade-983e-e7b1f4a71865"},"vehicle_type_id":"4","last_reported":1753780622,"current_range_meters":19200,"station_id":"ce4bhhh2rcd13ifvqfk0","pricing_plan_id":"cebpf4jnsgd1na2vs0mg"},{"bike_id":"e69bcd02-3737-403a-8168-1f3bfdebcf91","system_id":"levelo_inurba_marseille","lat":43.27211,"lon":5.39179,"is_reserved":false,"is_disabled":false,"rental_uris":{"android":"levelo://app?vid=e69bcd02-3737-403a-8168-1f3bfdebcf91","ios":"levelo://app?vid=e69bcd02-3737-403a-8168-1f3bfdebcf91"},"vehicle_type_id":"4","last_reported":1753780622,"current_range_meters":19200,"station_id":"ce4bhhp2rcd13ifvqfm0","pricing_plan_id":"cebpf4jnsgd1na2vs0mg"},{"bike_id":"91e17399-d936-4f93-a978-801e80f8b687","system_id":"levelo_inurba_marseille","lat":43.23195,"lon":5.35553,"is_reserved":false,"is_disabled":false,"rental_uris":{"android":"levelo://app?vid=91e17399-d936-4f93-a978-801e80f8b687","ios":"levelo://app?vid=91e17399-d936-4f93-a978-801e80f8b687"},"vehicle_type_id":"4","last_reported":1753780622,"current_range_meters":19200,"station_id":"ce4bhu92rcd13ifvqi70","pricing_plan_id":"cebpf4jnsgd1na2vs0mg"},{"bike_id":"915513aa-2ef0-4e1b-9aa3-73608a47efab","system_id":"levelo_inurba_marseille","lat":43.225031,"lon":5.347872,"is_reserved":false,"is_disabled":false,"rental_uris":{"android":"levelo://app?vid=915513aa-2ef0-4e1b-9aa3-73608a47efab","ios":"levelo://app?vid=915513aa-2ef0-4e1b-9aa3-73608a47efab"},"vehicle_type_id":"4","last_reported":1753780622,"current_range_meters":19200,"station_id":"st_cvj5dfep6f1abm77gieg","pricing_plan_id":"cebpf4jnsgd1na2vs0mg"},{"bike_id":"82d57d4c-66e6-4f12-a6c5-1ed406f2a5ea","system_id":"levelo_inurba_marseille","lat":43.30903,"lon":5.36876,"is_reserved":false,"is_disabled":false,"rental_uris":{"android":"levelo://app?vid=82d57d4c-66e6-4f12-a6c5-1ed406f2a5ea","ios":"levelo://app?vid=82d57d4c-66e6-4f12-a6c5-1ed406f2a5ea"},"vehicle_type_id":"4","last_reported":1753780622,"current_range_meters":19200,"station_id":"ce4bgn92rcd13ifvqbvg","pricing_plan_id":"cebpf4jnsgd1na2vs0mg"},{"bike_id":"7d63cf5a-0da2-4b18-a94a-562fda8ccf0c","system_id":"levelo_inurba_marseille","lat":43.241657,"lon":5.364072,"is_reserved":false,"is_disabled":false,"rental_uris":{"android":"levelo://app?vid=7d63cf5a-0da2-4b18-a94a-562fda8ccf0c","ios":"levelo://app?vid=7d63cf5a-0da2-4b18-a94a-562fda8ccf0c"},"vehicle_type_id":"4","last_reported":1753780622,"current_range_meters":19200,"station_id":"cpo36qri1sfpv3e86is0","pricing_plan_id":"cebpf4jnsgd1na2vs0mg"},{"bike_id":"1a28ecec-514a-4bd3-bd88-2806d591c4e0","system_id":"levelo_inurba_marseille","lat":43.24392,"lon":5.37088,"is_reserved":false,"is_disabled":false,"rental_uris":{"android":"levelo://app?vid=1a28ecec-514a-4bd3-bd88-2806d591c4e0","ios":"levelo://app?vid=1a28ecec-514a-4bd3-bd88-2806d591c4e0"},"vehicle_type_id":"4","last_reported":1753780622,"current_range_meters":19600,"station_id":"ce4bhhh2rcd13ifvqfk0","pricing_plan_id":"cebpf4jnsgd1na2vs0mg"},{"bike_id":"263beef5-0af6-42e7-b43d-6b7fef030aa4","system_id":"levelo_inurba_marseille","lat":43.26829,"lon":5.40273,"is_reserved":false,"is_disabled":false,"rental_uris":{"android":"levelo://app?vid=263beef5-0af6-42e7-b43d-6b7fef030aa4","ios":"levelo://app?vid=263beef5-0af6-42e7-b43d-6b7fef030aa4"},"vehicle_type_id":"4","last_reported":1753780622,"current_range_meters":19600,"station_id":"ce501612rcd8frsf0b60","pricing_plan_id":"cebpf4jnsgd1na2vs0mg"},{"bike_id":"c9cbd00f-02e7-4e3c-9f28-2cae09854635","system_id":"levelo_inurba_marseille","lat":43.266797,"lon":5.382638,"is_reserved":false,"is_disabled":false,"rental_uris":{"android":"levelo://app?vid=c9cbd00f-02e7-4e3c-9f28-2cae09854635","ios":"levelo://app?vid=c9cbd00f-02e7-4e3c-9f28-2cae09854635"},"vehicle_type_id":"4","last_reported":1753780622,"current_range_meters":19600,"station_id":"ce4bhg92rcd13ifvqf90","pricing_plan_id":"cebpf4jnsgd1na2vs0mg"},{"bike_id":"b44d763b-4f92-4731-b76a-85ebcd91acd5","system_id":"levelo_inurba_marseille","lat":43.30199,"lon":5.37124,"is_reserved":false,"is_disabled":false,"rental_uris":{"android":"levelo://app?vid=b44d763b-4f92-4731-b76a-85ebcd91acd5","ios":"levelo://app?vid=b44d763b-4f92-4731-b76a-85ebcd91acd5"},"vehicle_type_id":"4","last_reported":1753780622,"current_range_meters":19600,"station_id":"","pricing_plan_id":"cebpf4jnsgd1na2vs0mg"},{"bike_id":"d7be44f6-0bb4-4324-a64a-f1d64a52bbb0","system_id":"levelo_inurba_marseille","lat":43.29283,"lon":5.37438,"is_reserved":false,"is_disabled":false,"rental_uris":{"android":"levelo://app?vid=d7be44f6-0bb4-4324-a64a-f1d64a52bbb0","ios":"levelo://app?vid=d7be44f6-0bb4-4324-a64a-f1d64a52bbb0"},"vehicle_type_id":"4","last_reported":1753780622,"current_range_meters":19600,"station_id":"ce4bgi12rcd13ifvqb70","pricing_plan_id":"cebpf4jnsgd1na2vs0mg"},{"bike_id":"94701e02-c6f1-443a-81ad-610be4f78b1d","system_id":"levelo_inurba_marseille","lat":43.281228,"lon":5.389146,"is_reserved":false,"is_disabled":false,"rental_uris":{"android":"levelo://app?vid=94701e02-c6f1-443a-81ad-610be4f78b1d","ios":"levelo://app?vid=94701e02-c6f1-443a-81ad-610be4f78b1d"},"vehicle_type_id":"4","last_reported":1753780622,"current_range_meters":19600,"station_id":"","pricing_plan_id":"cebpf4jnsgd1na2vs0mg"},{"bike_id":"22004ec3-7b2f-4725-a66e-a5f67c82c0e0","system_id":"levelo_inurba_marseille","lat":43.25113,"lon":5.4032,"is_reserved":false,"is_disabled":false,"rental_uris":{"android":"levelo://app?vid=22004ec3-7b2f-4725-a66e-a5f67c82c0e0","ios":"levelo://app?vid=22004ec3-7b2f-4725-a66e-a5f67c82c0e0"},"vehicle_type_id":"4","last_reported":1753780622,"current_range_meters":20000,"station_id":"ce4bhlh2rcd13ifvqgig","pricing_plan_id":"cebpf4jnsgd1na2vs0mg"},{"bike_id":"11a1b103-3025-4e7c-a909-8ea3cfd36f8f","system_id":"levelo_inurba_marseille","lat":43.32368,"lon":5.388884,"is_reserved":false,"is_disabled":false,"rental_uris":{"android":"levelo://app?vid=11a1b103-3025-4e7c-a909-8ea3cfd36f8f","ios":"levelo://app?vid=11a1b103-3025-4e7c-a909-8ea3cfd36f8f"},"vehicle_type_id":"4","last_reported":1753780622,"current_range_meters":19600,"station_id":"ce4bhqp2rcd13ifvqhog","pricing_plan_id":"cebpf4jnsgd1na2vs0mg"},{"bike_id":"347541b0-e2f3-42c7-96f4-367904768e18","system_id":"levelo_inurba_marseille","lat":43.27498,"lon":5.4251,"is_reserved":false,"is_disabled":false,"rental_uris":{"android":"levelo://app?vid=347541b0-e2f3-42c7-96f4-367904768e18","ios":"levelo://app?vid=347541b0-e2f3-42c7-96f4-367904768e18"},"vehicle_type_id":"4","last_reported":1753780622,"current_range_meters":19600,"station_id":"ce4bhn92rcd13ifvqgrg","pricing_plan_id":"cebpf4jnsgd1na2vs0mg"},{"bike_id":"254c2975-c20b-4f51-8144-9b82ed27a3d5","system_id":"levelo_inurba_marseille","lat":43.26938,"lon":5.38918,"is_reserved":false,"is_disabled":false,"rental_uris":{"android":"levelo://app?vid=254c2975-c20b-4f51-8144-9b82ed27a3d5","ios":"levelo://app?vid=254c2975-c20b-4f51-8144-9b82ed27a3d5"},"vehicle_type_id":"4","last_reported":1753780622,"current_range_meters":19200,"station_id":"ce4bhhh2rcd13ifvqfl0","pricing_plan_id":"cebpf4jnsgd1na2vs0mg"},{"bike_id":"47aa1595-7f9b-454c-b236-7e42e13fe541","system_id":"levelo_inurba_marseille","lat":43.33795,"lon":5.37425,"is_reserved":false,"is_disabled":false,"rental_uris":{"android":"levelo://app?vid=47aa1595-7f9b-454c-b236-7e42e13fe541","ios":"levelo://app?vid=47aa1595-7f9b-454c-b236-7e42e13fe541"},"vehicle_type_id":"4","last_reported":1753780622,"current_range_meters":19600,"station_id":"","pricing_plan_id":"cebpf4jnsgd1na2vs0mg"},{"bike_id":"17b23f6f-8523-4ede-9192-841d6e39ec2d","system_id":"levelo_inurba_marseille","lat":43.31251,"lon":5.39553,"is_reserved":false,"is_disabled":false,"rental_uris":{"android":"levelo://app?vid=17b23f6f-8523-4ede-9192-841d6e39ec2d","ios":"levelo://app?vid=17b23f6f-8523-4ede-9192-841d6e39ec2d"},