{"last_updated":1701464774,"ttl":30,"version":"2.2","data":{"bikes":[{"bike_id":"3efa08df-3312-4713-aa93-16c6310cbc32","system_id":"levelo_inurba_marseille","lat":43.312239,"lon":5.368562,"is_reserved":false,"is_disabled":false,"rental_uris":{"android":"levelo://app?vid=3efa08df-3312-4713-aa93-16c6310cbc32","ios":"levelo://app?vid=3efa08df-3312-4713-aa93-16c6310cbc32"},"vehicle_type_id":"4","last_reported":1701464774,"current_range_meters":0,"station_id":"ce4bgl92rcd13ifvqbq0","pricing_plan_id":"free"},{"bike_id":"3002ea0f-8d03-4cdc-8e4e-c36209494bba","system_id":"levelo_inurba_marseille","lat":43.312239,"lon":5.368562,"is_reserved":false,"is_disabled":false,"rental_uris":{"android":"levelo://app?vid=3002ea0f-8d03-4cdc-8e4e-c36209494bba","ios":"levelo://app?vid=3002ea0f-8d03-4cdc-8e4e-c36209494bba"},"vehicle_type_id":"4","last_reported":1701464774,"current_range_meters":0,"station_id":"ce4bgl92rcd13ifvqbq0","pricing_plan_id":"free"},{"bike_id":"bd183d24-2e35-43a1-8f8a-d0b99db187d1","system_id":"levelo_inurba_marseille","lat":43.305989,"lon":5.37225,"is_reserved":false,"is_disabled":false,"rental_uris":{"android":"levelo://app?vid=bd183d24-2e35-43a1-8f8a-d0b99db187d1","ios":"levelo://app?vid=bd183d24-2e35-43a1-8f8a-d0b99db187d1"},"vehicle_type_id":"4","last_reported":1701464774,"current_range_meters":28400,"station_id":"ce4bgqh2rcd13ifvqc4g","pricing_plan_id":"free"},{"bike_id":"7bdbcfe9-924e-49e5-849f-fb7276f261aa","system_id":"levelo_inurba_marseille","lat":43.310564,"lon":5.377485,"is_reserved":false,"is_disabled":false,"rental_uris":{"android":"levelo://app?vid=7bdbcfe9-924e-49e5-849f-fb7276f261aa","ios":"levelo://app?vid=7bdbcfe9-924e-49e5-849f-fb7276f261aa"},"vehicle_type_id":"4","last_reported":1701464774,"current_range_meters":9200,"station_id":"","pricing_plan_id":"free"},{"bike_id":"5cb0b64a-e4a1-46f2-ba9e-ed4a594e280b","system_id":"levelo_inurba_marseille","lat":43.31115,"lon":5.37787,"is_reserved":false,"is_disabled":false,"rental_uris":{"android":"levelo://app?vid=5cb0b64a-e4a1-46f2-ba9e-ed4a594e280b","ios":"levelo://app?vid=5cb0b64a-e4a1-46f2-ba9e-ed4a594e280b"},"vehicle_type_id":"4","last_reported":1701464774,"current_range_meters":20800,"station_id":"ce4bgt92rcd13ifvqcg0","pricing_plan_id":"free"},{"bike_id":"7801f171-c433-43b9-99f3-4e35c94bc7ba","system_id":"levelo_inurba_marseille","lat":43.30439,"lon":5.36753,"is_reserved":false,"is_disabled":false,"rental_uris":{"android":"levelo://app?vid=7801f171-c433-43b9-99f3-4e35c94bc7ba","ios":"levelo://app?vid=7801f171-c433-43b9-99f3-4e35c94bc7ba"},"vehicle_type_id":"4","last_reported":1701464774,"current_range_meters":26800,"station_id":"","pricing_plan_id":"free"},{"bike_id":"cfd3bb51-5657-4943-be4a-4ca2f802bb01","system_id":"levelo_inurba_marseille","lat":43.308138,"lon":5.37655,"is_reserved":false,"is_disabled":false,"rental_uris":{"android":"levelo://app?vid=cfd3bb51-5657-4943-be4a-4ca2f802bb01","ios":"levelo://app?vid=cfd3bb51-5657-4943-be4a-4ca2f802bb01"},"vehicle_type_id":"4","last_reported":1701464774,"current_range_meters":13600,"station_id":"ce4bgv92rcd13ifvqcq0","pricing_plan_id":"free"},{"bike_id":"84b596e8-4c16-49f2-89b0-ec566391ad1c","system_id":"levelo_inurba_marseille","lat":43.307945,"lon":5.376487,"is_reserved":false,"is_disabled":false,"rental_uris":{"android":"levelo://app?vid=84b596e8-4c16-49f2-89b0-ec566391ad1c","ios":"levelo://app?vid=84b596e8-4c16-49f2-89b0-ec566391ad1c"},"vehicle_type_id":"4","last_reported":1701464774,"current_range_meters":1200,"station_id":"ce4bgv92rcd13ifvqcq0","pricing_plan_id":"free"},{"bike_id":"f427a2c3-6e4a-446b-ae2f-9be8aa7f4122","system_id":"levelo_inurba_marseille","lat":43.31719,"lon":5.376813,"is_reserved":false,"is_disabled":false,"rental_uris":{"android":"levelo://app?vid=f427a2c3-6e4a-446b-ae2f-9be8aa7f4122","ios":"levelo://app?vid=f427a2c3-6e4a-446b-ae2f-9be8aa7f4122"},"vehicle_type_id":"4","last_reported":1701464774,"current_range_meters":400,"station_id":"","pricing_plan_id":"free"},{"bike_id":"e913f328-1e31-4c22-bd87-f809ea246de4","system_id":"levelo_inurba_marseille","lat":43.317168,"lon":5.376883,"is_reserved":false,"is_disabled":false,"rental_uris":{"android":"levelo://app?vid=e913f328-1e31-4c22-bd87-f809ea246de4","ios":"levelo://app?vid=e913f328-1e31-4c22-bd87-f809ea246de4"},"vehicle_type_id":"4","last_reported":1701464774,"current_range_meters":2800,"station_id":"","pricing_plan_id":"free"},{"bike_id":"20c7e585-a1b1-43cb-b09c-626caba43535","system_id":"levelo_inurba_marseille","lat":43.307945,"lon":5.376487,"is_reserved":false,"is_disabled":false,"rental_uris":{"android":"levelo://app?vid=20c7e585-a1b1-43cb-b09c-626caba43535","ios":"levelo://app?vid=20c7e585-a1b1-43cb-b09c-626caba43535"},"vehicle_type_id":"4","last_reported":1701464774,"current_range_meters":27200,"station_id":"ce4bgv92rcd13ifvqcq0","pricing_plan_id":"free"},{"bike_id":"fb6fd937-527b-4585-9058-0dfdc6436ac8","system_id":"levelo_inurba_marseille","lat":43.31351,"lon":5.37909,"is_reserved":false,"is_disabled":false,"rental_uris":{"android":"levelo://app?vid=fb6fd937-527b-4585-9058-0dfdc6436ac8","ios":"levelo://app?vid=fb6fd937-527b-4585-9058-0dfdc6436ac8"},"vehicle_type_id":"4","last_reported":1701464774,"current_range_meters":24400,"station_id":"","pricing_plan_id":"free"},{"bike_id":"593babd9-c3d2-4b6a-af9f-be560bf08fbf","system_id":"levelo_inurba_marseille","lat":43.308618,"lon":5.379046,"is_reserved":false,"is_disabled":false,"rental_uris":{"android":"levelo://app?vid=593babd9-c3d2-4b6a-af9f-be560bf08fbf","ios":"levelo://app?vid=593babd9-c3d2-4b6a-af9f-be560bf08fbf"},"vehicle_type_id":"4","last_reported":1701464774,"current_range_meters":4800,"station_id":"","pricing_plan_id":"free"},{"bike_id":"a6475a8a-11b3-4af0-85f3-fd2cabbfdd22","system_id":"levelo_inurba_marseille","lat":43.324771,"lon":5.36557,"is_reserved":false,"is_disabled":false,"rental_uris":{"android":"levelo://app?vid=a6475a8a-11b3-4af0-85f3-fd2cabbfdd22","ios":"levelo://app?vid=a6475a8a-11b3-4af0-85f3-fd2cabbfdd22"},"vehicle_type_id":"4","last_reported":1701464774,"current_range_meters":21200,"station_id":"ce4bhs12rcd13ifvqhvg","pricing_plan_id":"free"},{"bike_id":"19dcde97-826d-4c77-b8cf-d90ba7f775b0","system_id":"levelo_inurba_marseille","lat":43.324868,"lon":5.365588,"is_reserved":false,"is_disabled":false,"rental_uris":{"android":"levelo://app?vid=19dcde97-826d-4c77-b8cf-d90ba7f775b0","ios":"levelo://app?vid=19dcde97-826d-4c77-b8cf-d90ba7f775b0"},"vehicle_type_id":"4","last_reported":1701464774,"current_range_meters":17200,"station_id":"ce4bhs12rcd13ifvqhvg","pricing_plan_id":"free"},{"bike_id":"edfc6617-6044-4551-ae67-6d447ba1cbee","system_id":"levelo_inurba_marseille","lat":43.30143,"lon":5.37413,"is_reserved":false,"is_disabled":false,"rental_uris":{"android":"levelo://app?vid=edfc6617-6044-4551-ae67-6d447ba1cbee","ios":"levelo://app?vid=edfc6617-6044-4551-ae67-6d447ba1cbee"},"vehicle_type_id":"4","last_reported":1701464774,"current_range_meters":16000,"station_id":"ce4bgs92rcd13ifvqcc0","pricing_plan_id":"free"},{"bike_id":"91ca68e3-c765-4044-872e-5d59456fcaee","system_id":"levelo_inurba_marseille","lat":43.30143,"lon":5.37413,"is_reserved":false,"is_disabled":false,"rental_uris":{"android":"levelo://app?vid=91ca68e3-c765-4044-872e-5d59456fcaee","ios":"levelo://app?vid=91ca68e3-c765-4044-872e-5d59456fcaee"},"vehicle_type_id":"4","last_reported":1701464774,"current_range_meters":6400,"station_id":"ce4bgs92rcd13ifvqcc0","pricing_plan_id":"free"},{"bike_id":"2275aca5-3158-4c2c-8022-ca5d2714bc86","system_id":"levelo_inurba_marseille","lat":43.319997,"lon":5.381594,"is_reserved":false,"is_disabled":false,"rental_uris":{"android":"levelo://app?vid=2275aca5-3158-4c2c-8022-ca5d2714bc86","ios":"levelo://app?vid=2275aca5-3158-4c2c-8022-ca5d2714bc86"},"vehicle_type_id":"4","last_reported":1701464774,"current_range_meters":18000,"station_id":"ce4bhr12rcd13ifvqhpg","pricing_plan_id":"free"},{"bike_id":"5ed879b2-aac9-4e89-81ea-bb35b901743f","system_id":"levelo_inurba_marseille","lat":43.313571,"lon":5.384829,"is_reserved":false,"is_disabled":false,"rental_uris":{"android":"levelo://app?vid=5ed879b2-aac9-4e89-81ea-bb35b901743f","ios":"levelo://app?vid=5ed879b2-aac9-4e89-81ea-bb35b901743f"},"vehicle_type_id":"4","last_reported":1701464774,"current_range_meters":30400,"station_id":"ce4bgt92rcd13ifvqcf0","pricing_plan_id":"free"},{"bike_id":"9fdb7f97-586d-42d2-befd-15216ba2e422","system_id":"levelo_inurba_marseille","lat":43.31183,"lon":5.38523,"is_reserved":false,"is_disabled":false,"rental_uris":{"android":"levelo://app?vid=9fdb7f97-586d-42d2-befd-15216ba2e422","ios":"levelo://app?vid=9fdb7f97-586d-42d2-befd-15216ba2e422"},"vehicle_type_id":"4","last_reported":1701464774,"current_range_meters":4000,"station_id":"","pricing_plan_id":"free"},{"bike_id":"a6832b6f-ad73-45de-8f50-4e6960f4ed73","system_id":"levelo_inurba_marseille","lat":43.29941,"lon":5.36546,"is_reserved":false,"is_disabled":false,"rental_uris":{"android":"levelo://app?vid=a6832b6f-ad73-45de-8f50-4e6960f4ed73","ios":"levelo://app?vid=a6832b6f-ad73-45de-8f50-4e6960f4ed73"},"vehicle_type_id":"4","last_reported":1701464774,"current_range_meters":9600,"station_id":"ce4bgm92rcd13ifvqbr0","pricing_plan_id":"free"},{"bike_id":"c564a6b8-d9f8-4f04-81d2-d16d7286dfa7","system_id":"levelo_inurba_marseille","lat":43.299724,"lon":5.371829,"is_reserved":false,"is_disabled":false,"rental_uris":{"android":"levelo://app?vid=c564a6b8-d9f8-4f04-81d2-d16d7286dfa7","ios":"levelo://app?vid=c564a6b8-d9f8-4f04-81d2-d16d7286dfa7"},"vehicle_type_id":"4","last_reported":1701464774,"current_range_meters":11600,"station_id":"ce4bgr92rcd13ifvqc7g","pricing_plan_id":"free"},{"bike_id":"748d12ab-8e09-4ecd-b2d2-cbe0ea9624f6","system_id":"levelo_inurba_marseille","lat":43.298563,"lon":5.367604,"is_reserved":false,"is_disabled":false,"rental_uris":{"android":"levelo://app?vid=748d12ab-8e09-4ecd-b2d2-cbe0ea9624f6","ios":"levelo://app?vid=748d12ab-8e09-4ecd-b2d2-cbe0ea9624f6"},"vehicle_type_id":"4","last_reported":1701464774,"current_range_meters":9200,"station_id":"","pricing_plan_id":"free"},{"bike_id":"36f99218-add6-4423-8c26-152d98dbb5c8","system_id":"levelo_inurba_marseille","lat":43.299243,"lon":5.37481,"is_reserved":false,"is_disabled":false,"rental_uris":{"android":"levelo://app?vid=36f99218-add6-4423-8c26-152d98dbb5c8","ios":"levelo://app?vid=36f99218-add6-4423-8c26-152d98dbb5c8"},"vehicle_type_id":"4","last_reported":1701464774,"current_range_meters":9600,"station_id":"ce4bgjh2rcd13ifvqbg0","pricing_plan_id":"free"},{"bike_id":"4a4eb50c-75bb-4e6b-9faa-8e5527e44948","system_id":"levelo_inurba_marseille","lat":43.311603,"lon":5.386776,"is_reserved":false,"is_disabled":false,"rental_uris":{"android":"levelo://app?vid=4a4eb50c-75bb-4e6b-9faa-8e5527e44948","ios":"levelo://app?vid=4a4eb50c-75bb-4e6b-9faa-8e5527e44948"},"vehicle_type_id":"4","last_reported":1701464774,"current_range_meters":7200,"station_id":"ce4bgv12rcd13ifvqcp0","pricing_plan_id":"free"},{"bike_id":"a18499e0-14f9-4059-b6a9-5fe4a92d7c00","system_id":"levelo_inurba_marseille","lat":43.305364,"lon":5.384119,"is_reserved":false,"is_disabled":false,"rental_uris":{"android":"levelo://app?vid=a18499e0-14f9-4059-b6a9-5fe4a92d7c00","ios":"levelo://app?vid=a18499e0-14f9-4059-b6a9-5fe4a92d7c00"},"vehicle_type_id":"4","last_reported":1701464774,"current_range_meters":24000,"station_id":"ce4bgg92rcd13ifvqb30","pricing_plan_id":"free"},{"bike_id":"bee85780-96f5-4ca6-8d5f-995ccfd61ebe","system_id":"levelo_inurba_marseille","lat":43.305364,"lon":5.384119,"is_reserved":false,"is_disabled":false,"rental_uris":{"android":"levelo://app?vid=bee85780-96f5-4ca6-8d5f-995ccfd61ebe","ios":"levelo://app?vid=bee85780-96f5-4ca6-8d5f-995ccfd61ebe"},"vehicle_type_id":"4","last_reported":1701464774,"current_range_meters":13200,"station_id":"ce4bgg92rcd13ifvqb30","pricing_plan_id":"free"},{"bike_id":"b7e0d70e-6c47-439d-92cb-98d6724cbc26","system_id":"levelo_inurba_marseille","lat":43.311722,"lon":5.387247,"is_reserved":false,"is_disabled":false,"rental_uris":{"android":"levelo://app?vid=b7e0d70e-6c47-439d-92cb-98d6724cbc26","ios":"levelo://app?vid=b7e0d70e-6c47-439d-92cb-98d6724cbc26"},"vehicle_type_id":"4","last_reported":1701464774,"current_range_meters":20400,"station_id":"ce4bgv12rcd13ifvqcp0","pricing_plan_id":"free"},{"bike_id":"5f44763d-dc73-4ab0-bef5-a3ad7b7cbef5","system_id":"levelo_inurba_marseille","lat":43.299243,"lon":5.374807,"is_reserved":false,"is_disabled":false,"rental_uris":{"android":"levelo://app?vid=5f44763d-dc73-4ab0-bef5-a3ad7b7cbef5","ios":"levelo://app?vid=5f44763d-dc73-4ab0-bef5-a3ad7b7cbef5"},"vehicle_type_id":"4","last_reported":1701464774,"current_range_meters":22000,"station_id":"ce4bgjh2rcd13ifvqbg0","pricing_plan_id":"free"},{"bike_id":"e9e7f7ea-f595-4d46-b8d3-699ac346287d","system_id":"levelo_inurba_marseille","lat":43.297794,"lon":5.370888,"is_reserved":false,"is_disabled":false,"rental_uris":{"android":"levelo://app?vid=e9e7f7ea-f595-4d46-b8d3-699ac346287d","ios":"levelo://app?vid=e9e7f7ea-f595-4d46-b8d3-699ac346287d"},"vehicle_type_id":"4","last_reported":1701464774,"current_range_meters":2000,"station_id":"ce4bgop2rcd13ifvqc1g","pricing_plan_id":"free"},{"bike_id":"d46976c5-0951-42c4-a0ed-fbb953957c68","system_id":"levelo_inurba_marseille","lat":43.297774,"lon":5.370875,"is_reserved":false,"is_disabled":false,"rental_uris":{"android":"levelo://app?vid=d46976c5-0951-42c4-a0ed-fbb953957c68","ios":"levelo://app?vid=d46976c5-0951-42c4-a0ed-fbb953957c68"},"vehicle_type_id":"4","last_reported":1701464774,"current_range_meters":9600,"station_id":"ce4bgop2rcd13ifvqc1g","pricing_plan_id":"free"},{"bike_id":"cf758772-2103-4c5d-9248-cfc6a1d99cd2","system_id":"levelo_inurba_marseille","lat":43.322872,"lon":5.382756,"is_reserved":false,"is_disabled":false,"rental_uris":{"android":"levelo://app?vid=cf758772-2103-4c5d-9248-cfc6a1d99cd2","ios":"levelo://app?vid=cf758772-2103-4c5d-9248-cfc6a1d99cd2"},"vehicle_type_id":"4","last_reported":1701464774,"current_range_meters":29600,"station_id":"ce4bhr12rcd13ifvqhqg","pricing_plan_id":"free"},{"bike_id":"e9c2a1db-09ba-458a-8020-96222a840fa4","system_id":"levelo_inurba_marseille","lat":43.322872,"lon":5.382756,"is_reserved":false,"is_disabled":false,"rental_uris":{"android":"levelo://app?vid=e9c2a1db-09ba-458a-8020-96222a840fa4","ios":"levelo://app?vid=e9c2a1db-09ba-458a-8020-96222a840fa4"},"vehicle_type_id":"4","last_reported":1701464774,"current_range_meters":26800,"station_id":"ce4bhr12rcd13ifvqhqg","pricing_plan_id":"free"},{"bike_id":"65073be3-64d5-4947-9113-fd11101b78dd","system_id":"levelo_inurba_marseille","lat":43.322872,"lon":5.382756,"is_reserved":false,"is_disabled":false,"rental_uris":{"android":"levelo://app?vid=65073be3-64d5-4947-9113-fd11101b78dd","ios":"levelo://app?vid=65073be3-64d5-4947-9113-fd11101b78dd"},"vehicle_type_id":"4","last_reported":1701464774,"current_range_meters":11600,"station_id":"ce4bhr12rcd13ifvqhqg","pricing_plan_id":"free"},{"bike_id":"c0284961-478e-4ccd-b43e-321d6e4c5580","system_id":"levelo_inurba_marseille","lat":43.32826,"lon":5.36689,"is_reserved":false,"is_disabled":false,"rental_uris":{"android":"levelo://app?vid=c0284961-478e-4ccd-b43e-321d6e4c5580","ios":"levelo://app?vid=c0284961-478e-4ccd-b43e-321d6e4c5580"},"vehicle_type_id":"4","last_reported":1701464774,"current_range_meters":800,"station_id":"ce4bhs92rcd13ifvqi0g","pricing_plan_id":"free"},{"bike_id":"38b36a3d-7fa0-425f-884d-37f0109ceebf","system_id":"levelo_inurba_marseille","lat":43.328324,"lon":5.366908,"is_reserved":false,"is_disabled":false,"rental_uris":{"android":"levelo://app?vid=38b36a3d-7fa0-425f-884d-37f0109ceebf","ios":"levelo://app?vid=38b36a3d-7fa0-425f-884d-37f0109ceebf"},"vehicle_type_id":"4","last_reported":1701464774,"current_range_meters":16000,"station_id":"ce4bhs92rcd13ifvqi0g","pricing_plan_id":"free"},{"bike_id":"48aafada-eceb-4ffb-8e60-8422c3758105","system_id":"levelo_inurba_marseille","lat":43.297163,"lon":5.365866,"is_reserved":false,"is_disabled":false,"rental_uris":{"android":"levelo://app?vid=48aafada-eceb-4ffb-8e60-8422c3758105","ios":"levelo://app?vid=48aafada-eceb-4ffb-8e60-8422c3758105"},"vehicle_type_id":"4","last_reported":1701464774,"current_range_meters":5200,"station_id":"ce4bgn12rcd13ifvqbt0","pricing_plan_id":"free"},{"bike_id":"e196cafb-d37f-4b76-93ee-2d2565c7ad83","system_id":"levelo_inurba_marseille","lat":43.296995,"lon":5.365925,"is_reserved":false,"is_disabled":false,"rental_uris":{"android":"levelo://app?vid=e196cafb-d37f-4b76-93ee-2d2565c7ad83","ios":"levelo://app?vid=e196cafb-d37f-4b76-93ee-2d2565c7ad83"},"vehicle_type_id":"4","last_reported":1701464774,"current_range_meters":0,"station_id":"ce4bgn12rcd13ifvqbt0","pricing_plan_id":"free"},{"bike_id":"5983625d-69f5-485f-a399-daec2999c965","system_id":"levelo_inurba_marseille","lat":43.321486,"lon":5.385226,"is_reserved":false,"is_disabled":false,"rental_uris":{"android":"levelo://app?vid=5983625d-69f5-485f-a399-daec2999c965","ios":"levelo://app?vid=5983625d-69f5-485f-a399-daec2999c965"},"vehicle_type_id":"4","last_reported":1701464774,"current_range_meters":5200,"station_id":"","pricing_plan_id":"free"},{"bike_id":"d1b54edb-4179-477c-bd05-036dd4f393fe","system_id":"levelo_inurba_marseille","lat":43.295962,"lon":5.368228,"is_reserved":false,"is_disabled":false,"rental_uris":{"android":"levelo://app?vid=d1b54edb-4179-477c-bd05-036dd4f393fe","ios":"levelo://app?vid=d1b54edb-4179-477c-bd05-036dd4f393fe"},"vehicle_type_id":"4","last_reported":1701464774,"current_range_meters":5200,"station_id":"","pricing_plan_id":"free"},{"bike_id":"a2732641-05a6-48be-90e2-3e760fdc6319","system_id":"levelo_inurba_marseille","lat":43.29573,"lon":5.367355,"is_reserved":false,"is_disabled":false,"rental_uris":{"android":"levelo://app?vid=a2732641-05a6-48be-90e2-3e760fdc6319","ios":"levelo://app?vid=a2732641-05a6-48be-90e2-3e760fdc6319"},"vehicle_type_id":"4","last_reported":1701464774,"current_range_meters":28000,"station_id":"ce4bgph2rcd13ifvqc2g","pricing_plan_id":"free"},{"bike_id":"fcbc0552-1d52-4b3a-9cfe-79c5cdece5b7","system_id":"levelo_inurba_marseille","lat":43.296921,"lon":5.376579,"is_reserved":false,"is_disabled":false,"rental_uris":{"android":"levelo://app?vid=fcbc0552-1d52-4b3a-9cfe-79c5cdece5b7","ios":"levelo://app?vid=fcbc0552-1d52-4b3a-9cfe-79c5cdece5b7"},"vehicle_type_id":"4","last_reported":1701464774,"current_range_meters":18400,"station_id":"ce4bgkh2rcd13ifvqbl0","pricing_plan_id":"free"},{"bike_id":"c10a06f0-401c-4676-8df7-21d7e15ef9ed","system_id":"levelo_inurba_marseille","lat":43.299028,"lon":5.381509,"is_reserved":false,"is_disabled":false,"rental_uris":{"android":"levelo://app?vid=c10a06f0-401c-4676-8df7-21d7e15ef9ed","ios":"levelo://app?vid=c10a06f0-401c-4676-8df7-21d7e15ef9ed"},"vehicle_type_id":"4","last_reported":1701464774,"current_range_meters":23200,"station_id":"ce4bgj12rcd13ifvqbc0","pricing_plan_id":"free"},{"bike_id":"24a51c27-ff73-4b1f-94fb-0147b2f99629","system_id":"levelo_inurba_marseille","lat":43.309589,"lon":5.390258,"is_reserved":false,"is_disabled":false,"rental_uris":{"android":"levelo://app?vid=24a51c27-ff73-4b1f-94fb-0147b2f99629","ios":"levelo://app?vid=24a51c27-ff73-4b1f-94fb-0147b2f99629"},"vehicle_type_id":"4","last_reported":1701464774,"current_range_meters":16000,"station_id":"ce4bgup2rcd13ifvqco0","pricing_plan_id":"free"},{"bike_id":"081d548b-c7c8-42e0-bf59-51b377596c46","system_id":"levelo_inurba_marseille","lat":43.309589,"lon":5.390258,"is_reserved":false,"is_disabled":false,"rental_uris":{"android":"levelo://app?vid=081d548b-c7c8-42e0-bf59-51b377596c46","ios":"levelo://app?vid=081d548b-c7c8-42e0-bf59-51b377596c46"},"vehicle_type_id":"4","last_reported":1701464774,"current_range_meters":18000,"station_id":"ce4bgup2rcd13ifvqco0","pricing_plan_id":"free"},{"bike_id":"c9a793b6-383f-4ac4-bb57-1a38a504f0fb","system_id":"levelo_inurba_marseille","lat":43.317557,"lon":5.390173,"is_reserved":false,"is_disabled":false,"rental_uris":{"android":"levelo://app?vid=c9a793b6-383f-4ac4-bb57-1a38a504f0fb","ios":"levelo://app?vid=c9a793b6-383f-4ac4-bb57-1a38a504f0fb"},"vehicle_type_id":"4","last_reported":1701464774,"current_range_meters":25600,"station_id":"ce4bhqp2rcd13ifvqhng","pricing_plan_id":"free"},{"bike_id":"99263d35-6055-4dd7-9f57-42166970aeba","system_id":"levelo_inurba_marseille","lat":43.31755,"lon":5.390157,"is_reserved":false,"is_disabled":false,"rental_uris":{"android":"levelo://app?vid=99263d35-6055-4dd7-9f57-42166970aeba","ios":"levelo://app?vid=99263d35-6055-4dd7-9f57-42166970aeba"},"vehicle_type_id":"4","last_reported":1701464774,"current_range_meters":31200,"station_id":"ce4bhqp2rcd13ifvqhng","pricing_plan_id":"free"},{"bike_id":"0082828d-bd5e-4b96-abd6-c64e0a26d731","system_id":"levelo_inurba_marseille","lat":43.295748,"lon":5.37522,"is_reserved":false,"is_disabled":false,"rental_uris":{"android":"levelo://app?vid=0082828d-bd5e-4b96-abd6-c64e0a26d731","ios":"levelo://app?vid=0082828d-bd5e-4b96-abd6-c64e0a26d731"},"vehicle_type_id":"4","last_reported":1701464774,"current_range_meters":5600,"station_id":"ce4bgh92rcd13ifvqb50","pricing_plan_id":"free"},{"bike_id":"13ca97e5-82b5-4e06-8d78-e9793b7e594e","system_id":"levelo_inurba_marseille","lat":43.297142,"lon":5.379705,"is_reserved":false,"is_disabled":false,"rental_uris":{"android":"levelo://app?vid=13ca97e5-82b5-4e06-8d78-e9793b7e594e","ios":"levelo://app?vid=13ca97e5-82b5-4e06-8d78-e9793b7e594e"},"vehicle_type_id":"4","last_reported":1701464774,"current_range_meters":21600,"station_id":"","pricing_plan_id":"free"},{"bike_id":"7b0d4f7a-1c56-4779-93b1-32a3165ffef9","system_id":"levelo_inurba_marseille","lat":43.295279,"lon":5.375048,"is_reserved":false,"is_disabled":false,"rental_uris":{"android":"levelo://app?vid=7b0d4f7a-1c56-4779-93b1-32a3165ffef9","ios":"levelo://app?vid=7b0d4f7a-1c56-4779-93b1-32a3165ffef9"},"vehicle_type_id":"4","last_reported":1701464774,"current_range_meters":24400,"station_id":"ce4bgkp2rcd13ifvqbmg","pricing_plan_id":"free"},{"bike_id":"81c81765-686e-4ef8-8ba0-60d7276501a3","system_id":"levelo_inurba_marseille","lat":43.32369,"lon":5.38769,"is_reserved":false,"is_disabled":false,"rental_uris":{"android":"levelo://app?vid=81c81765-686e-4ef8-8ba0-60d7276501a3","ios":"levelo://app?vid=81c81765-686e-4ef8-8ba0-60d7276501a3"},"vehicle_type_id":"4","last_reported":1701464774,"current_range_meters":24800,"station_id":"","pricing_plan_id":"free"},{"bike_id":"b9808852-2d0e-4bb8-83af-007553137dc5","system_id":"levelo_inurba_marseille","lat":43.32367,"lon":5.388836,"is_reserved":false,"is_disabled":false,"rental_uris":{"android":"levelo://app?vid=b9808852-2d0e-4bb8-83af-007553137dc5","ios":"levelo://app?vid=b9808852-2d0e-4bb8-83af-007553137dc5"},"vehicle_type_id":"4","last_reported":1701464774,"current_range_meters":10000,"station_id":"ce4bhqp2rcd13ifvqhog","pricing_plan_id":"free"},{"bike_id":"55bd94a9-5e69-4187-a7b0-b05780c2a781","system_id":"levelo_inurba_marseille","lat":43.32367,"lon":5.388836,"is_reserved":false,"is_disabled":false,"rental_uris":{"android":"levelo://app?vid=55bd94a9-5e69-4187-a7b0-b05780c2a781","ios":"levelo://app?vid=55bd94a9-5e69-4187-a7b0-b05780c2a781"},"vehicle_type_id":"4","last_reported":1701464774,"current_range_meters":20800,"station_id":"ce4bhqp2rcd13ifvqhog","pricing_plan_id":"free"},{"bike_id":"eaa0e7e7-2390-47fa-909b-7b240952cbef","system_id":"levelo_inurba_marseille","lat":43.31959,"lon":5.39201,"is_reserved":false,"is_disabled":false,"rental_uris":{"android":"levelo://app?vid=eaa0e7e7-2390-47fa-909b-7b240952cbef","ios":"levelo://app?vid=eaa0e7e7-2390-47fa-909b-7b240952cbef"},"vehicle_type_id":"4","last_reported":1701464774,"current_range_meters":18000,"station_id":"","pricing_plan_id":"free"},{"bike_id":"8afb39b1-85ac-4c05-8fec-a633081493dc","system_id":"levelo_inurba_marseille","lat":43.293259,"lon":5.371586,"is_reserved":false,"is_disabled":false,"rental_uris":{"android":"levelo://app?vid=8afb39b1-85ac-4c05-8fec-a633081493dc","ios":"levelo://app?vid=8afb39b1-85ac-4c05-8fec-a633081493dc"},"vehicle_type_id":"4","last_reported":1701464774,"current_range_meters":27200,"station_id":"ce4bgh92rcd13ifvqb40","pricing_plan_id":"free"},{"bike_id":"9e272449-6b9f-4417-b7c9-14623916ee36","system_id":"levelo_inurba_marseille","lat":43.293259,"lon":5.371586,"is_reserved":false,"is_disabled":false,"rental_uris":{"android":"levelo://app?vid=9e272449-6b9f-4417-b7c9-14623916ee36","ios":"levelo://app?vid=9e272449-6b9f-4417-b7c9-14623916ee36"},"vehicle_type_id":"4","last_reported":1701464774,"current_range_meters":18400,"station_id":"ce4bgh92rcd13ifvqb40","pricing_plan_id":"free"},{"bike_id":"6fb283ea-00b0-42a8-91ab-82f08b15b663","system_id":"levelo_inurba_marseille","lat":43.292773,"lon":5.368497,"is_reserved":false,"is_disabled":false,"rental_uris":{"android":"levelo://app?vid=6fb283ea-00b0-42a8-91ab-82f08b15b663","ios":"levelo://app?vid=6fb283ea-00b0-42a8-91ab-82f08b15b663"},"vehicle_type_id":"4","last_reported":1701464774,"current_range_meters":28800,"station_id":"ce4bhbp2rcd13ifvqesg","pricing_plan_id":"free"},{"bike_id":"e19d129b-0591-4f65-8a50-42c72af5d9df","system_id":"levelo_inurba_marseille","lat":43.293259,"lon":5.371586,"is_reserved":false,"is_disabled":false,"rental_uris":{"android":"levelo://app?vid=e19d129b-0591-4f65-8a50-42c72af5d9df","ios":"levelo://app?vid=e19d129b-0591-4f65-8a50-42c72af5d9df"},"vehicle_type_id":"4","last_reported":1701464774,"current_range_meters":31200,"station_id":"ce4bgh92rcd13ifvqb40","pricing_plan_id":"free"},{"bike_id":"2ae447a0-2623-4f83-bc9e-34a48c52e3b6","system_id":"levelo_inurba_marseille","lat":43.293259,"lon":5.371586,"is_reserved":false,"is_disabled":false,"rental_uris":{"android":"levelo://app?vid=2ae447a0-2623-4f83-bc9e-34a48c52e3b6","ios":"levelo://app?vid=2ae447a0-2623-4f83-bc9e-34a48c52e3b6"},"vehicle_type_id":"4","last_reported":1701464774,"current_range_meters":11600,"station_id":"ce4bgh92rcd13ifvqb40","pricing_plan_id":"free"},{"bike_id":"fb2b8a43-57a2-40b4-b868-428e28b6d5a7","system_id":"levelo_inurba_marseille","lat":43.293009,"lon":5.374584,"is_reserved":false,"is_disabled":false,"rental_uris":{"android":"levelo://app?vid=fb2b8a43-57a2-40b4-b868-428e28b6d5a7","ios":"levelo://app?vid=fb2b8a43-57a2-40b4-b868-428e28b6d5a7"},"vehicle_type_id":"4","last_reported":1701464774,"current_range_meters":17600,"station_id":"ce4bgi12rcd13ifvqb70","pricing_plan_id":"free"},{"bike_id":"dfa48503-c98a-48e1-8da1-3bb53f8d9ac8","system_id":"levelo_inurba_marseille","lat":43.2936,"lon":5.37835,"is_reserved":false,"is_disabled":false,"rental_uris":{"android":"levelo://app?vid=dfa48503-c98a-48e1-8da1-3bb53f8d9ac8","ios":"levelo://app?vid=dfa48503-c98a-48e1-8da1-3bb53f8d9ac8"},"vehicle_type_id":"4","last_reported":1701464774,"current_range_meters":30000,"station_id":"ce4bgjh2rcd13ifvqbf0","pricing_plan_id":"free"},{"bike_id":"a39082c2-fb65-48da-a486-ac78d4400277","system_id":"levelo_inurba_marseille","lat":43.29376,"lon":5.37853,"is_reserved":false,"is_disabled":false,"rental_uris":{"android":"levelo://app?vid=a39082c2-fb65-48da-a486-ac78d4400277","ios":"levelo://app?vid=a39082c2-fb65-48da-a486-ac78d4400277"},"vehicle_type_id":"4","last_reported":1701464774,"current_range_meters":18000,"station_id":"ce4bgjh2rcd13ifvqbf0","pricing_plan_id":"free"},{"bike_id":"148b42de-77a9-4477-b24e-da4bc2ce985c","system_id":"levelo_inurba_marseille","lat":43.300845,"lon":5.390843,"is_reserved":false,"is_disabled":false,"rental_uris":{"android":"levelo://app?vid=148b42de-77a9-4477-b24e-da4bc2ce985c","ios":"levelo://app?vid=148b42de-77a9-4477-b24e-da4bc2ce985c"},"vehicle_type_id":"4","last_reported":1701464774,"current_range_meters":26400,"station_id":"ce4bh192rcd13ifvqdb0","pricing_plan_id":"free"},{"bike_id":"2b9f924f-8274-4f32-bd7f-14a589e710ba","system_id":"levelo_inurba_marseille","lat":43.292663,"lon":5.376394,"is_reserved":false,"is_disabled":false,"rental_uris":{"android":"levelo://app?vid=2b9f924f-8274-4f32-bd7f-14a589e710ba","ios":"levelo://app?vid=2b9f924f-8274-4f32-bd7f-14a589e710ba"},"vehicle_type_id":"4","last_reported":1701464774,"current_range_meters":5600,"station_id":"ce4bgi12rcd13ifvqb80","pricing_plan_id":"free"},{"bike_id":"1a574985-aaf3-4fff-940f-1316da88b5d0","system_id":"levelo_inurba_marseille","lat":43.30085,"lon":5.390856,"is_reserved":false,"is_disabled":false,"rental_uris":{"android":"levelo://app?vid=1a574985-aaf3-4fff-940f-1316da88b5d0","ios":"levelo://app?vid=1a574985-aaf3-4fff-940f-1316da88b5d0"},"vehicle_type_id":"4","last_reported":1701464774,"current_range_meters":18000,"station_id":"ce4bh192rcd13ifvqdb0","pricing_plan_id":"free"},{"bike_id":"8a3c8be7-0fb7-413f-8e20-2b54f6715240","system_id":"levelo_inurba_marseille","lat":43.292663,"lon":5.376394,"is_reserved":false,"is_disabled":false,"rental_uris":{"android":"levelo://app?vid=8a3c8be7-0fb7-413f-8e20-2b54f6715240","ios":"levelo://app?vid=8a3c8be7-0fb7-413f-8e20-2b54f6715240"},"vehicle_type_id":"4","last_reported":1701464774,"current_range_meters":18800,"station_id":"ce4bgi12rcd13ifvqb80","pricing_plan_id":"free"},{"bike_id":"733a8ee2-8750-4785-b5d2-dee3745a490c","system_id":"levelo_inurba_marseille","lat":43.298764,"lon":5.388973,"is_reserved":false,"is_disabled":false,"rental_uris":{"android":"levelo://app?vid=733a8ee2-8750-4785-b5d2-dee3745a490c","ios":"levelo://app?vid=733a8ee2-8750-4785-b5d2-dee3745a490c"},"vehicle_type_id":"4","last_reported":1701464774,"current_range_meters":29200,"station_id":"ce4bh392rcd13ifvqdl0","pricing_plan_id":"free"},{"bike_id":"0c62275d-9acd-4599-a53f-082d040efc51","system_id":"levelo_inurba_marseille","lat":43.291675,"lon":5.371583,"is_reserved":false,"is_disabled":false,"rental_uris":{"android":"levelo://app?vid=0c62275d-9acd-4599-a53f-082d040efc51","ios":"levelo://app?vid=0c62275d-9acd-4599-a53f-082d040efc51"},"vehicle_type_id":"4","last_reported":1701464774,"current_range_meters":16800,"station_id":"ce4bha92rcd13ifvqeh0","pricing_plan_id":"free"},{"bike_id":"5edf8a7e-d42b-4f9b-8337-4f67b6a16159","system_id":"levelo_inurba_marseille","lat":43.291675,"lon":5.371583,"is_reserved":false,"is_disabled":false,"rental_uris":{"android":"levelo://app?vid=5edf8a7e-d42b-4f9b-8337-4f67b6a16159","ios":"levelo://app?vid=5edf8a7e-d42b-4f9b-8337-4f67b6a16159"},"vehicle_type_id":"4","last_reported":1701464774,"current_range_meters":5600,"station_id":"ce4bha92rcd13ifvqeh0","pricing_plan_id":"free"},{"bike_id":"4d5640d0-9ba8-440d-84d0-d3eeb9e02a9b","system_id":"levelo_inurba_marseille","lat":43.298764,"lon":5.388973,"is_reserved":false,"is_disabled":false,"rental_uris":{"android":"levelo://app?vid=4d5640d0-9ba8-440d-84d0-d3eeb9e02a9b","ios":"levelo://app?vid=4d5640d0-9ba8-440d-84d0-d3eeb9e02a9b"},"vehicle_type_id":"4","last_reported":1701464774,"current_range_meters":28400,"station_id":"ce4bh392rcd13ifvqdl0","pricing_plan_id":"free"},{"bike_id":"d166482c-d59c-415b-92cf-22845868eb02","system_id":"levelo_inurba_marseille","lat":43.291675,"lon":5.371583,"is_reserved":false,"is_disabled":false,"rental_uris":{"android":"levelo://app?vid=d166482c-d59c-415b-92cf-22845868eb02","ios":"levelo://app?vid=d166482c-d59c-415b-92cf-22845868eb02"},"vehicle_type_id":"4","last_reported":1701464774,"current_range_meters":0,"station_id":"ce4bha92rcd13ifvqeh0","pricing_plan_id":"free"},{"bike_id":"07fbb8cb-68d4-4a25-af56-8969e88fc82b","system_id":"levelo_inurba_marseille","lat":43.29195,"lon":5.35799,"is_reserved":false,"is_disabled":false,"rental_uris":{"android":"levelo://app?vid=07fbb8cb-68d4-4a25-af56-8969e88fc82b","ios":"levelo://app?vid=07fbb8cb-68d4-4a25-af56-8969e88fc82b"},"vehicle_type_id":"4","last_reported":1701464774,"current_range_meters":16000,"station_id":"ce4bhb12rcd13ifvqel0","pricing_plan_id":"free"},{"bike_id":"82cf2d5f-932b-4512-9fe2-1666ac2aea16","system_id":"levelo_inurba_marseille","lat":43.309038,"lon":5.396546,"is_reserved":false,"is_disabled":false,"rental_uris":{"android":"levelo://app?vid=82cf2d5f-932b-4512-9fe2-1666ac2aea16","ios":"levelo://app?vid=82cf2d5f-932b-4512-9fe2-1666ac2aea16"},"vehicle_type_id":"4","last_reported":1701464774,"current_range_meters":28800,"station_id":"ce4bh012rcd13ifvqcv0","pricing_plan_id":"free"},{"bike_id":"707c2b8a-1059-480b-8cd7-3cfca8775a19","system_id":"levelo_inurba_marseille","lat":43.309038,"lon":5.396546,"is_reserved":false,"is_disabled":false,"rental_uris":{"android":"levelo://app?vid=707c2b8a-1059-480b-8cd7-3cfca8775a19","ios":"levelo://app?vid=707c2b8a-1059-480b-8cd7-3cfca8775a19"},"vehicle_type_id":"4","last_reported":1701464774,"current_range_meters":26400,"station_id":"ce4bh012rcd13ifvqcv0","pricing_plan_id":"free"},{"bike_id":"88a5122f-4dfc-47c0-ab1e-dc2d335e31e7","system_id":"levelo_inurba_marseille","lat":43.309038,"lon":5.396546,"is_reserved":false,"is_disabled":false,"rental_uris":{"android":"levelo://app?vid=88a5122f-4dfc-47c0-ab1e-dc2d335e31e7","ios":"levelo://app?vid=88a5122f-4dfc-47c0-ab1e-dc2d335e31e7"},"vehicle_type_id":"4","last_reported":1701464774,"current_range_meters":4800,"station_id":"ce4bh012rcd13ifvqcv0","pricing_plan_id":"free"},{"bike_id":"b1e00ef7-a508-4758-828c-d6dd0182aaad","system_id":"levelo_inurba_marseille","lat":43.313291,"lon":5.396838,"is_reserved":false,"is_disabled":false,"rental_uris":{"android":"levelo://app?vid=b1e00ef7-a508-4758-828c-d6dd0182aaad","ios":"levelo://app?vid=b1e00ef7-a508-4758-828c-d6dd0182aaad"},"vehicle_type_id":"4","last_reported":1701464774,"current_range_meters":19200,"station_id":"ce4bgvp2rcd13ifvqcu0","pricing_plan_id":"free"},{"bike_id":"9ae46ec8-0bf6-4263-bc50-064c0d1174ae","system_id":"levelo_inurba_marseille","lat":43.29529,"lon":5.385581,"is_reserved":false,"is_disabled":false,"rental_uris":{"android":"levelo://app?vid=9ae46ec8-0bf6-4263-bc50-064c0d1174ae","ios":"levelo://app?vid=9ae46ec8-0bf6-4263-bc50-064c0d1174ae"},"vehicle_type_id":"4","last_reported":1701464774,"current_range_meters":7600,"station_id":"ce4bgih2rcd13ifvqba0","pricing_plan_id":"free"},{"bike_id":"2bc01fd6-93a9-4684-991e-967318a4c5ec","system_id":"levelo_inurba_marseille","lat":43.29536,"lon":5.38551,"is_reserved":false,"is_disabled":false,"rental_uris":{"android":"levelo://app?vid=2bc01fd6-93a9-4684-991e-967318a4c5ec","ios":"levelo://app?vid=2bc01fd6-93a9-4684-991e-967318a4c5ec"},"vehicle_type_id":"4","last_reported":1701464774,"current_range_meters":0,"station_id":"ce4bgih2rcd13ifvqba0","pricing_plan_id":"free"},{"bike_id":"b5993701-1e77-48df-9f85-35cfd7c0a130","system_id":"levelo_inurba_marseille","lat":43.29529,"lon":5.38542,"is_reserved":false,"is_disabled":false,"rental_uris":{"android":"levelo://app?vid=b5993701-1e77-48df-9f85-35cfd7c0a130","ios":"levelo://app?vid=b5993701-1e77-48df-9f85-35cfd7c0a130"},"vehicle_type_id":"4","last_reported":1701464774,"current_range_meters":17200,"station_id":"ce4bgih2rcd13ifvqba0","pricing_plan_id":"free"},{"bike_id":"4a37d44a-7b2b-4203-8032-911508e992f8","system_id":"levelo_inurba_marseille","lat":43.29528,"lon":5.38541,"is_reserved":false,"is_disabled":false,"rental_uris":{"android":"levelo://app?vid=4a37d44a-7b2b-4203-8032-911508e992f8","ios":"levelo://app?vid=4a37d44a-7b2b-4203-8032-911508e992f8"},"vehicle_type_id":"4","last_reported":1701464774,"current_range_meters":12800,"station_id":"ce4bgih2rcd13ifvqba0","pricing_plan_id":"free"},{"bike_id":"71ba5b0c-0814-4406-8799-787bb2c613e7","system_id":"levelo_inurba_marseille","lat":43.29529,"lon":5.385581,"is_reserved":false,"is_disabled":false,"rental_uris":{"android":"levelo://app?vid=71ba5b0c-0814-4406-8799-787bb2c613e7","ios":"levelo://app?vid=71ba5b0c-0814-4406-8799-787bb2c613e7"},"vehicle_type_id":"4","last_reported":1701464774,"current_range_meters":11200,"station_id":"ce4bgih2rcd13ifvqba0","pricing_plan_id":"free"},{"bike_id":"fa7454a1-2b07-431d-bdbf-be5e7e693566","system_id":"levelo_inurba_marseille","lat":43.29527,"lon":5.385453,"is_reserved":false,"is_disabled":false,"rental_uris":{"android":"levelo://app?vid=fa7454a1-2b07-431d-bdbf-be5e7e693566","ios":"levelo://app?vid=fa7454a1-2b07-431d-bdbf-be5e7e693566"},"vehicle_type_id":"4","last_reported":1701464774,"current_range_meters":7200,"station_id":"ce4bgih2rcd13ifvqba0","pricing_plan_id":"free"},{"bike_id":"b20fad00-2439-4e03-bb66-628a86d6ca2a","system_id":"levelo_inurba_marseille","lat":43.29529,"lon":5.385581,"is_reserved":false,"is_disabled":false,"rental_uris":{"android":"levelo://app?vid=b20fad00-2439-4e03-bb66-628a86d6ca2a","ios":"levelo://app?vid=b20fad00-2439-4e03-bb66-628a86d6ca2a"},"vehicle_type_id":"4","last_reported":1701464774,"current_range_meters":21600,"station_id":"ce4bgih2rcd13ifvqba0","pricing_plan_id":"free"},{"bike_id":"6d4ba93a-8ec0-4e4d-9c76-5bb657cb6059","system_id":"levelo_inurba_marseille","lat":43.29529,"lon":5.385581,"is_reserved":false,"is_disabled":false,"rental_uris":{"android":"levelo://app?vid=6d4ba93a-8ec0-4e4d-9c76-5bb657cb6059","ios":"levelo://app?vid=6d4ba93a-8ec0-4e4d-9c76-5bb657cb6059"},"vehicle_type_id":"4","last_reported":1701464774,"current_range_meters":21600,"station_id":"ce4bgih2rcd13ifvqba0","pricing_plan_id":"free"},{"bike_id":"31566ad1-7126-4a2c-9c68-65d3322fb488","system_id":"levelo_inurba_marseille","lat":43.29527,"lon":5.38553,"is_reserved":false,"is_disabled":false,"rental_uris":{"android":"levelo://app?vid=31566ad1-7126-4a2c-9c68-65d3322fb488","ios":"levelo://app?vid=31566ad1-7126-4a2c-9c68-65d3322fb488"},"vehicle_type_id":"4","last_reported":1701464774,"current_range_meters":11600,"station_id":"ce4bgih2rcd13ifvqba0","pricing_plan_id":"free"},{"bike_id":"d2c60e06-0b9d-4e2e-aab5-db249ac6327d","system_id":"levelo_inurba_marseille","lat":43.290631,"lon":5.359244,"is_reserved":false,"is_disabled":false,"rental_uris":{"android":"levelo://app?vid=d2c60e06-0b9d-4e2e-aab5-db249ac6327d","ios":"levelo://app?vid=d2c60e06-0b9d-4e2e-aab5-db249ac6327d"},"vehicle_type_id":"4","last_reported":1701464774,"current_range_meters":22400,"station_id":"ce4bha92rcd13ifvqeg0","pricing_plan_id":"free"},{"bike_id":"e80575a2-873b-44d4-b787-07b861f6ef6e","system_id":"levelo_inurba_marseille","lat":43.294153,"lon":5.386305,"is_reserved":false,"is_disabled":false,"rental_uris":{"android":"levelo://app?vid=e80575a2-873b-44d4-b787-07b861f6ef6e","ios":"levelo://app?vid=e80575a2-873b-44d4-b787-07b861f6ef6e"},"vehicle_type_id":"4","last_reported":1701464774,"current_range_meters":6400,"station_id":"ce4bh2h2rcd13ifvqdh0","pricing_plan_id":"free"},{"bike_id":"7a7681d2-53f4-4655-9078-474e69d962aa","system_id":"levelo_inurba_marseille","lat":43.294162,"lon":5.386292,"is_reserved":false,"is_disabled":false,"rental_uris":{"android":"levelo://app?vid=7a7681d2-53f4-4655-9078-474e69d962aa","ios":"levelo://app?vid=7a7681d2-53f4-4655-9078-474e69d962aa"},"vehicle_type_id":"4","last_reported":1701464774,"current_range_meters":23200,"station_id":"ce4bh2h2rcd13ifvqdh0","pricing_plan_id":"free"},{"bike_id":"c58b39fe-f050-44d5-bbe7-4abcb7249795","system_id":"levelo_inurba_marseille","lat":43.291541,"lon":5.380542,"is_reserved":false,"is_disabled":false,"rental_uris":{"android":"levelo://app?vid=c58b39fe-f050-44d5-bbe7-4abcb7249795","ios":"levelo://app?vid=c58b39fe-f050-44d5-bbe7-4abcb7249795"},"vehicle_type_id":"4","last_reported":1701464774,"current_range_meters":17200,"station_id":"ce4bhn92rcd13ifvqgrg","pricing_plan_id":"free"},{"bike_id":"b6b497ae-bacb-4be6-9743-bf3a87879d8b","system_id":"levelo_inurba_marseille","lat":43.292644,"lon":5.384257,"is_reserved":false,"is_disabled":false,"rental_uris":{"android":"levelo://app?vid=b6b497ae-bacb-4be6-9743-bf3a87879d8b","ios":"levelo://app?vid=b6b497ae-bacb-4be6-9743-bf3a87879d8b"},"vehicle_type_id":"4","last_reported":1701464774,"current_range_meters":7600,"station_id":"ce4bh692rcd13ifvqea0","pricing_plan_id":"free"},{"bike_id":"4f20d428-7302-45eb-b6dd-e26314213c7b","system_id":"levelo_inurba_marseille","lat":43.292644,"lon":5.384257,"is_reserved":false,"is_disabled":false,"rental_uris":{"android":"levelo://app?vid=4f20d428-7302-45eb-b6dd-e26314213c7b","ios":"levelo://app?vid=4f20d428-7302-45eb-b6dd-e26314213c7b"},"vehicle_type_id":"4","last_reported":1701464774,"current_range_meters":6000,"station_id":"ce4bh692rcd13ifvqea0","pricing_plan_id":"free"},{"bike_id":"68205c71-7469-4da8-9e6b-445a9d0c308e","system_id":"levelo_inurba_marseille","lat":43.292652,"lon":5.384433,"is_reserved":false,"is_disabled":false,"rental_uris":{"android":"levelo://app?vid=68205c71-7469-4da8-9e6b-445a9d0c308e","ios":"levelo://app?vid=68205c71-7469-4da8-9e6b-445a9d0c308e"},"vehicle_type_id":"4","last_reported":1701464774,"current_range_meters":3200,"station_id":"ce4bh692rcd13ifvqea0","pricing_plan_id":"free"},{"bike_id":"f250396e-2593-42d5-81d6-086fbbb9873a","system_id":"levelo_inurba_marseille","lat":43.29256,"lon":5.38435,"is_reserved":false,"is_disabled":false,"rental_uris":{"android":"levelo://app?vid=f250396e-2593-42d5-81d6-086fbbb9873a","ios":"levelo://app?vid=f250396e-2593-42d5-81d6-086fbbb9873a"},"vehicle_type_id":"4","last_reported":1701464774,"current_range_meters":20800,"station_id":"ce4bh692rcd13ifvqea0","pricing_plan_id":"free"},{"bike_id":"1ae43b1c-8034-4daa-9ab5-c52a642da9b3","system_id":"levelo_inurba_marseille","lat":43.29256,"lon":5.384438,"is_reserved":false,"is_disabled":false,"rental_uris":{"android":"levelo://app?vid=1ae43b1c-8034-4daa-9ab5-c52a642da9b3","ios":"levelo://app?vid=1ae43b1c-8034-4daa-9ab5-c52a642da9b3"},"vehicle_type_id":"4","last_reported":1701464774,"current_range_meters":0,"station_id":"ce4bh692rcd13ifvqea0","pricing_plan_id":"free"},{"bike_id":"5658b5dc-eab1-44b8-b822-91107b6ac4e3","system_id":"levelo_inurba_marseille","lat":43.292644,"lon":5.384257,"is_reserved":false,"is_disabled":false,"rental_uris":{"android":"levelo://app?vid=5658b5dc-eab1-44b8-b822-91107b6ac4e3","ios":"levelo://app?vid=5658b5dc-eab1-44b8-b822-91107b6ac4e3"},"vehicle_type_id":"4","last_reported":1701464774,"current_range_meters":22400,"station_id":"ce4bh692rcd13ifvqea0","pricing_plan_id":"free"},{"bike_id":"9465dd10-b10d-40c6-93db-89b51c107c0a","system_id":"levelo_inurba_marseille","lat":43.28989,"lon":5.35599,"is_reserved":false,"is_disabled":false,"rental_uris":{"android":"levelo://app?vid=9465dd10-b10d-40c6-93db-89b51c107c0a","ios":"levelo://app?vid=9465dd10-b10d-40c6-93db-89b51c107c0a"},"vehicle_type_id":"4","last_reported":1701464774,"current_range_meters":26000,"station_id":"ce4bhb92rcd13ifvqen0","pricing_plan_id":"free"},{"bike_id":"35bb760f-7e8d-43f2-9bfb-8db17f949f38","system_id":"levelo_inurba_marseille","lat":43.297815,"lon":5.393548,"is_reserved":false,"is_disabled":false,"rental_uris":{"android":"levelo://app?vid=35bb760f-7e8d-43f2-9bfb-8db17f949f38","ios":"levelo://app?vid=35bb760f-7e8d-43f2-9bfb-8db17f949f38"},"vehicle_type_id":"4","last_reported":1701464774,"current_range_meters":0,"station_id":"chh1huq6cuj3fo74tm60","pricing_plan_id":"free"},{"bike_id":"6e07d0bf-bcac-420d-8286-6cfcdf255c50","system_id":"levelo_inurba_marseille","lat":43.295169,"lon":5.390426,"is_reserved":false,"is_disabled":false,"rental_uris":{"android":"levelo://app?vid=6e07d0bf-bcac-420d-8286-6cfcdf255c50","ios":"levelo://app?vid=6e07d0bf-bcac-420d-8286-6cfcdf255c50"},"vehicle_type_id":"4","last_reported":1701464774,"current_range_meters":10000,"station_id":"ce4bh3p2rcd13ifvqdp0","pricing_plan_id":"free"},{"bike_id":"26894fef-af1d-4f3d-986d-481a8e4fdb13","system_id":"levelo_inurba_marseille","lat":43.295169,"lon":5.390426,"is_reserved":false,"is_disabled":false,"rental_uris":{"android":"levelo://app?vid=26894fef-af1d-4f3d-986d-481a8e4fdb13","ios":"levelo://app?vid=26894fef-af1d-4f3d-986d-481a8e4fdb13"},"vehicle_type_id":"4","last_reported":1701464774,"current_range_meters":24800,"station_id":"ce4bh3p2rcd13ifvqdp0","pricing_plan_id":"free"},{"bike_id":"fdc2fc9e-2f29-4c49-bcea-7a560d4446be","system_id":"levelo_inurba_marseille","lat":43.33052,"lon":5.3906,"is_reserved":false,"is_disabled":false,"rental_uris":{"android":"levelo://app?vid=fdc2fc9e-2f29-4c49-bcea-7a560d4446be","ios":"levelo://app?vid=fdc2fc9e-2f29-4c49-bcea-7a560d4446be"},"vehicle_type_id":"4","last_reported":1701464774,"current_range_meters":11600,"station_id":"","pricing_plan_id":"free"},{"bike_id":"f71bec80-1512-44cd-95d2-3d7fdee5df30","system_id":"levelo_inurba_marseille","lat":43.330536,"lon":5.390625,"is_reserved":false,"is_disabled":false,"rental_uris":{"android":"levelo://app?vid=f71bec80-1512-44cd-95d2-3d7fdee5df30","ios":"levelo://app?vid=f71bec80-1512-44cd-95d2-3d7fdee5df30"},"vehicle_type_id":"4","last_reported":1701464774,"current_range_meters":14400,"station_id":"","pricing_plan_id":"free"},{"bike_id":"920728c3-d140-4eb7-9410-cfa127aa414b","system_id":"levelo_inurba_marseille","lat":43.33748,"lon":5.37458,"is_reserved":false,"is_disabled":false,"rental_uris":{"android":"levelo://app?vid=920728c3-d140-4eb7-9410-cfa127aa414b","ios":"levelo://app?vid=920728c3-d140-4eb7-9410-cfa127aa414b"},"vehicle_type_id":"4","last_reported":1701464774,"current_range_meters":28400,"station_id":"","pricing_plan_id":"free"},{"bike_id":"38025600-443e-43a8-8800-d7d7bfaaeb0d","system_id":"levelo_inurba_marseille","lat":43.312609,"lon":5.401662,"is_reserved":false,"is_disabled":false,"rental_uris":{"android":"levelo://app?vid=38025600-443e-43a8-8800-d7d7bfaaeb0d","ios":"levelo://app?vid=38025600-443e-43a8-8800-d7d7bfaaeb0d"},"vehicle_type_id":"4","last_reported":1701464774,"current_range_meters":4400,"station_id":"ce4bh092rcd13ifvqd30","pricing_plan_id":"free"},{"bike_id":"1cb3288c-2360-4421-bee9-817939cff32b","system_id":"levelo_inurba_marseille","lat":43.33762,"lon":5.37447,"is_reserved":false,"is_disabled":false,"rental_uris":{"android":"levelo://app?vid=1cb3288c-2360-4421-bee9-817939cff32b","ios":"levelo://app?vid=1cb3288c-2360-4421-bee9-817939cff32b"},"vehicle_type_id":"4","last_reported":1701464774,"current_range_meters":30800,"station_id":"","pricing_plan_id":"free"},{"bike_id":"4d2a9e0f-ee97-450b-a787-b1f222dcb3fa","system_id":"levelo_inurba_marseille","lat":43.33764,"lon":5.37436,"is_reserved":false,"is_disabled":false,"rental_uris":{"android":"levelo://app?vid=4d2a9e0f-ee97-450b-a787-b1f222dcb3fa","ios":"levelo://app?vid=4d2a9e0f-ee97-450b-a787-b1f222dcb3fa"},"vehicle_type_id":"4","last_reported":1701464774,"current_range_meters":27600,"station_id":"","pricing_plan_id":"free"},{"bike_id":"ecd35b54-70ca-40a4-95a6-2ffe2d32d5e3","system_id":"levelo_inurba_marseille","lat":43.28727,"lon":5.36078,"is_reserved":false,"is_disabled":false,"rental_uris":{"android":"levelo://app?vid=ecd35b54-70ca-40a4-95a6-2ffe2d32d5e3","ios":"levelo://app?vid=ecd35b54-70ca-40a4-95a6-2ffe2d32d5e3"},"vehicle_type_id":"4","last_reported":1701464774,"current_range_meters":12000,"station_id":"cki0cbj6b192h4jlfktg","pricing_plan_id":"free"},{"bike_id":"6e7e7930-c941-4aa6-bdfb-06048d0dcabb","system_id":"levelo_inurba_marseille","lat":43.28727,"lon":5.36078,"is_reserved":false,"is_disabled":false,"rental_uris":{"android":"levelo://app?vid=6e7e7930-c941-4aa6-bdfb-06048d0dcabb","ios":"levelo://app?vid=6e7e7930-c941-4aa6-bdfb-06048d0dcabb"},"vehicle_type_id":"4","last_reported":1701464774,"current_range_meters":30000,"station_id":"cki0cbj6b192h4jlfktg","pricing_plan_id":"free"},{"bike_id":"d27a50e8-78f6-40af-ba67-5e866b035351","system_id":"levelo_inurba_marseille","lat":43.286961,"lon":5.373785,"is_reserved":false,"is_disabled":false,"rental_uris":{"android":"levelo://app?vid=d27a50e8-78f6-40af-ba67-5e866b035351","ios":"levelo://app?vid=d27a50e8-78f6-40af-ba67-5e866b035351"},"vehicle_type_id":"4","last_reported":1701464774,"current_range_meters":26400,"station_id":"ce4bh3p2rcd13ifvqdq0","pricing_plan_id":"free"},{"bike_id":"29308607-8792-49e1-9b09-bcb4e4821a86","system_id":"levelo_inurba_marseille","lat":43.286591,"lon":5.363346,"is_reserved":false,"is_disabled":false,"rental_uris":{"android":"levelo://app?vid=29308607-8792-49e1-9b09-bcb4e4821a86","ios":"levelo://app?vid=29308607-8792-49e1-9b09-bcb4e4821a86"},"vehicle_type_id":"4","last_reported":1701464774,"current_range_meters":10000,"station_id":"ce4bhah2rcd13ifvqej0","pricing_plan_id":"free"},{"bike_id":"3fe3ba5a-becf-4dc4-a08f-40617e4bd9ae","system_id":"levelo_inurba_marseille","lat":43.286591,"lon":5.363346,"is_reserved":false,"is_disabled":false,"rental_uris":{"android":"levelo://app?vid=3fe3ba5a-becf-4dc4-a08f-40617e4bd9ae","ios":"levelo://app?vid=3fe3ba5a-becf-4dc4-a08f-40617e4bd9ae"},"vehicle_type_id":"4","last_reported":1701464774,"current_range_meters":14000,"station_id":"ce4bhah2rcd13ifvqej0","pricing_plan_id":"free"},{"bike_id":"ff495e2c-aa20-44c7-923c-e1b0f585e3c5","system_id":"levelo_inurba_marseille","lat":43.295194,"lon":5.39397,"is_reserved":false,"is_disabled":false,"rental_uris":{"android":"levelo://app?vid=ff495e2c-aa20-44c7-923c-e1b0f585e3c5","ios":"levelo://app?vid=ff495e2c-aa20-44c7-923c-e1b0f585e3c5"},"vehicle_type_id":"4","last_reported":1701464774,"current_range_meters":7600,"station_id":"ce4bh292rcd13ifvqdf0","pricing_plan_id":"free"},{"bike_id":"f5917a98-970d-4cdd-9792-5c30d4aa35bd","system_id":"levelo_inurba_marseille","lat":43.295196,"lon":5.39397,"is_reserved":false,"is_disabled":false,"rental_uris":{"android":"levelo://app?vid=f5917a98-970d-4cdd-9792-5c30d4aa35bd","ios":"levelo://app?vid=f5917a98-970d-4cdd-9792-5c30d4aa35bd"},"vehicle_type_id":"4","last_reported":1701464774,"current_range_meters":12000,"station_id":"ce4bh292rcd13ifvqdf0","pricing_plan_id":"free"},{"bike_id":"618ac35e-c658-40f4-8382-2a843b1e3b51","system_id":"levelo_inurba_marseille","lat":43.289307,"lon":5.38406,"is_reserved":false,"is_disabled":false,"rental_uris":{"android":"levelo://app?vid=618ac35e-c658-40f4-8382-2a843b1e3b51","ios":"levelo://app?vid=618ac35e-c658-40f4-8382-2a843b1e3b51"},"vehicle_type_id":"4","last_reported":1701464774,"current_range_meters":20000,"station_id":"ce4bh612rcd13ifvqe6g","pricing_plan_id":"free"},{"bike_id":"1bebc061-b8a2-4a02-a6c2-a282bb1183cd","system_id":"levelo_inurba_marseille","lat":43.289307,"lon":5.38406,"is_reserved":false,"is_disabled":false,"rental_uris":{"android":"levelo://app?vid=1bebc061-b8a2-4a02-a6c2-a282bb1183cd","ios":"levelo://app?vid=1bebc061-b8a2-4a02-a6c2-a282bb1183cd"},"vehicle_type_id":"4","last_reported":1701464774,"current_range_meters":21600,"station_id":"ce4bh612rcd13ifvqe6g","pricing_plan_id":"free"},{"bike_id":"50220fdd-0bff-4239-9cf2-5b7a73975ae7","system_id":"levelo_inurba_marseille","lat":43.289307,"lon":5.38406,"is_reserved":false,"is_disabled":false,"rental_uris":{"android":"levelo://app?vid=50220fdd-0bff-4239-9cf2-5b7a73975ae7","ios":"levelo://app?vid=50220fdd-0bff-4239-9cf2-5b7a73975ae7"},"vehicle_type_id":"4","last_reported":1701464774,"current_range_meters":28800,"station_id":"ce4bh612rcd13ifvqe6g","pricing_plan_id":"free"},{"bike_id":"51e80092-f709-463a-96a2-8b25587b914d","system_id":"levelo_inurba_marseille","lat":43.286039,"lon":5.370681,"is_reserved":false,"is_disabled":false,"rental_uris":{"android":"levelo://app?vid=51e80092-f709-463a-96a2-8b25587b914d","ios":"levelo://app?vid=51e80092-f709-463a-96a2-8b25587b914d"},"vehicle_type_id":"4","last_reported":1701464774,"current_range_meters":27200,"station_id":"ce4bht12rcd13ifvqi60","pricing_plan_id":"free"},{"bike_id":"1fac9fad-defe-426e-8c80-f8914ad4a52e","system_id":"levelo_inurba_marseille","lat":43.287185,"lon":5.379373,"is_reserved":false,"is_disabled":false,"rental_uris":{"android":"levelo://app?vid=1fac9fad-defe-426e-8c80-f8914ad4a52e","ios":"levelo://app?vid=1fac9fad-defe-426e-8c80-f8914ad4a52e"},"vehicle_type_id":"4","last_reported":1701464774,"current_range_meters":24800,"station_id":"ce4bh9p2rcd13ifvqec0","pricing_plan_id":"free"},{"bike_id":"ae273232-904a-4732-b71f-c562e810fa85","system_id":"levelo_inurba_marseille","lat":43.287095,"lon":5.37933,"is_reserved":false,"is_disabled":false,"rental_uris":{"android":"levelo://app?vid=ae273232-904a-4732-b71f-c562e810fa85","ios":"levelo://app?vid=ae273232-904a-4732-b71f-c562e810fa85"},"vehicle_type_id":"4","last_reported":1701464774,"current_range_meters":28800,"station_id":"ce4bh9p2rcd13ifvqec0","pricing_plan_id":"free"},{"bike_id":"189622c6-31d0-4222-82db-9ef7fb206284","system_id":"levelo_inurba_marseille","lat":43.284534,"lon":5.358662,"is_reserved":false,"is_disabled":false,"rental_uris":{"android":"levelo://app?vid=189622c6-31d0-4222-82db-9ef7fb206284","ios":"levelo://app?vid=189622c6-31d0-4222-82db-9ef7fb206284"},"vehicle_type_id":"4","last_reported":1701464774,"current_range_meters":4000,"station_id":"ce4bhah2rcd13ifvqei0","pricing_plan_id":"free"},{"bike_id":"d9ca12d5-e130-4fd8-968f-cc9786b36bd6","system_id":"levelo_inurba_marseille","lat":43.284534,"lon":5.358662,"is_reserved":false,"is_disabled":false,"rental_uris":{"android":"levelo://app?vid=d9ca12d5-e130-4fd8-968f-cc9786b36bd6","ios":"levelo://app?vid=d9ca12d5-e130-4fd8-968f-cc9786b36bd6"},"vehicle_type_id":"4","last_reported":1701464774,"current_range_meters":27600,"station_id":"ce4bhah2rcd13ifvqei0","pricing_plan_id":"free"},{"bike_id":"6876ca3c-4536-4659-b150-3e9e6d87cd51","system_id":"levelo_inurba_marseille","lat":43.284534,"lon":5.358662,"is_reserved":false,"is_disabled":false,"rental_uris":{"android":"levelo://app?vid=6876ca3c-4536-4659-b150-3e9e6d87cd51","ios":"levelo://app?vid=6876ca3c-4536-4659-b150-3e9e6d87cd51"},"vehicle_type_id":"4","last_reported":1701464774,"current_range_meters":4400,"station_id":"ce4bhah2rcd13ifvqei0","pricing_plan_id":"free"},{"bike_id":"eb289157-ba48-4488-a945-0df7c601d545","system_id":"levelo_inurba_marseille","lat":43.285848,"lon":5.350787,"is_reserved":false,"is_disabled":false,"rental_uris":{"android":"levelo://app?vid=eb289157-ba48-4488-a945-0df7c601d545","ios":"levelo://app?vid=eb289157-ba48-4488-a945-0df7c601d545"},"vehicle_type_id":"4","last_reported":1701464774,"current_range_meters":19600,"station_id":"ce4bhch2rcd13ifvqeug","pricing_plan_id":"free"},{"bike_id":"40a0085e-25ea-4e01-afe8-763f8766a50e","system_id":"levelo_inurba_marseille","lat":43.28611,"lon":5.35102,"is_reserved":false,"is_disabled":false,"rental_uris":{"android":"levelo://app?vid=40a0085e-25ea-4e01-afe8-763f8766a50e","ios":"levelo://app?vid=40a0085e-25ea-4e01-afe8-763f8766a50e"},"vehicle_type_id":"4","last_reported":1701464774,"current_range_meters":10800,"station_id":"ce4bhch2rcd13ifvqeug","pricing_plan_id":"free"},{"bike_id":"d7b6a6f8-d3f9-47c4-af4e-fa1abc619c97","system_id":"levelo_inurba_marseille","lat":43.28606,"lon":5.35111,"is_reserved":false,"is_disabled":false,"rental_uris":{"android":"levelo://app?vid=d7b6a6f8-d3f9-47c4-af4e-fa1abc619c97","ios":"levelo://app?vid=d7b6a6f8-d3f9-47c4-af4e-fa1abc619c97"},"vehicle_type_id":"4","last_reported":1701464774,"current_range_meters":22400,"station_id":"ce4bhch2rcd13ifvqeug","pricing_plan_id":"free"},{"bike_id":"54328ae2-d175-4455-8539-0920784dc633","system_id":"levelo_inurba_marseille","lat":43.319179,"lon":5.407725,"is_reserved":false,"is_disabled":false,"rental_uris":{"android":"levelo://app?vid=54328ae2-d175-4455-8539-0920784dc633","ios":"levelo://app?vid=54328ae2-d175-4455-8539-0920784dc633"},"vehicle_type_id":"4","last_reported":1701464774,"current_range_meters":26000,"station_id":"ce4bhq12rcd13ifvqhig","pricing_plan_id":"free"},{"bike_id":"d3b89e36-0884-4ac5-9e59-5fcdad3c2c16","system_id":"levelo_inurba_marseille","lat":43.319179,"lon":5.407725,"is_reserved":false,"is_disabled":false,"rental_uris":{"android":"levelo://app?vid=d3b89e36-0884-4ac5-9e59-5fcdad3c2c16","ios":"levelo://app?vid=d3b89e36-0884-4ac5-9e59-5fcdad3c2c16"},"vehicle_type_id":"4","last_reported":1701464774,"current_range_meters":25600,"station_id":"ce4bhq12rcd13ifvqhig","pricing_plan_id":"free"},{"bike_id":"7f458fab-3a0c-4609-8310-733ff5bbba57","system_id":"levelo_inurba_marseille","lat":43.33717,"lon":5.391857,"is_reserved":false,"is_disabled":false,"rental_uris":{"android":"levelo://app?vid=7f458fab-3a0c-4609-8310-733ff5bbba57","ios":"levelo://app?vid=7f458fab-3a0c-4609-8310-733ff5bbba57"},"vehicle_type_id":"4","last_reported":1701464774,"current_range_meters":30800,"station_id":"ce4bhr92rcd13ifvqhsg","pricing_plan_id":"free"},{"bike_id":"f99fc4d8-709b-4cee-a32c-2cdd6f1e8b1e","system_id":"levelo_inurba_marseille","lat":43.337168,"lon":5.391825,"is_reserved":false,"is_disabled":false,"rental_uris":{"android":"levelo://app?vid=f99fc4d8-709b-4cee-a32c-2cdd6f1e8b1e","ios":"levelo://app?vid=f99fc4d8-709b-4cee-a32c-2cdd6f1e8b1e"},"vehicle_type_id":"4","last_reported":1701464774,"current_range_meters":26000,"station_id":"ce4bhr92rcd13ifvqhsg","pricing_plan_id":"free"},{"bike_id":"4092b413-a8f0-49fd-8cc3-69bf3f509a40","system_id":"levelo_inurba_marseille","lat":43.32335,"lon":5.40629,"is_reserved":false,"is_disabled":false,"rental_uris":{"android":"levelo://app?vid=4092b413-a8f0-49fd-8cc3-69bf3f509a40","ios":"levelo://app?vid=4092b413-a8f0-49fd-8cc3-69bf3f509a40"},"vehicle_type_id":"4","last_reported":1701464774,"current_range_meters":13200,"station_id":"ce4bhq92rcd13ifvqhjg","pricing_plan_id":"free"},{"bike_id":"4bb6a732-3198-4b5d-8b1f-8af66a927600","system_id":"levelo_inurba_marseille","lat":43.284787,"lon":5.384116,"is_reserved":false,"is_disabled":false,"rental_uris":{"android":"levelo://app?vid=4bb6a732-3198-4b5d-8b1f-8af66a927600","ios":"levelo://app?vid=4bb6a732-3198-4b5d-8b1f-8af66a927600"},"vehicle_type_id":"4","last_reported":1701464774,"current_range_meters":25200,"station_id":"ce4bh512rcd13ifvqe3g","pricing_plan_id":"free"},{"bike_id":"4fde362e-b666-40d1-b601-a1d32ef9b744","system_id":"levelo_inurba_marseille","lat":43.28347,"lon":5.38103,"is_reserved":false,"is_disabled":false,"rental_uris":{"android":"levelo://app?vid=4fde362e-b666-40d1-b601-a1d32ef9b744","ios":"levelo://app?vid=4fde362e-b666-40d1-b601-a1d32ef9b744"},"vehicle_type_id":"4","last_reported":1701464774,"current_range_meters":13600,"station_id":"ce4bh412rcd13ifvqdr0","pricing_plan_id":"free"},{"bike_id":"47afa503-275c-4f70-bb54-ec9e9fe2d3cc","system_id":"levelo_inurba_marseille","lat":43.28944,"lon":5.39631,"is_reserved":false,"is_disabled":false,"rental_uris":{"android":"levelo://app?vid=47afa503-275c-4f70-bb54-ec9e9fe2d3cc","ios":"levelo://app?vid=47afa503-275c-4f70-bb54-ec9e9fe2d3cc"},"vehicle_type_id":"4","last_reported":1701464774,"current_range_meters":19600,"station_id":"ce4bh3h2rcd13ifvqdn0","pricing_plan_id":"free"},{"bike_id":"0a52f0dc-7b29-4855-8d2e-525c1ded5d49","system_id":"levelo_inurba_marseille","lat":43.282744,"lon":5.350533,"is_reserved":false,"is_disabled":false,"rental_uris":{"android":"levelo://app?vid=0a52f0dc-7b29-4855-8d2e-525c1ded5d49","ios":"levelo://app?vid=0a52f0dc-7b29-4855-8d2e-525c1ded5d49"},"vehicle_type_id":"4","last_reported":1701464774,"current_range_meters":20800,"station_id":"ce4bhbp2rcd13ifvqerg","pricing_plan_id":"free"},{"bike_id":"69881fbf-c0ea-49af-a1fc-762bfb1388e1","system_id":"levelo_inurba_marseille","lat":43.282754,"lon":5.350519,"is_reserved":false,"is_disabled":false,"rental_uris":{"android":"levelo://app?vid=69881fbf-c0ea-49af-a1fc-762bfb1388e1","ios":"levelo://app?vid=69881fbf-c0ea-49af-a1fc-762bfb1388e1"},"vehicle_type_id":"4","last_reported":1701464774,"current_range_meters":25600,"station_id":"ce4bhbp2rcd13ifvqerg","pricing_plan_id":"free"},{"bike_id":"da9c69a8-f034-4bc4-bd6f-19169039de2b","system_id":"levelo_inurba_marseille","lat":43.280382,"lon":5.369291,"is_reserved":false,"is_disabled":false,"rental_uris":{"android":"levelo://app?vid=da9c69a8-f034-4bc4-bd6f-19169039de2b","ios":"levelo://app?vid=da9c69a8-f034-4bc4-bd6f-19169039de2b"},"vehicle_type_id":"4","last_reported":1701464774,"current_range_meters":24000,"station_id":"ce4bha12rcd13ifvqef0","pricing_plan_id":"free"},{"bike_id":"67284c07-d246-4b08-abde-85a0fef44085","system_id":"levelo_inurba_marseille","lat":43.281044,"lon":5.378308,"is_reserved":false,"is_disabled":false,"rental_uris":{"android":"levelo://app?vid=67284c07-d246-4b08-abde-85a0fef44085","ios":"levelo://app?vid=67284c07-d246-4b08-abde-85a0fef44085"},"vehicle_type_id":"4","last_reported":1701464774,"current_range_meters":28800,"station_id":"ce4bha12rcd13ifvqee0","pricing_plan_id":"free"},{"bike_id":"b70188a9-3098-49e9-b32e-e2fa4d187eca","system_id":"levelo_inurba_marseille","lat":43.284462,"lon":5.392121,"is_reserved":false,"is_disabled":false,"rental_uris":{"android":"levelo://app?vid=b70188a9-3098-49e9-b32e-e2fa4d187eca","ios":"levelo://app?vid=b70188a9-3098-49e9-b32e-e2fa4d187eca"},"vehicle_type_id":"4","last_reported":1701464774,"current_range_meters":25600,"station_id":"ce4bhoh2rcd13ifvqh5g","pricing_plan_id":"free"},{"bike_id":"2fd7a7a9-7d3f-40a7-943b-58eb9afc5c16","system_id":"levelo_inurba_marseille","lat":43.284462,"lon":5.392121,"is_reserved":false,"is_disabled":false,"rental_uris":{"android":"levelo://app?vid=2fd7a7a9-7d3f-40a7-943b-58eb9afc5c16","ios":"levelo://app?vid=2fd7a7a9-7d3f-40a7-943b-58eb9afc5c16"},"vehicle_type_id":"4","last_reported":1701464774,"current_range_meters":31200,"station_id":"ce4bhoh2rcd13ifvqh5g","pricing_plan_id":"free"},{"bike_id":"679ee0e9-0d2e-4b47-908d-8f258d9ea3ca","system_id":"levelo_inurba_marseille","lat":43.284462,"lon":5.392121,"is_reserved":false,"is_disabled":false,"rental_uris":{"android":"levelo://app?vid=679ee0e9-0d2e-4b47-908d-8f258d9ea3ca","ios":"levelo://app?vid=679ee0e9-0d2e-4b47-908d-8f258d9ea3ca"},"vehicle_type_id":"4","last_reported":1701464774,"current_range_meters":22400,"station_id":"ce4bhoh2rcd13ifvqh5g","pricing_plan_id":"free"},{"bike_id":"7fe3ac52-5fac-47cb-97cc-3fc0617535d9","system_id":"levelo_inurba_marseille","lat":43.28573,"lon":5.394992,"is_reserved":false,"is_disabled":false,"rental_uris":{"android":"levelo://app?vid=7fe3ac52-5fac-47cb-97cc-3fc0617535d9","ios":"levelo://app?vid=7fe3ac52-5fac-47cb-97cc-3fc0617535d9"},"vehicle_type_id":"4","last_reported":1701464774,"current_range_meters":30000,"station_id":"ce4bh292rcd13ifvqdg0","pricing_plan_id":"free"},{"bike_id":"96496c0a-f1aa-4bd5-b562-e791274ad1b2","system_id":"levelo_inurba_marseille","lat":43.326605,"lon":5.409903,"is_reserved":false,"is_disabled":false,"rental_uris":{"android":"levelo://app?vid=96496c0a-f1aa-4bd5-b562-e791274ad1b2","ios":"levelo://app?vid=96496c0a-f1aa-4bd5-b562-e791274ad1b2"},"vehicle_type_id":"4","last_reported":1701464774,"current_range_meters":26400,"station_id":"ce4bhpp2rcd13ifvqhgg","pricing_plan_id":"free"},{"bike_id":"62fea860-1cb1-45ab-b73c-a7b13d7f576e","system_id":"levelo_inurba_marseille","lat":43.304188,"lon":5.412904,"is_reserved":false,"is_disabled":false,"rental_uris":{"android":"levelo://app?vid=62fea860-1cb1-45ab-b73c-a7b13d7f576e","ios":"levelo://app?vid=62fea860-1cb1-45ab-b73c-a7b13d7f576e"},"vehicle_type_id":"4","last_reported":1701464774,"current_range_meters":25200,"station_id":"ce4bhop2rcd13ifvqh8g","pricing_plan_id":"free"},{"bike_id":"3b198d43-72ef-4135-8019-b1e33447ab96","system_id":"levelo_inurba_marseille","lat":43.279087,"lon":5.380114,"is_reserved":false,"is_disabled":false,"rental_uris":{"android":"levelo://app?vid=3b198d43-72ef-4135-8019-b1e33447ab96","ios":"levelo://app?vid=3b198d43-72ef-4135-8019-b1e33447ab96"},"vehicle_type_id":"4","last_reported":1701464774,"current_range_meters":19600,"station_id":"ce4bhf92rcd13ifvqf50","pricing_plan_id":"free"},{"bike_id":"c4cd0b9d-0c41-4d84-aa06-fab71e60a157","system_id":"levelo_inurba_marseille","lat":43.28706,"lon":5.39997,"is_reserved":false,"is_disabled":false,"rental_uris":{"android":"levelo://app?vid=c4cd0b9d-0c41-4d84-aa06-fab71e60a157","ios":"levelo://app?vid=c4cd0b9d-0c41-4d84-aa06-fab71e60a157"},"vehicle_type_id":"4","last_reported":1701464774,"current_range_meters":11600,"station_id":"ce4bho92rcd13ifvqh3g","pricing_plan_id":"free"},{"bike_id":"8fbf3d61-038c-4d2e-a745-775230905bcc","system_id":"levelo_inurba_marseille","lat":43.279923,"lon":5.387197,"is_reserved":false,"is_disabled":false,"rental_uris":{"android":"levelo://app?vid=8fbf3d61-038c-4d2e-a745-775230905bcc","ios":"levelo://app?vid=8fbf3d61-038c-4d2e-a745-775230905bcc"},"vehicle_type_id":"4","last_reported":1701464774,"current_range_meters":0,"station_id":"ce4bhg12rcd13ifvqf80","pricing_plan_id":"free"},{"bike_id":"b3bdc6e4-a749-4275-8d53-ba9fe5a71e38","system_id":"levelo_inurba_marseille","lat":43.320045,"lon":5.415048,"is_reserved":false,"is_disabled":false,"rental_uris":{"android":"levelo://app?vid=b3bdc6e4-a749-4275-8d53-ba9fe5a71e38","ios":"levelo://app?vid=b3bdc6e4-a749-4275-8d53-ba9fe5a71e38"},"vehicle_type_id":"4","last_reported":1701464774,"current_range_meters":22800,"station_id":"ce4bhq92rcd13ifvqhkg","pricing_plan_id":"free"},{"bike_id":"526b28c0-af5c-4ca6-a2cb-18f0c4599abf","system_id":"levelo_inurba_marseille","lat":43.292647,"lon":5.409162,"is_reserved":false,"is_disabled":false,"rental_uris":{"android":"levelo://app?vid=526b28c0-af5c-4ca6-a2cb-18f0c4599abf","ios":"levelo://app?vid=526b28c0-af5c-4ca6-a2cb-18f0c4599abf"},"vehicle_type_id":"4","last_reported":1701464774,"current_range_meters":22800,"station_id":"","pricing_plan_id":"free"},{"bike_id":"df7fb786-3a0f-4ca8-9200-5934e980f116","system_id":"levelo_inurba_marseille","lat":43.27618,"lon":5.361009,"is_reserved":false,"is_disabled":false,"rental_uris":{"android":"levelo://app?vid=df7fb786-3a0f-4ca8-9200-5934e980f116","ios":"levelo://app?vid=df7fb786-3a0f-4ca8-9200-5934e980f116"},"vehicle_type_id":"4","last_reported":1701464774,"current_range_meters":16800,"station_id":"ce4bgj92rcd13ifvqbe0","pricing_plan_id":"free"},{"bike_id":"662d7ac0-b60c-4589-b775-59c466096683","system_id":"levelo_inurba_marseille","lat":43.325233,"lon":5.414318,"is_reserved":false,"is_disabled":false,"rental_uris":{"android":"levelo://app?vid=662d7ac0-b60c-4589-b775-59c466096683","ios":"levelo://app?vid=662d7ac0-b60c-4589-b775-59c466096683"},"vehicle_type_id":"4","last_reported":1701464774,"current_range_meters":29600,"station_id":"ce4bhq12rcd13ifvqhhg","pricing_plan_id":"free"},{"bike_id":"50f7840e-a9cf-4f40-b946-216ee75649a2","system_id":"levelo_inurba_marseille","lat":43.27611,"lon":5.36108,"is_reserved":false,"is_disabled":false,"rental_uris":{"android":"levelo://app?vid=50f7840e-a9cf-4f40-b946-216ee75649a2","ios":"levelo://app?vid=50f7840e-a9cf-4f40-b946-216ee75649a2"},"vehicle_type_id":"4","last_reported":1701464774,"current_range_meters":4800,"station_id":"ce4bgj92rcd13ifvqbe0","pricing_plan_id":"free"},{"bike_id":"588bedd9-e80a-4873-95ad-ba22112ed985","system_id":"levelo_inurba_marseille","lat":43.280784,"lon":5.396622,"is_reserved":false,"is_disabled":false,"rental_uris":{"android":"levelo://app?vid=588bedd9-e80a-4873-95ad-ba22112ed985","ios":"levelo://app?vid=588bedd9-e80a-4873-95ad-ba22112ed985"},"vehicle_type_id":"4","last_reported":1701464774,"current_range_meters":28400,"station_id":"ce4bho12rcd13ifvqh2g","pricing_plan_id":"free"},{"bike_id":"a94b3eb5-5797-4123-b454-69efb440c0b9","system_id":"levelo_inurba_marseille","lat":43.280784,"lon":5.396622,"is_reserved":false,"is_disabled":false,"rental_uris":{"android":"levelo://app?vid=a94b3eb5-5797-4123-b454-69efb440c0b9","ios":"levelo://app?vid=a94b3eb5-5797-4123-b454-69efb440c0b9"},"vehicle_type_id":"4","last_reported":1701464774,"current_range_meters":30000,"station_id":"ce4bho12rcd13ifvqh2g","pricing_plan_id":"free"},{"bike_id":"ca55f27f-3d9e-4cd0-a251-928b8da1bc50","system_id":"levelo_inurba_marseille","lat":43.280784,"lon":5.396622,"is_reserved":false,"is_disabled":false,"rental_uris":{"android":"levelo://app?vid=ca55f27f-3d9e-4cd0-a251-928b8da1bc50","ios":"levelo://app?vid=ca55f27f-3d9e-4cd0-a251-928b8da1bc50"},"vehicle_type_id":"4","last_reported":1701464774,"current_range_meters":22800,"station_id":"ce4bho12rcd13ifvqh2g","pricing_plan_id":"free"},{"bike_id":"63ae062f-5da4-4e3a-8385-0451c1a8d337","system_id":"levelo_inurba_marseille","lat":43.280784,"lon":5.396622,"is_reserved":false,"is_disabled":false,"rental_uris":{"android":"levelo://app?vid=63ae062f-5da4-4e3a-8385-0451c1a8d337","ios":"levelo://app?vid=63ae062f-5da4-4e3a-8385-0451c1a8d337"},"vehicle_type_id":"4","last_reported":1701464774,"current_range_meters":10800,"station_id":"ce4bho12rcd13ifvqh2g","pricing_plan_id":"free"},{"bike_id":"7cda6506-1dca-4d1f-b208-0241def2b98e","system_id":"levelo_inurba_marseille","lat":43.303837,"lon":5.418724,"is_reserved":false,"is_disabled":false,"rental_uris":{"android":"levelo://app?vid=7cda6506-1dca-4d1f-b208-0241def2b98e","ios":"levelo://app?vid=7cda6506-1dca-4d1f-b208-0241def2b98e"},"vehicle_type_id":"4","last_reported":1701464774,"current_range_meters":13600,"station_id":"ce4bhop2rcd13ifvqh7g","pricing_plan_id":"free"},{"bike_id":"ae81a803-fec5-4b93-9ab4-4d8a4c5332eb","system_id":"levelo_inurba_marseille","lat":43.303837,"lon":5.418724,"is_reserved":false,"is_disabled":false,"rental_uris":{"android":"levelo://app?vid=ae81a803-fec5-4b93-9ab4-4d8a4c5332eb","ios":"levelo://app?vid=ae81a803-fec5-4b93-9ab4-4d8a4c5332eb"},"vehicle_type_id":"4","last_reported":1701464774,"current_range_meters":26000,"station_id":"ce4bhop2rcd13ifvqh7g","pricing_plan_id":"free"},{"bike_id":"dad9420d-36bf-47cb-8906-3c62e7ceb4b7","system_id":"levelo_inurba_marseille","lat":43.303538,"lon":5.41888,"is_reserved":false,"is_disabled":false,"rental_uris":{"android":"levelo://app?vid=dad9420d-36bf-47cb-8906-3c62e7ceb4b7","ios":"levelo://app?vid=dad9420d-36bf-47cb-8906-3c62e7ceb4b7"},"vehicle_type_id":"4","last_reported":1701464774,"current_range_meters":19200,"station_id":"ce4bhop2rcd13ifvqh7g","pricing_plan_id":"free"},{"bike_id":"9019d7f6-4837-44df-8f80-0029f66cfbdb","system_id":"levelo_inurba_marseille","lat":43.275625,"lon":5.384392,"is_reserved":false,"is_disabled":false,"rental_uris":{"android":"levelo://app?vid=9019d7f6-4837-44df-8f80-0029f66cfbdb","ios":"levelo://app?vid=9019d7f6-4837-44df-8f80-0029f66cfbdb"},"vehicle_type_id":"4","last_reported":1701464774,"current_range_meters":19200,"station_id":"ce4bhh92rcd13ifvqfi0","pricing_plan_id":"free"},{"bike_id":"3308079f-d65b-4f92-9cc6-a28a1f6a4d2c","system_id":"levelo_inurba_marseille","lat":43.275625,"lon":5.384392,"is_reserved":false,"is_disabled":false,"rental_uris":{"android":"levelo://app?vid=3308079f-d65b-4f92-9cc6-a28a1f6a4d2c","ios":"levelo://app?vid=3308079f-d65b-4f92-9cc6-a28a1f6a4d2c"},"vehicle_type_id":"4","last_reported":1701464774,"current_range_meters":28800,"station_id":"ce4bhh92rcd13ifvqfi0","pricing_plan_id":"free"},{"bike_id":"48e88626-98ec-4601-9420-6bee8678acec","system_id":"levelo_inurba_marseille","lat":43.278401,"lon":5.392152,"is_reserved":false,"is_disabled":false,"rental_uris":{"android":"levelo://app?vid=48e88626-98ec-4601-9420-6bee8678acec","ios":"levelo://app?vid=48e88626-98ec-4601-9420-6bee8678acec"},"vehicle_type_id":"4","last_reported":1701464774,"current_range_meters":2800,"station_id":"ce4bhjp2rcd13ifvqga0","pricing_plan_id":"free"},{"bike_id":"ae645cb6-ae73-4a2b-b68b-451085ca3cdc","system_id":"levelo_inurba_marseille","lat":43.279952,"lon":5.400085,"is_reserved":false,"is_disabled":false,"rental_uris":{"android":"levelo://app?vid=ae645cb6-ae73-4a2b-b68b-451085ca3cdc","ios":"levelo://app?vid=ae645cb6-ae73-4a2b-b68b-451085ca3cdc"},"vehicle_type_id":"4","last_reported":1701464774,"current_range_meters":26400,"station_id":"ce4bho92rcd13ifvqh4g","pricing_plan_id":"free"},{"bike_id":"5c45592e-73b2-4806-a106-adead81b8f3e","system_id":"levelo_inurba_marseille","lat":43.279952,"lon":5.400085,"is_reserved":false,"is_disabled":false,"rental_uris":{"android":"levelo://app?vid=5c45592e-73b2-4806-a106-adead81b8f3e","ios":"levelo://app?vid=5c45592e-73b2-4806-a106-adead81b8f3e"},"vehicle_type_id":"4","last_reported":1701464774,"current_range_meters":13600,"station_id":"ce4bho92rcd13ifvqh4g","pricing_plan_id":"free"},{"bike_id":"8b95fa19-34cb-496e-ada5-cf4ce57829c5","system_id":"levelo_inurba_marseille","lat":43.279952,"lon":5.400085,"is_reserved":false,"is_disabled":false,"rental_uris":{"android":"levelo://app?vid=8b95fa19-34cb-496e-ada5-cf4ce57829c5","ios":"levelo://app?vid=8b95fa19-34cb-496e-ada5-cf4ce57829c5"},"vehicle_type_id":"4","last_reported":1701464774,"current_range_meters":31200,"station_id":"ce4bho92rcd13ifvqh4g","pricing_plan_id":"free"},{"bike_id":"2008ad1c-c3ed-4aab-a90a-ec11e3a4e262","system_id":"levelo_inurba_marseille","lat":43.279952,"lon":5.400085,"is_reserved":false,"is_disabled":false,"rental_uris":{"android":"levelo://app?vid=2008ad1c-c3ed-4aab-a90a-ec11e3a4e262","ios":"levelo://app?vid=2008ad1c-c3ed-4aab-a90a-ec11e3a4e262"},"vehicle_type_id":"4","last_reported":1701464774,"current_range_meters":23200,"station_id":"ce4bho92rcd13ifvqh4g","pricing_plan_id":"free"},{"bike_id":"b83f0b9f-1486-435e-97de-ebbda5a8317d","system_id":"levelo_inurba_marseille","lat":43.279975,"lon":5.40009,"is_reserved":false,"is_disabled":false,"rental_uris":{"android":"levelo://app?vid=b83f0b9f-1486-435e-97de-ebbda5a8317d","ios":"levelo://app?vid=b83f0b9f-1486-435e-97de-ebbda5a8317d"},"vehicle_type_id":"4","last_reported":1701464774,"current_range_meters":27200,"station_id":"ce4bho92rcd13ifvqh4g","pricing_plan_id":"free"},{"bike_id":"db7ffdb9-f10e-41dc-9854-cecf34a3d463","system_id":"levelo_inurba_marseille","lat":43.279952,"lon":5.400085,"is_reserved":false,"is_disabled":false,"rental_uris":{"android":"levelo://app?vid=db7ffdb9-f10e-41dc-9854-cecf34a3d463","ios":"levelo://app?vid=db7ffdb9-f10e-41dc-9854-cecf34a3d463"},"vehicle_type_id":"4","last_reported":1701464774,"current_range_meters":31200,"station_id":"ce4bho92rcd13ifvqh4g","pricing_plan_id":"free"},{"bike_id":"33918e0d-cdb0-4611-a687-3272d72d60a6","system_id":"levelo_inurba_marseille","lat":43.3253,"lon":5.42129,"is_reserved":false,"is_disabled":false,"rental_uris":{"android":"levelo://app?vid=33918e0d-cdb0-4611-a687-3272d72d60a6","ios":"levelo://app?vid=33918e0d-cdb0-4611-a687-3272d72d60a6"},"vehicle_type_id":"4","last_reported":1701464774,"current_range_meters":27200,"station_id":"","pricing_plan_id":"free"},{"bike_id":"894f6494-585b-4b1b-a39f-39b137cf17d0","system_id":"levelo_inurba_marseille","lat":43.310785,"lon":5.424305,"is_reserved":false,"is_disabled":false,"rental_uris":{"android":"levelo://app?vid=894f6494-585b-4b1b-a39f-39b137cf17d0","ios":"levelo://app?vid=894f6494-585b-4b1b-a39f-39b137cf17d0"},"vehicle_type_id":"4","last_reported":1701464774,"current_range_meters":12400,"station_id":"ce4bhp92rcd13ifvqhag","pricing_plan_id":"free"},{"bike_id":"a458be37-b437-4b6f-aef1-9977da7e9abb","system_id":"levelo_inurba_marseille","lat":43.295511,"lon":5.422926,"is_reserved":false,"is_disabled":false,"rental_uris":{"android":"levelo://app?vid=a458be37-b437-4b6f-aef1-9977da7e9abb","ios":"levelo://app?vid=a458be37-b437-4b6f-aef1-9977da7e9abb"},"vehicle_type_id":"4","last_reported":1701464774,"current_range_meters":29200,"station_id":"ce4bhph2rcd13ifvqhdg","pricing_plan_id":"free"},{"bike_id":"2fd3642f-f043-47ed-8015-d904c8b402fd","system_id":"levelo_inurba_marseille","lat":43.27214,"lon":5.39134,"is_reserved":false,"is_disabled":false,"rental_uris":{"android":"levelo://app?vid=2fd3642f-f043-47ed-8015-d904c8b402fd","ios":"levelo://app?vid=2fd3642f-f043-47ed-8015-d904c8b402fd"},"vehicle_type_id":"4","last_reported":1701464774,"current_range_meters":0,"station_id":"ce4bhhp2rcd13ifvqfm0","pricing_plan_id":"free"},{"bike_id":"0b7a3240-b1ed-4a8f-9fd0-2c00a9bddc28","system_id":"levelo_inurba_marseille","lat":43.317104,"lon":5.436818,"is_reserved":false,"is_disabled":false,"rental_uris":{"android":"levelo://app?vid=0b7a3240-b1ed-4a8f-9fd0-2c00a9bddc28","ios":"levelo://app?vid=0b7a3240-b1ed-4a8f-9fd0-2c00a9bddc28"},"vehicle_type_id":"4","last_reported":1701464774,"current_range_meters":23600,"station_id":"ce4bhp92rcd13ifvqhcg","pricing_plan_id":"free"},{"bike_id":"c78b6b5f-15d3-439e-b3b7-1400a92d3581","system_id":"levelo_inurba_marseille","lat":43.26556,"lon":5.37284,"is_reserved":false,"is_disabled":false,"rental_uris":{"android":"levelo://app?vid=c78b6b5f-15d3-439e-b3b7-1400a92d3581","ios":"levelo://app?vid=c78b6b5f-15d3-439e-b3b7-1400a92d3581"},"vehicle_type_id":"4","last_reported":1701464774,"current_range_meters":0,"station_id":"ce4bhg12rcd13ifvqf70","pricing_plan_id":"free"},{"bike_id":"90fd0c29-8253-4f16-939c-12a6ec0110c4","system_id":"levelo_inurba_marseille","lat":43.26555,"lon":5.37287,"is_reserved":false,"is_disabled":false,"rental_uris":{"android":"levelo://app?vid=90fd0c29-8253-4f16-939c-12a6ec0110c4","ios":"levelo://app?vid=90fd0c29-8253-4f16-939c-12a6ec0110c4"},"vehicle_type_id":"4","last_reported":1701464774,"current_range_meters":15200,"station_id":"ce4bhg12rcd13ifvqf70","pricing_plan_id":"free"},{"bike_id":"a2d420dd-14be-462d-a1c6-cb06f97f2ed5","system_id":"levelo_inurba_marseille","lat":43.27996,"lon":5.416624,"is_reserved":false,"is_disabled":false,"rental_uris":{"android":"levelo://app?vid=a2d420dd-14be-462d-a1c6-cb06f97f2ed5","ios":"levelo://app?vid=a2d420dd-14be-462d-a1c6-cb06f97f2ed5"},"vehicle_type_id":"4","last_reported":1701464774,"current_range_meters":14800,"station_id":"ce4bho12rcd13ifvqh1g","pricing_plan_id":"free"},{"bike_id":"6787df9e-23f3-497d-a354-f799784c3d82","system_id":"levelo_inurba_marseille","lat":43.265714,"lon":5.372891,"is_reserved":false,"is_disabled":false,"rental_uris":{"android":"levelo://app?vid=6787df9e-23f3-497d-a354-f799784c3d82","ios":"levelo://app?vid=6787df9e-23f3-497d-a354-f799784c3d82"},"vehicle_type_id":"4","last_reported":1701464774,"current_range_meters":4000,"station_id":"ce4bhg12rcd13ifvqf70","pricing_plan_id":"free"},{"bike_id":"55b33a5c-1177-4dd9-b3a0-e993463bd4e2","system_id":"levelo_inurba_marseille","lat":43.308051,"lon":5.43527,"is_reserved":false,"is_disabled":false,"rental_uris":{"android":"levelo://app?vid=55b33a5c-1177-4dd9-b3a0-e993463bd4e2","ios":"levelo://app?vid=55b33a5c-1177-4dd9-b3a0-e993463bd4e2"},"vehicle_type_id":"4","last_reported":1701464774,"current_range_meters":23600,"station_id":"ce4bhph2rcd13ifvqheg","pricing_plan_id":"free"},{"bike_id":"92311913-f3a0-413e-bbcf-fb6d37d5230a","system_id":"levelo_inurba_marseille","lat":43.308051,"lon":5.43527,"is_reserved":false,"is_disabled":false,"rental_uris":{"android":"levelo://app?vid=92311913-f3a0-413e-bbcf-fb6d37d5230a","ios":"levelo://app?vid=92311913-f3a0-413e-bbcf-fb6d37d5230a"},"vehicle_type_id":"4","last_reported":1701464774,"current_range_meters":25600,"station_id":"ce4bhph2rcd13ifvqheg","pricing_plan_id":"free"},{"bike_id":"c71160fc-c7b7-4c0b-8b7c-da5014dcb825","system_id":"levelo_inurba_marseille","lat":43.317104,"lon":5.436818,"is_reserved":false,"is_disabled":false,"rental_uris":{"android":"levelo://app?vid=c71160fc-c7b7-4c0b-8b7c-da5014dcb825","ios":"levelo://app?vid=c71160fc-c7b7-4c0b-8b7c-da5014dcb825"},"vehicle_type_id":"4","last_reported":1701464774,"current_range_meters":29600,"station_id":"ce4bhp92rcd13ifvqhcg","pricing_plan_id":"free"},{"bike_id":"e0c7aaa5-f957-4643-9938-29acc1fa1c9e","system_id":"levelo_inurba_marseille","lat":43.267959,"lon":5.402687,"is_reserved":false,"is_disabled":false,"rental_uris":{"android":"levelo://app?vid=e0c7aaa5-f957-4643-9938-29acc1fa1c9e","ios":"levelo://app?vid=e0c7aaa5-f957-4643-9938-29acc1fa1c9e"},"vehicle_type_id":"4","last_reported":1701464774,"current_range_meters":2400,"station_id":"ce501612rcd8frsf0b60","pricing_plan_id":"free"},{"bike_id":"64ac9a22-2cf9-4141-a288-3e6209d010e8","system_id":"levelo_inurba_marseille","lat":43.271368,"lon":5.40928,"is_reserved":false,"is_disabled":false,"rental_uris":{"android":"levelo://app?vid=64ac9a22-2cf9-4141-a288-3e6209d010e8","ios":"levelo://app?vid=64ac9a22-2cf9-4141-a288-3e6209d010e8"},"vehicle_type_id":"4","last_reported":1701464774,"current_range_meters":30000,"station_id":"ce4bhl12rcd13ifvqgf0","pricing_plan_id":"free"},{"bike_id":"be554e14-baf6-4d39-bbf3-064c681b17e0","system_id":"levelo_inurba_marseille","lat":43.267959,"lon":5.402687,"is_reserved":false,"is_disabled":false,"rental_uris":{"android":"levelo://app?vid=be554e14-baf6-4d39-bbf3-064c681b17e0","ios":"levelo://app?vid=be554e14-baf6-4d39-bbf3-064c681b17e0"},"vehicle_type_id":"4","last_reported":1701464774,"current_range_meters":24800,"station_id":"ce501612rcd8frsf0b60","pricing_plan_id":"free"},{"bike_id":"6d5827bb-e379-4067-bb3f-6136611daee9","system_id":"levelo_inurba_marseille","lat":43.298768,"lon":5.43643,"is_reserved":false,"is_disabled":false,"rental_uris":{"android":"levelo://app?vid=6d5827bb-e379-4067-bb3f-6136611daee9","ios":"levelo://app?vid=6d5827bb-e379-4067-bb3f-6136611daee9"},"vehicle_type_id":"4","last_reported":1701464774,"current_range_meters":31200,"station_id":"ce4bhpp2rcd13ifvqhfg","pricing_plan_id":"free"},{"bike_id":"3532a786-7312-4db1-88be-2e5e8a274941","system_id":"levelo_inurba_marseille","lat":43.28154,"lon":5.42643,"is_reserved":false,"is_disabled":false,"rental_uris":{"android":"levelo://app?vid=3532a786-7312-4db1-88be-2e5e8a274941","ios":"levelo://app?vid=3532a786-7312-4db1-88be-2e5e8a274941"},"vehicle_type_id":"4","last_reported":1701464774,"current_range_meters":26400,"station_id":"ce4bhnh2rcd13ifvqgug","pricing_plan_id":"free"},{"bike_id":"93192e7e-06d9-445a-b3fa-5cdf2fc1a273","system_id":"levelo_inurba_marseille","lat":43.281548,"lon":5.42643,"is_reserved":false,"is_disabled":false,"rental_uris":{"android":"levelo://app?vid=93192e7e-06d9-445a-b3fa-5cdf2fc1a273","ios":"levelo://app?vid=93192e7e-06d9-445a-b3fa-5cdf2fc1a273"},"vehicle_type_id":"4","last_reported":1701464774,"current_range_meters":13200,"station_id":"ce4bhnh2rcd13ifvqgug","pricing_plan_id":"free"},{"bike_id":"d3df04f1-aa36-401c-b9f0-16ea3bba87de","system_id":"levelo_inurba_marseille","lat":43.28152,"lon":5.42644,"is_reserved":false,"is_disabled":false,"rental_uris":{"android":"levelo://app?vid=d3df04f1-aa36-401c-b9f0-16ea3bba87de","ios":"levelo://app?vid=d3df04f1-aa36-401c-b9f0-16ea3bba87de"},"vehicle_type_id":"4","last_reported":1701464774,"current_range_meters":16400,"station_id":"ce4bhnh2rcd13ifvqgug","pricing_plan_id":"free"},{"bike_id":"a265f57d-2203-4406-8278-bc194922c399","system_id":"levelo_inurba_marseille","lat":43.28151,"lon":5.42644,"is_reserved":false,"is_disabled":false,"rental_uris":{"android":"levelo://app?vid=a265f57d-2203-4406-8278-bc194922c399","ios":"levelo://app?vid=a265f57d-2203-4406-8278-bc194922c399"},"vehicle_type_id":"4","last_reported":1701464774,"current_range_meters":30000,"station_id":"ce4bhnh2rcd13ifvqgug","pricing_plan_id":"free"},{"bike_id":"3de40b48-7293-4590-b1e4-a9c54e991d0a","system_id":"levelo_inurba_marseille","lat":43.2815,"lon":5.42644,"is_reserved":false,"is_disabled":false,"rental_uris":{"android":"levelo://app?vid=3de40b48-7293-4590-b1e4-a9c54e991d0a","ios":"levelo://app?vid=3de40b48-7293-4590-b1e4-a9c54e991d0a"},"vehicle_type_id":"4","last_reported":1701464774,"current_range_meters":18000,"station_id":"ce4bhnh2rcd13ifvqgug","pricing_plan_id":"free"},{"bike_id":"81f4f34a-8d36-4c09-961e-e42c57ef3483","system_id":"levelo_inurba_marseille","lat":43.28152,"lon":5.42648,"is_reserved":false,"is_disabled":false,"rental_uris":{"android":"levelo://app?vid=81f4f34a-8d36-4c09-961e-e42c57ef3483","ios":"levelo://app?vid=81f4f34a-8d36-4c09-961e-e42c57ef3483"},"vehicle_type_id":"4","last_reported":1701464774,"current_range_meters":2800,"station_id":"ce4bhnh2rcd13ifvqgug","pricing_plan_id":"free"},{"bike_id":"b802834e-51f4-41a4-96cb-c31681473515","system_id":"levelo_inurba_marseille","lat":43.281533,"lon":5.426517,"is_reserved":false,"is_disabled":false,"rental_uris":{"android":"levelo://app?vid=b802834e-51f4-41a4-96cb-c31681473515","ios":"levelo://app?vid=b802834e-51f4-41a4-96cb-c31681473515"},"vehicle_type_id":"4","last_reported":1701464774,"current_range_meters":31200,"station_id":"ce4bhnh2rcd13ifvqgug","pricing_plan_id":"free"},{"bike_id":"1ee39fb4-b865-44cf-8520-8eabf78fc881","system_id":"levelo_inurba_marseille","lat":43.25586,"lon":5.38223,"is_reserved":false,"is_disabled":false,"rental_uris":{"android":"levelo://app?vid=1ee39fb4-b865-44cf-8520-8eabf78fc881","ios":"levelo://app?vid=1ee39fb4-b865-44cf-8520-8eabf78fc881"},"vehicle_type_id":"4","last_reported":1701464774,"current_range_meters":20400,"station_id":"ce4bhih2rcd13ifvqfs0","pricing_plan_id":"free"},{"bike_id":"6b55de0b-bf22-4d3b-bb7b-9bfacee3cb65","system_id":"levelo_inurba_marseille","lat":43.270721,"lon":5.422764,"is_reserved":false,"is_disabled":false,"rental_uris":{"android":"levelo://app?vid=6b55de0b-bf22-4d3b-bb7b-9bfacee3cb65","ios":"levelo://app?vid=6b55de0b-bf22-4d3b-bb7b-9bfacee3cb65"},"vehicle_type_id":"4","last_reported":1701464774,"current_range_meters":24000,"station_id":"ce4bhk92rcd13ifvqgb0","pricing_plan_id":"free"},{"bike_id":"5b0369f5-05ce-40c3-8ddb-77f04ee5dfdd","system_id":"levelo_inurba_marseille","lat":43.258658,"lon":5.398935,"is_reserved":false,"is_disabled":false,"rental_uris":{"android":"levelo://app?vid=5b0369f5-05ce-40c3-8ddb-77f04ee5dfdd","ios":"levelo://app?vid=5b0369f5-05ce-40c3-8ddb-77f04ee5dfdd"},"vehicle_type_id":"4","last_reported":1701464774,"current_range_meters":26000,"station_id":"ce4bhl92rcd13ifvqghg","pricing_plan_id":"free"},{"bike_id":"8260938c-99a0-41e0-9eca-ebe62e09f8e6","system_id":"levelo_inurba_marseille","lat":43.259268,"lon":5.40895,"is_reserved":false,"is_disabled":false,"rental_uris":{"android":"levelo://app?vid=8260938c-99a0-41e0-9eca-ebe62e09f8e6","ios":"levelo://app?vid=8260938c-99a0-41e0-9eca-ebe62e09f8e6"},"vehicle_type_id":"4","last_reported":1701464774,"current_range_meters":22400,"station_id":"ce4bhm92rcd13ifvqglg","pricing_plan_id":"free"},{"bike_id":"f88fd433-05bf-4de3-9f93-62a16ba6307d","system_id":"levelo_inurba_marseille","lat":43.25934,"lon":5.40914,"is_reserved":false,"is_disabled":false,"rental_uris":{"android":"levelo://app?vid=f88fd433-05bf-4de3-9f93-62a16ba6307d","ios":"levelo://app?vid=f88fd433-05bf-4de3-9f93-62a16ba6307d"},"vehicle_type_id":"4","last_reported":1701464774,"current_range_meters":16400,"station_id":"ce4bhm92rcd13ifvqglg","pricing_plan_id":"free"},{"bike_id":"2b2132ba-38ac-4539-8b12-2216245cc958","system_id":"levelo_inurba_marseille","lat":43.250009,"lon":5.389195,"is_reserved":false,"is_disabled":false,"rental_uris":{"android":"levelo://app?vid=2b2132ba-38ac-4539-8b12-2216245cc958","ios":"levelo://app?vid=2b2132ba-38ac-4539-8b12-2216245cc958"},"vehicle_type_id":"4","last_reported":1701464774,"current_range_meters":14800,"station_id":"ce4bhgp2rcd13ifvqfd0","pricing_plan_id":"free"},{"bike_id":"fc45842c-ccf8-4868-823a-f950f4939f18","system_id":"levelo_inurba_marseille","lat":43.2479,"lon":5.374457,"is_reserved":false,"is_disabled":false,"rental_uris":{"android":"levelo://app?vid=fc45842c-ccf8-4868-823a-f950f4939f18","ios":"levelo://app?vid=fc45842c-ccf8-4868-823a-f950f4939f18"},"vehicle_type_id":"4","last_reported":1701464774,"current_range_meters":10400,"station_id":"ce4bhgh2rcd13ifvqfb0","pricing_plan_id":"free"},{"bike_id":"7aa24d96-c95d-4468-a02b-494a7d7dd09e","system_id":"levelo_inurba_marseille","lat":43.250786,"lon":5.395148,"is_reserved":false,"is_disabled":false,"rental_uris":{"android":"levelo://app?vid=7aa24d96-c95d-4468-a02b-494a7d7dd09e","ios":"levelo://app?vid=7aa24d96-c95d-4468-a02b-494a7d7dd09e"},"vehicle_type_id":"4","last_reported":1701464774,"current_range_meters":14800,"station_id":"ce4bhm12rcd13ifvqgkg","pricing_plan_id":"free"},{"bike_id":"7b86737e-88b6-402e-953d-d66f821e4367","system_id":"levelo_inurba_marseille","lat":43.25078,"lon":5.39522,"is_reserved":false,"is_disabled":false,"rental_uris":{"android":"levelo://app?vid=7b86737e-88b6-402e-953d-d66f821e4367","ios":"levelo://app?vid=7b86737e-88b6-402e-953d-d66f821e4367"},"vehicle_type_id":"4","last_reported":1701464774,"current_range_meters":31200,"station_id":"ce4bhm12rcd13ifvqgkg","pricing_plan_id":"free"},{"bike_id":"dc806c7b-b393-4b62-adfa-58492f62e060","system_id":"levelo_inurba_marseille","lat":43.25102,"lon":5.403214,"is_reserved":false,"is_disabled":false,"rental_uris":{"android":"levelo://app?vid=dc806c7b-b393-4b62-adfa-58492f62e060","ios":"levelo://app?vid=dc806c7b-b393-4b62-adfa-58492f62e060"},"vehicle_type_id":"4","last_reported":1701464774,"current_range_meters":31200,"station_id":"ce4bhlh2rcd13ifvqgig","pricing_plan_id":"free"},{"bike_id":"ab26e3db-b606-424a-8283-725e324be160","system_id":"levelo_inurba_marseille","lat":43.25106,"lon":5.40324,"is_reserved":false,"is_disabled":false,"rental_uris":{"android":"levelo://app?vid=ab26e3db-b606-424a-8283-725e324be160","ios":"levelo://app?vid=ab26e3db-b606-424a-8283-725e324be160"},"vehicle_type_id":"4","last_reported":1701464774,"current_range_meters":20400,"station_id":"ce4bhlh2rcd13ifvqgig","pricing_plan_id":"free"},{"bike_id":"e7aad632-367b-4496-9cef-bcfeaf0ec9a0","system_id":"levelo_inurba_marseille","lat":43.246461,"lon":5.389014,"is_reserved":false,"is_disabled":false,"rental_uris":{"android":"levelo://app?vid=e7aad632-367b-4496-9cef-bcfeaf0ec9a0","ios":"levelo://app?vid=e7aad632-367b-4496-9cef-bcfeaf0ec9a0"},"vehicle_type_id":"4","last_reported":1701464774,"current_range_meters":30800,"station_id":"ce4bhg12rcd13ifvqf60","pricing_plan_id":"free"},{"bike_id":"3cecf076-6f72-4dc3-9539-81b4e6b7ee6a","system_id":"levelo_inurba_marseille","lat":43.243884,"lon":5.370736,"is_reserved":false,"is_disabled":false,"rental_uris":{"android":"levelo://app?vid=3cecf076-6f72-4dc3-9539-81b4e6b7ee6a","ios":"levelo://app?vid=3cecf076-6f72-4dc3-9539-81b4e6b7ee6a"},"vehicle_type_id":"4","last_reported":1701464774,"current_range_meters":18400,"station_id":"ce4bhhh2rcd13ifvqfk0","pricing_plan_id":"free"},{"bike_id":"32bbdb1e-977b-47d6-99fc-61a4811802d7","system_id":"levelo_inurba_marseille","lat":43.243884,"lon":5.370737,"is_reserved":false,"is_disabled":false,"rental_uris":{"android":"levelo://app?vid=32bbdb1e-977b-47d6-99fc-61a4811802d7","ios":"levelo://app?vid=32bbdb1e-977b-47d6-99fc-61a4811802d7"},"vehicle_type_id":"4","last_reported":1701464774,"current_range_meters":26000,"station_id":"ce4bhhh2rcd13ifvqfk0","pricing_plan_id":"free"},{"bike_id":"311269c7-73e5-44dd-9e19-cf1037a422fa","system_id":"levelo_inurba_marseille","lat":43.243884,"lon":5.370736,"is_reserved":false,"is_disabled":false,"rental_uris":{"android":"levelo://app?vid=311269c7-73e5-44dd-9e19-cf1037a422fa","ios":"levelo://app?vid=311269c7-73e5-44dd-9e19-cf1037a422fa"},"vehicle_type_id":"4","last_reported":1701464774,"current_range_meters":31600,"station_id":"ce4bhhh2rcd13ifvqfk0","pricing_plan_id":"free"},{"bike_id":"2a1f8f75-f29e-422e-a076-97f855d3f109","system_id":"levelo_inurba_marseille","lat":43.24074,"lon":5.37756,"is_reserved":false,"is_disabled":false,"rental_uris":{"android":"levelo://app?vid=2a1f8f75-f29e-422e-a076-97f855d3f109","ios":"levelo://app?vid=2a1f8f75-f29e-422e-a076-97f855d3f109"},"vehicle_type_id":"4","last_reported":1701464774,"current_range_meters":0,"station_id":"ce4bhnp2rcd13ifvqgvg","pricing_plan_id":"free"},{"bike_id":"7216dfac-de69-4985-86e5-194ab2bb3efc","system_id":"levelo_inurba_marseille","lat":43.23963,"lon":5.36632,"is_reserved":false,"is_disabled":false,"rental_uris":{"android":"levelo://app?vid=7216dfac-de69-4985-86e5-194ab2bb3efc","ios":"levelo://app?vid=7216dfac-de69-4985-86e5-194ab2bb3efc"},"vehicle_type_id":"4","last_reported":1701464774,"current_range_meters":10000,"station_id":"ce4bhi12rcd13ifvqfp0","pricing_plan_id":"free"},{"bike_id":"b4c37c99-9e43-4e8c-8c9c-eb1236d213c4","system_id":"levelo_inurba_marseille","lat":43.239588,"lon":5.366238,"is_reserved":false,"is_disabled":false,"rental_uris":{"android":"levelo://app?vid=b4c37c99-9e43-4e8c-8c9c-eb1236d213c4","ios":"levelo://app?vid=b4c37c99-9e43-4e8c-8c9c-eb1236d213c4"},"vehicle_type_id":"4","last_reported":1701464774,"current_range_meters":26400,"station_id":"ce4bhi12rcd13ifvqfp0","pricing_plan_id":"free"},{"bike_id":"cd2806e3-7a91-44f5-9e97-e41c2a460e29","system_id":"levelo_inurba_marseille","lat":43.241782,"lon":5.397264,"is_reserved":false,"is_disabled":false,"rental_uris":{"android":"levelo://app?vid=cd2806e3-7a91-44f5-9e97-e41c2a460e29","ios":"levelo://app?vid=cd2806e3-7a91-44f5-9e97-e41c2a460e29"},"vehicle_type_id":"4","last_reported":1701464774,"current_range_meters":2400,"station_id":"ce4bhn12rcd13ifvqgpg","pricing_plan_id":"free"},{"bike_id":"c6dc56c4-57bd-4bd9-a631-967718c001bd","system_id":"levelo_inurba_marseille","lat":43.231919,"lon":5.355532,"is_reserved":false,"is_disabled":false,"rental_uris":{"android":"levelo://app?vid=c6dc56c4-57bd-4bd9-a631-967718c001bd","ios":"levelo://app?vid=c6dc56c4-57bd-4bd9-a631-967718c001bd"},"vehicle_type_id":"4","last_reported":1701464774,"current_range_meters":10800,"station_id":"ce4bhu92rcd13ifvqi70","pricing_plan_id":"free"},{"bike_id":"9dc97c96-8e15-4d34-bc42-2b10dd83e9f4","system_id":"levelo_inurba_marseille","lat":43.231955,"lon":5.355555,"is_reserved":false,"is_disabled":false,"rental_uris":{"android":"levelo://app?vid=9dc97c96-8e15-4d34-bc42-2b10dd83e9f4","ios":"levelo://app?vid=9dc97c96-8e15-4d34-bc42-2b10dd83e9f4"},"vehicle_type_id":"4","last_reported":1701464774,"current_range_meters":22400,"station_id":"ce4bhu92rcd13ifvqi70","pricing_plan_id":"free"},{"bike_id":"cf3102c4-88e0-4a41-86b7-69a76932d3e6","system_id":"levelo_inurba_marseille","lat":43.231923,"lon":5.355545,"is_reserved":false,"is_disabled":false,"rental_uris":{"android":"levelo://app?vid=cf3102c4-88e0-4a41-86b7-69a76932d3e6","ios":"levelo://app?vid=cf3102c4-88e0-4a41-86b7-69a76932d3e6"},"vehicle_type_id":"4","last_reported":1701464774,"current_range_meters":31200,"station_id":"ce4bhu92rcd13ifvqi70","pricing_plan_id":"free"},{"bike_id":"ccac186a-f6e7-41cf-8157-22f177e2a012","system_id":"levelo_inurba_marseille","lat":43.231919,"lon":5.355532,"is_reserved":false,"is_disabled":false,"rental_uris":{"android":"levelo://app?vid=ccac186a-f6e7-41cf-8157-22f177e2a012","ios":"levelo://app?vid=ccac186a-f6e7-41cf-8157-22f177e2a012"},"vehicle_type_id":"4","last_reported":1701464774,"current_range_meters":20400,"station_id":"ce4bhu92rcd13ifvqi70","pricing_plan_id":"free"},{"bike_id":"6462fbc5-ceb8-47e3-b56d-fc1e69bef19f","system_id":"levelo_inurba_marseille","lat":43.231919,"lon":5.355532,"is_reserved":false,"is_disabled":false,"rental_uris":{"android":"levelo://app?vid=6462fbc5-ceb8-47e3-b56d-fc1e69bef19f","ios":"levelo://app?vid=6462fbc5-ceb8-47e3-b56d-fc1e69bef19f"},"vehicle_type_id":"4","last_reported":1701464774,"current_range_meters":31200,"station_id":"ce4bhu92rcd13ifvqi70","pricing_plan_id":"free"},{"bike_id":"6382809b-45d0-4ad2-8be7-697249f82077","system_id":"levelo_inurba_marseille","lat":43.231919,"lon":5.355532,"is_reserved":false,"is_disabled":false,"rental_uris":{"android":"levelo://app?vid=6382809b-45d0-4ad2-8be7-697249f82077","ios":"levelo://app?vid=6382809b-45d0-4ad2-8be7-697249f82077"},"vehicle_type_id":"4","last_reported":1701464774,"current_range_meters":31200,"station_id":"ce4bhu92rcd13ifvqi70","pricing_plan_id":"free"},{"bike_id":"d919cd84-7675-4a37-b94c-3ba2519b645c","system_id":"levelo_inurba_marseille","lat":43.231919,"lon":5.355532,"is_reserved":false,"is_disabled":false,"rental_uris":{"android":"levelo://app?vid=d919cd84-7675-4a37-b94c-3ba2519b645c","ios":"levelo://app?vid=d919cd84-7675-4a37-b94c-3ba2519b645c"},"vehicle_type_id":"4","last_reported":1701464774,"current_range_meters":27600,"station_id":"ce4bhu92rcd13ifvqi70","pricing_plan_id":"free"},{"bike_id":"1eeab9a5-d341-4bc8-8d21-ee151ff9d9b2","system_id":"levelo_inurba_marseille","lat":43.231906,"lon":5.39995,"is_reserved":false,"is_disabled":false,"rental_uris":{"android":"levelo://app?vid=1eeab9a5-d341-4bc8-8d21-ee151ff9d9b2","ios":"levelo://app?vid=1eeab9a5-d341-4bc8-8d21-ee151ff9d9b2"},"vehicle_type_id":"4","last_reported":1701464774,"current_range_meters":20800,"station_id":"ce4bhn12rcd13ifvqgqg","pricing_plan_id":"free"},{"bike_id":"22bd98e3-c33f-4c44-ae2b-f96729d36f4f","system_id":"levelo_inurba_marseille","lat":43.23188,"lon":5.39998,"is_reserved":false,"is_disabled":false,"rental_uris":{"android":"levelo://app?vid=22bd98e3-c33f-4c44-ae2b-f96729d36f4f","ios":"levelo://app?vid=22bd98e3-c33f-4c44-ae2b-f96729d36f4f"},"vehicle_type_id":"4","last_reported":1701464774,"current_range_meters":30800,"station_id":"ce4bhn12rcd13ifvqgqg","pricing_plan_id":"free"},{"bike_id":"d0b35396-6769-42d4-8160-8b44cb829902","system_id":"levelo_inurba_marseille","lat":43.231793,"lon":5.400044,"is_reserved":false,"is_disabled":false,"rental_uris":{"android":"levelo://app?vid=d0b35396-6769-42d4-8160-8b44cb829902","ios":"levelo://app?vid=d0b35396-6769-42d4-8160-8b44cb829902"},"vehicle_type_id":"4","last_reported":1701464774,"current_range_meters":31200,"station_id":"ce4bhn12rcd13ifvqgqg","pricing_plan_id":"free"},{"bike_id":"457c552c-8af5-4b7b-9f6b-8c901265a623","system_id":"levelo_inurba_marseille","lat":43.231793,"lon":5.400044,"is_reserved":false,"is_disabled":false,"rental_uris":{"android":"levelo://app?vid=457c552c-8af5-4b7b-9f6b-8c901265a623","ios":"levelo://app?vid=457c552c-8af5-4b7b-9f6b-8c901265a623"},"vehicle_type_id":"4","last_reported":1701464774,"current_range_meters":29600,"station_id":"ce4bhn12rcd13ifvqgqg","pricing_plan_id":"free"}]}}