{"last_updated":1744618442,"ttl":60,"version":"2.2","data":{"bikes":[{"bike_id":"d53356ed-34e7-4ce0-8d94-e073954cdd85","system_id":"levelo_inurba_marseille","lat":43.270577,"lon":5.402712,"is_reserved":false,"is_disabled":true,"rental_uris":{"android":"levelo://app?vid=d53356ed-34e7-4ce0-8d94-e073954cdd85","ios":"levelo://app?vid=d53356ed-34e7-4ce0-8d94-e073954cdd85"},"vehicle_type_id":"4","last_reported":1744618442,"current_range_meters":2800,"station_id":"ce4bhk92rcd13ifvqgc0","pricing_plan_id":"cebpf4jnsgd1na2vs0mg"},{"bike_id":"11e8aa7d-be07-4d4e-9d56-522c2ab67459","system_id":"levelo_inurba_marseille","lat":43.32118,"lon":5.40858,"is_reserved":false,"is_disabled":false,"rental_uris":{"android":"levelo://app?vid=11e8aa7d-be07-4d4e-9d56-522c2ab67459","ios":"levelo://app?vid=11e8aa7d-be07-4d4e-9d56-522c2ab67459"},"vehicle_type_id":"4","last_reported":1744618442,"current_range_meters":2800,"station_id":"","pricing_plan_id":"cebpf4jnsgd1na2vs0mg"},{"bike_id":"ef291804-1477-432e-b153-82ea15725418","system_id":"levelo_inurba_marseille","lat":43.33742,"lon":5.37454,"is_reserved":false,"is_disabled":false,"rental_uris":{"android":"levelo://app?vid=ef291804-1477-432e-b153-82ea15725418","ios":"levelo://app?vid=ef291804-1477-432e-b153-82ea15725418"},"vehicle_type_id":"4","last_reported":1744618442,"current_range_meters":3200,"station_id":"","pricing_plan_id":"cebpf4jnsgd1na2vs0mg"},{"bike_id":"d7be55f3-a0c4-46fd-bb8f-d91ac2cc4a98","system_id":"levelo_inurba_marseille","lat":43.22933,"lon":5.35377,"is_reserved":false,"is_disabled":false,"rental_uris":{"android":"levelo://app?vid=d7be55f3-a0c4-46fd-bb8f-d91ac2cc4a98","ios":"levelo://app?vid=d7be55f3-a0c4-46fd-bb8f-d91ac2cc4a98"},"vehicle_type_id":"4","last_reported":1744618442,"current_range_meters":3200,"station_id":"cpo3532slgdg3j2ikp40","pricing_plan_id":"cebpf4jnsgd1na2vs0mg"},{"bike_id":"841007c5-6b11-4ae8-9be8-73170c169105","system_id":"levelo_inurba_marseille","lat":43.3089,"lon":5.39648,"is_reserved":false,"is_disabled":false,"rental_uris":{"android":"levelo://app?vid=841007c5-6b11-4ae8-9be8-73170c169105","ios":"levelo://app?vid=841007c5-6b11-4ae8-9be8-73170c169105"},"vehicle_type_id":"4","last_reported":1744618442,"current_range_meters":3200,"station_id":"ce4bh012rcd13ifvqcv0","pricing_plan_id":"cebpf4jnsgd1na2vs0mg"},{"bike_id":"1130922e-9ccc-463b-9207-aadecd794edb","system_id":"levelo_inurba_marseille","lat":43.31988,"lon":5.38123,"is_reserved":false,"is_disabled":true,"rental_uris":{"android":"levelo://app?vid=1130922e-9ccc-463b-9207-aadecd794edb","ios":"levelo://app?vid=1130922e-9ccc-463b-9207-aadecd794edb"},"vehicle_type_id":"4","last_reported":1744618442,"current_range_meters":3600,"station_id":"ce4bhr12rcd13ifvqhpg","pricing_plan_id":"cebpf4jnsgd1na2vs0mg"},{"bike_id":"d8f603cd-3b83-4148-bab8-3a185ad2a59f","system_id":"levelo_inurba_marseille","lat":43.32416,"lon":5.3913,"is_reserved":false,"is_disabled":true,"rental_uris":{"android":"levelo://app?vid=d8f603cd-3b83-4148-bab8-3a185ad2a59f","ios":"levelo://app?vid=d8f603cd-3b83-4148-bab8-3a185ad2a59f"},"vehicle_type_id":"4","last_reported":1744618442,"current_range_meters":4000,"station_id":"","pricing_plan_id":"cebpf4jnsgd1na2vs0mg"},{"bike_id":"4a0973b0-92a0-41e8-9b0d-a99e944bafe0","system_id":"levelo_inurba_marseille","lat":43.34475,"lon":5.41285,"is_reserved":false,"is_disabled":false,"rental_uris":{"android":"levelo://app?vid=4a0973b0-92a0-41e8-9b0d-a99e944bafe0","ios":"levelo://app?vid=4a0973b0-92a0-41e8-9b0d-a99e944bafe0"},"vehicle_type_id":"4","last_reported":1744618442,"current_range_meters":4000,"station_id":"","pricing_plan_id":"cebpf4jnsgd1na2vs0mg"},{"bike_id":"5b77a833-8185-45c2-9fe3-07eb40df54ca","system_id":"levelo_inurba_marseille","lat":43.33995,"lon":5.38057,"is_reserved":false,"is_disabled":false,"rental_uris":{"android":"levelo://app?vid=5b77a833-8185-45c2-9fe3-07eb40df54ca","ios":"levelo://app?vid=5b77a833-8185-45c2-9fe3-07eb40df54ca"},"vehicle_type_id":"4","last_reported":1744618442,"current_range_meters":4000,"station_id":"","pricing_plan_id":"cebpf4jnsgd1na2vs0mg"},{"bike_id":"493cde9e-7859-4c26-a2e6-f744ee5d8553","system_id":"levelo_inurba_marseille","lat":43.31803,"lon":5.36824,"is_reserved":false,"is_disabled":false,"rental_uris":{"android":"levelo://app?vid=493cde9e-7859-4c26-a2e6-f744ee5d8553","ios":"levelo://app?vid=493cde9e-7859-4c26-a2e6-f744ee5d8553"},"vehicle_type_id":"4","last_reported":1744618442,"current_range_meters":4400,"station_id":"","pricing_plan_id":"cebpf4jnsgd1na2vs0mg"},{"bike_id":"ad6ed18b-1265-4c43-a009-6420ff91943e","system_id":"levelo_inurba_marseille","lat":43.284635,"lon":5.35892,"is_reserved":false,"is_disabled":true,"rental_uris":{"android":"levelo://app?vid=ad6ed18b-1265-4c43-a009-6420ff91943e","ios":"levelo://app?vid=ad6ed18b-1265-4c43-a009-6420ff91943e"},"vehicle_type_id":"4","last_reported":1744618442,"current_range_meters":4800,"station_id":"ce4bhah2rcd13ifvqei0","pricing_plan_id":"cebpf4jnsgd1na2vs0mg"},{"bike_id":"86ac2a52-642d-44a4-96e5-4023171a23eb","system_id":"levelo_inurba_marseille","lat":43.30799,"lon":5.3815,"is_reserved":false,"is_disabled":false,"rental_uris":{"android":"levelo://app?vid=86ac2a52-642d-44a4-96e5-4023171a23eb","ios":"levelo://app?vid=86ac2a52-642d-44a4-96e5-4023171a23eb"},"vehicle_type_id":"4","last_reported":1744618442,"current_range_meters":5600,"station_id":"ce4bgt12rcd13ifvqce0","pricing_plan_id":"cebpf4jnsgd1na2vs0mg"},{"bike_id":"b7e965ff-4854-44fc-8e2a-103893462049","system_id":"levelo_inurba_marseille","lat":43.337444,"lon":5.374475,"is_reserved":false,"is_disabled":true,"rental_uris":{"android":"levelo://app?vid=b7e965ff-4854-44fc-8e2a-103893462049","ios":"levelo://app?vid=b7e965ff-4854-44fc-8e2a-103893462049"},"vehicle_type_id":"4","last_reported":1744618442,"current_range_meters":5600,"station_id":"","pricing_plan_id":"cebpf4jnsgd1na2vs0mg"},{"bike_id":"9dc6f05f-8d53-4d36-aea1-87f77d1fadc3","system_id":"levelo_inurba_marseille","lat":43.29303,"lon":5.37169,"is_reserved":false,"is_disabled":false,"rental_uris":{"android":"levelo://app?vid=9dc6f05f-8d53-4d36-aea1-87f77d1fadc3","ios":"levelo://app?vid=9dc6f05f-8d53-4d36-aea1-87f77d1fadc3"},"vehicle_type_id":"4","last_reported":1744618442,"current_range_meters":5600,"station_id":"ce4bgh92rcd13ifvqb40","pricing_plan_id":"cebpf4jnsgd1na2vs0mg"},{"bike_id":"1620f5c4-a1ee-41ed-8dd0-def69688a41d","system_id":"levelo_inurba_marseille","lat":43.267737,"lon":5.394193,"is_reserved":false,"is_disabled":false,"rental_uris":{"android":"levelo://app?vid=1620f5c4-a1ee-41ed-8dd0-def69688a41d","ios":"levelo://app?vid=1620f5c4-a1ee-41ed-8dd0-def69688a41d"},"vehicle_type_id":"4","last_reported":1744618442,"current_range_meters":5600,"station_id":"ce4bhh12rcd13ifvqfg0","pricing_plan_id":"cebpf4jnsgd1na2vs0mg"},{"bike_id":"2f5bc015-0a98-4a0d-a50f-f7181e1d6abe","system_id":"levelo_inurba_marseille","lat":43.23454,"lon":5.41244,"is_reserved":false,"is_disabled":false,"rental_uris":{"android":"levelo://app?vid=2f5bc015-0a98-4a0d-a50f-f7181e1d6abe","ios":"levelo://app?vid=2f5bc015-0a98-4a0d-a50f-f7181e1d6abe"},"vehicle_type_id":"4","last_reported":1744618442,"current_range_meters":6000,"station_id":"","pricing_plan_id":"cebpf4jnsgd1na2vs0mg"},{"bike_id":"2fc95e6a-2708-462b-b6bb-8734eb69a062","system_id":"levelo_inurba_marseille","lat":43.32358,"lon":5.36776,"is_reserved":false,"is_disabled":false,"rental_uris":{"android":"levelo://app?vid=2fc95e6a-2708-462b-b6bb-8734eb69a062","ios":"levelo://app?vid=2fc95e6a-2708-462b-b6bb-8734eb69a062"},"vehicle_type_id":"4","last_reported":1744618442,"current_range_meters":6000,"station_id":"ce4bhsh2rcd13ifvqi2g","pricing_plan_id":"cebpf4jnsgd1na2vs0mg"},{"bike_id":"97c5290c-6dcd-4f81-953a-f5953018fa5b","system_id":"levelo_inurba_marseille","lat":43.31059,"lon":5.37523,"is_reserved":false,"is_disabled":false,"rental_uris":{"android":"levelo://app?vid=97c5290c-6dcd-4f81-953a-f5953018fa5b","ios":"levelo://app?vid=97c5290c-6dcd-4f81-953a-f5953018fa5b"},"vehicle_type_id":"4","last_reported":1744618442,"current_range_meters":6000,"station_id":"","pricing_plan_id":"cebpf4jnsgd1na2vs0mg"},{"bike_id":"e51531f0-d765-486e-9e82-fe795f1dc76a","system_id":"levelo_inurba_marseille","lat":43.29614,"lon":5.3774,"is_reserved":false,"is_disabled":false,"rental_uris":{"android":"levelo://app?vid=e51531f0-d765-486e-9e82-fe795f1dc76a","ios":"levelo://app?vid=e51531f0-d765-486e-9e82-fe795f1dc76a"},"vehicle_type_id":"4","last_reported":1744618442,"current_range_meters":6000,"station_id":"ce4bgi92rcd13ifvqb90","pricing_plan_id":"cebpf4jnsgd1na2vs0mg"},{"bike_id":"cf675099-ac1b-4818-b622-5e6e28428c4a","system_id":"levelo_inurba_marseille","lat":43.2293,"lon":5.35382,"is_reserved":false,"is_disabled":false,"rental_uris":{"android":"levelo://app?vid=cf675099-ac1b-4818-b622-5e6e28428c4a","ios":"levelo://app?vid=cf675099-ac1b-4818-b622-5e6e28428c4a"},"vehicle_type_id":"4","last_reported":1744618442,"current_range_meters":6400,"station_id":"cpo3532slgdg3j2ikp40","pricing_plan_id":"cebpf4jnsgd1na2vs0mg"},{"bike_id":"ef564fce-f810-43da-835b-5c91ef239291","system_id":"levelo_inurba_marseille","lat":43.336,"lon":5.41036,"is_reserved":false,"is_disabled":false,"rental_uris":{"android":"levelo://app?vid=ef564fce-f810-43da-835b-5c91ef239291","ios":"levelo://app?vid=ef564fce-f810-43da-835b-5c91ef239291"},"vehicle_type_id":"4","last_reported":1744618442,"current_range_meters":6400,"station_id":"ce4bhqh2rcd13ifvqhmg","pricing_plan_id":"cebpf4jnsgd1na2vs0mg"},{"bike_id":"4f38e127-be9f-468e-8871-e9cd4f365dca","system_id":"levelo_inurba_marseille","lat":43.24685,"lon":5.4117,"is_reserved":false,"is_disabled":false,"rental_uris":{"android":"levelo://app?vid=4f38e127-be9f-468e-8871-e9cd4f365dca","ios":"levelo://app?vid=4f38e127-be9f-468e-8871-e9cd4f365dca"},"vehicle_type_id":"4","last_reported":1744618442,"current_range_meters":6400,"station_id":"","pricing_plan_id":"cebpf4jnsgd1na2vs0mg"},{"bike_id":"dab7f9b6-bca9-473a-ae7b-5cf9dcdb45f2","system_id":"levelo_inurba_marseille","lat":43.24786,"lon":5.3746,"is_reserved":false,"is_disabled":false,"rental_uris":{"android":"levelo://app?vid=dab7f9b6-bca9-473a-ae7b-5cf9dcdb45f2","ios":"levelo://app?vid=dab7f9b6-bca9-473a-ae7b-5cf9dcdb45f2"},"vehicle_type_id":"4","last_reported":1744618442,"current_range_meters":6400,"station_id":"ce4bhgh2rcd13ifvqfb0","pricing_plan_id":"cebpf4jnsgd1na2vs0mg"},{"bike_id":"3d16c2e3-7c12-4342-883a-029e0fc16b05","system_id":"levelo_inurba_marseille","lat":43.310273,"lon":5.37115,"is_reserved":false,"is_disabled":false,"rental_uris":{"android":"levelo://app?vid=3d16c2e3-7c12-4342-883a-029e0fc16b05","ios":"levelo://app?vid=3d16c2e3-7c12-4342-883a-029e0fc16b05"},"vehicle_type_id":"4","last_reported":1744618442,"current_range_meters":6400,"station_id":"","pricing_plan_id":"cebpf4jnsgd1na2vs0mg"},{"bike_id":"495a49b4-a6eb-4382-b6c1-01893dcef8bc","system_id":"levelo_inurba_marseille","lat":43.24663,"lon":5.38165,"is_reserved":false,"is_disabled":false,"rental_uris":{"android":"levelo://app?vid=495a49b4-a6eb-4382-b6c1-01893dcef8bc","ios":"levelo://app?vid=495a49b4-a6eb-4382-b6c1-01893dcef8bc"},"vehicle_type_id":"4","last_reported":1744618442,"current_range_meters":6400,"station_id":"ce4bhih2rcd13ifvqfr0","pricing_plan_id":"cebpf4jnsgd1na2vs0mg"},{"bike_id":"f7843f46-58aa-4cf6-a1d0-1b94b16f71c2","system_id":"levelo_inurba_marseille","lat":43.29866,"lon":5.39669,"is_reserved":false,"is_disabled":false,"rental_uris":{"android":"levelo://app?vid=f7843f46-58aa-4cf6-a1d0-1b94b16f71c2","ios":"levelo://app?vid=f7843f46-58aa-4cf6-a1d0-1b94b16f71c2"},"vehicle_type_id":"4","last_reported":1744618442,"current_range_meters":6800,"station_id":"ce4bh0h2rcd13ifvqd50","pricing_plan_id":"cebpf4jnsgd1na2vs0mg"},{"bike_id":"e654e523-849c-4f04-8e39-f201a550baf0","system_id":"levelo_inurba_marseille","lat":43.295435,"lon":5.422806,"is_reserved":false,"is_disabled":false,"rental_uris":{"android":"levelo://app?vid=e654e523-849c-4f04-8e39-f201a550baf0","ios":"levelo://app?vid=e654e523-849c-4f04-8e39-f201a550baf0"},"vehicle_type_id":"4","last_reported":1744618442,"current_range_meters":6800,"station_id":"ce4bhph2rcd13ifvqhdg","pricing_plan_id":"cebpf4jnsgd1na2vs0mg"},{"bike_id":"6ec87a0b-7836-4296-b386-77e8347042d3","system_id":"levelo_inurba_marseille","lat":43.2912,"lon":5.39997,"is_reserved":false,"is_disabled":false,"rental_uris":{"android":"levelo://app?vid=6ec87a0b-7836-4296-b386-77e8347042d3","ios":"levelo://app?vid=6ec87a0b-7836-4296-b386-77e8347042d3"},"vehicle_type_id":"4","last_reported":1744618442,"current_range_meters":6800,"station_id":"","pricing_plan_id":"cebpf4jnsgd1na2vs0mg"},{"bike_id":"76450c2c-888f-4d08-a5c0-d825237615aa","system_id":"levelo_inurba_marseille","lat":43.27239,"lon":5.42321,"is_reserved":false,"is_disabled":false,"rental_uris":{"android":"levelo://app?vid=76450c2c-888f-4d08-a5c0-d825237615aa","ios":"levelo://app?vid=76450c2c-888f-4d08-a5c0-d825237615aa"},"vehicle_type_id":"4","last_reported":1744618442,"current_range_meters":7200,"station_id":"","pricing_plan_id":"cebpf4jnsgd1na2vs0mg"},{"bike_id":"8e42ae9b-89fe-4000-a0e0-9134414536a5","system_id":"levelo_inurba_marseille","lat":43.28461,"lon":5.38417,"is_reserved":false,"is_disabled":false,"rental_uris":{"android":"levelo://app?vid=8e42ae9b-89fe-4000-a0e0-9134414536a5","ios":"levelo://app?vid=8e42ae9b-89fe-4000-a0e0-9134414536a5"},"vehicle_type_id":"4","last_reported":1744618442,"current_range_meters":7200,"station_id":"ce4bh512rcd13ifvqe3g","pricing_plan_id":"cebpf4jnsgd1na2vs0mg"},{"bike_id":"91fffdcd-2fa7-4f34-b242-95e7e93ac05b","system_id":"levelo_inurba_marseille","lat":43.26334,"lon":5.3976,"is_reserved":false,"is_disabled":true,"rental_uris":{"android":"levelo://app?vid=91fffdcd-2fa7-4f34-b242-95e7e93ac05b","ios":"levelo://app?vid=91fffdcd-2fa7-4f34-b242-95e7e93ac05b"},"vehicle_type_id":"4","last_reported":1744618442,"current_range_meters":7200,"station_id":"","pricing_plan_id":"cebpf4jnsgd1na2vs0mg"},{"bike_id":"c127d1a8-0150-4856-a57b-18fd29314b2c","system_id":"levelo_inurba_marseille","lat":43.32471,"lon":5.36577,"is_reserved":false,"is_disabled":false,"rental_uris":{"android":"levelo://app?vid=c127d1a8-0150-4856-a57b-18fd29314b2c","ios":"levelo://app?vid=c127d1a8-0150-4856-a57b-18fd29314b2c"},"vehicle_type_id":"4","last_reported":1744618442,"current_range_meters":7200,"station_id":"ce4bhs12rcd13ifvqhvg","pricing_plan_id":"cebpf4jnsgd1na2vs0mg"},{"bike_id":"525d972b-6aa7-4562-af1d-4484491521b7","system_id":"levelo_inurba_marseille","lat":43.295735,"lon":5.375243,"is_reserved":false,"is_disabled":true,"rental_uris":{"android":"levelo://app?vid=525d972b-6aa7-4562-af1d-4484491521b7","ios":"levelo://app?vid=525d972b-6aa7-4562-af1d-4484491521b7"},"vehicle_type_id":"4","last_reported":1744618442,"current_range_meters":7200,"station_id":"ce4bh512rcd13ifvqe3g","pricing_plan_id":"cebpf4jnsgd1na2vs0mg"},{"bike_id":"4d49d7bf-c387-4802-8134-39419f66ab07","system_id":"levelo_inurba_marseille","lat":43.25101,"lon":5.39505,"is_reserved":false,"is_disabled":false,"rental_uris":{"android":"levelo://app?vid=4d49d7bf-c387-4802-8134-39419f66ab07","ios":"levelo://app?vid=4d49d7bf-c387-4802-8134-39419f66ab07"},"vehicle_type_id":"4","last_reported":1744618442,"current_range_meters":7200,"station_id":"ce4bhm12rcd13ifvqgkg","pricing_plan_id":"cebpf4jnsgd1na2vs0mg"},{"bike_id":"f7cd819f-b752-47cc-848d-ff43c669ccb8","system_id":"levelo_inurba_marseille","lat":43.30972,"lon":5.41731,"is_reserved":false,"is_disabled":false,"rental_uris":{"android":"levelo://app?vid=f7cd819f-b752-47cc-848d-ff43c669ccb8","ios":"levelo://app?vid=f7cd819f-b752-47cc-848d-ff43c669ccb8"},"vehicle_type_id":"4","last_reported":1744618442,"current_range_meters":8000,"station_id":"","pricing_plan_id":"cebpf4jnsgd1na2vs0mg"},{"bike_id":"8d77eca9-482b-49f8-a493-6136dd158a1e","system_id":"levelo_inurba_marseille","lat":43.28226,"lon":5.43002,"is_reserved":false,"is_disabled":false,"rental_uris":{"android":"levelo://app?vid=8d77eca9-482b-49f8-a493-6136dd158a1e","ios":"levelo://app?vid=8d77eca9-482b-49f8-a493-6136dd158a1e"},"vehicle_type_id":"4","last_reported":1744618442,"current_range_meters":8000,"station_id":"","pricing_plan_id":"cebpf4jnsgd1na2vs0mg"},{"bike_id":"9bdbd06a-f1ec-46aa-b1a5-895338323cbf","system_id":"levelo_inurba_marseille","lat":43.23156,"lon":5.43709,"is_reserved":false,"is_disabled":false,"rental_uris":{"android":"levelo://app?vid=9bdbd06a-f1ec-46aa-b1a5-895338323cbf","ios":"levelo://app?vid=9bdbd06a-f1ec-46aa-b1a5-895338323cbf"},"vehicle_type_id":"4","last_reported":1744618442,"current_range_meters":8000,"station_id":"ce4bhmp2rcd13ifvqgog","pricing_plan_id":"cebpf4jnsgd1na2vs0mg"},{"bike_id":"3f9d5791-061e-4e4b-845c-73d0f5235b7d","system_id":"levelo_inurba_marseille","lat":43.22935,"lon":5.35373,"is_reserved":false,"is_disabled":false,"rental_uris":{"android":"levelo://app?vid=3f9d5791-061e-4e4b-845c-73d0f5235b7d","ios":"levelo://app?vid=3f9d5791-061e-4e4b-845c-73d0f5235b7d"},"vehicle_type_id":"4","last_reported":1744618442,"current_range_meters":8000,"station_id":"cpo3532slgdg3j2ikp40","pricing_plan_id":"cebpf4jnsgd1na2vs0mg"},{"bike_id":"efd328ca-f8bf-4550-bd94-c2fd75978f3c","system_id":"levelo_inurba_marseille","lat":43.33076,"lon":5.38072,"is_reserved":false,"is_disabled":false,"rental_uris":{"android":"levelo://app?vid=efd328ca-f8bf-4550-bd94-c2fd75978f3c","ios":"levelo://app?vid=efd328ca-f8bf-4550-bd94-c2fd75978f3c"},"vehicle_type_id":"4","last_reported":1744618442,"current_range_meters":8000,"station_id":"","pricing_plan_id":"cebpf4jnsgd1na2vs0mg"},{"bike_id":"4bbe6e48-9bfa-4dec-aab0-5597477f7da1","system_id":"levelo_inurba_marseille","lat":43.32412,"lon":5.39141,"is_reserved":false,"is_disabled":true,"rental_uris":{"android":"levelo://app?vid=4bbe6e48-9bfa-4dec-aab0-5597477f7da1","ios":"levelo://app?vid=4bbe6e48-9bfa-4dec-aab0-5597477f7da1"},"vehicle_type_id":"4","last_reported":1744618442,"current_range_meters":8000,"station_id":"","pricing_plan_id":"cebpf4jnsgd1na2vs0mg"},{"bike_id":"e3033e51-0403-4e5c-9649-cc323385bf93","system_id":"levelo_inurba_marseille","lat":43.27489,"lon":5.42465,"is_reserved":false,"is_disabled":false,"rental_uris":{"android":"levelo://app?vid=e3033e51-0403-4e5c-9649-cc323385bf93","ios":"levelo://app?vid=e3033e51-0403-4e5c-9649-cc323385bf93"},"vehicle_type_id":"4","last_reported":1744618442,"current_range_meters":8400,"station_id":"ce4bhn92rcd13ifvqgrg","pricing_plan_id":"cebpf4jnsgd1na2vs0mg"},{"bike_id":"b55dd5e7-54b2-4035-b945-7b626dd7afc7","system_id":"levelo_inurba_marseille","lat":43.27554,"lon":5.409,"is_reserved":false,"is_disabled":false,"rental_uris":{"android":"levelo://app?vid=b55dd5e7-54b2-4035-b945-7b626dd7afc7","ios":"levelo://app?vid=b55dd5e7-54b2-4035-b945-7b626dd7afc7"},"vehicle_type_id":"4","last_reported":1744618442,"current_range_meters":8400,"station_id":"","pricing_plan_id":"cebpf4jnsgd1na2vs0mg"},{"bike_id":"982bb1bc-457f-43d7-ae21-85035c856353","system_id":"levelo_inurba_marseille","lat":43.22504,"lon":5.348,"is_reserved":false,"is_disabled":true,"rental_uris":{"android":"levelo://app?vid=982bb1bc-457f-43d7-ae21-85035c856353","ios":"levelo://app?vid=982bb1bc-457f-43d7-ae21-85035c856353"},"vehicle_type_id":"4","last_reported":1744618442,"current_range_meters":8400,"station_id":"st_cvj5dfep6f1abm77gieg","pricing_plan_id":"cebpf4jnsgd1na2vs0mg"},{"bike_id":"458725bc-46e9-4766-aa8b-f13cfc93ab12","system_id":"levelo_inurba_marseille","lat":43.32009,"lon":5.38101,"is_reserved":false,"is_disabled":false,"rental_uris":{"android":"levelo://app?vid=458725bc-46e9-4766-aa8b-f13cfc93ab12","ios":"levelo://app?vid=458725bc-46e9-4766-aa8b-f13cfc93ab12"},"vehicle_type_id":"4","last_reported":1744618442,"current_range_meters":8400,"station_id":"","pricing_plan_id":"cebpf4jnsgd1na2vs0mg"},{"bike_id":"a3bf51d9-08b7-458c-9b6d-ef5680cc95d6","system_id":"levelo_inurba_marseille","lat":43.21759,"lon":5.34603,"is_reserved":false,"is_disabled":true,"rental_uris":{"android":"levelo://app?vid=a3bf51d9-08b7-458c-9b6d-ef5680cc95d6","ios":"levelo://app?vid=a3bf51d9-08b7-458c-9b6d-ef5680cc95d6"},"vehicle_type_id":"4","last_reported":1744618442,"current_range_meters":8400,"station_id":"st_cvj6r9ubvosntc0bgbag","pricing_plan_id":"cebpf4jnsgd1na2vs0mg"},{"bike_id":"a4edd789-6e0d-47b3-bb86-1eba867c43c2","system_id":"levelo_inurba_marseille","lat":43.30142,"lon":5.37417,"is_reserved":false,"is_disabled":false,"rental_uris":{"android":"levelo://app?vid=a4edd789-6e0d-47b3-bb86-1eba867c43c2","ios":"levelo://app?vid=a4edd789-6e0d-47b3-bb86-1eba867c43c2"},"vehicle_type_id":"4","last_reported":1744618442,"current_range_meters":8400,"station_id":"ce4bgs92rcd13ifvqcc0","pricing_plan_id":"cebpf4jnsgd1na2vs0mg"},{"bike_id":"7f6c4363-715d-4f42-b9a9-3392906a5fa6","system_id":"levelo_inurba_marseille","lat":43.24645,"lon":5.38198,"is_reserved":false,"is_disabled":false,"rental_uris":{"android":"levelo://app?vid=7f6c4363-715d-4f42-b9a9-3392906a5fa6","ios":"levelo://app?vid=7f6c4363-715d-4f42-b9a9-3392906a5fa6"},"vehicle_type_id":"4","last_reported":1744618442,"current_range_meters":8800,"station_id":"ce4bhih2rcd13ifvqfr0","pricing_plan_id":"cebpf4jnsgd1na2vs0mg"},{"bike_id":"afdb4e81-ebb0-480a-a396-90a18d816128","system_id":"levelo_inurba_marseille","lat":43.29265,"lon":5.38434,"is_reserved":false,"is_disabled":false,"rental_uris":{"android":"levelo://app?vid=afdb4e81-ebb0-480a-a396-90a18d816128","ios":"levelo://app?vid=afdb4e81-ebb0-480a-a396-90a18d816128"},"vehicle_type_id":"4","last_reported":1744618442,"current_range_meters":8800,"station_id":"ce4bh692rcd13ifvqea0","pricing_plan_id":"cebpf4jnsgd1na2vs0mg"},{"bike_id":"5bd83869-317c-4f7d-93ed-182a084c5a24","system_id":"levelo_inurba_marseille","lat":43.25744,"lon":5.4109,"is_reserved":false,"is_disabled":false,"rental_uris":{"android":"levelo://app?vid=5bd83869-317c-4f7d-93ed-182a084c5a24","ios":"levelo://app?vid=5bd83869-317c-4f7d-93ed-182a084c5a24"},"vehicle_type_id":"4","last_reported":1744618442,"current_range_meters":8800,"station_id":"ce4bhkp2rcd13ifvqgd0","pricing_plan_id":"cebpf4jnsgd1na2vs0mg"},{"bike_id":"966792f1-5ae4-4c1d-8d87-ec3d58124956","system_id":"levelo_inurba_marseille","lat":43.25582,"lon":5.38222,"is_reserved":false,"is_disabled":false,"rental_uris":{"android":"levelo://app?vid=966792f1-5ae4-4c1d-8d87-ec3d58124956","ios":"levelo://app?vid=966792f1-5ae4-4c1d-8d87-ec3d58124956"},"vehicle_type_id":"4","last_reported":1744618442,"current_range_meters":8800,"station_id":"ce4bhih2rcd13ifvqfs0","pricing_plan_id":"cebpf4jnsgd1na2vs0mg"},{"bike_id":"189bc3aa-c23a-4e02-a51e-2e6020d77594","system_id":"levelo_inurba_marseille","lat":43.23142,"lon":5.43724,"is_reserved":false,"is_disabled":false,"rental_uris":{"android":"levelo://app?vid=189bc3aa-c23a-4e02-a51e-2e6020d77594","ios":"levelo://app?vid=189bc3aa-c23a-4e02-a51e-2e6020d77594"},"vehicle_type_id":"4","last_reported":1744618442,"current_range_meters":8800,"station_id":"ce4bhmp2rcd13ifvqgog","pricing_plan_id":"cebpf4jnsgd1na2vs0mg"},{"bike_id":"bcfb77a0-d0a8-4638-9c04-1e9349e968ce","system_id":"levelo_inurba_marseille","lat":43.31327,"lon":5.39693,"is_reserved":false,"is_disabled":false,"rental_uris":{"android":"levelo://app?vid=bcfb77a0-d0a8-4638-9c04-1e9349e968ce","ios":"levelo://app?vid=bcfb77a0-d0a8-4638-9c04-1e9349e968ce"},"vehicle_type_id":"4","last_reported":1744618442,"current_range_meters":8800,"station_id":"ce4bgvp2rcd13ifvqcu0","pricing_plan_id":"cebpf4jnsgd1na2vs0mg"},{"bike_id":"449480e3-6c26-48de-90c0-ab6234028670","system_id":"levelo_inurba_marseille","lat":43.2991,"lon":5.37471,"is_reserved":false,"is_disabled":true,"rental_uris":{"android":"levelo://app?vid=449480e3-6c26-48de-90c0-ab6234028670","ios":"levelo://app?vid=449480e3-6c26-48de-90c0-ab6234028670"},"vehicle_type_id":"4","last_reported":1744618442,"current_range_meters":8800,"station_id":"ce4bgjh2rcd13ifvqbg0","pricing_plan_id":"cebpf4jnsgd1na2vs0mg"},{"bike_id":"9ea8b471-1d8e-41f7-9aa5-026979485be6","system_id":"levelo_inurba_marseille","lat":43.26197,"lon":5.37929,"is_reserved":false,"is_disabled":false,"rental_uris":{"android":"levelo://app?vid=9ea8b471-1d8e-41f7-9aa5-026979485be6","ios":"levelo://app?vid=9ea8b471-1d8e-41f7-9aa5-026979485be6"},"vehicle_type_id":"4","last_reported":1744618442,"current_range_meters":9200,"station_id":"ce4bhjp2rcd13ifvqg90","pricing_plan_id":"cebpf4jnsgd1na2vs0mg"},{"bike_id":"bac238c1-16ce-4496-8a56-a76b60a16357","system_id":"levelo_inurba_marseille","lat":43.28693,"lon":5.39983,"is_reserved":false,"is_disabled":false,"rental_uris":{"android":"levelo://app?vid=bac238c1-16ce-4496-8a56-a76b60a16357","ios":"levelo://app?vid=bac238c1-16ce-4496-8a56-a76b60a16357"},"vehicle_type_id":"4","last_reported":1744618442,"current_range_meters":9200,"station_id":"ce4bho92rcd13ifvqh3g","pricing_plan_id":"cebpf4jnsgd1na2vs0mg"},{"bike_id":"8dad6003-637c-464f-bcd0-a8c1537aea14","system_id":"levelo_inurba_marseille","lat":43.30542,"lon":5.36524,"is_reserved":false,"is_disabled":false,"rental_uris":{"android":"levelo://app?vid=8dad6003-637c-464f-bcd0-a8c1537aea14","ios":"levelo://app?vid=8dad6003-637c-464f-bcd0-a8c1537aea14"},"vehicle_type_id":"4","last_reported":1744618442,"current_range_meters":9200,"station_id":"ce4bgs12rcd13ifvqcag","pricing_plan_id":"cebpf4jnsgd1na2vs0mg"},{"bike_id":"72ebdd68-4727-45bd-ae87-df9c54928155","system_id":"levelo_inurba_marseille","lat":43.32572,"lon":5.41054,"is_reserved":false,"is_disabled":false,"rental_uris":{"android":"levelo://app?vid=72ebdd68-4727-45bd-ae87-df9c54928155","ios":"levelo://app?vid=72ebdd68-4727-45bd-ae87-df9c54928155"},"vehicle_type_id":"4","last_reported":1744618442,"current_range_meters":10000,"station_id":"","pricing_plan_id":"cebpf4jnsgd1na2vs0mg"},{"bike_id":"6a003e47-a1cc-4c38-b762-6e37af426d05","system_id":"levelo_inurba_marseille","lat":43.32364,"lon":5.36751,"is_reserved":false,"is_disabled":false,"rental_uris":{"android":"levelo://app?vid=6a003e47-a1cc-4c38-b762-6e37af426d05","ios":"levelo://app?vid=6a003e47-a1cc-4c38-b762-6e37af426d05"},"vehicle_type_id":"4","last_reported":1744618442,"current_range_meters":10000,"station_id":"ce4bhsh2rcd13ifvqi2g","pricing_plan_id":"cebpf4jnsgd1na2vs0mg"},{"bike_id":"0d6889fd-fc28-4905-ae73-dde45f2ce921","system_id":"levelo_inurba_marseille","lat":43.2467,"lon":5.38163,"is_reserved":false,"is_disabled":false,"rental_uris":{"android":"levelo://app?vid=0d6889fd-fc28-4905-ae73-dde45f2ce921","ios":"levelo://app?vid=0d6889fd-fc28-4905-ae73-dde45f2ce921"},"vehicle_type_id":"4","last_reported":1744618442,"current_range_meters":10000,"station_id":"ce4bhih2rcd13ifvqfr0","pricing_plan_id":"cebpf4jnsgd1na2vs0mg"},{"bike_id":"6707f46e-ada6-4537-9c75-362f9a324015","system_id":"levelo_inurba_marseille","lat":43.2846,"lon":5.38415,"is_reserved":false,"is_disabled":false,"rental_uris":{"android":"levelo://app?vid=6707f46e-ada6-4537-9c75-362f9a324015","ios":"levelo://app?vid=6707f46e-ada6-4537-9c75-362f9a324015"},"vehicle_type_id":"4","last_reported":1744618442,"current_range_meters":10000,"station_id":"ce4bh512rcd13ifvqe3g","pricing_plan_id":"cebpf4jnsgd1na2vs0mg"},{"bike_id":"5cacdac6-936a-44c6-9e06-3d5924e24ab3","system_id":"levelo_inurba_marseille","lat":43.28423,"lon":5.34972,"is_reserved":false,"is_disabled":true,"rental_uris":{"android":"levelo://app?vid=5cacdac6-936a-44c6-9e06-3d5924e24ab3","ios":"levelo://app?vid=5cacdac6-936a-44c6-9e06-3d5924e24ab3"},"vehicle_type_id":"4","last_reported":1744618442,"current_range_meters":10800,"station_id":"ce4bhbh2rcd13ifvqepg","pricing_plan_id":"cebpf4jnsgd1na2vs0mg"},{"bike_id":"e617923d-5e38-4ab5-9f0a-d006b9dcc88d","system_id":"levelo_inurba_marseille","lat":43.295258,"lon":5.385424,"is_reserved":false,"is_disabled":true,"rental_uris":{"android":"levelo://app?vid=e617923d-5e38-4ab5-9f0a-d006b9dcc88d","ios":"levelo://app?vid=e617923d-5e38-4ab5-9f0a-d006b9dcc88d"},"vehicle_type_id":"4","last_reported":1744618442,"current_range_meters":10800,"station_id":"ce4bgih2rcd13ifvqba0","pricing_plan_id":"cebpf4jnsgd1na2vs0mg"},{"bike_id":"65f98b52-627f-4221-921f-c1d48e4da20d","system_id":"levelo_inurba_marseille","lat":43.21746,"lon":5.34606,"is_reserved":false,"is_disabled":true,"rental_uris":{"android":"levelo://app?vid=65f98b52-627f-4221-921f-c1d48e4da20d","ios":"levelo://app?vid=65f98b52-627f-4221-921f-c1d48e4da20d"},"vehicle_type_id":"4","last_reported":1744618442,"current_range_meters":10800,"station_id":"st_cvj6r9ubvosntc0bgbag","pricing_plan_id":"cebpf4jnsgd1na2vs0mg"},{"bike_id":"a1e00a2e-a2d9-4194-8aa7-b957fd4fc135","system_id":"levelo_inurba_marseille","lat":43.25716,"lon":5.41108,"is_reserved":false,"is_disabled":false,"rental_uris":{"android":"levelo://app?vid=a1e00a2e-a2d9-4194-8aa7-b957fd4fc135","ios":"levelo://app?vid=a1e00a2e-a2d9-4194-8aa7-b957fd4fc135"},"vehicle_type_id":"4","last_reported":1744618442,"current_range_meters":10800,"station_id":"ce4bhkp2rcd13ifvqgd0","pricing_plan_id":"cebpf4jnsgd1na2vs0mg"},{"bike_id":"e6be24a9-462c-4d93-b7b5-635bacae826f","system_id":"levelo_inurba_marseille","lat":43.29898,"lon":5.4035,"is_reserved":false,"is_disabled":false,"rental_uris":{"android":"levelo://app?vid=e6be24a9-462c-4d93-b7b5-635bacae826f","ios":"levelo://app?vid=e6be24a9-462c-4d93-b7b5-635bacae826f"},"vehicle_type_id":"4","last_reported":1744618442,"current_range_meters":10800,"station_id":"","pricing_plan_id":"cebpf4jnsgd1na2vs0mg"},{"bike_id":"d0778df6-e161-461c-9fd3-8da623a02789","system_id":"levelo_inurba_marseille","lat":43.27903,"lon":5.39584,"is_reserved":false,"is_disabled":false,"rental_uris":{"android":"levelo://app?vid=d0778df6-e161-461c-9fd3-8da623a02789","ios":"levelo://app?vid=d0778df6-e161-461c-9fd3-8da623a02789"},"vehicle_type_id":"4","last_reported":1744618442,"current_range_meters":11200,"station_id":"ce4bhf92rcd13ifvqf40","pricing_plan_id":"cebpf4jnsgd1na2vs0mg"},{"bike_id":"ece71115-0f99-4b98-8cf0-dd86ae7901a5","system_id":"levelo_inurba_marseille","lat":43.23142,"lon":5.43734,"is_reserved":false,"is_disabled":false,"rental_uris":{"android":"levelo://app?vid=ece71115-0f99-4b98-8cf0-dd86ae7901a5","ios":"levelo://app?vid=ece71115-0f99-4b98-8cf0-dd86ae7901a5"},"vehicle_type_id":"4","last_reported":1744618442,"current_range_meters":11200,"station_id":"ce4bhmp2rcd13ifvqgog","pricing_plan_id":"cebpf4jnsgd1na2vs0mg"},{"bike_id":"419e8d97-922b-46e8-bd76-aba571bde055","system_id":"levelo_inurba_marseille","lat":43.28698,"lon":5.39982,"is_reserved":false,"is_disabled":false,"rental_uris":{"android":"levelo://app?vid=419e8d97-922b-46e8-bd76-aba571bde055","ios":"levelo://app?vid=419e8d97-922b-46e8-bd76-aba571bde055"},"vehicle_type_id":"4","last_reported":1744618442,"current_range_meters":11200,"station_id":"ce4bho92rcd13ifvqh3g","pricing_plan_id":"cebpf4jnsgd1na2vs0mg"},{"bike_id":"343cc64c-4a39-45e1-84bf-d73c3feac488","system_id":"levelo_inurba_marseille","lat":43.31494,"lon":5.37238,"is_reserved":false,"is_disabled":false,"rental_uris":{"android":"levelo://app?vid=343cc64c-4a39-45e1-84bf-d73c3feac488","ios":"levelo://app?vid=343cc64c-4a39-45e1-84bf-d73c3feac488"},"vehicle_type_id":"4","last_reported":1744618442,"current_range_meters":11200,"station_id":"ce4bgt12rcd13ifvqcd0","pricing_plan_id":"cebpf4jnsgd1na2vs0mg"},{"bike_id":"94fb3101-61df-4d0c-b9a1-59533bc5b3a7","system_id":"levelo_inurba_marseille","lat":43.26922,"lon":5.40268,"is_reserved":false,"is_disabled":true,"rental_uris":{"android":"levelo://app?vid=94fb3101-61df-4d0c-b9a1-59533bc5b3a7","ios":"levelo://app?vid=94fb3101-61df-4d0c-b9a1-59533bc5b3a7"},"vehicle_type_id":"4","last_reported":1744618442,"current_range_meters":11600,"station_id":"cjm6bp8fraef2m0cb0m0","pricing_plan_id":"cebpf4jnsgd1na2vs0mg"},{"bike_id":"ea4daacc-d1ef-47e2-9d0a-690fb7f50e2d","system_id":"levelo_inurba_marseille","lat":43.30089,"lon":5.39063,"is_reserved":false,"is_disabled":false,"rental_uris":{"android":"levelo://app?vid=ea4daacc-d1ef-47e2-9d0a-690fb7f50e2d","ios":"levelo://app?vid=ea4daacc-d1ef-47e2-9d0a-690fb7f50e2d"},"vehicle_type_id":"4","last_reported":1744618442,"current_range_meters":11600,"station_id":"ce4bh192rcd13ifvqdb0","pricing_plan_id":"cebpf4jnsgd1na2vs0mg"},{"bike_id":"d27bbdd2-b636-4dbf-bc56-a08785ce183e","system_id":"levelo_inurba_marseille","lat":43.29497,"lon":5.3902,"is_reserved":false,"is_disabled":false,"rental_uris":{"android":"levelo://app?vid=d27bbdd2-b636-4dbf-bc56-a08785ce183e","ios":"levelo://app?vid=d27bbdd2-b636-4dbf-bc56-a08785ce183e"},"vehicle_type_id":"4","last_reported":1744618442,"current_range_meters":12000,"station_id":"ce4bh3p2rcd13ifvqdp0","pricing_plan_id":"cebpf4jnsgd1na2vs0mg"},{"bike_id":"52467ef2-bb23-4d5a-aebd-2782338dc161","system_id":"levelo_inurba_marseille","lat":43.21193,"lon":5.35071,"is_reserved":false,"is_disabled":false,"rental_uris":{"android":"levelo://app?vid=52467ef2-bb23-4d5a-aebd-2782338dc161","ios":"levelo://app?vid=52467ef2-bb23-4d5a-aebd-2782338dc161"},"vehicle_type_id":"4","last_reported":1744618442,"current_range_meters":12000,"station_id":"","pricing_plan_id":"cebpf4jnsgd1na2vs0mg"},{"bike_id":"94ebb454-9dc3-4e5a-a1c0-ae0c608bc7ee","system_id":"levelo_inurba_marseille","lat":43.27984,"lon":5.41658,"is_reserved":false,"is_disabled":false,"rental_uris":{"android":"levelo://app?vid=94ebb454-9dc3-4e5a-a1c0-ae0c608bc7ee","ios":"levelo://app?vid=94ebb454-9dc3-4e5a-a1c0-ae0c608bc7ee"},"vehicle_type_id":"4","last_reported":1744618442,"current_range_meters":12400,"station_id":"ce4bho12rcd13ifvqh1g","pricing_plan_id":"cebpf4jnsgd1na2vs0mg"},{"bike_id":"6e6a5a9f-ba5f-441b-845d-f114b6a79187","system_id":"levelo_inurba_marseille","lat":43.25581,"lon":5.38224,"is_reserved":false,"is_disabled":false,"rental_uris":{"android":"levelo://app?vid=6e6a5a9f-ba5f-441b-845d-f114b6a79187","ios":"levelo://app?vid=6e6a5a9f-ba5f-441b-845d-f114b6a79187"},"vehicle_type_id":"4","last_reported":1744618442,"current_range_meters":12000,"station_id":"ce4bhih2rcd13ifvqfs0","pricing_plan_id":"cebpf4jnsgd1na2vs0mg"},{"bike_id":"8cf66cca-744c-4d15-b770-6103df2f0620","system_id":"levelo_inurba_marseille","lat":43.29216,"lon":5.3608,"is_reserved":false,"is_disabled":false,"rental_uris":{"android":"levelo://app?vid=8cf66cca-744c-4d15-b770-6103df2f0620","ios":"levelo://app?vid=8cf66cca-744c-4d15-b770-6103df2f0620"},"vehicle_type_id":"4","last_reported":1744618442,"current_range_meters":12400,"station_id":"ce4bhbh2rcd13ifvqeqg","pricing_plan_id":"cebpf4jnsgd1na2vs0mg"},{"bike_id":"72795014-e60d-4831-88a1-e24f7bb1743d","system_id":"levelo_inurba_marseille","lat":43.32389,"lon":5.38997,"is_reserved":false,"is_disabled":true,"rental_uris":{"android":"levelo://app?vid=72795014-e60d-4831-88a1-e24f7bb1743d","ios":"levelo://app?vid=72795014-e60d-4831-88a1-e24f7bb1743d"},"vehicle_type_id":"4","last_reported":1744618442,"current_range_meters":12400,"station_id":"","pricing_plan_id":"cebpf4jnsgd1na2vs0mg"},{"bike_id":"2551df23-46eb-4dc9-b328-33c9a95ff7ca","system_id":"levelo_inurba_marseille","lat":43.29225,"lon":5.36035,"is_reserved":false,"is_disabled":true,"rental_uris":{"android":"levelo://app?vid=2551df23-46eb-4dc9-b328-33c9a95ff7ca","ios":"levelo://app?vid=2551df23-46eb-4dc9-b328-33c9a95ff7ca"},"vehicle_type_id":"4","last_reported":1744618442,"current_range_meters":12400,"station_id":"ce4bhbh2rcd13ifvqeqg","pricing_plan_id":"cebpf4jnsgd1na2vs0mg"},{"bike_id":"935a7e55-4cea-4394-8ed2-15f7e1ee706c","system_id":"levelo_inurba_marseille","lat":43.27246,"lon":5.43144,"is_reserved":false,"is_disabled":false,"rental_uris":{"android":"levelo://app?vid=935a7e55-4cea-4394-8ed2-15f7e1ee706c","ios":"levelo://app?vid=935a7e55-4cea-4394-8ed2-15f7e1ee706c"},"vehicle_type_id":"4","last_reported":1744618442,"current_range_meters":13600,"station_id":"","pricing_plan_id":"cebpf4jnsgd1na2vs0mg"},{"bike_id":"fcbb624a-c010-4c44-b81d-5ff6cd9ab02e","system_id":"levelo_inurba_marseille","lat":43.2937,"lon":5.37837,"is_reserved":false,"is_disabled":false,"rental_uris":{"android":"levelo://app?vid=fcbb624a-c010-4c44-b81d-5ff6cd9ab02e","ios":"levelo://app?vid=fcbb624a-c010-4c44-b81d-5ff6cd9ab02e"},"vehicle_type_id":"4","last_reported":1744618442,"current_range_meters":13600,"station_id":"ce4bgjh2rcd13ifvqbf0","pricing_plan_id":"cebpf4jnsgd1na2vs0mg"},{"bike_id":"50f3a6ca-1b32-4e17-a21b-a50e16960e96","system_id":"levelo_inurba_marseille","lat":43.337766,"lon":5.374441,"is_reserved":false,"is_disabled":true,"rental_uris":{"android":"levelo://app?vid=50f3a6ca-1b32-4e17-a21b-a50e16960e96","ios":"levelo://app?vid=50f3a6ca-1b32-4e17-a21b-a50e16960e96"},"vehicle_type_id":"4","last_reported":1744618442,"current_range_meters":13600,"station_id":"","pricing_plan_id":"cebpf4jnsgd1na2vs0mg"},{"bike_id":"40075b29-f6e3-4cb1-9e69-a352d70ad70b","system_id":"levelo_inurba_marseille","lat":43.2594,"lon":5.40898,"is_reserved":false,"is_disabled":false,"rental_uris":{"android":"levelo://app?vid=40075b29-f6e3-4cb1-9e69-a352d70ad70b","ios":"levelo://app?vid=40075b29-f6e3-4cb1-9e69-a352d70ad70b"},"vehicle_type_id":"4","last_reported":1744618442,"current_range_meters":13600,"station_id":"ce4bhm92rcd13ifvqglg","pricing_plan_id":"cebpf4jnsgd1na2vs0mg"},{"bike_id":"91c625f1-2b5c-4aa8-9377-01e42c9b793a","system_id":"levelo_inurba_marseille","lat":43.25825,"lon":5.39433,"is_reserved":false,"is_disabled":false,"rental_uris":{"android":"levelo://app?vid=91c625f1-2b5c-4aa8-9377-01e42c9b793a","ios":"levelo://app?vid=91c625f1-2b5c-4aa8-9377-01e42c9b793a"},"vehicle_type_id":"4","last_reported":1744618442,"current_range_meters":14000,"station_id":"ce4bhip2rcd13ifvqft0","pricing_plan_id":"cebpf4jnsgd1na2vs0mg"},{"bike_id":"23bd1dde-95a0-4a51-9489-e994cf17c6f2","system_id":"levelo_inurba_marseille","lat":43.27293,"lon":5.39113,"is_reserved":false,"is_disabled":false,"rental_uris":{"android":"levelo://app?vid=23bd1dde-95a0-4a51-9489-e994cf17c6f2","ios":"levelo://app?vid=23bd1dde-95a0-4a51-9489-e994cf17c6f2"},"vehicle_type_id":"4","last_reported":1744618442,"current_range_meters":14000,"station_id":"ce4bhgp2rcd13ifvqfe0","pricing_plan_id":"cebpf4jnsgd1na2vs0mg"},{"bike_id":"86ac3ad7-4349-4b45-82d1-b61ad882a2f6","system_id":"levelo_inurba_marseille","lat":43.21752,"lon":5.34593,"is_reserved":false,"is_disabled":true,"rental_uris":{"android":"levelo://app?vid=86ac3ad7-4349-4b45-82d1-b61ad882a2f6","ios":"levelo://app?vid=86ac3ad7-4349-4b45-82d1-b61ad882a2f6"},"vehicle_type_id":"4","last_reported":1744618442,"current_range_meters":14000,"station_id":"st_cvj6r9ubvosntc0bgbag","pricing_plan_id":"cebpf4jnsgd1na2vs0mg"},{"bike_id":"230107f3-55a8-4abc-971b-d22f0f479438","system_id":"levelo_inurba_marseille","lat":43.23178,"lon":5.39985,"is_reserved":false,"is_disabled":false,"rental_uris":{"android":"levelo://app?vid=230107f3-55a8-4abc-971b-d22f0f479438","ios":"levelo://app?vid=230107f3-55a8-4abc-971b-d22f0f479438"},"vehicle_type_id":"4","last_reported":1744618442,"current_range_meters":14400,"station_id":"ce4bhn12rcd13ifvqgqg","pricing_plan_id":"cebpf4jnsgd1na2vs0mg"},{"bike_id":"d2f6a288-7d44-4be4-b798-932022d90e9d","system_id":"levelo_inurba_marseille","lat":43.30278,"lon":5.37708,"is_reserved":false,"is_disabled":false,"rental_uris":{"android":"levelo://app?vid=d2f6a288-7d44-4be4-b798-932022d90e9d","ios":"levelo://app?vid=d2f6a288-7d44-4be4-b798-932022d90e9d"},"vehicle_type_id":"4","last_reported":1744618442,"current_range_meters":14400,"station_id":"ce4bguh2rcd13ifvqcj0","pricing_plan_id":"cebpf4jnsgd1na2vs0mg"},{"bike_id":"2824982d-200e-44a1-a4f5-e56c9e409c44","system_id":"levelo_inurba_marseille","lat":43.33606,"lon":5.4103,"is_reserved":false,"is_disabled":false,"rental_uris":{"android":"levelo://app?vid=2824982d-200e-44a1-a4f5-e56c9e409c44","ios":"levelo://app?vid=2824982d-200e-44a1-a4f5-e56c9e409c44"},"vehicle_type_id":"4","last_reported":1744618442,"current_range_meters":14400,"station_id":"ce4bhqh2rcd13ifvqhmg","pricing_plan_id":"cebpf4jnsgd1na2vs0mg"},{"bike_id":"9533f4f3-a776-4d3c-b7ac-a4e86c8de079","system_id":"levelo_inurba_marseille","lat":43.28099,"lon":5.37851,"is_reserved":false,"is_disabled":false,"rental_uris":{"android":"levelo://app?vid=9533f4f3-a776-4d3c-b7ac-a4e86c8de079","ios":"levelo://app?vid=9533f4f3-a776-4d3c-b7ac-a4e86c8de079"},"vehicle_type_id":"4","last_reported":1744618442,"current_range_meters":14800,"station_id":"ce4bha12rcd13ifvqee0","pricing_plan_id":"cebpf4jnsgd1na2vs0mg"},{"bike_id":"b123c307-c6cf-4f3f-b113-9fc5fa23a56f","system_id":"levelo_inurba_marseille","lat":43.28698,"lon":5.39982,"is_reserved":false,"is_disabled":false,"rental_uris":{"android":"levelo://app?vid=b123c307-c6cf-4f3f-b113-9fc5fa23a56f","ios":"levelo://app?vid=b123c307-c6cf-4f3f-b113-9fc5fa23a56f"},"vehicle_type_id":"4","last_reported":1744618442,"current_range_meters":14800,"station_id":"ce4bho92rcd13ifvqh3g","pricing_plan_id":"cebpf4jnsgd1na2vs0mg"},{"bike_id":"9032fd9f-8258-4b06-828f-3216c8110290","system_id":"levelo_inurba_marseille","lat":43.30981,"lon":5.41735,"is_reserved":false,"is_disabled":true,"rental_uris":{"android":"levelo://app?vid=9032fd9f-8258-4b06-828f-3216c8110290","ios":"levelo://app?vid=9032fd9f-8258-4b06-828f-3216c8110290"},"vehicle_type_id":"4","last_reported":1744618442,"current_range_meters":14800,"station_id":"","pricing_plan_id":"cebpf4jnsgd1na2vs0mg"},{"bike_id":"f2b37c7f-1216-4e2e-9ef2-c99fb2bfc12e","system_id":"levelo_inurba_marseille","lat":43.301862,"lon":5.366363,"is_reserved":false,"is_disabled":false,"rental_uris":{"android":"levelo://app?vid=f2b37c7f-1216-4e2e-9ef2-c99fb2bfc12e","ios":"levelo://app?vid=f2b37c7f-1216-4e2e-9ef2-c99fb2bfc12e"},"vehicle_type_id":"4","last_reported":1744618442,"current_range_meters":14800,"station_id":"ce4bgs92rcd13ifvqcc0","pricing_plan_id":"cebpf4jnsgd1na2vs0mg"},{"bike_id":"3a953d45-bb3f-4ebe-92d4-eb03289fa90b","system_id":"levelo_inurba_marseille","lat":43.33608,"lon":5.41036,"is_reserved":false,"is_disabled":false,"rental_uris":{"android":"levelo://app?vid=3a953d45-bb3f-4ebe-92d4-eb03289fa90b","ios":"levelo://app?vid=3a953d45-bb3f-4ebe-92d4-eb03289fa90b"},"vehicle_type_id":"4","last_reported":1744618442,"current_range_meters":15200,"station_id":"ce4bhqh2rcd13ifvqhmg","pricing_plan_id":"cebpf4jnsgd1na2vs0mg"},{"bike_id":"fb13c941-1858-46a4-86ad-2a5e302996c3","system_id":"levelo_inurba_marseille","lat":43.25863,"lon":5.39913,"is_reserved":false,"is_disabled":true,"rental_uris":{"android":"levelo://app?vid=fb13c941-1858-46a4-86ad-2a5e302996c3","ios":"levelo://app?vid=fb13c941-1858-46a4-86ad-2a5e302996c3"},"vehicle_type_id":"4","last_reported":1744618442,"current_range_meters":15200,"station_id":"ce4bhl92rcd13ifvqghg","pricing_plan_id":"cebpf4jnsgd1na2vs0mg"},{"bike_id":"011b2f45-5872-4184-aed7-22d692c7e5ab","system_id":"levelo_inurba_marseille","lat":43.26681,"lon":5.38281,"is_reserved":false,"is_disabled":false,"rental_uris":{"android":"levelo://app?vid=011b2f45-5872-4184-aed7-22d692c7e5ab","ios":"levelo://app?vid=011b2f45-5872-4184-aed7-22d692c7e5ab"},"vehicle_type_id":"4","last_reported":1744618442,"current_range_meters":15200,"station_id":"ce4bhg92rcd13ifvqf90","pricing_plan_id":"cebpf4jnsgd1na2vs0mg"},{"bike_id":"8e84781a-82c3-4b14-a541-78f95f1999c0","system_id":"levelo_inurba_marseille","lat":43.27489,"lon":5.39409,"is_reserved":false,"is_disabled":true,"rental_uris":{"android":"levelo://app?vid=8e84781a-82c3-4b14-a541-78f95f1999c0","ios":"levelo://app?vid=8e84781a-82c3-4b14-a541-78f95f1999c0"},"vehicle_type_id":"4","last_reported":1744618442,"current_range_meters":16000,"station_id":"ce4bhdp2rcd13ifvqf20","pricing_plan_id":"cebpf4jnsgd1na2vs0mg"},{"bike_id":"5badbb30-e7bf-4735-8929-7b4b101f03b1","system_id":"levelo_inurba_marseille","lat":43.24168,"lon":5.36402,"is_reserved":false,"is_disabled":false,"rental_uris":{"android":"levelo://app?vid=5badbb30-e7bf-4735-8929-7b4b101f03b1","ios":"levelo://app?vid=5badbb30-e7bf-4735-8929-7b4b101f03b1"},"vehicle_type_id":"4","last_reported":1744618442,"current_range_meters":16000,"station_id":"cpo36qri1sfpv3e86is0","pricing_plan_id":"cebpf4jnsgd1na2vs0mg"},{"bike_id":"59c7d7f9-492d-4240-b3d4-e8d1015f1ebd","system_id":"levelo_inurba_marseille","lat":43.21728,"lon":5.34536,"is_reserved":false,"is_disabled":true,"rental_uris":{"android":"levelo://app?vid=59c7d7f9-492d-4240-b3d4-e8d1015f1ebd","ios":"levelo://app?vid=59c7d7f9-492d-4240-b3d4-e8d1015f1ebd"},"vehicle_type_id":"4","last_reported":1744618442,"current_range_meters":16000,"station_id":"st_cvj6r9ubvosntc0bgbag","pricing_plan_id":"cebpf4jnsgd1na2vs0mg"},{"bike_id":"216a8464-4ea5-4b56-8cd6-224becea39c4","system_id":"levelo_inurba_marseille","lat":43.27831,"lon":5.40716,"is_reserved":false,"is_disabled":false,"rental_uris":{"android":"levelo://app?vid=216a8464-4ea5-4b56-8cd6-224becea39c4","ios":"levelo://app?vid=216a8464-4ea5-4b56-8cd6-224becea39c4"},"vehicle_type_id":"4","last_reported":1744618442,"current_range_meters":16000,"station_id":"ce4bhnh2rcd13ifvqgtg","pricing_plan_id":"cebpf4jnsgd1na2vs0mg"},{"bike_id":"b3abad71-f87e-4ce2-8270-30b7ee523b45","system_id":"levelo_inurba_marseille","lat":43.27916,"lon":5.39572,"is_reserved":false,"is_disabled":false,"rental_uris":{"android":"levelo://app?vid=b3abad71-f87e-4ce2-8270-30b7ee523b45","ios":"levelo://app?vid=b3abad71-f87e-4ce2-8270-30b7ee523b45"},"vehicle_type_id":"4","last_reported":1744618442,"current_range_meters":16000,"station_id":"ce4bhf92rcd13ifvqf40","pricing_plan_id":"cebpf4jnsgd1na2vs0mg"},{"bike_id":"9943d934-278b-4495-a05f-a4f88d736bd5","system_id":"levelo_inurba_marseille","lat":43.3048,"lon":5.37901,"is_reserved":false,"is_disabled":false,"rental_uris":{"android":"levelo://app?vid=9943d934-278b-4495-a05f-a4f88d736bd5","ios":"levelo://app?vid=9943d934-278b-4495-a05f-a4f88d736bd5"},"vehicle_type_id":"4","last_reported":1744618442,"current_range_meters":16000,"station_id":"ce4bgup2rcd13ifvqcn0","pricing_plan_id":"cebpf4jnsgd1na2vs0mg"},{"bike_id":"27a55245-8dd2-4f1a-af63-95a9d7b71690","system_id":"levelo_inurba_marseille","lat":43.31072,"lon":5.37843,"is_reserved":false,"is_disabled":true,"rental_uris":{"android":"levelo://app?vid=27a55245-8dd2-4f1a-af63-95a9d7b71690","ios":"levelo://app?vid=27a55245-8dd2-4f1a-af63-95a9d7b71690"},"vehicle_type_id":"4","last_reported":1744618442,"current_range_meters":16000,"station_id":"","pricing_plan_id":"cebpf4jnsgd1na2vs0mg"},{"bike_id":"d5a25843-a862-432c-b9b2-e2627b892a44","system_id":"levelo_inurba_marseille","lat":43.31379,"lon":5.36752,"is_reserved":false,"is_disabled":false,"rental_uris":{"android":"levelo://app?vid=d5a25843-a862-432c-b9b2-e2627b892a44","ios":"levelo://app?vid=d5a25843-a862-432c-b9b2-e2627b892a44"},"vehicle_type_id":"4","last_reported":1744618442,"current_range_meters":16400,"station_id":"ce4bgr92rcd13ifvqc6g","pricing_plan_id":"cebpf4jnsgd1na2vs0mg"},{"bike_id":"31ad0aaf-c76b-4424-b2d1-5e6ff16af216","system_id":"levelo_inurba_marseille","lat":43.3094,"lon":5.39022,"is_reserved":false,"is_disabled":false,"rental_uris":{"android":"levelo://app?vid=31ad0aaf-c76b-4424-b2d1-5e6ff16af216","ios":"levelo://app?vid=31ad0aaf-c76b-4424-b2d1-5e6ff16af216"},"vehicle_type_id":"4","last_reported":1744618442,"current_range_meters":16400,"station_id":"ce4bgup2rcd13ifvqco0","pricing_plan_id":"cebpf4jnsgd1na2vs0mg"},{"bike_id":"b58a49de-5a76-45cc-8d09-eeeeb0ac4404","system_id":"levelo_inurba_marseille","lat":43.30097,"lon":5.39075,"is_reserved":false,"is_disabled":false,"rental_uris":{"android":"levelo://app?vid=b58a49de-5a76-45cc-8d09-eeeeb0ac4404","ios":"levelo://app?vid=b58a49de-5a76-45cc-8d09-eeeeb0ac4404"},"vehicle_type_id":"4","last_reported":1744618442,"current_range_meters":16400,"station_id":"ce4bh192rcd13ifvqdb0","pricing_plan_id":"cebpf4jnsgd1na2vs0mg"},{"bike_id":"2397de3b-5eb5-45fb-959a-c5fddd10db3e","system_id":"levelo_inurba_marseille","lat":43.28571,"lon":5.39491,"is_reserved":false,"is_disabled":false,"rental_uris":{"android":"levelo://app?vid=2397de3b-5eb5-45fb-959a-c5fddd10db3e","ios":"levelo://app?vid=2397de3b-5eb5-45fb-959a-c5fddd10db3e"},"vehicle_type_id":"4","last_reported":1744618442,"current_range_meters":16400,"station_id":"ce4bh292rcd13ifvqdg0","pricing_plan_id":"cebpf4jnsgd1na2vs0mg"},{"bike_id":"61377ee4-fd99-4c2f-b5ad-a5ac167d945b","system_id":"levelo_inurba_marseille","lat":43.231393,"lon":5.437057,"is_reserved":false,"is_disabled":false,"rental_uris":{"android":"levelo://app?vid=61377ee4-fd99-4c2f-b5ad-a5ac167d945b","ios":"levelo://app?vid=61377ee4-fd99-4c2f-b5ad-a5ac167d945b"},"vehicle_type_id":"4","last_reported":1744618442,"current_range_meters":16400,"station_id":"ce4bhmp2rcd13ifvqgog","pricing_plan_id":"cebpf4jnsgd1na2vs0mg"},{"bike_id":"a6535ba8-9ced-4cad-b71b-a79f16af244f","system_id":"levelo_inurba_marseille","lat":43.24665,"lon":5.38135,"is_reserved":false,"is_disabled":false,"rental_uris":{"android":"levelo://app?vid=a6535ba8-9ced-4cad-b71b-a79f16af244f","ios":"levelo://app?vid=a6535ba8-9ced-4cad-b71b-a79f16af244f"},"vehicle_type_id":"4","last_reported":1744618442,"current_range_meters":16800,"station_id":"ce4bhih2rcd13ifvqfr0","pricing_plan_id":"cebpf4jnsgd1na2vs0mg"},{"bike_id":"4bde7ac1-16a4-4691-a3fc-be036661e2eb","system_id":"levelo_inurba_marseille","lat":43.24178,"lon":5.3639,"is_reserved":false,"is_disabled":false,"rental_uris":{"android":"levelo://app?vid=4bde7ac1-16a4-4691-a3fc-be036661e2eb","ios":"levelo://app?vid=4bde7ac1-16a4-4691-a3fc-be036661e2eb"},"vehicle_type_id":"4","last_reported":1744618442,"current_range_meters":16800,"station_id":"cpo36qri1sfpv3e86is0","pricing_plan_id":"cebpf4jnsgd1na2vs0mg"},{"bike_id":"407a54c4-ce42-4e1a-bc9b-9b8f2ef8a27a","system_id":"levelo_inurba_marseille","lat":43.32413,"lon":5.39122,"is_reserved":false,"is_disabled":true,"rental_uris":{"android":"levelo://app?vid=407a54c4-ce42-4e1a-bc9b-9b8f2ef8a27a","ios":"levelo://app?vid=407a54c4-ce42-4e1a-bc9b-9b8f2ef8a27a"},"vehicle_type_id":"4","last_reported":1744618442,"current_range_meters":16800,"station_id":"","pricing_plan_id":"cebpf4jnsgd1na2vs0mg"},{"bike_id":"35d6ead4-4add-43af-bad1-04f5fc8c8c95","system_id":"levelo_inurba_marseille","lat":43.260628,"lon":5.394003,"is_reserved":false,"is_disabled":false,"rental_uris":{"android":"levelo://app?vid=35d6ead4-4add-43af-bad1-04f5fc8c8c95","ios":"levelo://app?vid=35d6ead4-4add-43af-bad1-04f5fc8c8c95"},"vehicle_type_id":"4","last_reported":1744618442,"current_range_meters":16800,"station_id":"ce4bhh92rcd13ifvqfj0","pricing_plan_id":"cebpf4jnsgd1na2vs0mg"},{"bike_id":"c524accc-53b6-4133-bf82-6e03a91e7dd4","system_id":"levelo_inurba_marseille","lat":43.25728,"lon":5.41112,"is_reserved":false,"is_disabled":false,"rental_uris":{"android":"levelo://app?vid=c524accc-53b6-4133-bf82-6e03a91e7dd4","ios":"levelo://app?vid=c524accc-53b6-4133-bf82-6e03a91e7dd4"},"vehicle_type_id":"4","last_reported":1744618442,"current_range_meters":16800,"station_id":"ce4bhkp2rcd13ifvqgd0","pricing_plan_id":"cebpf4jnsgd1na2vs0mg"},{"bike_id":"56135a82-d19f-45ea-a72c-58b1131d0fcb","system_id":"levelo_inurba_marseille","lat":43.280874,"lon":5.396664,"is_reserved":false,"is_disabled":true,"rental_uris":{"android":"levelo://app?vid=56135a82-d19f-45ea-a72c-58b1131d0fcb","ios":"levelo://app?vid=56135a82-d19f-45ea-a72c-58b1131d0fcb"},"vehicle_type_id":"4","last_reported":1744618442,"current_range_meters":16800,"station_id":"ce4bho12rcd13ifvqh2g","pricing_plan_id":"cebpf4jnsgd1na2vs0mg"},{"bike_id":"40db818b-5b9e-46bf-8274-264778958c39","system_id":"levelo_inurba_marseille","lat":43.23154,"lon":5.43689,"is_reserved":false,"is_disabled":false,"rental_uris":{"android":"levelo://app?vid=40db818b-5b9e-46bf-8274-264778958c39","ios":"levelo://app?vid=40db818b-5b9e-46bf-8274-264778958c39"},"vehicle_type_id":"4","last_reported":1744618442,"current_range_meters":16800,"station_id":"ce4bhmp2rcd13ifvqgog","pricing_plan_id":"cebpf4jnsgd1na2vs0mg"},{"bike_id":"626065a0-5dba-4dd3-94f8-76bb3800d58f","system_id":"levelo_inurba_marseille","lat":43.2574,"lon":5.411,"is_reserved":false,"is_disabled":false,"rental_uris":{"android":"levelo://app?vid=626065a0-5dba-4dd3-94f8-76bb3800d58f","ios":"levelo://app?vid=626065a0-5dba-4dd3-94f8-76bb3800d58f"},"vehicle_type_id":"4","last_reported":1744618442,"current_range_meters":17200,"station_id":"ce4bhkp2rcd13ifvqgd0","pricing_plan_id":"cebpf4jnsgd1na2vs0mg"},{"bike_id":"a818834f-725d-4dbb-9bab-d3518b1b13c4","system_id":"levelo_inurba_marseille","lat":43.323596,"lon":5.367601,"is_reserved":false,"is_disabled":false,"rental_uris":{"android":"levelo://app?vid=a818834f-725d-4dbb-9bab-d3518b1b13c4","ios":"levelo://app?vid=a818834f-725d-4dbb-9bab-d3518b1b13c4"},"vehicle_type_id":"4","last_reported":1744618442,"current_range_meters":17200,"station_id":"ce4bhsh2rcd13ifvqi2g","pricing_plan_id":"cebpf4jnsgd1na2vs0mg"},{"bike_id":"d1f4cbd6-a33d-45a9-b514-d08f6a83e210","system_id":"levelo_inurba_marseille","lat":43.2931,"lon":5.37175,"is_reserved":false,"is_disabled":false,"rental_uris":{"android":"levelo://app?vid=d1f4cbd6-a33d-45a9-b514-d08f6a83e210","ios":"levelo://app?vid=d1f4cbd6-a33d-45a9-b514-d08f6a83e210"},"vehicle_type_id":"4","last_reported":1744618442,"current_range_meters":17200,"station_id":"ce4bgh92rcd13ifvqb40","pricing_plan_id":"cebpf4jnsgd1na2vs0mg"},{"bike_id":"7068e823-0ef7-4bec-9d46-9774d9ea3ba0","system_id":"levelo_inurba_marseille","lat":43.31502,"lon":5.37273,"is_reserved":false,"is_disabled":false,"rental_uris":{"android":"levelo://app?vid=7068e823-0ef7-4bec-9d46-9774d9ea3ba0","ios":"levelo://app?vid=7068e823-0ef7-4bec-9d46-9774d9ea3ba0"},"vehicle_type_id":"4","last_reported":1744618442,"current_range_meters":17200,"station_id":"ce4bgt12rcd13ifvqcd0","pricing_plan_id":"cebpf4jnsgd1na2vs0mg"},{"bike_id":"92acc3ad-3130-40c6-a9a1-3c9cc354f998","system_id":"levelo_inurba_marseille","lat":43.24408,"lon":5.37079,"is_reserved":false,"is_disabled":false,"rental_uris":{"android":"levelo://app?vid=92acc3ad-3130-40c6-a9a1-3c9cc354f998","ios":"levelo://app?vid=92acc3ad-3130-40c6-a9a1-3c9cc354f998"},"vehicle_type_id":"4","last_reported":1744618442,"current_range_meters":17200,"station_id":"ce4bhhh2rcd13ifvqfk0","pricing_plan_id":"cebpf4jnsgd1na2vs0mg"},{"bike_id":"08e69920-6699-44a2-bf5e-065531bec167","system_id":"levelo_inurba_marseille","lat":43.29413,"lon":5.40098,"is_reserved":false,"is_disabled":true,"rental_uris":{"android":"levelo://app?vid=08e69920-6699-44a2-bf5e-065531bec167","ios":"levelo://app?vid=08e69920-6699-44a2-bf5e-065531bec167"},"vehicle_type_id":"4","last_reported":1744618442,"current_range_meters":17200,"station_id":"","pricing_plan_id":"cebpf4jnsgd1na2vs0mg"},{"bike_id":"8b192003-b00d-4b12-987a-01ffb1b1c422","system_id":"levelo_inurba_marseille","lat":43.29032,"lon":5.39957,"is_reserved":false,"is_disabled":false,"rental_uris":{"android":"levelo://app?vid=8b192003-b00d-4b12-987a-01ffb1b1c422","ios":"levelo://app?vid=8b192003-b00d-4b12-987a-01ffb1b1c422"},"vehicle_type_id":"4","last_reported":1744618442,"current_range_meters":17600,"station_id":"ce4bh392rcd13ifvqdm0","pricing_plan_id":"cebpf4jnsgd1na2vs0mg"},{"bike_id":"301f53d6-0a8d-48c7-b250-860880def1f4","system_id":"levelo_inurba_marseille","lat":43.31023,"lon":5.371,"is_reserved":false,"is_disabled":false,"rental_uris":{"android":"levelo://app?vid=301f53d6-0a8d-48c7-b250-860880def1f4","ios":"levelo://app?vid=301f53d6-0a8d-48c7-b250-860880def1f4"},"vehicle_type_id":"4","last_reported":1744618442,"current_range_meters":17600,"station_id":"","pricing_plan_id":"cebpf4jnsgd1na2vs0mg"},{"bike_id":"80604401-29d9-4943-813b-801a2e54aa2b","system_id":"levelo_inurba_marseille","lat":43.29559,"lon":5.4228,"is_reserved":false,"is_disabled":false,"rental_uris":{"android":"levelo://app?vid=80604401-29d9-4943-813b-801a2e54aa2b","ios":"levelo://app?vid=80604401-29d9-4943-813b-801a2e54aa2b"},"vehicle_type_id":"4","last_reported":1744618442,"current_range_meters":17200,"station_id":"ce4bhph2rcd13ifvqhdg","pricing_plan_id":"cebpf4jnsgd1na2vs0mg"},{"bike_id":"2e828f5c-eef5-4710-b5ce-262a669937b8","system_id":"levelo_inurba_marseille","lat":43.29596,"lon":5.38102,"is_reserved":false,"is_disabled":false,"rental_uris":{"android":"levelo://app?vid=2e828f5c-eef5-4710-b5ce-262a669937b8","ios":"levelo://app?vid=2e828f5c-eef5-4710-b5ce-262a669937b8"},"vehicle_type_id":"4","last_reported":1744618442,"current_range_meters":17600,"station_id":"ce4bgl12rcd13ifvqbo0","pricing_plan_id":"cebpf4jnsgd1na2vs0mg"},{"bike_id":"7c2a4588-bcf7-4c8d-b580-ff8de5ba6372","system_id":"levelo_inurba_marseille","lat":43.28691,"lon":5.39901,"is_reserved":false,"is_disabled":true,"rental_uris":{"android":"levelo://app?vid=7c2a4588-bcf7-4c8d-b580-ff8de5ba6372","ios":"levelo://app?vid=7c2a4588-bcf7-4c8d-b580-ff8de5ba6372"},"vehicle_type_id":"4","last_reported":1744618442,"current_range_meters":17600,"station_id":"ce4bho92rcd13ifvqh3g","pricing_plan_id":"cebpf4jnsgd1na2vs0mg"},{"bike_id":"75a9a046-0026-4131-bbcb-2159af8cd612","system_id":"levelo_inurba_marseille","lat":43.28846,"lon":5.35852,"is_reserved":false,"is_disabled":false,"rental_uris":{"android":"levelo://app?vid=75a9a046-0026-4131-bbcb-2159af8cd612","ios":"levelo://app?vid=75a9a046-0026-4131-bbcb-2159af8cd612"},"vehicle_type_id":"4","last_reported":1744618442,"current_range_meters":17200,"station_id":"ce4bhbp2rcd13ifvqerg","pricing_plan_id":"cebpf4jnsgd1na2vs0mg"},{"bike_id":"a8791189-08ab-44ed-9124-c68d4aa71e0a","system_id":"levelo_inurba_marseille","lat":43.28722,"lon":5.39969,"is_reserved":false,"is_disabled":false,"rental_uris":{"android":"levelo://app?vid=a8791189-08ab-44ed-9124-c68d4aa71e0a","ios":"levelo://app?vid=a8791189-08ab-44ed-9124-c68d4aa71e0a"},"vehicle_type_id":"4","last_reported":1744618442,"current_range_meters":17600,"station_id":"ce4bho92rcd13ifvqh3g","pricing_plan_id":"cebpf4jnsgd1na2vs0mg"},{"bike_id":"91cd5f61-fcd7-440a-9c95-b35a968d1ead","system_id":"levelo_inurba_marseille","lat":43.25723,"lon":5.41119,"is_reserved":false,"is_disabled":false,"rental_uris":{"android":"levelo://app?vid=91cd5f61-fcd7-440a-9c95-b35a968d1ead","ios":"levelo://app?vid=91cd5f61-fcd7-440a-9c95-b35a968d1ead"},"vehicle_type_id":"4","last_reported":1744618442,"current_range_meters":17600,"station_id":"ce4bhkp2rcd13ifvqgd0","pricing_plan_id":"cebpf4jnsgd1na2vs0mg"},{"bike_id":"86507adb-43c1-4a89-acc7-c74cd80a099f","system_id":"levelo_inurba_marseille","lat":43.23128,"lon":5.36676,"is_reserved":false,"is_disabled":false,"rental_uris":{"android":"levelo://app?vid=86507adb-43c1-4a89-acc7-c74cd80a099f","ios":"levelo://app?vid=86507adb-43c1-4a89-acc7-c74cd80a099f"},"vehicle_type_id":"4","last_reported":1744618442,"current_range_meters":17600,"station_id":"","pricing_plan_id":"cebpf4jnsgd1na2vs0mg"},{"bike_id":"46e1fc9d-0b93-4a87-b368-562a1bf4c38d","system_id":"levelo_inurba_marseille","lat":43.34131,"lon":5.40894,"is_reserved":false,"is_disabled":false,"rental_uris":{"android":"levelo://app?vid=46e1fc9d-0b93-4a87-b368-562a1bf4c38d","ios":"levelo://app?vid=46e1fc9d-0b93-4a87-b368-562a1bf4c38d"},"vehicle_type_id":"4","last_reported":1744618442,"current_range_meters":17600,"station_id":"ce4bhqh2rcd13ifvqhlg","pricing_plan_id":"cebpf4jnsgd1na2vs0mg"},{"bike_id":"e1cdcd88-4a6b-4a95-887f-82f9936440ef","system_id":"levelo_inurba_marseille","lat":43.32547,"lon":5.41457,"is_reserved":false,"is_disabled":false,"rental_uris":{"android":"levelo://app?vid=e1cdcd88-4a6b-4a95-887f-82f9936440ef","ios":"levelo://app?vid=e1cdcd88-4a6b-4a95-887f-82f9936440ef"},"vehicle_type_id":"4","last_reported":1744618442,"current_range_meters":18000,"station_id":"ce4bhq12rcd13ifvqhhg","pricing_plan_id":"cebpf4jnsgd1na2vs0mg"},{"bike_id":"ec55715f-50ef-4b62-b932-d89df8729be7","system_id":"levelo_inurba_marseille","lat":43.3159,"lon":5.388891,"is_reserved":false,"is_disabled":false,"rental_uris":{"android":"levelo://app?vid=ec55715f-50ef-4b62-b932-d89df8729be7","ios":"levelo://app?vid=ec55715f-50ef-4b62-b932-d89df8729be7"},"vehicle_type_id":"4","last_reported":1744618442,"current_range_meters":18000,"station_id":"","pricing_plan_id":"cebpf4jnsgd1na2vs0mg"},{"bike_id":"85732ddb-8399-49d6-a41e-e00dbdf23169","system_id":"levelo_inurba_marseille","lat":43.32496,"lon":5.36567,"is_reserved":false,"is_disabled":false,"rental_uris":{"android":"levelo://app?vid=85732ddb-8399-49d6-a41e-e00dbdf23169","ios":"levelo://app?vid=85732ddb-8399-49d6-a41e-e00dbdf23169"},"vehicle_type_id":"4","last_reported":1744618442,"current_range_meters":18000,"station_id":"ce4bhs12rcd13ifvqhvg","pricing_plan_id":"cebpf4jnsgd1na2vs0mg"},{"bike_id":"d3764e5f-435b-45e6-9606-8ce5a1adcd07","system_id":"levelo_inurba_marseille","lat":43.31477,"lon":5.37291,"is_reserved":false,"is_disabled":false,"rental_uris":{"android":"levelo://app?vid=d3764e5f-435b-45e6-9606-8ce5a1adcd07","ios":"levelo://app?vid=d3764e5f-435b-45e6-9606-8ce5a1adcd07"},"vehicle_type_id":"4","last_reported":1744618442,"current_range_meters":18000,"station_id":"ce4bgt12rcd13ifvqcd0","pricing_plan_id":"cebpf4jnsgd1na2vs0mg"},{"bike_id":"cae5cb7a-b5a0-4962-b670-708b44fc2a06","system_id":"levelo_inurba_marseille","lat":43.30537,"lon":5.36519,"is_reserved":false,"is_disabled":false,"rental_uris":{"android":"levelo://app?vid=cae5cb7a-b5a0-4962-b670-708b44fc2a06","ios":"levelo://app?vid=cae5cb7a-b5a0-4962-b670-708b44fc2a06"},"vehicle_type_id":"4","last_reported":1744618442,"current_range_meters":18000,"station_id":"ce4bgs12rcd13ifvqcag","pricing_plan_id":"cebpf4jnsgd1na2vs0mg"},{"bike_id":"390a443c-f179-4b89-9e12-1fa3cf18df2c","system_id":"levelo_inurba_marseille","lat":43.29773,"lon":5.37107,"is_reserved":false,"is_disabled":false,"rental_uris":{"android":"levelo://app?vid=390a443c-f179-4b89-9e12-1fa3cf18df2c","ios":"levelo://app?vid=390a443c-f179-4b89-9e12-1fa3cf18df2c"},"vehicle_type_id":"4","last_reported":1744618442,"current_range_meters":18800,"station_id":"ce4bgop2rcd13ifvqc1g","pricing_plan_id":"cebpf4jnsgd1na2vs0mg"},{"bike_id":"673db6d5-564b-4a8f-9b04-864f8fcca5f5","system_id":"levelo_inurba_marseille","lat":43.303086,"lon":5.404358,"is_reserved":false,"is_disabled":true,"rental_uris":{"android":"levelo://app?vid=673db6d5-564b-4a8f-9b04-864f8fcca5f5","ios":"levelo://app?vid=673db6d5-564b-4a8f-9b04-864f8fcca5f5"},"vehicle_type_id":"4","last_reported":1744618442,"current_range_meters":18800,"station_id":"ce4bh012rcd13ifvqd10","pricing_plan_id":"cebpf4jnsgd1na2vs0mg"},{"bike_id":"9ccaf1e8-d14c-4218-be36-430bac425c11","system_id":"levelo_inurba_marseille","lat":43.30617,"lon":5.39364,"is_reserved":false,"is_disabled":true,"rental_uris":{"android":"levelo://app?vid=9ccaf1e8-d14c-4218-be36-430bac425c11","ios":"levelo://app?vid=9ccaf1e8-d14c-4218-be36-430bac425c11"},"vehicle_type_id":"4","last_reported":1744618442,"current_range_meters":18800,"station_id":"ce4bh0p2rcd13ifvqd80","pricing_plan_id":"cebpf4jnsgd1na2vs0mg"},{"bike_id":"8d42101d-ff5e-4d71-8f52-7e668a8dc64f","system_id":"levelo_inurba_marseille","lat":43.30137,"lon":5.3877,"is_reserved":false,"is_disabled":false,"rental_uris":{"android":"levelo://app?vid=8d42101d-ff5e-4d71-8f52-7e668a8dc64f","ios":"levelo://app?vid=8d42101d-ff5e-4d71-8f52-7e668a8dc64f"},"vehicle_type_id":"4","last_reported":1744618442,"current_range_meters":18800,"station_id":"ce4bghh2rcd13ifvqb60","pricing_plan_id":"cebpf4jnsgd1na2vs0mg"},{"bike_id":"177c0557-58ff-4f4f-9a4b-4b8689a6410b","system_id":"levelo_inurba_marseille","lat":43.28705,"lon":5.39972,"is_reserved":false,"is_disabled":true,"rental_uris":{"android":"levelo://app?vid=177c0557-58ff-4f4f-9a4b-4b8689a6410b","ios":"levelo://app?vid=177c0557-58ff-4f4f-9a4b-4b8689a6410b"},"vehicle_type_id":"4","last_reported":1744618442,"current_range_meters":18800,"station_id":"ce4bho92rcd13ifvqh3g","pricing_plan_id":"cebpf4jnsgd1na2vs0mg"},{"bike_id":"72383bae-254c-45fa-b589-5a26df9d2ef1","system_id":"levelo_inurba_marseille","lat":43.304277,"lon":5.388823,"is_reserved":false,"is_disabled":false,"rental_uris":{"android":"levelo://app?vid=72383bae-254c-45fa-b589-5a26df9d2ef1","ios":"levelo://app?vid=72383bae-254c-45fa-b589-5a26df9d2ef1"},"vehicle_type_id":"4","last_reported":1744618442,"current_range_meters":18800,"station_id":"ce4bgk12rcd13ifvqbi0","pricing_plan_id":"cebpf4jnsgd1na2vs0mg"},{"bike_id":"1db2c28a-e0ef-4f48-818f-eb01d86707b7","system_id":"levelo_inurba_marseille","lat":43.29245,"lon":5.40915,"is_reserved":false,"is_disabled":true,"rental_uris":{"android":"levelo://app?vid=1db2c28a-e0ef-4f48-818f-eb01d86707b7","ios":"levelo://app?vid=1db2c28a-e0ef-4f48-818f-eb01d86707b7"},"vehicle_type_id":"4","last_reported":1744618442,"current_range_meters":18800,"station_id":"ce4bh192rcd13ifvqdc0","pricing_plan_id":"cebpf4jnsgd1na2vs0mg"},{"bike_id":"7576fe1c-3c62-4cc1-ae2e-59e5e20c0ef1","system_id":"levelo_inurba_marseille","lat":43.30153,"lon":5.381,"is_reserved":false,"is_disabled":false,"rental_uris":{"android":"levelo://app?vid=7576fe1c-3c62-4cc1-ae2e-59e5e20c0ef1","ios":"levelo://app?vid=7576fe1c-3c62-4cc1-ae2e-59e5e20c0ef1"},"vehicle_type_id":"4","last_reported":1744618442,"current_range_meters":18800,"station_id":"ce4bgjp2rcd13ifvqbh0","pricing_plan_id":"cebpf4jnsgd1na2vs0mg"},{"bike_id":"d086b975-47f5-4eb4-ad78-3037cf90f8af","system_id":"levelo_inurba_marseille","lat":43.301505,"lon":5.380994,"is_reserved":false,"is_disabled":false,"rental_uris":{"android":"levelo://app?vid=d086b975-47f5-4eb4-ad78-3037cf90f8af","ios":"levelo://app?vid=d086b975-47f5-4eb4-ad78-3037cf90f8af"},"vehicle_type_id":"4","last_reported":1744618442,"current_range_meters":18800,"station_id":"ce4bgjp2rcd13ifvqbh0","pricing_plan_id":"cebpf4jnsgd1na2vs0mg"},{"bike_id":"1d01be78-c40e-4baa-90dd-b4c39cf9e58c","system_id":"levelo_inurba_marseille","lat":43.313803,"lon":5.367287,"is_reserved":false,"is_disabled":false,"rental_uris":{"android":"levelo://app?vid=1d01be78-c40e-4baa-90dd-b4c39cf9e58c","ios":"levelo://app?vid=1d01be78-c40e-4baa-90dd-b4c39cf9e58c"},"vehicle_type_id":"4","last_reported":1744618442,"current_range_meters":18800,"station_id":"ce4bgr92rcd13ifvqc6g","pricing_plan_id":"cebpf4jnsgd1na2vs0mg"},{"bike_id":"382a1a40-cce5-4bcf-8677-ad51fb5a2457","system_id":"levelo_inurba_marseille","lat":43.28839,"lon":5.39329,"is_reserved":false,"is_disabled":true,"rental_uris":{"android":"levelo://app?vid=382a1a40-cce5-4bcf-8677-ad51fb5a2457","ios":"levelo://app?vid=382a1a40-cce5-4bcf-8677-ad51fb5a2457"},"vehicle_type_id":"4","last_reported":1744618442,"current_range_meters":18800,"station_id":"ce4bh2p2rcd13ifvqdi0","pricing_plan_id":"cebpf4jnsgd1na2vs0mg"},{"bike_id":"577ffec8-632b-4e30-b8cf-6b3da4fe608a","system_id":"levelo_inurba_marseille","lat":43.25738,"lon":5.41725,"is_reserved":false,"is_disabled":false,"rental_uris":{"android":"levelo://app?vid=577ffec8-632b-4e30-b8cf-6b3da4fe608a","ios":"levelo://app?vid=577ffec8-632b-4e30-b8cf-6b3da4fe608a"},"vehicle_type_id":"4","last_reported":1744618442,"current_range_meters":18800,"station_id":"","pricing_plan_id":"cebpf4jnsgd1na2vs0mg"},{"bike_id":"b41ed7a8-6296-412e-8181-1a96fb8e8ee7","system_id":"levelo_inurba_marseille","lat":43.2418,"lon":5.39733,"is_reserved":false,"is_disabled":false,"rental_uris":{"android":"levelo://app?vid=b41ed7a8-6296-412e-8181-1a96fb8e8ee7","ios":"levelo://app?vid=b41ed7a8-6296-412e-8181-1a96fb8e8ee7"},"vehicle_type_id":"4","last_reported":1744618442,"current_range_meters":19200,"station_id":"ce4bhn12rcd13ifvqgpg","pricing_plan_id":"cebpf4jnsgd1na2vs0mg"},{"bike_id":"5bd4080e-cdba-49c5-a829-9c3dae7d98e5","system_id":"levelo_inurba_marseille","lat":43.21752,"lon":5.346,"is_reserved":false,"is_disabled":false,"rental_uris":{"android":"levelo://app?vid=5bd4080e-cdba-49c5-a829-9c3dae7d98e5","ios":"levelo://app?vid=5bd4080e-cdba-49c5-a829-9c3dae7d98e5"},"vehicle_type_id":"4","last_reported":1744618442,"current_range_meters":19200,"station_id":"st_cvj6r9ubvosntc0bgbag","pricing_plan_id":"cebpf4jnsgd1na2vs0mg"},{"bike_id":"d2d37f01-fa46-4fbc-a721-7789f4003663","system_id":"levelo_inurba_marseille","lat":43.24973,"lon":5.3896,"is_reserved":false,"is_disabled":false,"rental_uris":{"android":"levelo://app?vid=d2d37f01-fa46-4fbc-a721-7789f4003663","ios":"levelo://app?vid=d2d37f01-fa46-4fbc-a721-7789f4003663"},"vehicle_type_id":"4","last_reported":1744618442,"current_range_meters":19200,"station_id":"","pricing_plan_id":"cebpf4jnsgd1na2vs0mg"},{"bike_id":"d3ef79fd-6570-4243-bf7a-f37d60285df3","system_id":"levelo_inurba_marseille","lat":43.2416,"lon":5.36406,"is_reserved":false,"is_disabled":false,"rental_uris":{"android":"levelo://app?vid=d3ef79fd-6570-4243-bf7a-f37d60285df3","ios":"levelo://app?vid=d3ef79fd-6570-4243-bf7a-f37d60285df3"},"vehicle_type_id":"4","last_reported":1744618442,"current_range_meters":19200,"station_id":"cpo36qri1sfpv3e86is0","pricing_plan_id":"cebpf4jnsgd1na2vs0mg"},{"bike_id":"679c9c2b-825f-4432-8152-4852f3d4de80","system_id":"levelo_inurba_marseille","lat":43.28003,"lon":5.40012,"is_reserved":false,"is_disabled":false,"rental_uris":{"android":"levelo://app?vid=679c9c2b-825f-4432-8152-4852f3d4de80","ios":"levelo://app?vid=679c9c2b-825f-4432-8152-4852f3d4de80"},"vehicle_type_id":"4","last_reported":1744618442,"current_range_meters":19200,"station_id":"ce4bho92rcd13ifvqh4g","pricing_plan_id":"cebpf4jnsgd1na2vs0mg"},{"bike_id":"e951b6c2-47b9-4111-a7ec-03f8051784e9","system_id":"levelo_inurba_marseille","lat":43.25943,"lon":5.40914,"is_reserved":false,"is_disabled":false,"rental_uris":{"android":"levelo://app?vid=e951b6c2-47b9-4111-a7ec-03f8051784e9","ios":"levelo://app?vid=e951b6c2-47b9-4111-a7ec-03f8051784e9"},"vehicle_type_id":"4","last_reported":1744618442,"current_range_meters":19200,"station_id":"ce4bhm92rcd13ifvqglg","pricing_plan_id":"cebpf4jnsgd1na2vs0mg"},{"bike_id":"205a676e-388e-4b5d-b5d4-92bca6b76c07","system_id":"levelo_inurba_marseille","lat":43.31155,"lon":5.38016,"is_reserved":false,"is_disabled":true,"rental_uris":{"android":"levelo://app?vid=205a676e-388e-4b5d-b5d4-92bca6b76c07","ios":"levelo://app?vid=205a676e-388e-4b5d-b5d4-92bca6b76c07"},"vehicle_type_id":"4","last_reported":1744618442,"current_range_meters":19200,"station_id":"","pricing_plan_id":"cebpf4jnsgd1na2vs0mg"},{"bike_id":"8ba8da06-09b4-4e35-9af5-e823a105a352","system_id":"levelo_inurba_marseille","lat":43.230678,"lon":5.35506,"is_reserved":false,"is_disabled":false,"rental_uris":{"android":"levelo://app?vid=8ba8da06-09b4-4e35-9af5-e823a105a352","ios":"levelo://app?vid=8ba8da06-09b4-4e35-9af5-e823a105a352"},"vehicle_type_id":"4","last_reported":1744618442,"current_range_meters":19600,"station_id":"cpo3342slgdg3j2ifvpg","pricing_plan_id":"cebpf4jnsgd1na2vs0mg"},{"bike_id":"4f993cae-54c0-4218-8fa1-745cd1d3a1de","system_id":"levelo_inurba_marseille","lat":43.27961,"lon":5.38748,"is_reserved":false,"is_disabled":false,"rental_uris":{"android":"levelo://app?vid=4f993cae-54c0-4218-8fa1-745cd1d3a1de","ios":"levelo://app?vid=4f993cae-54c0-4218-8fa1-745cd1d3a1de"},"vehicle_type_id":"4","last_reported":1744618442,"current_range_meters":19600,"station_id":"ce4bhg12rcd13ifvqf80","pricing_plan_id":"cebpf4jnsgd1na2vs0mg"},{"bike_id":"71b179a5-5c27-4e44-ad08-33bb3ff15978","system_id":"levelo_inurba_marseille","lat":43.28708,"lon":5.39993,"is_reserved":false,"is_disabled":false,"rental_uris":{"android":"levelo://app?vid=71b179a5-5c27-4e44-ad08-33bb3ff15978","ios":"levelo://app?vid=71b179a5-5c27-4e44-ad08-33bb3ff15978"},"vehicle_type_id":"4","last_reported":1744618442,"current_range_meters":19600,"station_id":"ce4bho92rcd13ifvqh3g","pricing_plan_id":"cebpf4jnsgd1na2vs0mg"},{"bike_id":"6d413b1f-86c3-41a1-ac4d-41219b5312d3","system_id":"levelo_inurba_marseille","lat":43.29962,"lon":5.37182,"is_reserved":false,"is_disabled":false,"rental_uris":{"android":"levelo://app?vid=6d413b1f-86c3-41a1-ac4d-41219b5312d3","ios":"levelo://app?vid=6d413b1f-86c3-41a1-ac4d-41219b5312d3"},"vehicle_type_id":"4","last_reported":1744618442,"current_range_meters":19600,"station_id":"ce4bgr92rcd13ifvqc7g","pricing_plan_id":"cebpf4jnsgd1na2vs0mg"},{"bike_id":"7b98c8bb-62d9-4cd3-a36f-0a17b94f78cd","system_id":"levelo_inurba_marseille","lat":43.23483,"lon":5.38075,"is_reserved":false,"is_disabled":false,"rental_uris":{"android":"levelo://app?vid=7b98c8bb-62d9-4cd3-a36f-0a17b94f78cd","ios":"levelo://app?vid=7b98c8bb-62d9-4cd3-a36f-0a17b94f78cd"},"vehicle_type_id":"4","last_reported":1744618442,"current_range_meters":19600,"station_id":"","pricing_plan_id":"cebpf4jnsgd1na2vs0mg"},{"bike_id":"f6c8f6a9-e39a-4139-94fa-41f49afbecc9","system_id":"levelo_inurba_marseille","lat":43.30542,"lon":5.36532,"is_reserved":false,"is_disabled":false,"rental_uris":{"android":"levelo://app?vid=f6c8f6a9-e39a-4139-94fa-41f49afbecc9","ios":"levelo://app?vid=f6c8f6a9-e39a-4139-94fa-41f49afbecc9"},"vehicle_type_id":"4","last_reported":1744618442,"current_range_meters":19600,"station_id":"ce4bgs12rcd13ifvqcag","pricing_plan_id":"cebpf4jnsgd1na2vs0mg"},{"bike_id":"8712c4fb-fd70-4efb-a2f3-0da4120a3f95","system_id":"levelo_inurba_marseille","lat":43.31178,"lon":5.38736,"is_reserved":false,"is_disabled":true,"rental_uris":{"android":"levelo://app?vid=8712c4fb-fd70-4efb-a2f3-0da4120a3f95","ios":"levelo://app?vid=8712c4fb-fd70-4efb-a2f3-0da4120a3f95"},"vehicle_type_id":"4","last_reported":1744618442,"current_range_meters":19600,"station_id":"ce4bgv12rcd13ifvqcp0","pricing_plan_id":"cebpf4jnsgd1na2vs0mg"},{"bike_id":"dc33496b-5042-4733-983a-1763470dcce0","system_id":"levelo_inurba_marseille","lat":43.26217,"lon":5.37436,"is_reserved":false,"is_disabled":false,"rental_uris":{"android":"levelo://app?vid=dc33496b-5042-4733-983a-1763470dcce0","ios":"levelo://app?vid=dc33496b-5042-4733-983a-1763470dcce0"},"vehicle_type_id":"4","last_reported":1744618442,"current_range_meters":19600,"station_id":"ce4bhgp2rcd13ifvqfc0","pricing_plan_id":"cebpf4jnsgd1na2vs0mg"},{"bike_id":"c93af6c0-4439-4283-8d45-1b7e8a8fc0e4","system_id":"levelo_inurba_marseille","lat":43.29301,"lon":5.3745,"is_reserved":false,"is_disabled":true,"rental_uris":{"android":"levelo://app?vid=c93af6c0-4439-4283-8d45-1b7e8a8fc0e4","ios":"levelo://app?vid=c93af6c0-4439-4283-8d45-1b7e8a8fc0e4"},"vehicle_type_id":"4","last_reported":1744618442,"current_range_meters":19600,"station_id":"ce4bgi12rcd13ifvqb70","pricing_plan_id":"cebpf4jnsgd1na2vs0mg"},{"bike_id":"af757c1b-a0cd-42a7-b400-8982e931e188","system_id":"levelo_inurba_marseille","lat":43.30308,"lon":5.36908,"is_reserved":false,"is_disabled":false,"rental_uris":{"android":"levelo://app?vid=af757c1b-a0cd-42a7-b400-8982e931e188","ios":"levelo://app?vid=af757c1b-a0cd-42a7-b400-8982e931e188"},"vehicle_type_id":"4","last_reported":1744618442,"current_range_meters":19600,"station_id":"ce4bgqh2rcd13ifvqc5g","pricing_plan_id":"cebpf4jnsgd1na2vs0mg"},{"bike_id":"79305d5c-f2c4-4a92-9d67-e375467df1b8","system_id":"levelo_inurba_marseille","lat":43.30463,"lon":5.37903,"is_reserved":false,"is_disabled":false,"rental_uris":{"android":"levelo://app?vid=79305d5c-f2c4-4a92-9d67-e375467df1b8","ios":"levelo://app?vid=79305d5c-f2c4-4a92-9d67-e375467df1b8"},"vehicle_type_id":"4","last_reported":1744618442,"current_range_meters":20000,"station_id":"ce4bgup2rcd13ifvqcn0","pricing_plan_id":"cebpf4jnsgd1na2vs0mg"},{"bike_id":"1c60beeb-dd04-4a98-9bf2-8393d9fc0a86","system_id":"levelo_inurba_marseille","lat":43.24998,"lon":5.38937,"is_reserved":false,"is_disabled":false,"rental_uris":{"android":"levelo://app?vid=1c60beeb-dd04-4a98-9bf2-8393d9fc0a86","ios":"levelo://app?vid=1c60beeb-dd04-4a98-9bf2-8393d9fc0a86"},"vehicle_type_id":"4","last_reported":1744618442,"current_range_meters":20000,"station_id":"ce4bhgp2rcd13ifvqfd0","pricing_plan_id":"cebpf4jnsgd1na2vs0mg"},{"bike_id":"b3ea20ce-5604-45b6-ace7-cad39f4f56d5","system_id":"levelo_inurba_marseille","lat":43.29692,"lon":5.36353,"is_reserved":false,"is_disabled":false,"rental_uris":{"android":"levelo://app?vid=b3ea20ce-5604-45b6-ace7-cad39f4f56d5","ios":"levelo://app?vid=b3ea20ce-5604-45b6-ace7-cad39f4f56d5"},"vehicle_type_id":"4","last_reported":1744618442,"current_range_meters":20000,"station_id":"","pricing_plan_id":"cebpf4jnsgd1na2vs0mg"},{"bike_id":"5ed04e70-8df1-4d32-a33a-d57cb41d13e1","system_id":"levelo_inurba_marseille","lat":43.30918,"lon":5.36856,"is_reserved":false,"is_disabled":false,"rental_uris":{"android":"levelo://app?vid=5ed04e70-8df1-4d32-a33a-d57cb41d13e1","ios":"levelo://app?vid=5ed04e70-8df1-4d32-a33a-d57cb41d13e1"},"vehicle_type_id":"4","last_reported":1744618442,"current_range_meters":20000,"station_id":"ce4bgn92rcd13ifvqbvg","pricing_plan_id":"cebpf4jnsgd1na2vs0mg"},{"bike_id":"fbacecab-fdbc-437f-ad37-ef07ea1c1eac","system_id":"levelo_inurba_marseille","lat":43.30557,"lon":5.36532,"is_reserved":false,"is_disabled":false,"rental_uris":{"android":"levelo://app?vid=fbacecab-fdbc-437f-ad37-ef07ea1c1eac","ios":"levelo://app?vid=fbacecab-fdbc-437f-ad37-ef07ea1c1eac"},"vehicle_type_id":"4","last_reported":1744618442,"current_range_meters":20000,"station_id":"ce4bgs12rcd13ifvqcag","pricing_plan_id":"cebpf4jnsgd1na2vs0mg"},{"bike_id":"469cac9e-0c72-4c46-a796-98a152ab1135","system_id":"levelo_inurba_marseille","lat":43.235183,"lon":5.41361,"is_reserved":false,"is_disabled":false,"rental_uris":{"android":"levelo://app?vid=469cac9e-0c72-4c46-a796-98a152ab1135","ios":"levelo://app?vid=469cac9e-0c72-4c46-a796-98a152ab1135"},"vehicle_type_id":"4","last_reported":1744618442,"current_range_meters":20000,"station_id":"","pricing_plan_id":"cebpf4jnsgd1na2vs0mg"},{"bike_id":"8da64415-4d9d-4156-ab31-17391ec4b299","system_id":"levelo_inurba_marseille","lat":43.26226,"lon":5.40449,"is_reserved":false,"is_disabled":false,"rental_uris":{"android":"levelo://app?vid=8da64415-4d9d-4156-ab31-17391ec4b299","ios":"levelo://app?vid=8da64415-4d9d-4156-ab31-17391ec4b299"},"vehicle_type_id":"4","last_reported":1744618442,"current_range_meters":20000,"station_id":"ce4bhmh2rcd13ifvqgmg","pricing_plan_id":"cebpf4jnsgd1na2vs0mg"},{"bike_id":"06834faa-c1fb-4ed9-8247-ec51194e9560","system_id":"levelo_inurba_marseille","lat":43.27671,"lon":5.38946,"is_reserved":false,"is_disabled":false,"rental_uris":{"android":"levelo://app?vid=06834faa-c1fb-4ed9-8247-ec51194e9560","ios":"levelo://app?vid=06834faa-c1fb-4ed9-8247-ec51194e9560"},"vehicle_type_id":"4","last_reported":1744618442,"current_range_meters":20000,"station_id":"","pricing_plan_id":"cebpf4jnsgd1na2vs0mg"},{"bike_id":"69330968-31be-4072-8333-3419318ec490","system_id":"levelo_inurba_marseille","lat":43.29257,"lon":5.37618,"is_reserved":false,"is_disabled":false,"rental_uris":{"android":"levelo://app?vid=69330968-31be-4072-8333-3419318ec490","ios":"levelo://app?vid=69330968-31be-4072-8333-3419318ec490"},"vehicle_type_id":"4","last_reported":1744618442,"current_range_meters":20000,"station_id":"ce4bgi12rcd13ifvqb80","pricing_plan_id":"cebpf4jnsgd1na2vs0mg"},{"bike_id":"d3a0e309-41d2-4981-b517-0536179b4cff","system_id":"levelo_inurba_marseille","lat":43.33607,"lon":5.41009,"is_reserved":false,"is_disabled":false,"rental_uris":{"android":"levelo://app?vid=d3a0e309-41d2-4981-b517-0536179b4cff","ios":"levelo://app?vid=d3a0e309-41d2-4981-b517-0536179b4cff"},"vehicle_type_id":"4","last_reported":1744618442,"current_range_meters":20000,"station_id":"ce4bhqh2rcd13ifvqhmg","pricing_plan_id":"cebpf4jnsgd1na2vs0mg"},{"bike_id":"fe3bbc1f-7f75-4eef-b028-c7730d1645d3","system_id":"levelo_inurba_marseille","lat":43.26138,"lon":5.40325,"is_reserved":false,"is_disabled":false,"rental_uris":{"android":"levelo://app?vid=fe3bbc1f-7f75-4eef-b028-c7730d1645d3","ios":"levelo://app?vid=fe3bbc1f-7f75-4eef-b028-c7730d1645d3"},"vehicle_type_id":"4","last_reported":1744618442,"current_range_meters":20000,"station_id":"ce4bhmh2rcd13ifvqgmg","pricing_plan_id":"cebpf4jnsgd1na2vs0mg"},{"bike_id":"8b6b5c76-e5e7-4ecd-bf1b-1655ed2e3c4d","system_id":"levelo_inurba_marseille","lat":43.264955,"lon":5.394339,"is_reserved":false,"is_disabled":false,"rental_uris":{"android":"levelo://app?vid=8b6b5c76-e5e7-4ecd-bf1b-1655ed2e3c4d","ios":"levelo://app?vid=8b6b5c76-e5e7-4ecd-bf1b-1655ed2e3c4d"},"vehicle_type_id":"4","last_reported":1744618442,"current_range_meters":19600,"station_id":"ce4bhi12rcd13ifvqfq0","pricing_plan_id":"cebpf4jnsgd1na2vs0mg"},{"bike_id":"5d34159c-a8dc-4edc-9a25-2b66ca7df509","system_id":"levelo_inurba_marseille","lat":43.30464,"lon":5.37908,"is_reserved":false,"is_disabled":false,"rental_uris":{"android":"levelo://app?vid=5d34159c-a8dc-4edc-9a25-2b66ca7df509","ios":"levelo://app?vid=5d34159c-a8dc-4edc-9a25-2b66ca7df509"},"vehicle_type_id":"4","last_reported":1744618442,"current_range_meters":20400,"station_id":"ce4bgup2rcd13ifvqcn0","pricing_plan_id":"cebpf4jnsgd1na2vs0mg"},{"bike_id":"6ca3eaf7-edd0-4467-96f8-ef37e92e5783","system_id":"levelo_inurba_marseille","lat":43.30886,"lon":5.39651,"is_reserved":false,"is_disabled":false,"rental_uris":{"android":"levelo://app?vid=6ca3eaf7-edd0-4467-96f8-ef37e92e5783","ios":"levelo://app?vid=6ca3eaf7-edd0-4467-96f8-ef37e92e5783"},"vehicle_type_id":"4","last_reported":1744618442,"current_range_meters":20400,"station_id":"ce4bh012rcd13ifvqcv0","pricing_plan_id":"cebpf4jnsgd1na2vs0mg"},{"bike_id":"b177d0f9-ddb2-4718-8839-378679867307","system_id":"levelo_inurba_marseille","lat":43.337444,"lon":5.374475,"is_reserved":false,"is_disabled":false,"rental_uris":{"android":"levelo://app?vid=b177d0f9-ddb2-4718-8839-378679867307","ios":"levelo://app?vid=b177d0f9-ddb2-4718-8839-378679867307"},"vehicle_type_id":"4","last_reported":1744618442,"current_range_meters":20400,"station_id":"ce4bh0h2rcd13ifvqd50","pricing_plan_id":"cebpf4jnsgd1na2vs0mg"},{"bike_id":"40e32cee-9c94-4ec8-8cc1-dfc745c5629a","system_id":"levelo_inurba_marseille","lat":43.2417,"lon":5.36417,"is_reserved":false,"is_disabled":false,"rental_uris":{"android":"levelo://app?vid=40e32cee-9c94-4ec8-8cc1-dfc745c5629a","ios":"levelo://app?vid=40e32cee-9c94-4ec8-8cc1-dfc745c5629a"},"vehicle_type_id":"4","last_reported":1744618442,"current_range_meters":20400,"station_id":"cpo36qri1sfpv3e86is0","pricing_plan_id":"cebpf4jnsgd1na2vs0mg"},{"bike_id":"8ba444c2-d8e1-42ae-9dd8-6b48744e7629","system_id":"levelo_inurba_marseille","lat":43.30933,"lon":5.36658,"is_reserved":false,"is_disabled":true,"rental_uris":{"android":"levelo://app?vid=8ba444c2-d8e1-42ae-9dd8-6b48744e7629","ios":"levelo://app?vid=8ba444c2-d8e1-42ae-9dd8-6b48744e7629"},"vehicle_type_id":"4","last_reported":1744618442,"current_range_meters":20800,"station_id":"","pricing_plan_id":"cebpf4jnsgd1na2vs0mg"},{"bike_id":"e699cb84-72cc-499d-a4b3-9822d7456264","system_id":"levelo_inurba_marseille","lat":43.32518,"lon":5.36571,"is_reserved":false,"is_disabled":false,"rental_uris":{"android":"levelo://app?vid=e699cb84-72cc-499d-a4b3-9822d7456264","ios":"levelo://app?vid=e699cb84-72cc-499d-a4b3-9822d7456264"},"vehicle_type_id":"4","last_reported":1744618442,"current_range_meters":21600,"station_id":"ce4bhs12rcd13ifvqhvg","pricing_plan_id":"cebpf4jnsgd1na2vs0mg"},{"bike_id":"d111cc14-d9bf-4634-9493-154ce676b357","system_id":"levelo_inurba_marseille","lat":43.30464,"lon":5.37906,"is_reserved":false,"is_disabled":false,"rental_uris":{"android":"levelo://app?vid=d111cc14-d9bf-4634-9493-154ce676b357","ios":"levelo://app?vid=d111cc14-d9bf-4634-9493-154ce676b357"},"vehicle_type_id":"4","last_reported":1744618442,"current_range_meters":21600,"station_id":"ce4bgup2rcd13ifvqcn0","pricing_plan_id":"cebpf4jnsgd1na2vs0mg"},{"bike_id":"567a54ba-753f-4023-8208-33ba9c05bde6","system_id":"levelo_inurba_marseille","lat":43.3134,"lon":5.36713,"is_reserved":false,"is_disabled":false,"rental_uris":{"android":"levelo://app?vid=567a54ba-753f-4023-8208-33ba9c05bde6","ios":"levelo://app?vid=567a54ba-753f-4023-8208-33ba9c05bde6"},"vehicle_type_id":"4","last_reported":1744618442,"current_range_meters":21600,"station_id":"ce4bgr92rcd13ifvqc6g","pricing_plan_id":"cebpf4jnsgd1na2vs0mg"},{"bike_id":"eda67c80-ce7e-4d04-9da3-e0218af0fb5d","system_id":"levelo_inurba_marseille","lat":43.23182,"lon":5.4,"is_reserved":false,"is_disabled":true,"rental_uris":{"android":"levelo://app?vid=eda67c80-ce7e-4d04-9da3-e0218af0fb5d","ios":"levelo://app?vid=eda67c80-ce7e-4d04-9da3-e0218af0fb5d"},"vehicle_type_id":"4","last_reported":1744618442,"current_range_meters":21600,"station_id":"ce4bhn12rcd13ifvqgqg","pricing_plan_id":"cebpf4jnsgd1na2vs0mg"},{"bike_id":"42d1de0b-8ab3-460a-9c4e-a1adbfa578cc","system_id":"levelo_inurba_marseille","lat":43.28026,"lon":5.36936,"is_reserved":false,"is_disabled":true,"rental_uris":{"android":"levelo://app?vid=42d1de0b-8ab3-460a-9c4e-a1adbfa578cc","ios":"levelo://app?vid=42d1de0b-8ab3-460a-9c4e-a1adbfa578cc"},"vehicle_type_id":"4","last_reported":1744618442,"current_range_meters":21600,"station_id":"ce4bha12rcd13ifvqef0","pricing_plan_id":"cebpf4jnsgd1na2vs0mg"},{"bike_id":"33f29b75-f4e6-4e71-a299-29a3904a9b72","system_id":"levelo_inurba_marseille","lat":43.34153,"lon":5.40882,"is_reserved":false,"is_disabled":false,"rental_uris":{"android":"levelo://app?vid=33f29b75-f4e6-4e71-a299-29a3904a9b72","ios":"levelo://app?vid=33f29b75-f4e6-4e71-a299-29a3904a9b72"},"vehicle_type_id":"4","last_reported":1744618442,"current_range_meters":21600,"station_id":"ce4bhqh2rcd13ifvqhlg","pricing_plan_id":"cebpf4jnsgd1na2vs0mg"},{"bike_id":"43f58436-ed0c-4ef8-928b-e1986da84aa3","system_id":"levelo_inurba_marseille","lat":43.22928,"lon":5.35382,"is_reserved":false,"is_disabled":false,"rental_uris":{"android":"levelo://app?vid=43f58436-ed0c-4ef8-928b-e1986da84aa3","ios":"levelo://app?vid=43f58436-ed0c-4ef8-928b-e1986da84aa3"},"vehicle_type_id":"4","last_reported":1744618442,"current_range_meters":21600,"station_id":"","pricing_plan_id":"cebpf4jnsgd1na2vs0mg"},{"bike_id":"72247ef4-a859-47da-ade5-e28208b645e8","system_id":"levelo_inurba_marseille","lat":43.26677,"lon":5.38269,"is_reserved":false,"is_disabled":false,"rental_uris":{"android":"levelo://app?vid=72247ef4-a859-47da-ade5-e28208b645e8","ios":"levelo://app?vid=72247ef4-a859-47da-ade5-e28208b645e8"},"vehicle_type_id":"4","last_reported":1744618442,"current_range_meters":21600,"station_id":"ce4bhg92rcd13ifvqf90","pricing_plan_id":"cebpf4jnsgd1na2vs0mg"},{"bike_id":"5cf6443d-70ca-4ec8-b6e1-d64c9c6fb393","system_id":"levelo_inurba_marseille","lat":43.27381,"lon":5.36232,"is_reserved":false,"is_disabled":true,"rental_uris":{"android":"levelo://app?vid=5cf6443d-70ca-4ec8-b6e1-d64c9c6fb393","ios":"levelo://app?vid=5cf6443d-70ca-4ec8-b6e1-d64c9c6fb393"},"vehicle_type_id":"4","last_reported":1744618442,"current_range_meters":21600,"station_id":"ce4bhbh2rcd13ifvqeo0","pricing_plan_id":"cebpf4jnsgd1na2vs0mg"},{"bike_id":"1548b384-3ef5-491f-b064-641a84a1e9d7","system_id":"levelo_inurba_marseille","lat":43.29254,"lon":5.40902,"is_reserved":false,"is_disabled":false,"rental_uris":{"android":"levelo://app?vid=1548b384-3ef5-491f-b064-641a84a1e9d7","ios":"levelo://app?vid=1548b384-3ef5-491f-b064-641a84a1e9d7"},"vehicle_type_id":"4","last_reported":1744618442,"current_range_meters":22000,"station_id":"ce4bh192rcd13ifvqdc0","pricing_plan_id":"cebpf4jnsgd1na2vs0mg"},{"bike_id":"533e9005-f862-45be-8a27-cbe947d944e6","system_id":"levelo_inurba_marseille","lat":43.30282,"lon":5.37694,"is_reserved":false,"is_disabled":false,"rental_uris":{"android":"levelo://app?vid=533e9005-f862-45be-8a27-cbe947d944e6","ios":"levelo://app?vid=533e9005-f862-45be-8a27-cbe947d944e6"},"vehicle_type_id":"4","last_reported":1744618442,"current_range_meters":22000,"station_id":"ce4bguh2rcd13ifvqcj0","pricing_plan_id":"cebpf4jnsgd1na2vs0mg"},{"bike_id":"3fa3e091-442b-4ff9-af82-56cc86052ac6","system_id":"levelo_inurba_marseille","lat":43.29569,"lon":5.39988,"is_reserved":false,"is_disabled":false,"rental_uris":{"android":"levelo://app?vid=3fa3e091-442b-4ff9-af82-56cc86052ac6","ios":"levelo://app?vid=3fa3e091-442b-4ff9-af82-56cc86052ac6"},"vehicle_type_id":"4","last_reported":1744618442,"current_range_meters":21600,"station_id":"ce4bh312rcd13ifvqdj0","pricing_plan_id":"cebpf4jnsgd1na2vs0mg"},{"bike_id":"e2b5c1c3-8a61-4de4-a851-cf768b759e51","system_id":"levelo_inurba_marseille","lat":43.24182,"lon":5.3973,"is_reserved":false,"is_disabled":false,"rental_uris":{"android":"levelo://app?vid=e2b5c1c3-8a61-4de4-a851-cf768b759e51","ios":"levelo://app?vid=e2b5c1c3-8a61-4de4-a851-cf768b759e51"},"vehicle_type_id":"4","last_reported":1744618442,"current_range_meters":22000,"station_id":"ce4bhn12rcd13ifvqgpg","pricing_plan_id":"cebpf4jnsgd1na2vs0mg"},{"bike_id":"6d10f917-b099-49b8-b0a1-7a649f7c6831","system_id":"levelo_inurba_marseille","lat":43.27205,"lon":5.39182,"is_reserved":false,"is_disabled":false,"rental_uris":{"android":"levelo://app?vid=6d10f917-b099-49b8-b0a1-7a649f7c6831","ios":"levelo://app?vid=6d10f917-b099-49b8-b0a1-7a649f7c6831"},"vehicle_type_id":"4","last_reported":1744618442,"current_range_meters":22000,"station_id":"ce4bhhp2rcd13ifvqfm0","pricing_plan_id":"cebpf4jnsgd1na2vs0mg"},{"bike_id":"0dbb8451-6fbf-4474-9639-bd687b68c8c2","system_id":"levelo_inurba_marseille","lat":43.31576,"lon":5.37528,"is_reserved":false,"is_disabled":false,"rental_uris":{"android":"levelo://app?vid=0dbb8451-6fbf-4474-9639-bd687b68c8c2","ios":"levelo://app?vid=0dbb8451-6fbf-4474-9639-bd687b68c8c2"},"vehicle_type_id":"4","last_reported":1744618442,"current_range_meters":22000,"station_id":"","pricing_plan_id":"cebpf4jnsgd1na2vs0mg"},{"bike_id":"6bc645a2-f8dd-40dc-98d1-bfa22ab775c2","system_id":"levelo_inurba_marseille","lat":43.286818,"lon":5.399687,"is_reserved":false,"is_disabled":false,"rental_uris":{"android":"levelo://app?vid=6bc645a2-f8dd-40dc-98d1-bfa22ab775c2","ios":"levelo://app?vid=6bc645a2-f8dd-40dc-98d1-bfa22ab775c2"},"vehicle_type_id":"4","last_reported":1744618442,"current_range_meters":22000,"station_id":"ce4bh3h2rcd13ifvqdo0","pricing_plan_id":"cebpf4jnsgd1na2vs0mg"},{"bike_id":"36c8e20b-456c-4361-b715-596ebc53f83c","system_id":"levelo_inurba_marseille","lat":43.287,"lon":5.39997,"is_reserved":false,"is_disabled":false,"rental_uris":{"android":"levelo://app?vid=36c8e20b-456c-4361-b715-596ebc53f83c","ios":"levelo://app?vid=36c8e20b-456c-4361-b715-596ebc53f83c"},"vehicle_type_id":"4","last_reported":1744618442,"current_range_meters":22000,"station_id":"ce4bho92rcd13ifvqh3g","pricing_plan_id":"cebpf4jnsgd1na2vs0mg"},{"bike_id":"39bd3091-efd6-4ad5-b225-39298ef60665","system_id":"levelo_inurba_marseille","lat":43.30146,"lon":5.38075,"is_reserved":false,"is_disabled":false,"rental_uris":{"android":"levelo://app?vid=39bd3091-efd6-4ad5-b225-39298ef60665","ios":"levelo://app?vid=39bd3091-efd6-4ad5-b225-39298ef60665"},"vehicle_type_id":"4","last_reported":1744618442,"current_range_meters":22000,"station_id":"ce4bgjp2rcd13ifvqbh0","pricing_plan_id":"cebpf4jnsgd1na2vs0mg"},{"bike_id":"f6375cd8-5ddf-4b3f-b398-501a93558e36","system_id":"levelo_inurba_marseille","lat":43.241676,"lon":5.364164,"is_reserved":false,"is_disabled":false,"rental_uris":{"android":"levelo://app?vid=f6375cd8-5ddf-4b3f-b398-501a93558e36","ios":"levelo://app?vid=f6375cd8-5ddf-4b3f-b398-501a93558e36"},"vehicle_type_id":"4","last_reported":1744618442,"current_range_meters":22000,"station_id":"cpo36qri1sfpv3e86is0","pricing_plan_id":"cebpf4jnsgd1na2vs0mg"},{"bike_id":"09e27f96-55e6-42b2-b6b0-c7d769d0be7b","system_id":"levelo_inurba_marseille","lat":43.33609,"lon":5.40998,"is_reserved":false,"is_disabled":true,"rental_uris":{"android":"levelo://app?vid=09e27f96-55e6-42b2-b6b0-c7d769d0be7b","ios":"levelo://app?vid=09e27f96-55e6-42b2-b6b0-c7d769d0be7b"},"vehicle_type_id":"4","last_reported":1744618442,"current_range_meters":22400,"station_id":"ce4bhqh2rcd13ifvqhmg","pricing_plan_id":"cebpf4jnsgd1na2vs0mg"},{"bike_id":"51a2eba3-e24d-40ec-a45e-b0e820953fd3","system_id":"levelo_inurba_marseille","lat":43.31339,"lon":5.3672,"is_reserved":false,"is_disabled":false,"rental_uris":{"android":"levelo://app?vid=51a2eba3-e24d-40ec-a45e-b0e820953fd3","ios":"levelo://app?vid=51a2eba3-e24d-40ec-a45e-b0e820953fd3"},"vehicle_type_id":"4","last_reported":1744618442,"current_range_meters":22400,"station_id":"ce4bgr92rcd13ifvqc6g","pricing_plan_id":"cebpf4jnsgd1na2vs0mg"},{"bike_id":"d647f220-b29b-47ef-aebf-121e9856e163","system_id":"levelo_inurba_marseille","lat":43.24383,"lon":5.37065,"is_reserved":false,"is_disabled":false,"rental_uris":{"android":"levelo://app?vid=d647f220-b29b-47ef-aebf-121e9856e163","ios":"levelo://app?vid=d647f220-b29b-47ef-aebf-121e9856e163"},"vehicle_type_id":"4","last_reported":1744618442,"current_range_meters":22400,"station_id":"ce4bhhh2rcd13ifvqfk0","pricing_plan_id":"cebpf4jnsgd1na2vs0mg"},{"bike_id":"61788b27-74ee-400b-92ea-fa87486fb4d1","system_id":"levelo_inurba_marseille","lat":43.33003,"lon":5.43859,"is_reserved":false,"is_disabled":false,"rental_uris":{"android":"levelo://app?vid=61788b27-74ee-400b-92ea-fa87486fb4d1","ios":"levelo://app?vid=61788b27-74ee-400b-92ea-fa87486fb4d1"},"vehicle_type_id":"4","last_reported":1744618442,"current_range_meters":22800,"station_id":"","pricing_plan_id":"cebpf4jnsgd1na2vs0mg"},{"bike_id":"af5ab954-c354-4d09-af99-452ed1132edc","system_id":"levelo_inurba_marseille","lat":43.26783,"lon":5.39416,"is_reserved":false,"is_disabled":false,"rental_uris":{"android":"levelo://app?vid=af5ab954-c354-4d09-af99-452ed1132edc","ios":"levelo://app?vid=af5ab954-c354-4d09-af99-452ed1132edc"},"vehicle_type_id":"4","last_reported":1744618442,"current_range_meters":22800,"station_id":"ce4bhih2rcd13ifvqfs0","pricing_plan_id":"cebpf4jnsgd1na2vs0mg"},{"bike_id":"4df91fb6-c806-4a27-8f5d-e68bd27c2105","system_id":"levelo_inurba_marseille","lat":43.26678,"lon":5.38268,"is_reserved":false,"is_disabled":false,"rental_uris":{"android":"levelo://app?vid=4df91fb6-c806-4a27-8f5d-e68bd27c2105","ios":"levelo://app?vid=4df91fb6-c806-4a27-8f5d-e68bd27c2105"},"vehicle_type_id":"4","last_reported":1744618442,"current_range_meters":22800,"station_id":"ce4bhg92rcd13ifvqf90","pricing_plan_id":"cebpf4jnsgd1na2vs0mg"},{"bike_id":"1832662d-d84f-402a-881c-e2fd1c31db3d","system_id":"levelo_inurba_marseille","lat":43.29932,"lon":5.413234,"is_reserved":false,"is_disabled":false,"rental_uris":{"android":"levelo://app?vid=1832662d-d84f-402a-881c-e2fd1c31db3d","ios":"levelo://app?vid=1832662d-d84f-402a-881c-e2fd1c31db3d"},"vehicle_type_id":"4","last_reported":1744618442,"current_range_meters":22800,"station_id":"ce4bhp12rcd13ifvqh9g","pricing_plan_id":"cebpf4jnsgd1na2vs0mg"},{"bike_id":"e95986f2-8e4d-4981-b305-ddfb23e0c0b9","system_id":"levelo_inurba_marseille","lat":43.31109,"lon":5.37774,"is_reserved":false,"is_disabled":false,"rental_uris":{"android":"levelo://app?vid=e95986f2-8e4d-4981-b305-ddfb23e0c0b9","ios":"levelo://app?vid=e95986f2-8e4d-4981-b305-ddfb23e0c0b9"},"vehicle_type_id":"4","last_reported":1744618442,"current_range_meters":22400,"station_id":"ce4bgt92rcd13ifvqcg0","pricing_plan_id":"cebpf4jnsgd1na2vs0mg"},{"bike_id":"736e11db-ba9c-448b-98ce-899801ec3fe9","system_id":"levelo_inurba_marseille","lat":43.30103,"lon":5.39062,"is_reserved":false,"is_disabled":false,"rental_uris":{"android":"levelo://app?vid=736e11db-ba9c-448b-98ce-899801ec3fe9","ios":"levelo://app?vid=736e11db-ba9c-448b-98ce-899801ec3fe9"},"vehicle_type_id":"4","last_reported":1744618442,"current_range_meters":22800,"station_id":"ce4bh192rcd13ifvqdb0","pricing_plan_id":"cebpf4jnsgd1na2vs0mg"},{"bike_id":"13cbbd1a-32ff-4c3a-9da5-9c5de663fe7a","system_id":"levelo_inurba_marseille","lat":43.24174,"lon":5.39724,"is_reserved":false,"is_disabled":false,"rental_uris":{"android":"levelo://app?vid=13cbbd1a-32ff-4c3a-9da5-9c5de663fe7a","ios":"levelo://app?vid=13cbbd1a-32ff-4c3a-9da5-9c5de663fe7a"},"vehicle_type_id":"4","last_reported":1744618442,"current_range_meters":22800,"station_id":"ce4bhn12rcd13ifvqgpg","pricing_plan_id":"cebpf4jnsgd1na2vs0mg"},{"bike_id":"f1250c6f-f810-45f3-811a-cd42a6956118","system_id":"levelo_inurba_marseille","lat":43.23157,"lon":5.43724,"is_reserved":false,"is_disabled":false,"rental_uris":{"android":"levelo://app?vid=f1250c6f-f810-45f3-811a-cd42a6956118","ios":"levelo://app?vid=f1250c6f-f810-45f3-811a-cd42a6956118"},"vehicle_type_id":"4","last_reported":1744618442,"current_range_meters":22800,"station_id":"ce4bhmp2rcd13ifvqgog","pricing_plan_id":"cebpf4jnsgd1na2vs0mg"},{"bike_id":"1ac6cae9-5a5f-4765-b8d5-20772275ca89","system_id":"levelo_inurba_marseille","lat":43.2333,"lon":5.36146,"is_reserved":false,"is_disabled":false,"rental_uris":{"android":"levelo://app?vid=1ac6cae9-5a5f-4765-b8d5-20772275ca89","ios":"levelo://app?vid=1ac6cae9-5a5f-4765-b8d5-20772275ca89"},"vehicle_type_id":"4","last_reported":1744618442,"current_range_meters":22800,"station_id":"","pricing_plan_id":"cebpf4jnsgd1na2vs0mg"},{"bike_id":"9a227ae0-9b0b-49dd-8ce6-99a44c30cb7d","system_id":"levelo_inurba_marseille","lat":43.23145,"lon":5.43722,"is_reserved":false,"is_disabled":false,"rental_uris":{"android":"levelo://app?vid=9a227ae0-9b0b-49dd-8ce6-99a44c30cb7d","ios":"levelo://app?vid=9a227ae0-9b0b-49dd-8ce6-99a44c30cb7d"},"vehicle_type_id":"4","last_reported":1744618442,"current_range_meters":22800,"station_id":"ce4bhmp2rcd13ifvqgog","pricing_plan_id":"cebpf4jnsgd1na2vs0mg"},{"bike_id":"97eaab4d-1dff-49ff-86e5-23bd769ff75d","system_id":"levelo_inurba_marseille","lat":43.34136,"lon":5.40911,"is_reserved":false,"is_disabled":false,"rental_uris":{"android":"levelo://app?vid=97eaab4d-1dff-49ff-86e5-23bd769ff75d","ios":"levelo://app?vid=97eaab4d-1dff-49ff-86e5-23bd769ff75d"},"vehicle_type_id":"4","last_reported":1744618442,"current_range_meters":22800,"station_id":"ce4bhqh2rcd13ifvqhlg","pricing_plan_id":"cebpf4jnsgd1na2vs0mg"},{"bike_id":"536fca80-7460-47b0-b6c6-8fb9f442dbaf","system_id":"levelo_inurba_marseille","lat":43.27489,"lon":5.42469,"is_reserved":false,"is_disabled":false,"rental_uris":{"android":"levelo://app?vid=536fca80-7460-47b0-b6c6-8fb9f442dbaf","ios":"levelo://app?vid=536fca80-7460-47b0-b6c6-8fb9f442dbaf"},"vehicle_type_id":"4","last_reported":1744618442,"current_range_meters":22800,"station_id":"ce4bhn92rcd13ifvqgrg","pricing_plan_id":"cebpf4jnsgd1na2vs0mg"},{"bike_id":"05664e36-336b-404a-b8de-2ca42d4238f0","system_id":"levelo_inurba_marseille","lat":43.25003,"lon":5.38191,"is_reserved":false,"is_disabled":false,"rental_uris":{"android":"levelo://app?vid=05664e36-336b-404a-b8de-2ca42d4238f0","ios":"levelo://app?vid=05664e36-336b-404a-b8de-2ca42d4238f0"},"vehicle_type_id":"4","last_reported":1744618442,"current_range_meters":22800,"station_id":"","pricing_plan_id":"cebpf4jnsgd1na2vs0mg"},{"bike_id":"2322fbbd-cbe6-4c55-80dd-aa7a8b44b249","system_id":"levelo_inurba_marseille","lat":43.33606,"lon":5.41031,"is_reserved":false,"is_disabled":false,"rental_uris":{"android":"levelo://app?vid=2322fbbd-cbe6-4c55-80dd-aa7a8b44b249","ios":"levelo://app?vid=2322fbbd-cbe6-4c55-80dd-aa7a8b44b249"},"vehicle_type_id":"4","last_reported":1744618442,"current_range_meters":23200,"station_id":"ce4bhqh2rcd13ifvqhmg","pricing_plan_id":"cebpf4jnsgd1na2vs0mg"},{"bike_id":"d2cf8cf2-ea7f-40b8-805a-eaf1f08465a3","system_id":"levelo_inurba_marseille","lat":43.25727,"lon":5.41108,"is_reserved":false,"is_disabled":false,"rental_uris":{"android":"levelo://app?vid=d2cf8cf2-ea7f-40b8-805a-eaf1f08465a3","ios":"levelo://app?vid=d2cf8cf2-ea7f-40b8-805a-eaf1f08465a3"},"vehicle_type_id":"4","last_reported":1744618442,"current_range_meters":23200,"station_id":"ce4bhkp2rcd13ifvqgd0","pricing_plan_id":"cebpf4jnsgd1na2vs0mg"},{"bike_id":"179d17f4-c0ae-47d4-b7bd-03b731a7bce0","system_id":"levelo_inurba_marseille","lat":43.30319,"lon":5.36909,"is_reserved":false,"is_disabled":false,"rental_uris":{"android":"levelo://app?vid=179d17f4-c0ae-47d4-b7bd-03b731a7bce0","ios":"levelo://app?vid=179d17f4-c0ae-47d4-b7bd-03b731a7bce0"},"vehicle_type_id":"4","last_reported":1744618442,"current_range_meters":23200,"station_id":"ce4bgqh2rcd13ifvqc5g","pricing_plan_id":"cebpf4jnsgd1na2vs0mg"},{"bike_id":"b9b9cb0f-24a9-48bc-9739-e399c6cc37ab","system_id":"levelo_inurba_marseille","lat":43.303319,"lon":5.404306,"is_reserved":false,"is_disabled":false,"rental_uris":{"android":"levelo://app?vid=b9b9cb0f-24a9-48bc-9739-e399c6cc37ab","ios":"levelo://app?vid=b9b9cb0f-24a9-48bc-9739-e399c6cc37ab"},"vehicle_type_id":"4","last_reported":1744618442,"current_range_meters":23200,"station_id":"ce4bgjp2rcd13ifvqbh0","pricing_plan_id":"cebpf4jnsgd1na2vs0mg"},{"bike_id":"71c171f8-07c1-44b1-bb38-c4d98375486e","system_id":"levelo_inurba_marseille","lat":43.2854,"lon":5.383555,"is_reserved":false,"is_disabled":false,"rental_uris":{"android":"levelo://app?vid=71c171f8-07c1-44b1-bb38-c4d98375486e","ios":"levelo://app?vid=71c171f8-07c1-44b1-bb38-c4d98375486e"},