{"last_updated":1747048114,"ttl":60,"version":"2.2","data":{"bikes":[{"bike_id":"c0b9fd4f-e181-46ce-b0bf-f5119973334f","system_id":"levelo_inurba_marseille","lat":43.33771,"lon":5.37424,"is_reserved":false,"is_disabled":false,"rental_uris":{"android":"levelo://app?vid=c0b9fd4f-e181-46ce-b0bf-f5119973334f","ios":"levelo://app?vid=c0b9fd4f-e181-46ce-b0bf-f5119973334f"},"vehicle_type_id":"4","last_reported":1747048114,"current_range_meters":28400,"station_id":"","pricing_plan_id":"cebpf4jnsgd1na2vs0mg"},{"bike_id":"229001d2-7627-43e0-aeea-2d75580fd339","system_id":"levelo_inurba_marseille","lat":43.28305,"lon":5.43224,"is_reserved":false,"is_disabled":true,"rental_uris":{"android":"levelo://app?vid=229001d2-7627-43e0-aeea-2d75580fd339","ios":"levelo://app?vid=229001d2-7627-43e0-aeea-2d75580fd339"},"vehicle_type_id":"4","last_reported":1747048114,"current_range_meters":0,"station_id":"","pricing_plan_id":"cebpf4jnsgd1na2vs0mg"},{"bike_id":"a72028ca-425b-4f2c-9e2d-16be28a01f65","system_id":"levelo_inurba_marseille","lat":43.26034,"lon":5.41737,"is_reserved":false,"is_disabled":true,"rental_uris":{"android":"levelo://app?vid=a72028ca-425b-4f2c-9e2d-16be28a01f65","ios":"levelo://app?vid=a72028ca-425b-4f2c-9e2d-16be28a01f65"},"vehicle_type_id":"4","last_reported":1747048114,"current_range_meters":0,"station_id":"","pricing_plan_id":"cebpf4jnsgd1na2vs0mg"},{"bike_id":"dc78c6c0-8d68-4bb6-90ee-4740ead97ab1","system_id":"levelo_inurba_marseille","lat":43.29157,"lon":5.40505,"is_reserved":false,"is_disabled":true,"rental_uris":{"android":"levelo://app?vid=dc78c6c0-8d68-4bb6-90ee-4740ead97ab1","ios":"levelo://app?vid=dc78c6c0-8d68-4bb6-90ee-4740ead97ab1"},"vehicle_type_id":"4","last_reported":1747048114,"current_range_meters":0,"station_id":"","pricing_plan_id":"cebpf4jnsgd1na2vs0mg"},{"bike_id":"ea1194a0-6ab6-49c0-b9a3-cf4c83eba652","system_id":"levelo_inurba_marseille","lat":43.28242,"lon":5.40273,"is_reserved":false,"is_disabled":true,"rental_uris":{"android":"levelo://app?vid=ea1194a0-6ab6-49c0-b9a3-cf4c83eba652","ios":"levelo://app?vid=ea1194a0-6ab6-49c0-b9a3-cf4c83eba652"},"vehicle_type_id":"4","last_reported":1747048114,"current_range_meters":0,"station_id":"","pricing_plan_id":"cebpf4jnsgd1na2vs0mg"},{"bike_id":"96a51466-99c1-40c3-984f-df8f7abd3f29","system_id":"levelo_inurba_marseille","lat":43.31681,"lon":5.40481,"is_reserved":false,"is_disabled":true,"rental_uris":{"android":"levelo://app?vid=96a51466-99c1-40c3-984f-df8f7abd3f29","ios":"levelo://app?vid=96a51466-99c1-40c3-984f-df8f7abd3f29"},"vehicle_type_id":"4","last_reported":1747048114,"current_range_meters":0,"station_id":"ce4bh012rcd13ifvqd00","pricing_plan_id":"cebpf4jnsgd1na2vs0mg"},{"bike_id":"05279909-e68d-4cd8-814f-2ac1b409a308","system_id":"levelo_inurba_marseille","lat":43.306133,"lon":5.393523,"is_reserved":false,"is_disabled":true,"rental_uris":{"android":"levelo://app?vid=05279909-e68d-4cd8-814f-2ac1b409a308","ios":"levelo://app?vid=05279909-e68d-4cd8-814f-2ac1b409a308"},"vehicle_type_id":"4","last_reported":1747048114,"current_range_meters":0,"station_id":"ce4bh0p2rcd13ifvqd80","pricing_plan_id":"cebpf4jnsgd1na2vs0mg"},{"bike_id":"53caee56-87e7-4fde-afac-35a9066385f0","system_id":"levelo_inurba_marseille","lat":43.29419,"lon":5.38618,"is_reserved":false,"is_disabled":true,"rental_uris":{"android":"levelo://app?vid=53caee56-87e7-4fde-afac-35a9066385f0","ios":"levelo://app?vid=53caee56-87e7-4fde-afac-35a9066385f0"},"vehicle_type_id":"4","last_reported":1747048114,"current_range_meters":0,"station_id":"ce4bh2h2rcd13ifvqdh0","pricing_plan_id":"cebpf4jnsgd1na2vs0mg"},{"bike_id":"7da5e3f0-d7c1-4afe-9138-7aa48ce12736","system_id":"levelo_inurba_marseille","lat":43.29036,"lon":5.37564,"is_reserved":false,"is_disabled":true,"rental_uris":{"android":"levelo://app?vid=7da5e3f0-d7c1-4afe-9138-7aa48ce12736","ios":"levelo://app?vid=7da5e3f0-d7c1-4afe-9138-7aa48ce12736"},"vehicle_type_id":"4","last_reported":1747048114,"current_range_meters":0,"station_id":"ce4bh692rcd13ifvqe90","pricing_plan_id":"cebpf4jnsgd1na2vs0mg"},{"bike_id":"164e5589-49f3-422b-bbf6-15fcbae44a99","system_id":"levelo_inurba_marseille","lat":43.2621,"lon":5.37451,"is_reserved":false,"is_disabled":true,"rental_uris":{"android":"levelo://app?vid=164e5589-49f3-422b-bbf6-15fcbae44a99","ios":"levelo://app?vid=164e5589-49f3-422b-bbf6-15fcbae44a99"},"vehicle_type_id":"4","last_reported":1747048114,"current_range_meters":0,"station_id":"ce4bhgp2rcd13ifvqfc0","pricing_plan_id":"cebpf4jnsgd1na2vs0mg"},{"bike_id":"3a78414a-8458-41d5-8727-b7404df968a4","system_id":"levelo_inurba_marseille","lat":43.2708,"lon":5.42266,"is_reserved":false,"is_disabled":true,"rental_uris":{"android":"levelo://app?vid=3a78414a-8458-41d5-8727-b7404df968a4","ios":"levelo://app?vid=3a78414a-8458-41d5-8727-b7404df968a4"},"vehicle_type_id":"4","last_reported":1747048114,"current_range_meters":0,"station_id":"ce4bhk92rcd13ifvqgb0","pricing_plan_id":"cebpf4jnsgd1na2vs0mg"},{"bike_id":"9fe5c879-53b0-46d0-9dc0-cff339633ce2","system_id":"levelo_inurba_marseille","lat":43.21747,"lon":5.34604,"is_reserved":false,"is_disabled":true,"rental_uris":{"android":"levelo://app?vid=9fe5c879-53b0-46d0-9dc0-cff339633ce2","ios":"levelo://app?vid=9fe5c879-53b0-46d0-9dc0-cff339633ce2"},"vehicle_type_id":"4","last_reported":1747048114,"current_range_meters":0,"station_id":"st_cvj6r9ubvosntc0bgbag","pricing_plan_id":"cebpf4jnsgd1na2vs0mg"},{"bike_id":"828418bc-b6f3-4668-865d-c3a8b014b129","system_id":"levelo_inurba_marseille","lat":43.28314,"lon":5.43214,"is_reserved":false,"is_disabled":true,"rental_uris":{"android":"levelo://app?vid=828418bc-b6f3-4668-865d-c3a8b014b129","ios":"levelo://app?vid=828418bc-b6f3-4668-865d-c3a8b014b129"},"vehicle_type_id":"4","last_reported":1747048114,"current_range_meters":400,"station_id":"","pricing_plan_id":"cebpf4jnsgd1na2vs0mg"},{"bike_id":"0e288623-7488-4709-b0e7-a69dba42a45f","system_id":"levelo_inurba_marseille","lat":43.30794,"lon":5.37642,"is_reserved":false,"is_disabled":true,"rental_uris":{"android":"levelo://app?vid=0e288623-7488-4709-b0e7-a69dba42a45f","ios":"levelo://app?vid=0e288623-7488-4709-b0e7-a69dba42a45f"},"vehicle_type_id":"4","last_reported":1747048114,"current_range_meters":400,"station_id":"ce4bgv92rcd13ifvqcq0","pricing_plan_id":"cebpf4jnsgd1na2vs0mg"},{"bike_id":"6b79d119-47bd-4b08-82d0-fdc201096455","system_id":"levelo_inurba_marseille","lat":43.23153,"lon":5.43711,"is_reserved":false,"is_disabled":true,"rental_uris":{"android":"levelo://app?vid=6b79d119-47bd-4b08-82d0-fdc201096455","ios":"levelo://app?vid=6b79d119-47bd-4b08-82d0-fdc201096455"},"vehicle_type_id":"4","last_reported":1747048114,"current_range_meters":1200,"station_id":"ce4bhmp2rcd13ifvqgog","pricing_plan_id":"cebpf4jnsgd1na2vs0mg"},{"bike_id":"b023b7a4-3f17-4653-9eab-63eac69a50fe","system_id":"levelo_inurba_marseille","lat":43.21193,"lon":5.35073,"is_reserved":false,"is_disabled":true,"rental_uris":{"android":"levelo://app?vid=b023b7a4-3f17-4653-9eab-63eac69a50fe","ios":"levelo://app?vid=b023b7a4-3f17-4653-9eab-63eac69a50fe"},"vehicle_type_id":"4","last_reported":1747048114,"current_range_meters":1600,"station_id":"st_cvj6sg6p6f1abm77japg","pricing_plan_id":"cebpf4jnsgd1na2vs0mg"},{"bike_id":"7885622c-baa3-4c84-b345-e7bda15b093f","system_id":"levelo_inurba_marseille","lat":43.30433,"lon":5.38888,"is_reserved":false,"is_disabled":true,"rental_uris":{"android":"levelo://app?vid=7885622c-baa3-4c84-b345-e7bda15b093f","ios":"levelo://app?vid=7885622c-baa3-4c84-b345-e7bda15b093f"},"vehicle_type_id":"4","last_reported":1747048114,"current_range_meters":2000,"station_id":"ce4bgk12rcd13ifvqbi0","pricing_plan_id":"cebpf4jnsgd1na2vs0mg"},{"bike_id":"d5bd71f5-dc5c-429e-964f-1bdd49c1bb86","system_id":"levelo_inurba_marseille","lat":43.31686,"lon":5.377685,"is_reserved":false,"is_disabled":true,"rental_uris":{"android":"levelo://app?vid=d5bd71f5-dc5c-429e-964f-1bdd49c1bb86","ios":"levelo://app?vid=d5bd71f5-dc5c-429e-964f-1bdd49c1bb86"},"vehicle_type_id":"4","last_reported":1747048114,"current_range_meters":2000,"station_id":"ce4bgth2rcd13ifvqch0","pricing_plan_id":"cebpf4jnsgd1na2vs0mg"},{"bike_id":"87232965-4281-4ddf-ad30-e8d65d8ad090","system_id":"levelo_inurba_marseille","lat":43.27069,"lon":5.4228,"is_reserved":false,"is_disabled":true,"rental_uris":{"android":"levelo://app?vid=87232965-4281-4ddf-ad30-e8d65d8ad090","ios":"levelo://app?vid=87232965-4281-4ddf-ad30-e8d65d8ad090"},"vehicle_type_id":"4","last_reported":1747048114,"current_range_meters":2000,"station_id":"ce4bhk92rcd13ifvqgb0","pricing_plan_id":"cebpf4jnsgd1na2vs0mg"},{"bike_id":"b96e4101-34bc-4cf7-9bf4-f8e31aaa2b15","system_id":"levelo_inurba_marseille","lat":43.28138,"lon":5.3859,"is_reserved":false,"is_disabled":false,"rental_uris":{"android":"levelo://app?vid=b96e4101-34bc-4cf7-9bf4-f8e31aaa2b15","ios":"levelo://app?vid=b96e4101-34bc-4cf7-9bf4-f8e31aaa2b15"},"vehicle_type_id":"4","last_reported":1747048114,"current_range_meters":2800,"station_id":"","pricing_plan_id":"cebpf4jnsgd1na2vs0mg"},{"bike_id":"64ef0b0d-e244-4237-b01d-40547632bb6f","system_id":"levelo_inurba_marseille","lat":43.27057,"lon":5.40271,"is_reserved":false,"is_disabled":false,"rental_uris":{"android":"levelo://app?vid=64ef0b0d-e244-4237-b01d-40547632bb6f","ios":"levelo://app?vid=64ef0b0d-e244-4237-b01d-40547632bb6f"},"vehicle_type_id":"4","last_reported":1747048114,"current_range_meters":2800,"station_id":"ce4bhk92rcd13ifvqgc0","pricing_plan_id":"cebpf4jnsgd1na2vs0mg"},{"bike_id":"524afad1-1b84-4e36-b5c2-b5628eeb9711","system_id":"levelo_inurba_marseille","lat":43.23152,"lon":5.43703,"is_reserved":false,"is_disabled":false,"rental_uris":{"android":"levelo://app?vid=524afad1-1b84-4e36-b5c2-b5628eeb9711","ios":"levelo://app?vid=524afad1-1b84-4e36-b5c2-b5628eeb9711"},"vehicle_type_id":"4","last_reported":1747048114,"current_range_meters":3200,"station_id":"ce4bhmp2rcd13ifvqgog","pricing_plan_id":"cebpf4jnsgd1na2vs0mg"},{"bike_id":"85384452-5bae-4bcb-adf6-50fc2afdc3b2","system_id":"levelo_inurba_marseille","lat":43.27991,"lon":5.41654,"is_reserved":false,"is_disabled":false,"rental_uris":{"android":"levelo://app?vid=85384452-5bae-4bcb-adf6-50fc2afdc3b2","ios":"levelo://app?vid=85384452-5bae-4bcb-adf6-50fc2afdc3b2"},"vehicle_type_id":"4","last_reported":1747048114,"current_range_meters":3200,"station_id":"ce4bho12rcd13ifvqh1g","pricing_plan_id":"cebpf4jnsgd1na2vs0mg"},{"bike_id":"05590690-5a7c-4f74-b3fe-0d851a34d7dc","system_id":"levelo_inurba_marseille","lat":43.2417,"lon":5.364,"is_reserved":false,"is_disabled":false,"rental_uris":{"android":"levelo://app?vid=05590690-5a7c-4f74-b3fe-0d851a34d7dc","ios":"levelo://app?vid=05590690-5a7c-4f74-b3fe-0d851a34d7dc"},"vehicle_type_id":"4","last_reported":1747048114,"current_range_meters":3200,"station_id":"cpo36qri1sfpv3e86is0","pricing_plan_id":"cebpf4jnsgd1na2vs0mg"},{"bike_id":"6c256801-6924-4381-9cc7-cf05e19b7d7b","system_id":"levelo_inurba_marseille","lat":43.21751,"lon":5.34602,"is_reserved":false,"is_disabled":false,"rental_uris":{"android":"levelo://app?vid=6c256801-6924-4381-9cc7-cf05e19b7d7b","ios":"levelo://app?vid=6c256801-6924-4381-9cc7-cf05e19b7d7b"},"vehicle_type_id":"4","last_reported":1747048114,"current_range_meters":3200,"station_id":"st_cvj6r9ubvosntc0bgbag","pricing_plan_id":"cebpf4jnsgd1na2vs0mg"},{"bike_id":"d91edf0f-7863-4981-ba85-032e7a35a547","system_id":"levelo_inurba_marseille","lat":43.23968,"lon":5.36632,"is_reserved":false,"is_disabled":true,"rental_uris":{"android":"levelo://app?vid=d91edf0f-7863-4981-ba85-032e7a35a547","ios":"levelo://app?vid=d91edf0f-7863-4981-ba85-032e7a35a547"},"vehicle_type_id":"4","last_reported":1747048114,"current_range_meters":4000,"station_id":"ce4bhi12rcd13ifvqfp0","pricing_plan_id":"cebpf4jnsgd1na2vs0mg"},{"bike_id":"33e3cc72-21d9-4bed-bbc6-ae79022148da","system_id":"levelo_inurba_marseille","lat":43.28269,"lon":5.35062,"is_reserved":false,"is_disabled":false,"rental_uris":{"android":"levelo://app?vid=33e3cc72-21d9-4bed-bbc6-ae79022148da","ios":"levelo://app?vid=33e3cc72-21d9-4bed-bbc6-ae79022148da"},"vehicle_type_id":"4","last_reported":1747048114,"current_range_meters":4400,"station_id":"ce4bhbp2rcd13ifvqerg","pricing_plan_id":"cebpf4jnsgd1na2vs0mg"},{"bike_id":"2f50b8d1-9b93-47d7-8d25-889ccdb3aef1","system_id":"levelo_inurba_marseille","lat":43.24086,"lon":5.3775,"is_reserved":false,"is_disabled":false,"rental_uris":{"android":"levelo://app?vid=2f50b8d1-9b93-47d7-8d25-889ccdb3aef1","ios":"levelo://app?vid=2f50b8d1-9b93-47d7-8d25-889ccdb3aef1"},"vehicle_type_id":"4","last_reported":1747048114,"current_range_meters":4400,"station_id":"ce4bhnp2rcd13ifvqgvg","pricing_plan_id":"cebpf4jnsgd1na2vs0mg"},{"bike_id":"d217f8c9-a474-406f-9897-9699bf547f4c","system_id":"levelo_inurba_marseille","lat":43.297976,"lon":5.381065,"is_reserved":false,"is_disabled":false,"rental_uris":{"android":"levelo://app?vid=d217f8c9-a474-406f-9897-9699bf547f4c","ios":"levelo://app?vid=d217f8c9-a474-406f-9897-9699bf547f4c"},"vehicle_type_id":"4","last_reported":1747048114,"current_range_meters":5600,"station_id":"ce4bgip2rcd13ifvqbb0","pricing_plan_id":"cebpf4jnsgd1na2vs0mg"},{"bike_id":"74227653-e30a-4f2d-b11d-feb6102eac12","system_id":"levelo_inurba_marseille","lat":43.29226,"lon":5.3606,"is_reserved":false,"is_disabled":false,"rental_uris":{"android":"levelo://app?vid=74227653-e30a-4f2d-b11d-feb6102eac12","ios":"levelo://app?vid=74227653-e30a-4f2d-b11d-feb6102eac12"},"vehicle_type_id":"4","last_reported":1747048114,"current_range_meters":5600,"station_id":"ce4bhbh2rcd13ifvqeqg","pricing_plan_id":"cebpf4jnsgd1na2vs0mg"},{"bike_id":"8fcecb2c-9448-4339-9a6a-19f79482cffb","system_id":"levelo_inurba_marseille","lat":43.24079,"lon":5.37745,"is_reserved":false,"is_disabled":false,"rental_uris":{"android":"levelo://app?vid=8fcecb2c-9448-4339-9a6a-19f79482cffb","ios":"levelo://app?vid=8fcecb2c-9448-4339-9a6a-19f79482cffb"},"vehicle_type_id":"4","last_reported":1747048114,"current_range_meters":5600,"station_id":"ce4bhnp2rcd13ifvqgvg","pricing_plan_id":"cebpf4jnsgd1na2vs0mg"},{"bike_id":"fc2577e7-1497-425b-9d4f-ab8d7dc843c6","system_id":"levelo_inurba_marseille","lat":43.33771,"lon":5.37485,"is_reserved":false,"is_disabled":false,"rental_uris":{"android":"levelo://app?vid=fc2577e7-1497-425b-9d4f-ab8d7dc843c6","ios":"levelo://app?vid=fc2577e7-1497-425b-9d4f-ab8d7dc843c6"},"vehicle_type_id":"4","last_reported":1747048114,"current_range_meters":6000,"station_id":"","pricing_plan_id":"cebpf4jnsgd1na2vs0mg"},{"bike_id":"f20c52a0-392f-425a-8e6b-a26eca6a8c91","system_id":"levelo_inurba_marseille","lat":43.30134,"lon":5.39874,"is_reserved":false,"is_disabled":false,"rental_uris":{"android":"levelo://app?vid=f20c52a0-392f-425a-8e6b-a26eca6a8c91","ios":"levelo://app?vid=f20c52a0-392f-425a-8e6b-a26eca6a8c91"},"vehicle_type_id":"4","last_reported":1747048114,"current_range_meters":6000,"station_id":"ce4bh0h2rcd13ifvqd40","pricing_plan_id":"cebpf4jnsgd1na2vs0mg"},{"bike_id":"1a60297d-a878-4c66-a8bc-42e316b17252","system_id":"levelo_inurba_marseille","lat":43.3254,"lon":5.41428,"is_reserved":false,"is_disabled":false,"rental_uris":{"android":"levelo://app?vid=1a60297d-a878-4c66-a8bc-42e316b17252","ios":"levelo://app?vid=1a60297d-a878-4c66-a8bc-42e316b17252"},"vehicle_type_id":"4","last_reported":1747048114,"current_range_meters":6000,"station_id":"ce4bhq12rcd13ifvqhhg","pricing_plan_id":"cebpf4jnsgd1na2vs0mg"},{"bike_id":"5f1c0edc-1970-426d-a65a-2e763fe35adb","system_id":"levelo_inurba_marseille","lat":43.30883,"lon":5.39656,"is_reserved":false,"is_disabled":false,"rental_uris":{"android":"levelo://app?vid=5f1c0edc-1970-426d-a65a-2e763fe35adb","ios":"levelo://app?vid=5f1c0edc-1970-426d-a65a-2e763fe35adb"},"vehicle_type_id":"4","last_reported":1747048114,"current_range_meters":6800,"station_id":"ce4bh012rcd13ifvqcv0","pricing_plan_id":"cebpf4jnsgd1na2vs0mg"},{"bike_id":"5e99a29c-054d-4d9e-966b-023fd81d0e06","system_id":"levelo_inurba_marseille","lat":43.28853,"lon":5.39318,"is_reserved":false,"is_disabled":false,"rental_uris":{"android":"levelo://app?vid=5e99a29c-054d-4d9e-966b-023fd81d0e06","ios":"levelo://app?vid=5e99a29c-054d-4d9e-966b-023fd81d0e06"},"vehicle_type_id":"4","last_reported":1747048114,"current_range_meters":6800,"station_id":"ce4bh2p2rcd13ifvqdi0","pricing_plan_id":"cebpf4jnsgd1na2vs0mg"},{"bike_id":"cfc17815-86ee-444c-a14e-53c91e445963","system_id":"levelo_inurba_marseille","lat":43.26221,"lon":5.40454,"is_reserved":false,"is_disabled":false,"rental_uris":{"android":"levelo://app?vid=cfc17815-86ee-444c-a14e-53c91e445963","ios":"levelo://app?vid=cfc17815-86ee-444c-a14e-53c91e445963"},"vehicle_type_id":"4","last_reported":1747048114,"current_range_meters":6800,"station_id":"ce4bhmh2rcd13ifvqgmg","pricing_plan_id":"cebpf4jnsgd1na2vs0mg"},{"bike_id":"a709c096-19a6-423a-ad85-f5169b2557a1","system_id":"levelo_inurba_marseille","lat":43.270779,"lon":5.422854,"is_reserved":false,"is_disabled":false,"rental_uris":{"android":"levelo://app?vid=a709c096-19a6-423a-ad85-f5169b2557a1","ios":"levelo://app?vid=a709c096-19a6-423a-ad85-f5169b2557a1"},"vehicle_type_id":"4","last_reported":1747048114,"current_range_meters":7200,"station_id":"ce4bhk92rcd13ifvqgb0","pricing_plan_id":"cebpf4jnsgd1na2vs0mg"},{"bike_id":"77b9888c-721d-4253-8bb4-90b72b505213","system_id":"levelo_inurba_marseille","lat":43.27504,"lon":5.42452,"is_reserved":false,"is_disabled":false,"rental_uris":{"android":"levelo://app?vid=77b9888c-721d-4253-8bb4-90b72b505213","ios":"levelo://app?vid=77b9888c-721d-4253-8bb4-90b72b505213"},"vehicle_type_id":"4","last_reported":1747048114,"current_range_meters":7200,"station_id":"ce4bhn92rcd13ifvqgrg","pricing_plan_id":"cebpf4jnsgd1na2vs0mg"},{"bike_id":"b9dcc1d1-f51b-4c46-850e-5c60c8b7f5e6","system_id":"levelo_inurba_marseille","lat":43.32337,"lon":5.36751,"is_reserved":false,"is_disabled":false,"rental_uris":{"android":"levelo://app?vid=b9dcc1d1-f51b-4c46-850e-5c60c8b7f5e6","ios":"levelo://app?vid=b9dcc1d1-f51b-4c46-850e-5c60c8b7f5e6"},"vehicle_type_id":"4","last_reported":1747048114,"current_range_meters":7200,"station_id":"ce4bhsh2rcd13ifvqi2g","pricing_plan_id":"cebpf4jnsgd1na2vs0mg"},{"bike_id":"09667552-604c-472f-b05c-2be0e1fd2bf4","system_id":"levelo_inurba_marseille","lat":43.28024,"lon":5.36942,"is_reserved":false,"is_disabled":false,"rental_uris":{"android":"levelo://app?vid=09667552-604c-472f-b05c-2be0e1fd2bf4","ios":"levelo://app?vid=09667552-604c-472f-b05c-2be0e1fd2bf4"},"vehicle_type_id":"4","last_reported":1747048114,"current_range_meters":8000,"station_id":"ce4bha12rcd13ifvqef0","pricing_plan_id":"cebpf4jnsgd1na2vs0mg"},{"bike_id":"4b460be1-c693-4bb9-911d-ee0bb3e597f1","system_id":"levelo_inurba_marseille","lat":43.324863,"lon":5.365721,"is_reserved":false,"is_disabled":false,"rental_uris":{"android":"levelo://app?vid=4b460be1-c693-4bb9-911d-ee0bb3e597f1","ios":"levelo://app?vid=4b460be1-c693-4bb9-911d-ee0bb3e597f1"},"vehicle_type_id":"4","last_reported":1747048114,"current_range_meters":8000,"station_id":"ce4bhs12rcd13ifvqhvg","pricing_plan_id":"cebpf4jnsgd1na2vs0mg"},{"bike_id":"1926bee1-a15b-49b3-8b0b-41a7c297fe4d","system_id":"levelo_inurba_marseille","lat":43.32483,"lon":5.36567,"is_reserved":false,"is_disabled":false,"rental_uris":{"android":"levelo://app?vid=1926bee1-a15b-49b3-8b0b-41a7c297fe4d","ios":"levelo://app?vid=1926bee1-a15b-49b3-8b0b-41a7c297fe4d"},"vehicle_type_id":"4","last_reported":1747048114,"current_range_meters":8000,"station_id":"ce4bhs12rcd13ifvqhvg","pricing_plan_id":"cebpf4jnsgd1na2vs0mg"},{"bike_id":"d4a244c8-5e49-4acd-a52c-ddb7824d755a","system_id":"levelo_inurba_marseille","lat":43.29625,"lon":5.37718,"is_reserved":false,"is_disabled":false,"rental_uris":{"android":"levelo://app?vid=d4a244c8-5e49-4acd-a52c-ddb7824d755a","ios":"levelo://app?vid=d4a244c8-5e49-4acd-a52c-ddb7824d755a"},"vehicle_type_id":"4","last_reported":1747048114,"current_range_meters":8400,"station_id":"ce4bgi92rcd13ifvqb90","pricing_plan_id":"cebpf4jnsgd1na2vs0mg"},{"bike_id":"7532ed89-efdf-4701-9881-8032089c2a59","system_id":"levelo_inurba_marseille","lat":43.29707,"lon":5.36609,"is_reserved":false,"is_disabled":false,"rental_uris":{"android":"levelo://app?vid=7532ed89-efdf-4701-9881-8032089c2a59","ios":"levelo://app?vid=7532ed89-efdf-4701-9881-8032089c2a59"},"vehicle_type_id":"4","last_reported":1747048114,"current_range_meters":8400,"station_id":"ce4bgn12rcd13ifvqbt0","pricing_plan_id":"cebpf4jnsgd1na2vs0mg"},{"bike_id":"5f841ad5-6a4c-4308-ad71-f253d7060cd8","system_id":"levelo_inurba_marseille","lat":43.23151,"lon":5.43721,"is_reserved":false,"is_disabled":false,"rental_uris":{"android":"levelo://app?vid=5f841ad5-6a4c-4308-ad71-f253d7060cd8","ios":"levelo://app?vid=5f841ad5-6a4c-4308-ad71-f253d7060cd8"},"vehicle_type_id":"4","last_reported":1747048114,"current_range_meters":8400,"station_id":"ce4bhmp2rcd13ifvqgog","pricing_plan_id":"cebpf4jnsgd1na2vs0mg"},{"bike_id":"4f5dc0a9-a046-41f0-a35d-a4518bbc409f","system_id":"levelo_inurba_marseille","lat":43.24077,"lon":5.37756,"is_reserved":false,"is_disabled":false,"rental_uris":{"android":"levelo://app?vid=4f5dc0a9-a046-41f0-a35d-a4518bbc409f","ios":"levelo://app?vid=4f5dc0a9-a046-41f0-a35d-a4518bbc409f"},"vehicle_type_id":"4","last_reported":1747048114,"current_range_meters":8400,"station_id":"ce4bhnp2rcd13ifvqgvg","pricing_plan_id":"cebpf4jnsgd1na2vs0mg"},{"bike_id":"e0372e11-e2d7-499e-bc01-d37180083c7d","system_id":"levelo_inurba_marseille","lat":43.32358,"lon":5.36749,"is_reserved":false,"is_disabled":false,"rental_uris":{"android":"levelo://app?vid=e0372e11-e2d7-499e-bc01-d37180083c7d","ios":"levelo://app?vid=e0372e11-e2d7-499e-bc01-d37180083c7d"},"vehicle_type_id":"4","last_reported":1747048114,"current_range_meters":8400,"station_id":"ce4bhsh2rcd13ifvqi2g","pricing_plan_id":"cebpf4jnsgd1na2vs0mg"},{"bike_id":"e66241ba-8c46-4d47-9172-29d4c5225ebe","system_id":"levelo_inurba_marseille","lat":43.24084,"lon":5.37795,"is_reserved":false,"is_disabled":false,"rental_uris":{"android":"levelo://app?vid=e66241ba-8c46-4d47-9172-29d4c5225ebe","ios":"levelo://app?vid=e66241ba-8c46-4d47-9172-29d4c5225ebe"},"vehicle_type_id":"4","last_reported":1747048114,"current_range_meters":8800,"station_id":"ce4bhnp2rcd13ifvqgvg","pricing_plan_id":"cebpf4jnsgd1na2vs0mg"},{"bike_id":"3bb017b7-d70f-4c7f-8d5f-932fa83d36d9","system_id":"levelo_inurba_marseille","lat":43.32539,"lon":5.41437,"is_reserved":false,"is_disabled":false,"rental_uris":{"android":"levelo://app?vid=3bb017b7-d70f-4c7f-8d5f-932fa83d36d9","ios":"levelo://app?vid=3bb017b7-d70f-4c7f-8d5f-932fa83d36d9"},"vehicle_type_id":"4","last_reported":1747048114,"current_range_meters":8800,"station_id":"ce4bhq12rcd13ifvqhhg","pricing_plan_id":"cebpf4jnsgd1na2vs0mg"},{"bike_id":"ca7e1fb6-98a3-460d-8b38-e65043404619","system_id":"levelo_inurba_marseille","lat":43.29887,"lon":5.38906,"is_reserved":false,"is_disabled":false,"rental_uris":{"android":"levelo://app?vid=ca7e1fb6-98a3-460d-8b38-e65043404619","ios":"levelo://app?vid=ca7e1fb6-98a3-460d-8b38-e65043404619"},"vehicle_type_id":"4","last_reported":1747048114,"current_range_meters":9200,"station_id":"ce4bh392rcd13ifvqdl0","pricing_plan_id":"cebpf4jnsgd1na2vs0mg"},{"bike_id":"2873e3c3-fe80-4ce4-b603-a9f60fac1fe5","system_id":"levelo_inurba_marseille","lat":43.28268,"lon":5.3506,"is_reserved":false,"is_disabled":false,"rental_uris":{"android":"levelo://app?vid=2873e3c3-fe80-4ce4-b603-a9f60fac1fe5","ios":"levelo://app?vid=2873e3c3-fe80-4ce4-b603-a9f60fac1fe5"},"vehicle_type_id":"4","last_reported":1747048114,"current_range_meters":9200,"station_id":"ce4bhbp2rcd13ifvqerg","pricing_plan_id":"cebpf4jnsgd1na2vs0mg"},{"bike_id":"00497523-6d63-4aab-a273-b360a67febab","system_id":"levelo_inurba_marseille","lat":43.26208,"lon":5.37444,"is_reserved":false,"is_disabled":false,"rental_uris":{"android":"levelo://app?vid=00497523-6d63-4aab-a273-b360a67febab","ios":"levelo://app?vid=00497523-6d63-4aab-a273-b360a67febab"},"vehicle_type_id":"4","last_reported":1747048114,"current_range_meters":9200,"station_id":"ce4bhgp2rcd13ifvqfc0","pricing_plan_id":"cebpf4jnsgd1na2vs0mg"},{"bike_id":"76607d58-8e7d-4b42-8f28-4d55dde9f0a8","system_id":"levelo_inurba_marseille","lat":43.24387,"lon":5.37056,"is_reserved":false,"is_disabled":false,"rental_uris":{"android":"levelo://app?vid=76607d58-8e7d-4b42-8f28-4d55dde9f0a8","ios":"levelo://app?vid=76607d58-8e7d-4b42-8f28-4d55dde9f0a8"},"vehicle_type_id":"4","last_reported":1747048114,"current_range_meters":9200,"station_id":"ce4bhhh2rcd13ifvqfk0","pricing_plan_id":"cebpf4jnsgd1na2vs0mg"},{"bike_id":"33c34b31-1434-4418-b758-28175ee9d5c7","system_id":"levelo_inurba_marseille","lat":43.24077,"lon":5.37756,"is_reserved":false,"is_disabled":false,"rental_uris":{"android":"levelo://app?vid=33c34b31-1434-4418-b758-28175ee9d5c7","ios":"levelo://app?vid=33c34b31-1434-4418-b758-28175ee9d5c7"},"vehicle_type_id":"4","last_reported":1747048114,"current_range_meters":9200,"station_id":"ce4bhnp2rcd13ifvqgvg","pricing_plan_id":"cebpf4jnsgd1na2vs0mg"},{"bike_id":"bb0d4c32-0d76-4e7d-a3af-a68c8e5e1ec7","system_id":"levelo_inurba_marseille","lat":43.24077,"lon":5.37759,"is_reserved":false,"is_disabled":false,"rental_uris":{"android":"levelo://app?vid=bb0d4c32-0d76-4e7d-a3af-a68c8e5e1ec7","ios":"levelo://app?vid=bb0d4c32-0d76-4e7d-a3af-a68c8e5e1ec7"},"vehicle_type_id":"4","last_reported":1747048114,"current_range_meters":9200,"station_id":"ce4bhnp2rcd13ifvqgvg","pricing_plan_id":"cebpf4jnsgd1na2vs0mg"},{"bike_id":"888faf64-a4c0-4a63-abb9-f84eecc376b8","system_id":"levelo_inurba_marseille","lat":43.29853,"lon":5.36281,"is_reserved":false,"is_disabled":false,"rental_uris":{"android":"levelo://app?vid=888faf64-a4c0-4a63-abb9-f84eecc376b8","ios":"levelo://app?vid=888faf64-a4c0-4a63-abb9-f84eecc376b8"},"vehicle_type_id":"4","last_reported":1747048114,"current_range_meters":9600,"station_id":"ce4bgpp2rcd13ifvqc3g","pricing_plan_id":"cebpf4jnsgd1na2vs0mg"},{"bike_id":"de4a530f-3b17-41b9-bd98-d22e64d46bdc","system_id":"levelo_inurba_marseille","lat":43.32108,"lon":5.36775,"is_reserved":false,"is_disabled":false,"rental_uris":{"android":"levelo://app?vid=de4a530f-3b17-41b9-bd98-d22e64d46bdc","ios":"levelo://app?vid=de4a530f-3b17-41b9-bd98-d22e64d46bdc"},"vehicle_type_id":"4","last_reported":1747048114,"current_range_meters":9600,"station_id":"ce4bhrh2rcd13ifvqhug","pricing_plan_id":"cebpf4jnsgd1na2vs0mg"},{"bike_id":"8adebebb-1dd3-4a83-97f1-53f99c58ec05","system_id":"levelo_inurba_marseille","lat":43.32476,"lon":5.365693,"is_reserved":false,"is_disabled":false,"rental_uris":{"android":"levelo://app?vid=8adebebb-1dd3-4a83-97f1-53f99c58ec05","ios":"levelo://app?vid=8adebebb-1dd3-4a83-97f1-53f99c58ec05"},"vehicle_type_id":"4","last_reported":1747048114,"current_range_meters":9600,"station_id":"ce4bhs12rcd13ifvqhvg","pricing_plan_id":"cebpf4jnsgd1na2vs0mg"},{"bike_id":"e0bd4735-2d2c-46b7-9699-64d674102f61","system_id":"levelo_inurba_marseille","lat":43.2417,"lon":5.36399,"is_reserved":false,"is_disabled":false,"rental_uris":{"android":"levelo://app?vid=e0bd4735-2d2c-46b7-9699-64d674102f61","ios":"levelo://app?vid=e0bd4735-2d2c-46b7-9699-64d674102f61"},"vehicle_type_id":"4","last_reported":1747048114,"current_range_meters":9600,"station_id":"cpo36qri1sfpv3e86is0","pricing_plan_id":"cebpf4jnsgd1na2vs0mg"},{"bike_id":"3fb1d3be-0a1a-45f3-ba70-301cf2d395be","system_id":"levelo_inurba_marseille","lat":43.21734,"lon":5.34632,"is_reserved":false,"is_disabled":false,"rental_uris":{"android":"levelo://app?vid=3fb1d3be-0a1a-45f3-ba70-301cf2d395be","ios":"levelo://app?vid=3fb1d3be-0a1a-45f3-ba70-301cf2d395be"},"vehicle_type_id":"4","last_reported":1747048114,"current_range_meters":9600,"station_id":"st_cvj6r9ubvosntc0bgbag","pricing_plan_id":"cebpf4jnsgd1na2vs0mg"},{"bike_id":"f52c819d-ca4b-4640-b458-b877db1bf990","system_id":"levelo_inurba_marseille","lat":43.29861,"lon":5.41008,"is_reserved":false,"is_disabled":false,"rental_uris":{"android":"levelo://app?vid=f52c819d-ca4b-4640-b458-b877db1bf990","ios":"levelo://app?vid=f52c819d-ca4b-4640-b458-b877db1bf990"},"vehicle_type_id":"4","last_reported":1747048114,"current_range_meters":10000,"station_id":"","pricing_plan_id":"cebpf4jnsgd1na2vs0mg"},{"bike_id":"e0ef16c3-cdea-4fc2-9430-a26dcd73e6fc","system_id":"levelo_inurba_marseille","lat":43.2619,"lon":5.37444,"is_reserved":false,"is_disabled":false,"rental_uris":{"android":"levelo://app?vid=e0ef16c3-cdea-4fc2-9430-a26dcd73e6fc","ios":"levelo://app?vid=e0ef16c3-cdea-4fc2-9430-a26dcd73e6fc"},"vehicle_type_id":"4","last_reported":1747048114,"current_range_meters":10000,"station_id":"ce4bhgp2rcd13ifvqfc0","pricing_plan_id":"cebpf4jnsgd1na2vs0mg"},{"bike_id":"b87ccaeb-b3c9-4593-a951-7eef6387930b","system_id":"levelo_inurba_marseille","lat":43.30772,"lon":5.37768,"is_reserved":false,"is_disabled":false,"rental_uris":{"android":"levelo://app?vid=b87ccaeb-b3c9-4593-a951-7eef6387930b","ios":"levelo://app?vid=b87ccaeb-b3c9-4593-a951-7eef6387930b"},"vehicle_type_id":"4","last_reported":1747048114,"current_range_meters":10800,"station_id":"","pricing_plan_id":"cebpf4jnsgd1na2vs0mg"},{"bike_id":"2ec2c996-3813-43b9-a6f1-15d1b3a9e6e2","system_id":"levelo_inurba_marseille","lat":43.29516,"lon":5.37502,"is_reserved":false,"is_disabled":false,"rental_uris":{"android":"levelo://app?vid=2ec2c996-3813-43b9-a6f1-15d1b3a9e6e2","ios":"levelo://app?vid=2ec2c996-3813-43b9-a6f1-15d1b3a9e6e2"},"vehicle_type_id":"4","last_reported":1747048114,"current_range_meters":11200,"station_id":"ce4bgkp2rcd13ifvqbmg","pricing_plan_id":"cebpf4jnsgd1na2vs0mg"},{"bike_id":"0f11eb0d-2fa8-4c0e-a46a-60a34c1bf1b5","system_id":"levelo_inurba_marseille","lat":43.23149,"lon":5.43716,"is_reserved":false,"is_disabled":false,"rental_uris":{"android":"levelo://app?vid=0f11eb0d-2fa8-4c0e-a46a-60a34c1bf1b5","ios":"levelo://app?vid=0f11eb0d-2fa8-4c0e-a46a-60a34c1bf1b5"},"vehicle_type_id":"4","last_reported":1747048114,"current_range_meters":11200,"station_id":"ce4bhmp2rcd13ifvqgog","pricing_plan_id":"cebpf4jnsgd1na2vs0mg"},{"bike_id":"2ee4d910-0ee1-4bc5-86c8-c77afad12b4f","system_id":"levelo_inurba_marseille","lat":43.32107,"lon":5.36771,"is_reserved":false,"is_disabled":false,"rental_uris":{"android":"levelo://app?vid=2ee4d910-0ee1-4bc5-86c8-c77afad12b4f","ios":"levelo://app?vid=2ee4d910-0ee1-4bc5-86c8-c77afad12b4f"},"vehicle_type_id":"4","last_reported":1747048114,"current_range_meters":11200,"station_id":"ce4bhrh2rcd13ifvqhug","pricing_plan_id":"cebpf4jnsgd1na2vs0mg"},{"bike_id":"d22c829d-2ef8-4559-aac3-dbacda60f77a","system_id":"levelo_inurba_marseille","lat":43.304239,"lon":5.38891,"is_reserved":false,"is_disabled":false,"rental_uris":{"android":"levelo://app?vid=d22c829d-2ef8-4559-aac3-dbacda60f77a","ios":"levelo://app?vid=d22c829d-2ef8-4559-aac3-dbacda60f77a"},"vehicle_type_id":"4","last_reported":1747048114,"current_range_meters":11600,"station_id":"ce4bgk12rcd13ifvqbi0","pricing_plan_id":"cebpf4jnsgd1na2vs0mg"},{"bike_id":"11e4597e-c0da-4b11-b293-5b1f7659f2d6","system_id":"levelo_inurba_marseille","lat":43.31359,"lon":5.36693,"is_reserved":false,"is_disabled":false,"rental_uris":{"android":"levelo://app?vid=11e4597e-c0da-4b11-b293-5b1f7659f2d6","ios":"levelo://app?vid=11e4597e-c0da-4b11-b293-5b1f7659f2d6"},"vehicle_type_id":"4","last_reported":1747048114,"current_range_meters":11600,"station_id":"ce4bgr92rcd13ifvqc6g","pricing_plan_id":"cebpf4jnsgd1na2vs0mg"},{"bike_id":"56d7bb55-d2ed-41a2-8044-c63c0676dbb7","system_id":"levelo_inurba_marseille","lat":43.2315,"lon":5.43702,"is_reserved":false,"is_disabled":false,"rental_uris":{"android":"levelo://app?vid=56d7bb55-d2ed-41a2-8044-c63c0676dbb7","ios":"levelo://app?vid=56d7bb55-d2ed-41a2-8044-c63c0676dbb7"},"vehicle_type_id":"4","last_reported":1747048114,"current_range_meters":11600,"station_id":"ce4bhmp2rcd13ifvqgog","pricing_plan_id":"cebpf4jnsgd1na2vs0mg"},{"bike_id":"3e1df634-93aa-47e4-b40f-f08b61b89b56","system_id":"levelo_inurba_marseille","lat":43.27996,"lon":5.41663,"is_reserved":false,"is_disabled":false,"rental_uris":{"android":"levelo://app?vid=3e1df634-93aa-47e4-b40f-f08b61b89b56","ios":"levelo://app?vid=3e1df634-93aa-47e4-b40f-f08b61b89b56"},"vehicle_type_id":"4","last_reported":1747048114,"current_range_meters":11600,"station_id":"ce4bho12rcd13ifvqh1g","pricing_plan_id":"cebpf4jnsgd1na2vs0mg"},{"bike_id":"c717b955-1d23-42a6-bf63-f39e0d9342dd","system_id":"levelo_inurba_marseille","lat":43.28291,"lon":5.43083,"is_reserved":false,"is_disabled":false,"rental_uris":{"android":"levelo://app?vid=c717b955-1d23-42a6-bf63-f39e0d9342dd","ios":"levelo://app?vid=c717b955-1d23-42a6-bf63-f39e0d9342dd"},"vehicle_type_id":"4","last_reported":1747048114,"current_range_meters":12000,"station_id":"","pricing_plan_id":"cebpf4jnsgd1na2vs0mg"},{"bike_id":"81ab8c75-4e1f-47e0-a79c-b3f62ba687b4","system_id":"levelo_inurba_marseille","lat":43.27055,"lon":5.40262,"is_reserved":false,"is_disabled":false,"rental_uris":{"android":"levelo://app?vid=81ab8c75-4e1f-47e0-a79c-b3f62ba687b4","ios":"levelo://app?vid=81ab8c75-4e1f-47e0-a79c-b3f62ba687b4"},"vehicle_type_id":"4","last_reported":1747048114,"current_range_meters":12000,"station_id":"ce4bhk92rcd13ifvqgc0","pricing_plan_id":"cebpf4jnsgd1na2vs0mg"},{"bike_id":"23cc8e08-6c5e-4346-b8df-8afff3044ec5","system_id":"levelo_inurba_marseille","lat":43.2872,"lon":5.3996,"is_reserved":false,"is_disabled":false,"rental_uris":{"android":"levelo://app?vid=23cc8e08-6c5e-4346-b8df-8afff3044ec5","ios":"levelo://app?vid=23cc8e08-6c5e-4346-b8df-8afff3044ec5"},"vehicle_type_id":"4","last_reported":1747048114,"current_range_meters":12000,"station_id":"ce4bho92rcd13ifvqh3g","pricing_plan_id":"cebpf4jnsgd1na2vs0mg"},{"bike_id":"13ccf884-bf8e-478a-82fc-73fb17ad0d7e","system_id":"levelo_inurba_marseille","lat":43.304749,"lon":5.379168,"is_reserved":false,"is_disabled":false,"rental_uris":{"android":"levelo://app?vid=13ccf884-bf8e-478a-82fc-73fb17ad0d7e","ios":"levelo://app?vid=13ccf884-bf8e-478a-82fc-73fb17ad0d7e"},"vehicle_type_id":"4","last_reported":1747048114,"current_range_meters":12400,"station_id":"","pricing_plan_id":"cebpf4jnsgd1na2vs0mg"},{"bike_id":"90a47b88-bad1-45a2-8c38-8fb8694ae746","system_id":"levelo_inurba_marseille","lat":43.30119,"lon":5.3984,"is_reserved":false,"is_disabled":false,"rental_uris":{"android":"levelo://app?vid=90a47b88-bad1-45a2-8c38-8fb8694ae746","ios":"levelo://app?vid=90a47b88-bad1-45a2-8c38-8fb8694ae746"},"vehicle_type_id":"4","last_reported":1747048114,"current_range_meters":12400,"station_id":"ce4bh0h2rcd13ifvqd40","pricing_plan_id":"cebpf4jnsgd1na2vs0mg"},{"bike_id":"77b898d6-83c3-4819-8f10-342d8faa3aa9","system_id":"levelo_inurba_marseille","lat":43.27069,"lon":5.42272,"is_reserved":false,"is_disabled":false,"rental_uris":{"android":"levelo://app?vid=77b898d6-83c3-4819-8f10-342d8faa3aa9","ios":"levelo://app?vid=77b898d6-83c3-4819-8f10-342d8faa3aa9"},"vehicle_type_id":"4","last_reported":1747048114,"current_range_meters":12400,"station_id":"ce4bhk92rcd13ifvqgb0","pricing_plan_id":"cebpf4jnsgd1na2vs0mg"},{"bike_id":"0bf31d40-2ad2-494c-afdd-13acdb3f7f8d","system_id":"levelo_inurba_marseille","lat":43.29544,"lon":5.42301,"is_reserved":false,"is_disabled":false,"rental_uris":{"android":"levelo://app?vid=0bf31d40-2ad2-494c-afdd-13acdb3f7f8d","ios":"levelo://app?vid=0bf31d40-2ad2-494c-afdd-13acdb3f7f8d"},"vehicle_type_id":"4","last_reported":1747048114,"current_range_meters":12400,"station_id":"ce4bhph2rcd13ifvqhdg","pricing_plan_id":"cebpf4jnsgd1na2vs0mg"},{"bike_id":"6b8eb6a2-7803-401f-b22a-1b330a49daff","system_id":"levelo_inurba_marseille","lat":43.301601,"lon":5.387092,"is_reserved":false,"is_disabled":false,"rental_uris":{"android":"levelo://app?vid=6b8eb6a2-7803-401f-b22a-1b330a49daff","ios":"levelo://app?vid=6b8eb6a2-7803-401f-b22a-1b330a49daff"},"vehicle_type_id":"4","last_reported":1747048114,"current_range_meters":12800,"station_id":"ce4bh0h2rcd13ifvqd40","pricing_plan_id":"cebpf4jnsgd1na2vs0mg"},{"bike_id":"0a4dc782-e1df-48ff-81bf-b707284fe935","system_id":"levelo_inurba_marseille","lat":43.28419,"lon":5.34992,"is_reserved":false,"is_disabled":false,"rental_uris":{"android":"levelo://app?vid=0a4dc782-e1df-48ff-81bf-b707284fe935","ios":"levelo://app?vid=0a4dc782-e1df-48ff-81bf-b707284fe935"},"vehicle_type_id":"4","last_reported":1747048114,"current_range_meters":12800,"station_id":"ce4bhbh2rcd13ifvqepg","pricing_plan_id":"cebpf4jnsgd1na2vs0mg"},{"bike_id":"c58f5b4c-a81d-45cd-8932-533fb8088e65","system_id":"levelo_inurba_marseille","lat":43.28417,"lon":5.3498,"is_reserved":false,"is_disabled":false,"rental_uris":{"android":"levelo://app?vid=c58f5b4c-a81d-45cd-8932-533fb8088e65","ios":"levelo://app?vid=c58f5b4c-a81d-45cd-8932-533fb8088e65"},"vehicle_type_id":"4","last_reported":1747048114,"current_range_meters":14000,"station_id":"ce4bhbh2rcd13ifvqepg","pricing_plan_id":"cebpf4jnsgd1na2vs0mg"},{"bike_id":"2426c398-e9ff-4bc6-af2e-6b6e8459674c","system_id":"levelo_inurba_marseille","lat":43.28422,"lon":5.34976,"is_reserved":false,"is_disabled":false,"rental_uris":{"android":"levelo://app?vid=2426c398-e9ff-4bc6-af2e-6b6e8459674c","ios":"levelo://app?vid=2426c398-e9ff-4bc6-af2e-6b6e8459674c"},"vehicle_type_id":"4","last_reported":1747048114,"current_range_meters":14000,"station_id":"ce4bhbh2rcd13ifvqepg","pricing_plan_id":"cebpf4jnsgd1na2vs0mg"},{"bike_id":"4b6c6773-086b-4115-8e55-6bc1ab22adab","system_id":"levelo_inurba_marseille","lat":43.23195,"lon":5.35551,"is_reserved":false,"is_disabled":false,"rental_uris":{"android":"levelo://app?vid=4b6c6773-086b-4115-8e55-6bc1ab22adab","ios":"levelo://app?vid=4b6c6773-086b-4115-8e55-6bc1ab22adab"},"vehicle_type_id":"4","last_reported":1747048114,"current_range_meters":14000,"station_id":"ce4bhu92rcd13ifvqi70","pricing_plan_id":"cebpf4jnsgd1na2vs0mg"},{"bike_id":"8f4ddfd3-9de9-4691-b055-f359e143819f","system_id":"levelo_inurba_marseille","lat":43.304262,"lon":5.3889,"is_reserved":false,"is_disabled":false,"rental_uris":{"android":"levelo://app?vid=8f4ddfd3-9de9-4691-b055-f359e143819f","ios":"levelo://app?vid=8f4ddfd3-9de9-4691-b055-f359e143819f"},"vehicle_type_id":"4","last_reported":1747048114,"current_range_meters":14400,"station_id":"ce4bgk12rcd13ifvqbi0","pricing_plan_id":"cebpf4jnsgd1na2vs0mg"},{"bike_id":"46e56d54-3534-4aa9-9012-ee6dbca0d623","system_id":"levelo_inurba_marseille","lat":43.29846,"lon":5.36266,"is_reserved":false,"is_disabled":false,"rental_uris":{"android":"levelo://app?vid=46e56d54-3534-4aa9-9012-ee6dbca0d623","ios":"levelo://app?vid=46e56d54-3534-4aa9-9012-ee6dbca0d623"},"vehicle_type_id":"4","last_reported":1747048114,"current_range_meters":14400,"station_id":"ce4bgpp2rcd13ifvqc3g","pricing_plan_id":"cebpf4jnsgd1na2vs0mg"},{"bike_id":"e03c5ed0-bc71-4df2-87b7-eee8baa6825a","system_id":"levelo_inurba_marseille","lat":43.31172,"lon":5.38709,"is_reserved":false,"is_disabled":false,"rental_uris":{"android":"levelo://app?vid=e03c5ed0-bc71-4df2-87b7-eee8baa6825a","ios":"levelo://app?vid=e03c5ed0-bc71-4df2-87b7-eee8baa6825a"},"vehicle_type_id":"4","last_reported":1747048114,"current_range_meters":14400,"station_id":"ce4bgv12rcd13ifvqcp0","pricing_plan_id":"cebpf4jnsgd1na2vs0mg"},{"bike_id":"8c52f89b-cf87-47bc-8f7d-3247392a5c7d","system_id":"levelo_inurba_marseille","lat":43.23154,"lon":5.43705,"is_reserved":false,"is_disabled":false,"rental_uris":{"android":"levelo://app?vid=8c52f89b-cf87-47bc-8f7d-3247392a5c7d","ios":"levelo://app?vid=8c52f89b-cf87-47bc-8f7d-3247392a5c7d"},"vehicle_type_id":"4","last_reported":1747048114,"current_range_meters":14400,"station_id":"ce4bhmp2rcd13ifvqgog","pricing_plan_id":"cebpf4jnsgd1na2vs0mg"},{"bike_id":"87863c75-0a5a-4b02-8bb3-a52c58086ca1","system_id":"levelo_inurba_marseille","lat":43.2315,"lon":5.43714,"is_reserved":false,"is_disabled":false,"rental_uris":{"android":"levelo://app?vid=87863c75-0a5a-4b02-8bb3-a52c58086ca1","ios":"levelo://app?vid=87863c75-0a5a-4b02-8bb3-a52c58086ca1"},"vehicle_type_id":"4","last_reported":1747048114,"current_range_meters":14400,"station_id":"ce4bhmp2rcd13ifvqgog","pricing_plan_id":"cebpf4jnsgd1na2vs0mg"},{"bike_id":"b247b0ed-9340-4610-bbae-65f57e16ba5e","system_id":"levelo_inurba_marseille","lat":43.23184,"lon":5.39986,"is_reserved":false,"is_disabled":false,"rental_uris":{"android":"levelo://app?vid=b247b0ed-9340-4610-bbae-65f57e16ba5e","ios":"levelo://app?vid=b247b0ed-9340-4610-bbae-65f57e16ba5e"},"vehicle_type_id":"4","last_reported":1747048114,"current_range_meters":14400,"station_id":"ce4bhn12rcd13ifvqgqg","pricing_plan_id":"cebpf4jnsgd1na2vs0mg"},{"bike_id":"efc88c3c-910a-4ce7-84b2-480af6d11f71","system_id":"levelo_inurba_marseille","lat":43.28278,"lon":5.35068,"is_reserved":false,"is_disabled":false,"rental_uris":{"android":"levelo://app?vid=efc88c3c-910a-4ce7-84b2-480af6d11f71","ios":"levelo://app?vid=efc88c3c-910a-4ce7-84b2-480af6d11f71"},"vehicle_type_id":"4","last_reported":1747048114,"current_range_meters":14800,"station_id":"ce4bhbp2rcd13ifvqerg","pricing_plan_id":"cebpf4jnsgd1na2vs0mg"},{"bike_id":"fa816b97-3a03-4259-b7b4-bcfba0ca3c54","system_id":"levelo_inurba_marseille","lat":43.25116,"lon":5.40318,"is_reserved":false,"is_disabled":false,"rental_uris":{"android":"levelo://app?vid=fa816b97-3a03-4259-b7b4-bcfba0ca3c54","ios":"levelo://app?vid=fa816b97-3a03-4259-b7b4-bcfba0ca3c54"},"vehicle_type_id":"4","last_reported":1747048114,"current_range_meters":15200,"station_id":"ce4bhlh2rcd13ifvqgig","pricing_plan_id":"cebpf4jnsgd1na2vs0mg"},{"bike_id":"1fa5360b-5683-4629-8d3e-274b57c91e10","system_id":"levelo_inurba_marseille","lat":43.30463,"lon":5.37915,"is_reserved":false,"is_disabled":false,"rental_uris":{"android":"levelo://app?vid=1fa5360b-5683-4629-8d3e-274b57c91e10","ios":"levelo://app?vid=1fa5360b-5683-4629-8d3e-274b57c91e10"},"vehicle_type_id":"4","last_reported":1747048114,"current_range_meters":16000,"station_id":"ce4bgup2rcd13ifvqcn0","pricing_plan_id":"cebpf4jnsgd1na2vs0mg"},{"bike_id":"c9805ec8-6d49-46d5-9ddd-5259cd2a3a04","system_id":"levelo_inurba_marseille","lat":43.30596,"lon":5.39351,"is_reserved":false,"is_disabled":false,"rental_uris":{"android":"levelo://app?vid=c9805ec8-6d49-46d5-9ddd-5259cd2a3a04","ios":"levelo://app?vid=c9805ec8-6d49-46d5-9ddd-5259cd2a3a04"},"vehicle_type_id":"4","last_reported":1747048114,"current_range_meters":16000,"station_id":"ce4bh0p2rcd13ifvqd80","pricing_plan_id":"cebpf4jnsgd1na2vs0mg"},{"bike_id":"1a2b71c2-15ca-4873-9d5e-19cafef5dd3f","system_id":"levelo_inurba_marseille","lat":43.24391,"lon":5.37053,"is_reserved":false,"is_disabled":false,"rental_uris":{"android":"levelo://app?vid=1a2b71c2-15ca-4873-9d5e-19cafef5dd3f","ios":"levelo://app?vid=1a2b71c2-15ca-4873-9d5e-19cafef5dd3f"},"vehicle_type_id":"4","last_reported":1747048114,"current_range_meters":16000,"station_id":"ce4bhhh2rcd13ifvqfk0","pricing_plan_id":"cebpf4jnsgd1na2vs0mg"},{"bike_id":"9ac4055f-650f-4591-b2eb-0ab0d9ac61b4","system_id":"levelo_inurba_marseille","lat":43.30547,"lon":5.36698,"is_reserved":false,"is_disabled":false,"rental_uris":{"android":"levelo://app?vid=9ac4055f-650f-4591-b2eb-0ab0d9ac61b4","ios":"levelo://app?vid=9ac4055f-650f-4591-b2eb-0ab0d9ac61b4"},"vehicle_type_id":"4","last_reported":1747048114,"current_range_meters":16400,"station_id":"ce4bgrp2rcd13ifvqc9g","pricing_plan_id":"cebpf4jnsgd1na2vs0mg"},{"bike_id":"a85a1ca5-0efd-4906-a364-ad4c3da2d318","system_id":"levelo_inurba_marseille","lat":43.30947,"lon":5.39035,"is_reserved":false,"is_disabled":false,"rental_uris":{"android":"levelo://app?vid=a85a1ca5-0efd-4906-a364-ad4c3da2d318","ios":"levelo://app?vid=a85a1ca5-0efd-4906-a364-ad4c3da2d318"},"vehicle_type_id":"4","last_reported":1747048114,"current_range_meters":16400,"station_id":"ce4bgup2rcd13ifvqco0","pricing_plan_id":"cebpf4jnsgd1na2vs0mg"},{"bike_id":"f69257da-8878-41a7-b8f6-c7f02aa7ae1d","system_id":"levelo_inurba_marseille","lat":43.2592,"lon":5.40887,"is_reserved":false,"is_disabled":false,"rental_uris":{"android":"levelo://app?vid=f69257da-8878-41a7-b8f6-c7f02aa7ae1d","ios":"levelo://app?vid=f69257da-8878-41a7-b8f6-c7f02aa7ae1d"},"vehicle_type_id":"4","last_reported":1747048114,"current_range_meters":16400,"station_id":"ce4bhm92rcd13ifvqglg","pricing_plan_id":"cebpf4jnsgd1na2vs0mg"},{"bike_id":"602e71f3-9684-4a5f-9956-cb269d865aa4","system_id":"levelo_inurba_marseille","lat":43.31082,"lon":5.42433,"is_reserved":false,"is_disabled":false,"rental_uris":{"android":"levelo://app?vid=602e71f3-9684-4a5f-9956-cb269d865aa4","ios":"levelo://app?vid=602e71f3-9684-4a5f-9956-cb269d865aa4"},"vehicle_type_id":"4","last_reported":1747048114,"current_range_meters":16400,"station_id":"ce4bhp92rcd13ifvqhag","pricing_plan_id":"cebpf4jnsgd1na2vs0mg"},{"bike_id":"1b34dbec-9389-4ce3-9ab4-472a5a8a7085","system_id":"levelo_inurba_marseille","lat":43.299145,"lon":5.36551,"is_reserved":false,"is_disabled":false,"rental_uris":{"android":"levelo://app?vid=1b34dbec-9389-4ce3-9ab4-472a5a8a7085","ios":"levelo://app?vid=1b34dbec-9389-4ce3-9ab4-472a5a8a7085"},"vehicle_type_id":"4","last_reported":1747048114,"current_range_meters":16800,"station_id":"ce4bgm92rcd13ifvqbr0","pricing_plan_id":"cebpf4jnsgd1na2vs0mg"},{"bike_id":"4038b8b8-5a99-4ed1-ab27-732ec4722b71","system_id":"levelo_inurba_marseille","lat":43.29632,"lon":5.406,"is_reserved":false,"is_disabled":false,"rental_uris":{"android":"levelo://app?vid=4038b8b8-5a99-4ed1-ab27-732ec4722b71","ios":"levelo://app?vid=4038b8b8-5a99-4ed1-ab27-732ec4722b71"},"vehicle_type_id":"4","last_reported":1747048114,"current_range_meters":16800,"station_id":"ce4bh0h2rcd13ifvqd60","pricing_plan_id":"cebpf4jnsgd1na2vs0mg"},{"bike_id":"8635745c-9651-48d6-b359-d58aa2a1dc48","system_id":"levelo_inurba_marseille","lat":43.25724,"lon":5.41109,"is_reserved":false,"is_disabled":false,"rental_uris":{"android":"levelo://app?vid=8635745c-9651-48d6-b359-d58aa2a1dc48","ios":"levelo://app?vid=8635745c-9651-48d6-b359-d58aa2a1dc48"},"vehicle_type_id":"4","last_reported":1747048114,"current_range_meters":16800,"station_id":"ce4bhkp2rcd13ifvqgd0","pricing_plan_id":"cebpf4jnsgd1na2vs0mg"},{"bike_id":"271c5912-31ce-4676-b35e-cdb23c727367","system_id":"levelo_inurba_marseille","lat":43.268,"lon":5.40261,"is_reserved":false,"is_disabled":false,"rental_uris":{"android":"levelo://app?vid=271c5912-31ce-4676-b35e-cdb23c727367","ios":"levelo://app?vid=271c5912-31ce-4676-b35e-cdb23c727367"},"vehicle_type_id":"4","last_reported":1747048114,"current_range_meters":17200,"station_id":"ce501612rcd8frsf0b60","pricing_plan_id":"cebpf4jnsgd1na2vs0mg"},{"bike_id":"fc6e693c-992c-41f9-b827-1151421c293f","system_id":"levelo_inurba_marseille","lat":43.2593,"lon":5.40866,"is_reserved":false,"is_disabled":false,"rental_uris":{"android":"levelo://app?vid=fc6e693c-992c-41f9-b827-1151421c293f","ios":"levelo://app?vid=fc6e693c-992c-41f9-b827-1151421c293f"},"vehicle_type_id":"4","last_reported":1747048114,"current_range_meters":17600,"station_id":"ce4bhm92rcd13ifvqglg","pricing_plan_id":"cebpf4jnsgd1na2vs0mg"},{"bike_id":"aac7a029-28e7-44c7-881f-c1304c99a1bc","system_id":"levelo_inurba_marseille","lat":43.29571,"lon":5.39968,"is_reserved":false,"is_disabled":false,"rental_uris":{"android":"levelo://app?vid=aac7a029-28e7-44c7-881f-c1304c99a1bc","ios":"levelo://app?vid=aac7a029-28e7-44c7-881f-c1304c99a1bc"},"vehicle_type_id":"4","last_reported":1747048114,"current_range_meters":18000,"station_id":"ce4bh312rcd13ifvqdj0","pricing_plan_id":"cebpf4jnsgd1na2vs0mg"},{"bike_id":"37533d30-53f2-45f4-8c82-cdacf7207866","system_id":"levelo_inurba_marseille","lat":43.24382,"lon":5.37055,"is_reserved":false,"is_disabled":false,"rental_uris":{"android":"levelo://app?vid=37533d30-53f2-45f4-8c82-cdacf7207866","ios":"levelo://app?vid=37533d30-53f2-45f4-8c82-cdacf7207866"},"vehicle_type_id":"4","last_reported":1747048114,"current_range_meters":18000,"station_id":"ce4bhhh2rcd13ifvqfk0","pricing_plan_id":"cebpf4jnsgd1na2vs0mg"},{"bike_id":"efd89af7-3fb0-4a3e-b0af-e4b36a7891bd","system_id":"levelo_inurba_marseille","lat":43.278448,"lon":5.391963,"is_reserved":false,"is_disabled":false,"rental_uris":{"android":"levelo://app?vid=efd89af7-3fb0-4a3e-b0af-e4b36a7891bd","ios":"levelo://app?vid=efd89af7-3fb0-4a3e-b0af-e4b36a7891bd"},"vehicle_type_id":"4","last_reported":1747048114,"current_range_meters":18000,"station_id":"ce4bhjp2rcd13ifvqga0","pricing_plan_id":"cebpf4jnsgd1na2vs0mg"},{"bike_id":"f8dc9e04-d2ee-4752-9e41-df75a435cdb1","system_id":"levelo_inurba_marseille","lat":43.3255,"lon":5.41465,"is_reserved":false,"is_disabled":false,"rental_uris":{"android":"levelo://app?vid=f8dc9e04-d2ee-4752-9e41-df75a435cdb1","ios":"levelo://app?vid=f8dc9e04-d2ee-4752-9e41-df75a435cdb1"},"vehicle_type_id":"4","last_reported":1747048114,"current_range_meters":18000,"station_id":"ce4bhq12rcd13ifvqhhg","pricing_plan_id":"cebpf4jnsgd1na2vs0mg"},{"bike_id":"8b7f8885-d3a0-467c-bb63-4af3896b25c5","system_id":"levelo_inurba_marseille","lat":43.29769,"lon":5.371,"is_reserved":false,"is_disabled":false,"rental_uris":{"android":"levelo://app?vid=8b7f8885-d3a0-467c-bb63-4af3896b25c5","ios":"levelo://app?vid=8b7f8885-d3a0-467c-bb63-4af3896b25c5"},"vehicle_type_id":"4","last_reported":1747048114,"current_range_meters":18800,"station_id":"ce4bgop2rcd13ifvqc1g","pricing_plan_id":"cebpf4jnsgd1na2vs0mg"},{"bike_id":"cc6105f9-6f7d-4848-9f36-916e401bfe26","system_id":"levelo_inurba_marseille","lat":43.313575,"lon":5.367115,"is_reserved":false,"is_disabled":false,"rental_uris":{"android":"levelo://app?vid=cc6105f9-6f7d-4848-9f36-916e401bfe26","ios":"levelo://app?vid=cc6105f9-6f7d-4848-9f36-916e401bfe26"},"vehicle_type_id":"4","last_reported":1747048114,"current_range_meters":18800,"station_id":"ce4bgr92rcd13ifvqc6g","pricing_plan_id":"cebpf4jnsgd1na2vs0mg"},{"bike_id":"1da7197b-0856-46af-adaf-ba868a2a73f1","system_id":"levelo_inurba_marseille","lat":43.31173,"lon":5.38723,"is_reserved":false,"is_disabled":false,"rental_uris":{"android":"levelo://app?vid=1da7197b-0856-46af-adaf-ba868a2a73f1","ios":"levelo://app?vid=1da7197b-0856-46af-adaf-ba868a2a73f1"},"vehicle_type_id":"4","last_reported":1747048114,"current_range_meters":18800,"station_id":"ce4bgv12rcd13ifvqcp0","pricing_plan_id":"cebpf4jnsgd1na2vs0mg"},{"bike_id":"d0d77266-b030-48e7-bb4a-e4747b4776ec","system_id":"levelo_inurba_marseille","lat":43.30134,"lon":5.398713,"is_reserved":false,"is_disabled":false,"rental_uris":{"android":"levelo://app?vid=d0d77266-b030-48e7-bb4a-e4747b4776ec","ios":"levelo://app?vid=d0d77266-b030-48e7-bb4a-e4747b4776ec"},"vehicle_type_id":"4","last_reported":1747048114,"current_range_meters":18800,"station_id":"ce4bh0h2rcd13ifvqd40","pricing_plan_id":"cebpf4jnsgd1na2vs0mg"},{"bike_id":"3e5a0b3c-ed6a-40da-bf4a-7d5422a9e46c","system_id":"levelo_inurba_marseille","lat":43.2846,"lon":5.35896,"is_reserved":false,"is_disabled":false,"rental_uris":{"android":"levelo://app?vid=3e5a0b3c-ed6a-40da-bf4a-7d5422a9e46c","ios":"levelo://app?vid=3e5a0b3c-ed6a-40da-bf4a-7d5422a9e46c"},"vehicle_type_id":"4","last_reported":1747048114,"current_range_meters":18800,"station_id":"ce4bhah2rcd13ifvqei0","pricing_plan_id":"cebpf4jnsgd1na2vs0mg"},{"bike_id":"25cd2efd-cd49-4b5d-adbe-b852702c8fdf","system_id":"levelo_inurba_marseille","lat":43.26194,"lon":5.37462,"is_reserved":false,"is_disabled":false,"rental_uris":{"android":"levelo://app?vid=25cd2efd-cd49-4b5d-adbe-b852702c8fdf","ios":"levelo://app?vid=25cd2efd-cd49-4b5d-adbe-b852702c8fdf"},"vehicle_type_id":"4","last_reported":1747048114,"current_range_meters":18800,"station_id":"ce4bhgp2rcd13ifvqfc0","pricing_plan_id":"cebpf4jnsgd1na2vs0mg"},{"bike_id":"41a74d25-9d1d-4fe7-8e44-44f9da27ac53","system_id":"levelo_inurba_marseille","lat":43.32544,"lon":5.41428,"is_reserved":false,"is_disabled":false,"rental_uris":{"android":"levelo://app?vid=41a74d25-9d1d-4fe7-8e44-44f9da27ac53","ios":"levelo://app?vid=41a74d25-9d1d-4fe7-8e44-44f9da27ac53"},"vehicle_type_id":"4","last_reported":1747048114,"current_range_meters":18800,"station_id":"ce4bhq12rcd13ifvqhhg","pricing_plan_id":"cebpf4jnsgd1na2vs0mg"},{"bike_id":"7af0b72f-aef1-4687-8c96-17cad21329a9","system_id":"levelo_inurba_marseille","lat":43.22953,"lon":5.35337,"is_reserved":false,"is_disabled":false,"rental_uris":{"android":"levelo://app?vid=7af0b72f-aef1-4687-8c96-17cad21329a9","ios":"levelo://app?vid=7af0b72f-aef1-4687-8c96-17cad21329a9"},"vehicle_type_id":"4","last_reported":1747048114,"current_range_meters":18800,"station_id":"cpo3532slgdg3j2ikp40","pricing_plan_id":"cebpf4jnsgd1na2vs0mg"},{"bike_id":"d7406b9a-5ff0-434f-be6c-02e6e774a9ec","system_id":"levelo_inurba_marseille","lat":43.29602,"lon":5.38108,"is_reserved":false,"is_disabled":false,"rental_uris":{"android":"levelo://app?vid=d7406b9a-5ff0-434f-be6c-02e6e774a9ec","ios":"levelo://app?vid=d7406b9a-5ff0-434f-be6c-02e6e774a9ec"},"vehicle_type_id":"4","last_reported":1747048114,"current_range_meters":19200,"station_id":"ce4bgl12rcd13ifvqbo0","pricing_plan_id":"cebpf4jnsgd1na2vs0mg"},{"bike_id":"2df1ab65-61e9-4fcf-9a25-275a30df03a7","system_id":"levelo_inurba_marseille","lat":43.30926,"lon":5.36827,"is_reserved":false,"is_disabled":false,"rental_uris":{"android":"levelo://app?vid=2df1ab65-61e9-4fcf-9a25-275a30df03a7","ios":"levelo://app?vid=2df1ab65-61e9-4fcf-9a25-275a30df03a7"},"vehicle_type_id":"4","last_reported":1747048114,"current_range_meters":19200,"station_id":"ce4bgn92rcd13ifvqbvg","pricing_plan_id":"cebpf4jnsgd1na2vs0mg"},{"bike_id":"1a3e4579-0661-4323-8d29-5a27acbd821e","system_id":"levelo_inurba_marseille","lat":43.30214,"lon":5.39479,"is_reserved":false,"is_disabled":false,"rental_uris":{"android":"levelo://app?vid=1a3e4579-0661-4323-8d29-5a27acbd821e","ios":"levelo://app?vid=1a3e4579-0661-4323-8d29-5a27acbd821e"},"vehicle_type_id":"4","last_reported":1747048114,"current_range_meters":19200,"station_id":"ce4bh0p2rcd13ifvqd70","pricing_plan_id":"cebpf4jnsgd1na2vs0mg"},{"bike_id":"81f1a462-75cc-441a-b3cd-47bf3a66b865","system_id":"levelo_inurba_marseille","lat":43.28937,"lon":5.36644,"is_reserved":false,"is_disabled":false,"rental_uris":{"android":"levelo://app?vid=81f1a462-75cc-441a-b3cd-47bf3a66b865","ios":"levelo://app?vid=81f1a462-75cc-441a-b3cd-47bf3a66b865"},"vehicle_type_id":"4","last_reported":1747048114,"current_range_meters":19200,"station_id":"ce4bhap2rcd13ifvqek0","pricing_plan_id":"cebpf4jnsgd1na2vs0mg"},{"bike_id":"120de132-bc70-4155-9345-9ff8147daf19","system_id":"levelo_inurba_marseille","lat":43.28268,"lon":5.35064,"is_reserved":false,"is_disabled":false,"rental_uris":{"android":"levelo://app?vid=120de132-bc70-4155-9345-9ff8147daf19","ios":"levelo://app?vid=120de132-bc70-4155-9345-9ff8147daf19"},"vehicle_type_id":"4","last_reported":1747048114,"current_range_meters":19200,"station_id":"ce4bhbp2rcd13ifvqerg","pricing_plan_id":"cebpf4jnsgd1na2vs0mg"},{"bike_id":"aa0db7d6-7f29-4a87-aca9-81db8edadd6f","system_id":"levelo_inurba_marseille","lat":43.23188,"lon":5.39983,"is_reserved":false,"is_disabled":false,"rental_uris":{"android":"levelo://app?vid=aa0db7d6-7f29-4a87-aca9-81db8edadd6f","ios":"levelo://app?vid=aa0db7d6-7f29-4a87-aca9-81db8edadd6f"},"vehicle_type_id":"4","last_reported":1747048114,"current_range_meters":19200,"station_id":"ce4bhn12rcd13ifvqgqg","pricing_plan_id":"cebpf4jnsgd1na2vs0mg"},{"bike_id":"7a686680-25f1-4d49-8247-59a63513da01","system_id":"levelo_inurba_marseille","lat":43.29711,"lon":5.36599,"is_reserved":false,"is_disabled":false,"rental_uris":{"android":"levelo://app?vid=7a686680-25f1-4d49-8247-59a63513da01","ios":"levelo://app?vid=7a686680-25f1-4d49-8247-59a63513da01"},"vehicle_type_id":"4","last_reported":1747048114,"current_range_meters":19600,"station_id":"ce4bgn12rcd13ifvqbt0","pricing_plan_id":"cebpf4jnsgd1na2vs0mg"},{"bike_id":"f808d9fd-bacf-4110-9b78-669cf1f2eeb6","system_id":"levelo_inurba_marseille","lat":43.3117,"lon":5.38714,"is_reserved":false,"is_disabled":false,"rental_uris":{"android":"levelo://app?vid=f808d9fd-bacf-4110-9b78-669cf1f2eeb6","ios":"levelo://app?vid=f808d9fd-bacf-4110-9b78-669cf1f2eeb6"},"vehicle_type_id":"4","last_reported":1747048114,"current_range_meters":19600,"station_id":"ce4bgv12rcd13ifvqcp0","pricing_plan_id":"cebpf4jnsgd1na2vs0mg"},{"bike_id":"3e34c50d-4700-4c65-8cdc-52d6476a77bc","system_id":"levelo_inurba_marseille","lat":43.30421,"lon":5.39758,"is_reserved":false,"is_disabled":false,"rental_uris":{"android":"levelo://app?vid=3e34c50d-4700-4c65-8cdc-52d6476a77bc","ios":"levelo://app?vid=3e34c50d-4700-4c65-8cdc-52d6476a77bc"},"vehicle_type_id":"4","last_reported":1747048114,"current_range_meters":19600,"station_id":"ce4bh092rcd13ifvqd20","pricing_plan_id":"cebpf4jnsgd1na2vs0mg"},{"bike_id":"f3ec045a-47e2-4247-8265-708a5969471b","system_id":"levelo_inurba_marseille","lat":43.26203,"lon":5.37449,"is_reserved":false,"is_disabled":false,"rental_uris":{"android":"levelo://app?vid=f3ec045a-47e2-4247-8265-708a5969471b","ios":"levelo://app?vid=f3ec045a-47e2-4247-8265-708a5969471b"},"vehicle_type_id":"4","last_reported":1747048114,"current_range_meters":19600,"station_id":"ce4bhgp2rcd13ifvqfc0","pricing_plan_id":"cebpf4jnsgd1na2vs0mg"},{"bike_id":"a37bd60e-f744-4b5a-b79b-1a61fe86683d","system_id":"levelo_inurba_marseille","lat":43.25069,"lon":5.39503,"is_reserved":false,"is_disabled":false,"rental_uris":{"android":"levelo://app?vid=a37bd60e-f744-4b5a-b79b-1a61fe86683d","ios":"levelo://app?vid=a37bd60e-f744-4b5a-b79b-1a61fe86683d"},"vehicle_type_id":"4","last_reported":1747048114,"current_range_meters":19600,"station_id":"ce4bhm12rcd13ifvqgkg","pricing_plan_id":"cebpf4jnsgd1na2vs0mg"},{"bike_id":"ad318f3b-2a79-4060-98f6-ed32498cf202","system_id":"levelo_inurba_marseille","lat":43.2591,"lon":5.40875,"is_reserved":false,"is_disabled":false,"rental_uris":{"android":"levelo://app?vid=ad318f3b-2a79-4060-98f6-ed32498cf202","ios":"levelo://app?vid=ad318f3b-2a79-4060-98f6-ed32498cf202"},"vehicle_type_id":"4","last_reported":1747048114,"current_range_meters":19600,"station_id":"ce4bhm92rcd13ifvqglg","pricing_plan_id":"cebpf4jnsgd1na2vs0mg"},{"bike_id":"0ff5100d-86c0-4f46-bc4c-c1d779085578","system_id":"levelo_inurba_marseille","lat":43.2317,"lon":5.39999,"is_reserved":false,"is_disabled":false,"rental_uris":{"android":"levelo://app?vid=0ff5100d-86c0-4f46-bc4c-c1d779085578","ios":"levelo://app?vid=0ff5100d-86c0-4f46-bc4c-c1d779085578"},"vehicle_type_id":"4","last_reported":1747048114,"current_range_meters":19600,"station_id":"ce4bhn12rcd13ifvqgqg","pricing_plan_id":"cebpf4jnsgd1na2vs0mg"},{"bike_id":"804143ab-c25a-4e4b-acc5-610b2d47d906","system_id":"levelo_inurba_marseille","lat":43.24078,"lon":5.37759,"is_reserved":false,"is_disabled":false,"rental_uris":{"android":"levelo://app?vid=804143ab-c25a-4e4b-acc5-610b2d47d906","ios":"levelo://app?vid=804143ab-c25a-4e4b-acc5-610b2d47d906"},"vehicle_type_id":"4","last_reported":1747048114,"current_range_meters":19600,"station_id":"ce4bhnp2rcd13ifvqgvg","pricing_plan_id":"cebpf4jnsgd1na2vs0mg"},{"bike_id":"d2daad94-4196-4b34-b45f-396f0b5ddcb6","system_id":"levelo_inurba_marseille","lat":43.31755,"lon":5.39017,"is_reserved":false,"is_disabled":false,"rental_uris":{"android":"levelo://app?vid=d2daad94-4196-4b34-b45f-396f0b5ddcb6","ios":"levelo://app?vid=d2daad94-4196-4b34-b45f-396f0b5ddcb6"},"vehicle_type_id":"4","last_reported":1747048114,"current_range_meters":19600,"station_id":"ce4bhqp2rcd13ifvqhng","pricing_plan_id":"cebpf4jnsgd1na2vs0mg"},{"bike_id":"8f898ea4-0b70-46db-b495-a08fd22223a4","system_id":"levelo_inurba_marseille","lat":43.22929,"lon":5.35375,"is_reserved":false,"is_disabled":false,"rental_uris":{"android":"levelo://app?vid=8f898ea4-0b70-46db-b495-a08fd22223a4","ios":"levelo://app?vid=8f898ea4-0b70-46db-b495-a08fd22223a4"},"vehicle_type_id":"4","last_reported":1747048114,"current_range_meters":19600,"station_id":"cpo3532slgdg3j2ikp40","pricing_plan_id":"cebpf4jnsgd1na2vs0mg"},{"bike_id":"691ad911-b1d0-47fc-a77d-e5e3db08d382","system_id":"levelo_inurba_marseille","lat":43.21759,"lon":5.3461,"is_reserved":false,"is_disabled":false,"rental_uris":{"android":"levelo://app?vid=691ad911-b1d0-47fc-a77d-e5e3db08d382","ios":"levelo://app?vid=691ad911-b1d0-47fc-a77d-e5e3db08d382"},"vehicle_type_id":"4","last_reported":1747048114,"current_range_meters":19600,"station_id":"st_cvj6r9ubvosntc0bgbag","pricing_plan_id":"cebpf4jnsgd1na2vs0mg"},{"bike_id":"052e8be5-756e-40b8-bf8d-fe2bdca2d830","system_id":"levelo_inurba_marseille","lat":43.21191,"lon":5.35079,"is_reserved":false,"is_disabled":false,"rental_uris":{"android":"levelo://app?vid=052e8be5-756e-40b8-bf8d-fe2bdca2d830","ios":"levelo://app?vid=052e8be5-756e-40b8-bf8d-fe2bdca2d830"},"vehicle_type_id":"4","last_reported":1747048114,"current_range_meters":19600,"station_id":"st_cvj6sg6p6f1abm77japg","pricing_plan_id":"cebpf4jnsgd1na2vs0mg"},{"bike_id":"cc25aae6-3197-44f8-8471-8a0efb35cc4f","system_id":"levelo_inurba_marseille","lat":43.30613,"lon":5.36594,"is_reserved":false,"is_disabled":false,"rental_uris":{"android":"levelo://app?vid=cc25aae6-3197-44f8-8471-8a0efb35cc4f","ios":"levelo://app?vid=cc25aae6-3197-44f8-8471-8a0efb35cc4f"},"vehicle_type_id":"4","last_reported":1747048114,"current_range_meters":20000,"station_id":"","pricing_plan_id":"cebpf4jnsgd1na2vs0mg"},{"bike_id":"c2180296-e525-4f7e-aeda-5622275d4cbc","system_id":"levelo_inurba_marseille","lat":43.30531,"lon":5.36543,"is_reserved":false,"is_disabled":false,"rental_uris":{"android":"levelo://app?vid=c2180296-e525-4f7e-aeda-5622275d4cbc","ios":"levelo://app?vid=c2180296-e525-4f7e-aeda-5622275d4cbc"},"vehicle_type_id":"4","last_reported":1747048114,"current_range_meters":20000,"station_id":"ce4bgs12rcd13ifvqcag","pricing_plan_id":"cebpf4jnsgd1na2vs0mg"},{"bike_id":"f5513a10-030f-4f0c-8124-4e2c0301ce04","system_id":"levelo_inurba_marseille","lat":43.3112,"lon":5.37768,"is_reserved":false,"is_disabled":false,"rental_uris":{"android":"levelo://app?vid=f5513a10-030f-4f0c-8124-4e2c0301ce04","ios":"levelo://app?vid=f5513a10-030f-4f0c-8124-4e2c0301ce04"},"vehicle_type_id":"4","last_reported":1747048114,"current_range_meters":20000,"station_id":"ce4bgt92rcd13ifvqcg0","pricing_plan_id":"cebpf4jnsgd1na2vs0mg"},{"bike_id":"2de505bc-3bb3-4529-9447-c659c1fdb553","system_id":"levelo_inurba_marseille","lat":43.24063,"lon":5.37737,"is_reserved":false,"is_disabled":false,"rental_uris":{"android":"levelo://app?vid=2de505bc-3bb3-4529-9447-c659c1fdb553","ios":"levelo://app?vid=2de505bc-3bb3-4529-9447-c659c1fdb553"},"vehicle_type_id":"4","last_reported":1747048114,"current_range_meters":20000,"station_id":"ce4bhnp2rcd13ifvqgvg","pricing_plan_id":"cebpf4jnsgd1na2vs0mg"},{"bike_id":"873d95d0-a930-4660-a613-234e0b66c601","system_id":"levelo_inurba_marseille","lat":43.31726,"lon":5.42396,"is_reserved":false,"is_disabled":false,"rental_uris":{"android":"levelo://app?vid=873d95d0-a930-4660-a613-234e0b66c601","ios":"levelo://app?vid=873d95d0-a930-4660-a613-234e0b66c601"},"vehicle_type_id":"4","last_reported":1747048114,"current_range_meters":20000,"station_id":"ce4bhp92rcd13ifvqhbg","pricing_plan_id":"cebpf4jnsgd1na2vs0mg"},{"bike_id":"c893becb-b656-448c-87c0-a6f172e27b6c","system_id":"levelo_inurba_marseille","lat":43.29932,"lon":5.36555,"is_reserved":false,"is_disabled":false,"rental_uris":{"android":"levelo://app?vid=c893becb-b656-448c-87c0-a6f172e27b6c","ios":"levelo://app?vid=c893becb-b656-448c-87c0-a6f172e27b6c"},"vehicle_type_id":"4","last_reported":1747048114,"current_range_meters":20400,"station_id":"ce4bgm92rcd13ifvqbr0","pricing_plan_id":"cebpf4jnsgd1na2vs0mg"},{"bike_id":"dbd895d8-924b-478f-bd90-1998095e67fd","system_id":"levelo_inurba_marseille","lat":43.25867,"lon":5.39898,"is_reserved":false,"is_disabled":false,"rental_uris":{"android":"levelo://app?vid=dbd895d8-924b-478f-bd90-1998095e67fd","ios":"levelo://app?vid=dbd895d8-924b-478f-bd90-1998095e67fd"},"vehicle_type_id":"4","last_reported":1747048114,"current_range_meters":20400,"station_id":"ce4bhl92rcd13ifvqghg","pricing_plan_id":"cebpf4jnsgd1na2vs0mg"},{"bike_id":"2f7b8d81-536d-4919-8cdc-c3c844c8d942","system_id":"levelo_inurba_marseille","lat":43.32106,"lon":5.36774,"is_reserved":false,"is_disabled":false,"rental_uris":{"android":"levelo://app?vid=2f7b8d81-536d-4919-8cdc-c3c844c8d942","ios":"levelo://app?vid=2f7b8d81-536d-4919-8cdc-c3c844c8d942"},"vehicle_type_id":"4","last_reported":1747048114,"current_range_meters":20400,"station_id":"ce4bhrh2rcd13ifvqhug","pricing_plan_id":"cebpf4jnsgd1na2vs0mg"},{"bike_id":"feaed5e1-8dfb-4df7-bd3a-9eb769163c1a","system_id":"levelo_inurba_marseille","lat":43.30905,"lon":5.368412,"is_reserved":false,"is_disabled":false,"rental_uris":{"android":"levelo://app?vid=feaed5e1-8dfb-4df7-bd3a-9eb769163c1a","ios":"levelo://app?vid=feaed5e1-8dfb-4df7-bd3a-9eb769163c1a"},"vehicle_type_id":"4","last_reported":1747048114,"current_range_meters":20800,"station_id":"ce4bgn92rcd13ifvqbvg","pricing_plan_id":"cebpf4jnsgd1na2vs0mg"},{"bike_id":"6751c3af-2785-42de-bc81-f466abd046af","system_id":"levelo_inurba_marseille","lat":43.2841,"lon":5.34989,"is_reserved":false,"is_disabled":false,"rental_uris":{"android":"levelo://app?vid=6751c3af-2785-42de-bc81-f466abd046af","ios":"levelo://app?vid=6751c3af-2785-42de-bc81-f466abd046af"},"vehicle_type_id":"4","last_reported":1747048114,"current_range_meters":20800,"station_id":"ce4bhbh2rcd13ifvqepg","pricing_plan_id":"cebpf4jnsgd1na2vs0mg"},{"bike_id":"b74440fb-a055-4f6e-ab47-b3f483f1cc70","system_id":"levelo_inurba_marseille","lat":43.324975,"lon":5.36557,"is_reserved":false,"is_disabled":false,"rental_uris":{"android":"levelo://app?vid=b74440fb-a055-4f6e-ab47-b3f483f1cc70","ios":"levelo://app?vid=b74440fb-a055-4f6e-ab47-b3f483f1cc70"},"vehicle_type_id":"4","last_reported":1747048114,"current_range_meters":20800,"station_id":"ce4bhs12rcd13ifvqhvg","pricing_plan_id":"cebpf4jnsgd1na2vs0mg"},{"bike_id":"5929a544-ded7-42c5-b242-6e3558a2870b","system_id":"levelo_inurba_marseille","lat":43.30542,"lon":5.36706,"is_reserved":false,"is_disabled":false,"rental_uris":{"android":"levelo://app?vid=5929a544-ded7-42c5-b242-6e3558a2870b","ios":"levelo://app?vid=5929a544-ded7-42c5-b242-6e3558a2870b"},"vehicle_type_id":"4","last_reported":1747048114,"current_range_meters":21600,"station_id":"ce4bgrp2rcd13ifvqc9g","pricing_plan_id":"cebpf4jnsgd1na2vs0mg"},{"bike_id":"dd49c84d-d2d1-46d0-9b7a-03780b9deb34","system_id":"levelo_inurba_marseille","lat":43.30585,"lon":5.39346,"is_reserved":false,"is_disabled":false,"rental_uris":{"android":"levelo://app?vid=dd49c84d-d2d1-46d0-9b7a-03780b9deb34","ios":"levelo://app?vid=dd49c84d-d2d1-46d0-9b7a-03780b9deb34"},"vehicle_type_id":"4","last_reported":1747048114,"current_range_meters":21600,"station_id":"ce4bh0p2rcd13ifvqd80","pricing_plan_id":"cebpf4jnsgd1na2vs0mg"},{"bike_id":"45b2390d-a6ff-4f75-a7fc-178a0be1841f","system_id":"levelo_inurba_marseille","lat":43.29003,"lon":5.35608,"is_reserved":false,"is_disabled":false,"rental_uris":{"android":"levelo://app?vid=45b2390d-a6ff-4f75-a7fc-178a0be1841f","ios":"levelo://app?vid=45b2390d-a6ff-4f75-a7fc-178a0be1841f"},"vehicle_type_id":"4","last_reported":1747048114,"current_range_meters":21600,"station_id":"ce4bhb92rcd13ifvqen0","pricing_plan_id":"cebpf4jnsgd1na2vs0mg"},{"bike_id":"82171c0d-e74b-441d-9785-ea5f1f55c2b9","system_id":"levelo_inurba_marseille","lat":43.28417,"lon":5.34992,"is_reserved":false,"is_disabled":false,"rental_uris":{"android":"levelo://app?vid=82171c0d-e74b-441d-9785-ea5f1f55c2b9","ios":"levelo://app?vid=82171c0d-e74b-441d-9785-ea5f1f55c2b9"},"vehicle_type_id":"4","last_reported":1747048114,"current_range_meters":21600,"station_id":"ce4bhbh2rcd13ifvqepg","pricing_plan_id":"cebpf4jnsgd1na2vs0mg"},{"bike_id":"94aecf60-80e2-4740-9194-acfe27b5c88e","system_id":"levelo_inurba_marseille","lat":43.28616,"lon":5.35103,"is_reserved":false,"is_disabled":false,"rental_uris":{"android":"levelo://app?vid=94aecf60-80e2-4740-9194-acfe27b5c88e","ios":"levelo://app?vid=94aecf60-80e2-4740-9194-acfe27b5c88e"},"vehicle_type_id":"4","last_reported":1747048114,"current_range_meters":21600,"station_id":"ce4bhch2rcd13ifvqeug","pricing_plan_id":"cebpf4jnsgd1na2vs0mg"},{"bike_id":"77f04649-f9d2-4222-99e5-75d958567933","system_id":"levelo_inurba_marseille","lat":43.25929,"lon":5.40899,"is_reserved":false,"is_disabled":false,"rental_uris":{"android":"levelo://app?vid=77f04649-f9d2-4222-99e5-75d958567933","ios":"levelo://app?vid=77f04649-f9d2-4222-99e5-75d958567933"},"vehicle_type_id":"4","last_reported":1747048114,"current_range_meters":21600,"station_id":"ce4bhm92rcd13ifvqglg","pricing_plan_id":"cebpf4jnsgd1na2vs0mg"},{"bike_id":"ee9711bb-60b9-45e3-abe3-db1afee53a9f","system_id":"levelo_inurba_marseille","lat":43.21751,"lon":5.34602,"is_reserved":false,"is_disabled":false,"rental_uris":{"android":"levelo://app?vid=ee9711bb-60b9-45e3-abe3-db1afee53a9f","ios":"levelo://app?vid=ee9711bb-60b9-45e3-abe3-db1afee53a9f"},"vehicle_type_id":"4","last_reported":1747048114,"current_range_meters":21600,"station_id":"st_cvj6r9ubvosntc0bgbag","pricing_plan_id":"cebpf4jnsgd1na2vs0mg"},{"bike_id":"4315f055-60c2-4923-a70f-8dd169b77a5f","system_id":"levelo_inurba_marseille","lat":43.30756,"lon":5.37852,"is_reserved":false,"is_disabled":false,"rental_uris":{"android":"levelo://app?vid=4315f055-60c2-4923-a70f-8dd169b77a5f","ios":"levelo://app?vid=4315f055-60c2-4923-a70f-8dd169b77a5f"},"vehicle_type_id":"4","last_reported":1747048114,"current_range_meters":22000,"station_id":"","pricing_plan_id":"cebpf4jnsgd1na2vs0mg"},{"bike_id":"99e1079b-9016-4f15-95c9-b0e3fa60e487","system_id":"levelo_inurba_marseille","lat":43.24962,"lon":5.38965,"is_reserved":false,"is_disabled":false,"rental_uris":{"android":"levelo://app?vid=99e1079b-9016-4f15-95c9-b0e3fa60e487","ios":"levelo://app?vid=99e1079b-9016-4f15-95c9-b0e3fa60e487"},"vehicle_type_id":"4","last_reported":1747048114,"current_range_meters":22000,"station_id":"","pricing_plan_id":"cebpf4jnsgd1na2vs0mg"},{"bike_id":"49f67af7-45a7-453f-abc4-17b1aceecc4a","system_id":"levelo_inurba_marseille","lat":43.297145,"lon":5.366054,"is_reserved":false,"is_disabled":false,"rental_uris":{"android":"levelo://app?vid=49f67af7-45a7-453f-abc4-17b1aceecc4a","ios":"levelo://app?vid=49f67af7-45a7-453f-abc4-17b1aceecc4a"},"vehicle_type_id":"4","last_reported":1747048114,"current_range_meters":22000,"station_id":"ce4bgn12rcd13ifvqbt0","pricing_plan_id":"cebpf4jnsgd1na2vs0mg"},{"bike_id":"e9a0bb13-8d9d-486d-a1ed-f2f8244a4e88","system_id":"levelo_inurba_marseille","lat":43.30462,"lon":5.37916,"is_reserved":false,"is_disabled":false,"rental_uris":{"android":"levelo://app?vid=e9a0bb13-8d9d-486d-a1ed-f2f8244a4e88","ios":"levelo://app?vid=e9a0bb13-8d9d-486d-a1ed-f2f8244a4e88"},"vehicle_type_id":"4","last_reported":1747048114,"current_range_meters":22000,"station_id":"ce4bgup2rcd13ifvqcn0","pricing_plan_id":"cebpf4jnsgd1na2vs0mg"},{"bike_id":"beaae86b-fbf5-4009-84b5-3e2d643c7789","system_id":"levelo_inurba_marseille","lat":43.30078,"lon":5.39071,"is_reserved":false,"is_disabled":false,"rental_uris":{"android":"levelo://app?vid=beaae86b-fbf5-4009-84b5-3e2d643c7789","ios":"levelo://app?vid=beaae86b-fbf5-4009-84b5-3e2d643c7789"},"vehicle_type_id":"4","last_reported":1747048114,"current_range_meters":22000,"station_id":"ce4bh192rcd13ifvqdb0","pricing_plan_id":"cebpf4jnsgd1na2vs0mg"},{"bike_id":"d0b0ddcf-b0b4-4d71-bb69-ce062a91771f","system_id":"levelo_inurba_marseille","lat":43.29256,"lon":5.40906,"is_reserved":false,"is_disabled":false,"rental_uris":{"android":"levelo://app?vid=d0b0ddcf-b0b4-4d71-bb69-ce062a91771f","ios":"levelo://app?vid=d0b0ddcf-b0b4-4d71-bb69-ce062a91771f"},"vehicle_type_id":"4","last_reported":1747048114,"current_range_meters":22000,"station_id":"ce4bh192rcd13ifvqdc0","pricing_plan_id":"cebpf4jnsgd1na2vs0mg"},{"bike_id":"148d756c-c2a2-422a-b48b-70b0f22a7e4e","system_id":"levelo_inurba_marseille","lat":43.26558,"lon":5.37281,"is_reserved":false,"is_disabled":false,"rental_uris":{"android":"levelo://app?vid=148d756c-c2a2-422a-b48b-70b0f22a7e4e","ios":"levelo://app?vid=148d756c-c2a2-422a-b48b-70b0f22a7e4e"},"vehicle_type_id":"4","last_reported":1747048114,"current_range_meters":22000,"station_id":"ce4bhg12rcd13ifvqf70","pricing_plan_id":"cebpf4jnsgd1na2vs0mg"},{"bike_id":"0674bc11-3817-4ab0-8a69-0b7984f3dd7e","system_id":"levelo_inurba_marseille","lat":43.24069,"lon":5.37751,"is_reserved":false,"is_disabled":false,"rental_uris":{"android":"levelo://app?vid=0674bc11-3817-4ab0-8a69-0b7984f3dd7e","ios":"levelo://app?vid=0674bc11-3817-4ab0-8a69-0b7984f3dd7e"},"vehicle_type_id":"4","last_reported":1747048114,"current_range_meters":22000,"station_id":"ce4bhnp2rcd13ifvqgvg","pricing_plan_id":"cebpf4jnsgd1na2vs0mg"},{"bike_id":"7836b4bc-7d58-466b-be3c-0a70e9c2ba81","system_id":"levelo_inurba_marseille","lat":43.30541,"lon":5.365,"is_reserved":false,"is_disabled":false,"rental_uris":{"android":"levelo://app?vid=7836b4bc-7d58-466b-be3c-0a70e9c2ba81","ios":"levelo://app?vid=7836b4bc-7d58-466b-be3c-0a70e9c2ba81"},"vehicle_type_id":"4","last_reported":1747048114,"current_range_meters":22400,"station_id":"","pricing_plan_id":"cebpf4jnsgd1na2vs0mg"},{"bike_id":"6df347ed-c861-48a7-8de9-6c66c37b6bb4","system_id":"levelo_inurba_marseille","lat":43.32111,"lon":5.36765,"is_reserved":false,"is_disabled":false,"rental_uris":{"android":"levelo://app?vid=6df347ed-c861-48a7-8de9-6c66c37b6bb4","ios":"levelo://app?vid=6df347ed-c861-48a7-8de9-6c66c37b6bb4"},"vehicle_type_id":"4","last_reported":1747048114,"current_range_meters":22400,"station_id":"ce4bhrh2rcd13ifvqhug","pricing_plan_id":"cebpf4jnsgd1na2vs0mg"},{"bike_id":"8dcb5bdb-31c2-45f9-a3f8-390ed9cd33ee","system_id":"levelo_inurba_marseille","lat":43.23068,"lon":5.3549,"is_reserved":false,"is_disabled":false,"rental_uris":{"android":"levelo://app?vid=8dcb5bdb-31c2-45f9-a3f8-390ed9cd33ee","ios":"levelo://app?vid=8dcb5bdb-31c2-45f9-a3f8-390ed9cd33ee"},"vehicle_type_id":"4","last_reported":1747048114,"current_range_meters":22400,"station_id":"cpo3342slgdg3j2ifvpg","pricing_plan_id":"cebpf4jnsgd1na2vs0mg"},{"bike_id":"7c1bb2f0-ec18-4339-a647-058c7417b13b","system_id":"levelo_inurba_marseille","lat":43.29906,"lon":5.38153,"is_reserved":false,"is_disabled":false,"rental_uris":{"android":"levelo://app?vid=7c1bb2f0-ec18-4339-a647-058c7417b13b","ios":"levelo://app?vid=7c1bb2f0-ec18-4339-a647-058c7417b13b"},"vehicle_type_id":"4","last_reported":1747048114,"current_range_meters":22800,"station_id":"ce4bgj12rcd13ifvqbc0","pricing_plan_id":"cebpf4jnsgd1na2vs0mg"},{"bike_id":"52d113b3-92ff-4f22-bf4c-15a34b616861","system_id":"levelo_inurba_marseille","lat":43.30557,"lon":5.36559,"is_reserved":false,"is_disabled":false,"rental_uris":{"android":"levelo://app?vid=52d113b3-92ff-4f22-bf4c-15a34b616861","ios":"levelo://app?vid=52d113b3-92ff-4f22-bf4c-15a34b616861"},"vehicle_type_id":"4","last_reported":1747048114,"current_range_meters":22800,"station_id":"ce4bgs12rcd13ifvqcag","pricing_plan_id":"cebpf4jnsgd1na2vs0mg"},{"bike_id":"23b99c0f-c35c-40b7-9709-af9e34db60bc","system_id":"levelo_inurba_marseille","lat":43.30435,"lon":5.39746,"is_reserved":false,"is_disabled":false,"rental_uris":{"android":"levelo://app?vid=23b99c0f-c35c-40b7-9709-af9e34db60bc","ios":"levelo://app?vid=23b99c0f-c35c-40b7-9709-af9e34db60bc"},"vehicle_type_id":"4","last_reported":1747048114,"current_range_meters":22800,"station_id":"ce4bh092rcd13ifvqd20","pricing_plan_id":"cebpf4jnsgd1na2vs0mg"},{"bike_id":"58b8021a-05cc-4dc0-bd7e-874b0720ac96","system_id":"levelo_inurba_marseille","lat":43.26206,"lon":5.37446,"is_reserved":false,"is_disabled":false,"rental_uris":{"android":"levelo://app?vid=58b8021a-05cc-4dc0-bd7e-874b0720ac96","ios":"levelo://app?vid=58b8021a-05cc-4dc0-bd7e-874b0720ac96"},"vehicle_type_id":"4","last_reported":1747048114,"current_range_meters":22800,"station_id":"ce4bhgp2rcd13ifvqfc0","pricing_plan_id":"cebpf4jnsgd1na2vs0mg"},{"bike_id":"5913edf0-2bde-43ed-b141-7524b0179af3","system_id":"levelo_inurba_marseille","lat":43.25809,"lon":5.41062,"is_reserved":false,"is_disabled":false,"rental_uris":{"android":"levelo://app?vid=5913edf0-2bde-43ed-b141-7524b0179af3","ios":"levelo://app?vid=5913edf0-2bde-43ed-b141-7524b0179af3"},"vehicle_type_id":"4","last_reported":1747048114,"current_range_meters":22800,"station_id":"ce4bhkp2rcd13ifvqgd0","pricing_plan_id":"cebpf4jnsgd1na2vs0mg"},{"bike_id":"5728e68c-f162-4e22-b613-26d103e45857","system_id":"levelo_inurba_marseille","lat":43.25919,"lon":5.40878,"is_reserved":false,"is_disabled":false,"rental_uris":{"android":"levelo://app?vid=5728e68c-f162-4e22-b613-26d103e45857","ios":"levelo://app?vid=5728e68c-f162-4e22-b613-26d103e45857"},"vehicle_type_id":"4","last_reported":1747048114,"current_range_meters":22800,"station_id":"ce4bhm92rcd13ifvqglg","pricing_plan_id":"cebpf4jnsgd1na2vs0mg"},{"bike_id":"5751da18-f3e9-4d73-9977-866f53256496","system_id":"levelo_inurba_marseille","lat":43.24074,"lon":5.37768,"is_reserved":false,"is_disabled":false,"rental_uris":{"android":"levelo://app?vid=5751da18-f3e9-4d73-9977-866f53256496","ios":"levelo://app?vid=5751da18-f3e9-4d73-9977-866f53256496"},"vehicle_type_id":"4","last_reported":1747048114,"current_range_meters":22800,"station_id":"ce4bhnp2rcd13ifvqgvg","pricing_plan_id":"cebpf4jnsgd1na2vs0mg"},{"bike_id":"37e482f0-c860-4d7d-84d9-dcbf209d4d71","system_id":"levelo_inurba_marseille","lat":43.31085,"lon":5.42433,"is_reserved":false,"is_disabled":false,"rental_uris":{"android":"levelo://app?vid=37e482f0-c860-4d7d-84d9-dcbf209d4d71","ios":"levelo://app?vid=37e482f0-c860-4d7d-84d9-dcbf209d4d71"},"vehicle_type_id":"4","last_reported":1747048114,"current_range_meters":22800,"station_id":"ce4bhp92rcd13ifvqhag","pricing_plan_id":"cebpf4jnsgd1na2vs0mg"},{"bike_id":"8aeed7e3-49de-4929-ac9c-a3a1054a361a","system_id":"levelo_inurba_marseille","lat":43.29327,"lon":5.37692,"is_reserved":false,"is_disabled":false,"rental_uris":{"android":"levelo://app?vid=8aeed7e3-49de-4929-ac9c-a3a1054a361a","ios":"levelo://app?vid=8aeed7e3-49de-4929-ac9c-a3a1054a361a"},"vehicle_type_id":"4","last_reported":1747048114,"current_range_meters":23200,"station_id":"","pricing_plan_id":"cebpf4jnsgd1na2vs0mg"},{"bike_id":"bb686bea-80ed-42c7-9fb3-7af090737fb8","system_id":"levelo_inurba_marseille","lat":43.28263,"lon":5.3507,"is_reserved":false,"is_disabled":false,"rental_uris":{"android":"levelo://app?vid=bb686bea-80ed-42c7-9fb3-7af090737fb8","ios":"levelo://app?vid=bb686bea-80ed-42c7-9fb3-7af090737fb8"},"vehicle_type_id":"4","last_reported":1747048114,"current_range_meters":23200,"station_id":"ce4bhbp2rcd13ifvqerg","pricing_plan_id":"cebpf4jnsgd1na2vs0mg"},{"bike_id":"790a1364-3ee3-447e-ba01-539581ccc04b","system_id":"levelo_inurba_marseille","lat":43.29273,"lon":5.36846,"is_reserved":false,"is_disabled":false,"rental_uris":{"android":"levelo://app?vid=790a1364-3ee3-447e-ba01-539581ccc04b","ios":"levelo://app?vid=790a1364-3ee3-447e-ba01-539581ccc04b"},"vehicle_type_id":"4","last_reported":1747048114,"current_range_meters":23200,"station_id":"ce4bhbp2rcd13ifvqesg","pricing_plan_id":"cebpf4jnsgd1na2vs0mg"},{"bike_id":"5112bcc8-86d4-49f4-8929-d9c54aac9990","system_id":"levelo_inurba_marseille","lat":43.23194,"lon":5.35553,"is_reserved":false,"is_disabled":false,"rental_uris":{"android":"levelo://app?vid=5112bcc8-86d4-49f4-8929-d9c54aac9990","ios":"levelo://app?vid=5112bcc8-86d4-49f4-8929-d9c54aac9990"},"vehicle_type_id":"4","last_reported":1747048114,"current_range_meters":23200,"station_id":"ce4bhu92rcd13ifvqi70","pricing_plan_id":"cebpf4jnsgd1na2vs0mg"},{"bike_id":"04d66d1c-9824-4ef1-977b-71ea48fa7c25","system_id":"levelo_inurba_marseille","lat":43.29226,"lon":5.36534,"is_reserved":false,"is_disabled":false,"rental_uris":{"android":"levelo://app?vid=04d66d1c-9824-4ef1-977b-71ea48fa7c25","ios":"levelo://app?vid=04d66d1c-9824-4ef1-977b-71ea48fa7c25"},"vehicle_type_id":"4","last_reported":1747048114,"current_range_meters":24000,"station_id":"","pricing_plan_id":"cebpf4jnsgd1na2vs0mg"},{"bike_id":"24e002c2-978e-4246-a2ba-e8454ffeca54","system_id":"levelo_inurba_marseille","lat":43.29297,"lon":5.37461,"is_reserved":false,"is_disabled":false,"rental_uris":{"android":"levelo://app?vid=24e002c2-978e-4246-a2ba-e8454ffeca54","ios":"levelo://app?vid=24e002c2-978e-4246-a2ba-e8454ffeca54"},"vehicle_type_id":"4","last_reported":1747048114,"current_range_meters":24000,"station_id":"ce4bgi12rcd13ifvqb70","pricing_plan_id":"cebpf4jnsgd1na2vs0mg"},{"bike_id":"929af366-ec5a-4d6d-abd1-b51ea798f4a5","system_id":"levelo_inurba_marseille","lat":43.309387,"lon":5.401415,"is_reserved":false,"is_disabled":false,"rental_uris":{"android":"levelo://app?vid=929af366-ec5a-4d6d-abd1-b51ea798f4a5","ios":"levelo://app?vid=929af366-ec5a-4d6d-abd1-b51ea798f4a5"},"vehicle_type_id":"4","last_reported":1747048114,"current_range_meters":24000,"station_id":"ce4bgvp2rcd13ifvqct0","pricing_plan_id":"cebpf4jnsgd1na2vs0mg"},{"bike_id":"dc641743-b968-4496-812a-3b41120ce533","system_id":"levelo_inurba_marseille","lat":43.28399,"lon":5.34987,"is_reserved":false,"is_disabled":false,"rental_uris":{"android":"levelo://app?vid=dc641743-b968-4496-812a-3b41120ce533","ios":"levelo://app?vid=dc641743-b968-4496-812a-3b41120ce533"},"vehicle_type_id":"4","last_reported":1747048114,"current_range_meters":24000,"station_id":"ce4bhbh2rcd13ifvqepg","pricing_plan_id":"cebpf4jnsgd1na2vs0mg"},{"bike_id":"ded21d3b-017a-431c-a119-0da980f4a122","system_id":"levelo_inurba_marseille","lat":43.28414,"lon":5.34975,"is_reserved":false,"is_disabled":false,"rental_uris":{"android":"levelo://app?vid=ded21d3b-017a-431c-a119-0da980f4a122","ios":"levelo://app?vid=ded21d3b-017a-431c-a119-0da980f4a122"},"vehicle_type_id":"4","last_reported":1747048114,"current_range_meters":24000,"station_id":"ce4bhbh2rcd13ifvqepg","pricing_plan_id":"cebpf4jnsgd1na2vs0mg"},{"bike_id":"15d4dd16-28c3-4560-8b39-b1d67197cd4b","system_id":"levelo_inurba_marseille","lat":43.26554,"lon":5.37283,"is_reserved":false,"is_disabled":false,"rental_uris":{"android":"levelo://app?vid=15d4dd16-28c3-4560-8b39-b1d67197cd4b","ios":"levelo://app?vid=15d4dd16-28c3-4560-8b39-b1d67197cd4b"},"vehicle_type_id":"4","last_reported":1747048114,"current_range_meters":24000,"station_id":"ce4bhg12rcd13ifvqf70","pricing_plan_id":"cebpf4jnsgd1na2vs0mg"},{"bike_id":"99bdd88a-6c79-4c7b-9277-5e8dbca0d025","system_id":"levelo_inurba_marseille","lat":43.270693,"lon":5.422656,"is_reserved":false,"is_disabled":false,"rental_uris":{"android":"levelo://app?vid=99bdd88a-6c79-4c7b-9277-5e8dbca0d025","ios":"levelo://app?vid=99bdd88a-6c79-4c7b-9277-5e8dbca0d025"},"vehicle_type_id":"4","last_reported":1747048114,"current_range_meters":24000,"station_id":"ce4bhk92rcd13ifvqgb0","pricing_plan_id":"cebpf4jnsgd1na2vs0mg"},{"bike_id":"f7b28b14-5137-4023-b1b7-b7e5bb33d722","system_id":"levelo_inurba_marseille","lat":43.25946,"lon":5.40903,"is_reserved":false,"is_disabled":false,"rental_uris":{"android":"levelo://app?vid=f7b28b14-5137-4023-b1b7-b7e5bb33d722","ios":"levelo://app?vid=f7b28b14-5137-4023-b1b7-b7e5bb33d722"},"vehicle_type_id":"4","last_reported":1747048114,"current_range_meters":24000,"station_id":"ce4bhm92rcd13ifvqglg","pricing_plan_id":"cebpf4jnsgd1na2vs0mg"},{"bike_id":"581a76c6-406f-436c-80cf-424046378536","system_id":"levelo_inurba_marseille","lat":43.23141,"lon":5.43716,"is_reserved":false,"is_disabled":false,"rental_uris":{"android":"levelo://app?vid=581a76c6-406f-436c-80cf-424046378536","ios":"levelo://app?vid=581a76c6-406f-436c-80cf-424046378536"},"vehicle_type_id":"4","last_reported":1747048114,"current_range_meters":24000,"station_id":"ce4bhmp2rcd13ifvqgog","pricing_plan_id":"cebpf4jnsgd1na2vs0mg"},{"bike_id":"6355fa34-6693-47f9-bdce-8453287817b1","system_id":"levelo_inurba_marseille","lat":43.317618,"lon":5.390045,"is_reserved":false,"is_disabled":false,"rental_uris":{"android":"levelo://app?vid=6355fa34-6693-47f9-bdce-8453287817b1","ios":"levelo://app?vid=6355fa34-6693-47f9-bdce-8453287817b1"},"vehicle_type_id":"4","last_reported":1747048114,"current_range_meters":24000,"station_id":"ce4bhqp2rcd13ifvqhng","pricing_plan_id":"cebpf4jnsgd1na2vs0mg"},{"bike_id":"711c3665-551b-4176-9dc3-d824e9806ffd","system_id":"levelo_inurba_marseille","lat":43.31584,"lon":5.38891,"is_reserved":false,"is_disabled":false,"rental_uris":{"android":"levelo://app?vid=711c3665-551b-4176-9dc3-d824e9806ffd","ios":"levelo://app?vid=711c3665-551b-4176-9dc3-d824e9806ffd"},"vehicle_type_id":"4","last_reported":1747048114,"current_range_meters":24400,"station_id":"","pricing_plan_id":"cebpf4jnsgd1na2vs0mg"},{"bike_id":"408d9330-e303-418f-8f08-2214028633bb","system_id":"levelo_inurba_marseille","lat":43.312329,"lon":5.368676,"is_reserved":false,"is_disabled":false,"rental_uris":{"android":"levelo://app?vid=408d9330-e303-418f-8f08-2214028633bb","ios":"levelo://app?vid=408d9330-e303-418f-8f08-2214028633bb"},"vehicle_type_id":"4","last_reported":1747048114,"current_range_meters":24400,"station_id":"ce4bgl92rcd13ifvqbq0","pricing_plan_id":"cebpf4jnsgd1na2vs0mg"},{"bike_id":"9b5cd6d8-849a-4cc8-b3e4-5c8af7e44243","system_id":"levelo_inurba_marseille","lat":43.2827,"lon":5.35068,"is_reserved":false,"is_disabled":false,"rental_uris":{"android":"levelo://app?vid=9b5cd6d8-849a-4cc8-b3e4-5c8af7e44243","ios":"levelo://app?vid=9b5cd6d8-849a-4cc8-b3e4-5c8af7e44243"},"vehicle_type_id":"4","last_reported":1747048114,"current_range_meters":24400,"station_id":"ce4bhbp2rcd13ifvqerg","pricing_plan_id":"cebpf4jnsgd1na2vs0mg"},{"bike_id":"8888b8b1-d10a-477a-a33d-31b216c9823c","system_id":"levelo_inurba_marseille","lat":43.28266,"lon":5.35065,"is_reserved":false,"is_disabled":false,"rental_uris":{"android":"levelo://app?vid=8888b8b1-d10a-477a-a33d-31b216c9823c","ios":"levelo://app?vid=8888b8b1-d10a-477a-a33d-31b216c9823c"},"vehicle_type_id":"4","last_reported":1747048114,"current_range_meters":24400,"station_id":"ce4bhbp2rcd13ifvqerg","pricing_plan_id":"cebpf4jnsgd1na2vs0mg"},{"bike_id":"8847fff8-f978-4672-bc66-53967898bfb3","system_id":"levelo_inurba_marseille","lat":43.246513,"lon":5.388918,"is_reserved":false,"is_disabled":false,"rental_uris":{"android":"levelo://app?vid=8847fff8-f978-4672-bc66-53967898bfb3","ios":"levelo://app?vid=8847fff8-f978-4672-bc66-53967898bfb3"},"vehicle_type_id":"4","last_reported":1747048114,"current_range_meters":24400,"station_id":"ce4bhg12rcd13ifvqf60","pricing_plan_id":"cebpf4jnsgd1na2vs0mg"},{"bike_id":"d53f5516-ba33-4b48-bab7-c8219dc18d6c","system_id":"levelo_inurba_marseille","lat":43.26027,"lon":5.37545,"is_reserved":false,"is_disabled":false,"rental_uris":{"android":"levelo://app?vid=d53f5516-ba33-4b48-bab7-c8219dc18d6c","ios":"levelo://app?vid=d53f5516-ba33-4b48-bab7-c8219dc18d6c"},"vehicle_type_id":"4","last_reported":1747048114,"current_range_meters":24400,"station_id":"ce4bhgh2rcd13ifvqfa0","pricing_plan_id":"cebpf4jnsgd1na2vs0mg"},{"bike_id":"cdbebb20-3b1b-4a9d-aa13-5efdf86231ec","system_id":"levelo_inurba_marseille","lat":43.240728,"lon":5.377572,"is_reserved":false,"is_disabled":false,"rental_uris":{"android":"levelo://app?vid=cdbebb20-3b1b-4a9d-aa13-5efdf86231ec","ios":"levelo://app?vid=cdbebb20-3b1b-4a9d-aa13-5efdf86231ec"},"vehicle_type_id":"4","last_reported":1747048114,"current_range_meters":24400,"station_id":"ce4bhnp2rcd13ifvqgvg","pricing_plan_id":"cebpf4jnsgd1na2vs0mg"},{"bike_id":"51fc3c2b-34f5-4676-b7ce-c2a3624e6b80","system_id":"levelo_inurba_marseille","lat":43.32538,"lon":5.4143,"is_reserved":false,"is_disabled":false,"rental_uris":{"android":"levelo://app?vid=51fc3c2b-34f5-4676-b7ce-c2a3624e6b80","ios":"levelo://app?vid=51fc3c2b-34f5-4676-b7ce-c2a3624e6b80"},"vehicle_type_id":"4","last_reported":1747048114,"current_range_meters":24400,"station_id":"ce4bhq12rcd13ifvqhhg","pricing_plan_id":"cebpf4jnsgd1na2vs0mg"},{"bike_id":"41448224-2a05-4ab1-a60f-45e48bec1916","system_id":"levelo_inurba_marseille","lat":43.30131,"lon":5.38074,"is_reserved":false,"is_disabled":false,"rental_uris":{"android":"levelo://app?vid=41448224-2a05-4ab1-a60f-45e48bec1916","ios":"levelo://app?vid=41448224-2a05-4ab1-a60f-45e48bec1916"},"vehicle_type_id":"4","last_reported":1747048114,"current_range_meters":24800,"station_id":"ce4bgjp2rcd13ifvqbh0","pricing_plan_id":"cebpf4jnsgd1na2vs0mg"},{"bike_id":"02c75ad9-e9d6-4aa9-a150-5b501c85df6c","system_id":"levelo_inurba_marseille","lat":43.306121,"lon":5.393552,"is_reserved":false,"is_disabled":false,"rental_uris":{"android":"levelo://app?vid=02c75ad9-e9d6-4aa9-a150-5b501c85df6c","ios":"levelo://app?vid=02c75ad9-e9d6-4aa9-a150-5b501c85df6c"},"vehicle_type_id":"4","last_reported":1747048114,"current_range_meters":24800,"station_id":"ce4bh0p2rcd13ifvqd80","pricing_plan_id":"cebpf4jnsgd1na2vs0mg"},{"bike_id":"274c8291-6fea-4e58-a6ae-3a5c489b84c2","system_id":"levelo_inurba_marseille","lat":43.29263,"lon":5.40906,"is_reserved":false,"is_disabled":false,"rental_uris":{"android":"levelo://app?vid=274c8291-6fea-4e58-a6ae-3a5c489b84c2","ios":"levelo://app?vid=274c8291-6fea-4e58-a6ae-3a5c489b84c2"},"vehicle_type_id":"4","last_reported":1747048114,"current_range_meters":24800,"station_id":"ce4bh192rcd13ifvqdc0","pricing_plan_id":"cebpf4jnsgd1na2vs0mg"},{"bike_id":"ae66fd72-58b1-4e13-af5b-1d1bac8a8d08","system_id":"levelo_inurba_marseille","lat":43.28412,"lon":5.34999,"is_reserved":false,"is_disabled":false,"rental_uris":{"android":"levelo://app?vid=ae66fd72-58b1-4e13-af5b-1d1bac8a8d08","ios":"levelo://app?vid=ae66fd72-58b1-4e13-af5b-1d1bac8a8d08"},"vehicle_type_id":"4","last_reported":1747048114,"current_range_meters":24800,"station_id":"ce4bhbh2rcd13ifvqepg","pricing_plan_id":"cebpf4jnsgd1na2vs0mg"},{"bike_id":"0d19f400-7a92-49b0-8bde-33c71d956a65","system_id":"levelo_inurba_marseille","lat":43.28616,"lon":5.35101,"is_reserved":false,"is_disabled":false,"rental_uris":{"android":"levelo://app?vid=0d19f400-7a92-49b0-8bde-33c71d956a65","ios":"levelo://app?vid=0d19f400-7a92-49b0-8bde-33c71d956a65"},"vehicle_type_id":"4","last_reported":1747048114,"current_range_meters":24800,"station_id":"ce4bhch2rcd13ifvqeug","pricing_plan_id":"cebpf4jnsgd1na2vs0mg"},{"bike_id":"a5788a71-0dbc-4026-ad36-7f690e861f25","system_id":"levelo_inurba_marseille","lat":43.2617,"lon":5.37468,"is_reserved":false,"is_disabled":false,"rental_uris":{"android":"levelo://app?vid=a5788a71-0dbc-4026-ad36-7f690e861f25","ios":"levelo://app?vid=a5788a71-0dbc-4026-ad36-7f690e861f25"},"vehicle_type_id":"4","last_reported":1747048114,"current_range_meters":24800,"station_id":"ce4bhgp2rcd13ifvqfc0","pricing_plan_id":"cebpf4jnsgd1na2vs0mg"},{"bike_id":"0b317404-2d70-4efc-8b41-fccd89d85dc8","system_id":"levelo_inurba_marseille","lat":43.2621,"lon":5.37442,"is_reserved":false,"is_disabled":false,"rental_uris":{"android":"levelo://app?vid=0b317404-2d70-4efc-8b41-fccd89d85dc8","ios":"levelo://app?vid=0b317404-2d70-4efc-8b41-fccd89d85dc8"},"vehicle_type_id":"4","last_reported":1747048114,"current_range_meters":24800,"station_id":"ce4bhgp2rcd13ifvqfc0","pricing_plan_id":"cebpf4jnsgd1na2vs0mg"},{"bike_id":"1dd92004-5aaf-4415-b424-d31b0ded6b88","system_id":"levelo_inurba_marseille","lat":43.25582,"lon":5.38234,"is_reserved":false,"is_disabled":false,"rental_uris":{"android":"levelo://app?vid=1dd92004-5aaf-4415-b424-d31b0ded6b88","ios":"levelo://app?vid=1dd92004-5aaf-4415-b424-d31b0ded6b88"},"vehicle_type_id":"4","last_reported":1747048114,"current_range_meters":24800,"station_id":"ce4bhih2rcd13ifvqfs0","pricing_plan_id":"cebpf4jnsgd1na2vs0mg"},{"bike_id":"92fb79df-5804-428d-8e00-79c22f3bdea0","system_id":"levelo_inurba_marseille","lat":43.25715,"lon":5.41112,"is_reserved":false,"is_disabled":false,"rental_uris":{"android":"levelo://app?vid=92fb79df-5804-428d-8e00-79c22f3bdea0","ios":"levelo://app?vid=92fb79df-5804-428d-8e00-79c22f3bdea0"},"vehicle_type_id":"4","last_reported":1747048114,"current_range_meters":24800,"station_id":"ce4bhkp2rcd13ifvqgd0","pricing_plan_id":"cebpf4jnsgd1na2vs0mg"},{"bike_id":"1e9dc27a-f4ac-474d-87e5-5275d7ce4910","system_id":"levelo_inurba_marseille","lat":43.25944,"lon":5.40898,"is_reserved":false,"is_disabled":false,"rental_uris":{"android":"levelo://app?vid=1e9dc27a-f4ac-474d-87e5-5275d7ce4910","ios":"levelo://app?vid=1e9dc27a-f4ac-474d-87e5-5275d7ce4910"},"vehicle_type_id":"4","last_reported":1747048114,"current_range_meters":24800,"station_id":"ce4bhm92rcd13ifvqglg","pricing_plan_id":"cebpf4jnsgd1na2vs0mg"},{"bike_id":"ecdc1ee8-6505-41d9-8077-03d8945089aa","system_id":"levelo_inurba_marseille","lat":43.25924,"lon":5.40908,"is_reserved":false,"is_disabled":false,"rental_uris":{"android":"levelo://app?vid=ecdc1ee8-6505-41d9-8077-03d8945089aa","ios":"levelo://app?vid=ecdc1ee8-6505-41d9-8077-03d8945089aa"},"vehicle_type_id":"4","last_reported":1747048114,"current_range_meters":24800,"station_id":"ce4bhm92rcd13ifvqglg","pricing_plan_id":"cebpf4jnsgd1na2vs0mg"},{"bike_id":"3751aa57-b08e-47dd-8971-93bf80d24bc3","system_id":"levelo_inurba_marseille","lat":43.24077,"lon":5.37758,"is_reserved":false,"is_disabled":false,"rental_uris":{"android":"levelo://app?vid=3751aa57-b08e-47dd-8971-93bf80d24bc3","ios":"levelo://app?vid=3751aa57-b08e-47dd-8971-93bf80d24bc3"},"vehicle_type_id":"4","last_reported":1747048114,"current_range_meters":24800,"station_id":"ce4bhnp2rcd13ifvqgvg","pricing_plan_id":"cebpf4jnsgd1na2vs0mg"},{"bike_id":"ee863556-5af0-431a-920e-7a5d9624a95d","system_id":"levelo_inurba_marseille","lat":43.32332,"lon":5.40623,"is_reserved":false,"is_disabled":false,"rental_uris":{"android":"levelo://app?vid=ee863556-5af0-431a-920e-7a5d9624a95d","ios":"levelo://app?vid=ee863556-5af0-431a-920e-7a5d9624a95d"},"vehicle_type_id":"4","last_reported":1747048114,"current_range_meters":24800,"station_id":"ce4bhq92rcd13ifvqhjg","pricing_plan_id":"cebpf4jnsgd1na2vs0mg"},{"bike_id":"f37f0abd-ec37-41ea-8c23-6a21472c6a01","system_id":"levelo_inurba_marseille","lat":43.26806,"lon":5.40258,"is_reserved":false,"is_disabled":false,"rental_uris":{"android":"levelo://app?vid=f37f0abd-ec37-41ea-8c23-6a21472c6a01","ios":"levelo://app?vid=f37f0abd-ec37-41ea-8c23-6a21472c6a01"},"vehicle_type_id":"4","last_reported":1747048114,"current_range_meters":24800,"station_id":"ce501612rcd8frsf0b60","pricing_plan_id":"cebpf4jnsgd1na2vs0mg"},{"bike_id":"dbbfe9a9-53b6-4f4a-a471-3a5b6ca748af","system_id":"levelo_inurba_marseille","lat":43.29606,"lon":5.38111,"is_reserved":false,"is_disabled":false,"rental_uris":{"android":"levelo://app?vid=dbbfe9a9-53b6-4f4a-a471-3a5b6ca748af","ios":"levelo://app?vid=dbbfe9a9-53b6-4f4a-a471-3a5b6ca748af"},"vehicle_type_id":"4","last_reported":1747048114,"current_range_meters":25200,"station_id":"ce4bgl12rcd13ifvqbo0","pricing_plan_id":"cebpf4jnsgd1na2vs0mg"},{"bike_id":"b0aac75a-455f-4fee-ab0d-ce9deb3430ba","system_id":"levelo_inurba_marseille","lat":43.31219,"lon":5.36848,"is_reserved":false,"is_disabled":false,"rental_uris":{"android":"levelo://app?vid=b0aac75a-455f-4fee-ab0d-ce9deb3430ba","ios":"levelo://app?vid=b0aac75a-455f-4fee-ab0d-ce9deb3430ba"},"vehicle_type_id":"4","last_reported":1747048114,"current_range_meters":25200,"station_id":"ce4bgl92rcd13ifvqbq0","pricing_plan_id":"cebpf4jnsgd1na2vs0mg"},{"bike_id":"24bf9b3f-7b86-4fc2-8efe-689a8770a2b0","system_id":"levelo_inurba_marseille","lat":43.31237,"lon":5.36871,"is_reserved":false,"is_disabled":false,"rental_uris":{"android":"levelo://app?vid=24bf9b3f-7b86-4fc2-8efe-689a8770a2b0","ios":"levelo://app?vid=24bf9b3f-7b86-4fc2-8efe-689a8770a2b0"},"vehicle_type_id":"4","last_reported":1747048114,"current_range_meters":25200,"station_id":"ce4bgl92rcd13ifvqbq0","pricing_plan_id":"cebpf4jnsgd1na2vs0mg"},{"bike_id":"0fef4cb2-615b-4314-b8bd-c18fdadd38d3","system_id":"levelo_inurba_marseille","lat":43.30305,"lon":5.36882,"is_reserved":false,"is_disabled":false,"rental_uris":{"android":"levelo://app?vid=0fef4cb2-615b-4314-b8bd-c18fdadd38d3","ios":"levelo://app?vid=0fef4cb2-615b-4314-b8bd-c18fdadd38d3"},"vehicle_type_id":"4","last_reported":1747048114,"current_range_meters":25200,"station_id":"ce4bgqh2rcd13ifvqc5g","pricing_plan_id":"cebpf4jnsgd1na2vs0mg"},{"bike_id":"bdf00845-6469-432e-82c1-145b741a3065","system_id":"levelo_inurba_marseille","lat":43.313584,"lon":5.36711,"is_reserved":false,"is_disabled":false,"rental_uris":{"android":"levelo://app?vid=bdf00845-6469-432e-82c1-145b741a3065","ios":"levelo://app?vid=bdf00845-6469-432e-82c1-145b741a3065"},"vehicle_type_id":"4","last_reported":1747048114,"current_range_meters":25200,"station_id":"ce4bgr92rcd13ifvqc6g","pricing_plan_id":"cebpf4jnsgd1na2vs0mg"},{"bike_id":"783c9cf9-3769-4de9-850f-b91d12f2977b","system_id":"levelo_inurba_marseille","lat":43.28419,"lon":5.34973,"is_reserved":false,"is_disabled":false,"rental_uris":{"android":"levelo://app?vid=783c9cf9-3769-4de9-850f-b91d12f2977b","ios":"levelo://app?vid=783c9cf9-3769-4de9-850f-b91d12f2977b"},"vehicle_type_id":"4","last_reported":1747048114,"current_range_meters":25200,"station_id":"ce4bhbh2rcd13ifvqepg","pricing_plan_id":"cebpf4jnsgd1na2vs0mg"},{"bike_id":"9139c6b2-86bb-4e12-a658-12b5543525ed","system_id":"levelo_inurba_marseille","lat":43.25868,"lon":5.39895,"is_reserved":false,"is_disabled":false,"rental_uris":{"android":"levelo://app?vid=9139c6b2-86bb-4e12-a658-12b5543525ed","ios":"levelo://app?vid=9139c6b2-86bb-4e12-a658-12b5543525ed"},"vehicle_type_id":"4","last_reported":1747048114,"current_range_meters":25200,"station_id":"ce4bhl92rcd13ifvqghg","pricing_plan_id":"cebpf4jnsgd1na2vs0mg"},{"bike_id":"5f3bef14-7db5-4911-8680-7b94fe49bf1e","system_id":"levelo_inurba_marseille","lat":43.25934,"lon":5.40839,"is_reserved":false,"is_disabled":false,"rental_uris":{"android":"levelo://app?vid=5f3bef14-7db5-4911-8680-7b94fe49bf1e","ios":"levelo://app?vid=5f3bef14-7db5-4911-8680-7b94fe49bf1e"},"vehicle_type_id":"4","last_reported":1747048114,"current_range_meters":25200,"station_id":"ce4bhm92rcd13ifvqglg","pricing_plan_id":"cebpf4jnsgd1na2vs0mg"},{"bike_id":"e4b4f8e9-f3ab-4012-80cc-8a6adcb47418","system_id":"levelo_inurba_marseille","lat":43.23193,"lon":5.39967,"is_reserved":false,"is_disabled":false,"rental_uris":{"android":"levelo://app?vid=e4b4f8e9-f3ab-4012-80cc-8a6adcb47418","ios":"levelo://app?vid=e4b4f8e9-f3ab-4012-80cc-8a6adcb47418"},"vehicle_type_id":"4","last_reported":1747048114,"current_range_meters":25200,"station_id":"ce4bhn12rcd13ifvqgqg","pricing_plan_id":"cebpf4jnsgd1na2vs0mg"},{"bike_id":"2aff00df-3d4f-4caa-90ca-4c8fb72f5c08","system_id":"levelo_inurba_marseille","lat":43.3128,"lon":5.37276,"is_reserved":false,"is_disabled":false,"rental_uris":{"android":"levelo://app?vid=2aff00df-3d4f-4caa-90ca-4c8fb72f5c08","ios":"levelo://app?vid=2aff00df-3d4f-4caa-90ca-4c8fb72f5c08"},"vehicle_type_id":"4","last_reported":1747048114,"current_range_meters":25600,"station_id":"","pricing_plan_id":"cebpf4jnsgd1na2vs0mg"},{"bike_id":"186287e5-60d9-431a-86e3-48c7af63b38c","system_id":"levelo_inurba_marseille","lat":43.30141,"lon":5.3807,"is_reserved":false,"is_disabled":false,"rental_uris":{"android":"levelo://app?vid=186287e5-60d9-431a-86e3-48c7af63b38c","ios":"levelo://app?vid=186287e5-60d9-431a-86e3-48c7af63b38c"},"vehicle_type_id":"4","last_reported":1747048114,"current_range_meters":25600,"station_id":"ce4bgjp2rcd13ifvqbh0","pricing_plan_id":"cebpf4jnsgd1na2vs0mg"},{"bike_id":"7b85cc78-1e02-4ee2-827d-005bf788c0fb","system_id":"levelo_inurba_marseille","lat":43.30539,"lon":5.36552,"is_reserved":false,"is_disabled":false,"rental_uris":{"android":"levelo://app?vid=7b85cc78-1e02-4ee2-827d-005bf788c0fb","ios":"levelo://app?vid=7b85cc78-1e02-4ee2-827d-005bf788c0fb"},"vehicle_type_id":"4","last_reported":1747048114,"current_range_meters":25600,"station_id":"ce4bgs12rcd13ifvqcag","pricing_plan_id":"cebpf4jnsgd1na2vs0mg"},{"bike_id":"cb854277-e8a4-469c-b5e6-6784bc46609c","system_id":"levelo_inurba_marseille","lat":43.30464,"lon":5.37909,"is_reserved":false,"is_disabled":false,"rental_uris":{"android":"levelo://app?vid=cb854277-e8a4-469c-b5e6-6784bc46609c","ios":"levelo://app?vid=cb854277-e8a4-469c-b5e6-6784bc46609c"},"vehicle_type_id":"4","last_reported":1747048114,"current_range_meters":25600,"station_id":"ce4bgup2rcd13ifvqcn0","pricing_plan_id":"cebpf4jnsgd1na2vs0mg"},{"bike_id":"d07c255a-307f-4e83-9967-ba538a92d04f","system_id":"levelo_inurba_marseille","lat":43.25941,"lon":5.40901,"is_reserved":false,"is_disabled":false,"rental_uris":{"android":"levelo://app?vid=d07c255a-307f-4e83-9967-ba538a92d04f","ios":"levelo://app?vid=d07c255a-307f-4e83-9967-ba538a92d04f"},