{"last_updated":1762859373,"ttl":60,"version":"2.2","data":{"bikes":[{"bike_id":"d7db12ce-11cc-4c98-8751-ac59baa5d7aa","system_id":"levelo_inurba_marseille","lat":43.337444,"lon":5.374475,"is_reserved":false,"is_disabled":false,"rental_uris":{"android":"levelo://app?vid=d7db12ce-11cc-4c98-8751-ac59baa5d7aa","ios":"levelo://app?vid=d7db12ce-11cc-4c98-8751-ac59baa5d7aa"},"vehicle_type_id":"4","last_reported":1762859374,"current_range_meters":0,"station_id":"","pricing_plan_id":"cebpf4jnsgd1na2vs0mg"},{"bike_id":"08914ffa-6bbe-4c15-9d87-bd345be2369e","system_id":"levelo_inurba_marseille","lat":43.23155,"lon":5.43705,"is_reserved":false,"is_disabled":false,"rental_uris":{"android":"levelo://app?vid=08914ffa-6bbe-4c15-9d87-bd345be2369e","ios":"levelo://app?vid=08914ffa-6bbe-4c15-9d87-bd345be2369e"},"vehicle_type_id":"4","last_reported":1762859374,"current_range_meters":2800,"station_id":"ce4bhmp2rcd13ifvqgog","pricing_plan_id":"cebpf4jnsgd1na2vs0mg"},{"bike_id":"7ad0a776-17cc-42fa-bfc6-b00bccd304ae","system_id":"levelo_inurba_marseille","lat":43.29572,"lon":5.39977,"is_reserved":false,"is_disabled":false,"rental_uris":{"android":"levelo://app?vid=7ad0a776-17cc-42fa-bfc6-b00bccd304ae","ios":"levelo://app?vid=7ad0a776-17cc-42fa-bfc6-b00bccd304ae"},"vehicle_type_id":"4","last_reported":1762859374,"current_range_meters":3200,"station_id":"ce4bh312rcd13ifvqdj0","pricing_plan_id":"cebpf4jnsgd1na2vs0mg"},{"bike_id":"3ac55e8f-0d41-4491-bdbd-48cc94f76f54","system_id":"levelo_inurba_marseille","lat":43.21201,"lon":5.35048,"is_reserved":false,"is_disabled":true,"rental_uris":{"android":"levelo://app?vid=3ac55e8f-0d41-4491-bdbd-48cc94f76f54","ios":"levelo://app?vid=3ac55e8f-0d41-4491-bdbd-48cc94f76f54"},"vehicle_type_id":"4","last_reported":1762859374,"current_range_meters":3600,"station_id":"st_cvj6sg6p6f1abm77japg","pricing_plan_id":"cebpf4jnsgd1na2vs0mg"},{"bike_id":"a93a5d18-3fff-4ae2-a631-ddb907fddf08","system_id":"levelo_inurba_marseille","lat":43.28361,"lon":5.38095,"is_reserved":false,"is_disabled":false,"rental_uris":{"android":"levelo://app?vid=a93a5d18-3fff-4ae2-a631-ddb907fddf08","ios":"levelo://app?vid=a93a5d18-3fff-4ae2-a631-ddb907fddf08"},"vehicle_type_id":"4","last_reported":1762859374,"current_range_meters":3600,"station_id":"ce4bh412rcd13ifvqdr0","pricing_plan_id":"cebpf4jnsgd1na2vs0mg"},{"bike_id":"19816aec-1638-4ada-86e8-ff4b193587e7","system_id":"levelo_inurba_marseille","lat":43.27324,"lon":5.39078,"is_reserved":false,"is_disabled":false,"rental_uris":{"android":"levelo://app?vid=19816aec-1638-4ada-86e8-ff4b193587e7","ios":"levelo://app?vid=19816aec-1638-4ada-86e8-ff4b193587e7"},"vehicle_type_id":"4","last_reported":1762859374,"current_range_meters":3600,"station_id":"ce4bhgp2rcd13ifvqfe0","pricing_plan_id":"cebpf4jnsgd1na2vs0mg"},{"bike_id":"5f951acd-4387-43e1-8d9a-524f96501bf3","system_id":"levelo_inurba_marseille","lat":43.21933,"lon":5.34532,"is_reserved":false,"is_disabled":false,"rental_uris":{"android":"levelo://app?vid=5f951acd-4387-43e1-8d9a-524f96501bf3","ios":"levelo://app?vid=5f951acd-4387-43e1-8d9a-524f96501bf3"},"vehicle_type_id":"4","last_reported":1762859374,"current_range_meters":4000,"station_id":"","pricing_plan_id":"cebpf4jnsgd1na2vs0mg"},{"bike_id":"76554895-f7e0-49b3-a190-7bc2bc93292f","system_id":"levelo_inurba_marseille","lat":43.27423,"lon":5.39415,"is_reserved":false,"is_disabled":false,"rental_uris":{"android":"levelo://app?vid=76554895-f7e0-49b3-a190-7bc2bc93292f","ios":"levelo://app?vid=76554895-f7e0-49b3-a190-7bc2bc93292f"},"vehicle_type_id":"4","last_reported":1762859374,"current_range_meters":4000,"station_id":"ce4bhdp2rcd13ifvqf20","pricing_plan_id":"cebpf4jnsgd1na2vs0mg"},{"bike_id":"ac0be0b0-60a9-4cb7-bd08-19b488685017","system_id":"levelo_inurba_marseille","lat":43.257256,"lon":5.418584,"is_reserved":false,"is_disabled":false,"rental_uris":{"android":"levelo://app?vid=ac0be0b0-60a9-4cb7-bd08-19b488685017","ios":"levelo://app?vid=ac0be0b0-60a9-4cb7-bd08-19b488685017"},"vehicle_type_id":"4","last_reported":1762859374,"current_range_meters":4000,"station_id":"","pricing_plan_id":"cebpf4jnsgd1na2vs0mg"},{"bike_id":"7d7b67b5-bedd-4055-ac11-058415da5fab","system_id":"levelo_inurba_marseille","lat":43.27616,"lon":5.36108,"is_reserved":false,"is_disabled":false,"rental_uris":{"android":"levelo://app?vid=7d7b67b5-bedd-4055-ac11-058415da5fab","ios":"levelo://app?vid=7d7b67b5-bedd-4055-ac11-058415da5fab"},"vehicle_type_id":"4","last_reported":1762859374,"current_range_meters":4400,"station_id":"ce4bgj92rcd13ifvqbe0","pricing_plan_id":"cebpf4jnsgd1na2vs0mg"},{"bike_id":"d11f105f-8b3a-4ea7-ae74-2889ca8c8fb2","system_id":"levelo_inurba_marseille","lat":43.28986,"lon":5.37832,"is_reserved":false,"is_disabled":false,"rental_uris":{"android":"levelo://app?vid=d11f105f-8b3a-4ea7-ae74-2889ca8c8fb2","ios":"levelo://app?vid=d11f105f-8b3a-4ea7-ae74-2889ca8c8fb2"},"vehicle_type_id":"4","last_reported":1762859374,"current_range_meters":4400,"station_id":"ce4bh9p2rcd13ifvqed0","pricing_plan_id":"cebpf4jnsgd1na2vs0mg"},{"bike_id":"5a384c51-0745-4414-a4a2-cb07cfd2dfae","system_id":"levelo_inurba_marseille","lat":43.28478,"lon":5.38411,"is_reserved":false,"is_disabled":false,"rental_uris":{"android":"levelo://app?vid=5a384c51-0745-4414-a4a2-cb07cfd2dfae","ios":"levelo://app?vid=5a384c51-0745-4414-a4a2-cb07cfd2dfae"},"vehicle_type_id":"4","last_reported":1762859374,"current_range_meters":4400,"station_id":"ce4bh512rcd13ifvqe3g","pricing_plan_id":"cebpf4jnsgd1na2vs0mg"},{"bike_id":"ad1c8150-f69d-4cc2-bcbf-e328de393a66","system_id":"levelo_inurba_marseille","lat":43.339397,"lon":5.415075,"is_reserved":false,"is_disabled":false,"rental_uris":{"android":"levelo://app?vid=ad1c8150-f69d-4cc2-bcbf-e328de393a66","ios":"levelo://app?vid=ad1c8150-f69d-4cc2-bcbf-e328de393a66"},"vehicle_type_id":"4","last_reported":1762859374,"current_range_meters":4400,"station_id":"","pricing_plan_id":"cebpf4jnsgd1na2vs0mg"},{"bike_id":"05af1567-83ee-4403-b721-33162cb9be13","system_id":"levelo_inurba_marseille","lat":43.27373,"lon":5.36259,"is_reserved":false,"is_disabled":false,"rental_uris":{"android":"levelo://app?vid=05af1567-83ee-4403-b721-33162cb9be13","ios":"levelo://app?vid=05af1567-83ee-4403-b721-33162cb9be13"},"vehicle_type_id":"4","last_reported":1762859374,"current_range_meters":4800,"station_id":"ce4bhbh2rcd13ifvqeo0","pricing_plan_id":"cebpf4jnsgd1na2vs0mg"},{"bike_id":"7a8a6ba4-6176-48d3-8612-ff6c711b02f6","system_id":"levelo_inurba_marseille","lat":43.284246,"lon":5.349839,"is_reserved":false,"is_disabled":false,"rental_uris":{"android":"levelo://app?vid=7a8a6ba4-6176-48d3-8612-ff6c711b02f6","ios":"levelo://app?vid=7a8a6ba4-6176-48d3-8612-ff6c711b02f6"},"vehicle_type_id":"4","last_reported":1762859374,"current_range_meters":4800,"station_id":"ce4bhbh2rcd13ifvqepg","pricing_plan_id":"cebpf4jnsgd1na2vs0mg"},{"bike_id":"ca0fd849-b0c1-45d3-aa18-869dd28160ab","system_id":"levelo_inurba_marseille","lat":43.30638,"lon":5.40064,"is_reserved":false,"is_disabled":false,"rental_uris":{"android":"levelo://app?vid=ca0fd849-b0c1-45d3-aa18-869dd28160ab","ios":"levelo://app?vid=ca0fd849-b0c1-45d3-aa18-869dd28160ab"},"vehicle_type_id":"4","last_reported":1762859374,"current_range_meters":5600,"station_id":"ce4bh112rcd13ifvqda0","pricing_plan_id":"cebpf4jnsgd1na2vs0mg"},{"bike_id":"2f7d9d3c-5c87-421b-bdcf-f9eee5d8b252","system_id":"levelo_inurba_marseille","lat":43.243886,"lon":5.370585,"is_reserved":false,"is_disabled":false,"rental_uris":{"android":"levelo://app?vid=2f7d9d3c-5c87-421b-bdcf-f9eee5d8b252","ios":"levelo://app?vid=2f7d9d3c-5c87-421b-bdcf-f9eee5d8b252"},"vehicle_type_id":"4","last_reported":1762859374,"current_range_meters":5600,"station_id":"ce4bhhh2rcd13ifvqfk0","pricing_plan_id":"cebpf4jnsgd1na2vs0mg"},{"bike_id":"266d8765-f8d2-4120-8246-5ec17f75d7eb","system_id":"levelo_inurba_marseille","lat":43.28415,"lon":5.3499,"is_reserved":false,"is_disabled":false,"rental_uris":{"android":"levelo://app?vid=266d8765-f8d2-4120-8246-5ec17f75d7eb","ios":"levelo://app?vid=266d8765-f8d2-4120-8246-5ec17f75d7eb"},"vehicle_type_id":"4","last_reported":1762859374,"current_range_meters":6000,"station_id":"ce4bhbh2rcd13ifvqepg","pricing_plan_id":"cebpf4jnsgd1na2vs0mg"},{"bike_id":"10e3b86f-57fb-481f-b66f-8661afb71559","system_id":"levelo_inurba_marseille","lat":43.285756,"lon":5.377751,"is_reserved":false,"is_disabled":false,"rental_uris":{"android":"levelo://app?vid=10e3b86f-57fb-481f-b66f-8661afb71559","ios":"levelo://app?vid=10e3b86f-57fb-481f-b66f-8661afb71559"},"vehicle_type_id":"4","last_reported":1762859374,"current_range_meters":6000,"station_id":"","pricing_plan_id":"cebpf4jnsgd1na2vs0mg"},{"bike_id":"a914e695-c2ef-4961-a259-2e3639bf6f39","system_id":"levelo_inurba_marseille","lat":43.26549,"lon":5.37291,"is_reserved":false,"is_disabled":false,"rental_uris":{"android":"levelo://app?vid=a914e695-c2ef-4961-a259-2e3639bf6f39","ios":"levelo://app?vid=a914e695-c2ef-4961-a259-2e3639bf6f39"},"vehicle_type_id":"4","last_reported":1762859374,"current_range_meters":6000,"station_id":"ce4bhg12rcd13ifvqf70","pricing_plan_id":"cebpf4jnsgd1na2vs0mg"},{"bike_id":"85ed4701-5433-4797-8255-bb385bb4e0cf","system_id":"levelo_inurba_marseille","lat":43.31354,"lon":5.37932,"is_reserved":false,"is_disabled":false,"rental_uris":{"android":"levelo://app?vid=85ed4701-5433-4797-8255-bb385bb4e0cf","ios":"levelo://app?vid=85ed4701-5433-4797-8255-bb385bb4e0cf"},"vehicle_type_id":"4","last_reported":1762859374,"current_range_meters":6000,"station_id":"","pricing_plan_id":"cebpf4jnsgd1na2vs0mg"},{"bike_id":"1d02bac0-7fb8-41ab-a471-9411e872b741","system_id":"levelo_inurba_marseille","lat":43.28276,"lon":5.35073,"is_reserved":false,"is_disabled":false,"rental_uris":{"android":"levelo://app?vid=1d02bac0-7fb8-41ab-a471-9411e872b741","ios":"levelo://app?vid=1d02bac0-7fb8-41ab-a471-9411e872b741"},"vehicle_type_id":"4","last_reported":1762859374,"current_range_meters":6000,"station_id":"ce4bhbp2rcd13ifvqerg","pricing_plan_id":"cebpf4jnsgd1na2vs0mg"},{"bike_id":"e154f026-aee3-4f6f-9162-c9e8c5d87936","system_id":"levelo_inurba_marseille","lat":43.319973,"lon":5.38151,"is_reserved":false,"is_disabled":false,"rental_uris":{"android":"levelo://app?vid=e154f026-aee3-4f6f-9162-c9e8c5d87936","ios":"levelo://app?vid=e154f026-aee3-4f6f-9162-c9e8c5d87936"},"vehicle_type_id":"4","last_reported":1762859374,"current_range_meters":6000,"station_id":"ce4bhr12rcd13ifvqhpg","pricing_plan_id":"cebpf4jnsgd1na2vs0mg"},{"bike_id":"8e49858f-98f5-48ae-a073-3128e771bbd3","system_id":"levelo_inurba_marseille","lat":43.27376,"lon":5.3626,"is_reserved":false,"is_disabled":false,"rental_uris":{"android":"levelo://app?vid=8e49858f-98f5-48ae-a073-3128e771bbd3","ios":"levelo://app?vid=8e49858f-98f5-48ae-a073-3128e771bbd3"},"vehicle_type_id":"4","last_reported":1762859374,"current_range_meters":6400,"station_id":"ce4bhbh2rcd13ifvqeo0","pricing_plan_id":"cebpf4jnsgd1na2vs0mg"},{"bike_id":"c6ceae72-4985-45a7-99a2-93f7ec48fc0d","system_id":"levelo_inurba_marseille","lat":43.2656,"lon":5.37277,"is_reserved":false,"is_disabled":false,"rental_uris":{"android":"levelo://app?vid=c6ceae72-4985-45a7-99a2-93f7ec48fc0d","ios":"levelo://app?vid=c6ceae72-4985-45a7-99a2-93f7ec48fc0d"},"vehicle_type_id":"4","last_reported":1762859374,"current_range_meters":6400,"station_id":"ce4bhg12rcd13ifvqf70","pricing_plan_id":"cebpf4jnsgd1na2vs0mg"},{"bike_id":"b0ee8fc2-da69-4d74-a43d-f1864e13f019","system_id":"levelo_inurba_marseille","lat":43.297169,"lon":5.376968,"is_reserved":false,"is_disabled":true,"rental_uris":{"android":"levelo://app?vid=b0ee8fc2-da69-4d74-a43d-f1864e13f019","ios":"levelo://app?vid=b0ee8fc2-da69-4d74-a43d-f1864e13f019"},"vehicle_type_id":"4","last_reported":1762859374,"current_range_meters":6400,"station_id":"ce4bgkh2rcd13ifvqbl0","pricing_plan_id":"cebpf4jnsgd1na2vs0mg"},{"bike_id":"1f5a8b7a-4f85-432e-8a2e-1320e8301faa","system_id":"levelo_inurba_marseille","lat":43.3316,"lon":5.37687,"is_reserved":false,"is_disabled":false,"rental_uris":{"android":"levelo://app?vid=1f5a8b7a-4f85-432e-8a2e-1320e8301faa","ios":"levelo://app?vid=1f5a8b7a-4f85-432e-8a2e-1320e8301faa"},"vehicle_type_id":"4","last_reported":1762859374,"current_range_meters":6400,"station_id":"st_d46cu089ee8s73dldbu0","pricing_plan_id":"cebpf4jnsgd1na2vs0mg"},{"bike_id":"e584a6b6-0979-40ba-ae90-de606c2f8639","system_id":"levelo_inurba_marseille","lat":43.265732,"lon":5.372748,"is_reserved":false,"is_disabled":false,"rental_uris":{"android":"levelo://app?vid=e584a6b6-0979-40ba-ae90-de606c2f8639","ios":"levelo://app?vid=e584a6b6-0979-40ba-ae90-de606c2f8639"},"vehicle_type_id":"4","last_reported":1762859374,"current_range_meters":6800,"station_id":"ce4bgn12rcd13ifvqbt0","pricing_plan_id":"cebpf4jnsgd1na2vs0mg"},{"bike_id":"355d0a72-63a4-43ac-addc-15604eb0aa69","system_id":"levelo_inurba_marseille","lat":43.299262,"lon":5.363975,"is_reserved":false,"is_disabled":false,"rental_uris":{"android":"levelo://app?vid=355d0a72-63a4-43ac-addc-15604eb0aa69","ios":"levelo://app?vid=355d0a72-63a4-43ac-addc-15604eb0aa69"},"vehicle_type_id":"4","last_reported":1762859374,"current_range_meters":6800,"station_id":"","pricing_plan_id":"cebpf4jnsgd1na2vs0mg"},{"bike_id":"b9240df4-faf0-40d5-9bfc-1caf49e74114","system_id":"levelo_inurba_marseille","lat":43.26927,"lon":5.38918,"is_reserved":false,"is_disabled":false,"rental_uris":{"android":"levelo://app?vid=b9240df4-faf0-40d5-9bfc-1caf49e74114","ios":"levelo://app?vid=b9240df4-faf0-40d5-9bfc-1caf49e74114"},"vehicle_type_id":"4","last_reported":1762859374,"current_range_meters":7200,"station_id":"ce4bhhh2rcd13ifvqfl0","pricing_plan_id":"cebpf4jnsgd1na2vs0mg"},{"bike_id":"bc76e60a-e697-49fa-abfb-c0d16e652acc","system_id":"levelo_inurba_marseille","lat":43.22562,"lon":5.41623,"is_reserved":false,"is_disabled":false,"rental_uris":{"android":"levelo://app?vid=bc76e60a-e697-49fa-abfb-c0d16e652acc","ios":"levelo://app?vid=bc76e60a-e697-49fa-abfb-c0d16e652acc"},"vehicle_type_id":"4","last_reported":1762859374,"current_range_meters":7200,"station_id":"st_d2o4gvlbi1j2169b742g","pricing_plan_id":"cebpf4jnsgd1na2vs0mg"},{"bike_id":"26c4ceb9-b285-4308-983b-8dec16cc207d","system_id":"levelo_inurba_marseille","lat":43.279443,"lon":5.410633,"is_reserved":false,"is_disabled":false,"rental_uris":{"android":"levelo://app?vid=26c4ceb9-b285-4308-983b-8dec16cc207d","ios":"levelo://app?vid=26c4ceb9-b285-4308-983b-8dec16cc207d"},"vehicle_type_id":"4","last_reported":1762859374,"current_range_meters":7200,"station_id":"ce4bhnp2rcd13ifvqh0g","pricing_plan_id":"cebpf4jnsgd1na2vs0mg"},{"bike_id":"c620c9fc-398f-4dca-8fdd-2b652311235d","system_id":"levelo_inurba_marseille","lat":43.21188,"lon":5.35079,"is_reserved":false,"is_disabled":true,"rental_uris":{"android":"levelo://app?vid=c620c9fc-398f-4dca-8fdd-2b652311235d","ios":"levelo://app?vid=c620c9fc-398f-4dca-8fdd-2b652311235d"},"vehicle_type_id":"4","last_reported":1762859374,"current_range_meters":7200,"station_id":"st_cvj6sg6p6f1abm77japg","pricing_plan_id":"cebpf4jnsgd1na2vs0mg"},{"bike_id":"bdd1c98b-6338-4a31-aeec-c70f6520b25a","system_id":"levelo_inurba_marseille","lat":43.28153,"lon":5.42642,"is_reserved":false,"is_disabled":false,"rental_uris":{"android":"levelo://app?vid=bdd1c98b-6338-4a31-aeec-c70f6520b25a","ios":"levelo://app?vid=bdd1c98b-6338-4a31-aeec-c70f6520b25a"},"vehicle_type_id":"4","last_reported":1762859374,"current_range_meters":8000,"station_id":"ce4bhnh2rcd13ifvqgug","pricing_plan_id":"cebpf4jnsgd1na2vs0mg"},{"bike_id":"604cfaff-62c8-4902-8357-546291525e0d","system_id":"levelo_inurba_marseille","lat":43.297981,"lon":5.380887,"is_reserved":false,"is_disabled":false,"rental_uris":{"android":"levelo://app?vid=604cfaff-62c8-4902-8357-546291525e0d","ios":"levelo://app?vid=604cfaff-62c8-4902-8357-546291525e0d"},"vehicle_type_id":"4","last_reported":1762859374,"current_range_meters":8000,"station_id":"ce4bgip2rcd13ifvqbb0","pricing_plan_id":"cebpf4jnsgd1na2vs0mg"},{"bike_id":"d045cc96-28c3-4ce5-b170-9a1b65f34ca8","system_id":"levelo_inurba_marseille","lat":43.2174,"lon":5.34602,"is_reserved":false,"is_disabled":false,"rental_uris":{"android":"levelo://app?vid=d045cc96-28c3-4ce5-b170-9a1b65f34ca8","ios":"levelo://app?vid=d045cc96-28c3-4ce5-b170-9a1b65f34ca8"},"vehicle_type_id":"4","last_reported":1762859374,"current_range_meters":8000,"station_id":"st_cvj6r9ubvosntc0bgbag","pricing_plan_id":"cebpf4jnsgd1na2vs0mg"},{"bike_id":"935f253d-a1d6-4787-9318-854918344edc","system_id":"levelo_inurba_marseille","lat":43.26211,"lon":5.37439,"is_reserved":false,"is_disabled":false,"rental_uris":{"android":"levelo://app?vid=935f253d-a1d6-4787-9318-854918344edc","ios":"levelo://app?vid=935f253d-a1d6-4787-9318-854918344edc"},"vehicle_type_id":"4","last_reported":1762859374,"current_range_meters":8400,"station_id":"ce4bhgp2rcd13ifvqfc0","pricing_plan_id":"cebpf4jnsgd1na2vs0mg"},{"bike_id":"77caced6-0905-44c6-8c14-d0b0bee195e3","system_id":"levelo_inurba_marseille","lat":43.26489,"lon":5.39544,"is_reserved":false,"is_disabled":false,"rental_uris":{"android":"levelo://app?vid=77caced6-0905-44c6-8c14-d0b0bee195e3","ios":"levelo://app?vid=77caced6-0905-44c6-8c14-d0b0bee195e3"},"vehicle_type_id":"4","last_reported":1762859374,"current_range_meters":8400,"station_id":"ce4bhi12rcd13ifvqfq0","pricing_plan_id":"cebpf4jnsgd1na2vs0mg"},{"bike_id":"d315980f-e55c-4a2b-8743-e45ce3622e8d","system_id":"levelo_inurba_marseille","lat":43.28476,"lon":5.48395,"is_reserved":false,"is_disabled":false,"rental_uris":{"android":"levelo://app?vid=d315980f-e55c-4a2b-8743-e45ce3622e8d","ios":"levelo://app?vid=d315980f-e55c-4a2b-8743-e45ce3622e8d"},"vehicle_type_id":"4","last_reported":1762859374,"current_range_meters":8400,"station_id":"","pricing_plan_id":"cebpf4jnsgd1na2vs0mg"},{"bike_id":"99f555dd-b87a-4899-bc4d-afec626c1e28","system_id":"levelo_inurba_marseille","lat":43.28461,"lon":5.48411,"is_reserved":false,"is_disabled":false,"rental_uris":{"android":"levelo://app?vid=99f555dd-b87a-4899-bc4d-afec626c1e28","ios":"levelo://app?vid=99f555dd-b87a-4899-bc4d-afec626c1e28"},"vehicle_type_id":"4","last_reported":1762859374,"current_range_meters":8400,"station_id":"","pricing_plan_id":"cebpf4jnsgd1na2vs0mg"},{"bike_id":"550ebdd1-1580-4c42-8443-a5565d0e8088","system_id":"levelo_inurba_marseille","lat":43.217505,"lon":5.346038,"is_reserved":false,"is_disabled":true,"rental_uris":{"android":"levelo://app?vid=550ebdd1-1580-4c42-8443-a5565d0e8088","ios":"levelo://app?vid=550ebdd1-1580-4c42-8443-a5565d0e8088"},"vehicle_type_id":"4","last_reported":1762859374,"current_range_meters":8800,"station_id":"st_cvj6r9ubvosntc0bgbag","pricing_plan_id":"cebpf4jnsgd1na2vs0mg"},{"bike_id":"e952a1c1-d18f-44a8-86b7-8c8e99d63451","system_id":"levelo_inurba_marseille","lat":43.288339,"lon":5.39565,"is_reserved":false,"is_disabled":false,"rental_uris":{"android":"levelo://app?vid=e952a1c1-d18f-44a8-86b7-8c8e99d63451","ios":"levelo://app?vid=e952a1c1-d18f-44a8-86b7-8c8e99d63451"},"vehicle_type_id":"4","last_reported":1762859374,"current_range_meters":8800,"station_id":"","pricing_plan_id":"cebpf4jnsgd1na2vs0mg"},{"bike_id":"45e1d0fc-3203-471a-a45b-12b9d3a75086","system_id":"levelo_inurba_marseille","lat":43.25579,"lon":5.3823,"is_reserved":false,"is_disabled":false,"rental_uris":{"android":"levelo://app?vid=45e1d0fc-3203-471a-a45b-12b9d3a75086","ios":"levelo://app?vid=45e1d0fc-3203-471a-a45b-12b9d3a75086"},"vehicle_type_id":"4","last_reported":1762859374,"current_range_meters":8800,"station_id":"ce4bhih2rcd13ifvqfs0","pricing_plan_id":"cebpf4jnsgd1na2vs0mg"},{"bike_id":"366c32a9-e0b2-4e4c-8a73-ad479c379ffb","system_id":"levelo_inurba_marseille","lat":43.29894,"lon":5.43668,"is_reserved":false,"is_disabled":false,"rental_uris":{"android":"levelo://app?vid=366c32a9-e0b2-4e4c-8a73-ad479c379ffb","ios":"levelo://app?vid=366c32a9-e0b2-4e4c-8a73-ad479c379ffb"},"vehicle_type_id":"4","last_reported":1762859374,"current_range_meters":8800,"station_id":"ce4bhpp2rcd13ifvqhfg","pricing_plan_id":"cebpf4jnsgd1na2vs0mg"},{"bike_id":"c7a653bf-78a0-4c17-99dd-7da7db86003b","system_id":"levelo_inurba_marseille","lat":43.23964,"lon":5.3663,"is_reserved":false,"is_disabled":false,"rental_uris":{"android":"levelo://app?vid=c7a653bf-78a0-4c17-99dd-7da7db86003b","ios":"levelo://app?vid=c7a653bf-78a0-4c17-99dd-7da7db86003b"},"vehicle_type_id":"4","last_reported":1762859374,"current_range_meters":8800,"station_id":"ce4bhi12rcd13ifvqfp0","pricing_plan_id":"cebpf4jnsgd1na2vs0mg"},{"bike_id":"b2be4fa2-44ee-40dc-acc7-1755c74f1c5d","system_id":"levelo_inurba_marseille","lat":43.297501,"lon":5.41104,"is_reserved":false,"is_disabled":false,"rental_uris":{"android":"levelo://app?vid=b2be4fa2-44ee-40dc-acc7-1755c74f1c5d","ios":"levelo://app?vid=b2be4fa2-44ee-40dc-acc7-1755c74f1c5d"},"vehicle_type_id":"4","last_reported":1762859374,"current_range_meters":8800,"station_id":"","pricing_plan_id":"cebpf4jnsgd1na2vs0mg"},{"bike_id":"1648104b-81bc-4751-ace2-e97e844cd43d","system_id":"levelo_inurba_marseille","lat":43.28482,"lon":5.48392,"is_reserved":false,"is_disabled":false,"rental_uris":{"android":"levelo://app?vid=1648104b-81bc-4751-ace2-e97e844cd43d","ios":"levelo://app?vid=1648104b-81bc-4751-ace2-e97e844cd43d"},"vehicle_type_id":"4","last_reported":1762859374,"current_range_meters":8800,"station_id":"","pricing_plan_id":"cebpf4jnsgd1na2vs0mg"},{"bike_id":"8fde91e0-e718-45ee-a943-edea61b92910","system_id":"levelo_inurba_marseille","lat":43.270617,"lon":5.422762,"is_reserved":false,"is_disabled":false,"rental_uris":{"android":"levelo://app?vid=8fde91e0-e718-45ee-a943-edea61b92910","ios":"levelo://app?vid=8fde91e0-e718-45ee-a943-edea61b92910"},"vehicle_type_id":"4","last_reported":1762859374,"current_range_meters":8800,"station_id":"ce4bhk92rcd13ifvqgb0","pricing_plan_id":"cebpf4jnsgd1na2vs0mg"},{"bike_id":"09022866-06c3-4ade-bb29-e01ddf8a5260","system_id":"levelo_inurba_marseille","lat":43.26194,"lon":5.37447,"is_reserved":false,"is_disabled":false,"rental_uris":{"android":"levelo://app?vid=09022866-06c3-4ade-bb29-e01ddf8a5260","ios":"levelo://app?vid=09022866-06c3-4ade-bb29-e01ddf8a5260"},"vehicle_type_id":"4","last_reported":1762859374,"current_range_meters":8800,"station_id":"ce4bhgp2rcd13ifvqfc0","pricing_plan_id":"cebpf4jnsgd1na2vs0mg"},{"bike_id":"349b2ad9-adea-4dd9-9ac9-fffb121b5424","system_id":"levelo_inurba_marseille","lat":43.29892,"lon":5.37537,"is_reserved":false,"is_disabled":false,"rental_uris":{"android":"levelo://app?vid=349b2ad9-adea-4dd9-9ac9-fffb121b5424","ios":"levelo://app?vid=349b2ad9-adea-4dd9-9ac9-fffb121b5424"},"vehicle_type_id":"4","last_reported":1762859374,"current_range_meters":9200,"station_id":"","pricing_plan_id":"cebpf4jnsgd1na2vs0mg"},{"bike_id":"2f62b9e0-b607-4815-b465-f2384b4435e2","system_id":"levelo_inurba_marseille","lat":43.28003,"lon":5.41662,"is_reserved":false,"is_disabled":false,"rental_uris":{"android":"levelo://app?vid=2f62b9e0-b607-4815-b465-f2384b4435e2","ios":"levelo://app?vid=2f62b9e0-b607-4815-b465-f2384b4435e2"},"vehicle_type_id":"4","last_reported":1762859374,"current_range_meters":9200,"station_id":"ce4bho12rcd13ifvqh1g","pricing_plan_id":"cebpf4jnsgd1na2vs0mg"},{"bike_id":"a67be477-51ba-4e25-b10a-eee4d1b7dda9","system_id":"levelo_inurba_marseille","lat":43.307412,"lon":5.368322,"is_reserved":false,"is_disabled":false,"rental_uris":{"android":"levelo://app?vid=a67be477-51ba-4e25-b10a-eee4d1b7dda9","ios":"levelo://app?vid=a67be477-51ba-4e25-b10a-eee4d1b7dda9"},"vehicle_type_id":"4","last_reported":1762859374,"current_range_meters":9200,"station_id":"","pricing_plan_id":"cebpf4jnsgd1na2vs0mg"},{"bike_id":"dae5d2e4-944f-4f1e-83e4-659faadaa1a6","system_id":"levelo_inurba_marseille","lat":43.26547,"lon":5.37284,"is_reserved":false,"is_disabled":false,"rental_uris":{"android":"levelo://app?vid=dae5d2e4-944f-4f1e-83e4-659faadaa1a6","ios":"levelo://app?vid=dae5d2e4-944f-4f1e-83e4-659faadaa1a6"},"vehicle_type_id":"4","last_reported":1762859374,"current_range_meters":9200,"station_id":"ce4bhg12rcd13ifvqf70","pricing_plan_id":"cebpf4jnsgd1na2vs0mg"},{"bike_id":"a6bdf21f-a1d2-4def-a11f-b6f07d15f833","system_id":"levelo_inurba_marseille","lat":43.30083,"lon":5.3827,"is_reserved":false,"is_disabled":false,"rental_uris":{"android":"levelo://app?vid=a6bdf21f-a1d2-4def-a11f-b6f07d15f833","ios":"levelo://app?vid=a6bdf21f-a1d2-4def-a11f-b6f07d15f833"},"vehicle_type_id":"4","last_reported":1762859374,"current_range_meters":9200,"station_id":"","pricing_plan_id":"cebpf4jnsgd1na2vs0mg"},{"bike_id":"53aaee94-5351-4815-bb2d-74fc202bda90","system_id":"levelo_inurba_marseille","lat":43.23143,"lon":5.43725,"is_reserved":false,"is_disabled":false,"rental_uris":{"android":"levelo://app?vid=53aaee94-5351-4815-bb2d-74fc202bda90","ios":"levelo://app?vid=53aaee94-5351-4815-bb2d-74fc202bda90"},"vehicle_type_id":"4","last_reported":1762859374,"current_range_meters":9200,"station_id":"ce4bhmp2rcd13ifvqgog","pricing_plan_id":"cebpf4jnsgd1na2vs0mg"},{"bike_id":"6e6913ab-5565-44c2-bf61-26805575b411","system_id":"levelo_inurba_marseille","lat":43.29817,"lon":5.44023,"is_reserved":false,"is_disabled":false,"rental_uris":{"android":"levelo://app?vid=6e6913ab-5565-44c2-bf61-26805575b411","ios":"levelo://app?vid=6e6913ab-5565-44c2-bf61-26805575b411"},"vehicle_type_id":"4","last_reported":1762859374,"current_range_meters":9600,"station_id":"st_d3jp68qikq2c7381ktn0","pricing_plan_id":"cebpf4jnsgd1na2vs0mg"},{"bike_id":"07443421-a73a-4b07-b151-b516684327f0","system_id":"levelo_inurba_marseille","lat":43.262075,"lon":5.374417,"is_reserved":false,"is_disabled":false,"rental_uris":{"android":"levelo://app?vid=07443421-a73a-4b07-b151-b516684327f0","ios":"levelo://app?vid=07443421-a73a-4b07-b151-b516684327f0"},"vehicle_type_id":"4","last_reported":1762859374,"current_range_meters":9600,"station_id":"ce4bhgp2rcd13ifvqfc0","pricing_plan_id":"cebpf4jnsgd1na2vs0mg"},{"bike_id":"fdd17636-566c-4e2f-89aa-55bbe17fdeff","system_id":"levelo_inurba_marseille","lat":43.246427,"lon":5.388935,"is_reserved":false,"is_disabled":false,"rental_uris":{"android":"levelo://app?vid=fdd17636-566c-4e2f-89aa-55bbe17fdeff","ios":"levelo://app?vid=fdd17636-566c-4e2f-89aa-55bbe17fdeff"},"vehicle_type_id":"4","last_reported":1762859374,"current_range_meters":9600,"station_id":"ce4bhg12rcd13ifvqf60","pricing_plan_id":"cebpf4jnsgd1na2vs0mg"},{"bike_id":"d4a86094-56fb-4627-b9a3-90b7de619fd0","system_id":"levelo_inurba_marseille","lat":43.28475,"lon":5.484,"is_reserved":false,"is_disabled":false,"rental_uris":{"android":"levelo://app?vid=d4a86094-56fb-4627-b9a3-90b7de619fd0","ios":"levelo://app?vid=d4a86094-56fb-4627-b9a3-90b7de619fd0"},"vehicle_type_id":"4","last_reported":1762859374,"current_range_meters":9600,"station_id":"","pricing_plan_id":"cebpf4jnsgd1na2vs0mg"},{"bike_id":"0a0d87ee-447f-48c7-a9cd-e00ba4e992a2","system_id":"levelo_inurba_marseille","lat":43.28864,"lon":5.42518,"is_reserved":false,"is_disabled":false,"rental_uris":{"android":"levelo://app?vid=0a0d87ee-447f-48c7-a9cd-e00ba4e992a2","ios":"levelo://app?vid=0a0d87ee-447f-48c7-a9cd-e00ba4e992a2"},"vehicle_type_id":"4","last_reported":1762859374,"current_range_meters":9600,"station_id":"st_d3b462108ojc7389ooeg","pricing_plan_id":"cebpf4jnsgd1na2vs0mg"},{"bike_id":"52a7a93b-9b9a-40b7-829a-e855a9c48b9f","system_id":"levelo_inurba_marseille","lat":43.22558,"lon":5.41603,"is_reserved":false,"is_disabled":false,"rental_uris":{"android":"levelo://app?vid=52a7a93b-9b9a-40b7-829a-e855a9c48b9f","ios":"levelo://app?vid=52a7a93b-9b9a-40b7-829a-e855a9c48b9f"},"vehicle_type_id":"4","last_reported":1762859374,"current_range_meters":9600,"station_id":"st_d2o4gvlbi1j2169b742g","pricing_plan_id":"cebpf4jnsgd1na2vs0mg"},{"bike_id":"88c73795-aba4-4e42-9dd4-be7914b96bba","system_id":"levelo_inurba_marseille","lat":43.29761,"lon":5.42802,"is_reserved":false,"is_disabled":false,"rental_uris":{"android":"levelo://app?vid=88c73795-aba4-4e42-9dd4-be7914b96bba","ios":"levelo://app?vid=88c73795-aba4-4e42-9dd4-be7914b96bba"},"vehicle_type_id":"4","last_reported":1762859374,"current_range_meters":9600,"station_id":"st_d3md5207bmas73dh9klg","pricing_plan_id":"cebpf4jnsgd1na2vs0mg"},{"bike_id":"d14a3070-960e-421d-b5dc-419b8cc88005","system_id":"levelo_inurba_marseille","lat":43.31571,"lon":5.37648,"is_reserved":false,"is_disabled":false,"rental_uris":{"android":"levelo://app?vid=d14a3070-960e-421d-b5dc-419b8cc88005","ios":"levelo://app?vid=d14a3070-960e-421d-b5dc-419b8cc88005"},"vehicle_type_id":"4","last_reported":1762859374,"current_range_meters":9600,"station_id":"","pricing_plan_id":"cebpf4jnsgd1na2vs0mg"},{"bike_id":"148f2503-77ce-4bf4-b052-4666a748f86d","system_id":"levelo_inurba_marseille","lat":43.28413,"lon":5.34979,"is_reserved":false,"is_disabled":false,"rental_uris":{"android":"levelo://app?vid=148f2503-77ce-4bf4-b052-4666a748f86d","ios":"levelo://app?vid=148f2503-77ce-4bf4-b052-4666a748f86d"},"vehicle_type_id":"4","last_reported":1762859374,"current_range_meters":10000,"station_id":"ce4bhbh2rcd13ifvqepg","pricing_plan_id":"cebpf4jnsgd1na2vs0mg"},{"bike_id":"a4a1a1de-97ca-4f33-bd01-a55e149676e2","system_id":"levelo_inurba_marseille","lat":43.29613,"lon":5.37716,"is_reserved":false,"is_disabled":true,"rental_uris":{"android":"levelo://app?vid=a4a1a1de-97ca-4f33-bd01-a55e149676e2","ios":"levelo://app?vid=a4a1a1de-97ca-4f33-bd01-a55e149676e2"},"vehicle_type_id":"4","last_reported":1762859374,"current_range_meters":10000,"station_id":"ce4bgi92rcd13ifvqb90","pricing_plan_id":"cebpf4jnsgd1na2vs0mg"},{"bike_id":"2dae6737-58f9-435c-b5b3-6034a3234d19","system_id":"levelo_inurba_marseille","lat":43.28482,"lon":5.38417,"is_reserved":false,"is_disabled":false,"rental_uris":{"android":"levelo://app?vid=2dae6737-58f9-435c-b5b3-6034a3234d19","ios":"levelo://app?vid=2dae6737-58f9-435c-b5b3-6034a3234d19"},"vehicle_type_id":"4","last_reported":1762859374,"current_range_meters":10000,"station_id":"ce4bh512rcd13ifvqe3g","pricing_plan_id":"cebpf4jnsgd1na2vs0mg"},{"bike_id":"d83ce753-19bb-4fdf-97e6-b782d8fea836","system_id":"levelo_inurba_marseille","lat":43.22561,"lon":5.41622,"is_reserved":false,"is_disabled":false,"rental_uris":{"android":"levelo://app?vid=d83ce753-19bb-4fdf-97e6-b782d8fea836","ios":"levelo://app?vid=d83ce753-19bb-4fdf-97e6-b782d8fea836"},"vehicle_type_id":"4","last_reported":1762859374,"current_range_meters":10000,"station_id":"st_d2o4gvlbi1j2169b742g","pricing_plan_id":"cebpf4jnsgd1na2vs0mg"},{"bike_id":"c4f30d8e-e873-46d4-a785-3519043a555c","system_id":"levelo_inurba_marseille","lat":43.30149,"lon":5.37634,"is_reserved":false,"is_disabled":false,"rental_uris":{"android":"levelo://app?vid=c4f30d8e-e873-46d4-a785-3519043a555c","ios":"levelo://app?vid=c4f30d8e-e873-46d4-a785-3519043a555c"},"vehicle_type_id":"4","last_reported":1762859374,"current_range_meters":10000,"station_id":"","pricing_plan_id":"cebpf4jnsgd1na2vs0mg"},{"bike_id":"92072bda-c3a3-4bc2-b900-0f76202d54dc","system_id":"levelo_inurba_marseille","lat":43.31685,"lon":5.4047,"is_reserved":false,"is_disabled":false,"rental_uris":{"android":"levelo://app?vid=92072bda-c3a3-4bc2-b900-0f76202d54dc","ios":"levelo://app?vid=92072bda-c3a3-4bc2-b900-0f76202d54dc"},"vehicle_type_id":"4","last_reported":1762859374,"current_range_meters":10800,"station_id":"ce4bh012rcd13ifvqd00","pricing_plan_id":"cebpf4jnsgd1na2vs0mg"},{"bike_id":"4e226879-1039-40de-abb5-4505565eb518","system_id":"levelo_inurba_marseille","lat":43.211912,"lon":5.350769,"is_reserved":false,"is_disabled":false,"rental_uris":{"android":"levelo://app?vid=4e226879-1039-40de-abb5-4505565eb518","ios":"levelo://app?vid=4e226879-1039-40de-abb5-4505565eb518"},"vehicle_type_id":"4","last_reported":1762859374,"current_range_meters":10800,"station_id":"st_cvj5dfep6f1abm77gieg","pricing_plan_id":"cebpf4jnsgd1na2vs0mg"},{"bike_id":"ca05ed51-b1fe-4a8c-a9a8-781302a8fa1b","system_id":"levelo_inurba_marseille","lat":43.281537,"lon":5.426371,"is_reserved":false,"is_disabled":false,"rental_uris":{"android":"levelo://app?vid=ca05ed51-b1fe-4a8c-a9a8-781302a8fa1b","ios":"levelo://app?vid=ca05ed51-b1fe-4a8c-a9a8-781302a8fa1b"},"vehicle_type_id":"4","last_reported":1762859374,"current_range_meters":10800,"station_id":"ce4bhnh2rcd13ifvqgug","pricing_plan_id":"cebpf4jnsgd1na2vs0mg"},{"bike_id":"3da12232-2b88-41e6-8339-674a8cf8188f","system_id":"levelo_inurba_marseille","lat":43.280372,"lon":5.369465,"is_reserved":false,"is_disabled":false,"rental_uris":{"android":"levelo://app?vid=3da12232-2b88-41e6-8339-674a8cf8188f","ios":"levelo://app?vid=3da12232-2b88-41e6-8339-674a8cf8188f"},"vehicle_type_id":"4","last_reported":1762859374,"current_range_meters":10800,"station_id":"ce4bha12rcd13ifvqef0","pricing_plan_id":"cebpf4jnsgd1na2vs0mg"},{"bike_id":"5369ca34-7723-43dc-a1d0-03c4269b2e4a","system_id":"levelo_inurba_marseille","lat":43.31279,"lon":5.37809,"is_reserved":false,"is_disabled":false,"rental_uris":{"android":"levelo://app?vid=5369ca34-7723-43dc-a1d0-03c4269b2e4a","ios":"levelo://app?vid=5369ca34-7723-43dc-a1d0-03c4269b2e4a"},"vehicle_type_id":"4","last_reported":1762859374,"current_range_meters":11200,"station_id":"","pricing_plan_id":"cebpf4jnsgd1na2vs0mg"},{"bike_id":"4b75f4f1-28cd-4ac7-9b5c-b069daf52b29","system_id":"levelo_inurba_marseille","lat":43.31811,"lon":5.37415,"is_reserved":false,"is_disabled":false,"rental_uris":{"android":"levelo://app?vid=4b75f4f1-28cd-4ac7-9b5c-b069daf52b29","ios":"levelo://app?vid=4b75f4f1-28cd-4ac7-9b5c-b069daf52b29"},"vehicle_type_id":"4","last_reported":1762859374,"current_range_meters":11200,"station_id":"","pricing_plan_id":"cebpf4jnsgd1na2vs0mg"},{"bike_id":"69aff1d4-05e6-4619-92db-0e4a943e4f45","system_id":"levelo_inurba_marseille","lat":43.30469,"lon":5.37919,"is_reserved":false,"is_disabled":true,"rental_uris":{"android":"levelo://app?vid=69aff1d4-05e6-4619-92db-0e4a943e4f45","ios":"levelo://app?vid=69aff1d4-05e6-4619-92db-0e4a943e4f45"},"vehicle_type_id":"4","last_reported":1762859374,"current_range_meters":11200,"station_id":"ce4bgup2rcd13ifvqcn0","pricing_plan_id":"cebpf4jnsgd1na2vs0mg"},{"bike_id":"5acfb4f2-ec5e-450f-9319-769d75ee38b3","system_id":"levelo_inurba_marseille","lat":43.284783,"lon":5.483815,"is_reserved":false,"is_disabled":false,"rental_uris":{"android":"levelo://app?vid=5acfb4f2-ec5e-450f-9319-769d75ee38b3","ios":"levelo://app?vid=5acfb4f2-ec5e-450f-9319-769d75ee38b3"},"vehicle_type_id":"4","last_reported":1762859374,"current_range_meters":11200,"station_id":"st_d3svhcjqgbts73a3dn0g","pricing_plan_id":"cebpf4jnsgd1na2vs0mg"},{"bike_id":"5bb896f2-dec6-4193-88dc-e86ff5a402fd","system_id":"levelo_inurba_marseille","lat":43.29814,"lon":5.44062,"is_reserved":false,"is_disabled":false,"rental_uris":{"android":"levelo://app?vid=5bb896f2-dec6-4193-88dc-e86ff5a402fd","ios":"levelo://app?vid=5bb896f2-dec6-4193-88dc-e86ff5a402fd"},"vehicle_type_id":"4","last_reported":1762859374,"current_range_meters":11200,"station_id":"st_d3jp68qikq2c7381ktn0","pricing_plan_id":"cebpf4jnsgd1na2vs0mg"},{"bike_id":"c4677e34-0f0d-48e9-bf09-cb892b0a9538","system_id":"levelo_inurba_marseille","lat":43.23958,"lon":5.3663,"is_reserved":false,"is_disabled":false,"rental_uris":{"android":"levelo://app?vid=c4677e34-0f0d-48e9-bf09-cb892b0a9538","ios":"levelo://app?vid=c4677e34-0f0d-48e9-bf09-cb892b0a9538"},"vehicle_type_id":"4","last_reported":1762859374,"current_range_meters":11600,"station_id":"ce4bhi12rcd13ifvqfp0","pricing_plan_id":"cebpf4jnsgd1na2vs0mg"},{"bike_id":"9efc62c4-772b-4094-b412-078f67193096","system_id":"levelo_inurba_marseille","lat":43.2315,"lon":5.43696,"is_reserved":false,"is_disabled":false,"rental_uris":{"android":"levelo://app?vid=9efc62c4-772b-4094-b412-078f67193096","ios":"levelo://app?vid=9efc62c4-772b-4094-b412-078f67193096"},"vehicle_type_id":"4","last_reported":1762859374,"current_range_meters":11600,"station_id":"ce4bhmp2rcd13ifvqgog","pricing_plan_id":"cebpf4jnsgd1na2vs0mg"},{"bike_id":"c5972d04-4f2a-4646-ae90-eb007a82fe19","system_id":"levelo_inurba_marseille","lat":43.23051,"lon":5.35499,"is_reserved":false,"is_disabled":false,"rental_uris":{"android":"levelo://app?vid=c5972d04-4f2a-4646-ae90-eb007a82fe19","ios":"levelo://app?vid=c5972d04-4f2a-4646-ae90-eb007a82fe19"},"vehicle_type_id":"4","last_reported":1762859374,"current_range_meters":11600,"station_id":"cpo3342slgdg3j2ifvpg","pricing_plan_id":"cebpf4jnsgd1na2vs0mg"},{"bike_id":"5270e2e6-b9c5-46e6-ba22-d550d25aac42","system_id":"levelo_inurba_marseille","lat":43.29521,"lon":5.39035,"is_reserved":false,"is_disabled":false,"rental_uris":{"android":"levelo://app?vid=5270e2e6-b9c5-46e6-ba22-d550d25aac42","ios":"levelo://app?vid=5270e2e6-b9c5-46e6-ba22-d550d25aac42"},"vehicle_type_id":"4","last_reported":1762859374,"current_range_meters":11600,"station_id":"ce4bh3p2rcd13ifvqdp0","pricing_plan_id":"cebpf4jnsgd1na2vs0mg"},{"bike_id":"9d7420e4-f0e7-45c2-aacc-86bcab54553b","system_id":"levelo_inurba_marseille","lat":43.2512,"lon":5.40338,"is_reserved":false,"is_disabled":false,"rental_uris":{"android":"levelo://app?vid=9d7420e4-f0e7-45c2-aacc-86bcab54553b","ios":"levelo://app?vid=9d7420e4-f0e7-45c2-aacc-86bcab54553b"},"vehicle_type_id":"4","last_reported":1762859374,"current_range_meters":11600,"station_id":"ce4bhlh2rcd13ifvqgig","pricing_plan_id":"cebpf4jnsgd1na2vs0mg"},{"bike_id":"e491823b-46d5-48f0-b211-7c4d1f3ec011","system_id":"levelo_inurba_marseille","lat":43.28849,"lon":5.35849,"is_reserved":false,"is_disabled":false,"rental_uris":{"android":"levelo://app?vid=e491823b-46d5-48f0-b211-7c4d1f3ec011","ios":"levelo://app?vid=e491823b-46d5-48f0-b211-7c4d1f3ec011"},"vehicle_type_id":"4","last_reported":1762859374,"current_range_meters":12000,"station_id":"ce4bhb12rcd13ifvqem0","pricing_plan_id":"cebpf4jnsgd1na2vs0mg"},{"bike_id":"285edc02-c40d-4315-906b-2d38b29ac259","system_id":"levelo_inurba_marseille","lat":43.22533,"lon":5.34834,"is_reserved":false,"is_disabled":false,"rental_uris":{"android":"levelo://app?vid=285edc02-c40d-4315-906b-2d38b29ac259","ios":"levelo://app?vid=285edc02-c40d-4315-906b-2d38b29ac259"},"vehicle_type_id":"4","last_reported":1762859374,"current_range_meters":12000,"station_id":"","pricing_plan_id":"cebpf4jnsgd1na2vs0mg"},{"bike_id":"58a1822c-b251-4e64-b5de-b439d223bf77","system_id":"levelo_inurba_marseille","lat":43.24176,"lon":5.39745,"is_reserved":false,"is_disabled":false,"rental_uris":{"android":"levelo://app?vid=58a1822c-b251-4e64-b5de-b439d223bf77","ios":"levelo://app?vid=58a1822c-b251-4e64-b5de-b439d223bf77"},"vehicle_type_id":"4","last_reported":1762859374,"current_range_meters":12000,"station_id":"ce4bhn12rcd13ifvqgpg","pricing_plan_id":"cebpf4jnsgd1na2vs0mg"},{"bike_id":"c37a07d0-759c-4ac5-a3f5-b314b9032f52","system_id":"levelo_inurba_marseille","lat":43.29974,"lon":5.38186,"is_reserved":false,"is_disabled":false,"rental_uris":{"android":"levelo://app?vid=c37a07d0-759c-4ac5-a3f5-b314b9032f52","ios":"levelo://app?vid=c37a07d0-759c-4ac5-a3f5-b314b9032f52"},"vehicle_type_id":"4","last_reported":1762859374,"current_range_meters":12000,"station_id":"","pricing_plan_id":"cebpf4jnsgd1na2vs0mg"},{"bike_id":"38c922e6-37cd-47dc-af88-f07475112c2a","system_id":"levelo_inurba_marseille","lat":43.32135,"lon":5.38846,"is_reserved":false,"is_disabled":false,"rental_uris":{"android":"levelo://app?vid=38c922e6-37cd-47dc-af88-f07475112c2a","ios":"levelo://app?vid=38c922e6-37cd-47dc-af88-f07475112c2a"},"vehicle_type_id":"4","last_reported":1762859374,"current_range_meters":12000,"station_id":"","pricing_plan_id":"cebpf4jnsgd1na2vs0mg"},{"bike_id":"33364094-3c8e-4197-b579-6d9a44d696af","system_id":"levelo_inurba_marseille","lat":43.25578,"lon":5.38227,"is_reserved":false,"is_disabled":false,"rental_uris":{"android":"levelo://app?vid=33364094-3c8e-4197-b579-6d9a44d696af","ios":"levelo://app?vid=33364094-3c8e-4197-b579-6d9a44d696af"},"vehicle_type_id":"4","last_reported":1762859374,"current_range_meters":12000,"station_id":"ce4bhih2rcd13ifvqfs0","pricing_plan_id":"cebpf4jnsgd1na2vs0mg"},{"bike_id":"3598b4d5-0a70-4d44-b893-944243fbd311","system_id":"levelo_inurba_marseille","lat":43.26562,"lon":5.40313,"is_reserved":false,"is_disabled":false,"rental_uris":{"android":"levelo://app?vid=3598b4d5-0a70-4d44-b893-944243fbd311","ios":"levelo://app?vid=3598b4d5-0a70-4d44-b893-944243fbd311"},"vehicle_type_id":"4","last_reported":1762859374,"current_range_meters":12000,"station_id":"ce4bhmp2rcd13ifvqgng","pricing_plan_id":"cebpf4jnsgd1na2vs0mg"},{"bike_id":"bcec3f19-205d-4d8d-af41-1729aa329635","system_id":"levelo_inurba_marseille","lat":43.279462,"lon":5.410361,"is_reserved":false,"is_disabled":false,"rental_uris":{"android":"levelo://app?vid=bcec3f19-205d-4d8d-af41-1729aa329635","ios":"levelo://app?vid=bcec3f19-205d-4d8d-af41-1729aa329635"},"vehicle_type_id":"4","last_reported":1762859374,"current_range_meters":12000,"station_id":"ce4bhnp2rcd13ifvqh0g","pricing_plan_id":"cebpf4jnsgd1na2vs0mg"},{"bike_id":"c5d018bf-1b5f-477b-9be8-afa29ee41ea9","system_id":"levelo_inurba_marseille","lat":43.27372,"lon":5.36274,"is_reserved":false,"is_disabled":false,"rental_uris":{"android":"levelo://app?vid=c5d018bf-1b5f-477b-9be8-afa29ee41ea9","ios":"levelo://app?vid=c5d018bf-1b5f-477b-9be8-afa29ee41ea9"},"vehicle_type_id":"4","last_reported":1762859374,"current_range_meters":12400,"station_id":"ce4bhbh2rcd13ifvqeo0","pricing_plan_id":"cebpf4jnsgd1na2vs0mg"},{"bike_id":"5ad16ad0-1bbf-4de0-96c2-b5ed9e531827","system_id":"levelo_inurba_marseille","lat":43.309322,"lon":5.401366,"is_reserved":false,"is_disabled":false,"rental_uris":{"android":"levelo://app?vid=5ad16ad0-1bbf-4de0-96c2-b5ed9e531827","ios":"levelo://app?vid=5ad16ad0-1bbf-4de0-96c2-b5ed9e531827"},"vehicle_type_id":"4","last_reported":1762859374,"current_range_meters":12400,"station_id":"","pricing_plan_id":"cebpf4jnsgd1na2vs0mg"},{"bike_id":"718e5b92-b0e1-462f-8d50-ecad918eacfb","system_id":"levelo_inurba_marseille","lat":43.3061,"lon":5.37225,"is_reserved":false,"is_disabled":false,"rental_uris":{"android":"levelo://app?vid=718e5b92-b0e1-462f-8d50-ecad918eacfb","ios":"levelo://app?vid=718e5b92-b0e1-462f-8d50-ecad918eacfb"},"vehicle_type_id":"4","last_reported":1762859374,"current_range_meters":12400,"station_id":"ce4bgqh2rcd13ifvqc4g","pricing_plan_id":"cebpf4jnsgd1na2vs0mg"},{"bike_id":"86cfc91d-86e7-490e-91b4-10287f6e6c86","system_id":"levelo_inurba_marseille","lat":43.29297,"lon":5.3744,"is_reserved":false,"is_disabled":false,"rental_uris":{"android":"levelo://app?vid=86cfc91d-86e7-490e-91b4-10287f6e6c86","ios":"levelo://app?vid=86cfc91d-86e7-490e-91b4-10287f6e6c86"},"vehicle_type_id":"4","last_reported":1762859374,"current_range_meters":12400,"station_id":"ce4bgi12rcd13ifvqb70","pricing_plan_id":"cebpf4jnsgd1na2vs0mg"},{"bike_id":"98e360c1-3b77-49af-aca0-15ad91414dde","system_id":"levelo_inurba_marseille","lat":43.33153,"lon":5.37679,"is_reserved":false,"is_disabled":false,"rental_uris":{"android":"levelo://app?vid=98e360c1-3b77-49af-aca0-15ad91414dde","ios":"levelo://app?vid=98e360c1-3b77-49af-aca0-15ad91414dde"},"vehicle_type_id":"4","last_reported":1762859374,"current_range_meters":12400,"station_id":"st_d46cu089ee8s73dldbu0","pricing_plan_id":"cebpf4jnsgd1na2vs0mg"},{"bike_id":"d54952de-c2c9-4463-b55a-b35b39e9463c","system_id":"levelo_inurba_marseille","lat":43.29818,"lon":5.44063,"is_reserved":false,"is_disabled":false,"rental_uris":{"android":"levelo://app?vid=d54952de-c2c9-4463-b55a-b35b39e9463c","ios":"levelo://app?vid=d54952de-c2c9-4463-b55a-b35b39e9463c"},"vehicle_type_id":"4","last_reported":1762859374,"current_range_meters":12400,"station_id":"st_d3jp68qikq2c7381ktn0","pricing_plan_id":"cebpf4jnsgd1na2vs0mg"},{"bike_id":"c0fea017-2183-4bea-8e99-5ce3eb72b868","system_id":"levelo_inurba_marseille","lat":43.317031,"lon":5.377608,"is_reserved":false,"is_disabled":false,"rental_uris":{"android":"levelo://app?vid=c0fea017-2183-4bea-8e99-5ce3eb72b868","ios":"levelo://app?vid=c0fea017-2183-4bea-8e99-5ce3eb72b868"},"vehicle_type_id":"4","last_reported":1762859374,"current_range_meters":12800,"station_id":"ce4bgth2rcd13ifvqch0","pricing_plan_id":"cebpf4jnsgd1na2vs0mg"},{"bike_id":"3871ebcf-4a28-4b22-beb9-9220e15dd9fe","system_id":"levelo_inurba_marseille","lat":43.28477,"lon":5.48394,"is_reserved":false,"is_disabled":false,"rental_uris":{"android":"levelo://app?vid=3871ebcf-4a28-4b22-beb9-9220e15dd9fe","ios":"levelo://app?vid=3871ebcf-4a28-4b22-beb9-9220e15dd9fe"},"vehicle_type_id":"4","last_reported":1762859374,"current_range_meters":12800,"station_id":"st_d3svhcjqgbts73a3dn0g","pricing_plan_id":"cebpf4jnsgd1na2vs0mg"},{"bike_id":"a39e2605-8794-4fc9-b6b9-88c114dcb220","system_id":"levelo_inurba_marseille","lat":43.283539,"lon":5.38641,"is_reserved":false,"is_disabled":false,"rental_uris":{"android":"levelo://app?vid=a39e2605-8794-4fc9-b6b9-88c114dcb220","ios":"levelo://app?vid=a39e2605-8794-4fc9-b6b9-88c114dcb220"},"vehicle_type_id":"4","last_reported":1762859374,"current_range_meters":12800,"station_id":"ce4bh492rcd13ifvqdvg","pricing_plan_id":"cebpf4jnsgd1na2vs0mg"},{"bike_id":"82b35d51-0c35-417c-8a61-22fe88f04d62","system_id":"levelo_inurba_marseille","lat":43.29852,"lon":5.36285,"is_reserved":false,"is_disabled":false,"rental_uris":{"android":"levelo://app?vid=82b35d51-0c35-417c-8a61-22fe88f04d62","ios":"levelo://app?vid=82b35d51-0c35-417c-8a61-22fe88f04d62"},"vehicle_type_id":"4","last_reported":1762859374,"current_range_meters":13600,"station_id":"ce4bgpp2rcd13ifvqc3g","pricing_plan_id":"cebpf4jnsgd1na2vs0mg"},{"bike_id":"cec8a1e6-5931-4845-84dc-4cdac7f51286","system_id":"levelo_inurba_marseille","lat":43.32356,"lon":5.36757,"is_reserved":false,"is_disabled":false,"rental_uris":{"android":"levelo://app?vid=cec8a1e6-5931-4845-84dc-4cdac7f51286","ios":"levelo://app?vid=cec8a1e6-5931-4845-84dc-4cdac7f51286"},"vehicle_type_id":"4","last_reported":1762859374,"current_range_meters":13600,"station_id":"ce4bhsh2rcd13ifvqi2g","pricing_plan_id":"cebpf4jnsgd1na2vs0mg"},{"bike_id":"57c05cfb-067f-4510-8cef-283089ad2f2b","system_id":"levelo_inurba_marseille","lat":43.25936,"lon":5.40904,"is_reserved":false,"is_disabled":false,"rental_uris":{"android":"levelo://app?vid=57c05cfb-067f-4510-8cef-283089ad2f2b","ios":"levelo://app?vid=57c05cfb-067f-4510-8cef-283089ad2f2b"},"vehicle_type_id":"4","last_reported":1762859374,"current_range_meters":13600,"station_id":"ce4bhm92rcd13ifvqglg","pricing_plan_id":"cebpf4jnsgd1na2vs0mg"},{"bike_id":"bbb4164a-4b95-4378-bcdb-f96c79d804df","system_id":"levelo_inurba_marseille","lat":43.22533,"lon":5.34829,"is_reserved":false,"is_disabled":false,"rental_uris":{"android":"levelo://app?vid=bbb4164a-4b95-4378-bcdb-f96c79d804df","ios":"levelo://app?vid=bbb4164a-4b95-4378-bcdb-f96c79d804df"},"vehicle_type_id":"4","last_reported":1762859374,"current_range_meters":13600,"station_id":"","pricing_plan_id":"cebpf4jnsgd1na2vs0mg"},{"bike_id":"6220e623-72d8-448f-82e9-65185c74d3a3","system_id":"levelo_inurba_marseille","lat":43.30776,"lon":5.37643,"is_reserved":false,"is_disabled":false,"rental_uris":{"android":"levelo://app?vid=6220e623-72d8-448f-82e9-65185c74d3a3","ios":"levelo://app?vid=6220e623-72d8-448f-82e9-65185c74d3a3"},"vehicle_type_id":"4","last_reported":1762859374,"current_range_meters":13600,"station_id":"ce4bgv92rcd13ifvqcq0","pricing_plan_id":"cebpf4jnsgd1na2vs0mg"},{"bike_id":"71a961e6-e0d3-4ba5-a7f0-41e06706bcd2","system_id":"levelo_inurba_marseille","lat":43.21206,"lon":5.35077,"is_reserved":false,"is_disabled":false,"rental_uris":{"android":"levelo://app?vid=71a961e6-e0d3-4ba5-a7f0-41e06706bcd2","ios":"levelo://app?vid=71a961e6-e0d3-4ba5-a7f0-41e06706bcd2"},"vehicle_type_id":"4","last_reported":1762859374,"current_range_meters":13600,"station_id":"st_cvj6sg6p6f1abm77japg","pricing_plan_id":"cebpf4jnsgd1na2vs0mg"},{"bike_id":"172a1479-a5a8-4a14-96d6-945fbc77b377","system_id":"levelo_inurba_marseille","lat":43.31997,"lon":5.381476,"is_reserved":false,"is_disabled":false,"rental_uris":{"android":"levelo://app?vid=172a1479-a5a8-4a14-96d6-945fbc77b377","ios":"levelo://app?vid=172a1479-a5a8-4a14-96d6-945fbc77b377"},"vehicle_type_id":"4","last_reported":1762859374,"current_range_meters":14000,"station_id":"ce4bhr12rcd13ifvqhpg","pricing_plan_id":"cebpf4jnsgd1na2vs0mg"},{"bike_id":"42bd7eaa-a853-4b82-9d84-352dbc011c2d","system_id":"levelo_inurba_marseille","lat":43.211921,"lon":5.35072,"is_reserved":false,"is_disabled":false,"rental_uris":{"android":"levelo://app?vid=42bd7eaa-a853-4b82-9d84-352dbc011c2d","ios":"levelo://app?vid=42bd7eaa-a853-4b82-9d84-352dbc011c2d"},"vehicle_type_id":"4","last_reported":1762859374,"current_range_meters":14000,"station_id":"st_cvj6sg6p6f1abm77japg","pricing_plan_id":"cebpf4jnsgd1na2vs0mg"},{"bike_id":"2ef0988c-b0a1-4074-b85b-4089fd36c92a","system_id":"levelo_inurba_marseille","lat":43.26243,"lon":5.3743,"is_reserved":false,"is_disabled":false,"rental_uris":{"android":"levelo://app?vid=2ef0988c-b0a1-4074-b85b-4089fd36c92a","ios":"levelo://app?vid=2ef0988c-b0a1-4074-b85b-4089fd36c92a"},"vehicle_type_id":"4","last_reported":1762859374,"current_range_meters":14000,"station_id":"","pricing_plan_id":"cebpf4jnsgd1na2vs0mg"},{"bike_id":"4df93327-3724-4e0e-b4de-63203f4bd9ce","system_id":"levelo_inurba_marseille","lat":43.23155,"lon":5.43709,"is_reserved":false,"is_disabled":false,"rental_uris":{"android":"levelo://app?vid=4df93327-3724-4e0e-b4de-63203f4bd9ce","ios":"levelo://app?vid=4df93327-3724-4e0e-b4de-63203f4bd9ce"},"vehicle_type_id":"4","last_reported":1762859374,"current_range_meters":14400,"station_id":"ce4bhmp2rcd13ifvqgog","pricing_plan_id":"cebpf4jnsgd1na2vs0mg"},{"bike_id":"4ecb9731-35a5-42aa-b49f-5733b2c71207","system_id":"levelo_inurba_marseille","lat":43.282768,"lon":5.35082,"is_reserved":false,"is_disabled":false,"rental_uris":{"android":"levelo://app?vid=4ecb9731-35a5-42aa-b49f-5733b2c71207","ios":"levelo://app?vid=4ecb9731-35a5-42aa-b49f-5733b2c71207"},"vehicle_type_id":"4","last_reported":1762859374,"current_range_meters":14400,"station_id":"ce4bhbp2rcd13ifvqerg","pricing_plan_id":"cebpf4jnsgd1na2vs0mg"},{"bike_id":"8d2b0e01-2305-414b-8efe-9c7f34161e31","system_id":"levelo_inurba_marseille","lat":43.21197,"lon":5.35071,"is_reserved":false,"is_disabled":false,"rental_uris":{"android":"levelo://app?vid=8d2b0e01-2305-414b-8efe-9c7f34161e31","ios":"levelo://app?vid=8d2b0e01-2305-414b-8efe-9c7f34161e31"},"vehicle_type_id":"4","last_reported":1762859374,"current_range_meters":14400,"station_id":"st_cvj6sg6p6f1abm77japg","pricing_plan_id":"cebpf4jnsgd1na2vs0mg"},{"bike_id":"2a4a2bfb-88e8-458b-958e-784844578a23","system_id":"levelo_inurba_marseille","lat":43.28539,"lon":5.44091,"is_reserved":false,"is_disabled":false,"rental_uris":{"android":"levelo://app?vid=2a4a2bfb-88e8-458b-958e-784844578a23","ios":"levelo://app?vid=2a4a2bfb-88e8-458b-958e-784844578a23"},"vehicle_type_id":"4","last_reported":1762859374,"current_range_meters":14400,"station_id":"st_d3j3df2ikq2c7380ej80","pricing_plan_id":"cebpf4jnsgd1na2vs0mg"},{"bike_id":"3f9761fe-5b13-4ac1-8dea-93114beafccd","system_id":"levelo_inurba_marseille","lat":43.27373,"lon":5.3626,"is_reserved":false,"is_disabled":false,"rental_uris":{"android":"levelo://app?vid=3f9761fe-5b13-4ac1-8dea-93114beafccd","ios":"levelo://app?vid=3f9761fe-5b13-4ac1-8dea-93114beafccd"},"vehicle_type_id":"4","last_reported":1762859374,"current_range_meters":14400,"station_id":"ce4bhbh2rcd13ifvqeo0","pricing_plan_id":"cebpf4jnsgd1na2vs0mg"},{"bike_id":"ac571466-1dc3-4aea-b277-4afec8514b82","system_id":"levelo_inurba_marseille","lat":43.27948,"lon":5.41028,"is_reserved":false,"is_disabled":false,"rental_uris":{"android":"levelo://app?vid=ac571466-1dc3-4aea-b277-4afec8514b82","ios":"levelo://app?vid=ac571466-1dc3-4aea-b277-4afec8514b82"},"vehicle_type_id":"4","last_reported":1762859374,"current_range_meters":14400,"station_id":"ce4bhnp2rcd13ifvqh0g","pricing_plan_id":"cebpf4jnsgd1na2vs0mg"},{"bike_id":"b0052a7d-0063-46a2-a0fa-53f53bf07d7d","system_id":"levelo_inurba_marseille","lat":43.28816,"lon":5.39211,"is_reserved":false,"is_disabled":false,"rental_uris":{"android":"levelo://app?vid=b0052a7d-0063-46a2-a0fa-53f53bf07d7d","ios":"levelo://app?vid=b0052a7d-0063-46a2-a0fa-53f53bf07d7d"},"vehicle_type_id":"4","last_reported":1762859374,"current_range_meters":14400,"station_id":"","pricing_plan_id":"cebpf4jnsgd1na2vs0mg"},{"bike_id":"d055200a-4a70-4394-a7a2-71b9216e8a74","system_id":"levelo_inurba_marseille","lat":43.311194,"lon":5.377731,"is_reserved":false,"is_disabled":false,"rental_uris":{"android":"levelo://app?vid=d055200a-4a70-4394-a7a2-71b9216e8a74","ios":"levelo://app?vid=d055200a-4a70-4394-a7a2-71b9216e8a74"},"vehicle_type_id":"4","last_reported":1762859374,"current_range_meters":14400,"station_id":"ce4bgt92rcd13ifvqcg0","pricing_plan_id":"cebpf4jnsgd1na2vs0mg"},{"bike_id":"113e3526-2177-4fdc-b598-40988723ea92","system_id":"levelo_inurba_marseille","lat":43.227421,"lon":5.349081,"is_reserved":false,"is_disabled":false,"rental_uris":{"android":"levelo://app?vid=113e3526-2177-4fdc-b598-40988723ea92","ios":"levelo://app?vid=113e3526-2177-4fdc-b598-40988723ea92"},"vehicle_type_id":"4","last_reported":1762859374,"current_range_meters":14400,"station_id":"st_d3nk18o9ro0c73en2l3g","pricing_plan_id":"cebpf4jnsgd1na2vs0mg"},{"bike_id":"dc9399a6-68ac-4bce-a28c-89dbbb7d0681","system_id":"levelo_inurba_marseille","lat":43.287785,"lon":5.408291,"is_reserved":false,"is_disabled":true,"rental_uris":{"android":"levelo://app?vid=dc9399a6-68ac-4bce-a28c-89dbbb7d0681","ios":"levelo://app?vid=dc9399a6-68ac-4bce-a28c-89dbbb7d0681"},"vehicle_type_id":"4","last_reported":1762859374,"current_range_meters":14400,"station_id":"","pricing_plan_id":"cebpf4jnsgd1na2vs0mg"},{"bike_id":"85c4fa0d-6a45-42a4-9804-853d363fd895","system_id":"levelo_inurba_marseille","lat":43.21747,"lon":5.34603,"is_reserved":false,"is_disabled":false,"rental_uris":{"android":"levelo://app?vid=85c4fa0d-6a45-42a4-9804-853d363fd895","ios":"levelo://app?vid=85c4fa0d-6a45-42a4-9804-853d363fd895"},"vehicle_type_id":"4","last_reported":1762859374,"current_range_meters":14800,"station_id":"","pricing_plan_id":"cebpf4jnsgd1na2vs0mg"},{"bike_id":"e9e558df-0778-41ec-a99e-dc838172e37d","system_id":"levelo_inurba_marseille","lat":43.24642,"lon":5.38888,"is_reserved":false,"is_disabled":false,"rental_uris":{"android":"levelo://app?vid=e9e558df-0778-41ec-a99e-dc838172e37d","ios":"levelo://app?vid=e9e558df-0778-41ec-a99e-dc838172e37d"},"vehicle_type_id":"4","last_reported":1762859374,"current_range_meters":14800,"station_id":"ce4bhg12rcd13ifvqf60","pricing_plan_id":"cebpf4jnsgd1na2vs0mg"},{"bike_id":"ca7cd9bc-08a1-49bb-b705-30393d1c4082","system_id":"levelo_inurba_marseille","lat":43.29784,"lon":5.37103,"is_reserved":false,"is_disabled":true,"rental_uris":{"android":"levelo://app?vid=ca7cd9bc-08a1-49bb-b705-30393d1c4082","ios":"levelo://app?vid=ca7cd9bc-08a1-49bb-b705-30393d1c4082"},"vehicle_type_id":"4","last_reported":1762859374,"current_range_meters":14800,"station_id":"ce4bgop2rcd13ifvqc1g","pricing_plan_id":"cebpf4jnsgd1na2vs0mg"},{"bike_id":"5d79d3d2-8302-4150-97d5-df980714ace1","system_id":"levelo_inurba_marseille","lat":43.23194,"lon":5.35553,"is_reserved":false,"is_disabled":false,"rental_uris":{"android":"levelo://app?vid=5d79d3d2-8302-4150-97d5-df980714ace1","ios":"levelo://app?vid=5d79d3d2-8302-4150-97d5-df980714ace1"},"vehicle_type_id":"4","last_reported":1762859374,"current_range_meters":15200,"station_id":"ce4bhu92rcd13ifvqi70","pricing_plan_id":"cebpf4jnsgd1na2vs0mg"},{"bike_id":"c67d1982-facf-4bb3-a788-db40df7a1e22","system_id":"levelo_inurba_marseille","lat":43.29518,"lon":5.37488,"is_reserved":false,"is_disabled":false,"rental_uris":{"android":"levelo://app?vid=c67d1982-facf-4bb3-a788-db40df7a1e22","ios":"levelo://app?vid=c67d1982-facf-4bb3-a788-db40df7a1e22"},"vehicle_type_id":"4","last_reported":1762859374,"current_range_meters":15200,"station_id":"ce4bgkp2rcd13ifvqbmg","pricing_plan_id":"cebpf4jnsgd1na2vs0mg"},{"bike_id":"9583368d-c754-4b4b-8952-f61ca213a648","system_id":"levelo_inurba_marseille","lat":43.29026,"lon":5.38647,"is_reserved":false,"is_disabled":false,"rental_uris":{"android":"levelo://app?vid=9583368d-c754-4b4b-8952-f61ca213a648","ios":"levelo://app?vid=9583368d-c754-4b4b-8952-f61ca213a648"},"vehicle_type_id":"4","last_reported":1762859374,"current_range_meters":15200,"station_id":"ce4bh4p2rcd13ifvqe0g","pricing_plan_id":"cebpf4jnsgd1na2vs0mg"},{"bike_id":"a9950223-0fd5-4ca0-a865-e71817980350","system_id":"levelo_inurba_marseille","lat":43.309266,"lon":5.401455,"is_reserved":false,"is_disabled":false,"rental_uris":{"android":"levelo://app?vid=a9950223-0fd5-4ca0-a865-e71817980350","ios":"levelo://app?vid=a9950223-0fd5-4ca0-a865-e71817980350"},"vehicle_type_id":"4","last_reported":1762859374,"current_range_meters":16000,"station_id":"ce4bgvp2rcd13ifvqct0","pricing_plan_id":"cebpf4jnsgd1na2vs0mg"},{"bike_id":"ac029cc9-31d4-4bcc-b083-2d229e9f9161","system_id":"levelo_inurba_marseille","lat":43.22957,"lon":5.35354,"is_reserved":false,"is_disabled":false,"rental_uris":{"android":"levelo://app?vid=ac029cc9-31d4-4bcc-b083-2d229e9f9161","ios":"levelo://app?vid=ac029cc9-31d4-4bcc-b083-2d229e9f9161"},"vehicle_type_id":"4","last_reported":1762859374,"current_range_meters":16000,"station_id":"cpo3532slgdg3j2ikp40","pricing_plan_id":"cebpf4jnsgd1na2vs0mg"},{"bike_id":"dc702984-50fc-4caf-ba8f-0725e8815c34","system_id":"levelo_inurba_marseille","lat":43.29579,"lon":5.36746,"is_reserved":false,"is_disabled":true,"rental_uris":{"android":"levelo://app?vid=dc702984-50fc-4caf-ba8f-0725e8815c34","ios":"levelo://app?vid=dc702984-50fc-4caf-ba8f-0725e8815c34"},"vehicle_type_id":"4","last_reported":1762859374,"current_range_meters":16000,"station_id":"ce4bgph2rcd13ifvqc2g","pricing_plan_id":"cebpf4jnsgd1na2vs0mg"},{"bike_id":"28e36cd3-4665-4002-a55e-04a45eaa3992","system_id":"levelo_inurba_marseille","lat":43.33137,"lon":5.37715,"is_reserved":false,"is_disabled":false,"rental_uris":{"android":"levelo://app?vid=28e36cd3-4665-4002-a55e-04a45eaa3992","ios":"levelo://app?vid=28e36cd3-4665-4002-a55e-04a45eaa3992"},"vehicle_type_id":"4","last_reported":1762859374,"current_range_meters":16000,"station_id":"st_d46cu089ee8s73dldbu0","pricing_plan_id":"cebpf4jnsgd1na2vs0mg"},{"bike_id":"3675fcb9-4257-4c23-936c-1064c6107c79","system_id":"levelo_inurba_marseille","lat":43.28856,"lon":5.42506,"is_reserved":false,"is_disabled":false,"rental_uris":{"android":"levelo://app?vid=3675fcb9-4257-4c23-936c-1064c6107c79","ios":"levelo://app?vid=3675fcb9-4257-4c23-936c-1064c6107c79"},"vehicle_type_id":"4","last_reported":1762859374,"current_range_meters":16000,"station_id":"st_d3b462108ojc7389ooeg","pricing_plan_id":"cebpf4jnsgd1na2vs0mg"},{"bike_id":"43b0fcfa-492a-48e7-9b9e-f5b7f38143e0","system_id":"levelo_inurba_marseille","lat":43.31123,"lon":5.37726,"is_reserved":false,"is_disabled":false,"rental_uris":{"android":"levelo://app?vid=43b0fcfa-492a-48e7-9b9e-f5b7f38143e0","ios":"levelo://app?vid=43b0fcfa-492a-48e7-9b9e-f5b7f38143e0"},"vehicle_type_id":"4","last_reported":1762859374,"current_range_meters":16000,"station_id":"ce4bgt92rcd13ifvqcg0","pricing_plan_id":"cebpf4jnsgd1na2vs0mg"},{"bike_id":"a7e10316-e45d-440d-95fa-fbdadd249471","system_id":"levelo_inurba_marseille","lat":43.274953,"lon":5.424526,"is_reserved":false,"is_disabled":false,"rental_uris":{"android":"levelo://app?vid=a7e10316-e45d-440d-95fa-fbdadd249471","ios":"levelo://app?vid=a7e10316-e45d-440d-95fa-fbdadd249471"},"vehicle_type_id":"4","last_reported":1762859374,"current_range_meters":16000,"station_id":"ce4bhn92rcd13ifvqgrg","pricing_plan_id":"cebpf4jnsgd1na2vs0mg"},{"bike_id":"dcd43277-f178-4019-b332-970c42c8bc90","system_id":"levelo_inurba_marseille","lat":43.269388,"lon":5.402611,"is_reserved":false,"is_disabled":false,"rental_uris":{"android":"levelo://app?vid=dcd43277-f178-4019-b332-970c42c8bc90","ios":"levelo://app?vid=dcd43277-f178-4019-b332-970c42c8bc90"},"vehicle_type_id":"4","last_reported":1762859374,"current_range_meters":16000,"station_id":"cjm6bp8fraef2m0cb0m0","pricing_plan_id":"cebpf4jnsgd1na2vs0mg"},{"bike_id":"1eaa7ffa-ed98-4326-8447-7a821c3cdeaa","system_id":"levelo_inurba_marseille","lat":43.278223,"lon":5.407154,"is_reserved":false,"is_disabled":false,"rental_uris":{"android":"levelo://app?vid=1eaa7ffa-ed98-4326-8447-7a821c3cdeaa","ios":"levelo://app?vid=1eaa7ffa-ed98-4326-8447-7a821c3cdeaa"},"vehicle_type_id":"4","last_reported":1762859374,"current_range_meters":16000,"station_id":"ce4bhnh2rcd13ifvqgtg","pricing_plan_id":"cebpf4jnsgd1na2vs0mg"},{"bike_id":"d663abcf-012c-4027-9102-26b714745b5c","system_id":"levelo_inurba_marseille","lat":43.30312,"lon":5.36898,"is_reserved":false,"is_disabled":false,"rental_uris":{"android":"levelo://app?vid=d663abcf-012c-4027-9102-26b714745b5c","ios":"levelo://app?vid=d663abcf-012c-4027-9102-26b714745b5c"},"vehicle_type_id":"4","last_reported":1762859374,"current_range_meters":16400,"station_id":"ce4bgqh2rcd13ifvqc5g","pricing_plan_id":"cebpf4jnsgd1na2vs0mg"},{"bike_id":"c47023ab-2905-4a00-af93-ffd0b768cdc9","system_id":"levelo_inurba_marseille","lat":43.28863,"lon":5.4251,"is_reserved":false,"is_disabled":false,"rental_uris":{"android":"levelo://app?vid=c47023ab-2905-4a00-af93-ffd0b768cdc9","ios":"levelo://app?vid=c47023ab-2905-4a00-af93-ffd0b768cdc9"},"vehicle_type_id":"4","last_reported":1762859374,"current_range_meters":16400,"station_id":"st_d3b462108ojc7389ooeg","pricing_plan_id":"cebpf4jnsgd1na2vs0mg"},{"bike_id":"1152c84a-a055-4f29-9b92-843214c87d0f","system_id":"levelo_inurba_marseille","lat":43.22558,"lon":5.41622,"is_reserved":false,"is_disabled":false,"rental_uris":{"android":"levelo://app?vid=1152c84a-a055-4f29-9b92-843214c87d0f","ios":"levelo://app?vid=1152c84a-a055-4f29-9b92-843214c87d0f"},"vehicle_type_id":"4","last_reported":1762859374,"current_range_meters":16400,"station_id":"st_d2o4gvlbi1j2169b742g","pricing_plan_id":"cebpf4jnsgd1na2vs0mg"},{"bike_id":"10832612-bd6d-4d64-947f-699f60d0c3eb","system_id":"levelo_inurba_marseille","lat":43.297665,"lon":5.388979,"is_reserved":false,"is_disabled":false,"rental_uris":{"android":"levelo://app?vid=10832612-bd6d-4d64-947f-699f60d0c3eb","ios":"levelo://app?vid=10832612-bd6d-4d64-947f-699f60d0c3eb"},"vehicle_type_id":"4","last_reported":1762859374,"current_range_meters":16400,"station_id":"","pricing_plan_id":"cebpf4jnsgd1na2vs0mg"},{"bike_id":"84aade2c-4b39-4bce-814f-cfa3d6ed46f7","system_id":"levelo_inurba_marseille","lat":43.284833,"lon":5.483864,"is_reserved":false,"is_disabled":false,"rental_uris":{"android":"levelo://app?vid=84aade2c-4b39-4bce-814f-cfa3d6ed46f7","ios":"levelo://app?vid=84aade2c-4b39-4bce-814f-cfa3d6ed46f7"},"vehicle_type_id":"4","last_reported":1762859374,"current_range_meters":16400,"station_id":"st_d3svhcjqgbts73a3dn0g","pricing_plan_id":"cebpf4jnsgd1na2vs0mg"},{"bike_id":"71c08fab-e226-4412-8a8c-b01591e65a26","system_id":"levelo_inurba_marseille","lat":43.30729,"lon":5.42437,"is_reserved":false,"is_disabled":false,"rental_uris":{"android":"levelo://app?vid=71c08fab-e226-4412-8a8c-b01591e65a26","ios":"levelo://app?vid=71c08fab-e226-4412-8a8c-b01591e65a26"},"vehicle_type_id":"4","last_reported":1762859374,"current_range_meters":16400,"station_id":"st_cvj6ca6bvosntc0bfgr0","pricing_plan_id":"cebpf4jnsgd1na2vs0mg"},{"bike_id":"f24718f5-ffab-4a83-9c34-d6df7363b471","system_id":"levelo_inurba_marseille","lat":43.304271,"lon":5.397384,"is_reserved":false,"is_disabled":false,"rental_uris":{"android":"levelo://app?vid=f24718f5-ffab-4a83-9c34-d6df7363b471","ios":"levelo://app?vid=f24718f5-ffab-4a83-9c34-d6df7363b471"},"vehicle_type_id":"4","last_reported":1762859374,"current_range_meters":16400,"station_id":"","pricing_plan_id":"cebpf4jnsgd1na2vs0mg"},{"bike_id":"380bbcaf-99cc-4f5f-aed4-275012842dc3","system_id":"levelo_inurba_marseille","lat":43.30931,"lon":5.40139,"is_reserved":false,"is_disabled":false,"rental_uris":{"android":"levelo://app?vid=380bbcaf-99cc-4f5f-aed4-275012842dc3","ios":"levelo://app?vid=380bbcaf-99cc-4f5f-aed4-275012842dc3"},"vehicle_type_id":"4","last_reported":1762859374,"current_range_meters":16400,"station_id":"ce4bgvp2rcd13ifvqct0","pricing_plan_id":"cebpf4jnsgd1na2vs0mg"},{"bike_id":"d07b902f-e0b8-41cc-b221-714bf2651e15","system_id":"levelo_inurba_marseille","lat":43.28867,"lon":5.42517,"is_reserved":false,"is_disabled":false,"rental_uris":{"android":"levelo://app?vid=d07b902f-e0b8-41cc-b221-714bf2651e15","ios":"levelo://app?vid=d07b902f-e0b8-41cc-b221-714bf2651e15"},"vehicle_type_id":"4","last_reported":1762859374,"current_range_meters":16400,"station_id":"st_d3b462108ojc7389ooeg","pricing_plan_id":"cebpf4jnsgd1na2vs0mg"},{"bike_id":"8aae9c8c-6bf8-4db2-b99a-998216635b93","system_id":"levelo_inurba_marseille","lat":43.304678,"lon":5.379037,"is_reserved":false,"is_disabled":false,"rental_uris":{"android":"levelo://app?vid=8aae9c8c-6bf8-4db2-b99a-998216635b93","ios":"levelo://app?vid=8aae9c8c-6bf8-4db2-b99a-998216635b93"},"vehicle_type_id":"4","last_reported":1762859374,"current_range_meters":16400,"station_id":"ce4bgup2rcd13ifvqcn0","pricing_plan_id":"cebpf4jnsgd1na2vs0mg"},{"bike_id":"67f21b4e-7bd4-4f2b-a672-c410c5f88d67","system_id":"levelo_inurba_marseille","lat":43.28541,"lon":5.44089,"is_reserved":false,"is_disabled":false,"rental_uris":{"android":"levelo://app?vid=67f21b4e-7bd4-4f2b-a672-c410c5f88d67","ios":"levelo://app?vid=67f21b4e-7bd4-4f2b-a672-c410c5f88d67"},"vehicle_type_id":"4","last_reported":1762859374,"current_range_meters":16800,"station_id":"st_d3j3df2ikq2c7380ej80","pricing_plan_id":"cebpf4jnsgd1na2vs0mg"},{"bike_id":"313ffe5b-5ca0-4400-9923-e9313cf2960a","system_id":"levelo_inurba_marseille","lat":43.29164,"lon":5.3715,"is_reserved":false,"is_disabled":true,"rental_uris":{"android":"levelo://app?vid=313ffe5b-5ca0-4400-9923-e9313cf2960a","ios":"levelo://app?vid=313ffe5b-5ca0-4400-9923-e9313cf2960a"},"vehicle_type_id":"4","last_reported":1762859374,"current_range_meters":16800,"station_id":"ce4bha92rcd13ifvqeh0","pricing_plan_id":"cebpf4jnsgd1na2vs0mg"},{"bike_id":"d8f860d9-50b7-4c7b-bbff-d95804ddc0e3","system_id":"levelo_inurba_marseille","lat":43.32659,"lon":5.409816,"is_reserved":false,"is_disabled":false,"rental_uris":{"android":"levelo://app?vid=d8f860d9-50b7-4c7b-bbff-d95804ddc0e3","ios":"levelo://app?vid=d8f860d9-50b7-4c7b-bbff-d95804ddc0e3"},"vehicle_type_id":"4","last_reported":1762859374,"current_range_meters":16800,"station_id":"ce4bhpp2rcd13ifvqhgg","pricing_plan_id":"cebpf4jnsgd1na2vs0mg"},{"bike_id":"f09b69fd-4220-4b51-8365-9a85828617f1","system_id":"levelo_inurba_marseille","lat":43.330268,"lon":5.390397,"is_reserved":false,"is_disabled":false,"rental_uris":{"android":"levelo://app?vid=f09b69fd-4220-4b51-8365-9a85828617f1","ios":"levelo://app?vid=f09b69fd-4220-4b51-8365-9a85828617f1"},"vehicle_type_id":"4","last_reported":1762859374,"current_range_meters":16800,"station_id":"ce4bhr92rcd13ifvqhrg","pricing_plan_id":"cebpf4jnsgd1na2vs0mg"},{"bike_id":"c8002a93-9b34-4bd1-98f9-2c5eb3b48ad8","system_id":"levelo_inurba_marseille","lat":43.30142,"lon":5.3742,"is_reserved":false,"is_disabled":false,"rental_uris":{"android":"levelo://app?vid=c8002a93-9b34-4bd1-98f9-2c5eb3b48ad8","ios":"levelo://app?vid=c8002a93-9b34-4bd1-98f9-2c5eb3b48ad8"},"vehicle_type_id":"4","last_reported":1762859374,"current_range_meters":16800,"station_id":"ce4bgs92rcd13ifvqcc0","pricing_plan_id":"cebpf4jnsgd1na2vs0mg"},{"bike_id":"6fb59be2-9c8c-4872-a25e-373b551071c9","system_id":"levelo_inurba_marseille","lat":43.253404,"lon":5.421696,"is_reserved":false,"is_disabled":false,"rental_uris":{"android":"levelo://app?vid=6fb59be2-9c8c-4872-a25e-373b551071c9","ios":"levelo://app?vid=6fb59be2-9c8c-4872-a25e-373b551071c9"},"vehicle_type_id":"4","last_reported":1762859374,"current_range_meters":16800,"station_id":"st_d2m65c5bi1j21697t3ng","pricing_plan_id":"cebpf4jnsgd1na2vs0mg"},{"bike_id":"958b6545-b7ff-4c8b-967c-ea2338184bf1","system_id":"levelo_inurba_marseille","lat":43.22563,"lon":5.41621,"is_reserved":false,"is_disabled":false,"rental_uris":{"android":"levelo://app?vid=958b6545-b7ff-4c8b-967c-ea2338184bf1","ios":"levelo://app?vid=958b6545-b7ff-4c8b-967c-ea2338184bf1"},"vehicle_type_id":"4","last_reported":1762859374,"current_range_meters":17200,"station_id":"st_d2o4gvlbi1j2169b742g","pricing_plan_id":"cebpf4jnsgd1na2vs0mg"},{"bike_id":"14c4c79d-54a2-43ff-b01b-d18f58077d1e","system_id":"levelo_inurba_marseille","lat":43.285976,"lon":5.350184,"is_reserved":false,"is_disabled":false,"rental_uris":{"android":"levelo://app?vid=14c4c79d-54a2-43ff-b01b-d18f58077d1e","ios":"levelo://app?vid=14c4c79d-54a2-43ff-b01b-d18f58077d1e"},"vehicle_type_id":"4","last_reported":1762859374,"current_range_meters":17200,"station_id":"","pricing_plan_id":"cebpf4jnsgd1na2vs0mg"},{"bike_id":"b5918b1a-fe58-4f80-870f-0fe74079a768","system_id":"levelo_inurba_marseille","lat":43.25868,"lon":5.39893,"is_reserved":false,"is_disabled":false,"rental_uris":{"android":"levelo://app?vid=b5918b1a-fe58-4f80-870f-0fe74079a768","ios":"levelo://app?vid=b5918b1a-fe58-4f80-870f-0fe74079a768"},"vehicle_type_id":"4","last_reported":1762859374,"current_range_meters":17200,"station_id":"ce4bhl92rcd13ifvqghg","pricing_plan_id":"cebpf4jnsgd1na2vs0mg"},{"bike_id":"4631581a-7a59-4b43-ad7d-d9485de017e4","system_id":"levelo_inurba_marseille","lat":43.284901,"lon":5.384295,"is_reserved":false,"is_disabled":false,"rental_uris":{"android":"levelo://app?vid=4631581a-7a59-4b43-ad7d-d9485de017e4","ios":"levelo://app?vid=4631581a-7a59-4b43-ad7d-d9485de017e4"},"vehicle_type_id":"4","last_reported":1762859374,"current_range_meters":17200,"station_id":"ce4bh512rcd13ifvqe3g","pricing_plan_id":"cebpf4jnsgd1na2vs0mg"},{"bike_id":"b74e9fc1-55cc-47af-96f5-a47371755d10","system_id":"levelo_inurba_marseille","lat":43.24199,"lon":5.39716,"is_reserved":false,"is_disabled":false,"rental_uris":{"android":"levelo://app?vid=b74e9fc1-55cc-47af-96f5-a47371755d10","ios":"levelo://app?vid=b74e9fc1-55cc-47af-96f5-a47371755d10"},"vehicle_type_id":"4","last_reported":1762859374,"current_range_meters":17200,"station_id":"ce4bhn12rcd13ifvqgpg","pricing_plan_id":"cebpf4jnsgd1na2vs0mg"},{"bike_id":"50b661f0-112f-4780-95bd-167a8c61a238","system_id":"levelo_inurba_marseille","lat":43.2118,"lon":5.35071,"is_reserved":false,"is_disabled":true,"rental_uris":{"android":"levelo://app?vid=50b661f0-112f-4780-95bd-167a8c61a238","ios":"levelo://app?vid=50b661f0-112f-4780-95bd-167a8c61a238"},"vehicle_type_id":"4","last_reported":1762859374,"current_range_meters":17200,"station_id":"st_cvj6sg6p6f1abm77japg","pricing_plan_id":"cebpf4jnsgd1na2vs0mg"},{"bike_id":"138acbc8-a44a-45ec-9d4e-f41258a8778e","system_id":"levelo_inurba_marseille","lat":43.298205,"lon":5.440538,"is_reserved":false,"is_disabled":false,"rental_uris":{"android":"levelo://app?vid=138acbc8-a44a-45ec-9d4e-f41258a8778e","ios":"levelo://app?vid=138acbc8-a44a-45ec-9d4e-f41258a8778e"},"vehicle_type_id":"4","last_reported":1762859374,"current_range_meters":17200,"station_id":"st_d3jp68qikq2c7381ktn0","pricing_plan_id":"cebpf4jnsgd1na2vs0mg"},{"bike_id":"1039442f-aaba-448a-85d8-a16084e9a153","system_id":"levelo_inurba_marseille","lat":43.26027,"lon":5.37547,"is_reserved":false,"is_disabled":false,"rental_uris":{"android":"levelo://app?vid=1039442f-aaba-448a-85d8-a16084e9a153","ios":"levelo://app?vid=1039442f-aaba-448a-85d8-a16084e9a153"},"vehicle_type_id":"4","last_reported":1762859374,"current_range_meters":17600,"station_id":"ce4bhgh2rcd13ifvqfa0","pricing_plan_id":"cebpf4jnsgd1na2vs0mg"},{"bike_id":"0847e14e-7d32-4b01-92bc-3f9b794c9a2d","system_id":"levelo_inurba_marseille","lat":43.283,"lon":5.35084,"is_reserved":false,"is_disabled":false,"rental_uris":{"android":"levelo://app?vid=0847e14e-7d32-4b01-92bc-3f9b794c9a2d","ios":"levelo://app?vid=0847e14e-7d32-4b01-92bc-3f9b794c9a2d"},"vehicle_type_id":"4","last_reported":1762859374,"current_range_meters":17600,"station_id":"ce4bhbp2rcd13ifvqerg","pricing_plan_id":"cebpf4jnsgd1na2vs0mg"},{"bike_id":"68a3abf3-4c9f-40fa-a418-4913c492fecc","system_id":"levelo_inurba_marseille","lat":43.26211,"lon":5.37438,"is_reserved":false,"is_disabled":false,"rental_uris":{"android":"levelo://app?vid=68a3abf3-4c9f-40fa-a418-4913c492fecc","ios":"levelo://app?vid=68a3abf3-4c9f-40fa-a418-4913c492fecc"},"vehicle_type_id":"4","last_reported":1762859374,"current_range_meters":17600,"station_id":"ce4bhgp2rcd13ifvqfc0","pricing_plan_id":"cebpf4jnsgd1na2vs0mg"},{"bike_id":"81ecdbad-b116-4371-8f79-e464cd3888a1","system_id":"levelo_inurba_marseille","lat":43.21751,"lon":5.346,"is_reserved":false,"is_disabled":false,"rental_uris":{"android":"levelo://app?vid=81ecdbad-b116-4371-8f79-e464cd3888a1","ios":"levelo://app?vid=81ecdbad-b116-4371-8f79-e464cd3888a1"},"vehicle_type_id":"4","last_reported":1762859374,"current_range_meters":17600,"station_id":"st_cvj6r9ubvosntc0bgbag","pricing_plan_id":"cebpf4jnsgd1na2vs0mg"},{"bike_id":"59092e0b-8e2c-49e1-8126-64ad7629b05f","system_id":"levelo_inurba_marseille","lat":43.243091,"lon":5.392349,"is_reserved":false,"is_disabled":false,"rental_uris":{"android":"levelo://app?vid=59092e0b-8e2c-49e1-8126-64ad7629b05f","ios":"levelo://app?vid=59092e0b-8e2c-49e1-8126-64ad7629b05f"},"vehicle_type_id":"4","last_reported":1762859374,"current_range_meters":17600,"station_id":"","pricing_plan_id":"cebpf4jnsgd1na2vs0mg"},{"bike_id":"fd8fe60f-b89f-40fa-8afe-1fb06c83c7ff","system_id":"levelo_inurba_marseille","lat":43.241665,"lon":5.363961,"is_reserved":false,"is_disabled":false,"rental_uris":{"android":"levelo://app?vid=fd8fe60f-b89f-40fa-8afe-1fb06c83c7ff","ios":"levelo://app?vid=fd8fe60f-b89f-40fa-8afe-1fb06c83c7ff"},"vehicle_type_id":"4","last_reported":1762859374,"current_range_meters":17600,"station_id":"cpo36qri1sfpv3e86is0","pricing_plan_id":"cebpf4jnsgd1na2vs0mg"},{"bike_id":"f29f7b54-5e01-402a-be86-569f17f0de10","system_id":"levelo_inurba_marseille","lat":43.30746,"lon":5.42439,"is_reserved":false,"is_disabled":false,"rental_uris":{"android":"levelo://app?vid=f29f7b54-5e01-402a-be86-569f17f0de10","ios":"levelo://app?vid=f29f7b54-5e01-402a-be86-569f17f0de10"},"vehicle_type_id":"4","last_reported":1762859374,"current_range_meters":17600,"station_id":"st_cvj6ca6bvosntc0bfgr0","pricing_plan_id":"cebpf4jnsgd1na2vs0mg"},{"bike_id":"e5072903-b867-4d8e-a478-9934ce296bde","system_id":"levelo_inurba_marseille","lat":43.29128,"lon":5.39066,"is_reserved":false,"is_disabled":false,"rental_uris":{"android":"levelo://app?vid=e5072903-b867-4d8e-a478-9934ce296bde","ios":"levelo://app?vid=e5072903-b867-4d8e-a478-9934ce296bde"},"vehicle_type_id":"4","last_reported":1762859374,"current_range_meters":17600,"station_id":"","pricing_plan_id":"cebpf4jnsgd1na2vs0mg"},{"bike_id":"2b337186-5672-4087-8da2-b3ab6d078c9c","system_id":"levelo_inurba_marseille","lat":43.21763,"lon":5.34602,"is_reserved":false,"is_disabled":false,"rental_uris":{"android":"levelo://app?vid=2b337186-5672-4087-8da2-b3ab6d078c9c","ios":"levelo://app?vid=2b337186-5672-4087-8da2-b3ab6d078c9c"},"vehicle_type_id":"4","last_reported":1762859374,"current_range_meters":17600,"station_id":"st_cvj6r9ubvosntc0bgbag","pricing_plan_id":"cebpf4jnsgd1na2vs0mg"},{"bike_id":"485dd7f4-ebf0-4e44-b784-1eb7299db23b","system_id":"levelo_inurba_marseille","lat":43.26792,"lon":5.39416,"is_reserved":false,"is_disabled":false,"rental_uris":{"android":"levelo://app?vid=485dd7f4-ebf0-4e44-b784-1eb7299db23b","ios":"levelo://app?vid=485dd7f4-ebf0-4e44-b784-1eb7299db23b"},"vehicle_type_id":"4","last_reported":1762859374,"current_range_meters":17600,"station_id":"ce4bhh12rcd13ifvqfg0","pricing_plan_id":"cebpf4jnsgd1na2vs0mg"},{"bike_id":"b53fea9f-db7e-4fa6-a2cf-8a84a0df49eb","system_id":"levelo_inurba_marseille","lat":43.21748,"lon":5.346,"is_reserved":false,"is_disabled":false,"rental_uris":{"android":"levelo://app?vid=b53fea9f-db7e-4fa6-a2cf-8a84a0df49eb","ios":"levelo://app?vid=b53fea9f-db7e-4fa6-a2cf-8a84a0df49eb"},"vehicle_type_id":"4","last_reported":1762859374,"current_range_meters":17600,"station_id":"st_cvj6r9ubvosntc0bgbag","pricing_plan_id":"cebpf4jnsgd1na2vs0mg"},{"bike_id":"f0f68ae0-a9eb-4e06-bc21-300e277b82fb","system_id":"levelo_inurba_marseille","lat":43.2315,"lon":5.43715,"is_reserved":false,"is_disabled":false,"rental_uris":{"android":"levelo://app?vid=f0f68ae0-a9eb-4e06-bc21-300e277b82fb","ios":"levelo://app?vid=f0f68ae0-a9eb-4e06-bc21-300e277b82fb"},"vehicle_type_id":"4","last_reported":1762859374,"current_range_meters":18000,"station_id":"ce4bhmp2rcd13ifvqgog","pricing_plan_id":"cebpf4jnsgd1na2vs0mg"},{"bike_id":"c0f341b8-4ffd-42e9-a749-512db46f9b04","system_id":"levelo_inurba_marseille","lat":43.21196,"lon":5.35065,"is_reserved":false,"is_disabled":false,"rental_uris":{"android":"levelo://app?vid=c0f341b8-4ffd-42e9-a749-512db46f9b04","ios":"levelo://app?vid=c0f341b8-4ffd-42e9-a749-512db46f9b04"},"vehicle_type_id":"4","last_reported":1762859374,"current_range_meters":18000,"station_id":"st_cvj6sg6p6f1abm77japg","pricing_plan_id":"cebpf4jnsgd1na2vs0mg"},{"bike_id":"42adfb6c-448c-4675-b611-a025c9b6490d","system_id":"levelo_inurba_marseille","lat":43.25522,"lon":5.37657,"is_reserved":false,"is_disabled":false,"rental_uris":{"android":"levelo://app?vid=42adfb6c-448c-4675-b611-a025c9b6490d","ios":"levelo://app?vid=42adfb6c-448c-4675-b611-a025c9b6490d"},"vehicle_type_id":"4","last_reported":1762859374,"current_range_meters":18000,"station_id":"ce4bhh12rcd13ifvqff0","pricing_plan_id":"cebpf4jnsgd1na2vs0mg"},{"bike_id":"0fe81ef8-eb80-4a3e-94fa-0c7e76b11812","system_id":"levelo_inurba_marseille","lat":43.22558,"lon":5.41619,"is_reserved":false,"is_disabled":false,"rental_uris":{"android":"levelo://app?vid=0fe81ef8-eb80-4a3e-94fa-0c7e76b11812","ios":"levelo://app?vid=0fe81ef8-eb80-4a3e-94fa-0c7e76b11812"},"vehicle_type_id":"4","last_reported":1762859374,"current_range_meters":18000,"station_id":"st_d2o4gvlbi1j2169b742g","pricing_plan_id":"cebpf4jnsgd1na2vs0mg"},{"bike_id":"8525742f-ece4-4fec-aac2-b3df4f623ded","system_id":"levelo_inurba_marseille","lat":43.32105,"lon":5.36776,"is_reserved":false,"is_disabled":false,"rental_uris":{"android":"levelo://app?vid=8525742f-ece4-4fec-aac2-b3df4f623ded","ios":"levelo://app?vid=8525742f-ece4-4fec-aac2-b3df4f623ded"},"vehicle_type_id":"4","last_reported":1762859374,"current_range_meters":18000,"station_id":"ce4bhrh2rcd13ifvqhug","pricing_plan_id":"cebpf4jnsgd1na2vs0mg"},{"bike_id":"5804ac99-3bd4-4091-bff1-7487e9285e0c","system_id":"levelo_inurba_marseille","lat":43.29205,"lon":5.37609,"is_reserved":false,"is_disabled":false,"rental_uris":{"android":"levelo://app?vid=5804ac99-3bd4-4091-bff1-7487e9285e0c","ios":"levelo://app?vid=5804ac99-3bd4-4091-bff1-7487e9285e0c"},"vehicle_type_id":"4","last_reported":1762859374,"current_range_meters":18000,"station_id":"","pricing_plan_id":"cebpf4jnsgd1na2vs0mg"},{"bike_id":"cae8c237-20be-40a1-ad78-d7eb4e81ebc6","system_id":"levelo_inurba_marseille","lat":43.30375,"lon":5.42487,"is_reserved":false,"is_disabled":false,"rental_uris":{"android":"levelo://app?vid=cae8c237-20be-40a1-ad78-d7eb4e81ebc6","ios":"levelo://app?vid=cae8c237-20be-40a1-ad78-d7eb4e81ebc6"},"vehicle_type_id":"4","last_reported":1762859374,"current_range_meters":18000,"station_id":"ce4bhoh2rcd13ifvqh6g","pricing_plan_id":"cebpf4jnsgd1na2vs0mg"},{"bike_id":"0d90a8c5-fed6-490b-86a5-570c18f369ba","system_id":"levelo_inurba_marseille","lat":43.21184,"lon":5.35075,"is_reserved":false,"is_disabled":false,"rental_uris":{"android":"levelo://app?vid=0d90a8c5-fed6-490b-86a5-570c18f369ba","ios":"levelo://app?vid=0d90a8c5-fed6-490b-86a5-570c18f369ba"},"vehicle_type_id":"4","last_reported":1762859374,"current_range_meters":18000,"station_id":"st_cvj6sg6p6f1abm77japg","pricing_plan_id":"cebpf4jnsgd1na2vs0mg"},{"bike_id":"24576411-bddd-4c30-838b-560561a34033","system_id":"levelo_inurba_marseille","lat":43.27829,"lon":5.40711,"is_reserved":false,"is_disabled":false,"rental_uris":{"android":"levelo://app?vid=24576411-bddd-4c30-838b-560561a34033","ios":"levelo://app?vid=24576411-bddd-4c30-838b-560561a34033"},"vehicle_type_id":"4","last_reported":1762859374,"current_range_meters":18000,"station_id":"ce4bhnh2rcd13ifvqgtg","pricing_plan_id":"cebpf4jnsgd1na2vs0mg"},{"bike_id":"26c5ef95-5de9-4bd0-bfba-b7f4a5da0ff9","system_id":"levelo_inurba_marseille","lat":43.22558,"lon":5.41642,"is_reserved":false,"is_disabled":false,"rental_uris":{"android":"levelo://app?vid=26c5ef95-5de9-4bd0-bfba-b7f4a5da0ff9","ios":"levelo://app?vid=26c5ef95-5de9-4bd0-bfba-b7f4a5da0ff9"},"vehicle_type_id":"4","last_reported":1762859374,"current_range_meters":18000,"station_id":"st_d2o4gvlbi1j2169b742g","pricing_plan_id":"cebpf4jnsgd1na2vs0mg"},{"bike_id":"e26730d9-d775-470c-bdea-e378dba7cda5","system_id":"levelo_inurba_marseille","lat":43.27373,"lon":5.36257,"is_reserved":false,"is_disabled":false,"rental_uris":{"android":"levelo://app?vid=e26730d9-d775-470c-bdea-e378dba7cda5","ios":"levelo://app?vid=e26730d9-d775-470c-bdea-e378dba7cda5"},"vehicle_type_id":"4","last_reported":1762859374,"current_range_meters":18000,"station_id":"ce4bhbh2rcd13ifvqeo0","pricing_plan_id":"cebpf4jnsgd1na2vs0mg"},{"bike_id":"e95c7a5e-2ca6-4704-beef-c914118730ac","system_id":"levelo_inurba_marseille","lat":43.23383,"lon":5.41226,"is_reserved":false,"is_disabled":false,"rental_uris":{"android":"levelo://app?vid=e95c7a5e-2ca6-4704-beef-c914118730ac","ios":"levelo://app?vid=e95c7a5e-2ca6-4704-beef-c914118730ac"},"vehicle_type_id":"4","last_reported":1762859374,"current_range_meters":18000,"station_id":"","pricing_plan_id":"cebpf4jnsgd1na2vs0mg"},{"bike_id":"bad5f05f-93cf-4476-b8ef-dd0c9285827b","system_id":"levelo_inurba_marseille","lat":43.23121,"lon":5.43729,"is_reserved":false,"is_disabled":false,"rental_uris":{"android":"levelo://app?vid=bad5f05f-93cf-4476-b8ef-dd0c9285827b","ios":"levelo://app?vid=bad5f05f-93cf-4476-b8ef-dd0c9285827b"},"vehicle_type_id":"4","last_reported":1762859374,"current_range_meters":18800,"station_id":"ce4bhmp2rcd13ifvqgog","pricing_plan_id":"cebpf4jnsgd1na2vs0mg"},{"bike_id":"9ed27a31-e2e7-4113-b8c6-939ac948a25c","system_id":"levelo_inurba_marseille","lat":43.28627,"lon":5.37032,"is_reserved":false,"is_disabled":false,"rental_uris":{"android":"levelo://app?vid=9ed27a31-e2e7-4113-b8c6-939ac948a25c","ios":"levelo://app?vid=9ed27a31-e2e7-4113-b8c6-939ac948a25c"},"vehicle_type_id":"4","last_reported":1762859374,"current_range_meters":18800,"station_id":"ce4bht12rcd13ifvqi60","pricing_plan_id":"cebpf4jnsgd1na2vs0mg"},{"bike_id":"f322bcad-4bb2-4e92-9259-00bd100db1dd","system_id":"levelo_inurba_marseille","lat":43.26227,"lon":5.40448,"is_reserved":false,"is_disabled":false,"rental_uris":{"android":"levelo://app?vid=f322bcad-4bb2-4e92-9259-00bd100db1dd","ios":"levelo://app?vid=f322bcad-4bb2-4e92-9259-00bd100db1dd"},"vehicle_type_id":"4","last_reported":1762859374,"current_range_meters":18800,"station_id":"ce4bhmh2rcd13ifvqgmg","pricing_plan_id":"cebpf4jnsgd1na2vs0mg"},{"bike_id":"0f535ae1-c865-4f62-ac92-07e8eedf232b","system_id":"levelo_inurba_marseille","lat":43.21741,"lon":5.34603,"is_reserved":false,"is_disabled":false,"rental_uris":{"android":"levelo://app?vid=0f535ae1-c865-4f62-ac92-07e8eedf232b","ios":"levelo://app?vid=0f535ae1-c865-4f62-ac92-07e8eedf232b"},"vehicle_type_id":"4","last_reported":1762859374,"current_range_meters":18800,"station_id":"st_cvj6r9ubvosntc0bgbag","pricing_plan_id":"cebpf4jnsgd1na2vs0mg"},{"bike_id":"a8e66c3b-911c-499e-96a5-636e3021acc7","system_id":"levelo_inurba_marseille","lat":43.24639,"lon":5.43157,"is_reserved":false,"is_disabled":false,"rental_uris":{"android":"levelo://app?vid=a8e66c3b-911c-499e-96a5-636e3021acc7","ios":"levelo://app?vid=a8e66c3b-911c-499e-96a5-636e3021acc7"},"vehicle_type_id":"4","last_reported":1762859374,"current_range_meters":18800,"station_id":"st_d2m6c4gdas8pm72e190g","pricing_plan_id":"cebpf4jnsgd1na2vs0mg"},{"bike_id":"0d99d113-8953-4587-8656-a8ad5dc8d796","system_id":"levelo_inurba_marseille","lat":43.2119,"lon":5.35067,"is_reserved":false,"is_disabled":false,"rental_uris":{"android":"levelo://app?vid=0d99d113-8953-4587-8656-a8ad5dc8d796","ios":"levelo://app?vid=0d99d113-8953-4587-8656-a8ad5dc8d796"},"vehicle_type_id":"4","last_reported":1762859374,"current_range_meters":18800,"station_id":"st_cvj6sg6p6f1abm77japg","pricing_plan_id":"cebpf4jnsgd1na2vs0mg"},{"bike_id":"fc0d9349-9445-426d-92ae-6fc47ef31d91","system_id":"levelo_inurba_marseille","lat":43.29513,"lon":5.37513,"is_reserved":false,"is_disabled":false,"rental_uris":{"android":"levelo://app?vid=fc0d9349-9445-426d-92ae-6fc47ef31d91","ios":"levelo://app?vid=fc0d9349-9445-426d-92ae-6fc47ef31d91"},"vehicle_type_id":"4","last_reported":1762859374,"current_range_meters":18800,"station_id":"ce4bgkp2rcd13ifvqbmg","pricing_plan_id":"cebpf4jnsgd1na2vs0mg"},{"bike_id":"042bbb4e-9aac-42bf-9d90-b6b61868f7c8","system_id":"levelo_inurba_marseille","lat":43.21191,"lon":5.35061,"is_reserved":false,"is_disabled":false,"rental_uris":{"android":"levelo://app?vid=042bbb4e-9aac-42bf-9d90-b6b61868f7c8","ios":"levelo://app?vid=042bbb4e-9aac-42bf-9d90-b6b61868f7c8"},"vehicle_type_id":"4","last_reported":1762859374,"current_range_meters":18800,"station_id":"st_cvj6sg6p6f1abm77japg","pricing_plan_id":"cebpf4jnsgd1na2vs0mg"},{"bike_id":"0037bc82-a725-4532-961d-adb6c1ab57d1","system_id":"levelo_inurba_marseille","lat":43.2978,"lon":5.39337,"is_reserved":false,"is_disabled":false,"rental_uris":{"android":"levelo://app?vid=0037bc82-a725-4532-961d-adb6c1ab57d1","ios":"levelo://app?vid=0037bc82-a725-4532-961d-adb6c1ab57d1"},"vehicle_type_id":"4","last_reported":1762859374,"current_range_meters":18800,"station_id":"chh1huq6cuj3fo74tm60","pricing_plan_id":"cebpf4jnsgd1na2vs0mg"},{"bike_id":"0799cf1b-c0f5-4528-9bf0-621157c15944","system_id":"levelo_inurba_marseille","lat":43.29513,"lon":5.37501,"is_reserved":false,"is_disabled":false,"rental_uris":{"android":"levelo://app?vid=0799cf1b-c0f5-4528-9bf0-621157c15944","ios":"levelo://app?vid=0799cf1b-c0f5-4528-9bf0-621157c15944"},"vehicle_type_id":"4","last_reported":1762859374,"current_range_meters":18800,"station_id":"ce4bgkp2rcd13ifvqbmg","pricing_plan_id":"cebpf4jnsgd1na2vs0mg"},{"bike_id":"8b027115-1a9e-4312-923f-dbf5aec10ee4","system_id":"levelo_inurba_marseille","lat":43.302408,"lon":5.365015,"is_reserved":false,"is_disabled":false,"rental_uris":{"android":"levelo://app?vid=8b027115-1a9e-4312-923f-dbf5aec10ee4","ios":"levelo://app?vid=8b027115-1a9e-4312-923f-dbf5aec10ee4"},"vehicle_type_id":"4","last_reported":1762859374,"current_range_meters":18800,"station_id":"","pricing_plan_id":"cebpf4jnsgd1na2vs0mg"},{"bike_id":"d97d1671-36ff-4f0e-b146-69c560265632","system_id":"levelo_inurba_marseille","lat":43.27975,"lon":5.40782,"is_reserved":false,"is_disabled":false,"rental_uris":{"android":"levelo://app?vid=d97d1671-36ff-4f0e-b146-69c560265632","ios":"levelo://app?vid=d97d1671-36ff-4f0e-b146-69c560265632"},"vehicle_type_id":"4","last_reported":1762859374,"current_range_meters":18800,"station_id":"","pricing_plan_id":"cebpf4jnsgd1na2vs0mg"},{"bike_id":"287dcadd-c13d-4954-9d03-6589804086d3","system_id":"levelo_inurba_marseille","lat":43.2929,"lon":5.37447,"is_reserved":false,"is_disabled":false,"rental_uris":{"android":"levelo://app?vid=287dcadd-c13d-4954-9d03-6589804086d3","ios":"levelo://app?vid=287dcadd-c13d-4954-9d03-6589804086d3"},"vehicle_type_id":"4","last_reported":1762859374,"current_range_meters":18800,"station_id":"ce4bgi12rcd13ifvqb70","pricing_plan_id":"cebpf4jnsgd1na2vs0mg"},{"bike_id":"8069fe57-8a9a-4a8a-b2da-9ffb2d0fa64c","system_id":"levelo_inurba_marseille","lat":43.26681,"lon":5.38268,"is_reserved":false,"is_disabled":false,"rental_uris":{"android":"levelo://app?vid=8069fe57-8a9a-4a8a-b2da-9ffb2d0fa64c","ios":"levelo://app?vid=8069fe57-8a9a-4a8a-b2da-9ffb2d0fa64c"},"vehicle_type_id":"4","last_reported":1762859374,"current_range_meters":18800,"station_id":"ce4bhg92rcd13ifvqf90","pricing_plan_id":"cebpf4jnsgd1na2vs0mg"},{"bike_id":"e5252fcf-fccc-4225-8537-890d3568496a","system_id":"levelo_inurba_marseille","lat":43.2118,"lon":5.35065,"is_reserved":false,"is_disabled":false,"rental_uris":{"android":"levelo://app?vid=e5252fcf-fccc-4225-8537-890d3568496a","ios":"levelo://app?vid=e5252fcf-fccc-4225-8537-890d3568496a"},"vehicle_type_id":"4","last_reported":1762859374,"current_range_meters":18800,"station_id":"st_cvj6sg6p6f1abm77japg","pricing_plan_id":"cebpf4jnsgd1na2vs0mg"},{"bike_id":"3734389c-4416-422b-8512-418184f189f8","system_id":"levelo_inurba_marseille","lat":43.25594,"lon":5.38235,"is_reserved":false,"is_disabled":false,"rental_uris":{"android":"levelo://app?vid=3734389c-4416-422b-8512-418184f189f8","ios":"levelo://app?vid=3734389c-4416-422b-8512-418184f189f8"},"vehicle_type_id":"4","last_reported":1762859374,"current_range_meters":18800,"station_id":"ce4bhih2rcd13ifvqfs0","pricing_plan_id":"cebpf4jnsgd1na2vs0mg"},{"bike_id":"05c75608-a109-42d6-bb0b-b1692272735d","system_id":"levelo_inurba_marseille","lat":43.21191,"lon":5.35079,"is_reserved":false,"is_disabled":false,"rental_uris":{"android":"levelo://app?vid=05c75608-a109-42d6-bb0b-b1692272735d","ios":"levelo://app?vid=05c75608-a109-42d6-bb0b-b1692272735d"},"vehicle_type_id":"4","last_reported":1762859374,"current_range_meters":19200,"station_id":"st_cvj6sg6p6f1abm77japg","pricing_plan_id":"cebpf4jnsgd1na2vs0mg"},{"bike_id":"9c79226e-2a18-4937-9519-a98fa7f5bb2e","system_id":"levelo_inurba_marseille","lat":43.29578,"lon":5.36738,"is_reserved":false,"is_disabled":false,"rental_uris":{"android":"levelo://app?vid=9c79226e-2a18-4937-9519-a98fa7f5bb2e","ios":"levelo://app?vid=9c79226e-2a18-4937-9519-a98fa7f5bb2e"},"vehicle_type_id":"4","last_reported":1762859374,"current_range_meters":19200,"station_id":"ce4bgph2rcd13ifvqc2g","pricing_plan_id":"cebpf4jnsgd1na2vs0mg"},{"bike_id":"0b2590a8-371b-41ae-809a-7821d92ce897","system_id":"levelo_inurba_marseille","lat":43.31083,"lon":5.38368,"is_reserved":false,"is_disabled":false,"rental_uris":{"android":"levelo://app?vid=0b2590a8-371b-41ae-809a-7821d92ce897","ios":"levelo://app?vid=0b2590a8-371b-41ae-809a-7821d92ce897"},"vehicle_type_id":"4","last_reported":1762859374,"current_range_meters":19200,"station_id":"ce4bgv92rcd13ifvqcr0","pricing_plan_id":"cebpf4jnsgd1na2vs0mg"},{"bike_id":"530c5435-dc57-4588-bace-0b20c07151bb","system_id":"levelo_inurba_marseille","lat":43.21191,"lon":5.3506,"is_reserved":false,"is_disabled":false,"rental_uris":{"android":"levelo://app?vid=530c5435-dc57-4588-bace-0b20c07151bb","ios":"levelo://app?vid=530c5435-dc57-4588-bace-0b20c07151bb"},"vehicle_type_id":"4","last_reported":1762859374,"current_range_meters":19200,"station_id":"st_cvj6sg6p6f1abm77japg","pricing_plan_id":"cebpf4jnsgd1na2vs0mg"},{"bike_id":"e3df63a1-f3d2-4d82-8bf6-df212c4e8b69","system_id":"levelo_inurba_marseille","lat":43.28478,"lon":5.48398,"is_reserved":false,"is_disabled":false,"rental_uris":{"android":"levelo://app?vid=e3df63a1-f3d2-4d82-8bf6-df212c4e8b69","ios":"levelo://app?vid=e3df63a1-f3d2-4d82-8bf6-df212c4e8b69"},"vehicle_type_id":"4","last_reported":1762859374,"current_range_meters":19200,"station_id":"","pricing_plan_id":"cebpf4jnsgd1na2vs0mg"},{"bike_id":"b23a8e2b-a86e-43e2-9409-dafed21a451c","system_id":"levelo_inurba_marseille","lat":43.244601,"lon":5.378301,"is_reserved":false,"is_disabled":false,"rental_uris":{"android":"levelo://app?vid=b23a8e2b-a86e-43e2-9409-dafed21a451c","ios":"levelo://app?vid=b23a8e2b-a86e-43e2-9409-dafed21a451c"},"vehicle_type_id":"4","last_reported":1762859374,"current_range_meters":19200,"station_id":"","pricing_plan_id":"cebpf4jnsgd1na2vs0mg"},{"bike_id":"0a9c6054-deaf-43d6-86c4-e39c1802dfea","system_id":"levelo_inurba_marseille","lat":43.23062,"lon":5.3549,"is_reserved":false,"is_disabled":false,"rental_uris":{"android":"levelo://app?vid=0a9c6054-deaf-43d6-86c4-e39c1802dfea","ios":"levelo://app?vid=0a9c6054-deaf-43d6-86c4-e39c1802dfea"},"vehicle_type_id":"4","last_reported":1762859374,"current_range_meters":19200,"station_id":"cpo3342slgdg3j2ifvpg","pricing_plan_id":"cebpf4jnsgd1na2vs0mg"},{"bike_id":"145da0ce-9d99-497c-afcb-f0b7c4d4e16f","system_id":"levelo_inurba_marseille","lat":43.28505,"lon":5.48386,"is_reserved":false,"is_disabled":false,"rental_uris":{"android":"levelo://app?vid=145da0ce-9d99-497c-afcb-f0b7c4d4e16f","ios":"levelo://app?vid=145da0ce-9d99-497c-afcb-f0b7c4d4e16f"},"vehicle_type_id":"4","last_reported":1762859374,"current_range_meters":19200,"station_id":"","pricing_plan_id":"cebpf4jnsgd1na2vs0mg"},{"bike_id":"7fc401c3-f074-4cc8-8d12-2ed55526e32e","system_id":"levelo_inurba_marseille","lat":43.24644,"lon":5.38888,"is_reserved":false,"is_disabled":true,"rental_uris":{"android":"levelo://app?vid=7fc401c3-f074-4cc8-8d12-2ed55526e32e","ios":"levelo://app?vid=7fc401c3-f074-4cc8-8d12-2ed55526e32e"},"vehicle_type_id":"4","last_reported":1762859374,"current_range_meters":19600,"station_id":"ce4bhg12rcd13ifvqf60","pricing_plan_id":"cebpf4jnsgd1na2vs0mg"},{"bike_id":"d6d9a3e0-e0aa-4aa2-bf84-1c4e64c5c8a2","system_id":"levelo_inurba_marseille","lat":43.25526,"lon":5.39058,"is_reserved":false,"is_disabled":false,"rental_uris":{"android":"levelo://app?vid=d6d9a3e0-e0aa-4aa2-bf84-1c4e64c5c8a2","ios":"levelo://app?vid=d6d9a3e0-e0aa-4aa2-bf84-1c4e64c5c8a2"},"vehicle_type_id":"4","last_reported":1762859374,"current_range_meters":19600,"station_id":"","pricing_plan_id":"cebpf4jnsgd1na2vs0mg"},{"bike_id":"4aa839c4-5ebd-4a98-9fce-97743a7e39bb","system_id":"levelo_inurba_marseille","lat":43.29583,"lon":5.37515,"is_reserved":false,"is_disabled":true,"rental_uris":{"android":"levelo://app?vid=4aa839c4-5ebd-4a98-9fce-97743a7e39bb","ios":"levelo://app?vid=4aa839c4-5ebd-4a98-9fce-97743a7e39bb"},"vehicle_type_id":"4","last_reported":1762859374,"current_range_meters":19600,"station_id":"ce4bgh92rcd13ifvqb50","pricing_plan_id":"cebpf4jnsgd1na2vs0mg"},{"bike_id":"2ce2423d-a87c-4033-a6c8-7abc45ef848b","system_id":"levelo_inurba_marseille","lat":43.26945,"lon":5.40245,"is_reserved":false,"is_disabled":false,"rental_uris":{"android":"levelo://app?vid=2ce2423d-a87c-4033-a6c8-7abc45ef848b","ios":"levelo://app?vid=2ce2423d-a87c-4033-a6c8-7abc45ef848b"},"vehicle_type_id":"4","last_reported":1762859374,"current_range_meters":19600,"station_id":"cjm6bp8fraef2m0cb0m0","pricing_plan_id":"cebpf4jnsgd1na2vs0mg"},{"bike_id":"675256dd-4714-46a4-9b16-e096c1e02f5b","system_id":"levelo_inurba_marseille","lat":43.29533,"lon":5.37522,"is_reserved":false,"is_disabled":false,"rental_uris":{"android":"levelo://app?vid=675256dd-4714-46a4-9b16-e096c1e02f5b","ios":"levelo://app?vid=675256dd-4714-46a4-9b16-e096c1e02f5b"},"vehicle_type_id":"4","last_reported":1762859374,"current_range_meters":19600,"station_id":"ce4bgkp2rcd13ifvqbmg","pricing_plan_id":"cebpf4jnsgd1na2vs0mg"},{"bike_id":"46bc318f-87d6-42e5-a011-7ca94455461a","system_id":"levelo_inurba_marseille","lat":43.258666,"lon":5.388945,"is_reserved":false,"is_disabled":false,"rental_uris":{"android":"levelo://app?vid=46bc318f-87d6-42e5-a011-7ca94455461a","ios":"levelo://app?vid=46bc318f-87d6-42e5-a011-7ca94455461a"},"vehicle_type_id":"4","last_reported":1762859374,"current_range_meters":19600,"station_id":"","pricing_plan_id":"cebpf4jnsgd1na2vs0mg"},{"bike_id":"334dce50-b36a-4698-b56f-71121026c5ca","system_id":"levelo_inurba_marseille","lat":43.30603,"lon":5.37198,"is_reserved":false,"is_disabled":true,"rental_uris":{"android":"levelo://app?vid=334dce50-b36a-4698-b56f-71121026c5ca","ios":"levelo://app?vid=334dce50-b36a-4698-b56f-71121026c5ca"},"vehicle_type_id":"4","last_reported":1762859374,"current_range_meters":19600,"station_id":"ce4bgqh2rcd13ifvqc4g","pricing_plan_id":"cebpf4jnsgd1na2vs0mg"},{"bike_id":"a50e5c5b-abfa-40ca-84e7-f46c993db775","system_id":"levelo_inurba_marseille","lat":43.28531,"lon":5.441069,"is_reserved":false,"is_disabled":true,"rental_uris":{"android":"levelo://app?vid=a50e5c5b-abfa-40ca-84e7-f46c993db775","ios":"levelo://app?vid=a50e5c5b-abfa-40ca-84e7-f46c993db775"},"vehicle_type_id":"4","last_reported":1762859374,"current_range_meters":19600,"station_id":"st_d3j3df2ikq2c7380ej80","pricing_plan_id":"cebpf4jnsgd1na2vs0mg"},{"bike_id":"19784d22-d888-41f6-8fc3-13741515c0ed","system_id":"levelo_inurba_marseille","lat":43.29269,"lon":5.36866,"is_reserved":false,"is_disabled":false,"rental_uris":{"android":"levelo://app?vid=19784d22-d888-41f6-8fc3-13741515c0ed","ios":"levelo://app?vid=19784d22-d888-41f6-8fc3-13741515c0ed"},"vehicle_type_id":"4","last_reported":1762859374,"current_range_meters":19600,"station_id":"ce4bhbp2rcd13ifvqesg","pricing_plan_id":"cebpf4jnsgd1na2vs0mg"},{"bike_id":"31ce56f8-20b7-4f69-ae36-3d8ae201f1b8","system_id":"levelo_inurba_marseille","lat":43.265641,"lon":5.403238,"is_reserved":false,"is_disabled":false,"rental_uris":{"android":"levelo://app?vid=31ce56f8-20b7-4f69-ae36-3d8ae201f1b8","ios":"levelo://app?vid=31ce56f8-20b7-4f69-ae36-3d8ae201f1b8"},"vehicle_type_id":"4","last_reported":1762859374,"current_range_meters":19600,"station_id":"ce4bhmp2rcd13ifvqgng","pricing_plan_id":"cebpf4jnsgd1na2vs0mg"},{"bike_id":"057c53f5-09a6-425c-acb2-20b8e9011ee2","system_id":"levelo_inurba_marseille","lat":43.282535,"lon":5.350625,"is_reserved":false,"is_disabled":false,"rental_uris":{"android":"levelo://app?vid=057c53f5-09a6-425c-acb2-20b8e9011ee2","ios":"levelo://app?vid=057c53f5-09a6-425c-acb2-20b8e9011ee2"},"vehicle_type_id":"4","last_reported":1762859374,"current_range_meters":19600,"station_id":"ce4bhbp2rcd13ifvqerg","pricing_plan_id":"cebpf4jnsgd1na2vs0mg"},{"bike_id":"18d9ff3d-4eec-4c65-8d73-cfaa198f22f3","system_id":"levelo_inurba_marseille","lat":43.2784,"lon":5.39193,"is_reserved":false,"is_disabled":false,"rental_uris":{"android":"levelo://app?vid=18d9ff3d-4eec-4c65-8d73-cfaa198f22f3","ios":"levelo://app?vid=18d9ff3d-4eec-4c65-8d73-cfaa198f22f3"},"vehicle_type_id":"4","last_reported":1762859374,"current_range_meters":19600,"station_id":"ce4bhjp2rcd13ifvqga0","pricing_plan_id":"cebpf4jnsgd1na2vs0mg"},{"bike_id":"a0e7c4e0-a2e8-415e-afba-287963b1c6ee","system_id":"levelo_inurba_marseille","lat":43.28,"lon":5.40018,"is_reserved":false,"is_disabled":false,"rental_uris":{"android":"levelo://app?vid=a0e7c4e0-a2e8-415e-afba-287963b1c6ee","ios":"levelo://app?vid=a0e7c4e0-a2e8-415e-afba-287963b1c6ee"},"vehicle_type_id":"4","last_reported":1762859374,"current_range_meters":20000,"station_id":"ce4bho92rcd13ifvqh4g","pricing_plan_id":"cebpf4jnsgd1na2vs0mg"},{"bike_id":"acfc05c7-6761-4811-9820-236be56aea90","system_id":"levelo_inurba_marseille","lat":43.27986,"lon":5.4002,"is_reserved":false,"is_disabled":false,"rental_uris":{"android":"levelo://app?vid=acfc05c7-6761-4811-9820-236be56aea90","ios":"levelo://app?vid=acfc05c7-6761-4811-9820-236be56aea90"},"vehicle_type_id":"4","last_reported":1762859374,"current_range_meters":20000,"station_id":"ce4bho92rcd13ifvqh4g","pricing_plan_id":"cebpf4jnsgd1na2vs0mg"},{"bike_id":"fe400751-7dcc-498a-b487-0f528583d95e","system_id":"levelo_inurba_marseille","lat":43.246477,"lon":5.38887,"is_reserved":false,"is_disabled":true,"rental_uris":{"android":"levelo://app?vid=fe400751-7dcc-498a-b487-0f528583d95e","ios":"levelo://app?vid=fe400751-7dcc-498a-b487-0f528583d95e"},"vehicle_type_id":"4","last_reported":1762859374,"current_range_meters":20000,"station_id":"ce4bhg12rcd13ifvqf60","pricing_plan_id":"cebpf4jnsgd1na2vs0mg"},{"bike_id":"5e6e0c2c-5aff-425c-b9f5-69ee0b364303","system_id":"levelo_inurba_marseille","lat":43.23199,"lon":5.35533,"is_reserved":false,"is_disabled":false,"rental_uris":{"android":"levelo://app?vid=5e6e0c2c-5aff-425c-b9f5-69ee0b364303","ios":"levelo://app?vid=5e6e0c2c-5aff-425c-b9f5-69ee0b364303"},"vehicle_type_id":"4","last_reported":1762859374,"current_range_meters":20000,"station_id":"ce4bhu92rcd13ifvqi70","pricing_plan_id":"cebpf4jnsgd1na2vs0mg"},{"bike_id":"5f27a5df-afbd-4bab-ac45-240ef6e055d5","system_id":"levelo_inurba_marseille","lat":43.22573,"lon":5.41612,"is_reserved":false,"is_disabled":false,"rental_uris":{"android":"levelo://app?vid=5f27a5df-afbd-4bab-ac45-240ef6e055d5","ios":"levelo://app?vid=5f27a5df-afbd-4bab-ac45-240ef6e055d5"},"vehicle_type_id":"4","last_reported":1762859374,"current_range_meters":20000,"station_id":"st_d2o4gvlbi1j2169b742g","pricing_plan_id":"cebpf4jnsgd1na2vs0mg"},