{"last_updated":1731956813,"ttl":60,"version":"2.2","data":{"bikes":[{"bike_id":"457bb5e6-741e-4f94-a043-dca2d0f5b93a","system_id":"levelo_inurba_marseille","lat":43.3136,"lon":5.38489,"is_reserved":false,"is_disabled":false,"rental_uris":{"android":"levelo://app?vid=457bb5e6-741e-4f94-a043-dca2d0f5b93a","ios":"levelo://app?vid=457bb5e6-741e-4f94-a043-dca2d0f5b93a"},"vehicle_type_id":"4","last_reported":1731956813,"current_range_meters":11600,"station_id":"ce4bgt92rcd13ifvqcf0","pricing_plan_id":"cebpf4jnsgd1na2vs0mg"},{"bike_id":"759402a1-7af1-4e40-a827-cb04c3a15515","system_id":"levelo_inurba_marseille","lat":43.30556,"lon":5.38437,"is_reserved":false,"is_disabled":false,"rental_uris":{"android":"levelo://app?vid=759402a1-7af1-4e40-a827-cb04c3a15515","ios":"levelo://app?vid=759402a1-7af1-4e40-a827-cb04c3a15515"},"vehicle_type_id":"4","last_reported":1731956813,"current_range_meters":36400,"station_id":"ce4bgg92rcd13ifvqb30","pricing_plan_id":"cebpf4jnsgd1na2vs0mg"},{"bike_id":"2f5083a8-01ca-4328-baf6-04e4b87dc35e","system_id":"levelo_inurba_marseille","lat":43.27914,"lon":5.39579,"is_reserved":false,"is_disabled":false,"rental_uris":{"android":"levelo://app?vid=2f5083a8-01ca-4328-baf6-04e4b87dc35e","ios":"levelo://app?vid=2f5083a8-01ca-4328-baf6-04e4b87dc35e"},"vehicle_type_id":"4","last_reported":1731956813,"current_range_meters":29600,"station_id":"ce4bhf92rcd13ifvqf40","pricing_plan_id":"cebpf4jnsgd1na2vs0mg"},{"bike_id":"d9662575-f3e4-4030-8357-61afc8834334","system_id":"levelo_inurba_marseille","lat":43.27946,"lon":5.41039,"is_reserved":false,"is_disabled":false,"rental_uris":{"android":"levelo://app?vid=d9662575-f3e4-4030-8357-61afc8834334","ios":"levelo://app?vid=d9662575-f3e4-4030-8357-61afc8834334"},"vehicle_type_id":"4","last_reported":1731956813,"current_range_meters":33200,"station_id":"ce4bhnp2rcd13ifvqh0g","pricing_plan_id":"cebpf4jnsgd1na2vs0mg"},{"bike_id":"2266e436-e549-49a3-a4f3-b11fe232c8ac","system_id":"levelo_inurba_marseille","lat":43.29838,"lon":5.36271,"is_reserved":false,"is_disabled":false,"rental_uris":{"android":"levelo://app?vid=2266e436-e549-49a3-a4f3-b11fe232c8ac","ios":"levelo://app?vid=2266e436-e549-49a3-a4f3-b11fe232c8ac"},"vehicle_type_id":"4","last_reported":1731956813,"current_range_meters":36800,"station_id":"ce4bgpp2rcd13ifvqc3g","pricing_plan_id":"cebpf4jnsgd1na2vs0mg"},{"bike_id":"fa4dccfa-f448-4e19-827c-4218aa04e48a","system_id":"levelo_inurba_marseille","lat":43.30795,"lon":5.38145,"is_reserved":false,"is_disabled":false,"rental_uris":{"android":"levelo://app?vid=fa4dccfa-f448-4e19-827c-4218aa04e48a","ios":"levelo://app?vid=fa4dccfa-f448-4e19-827c-4218aa04e48a"},"vehicle_type_id":"4","last_reported":1731956813,"current_range_meters":7200,"station_id":"ce4bgt12rcd13ifvqce0","pricing_plan_id":"cebpf4jnsgd1na2vs0mg"},{"bike_id":"ee8b0697-df46-4de8-b7de-734c3a73285b","system_id":"levelo_inurba_marseille","lat":43.27809,"lon":5.40701,"is_reserved":false,"is_disabled":false,"rental_uris":{"android":"levelo://app?vid=ee8b0697-df46-4de8-b7de-734c3a73285b","ios":"levelo://app?vid=ee8b0697-df46-4de8-b7de-734c3a73285b"},"vehicle_type_id":"4","last_reported":1731956813,"current_range_meters":34000,"station_id":"ce4bhnh2rcd13ifvqgtg","pricing_plan_id":"cebpf4jnsgd1na2vs0mg"},{"bike_id":"0bc2b4da-31a7-4cb4-95e9-3aa3825f7da9","system_id":"levelo_inurba_marseille","lat":43.28002,"lon":5.40009,"is_reserved":false,"is_disabled":false,"rental_uris":{"android":"levelo://app?vid=0bc2b4da-31a7-4cb4-95e9-3aa3825f7da9","ios":"levelo://app?vid=0bc2b4da-31a7-4cb4-95e9-3aa3825f7da9"},"vehicle_type_id":"4","last_reported":1731956813,"current_range_meters":15200,"station_id":"ce4bho92rcd13ifvqh4g","pricing_plan_id":"cebpf4jnsgd1na2vs0mg"},{"bike_id":"e6d65266-7a6e-4019-b71a-d22b4f4d32f0","system_id":"levelo_inurba_marseille","lat":43.29571,"lon":5.39978,"is_reserved":false,"is_disabled":false,"rental_uris":{"android":"levelo://app?vid=e6d65266-7a6e-4019-b71a-d22b4f4d32f0","ios":"levelo://app?vid=e6d65266-7a6e-4019-b71a-d22b4f4d32f0"},"vehicle_type_id":"4","last_reported":1731956813,"current_range_meters":24400,"station_id":"ce4bh312rcd13ifvqdj0","pricing_plan_id":"cebpf4jnsgd1na2vs0mg"},{"bike_id":"0ea44848-01bd-4ed5-98b4-d4fbd5a0a025","system_id":"levelo_inurba_marseille","lat":43.29523,"lon":5.39037,"is_reserved":false,"is_disabled":false,"rental_uris":{"android":"levelo://app?vid=0ea44848-01bd-4ed5-98b4-d4fbd5a0a025","ios":"levelo://app?vid=0ea44848-01bd-4ed5-98b4-d4fbd5a0a025"},"vehicle_type_id":"4","last_reported":1731956813,"current_range_meters":38000,"station_id":"ce4bh3p2rcd13ifvqdp0","pricing_plan_id":"cebpf4jnsgd1na2vs0mg"},{"bike_id":"98568737-99bd-4851-a170-5764e02de3a0","system_id":"levelo_inurba_marseille","lat":43.31753,"lon":5.3901,"is_reserved":false,"is_disabled":false,"rental_uris":{"android":"levelo://app?vid=98568737-99bd-4851-a170-5764e02de3a0","ios":"levelo://app?vid=98568737-99bd-4851-a170-5764e02de3a0"},"vehicle_type_id":"4","last_reported":1731956813,"current_range_meters":37600,"station_id":"ce4bhqp2rcd13ifvqhng","pricing_plan_id":"cebpf4jnsgd1na2vs0mg"},{"bike_id":"69b9fb52-b1e8-402f-9b6f-d88522e081d9","system_id":"levelo_inurba_marseille","lat":43.27994,"lon":5.40019,"is_reserved":false,"is_disabled":false,"rental_uris":{"android":"levelo://app?vid=69b9fb52-b1e8-402f-9b6f-d88522e081d9","ios":"levelo://app?vid=69b9fb52-b1e8-402f-9b6f-d88522e081d9"},"vehicle_type_id":"4","last_reported":1731956813,"current_range_meters":24400,"station_id":"ce4bho92rcd13ifvqh4g","pricing_plan_id":"cebpf4jnsgd1na2vs0mg"},{"bike_id":"6c926eef-89ef-4421-9c04-3c9899f3173b","system_id":"levelo_inurba_marseille","lat":43.29895,"lon":5.43652,"is_reserved":false,"is_disabled":true,"rental_uris":{"android":"levelo://app?vid=6c926eef-89ef-4421-9c04-3c9899f3173b","ios":"levelo://app?vid=6c926eef-89ef-4421-9c04-3c9899f3173b"},"vehicle_type_id":"4","last_reported":1731956813,"current_range_meters":0,"station_id":"ce4bhpp2rcd13ifvqhfg","pricing_plan_id":"cebpf4jnsgd1na2vs0mg"},{"bike_id":"68659cf0-4fd2-4892-b1f5-2895655bc320","system_id":"levelo_inurba_marseille","lat":43.29441,"lon":5.39744,"is_reserved":false,"is_disabled":false,"rental_uris":{"android":"levelo://app?vid=68659cf0-4fd2-4892-b1f5-2895655bc320","ios":"levelo://app?vid=68659cf0-4fd2-4892-b1f5-2895655bc320"},"vehicle_type_id":"4","last_reported":1731956813,"current_range_meters":25600,"station_id":"ce4bh3h2rcd13ifvqdo0","pricing_plan_id":"cebpf4jnsgd1na2vs0mg"},{"bike_id":"81108a94-b9fd-4847-be3f-917addbb08ef","system_id":"levelo_inurba_marseille","lat":43.26559,"lon":5.37286,"is_reserved":false,"is_disabled":true,"rental_uris":{"android":"levelo://app?vid=81108a94-b9fd-4847-be3f-917addbb08ef","ios":"levelo://app?vid=81108a94-b9fd-4847-be3f-917addbb08ef"},"vehicle_type_id":"4","last_reported":1731956813,"current_range_meters":0,"station_id":"ce4bhg12rcd13ifvqf70","pricing_plan_id":"cebpf4jnsgd1na2vs0mg"},{"bike_id":"e08875d1-5eda-43a9-a5b5-ee3ebd16c83c","system_id":"levelo_inurba_marseille","lat":43.25006,"lon":5.38921,"is_reserved":false,"is_disabled":true,"rental_uris":{"android":"levelo://app?vid=e08875d1-5eda-43a9-a5b5-ee3ebd16c83c","ios":"levelo://app?vid=e08875d1-5eda-43a9-a5b5-ee3ebd16c83c"},"vehicle_type_id":"4","last_reported":1731956813,"current_range_meters":1600,"station_id":"ce4bhgp2rcd13ifvqfd0","pricing_plan_id":"cebpf4jnsgd1na2vs0mg"},{"bike_id":"c3b1ce3a-e702-49a2-a08b-94878bf4d877","system_id":"levelo_inurba_marseille","lat":43.27994,"lon":5.41658,"is_reserved":false,"is_disabled":false,"rental_uris":{"android":"levelo://app?vid=c3b1ce3a-e702-49a2-a08b-94878bf4d877","ios":"levelo://app?vid=c3b1ce3a-e702-49a2-a08b-94878bf4d877"},"vehicle_type_id":"4","last_reported":1731956813,"current_range_meters":16000,"station_id":"ce4bho12rcd13ifvqh1g","pricing_plan_id":"cebpf4jnsgd1na2vs0mg"},{"bike_id":"440d35d8-b940-4710-99d5-65b25b698417","system_id":"levelo_inurba_marseille","lat":43.29277,"lon":5.40123,"is_reserved":false,"is_disabled":false,"rental_uris":{"android":"levelo://app?vid=440d35d8-b940-4710-99d5-65b25b698417","ios":"levelo://app?vid=440d35d8-b940-4710-99d5-65b25b698417"},"vehicle_type_id":"4","last_reported":1731956813,"current_range_meters":11200,"station_id":"ce4bh312rcd13ifvqdk0","pricing_plan_id":"cebpf4jnsgd1na2vs0mg"},{"bike_id":"4f6563aa-5149-4f5f-892a-b193097b17a7","system_id":"levelo_inurba_marseille","lat":43.3171,"lon":5.37746,"is_reserved":false,"is_disabled":false,"rental_uris":{"android":"levelo://app?vid=4f6563aa-5149-4f5f-892a-b193097b17a7","ios":"levelo://app?vid=4f6563aa-5149-4f5f-892a-b193097b17a7"},"vehicle_type_id":"4","last_reported":1731956813,"current_range_meters":20800,"station_id":"ce4bgth2rcd13ifvqch0","pricing_plan_id":"cebpf4jnsgd1na2vs0mg"},{"bike_id":"3a780cf8-f2ac-46d2-82c1-6ac0d4544f30","system_id":"levelo_inurba_marseille","lat":43.28711,"lon":5.37385,"is_reserved":false,"is_disabled":false,"rental_uris":{"android":"levelo://app?vid=3a780cf8-f2ac-46d2-82c1-6ac0d4544f30","ios":"levelo://app?vid=3a780cf8-f2ac-46d2-82c1-6ac0d4544f30"},"vehicle_type_id":"4","last_reported":1731956813,"current_range_meters":19200,"station_id":"ce4bh3p2rcd13ifvqdq0","pricing_plan_id":"cebpf4jnsgd1na2vs0mg"},{"bike_id":"a3846304-4a92-4287-9b66-9391000a30bf","system_id":"levelo_inurba_marseille","lat":43.31384,"lon":5.38502,"is_reserved":false,"is_disabled":false,"rental_uris":{"android":"levelo://app?vid=a3846304-4a92-4287-9b66-9391000a30bf","ios":"levelo://app?vid=a3846304-4a92-4287-9b66-9391000a30bf"},"vehicle_type_id":"4","last_reported":1731956813,"current_range_meters":39200,"station_id":"ce4bgt92rcd13ifvqcf0","pricing_plan_id":"cebpf4jnsgd1na2vs0mg"},{"bike_id":"226e83bf-1a60-405a-af72-b50b167433a5","system_id":"levelo_inurba_marseille","lat":43.2957,"lon":5.39956,"is_reserved":false,"is_disabled":false,"rental_uris":{"android":"levelo://app?vid=226e83bf-1a60-405a-af72-b50b167433a5","ios":"levelo://app?vid=226e83bf-1a60-405a-af72-b50b167433a5"},"vehicle_type_id":"4","last_reported":1731956813,"current_range_meters":37600,"station_id":"ce4bh312rcd13ifvqdj0","pricing_plan_id":"cebpf4jnsgd1na2vs0mg"},{"bike_id":"4e682c21-86be-4d76-a64b-638a60816da7","system_id":"levelo_inurba_marseille","lat":43.27809,"lon":5.40707,"is_reserved":false,"is_disabled":false,"rental_uris":{"android":"levelo://app?vid=4e682c21-86be-4d76-a64b-638a60816da7","ios":"levelo://app?vid=4e682c21-86be-4d76-a64b-638a60816da7"},"vehicle_type_id":"4","last_reported":1731956813,"current_range_meters":22000,"station_id":"ce4bhnh2rcd13ifvqgtg","pricing_plan_id":"cebpf4jnsgd1na2vs0mg"},{"bike_id":"a674fc51-e59b-4ba3-a7b4-122dd27c084f","system_id":"levelo_inurba_marseille","lat":43.29306,"lon":5.37451,"is_reserved":false,"is_disabled":false,"rental_uris":{"android":"levelo://app?vid=a674fc51-e59b-4ba3-a7b4-122dd27c084f","ios":"levelo://app?vid=a674fc51-e59b-4ba3-a7b4-122dd27c084f"},"vehicle_type_id":"4","last_reported":1731956813,"current_range_meters":18800,"station_id":"ce4bh092rcd13ifvqd20","pricing_plan_id":"cebpf4jnsgd1na2vs0mg"},{"bike_id":"a87aaa7e-78b9-4322-bb83-e9fce6fb3cba","system_id":"levelo_inurba_marseille","lat":43.29849,"lon":5.36277,"is_reserved":false,"is_disabled":false,"rental_uris":{"android":"levelo://app?vid=a87aaa7e-78b9-4322-bb83-e9fce6fb3cba","ios":"levelo://app?vid=a87aaa7e-78b9-4322-bb83-e9fce6fb3cba"},"vehicle_type_id":"4","last_reported":1731956813,"current_range_meters":27600,"station_id":"ce4bgpp2rcd13ifvqc3g","pricing_plan_id":"cebpf4jnsgd1na2vs0mg"},{"bike_id":"d930277f-ae59-4a27-9409-f96eb995b54c","system_id":"levelo_inurba_marseille","lat":43.29523,"lon":5.39037,"is_reserved":false,"is_disabled":false,"rental_uris":{"android":"levelo://app?vid=d930277f-ae59-4a27-9409-f96eb995b54c","ios":"levelo://app?vid=d930277f-ae59-4a27-9409-f96eb995b54c"},"vehicle_type_id":"4","last_reported":1731956813,"current_range_meters":30800,"station_id":"ce4bh3p2rcd13ifvqdp0","pricing_plan_id":"cebpf4jnsgd1na2vs0mg"},{"bike_id":"ced0b29c-f4ce-41ad-a8a9-c0a7b3edb1dd","system_id":"levelo_inurba_marseille","lat":43.27807,"lon":5.4071,"is_reserved":false,"is_disabled":false,"rental_uris":{"android":"levelo://app?vid=ced0b29c-f4ce-41ad-a8a9-c0a7b3edb1dd","ios":"levelo://app?vid=ced0b29c-f4ce-41ad-a8a9-c0a7b3edb1dd"},"vehicle_type_id":"4","last_reported":1731956813,"current_range_meters":38800,"station_id":"ce4bhnh2rcd13ifvqgtg","pricing_plan_id":"cebpf4jnsgd1na2vs0mg"},{"bike_id":"43fc3a21-f3df-43fc-8276-7a68f99281c3","system_id":"levelo_inurba_marseille","lat":43.25121,"lon":5.40301,"is_reserved":false,"is_disabled":true,"rental_uris":{"android":"levelo://app?vid=43fc3a21-f3df-43fc-8276-7a68f99281c3","ios":"levelo://app?vid=43fc3a21-f3df-43fc-8276-7a68f99281c3"},"vehicle_type_id":"4","last_reported":1731956813,"current_range_meters":800,"station_id":"ce4bhlh2rcd13ifvqgig","pricing_plan_id":"cebpf4jnsgd1na2vs0mg"},{"bike_id":"6ba2d3f3-c655-4e14-8211-bd7d1cb3d06a","system_id":"levelo_inurba_marseille","lat":43.29877,"lon":5.39745,"is_reserved":false,"is_disabled":false,"rental_uris":{"android":"levelo://app?vid=6ba2d3f3-c655-4e14-8211-bd7d1cb3d06a","ios":"levelo://app?vid=6ba2d3f3-c655-4e14-8211-bd7d1cb3d06a"},"vehicle_type_id":"4","last_reported":1731956813,"current_range_meters":38800,"station_id":"ce4bh0h2rcd13ifvqd50","pricing_plan_id":"cebpf4jnsgd1na2vs0mg"},{"bike_id":"7e9ce606-04ed-4ba1-95b9-30c4f0269397","system_id":"levelo_inurba_marseille","lat":43.28412,"lon":5.3751,"is_reserved":false,"is_disabled":false,"rental_uris":{"android":"levelo://app?vid=7e9ce606-04ed-4ba1-95b9-30c4f0269397","ios":"levelo://app?vid=7e9ce606-04ed-4ba1-95b9-30c4f0269397"},"vehicle_type_id":"4","last_reported":1731956813,"current_range_meters":22400,"station_id":"ce4bh412rcd13ifvqds0","pricing_plan_id":"cebpf4jnsgd1na2vs0mg"},{"bike_id":"bc122eef-c627-4c48-898c-81234e04e2bd","system_id":"levelo_inurba_marseille","lat":43.30589,"lon":5.39339,"is_reserved":false,"is_disabled":true,"rental_uris":{"android":"levelo://app?vid=bc122eef-c627-4c48-898c-81234e04e2bd","ios":"levelo://app?vid=bc122eef-c627-4c48-898c-81234e04e2bd"},"vehicle_type_id":"4","last_reported":1731956813,"current_range_meters":16000,"station_id":"ce4bh0p2rcd13ifvqd80","pricing_plan_id":"cebpf4jnsgd1na2vs0mg"},{"bike_id":"56c4e209-27f1-4b9b-916c-ad011ba60920","system_id":"levelo_inurba_marseille","lat":43.33024,"lon":5.39041,"is_reserved":false,"is_disabled":false,"rental_uris":{"android":"levelo://app?vid=56c4e209-27f1-4b9b-916c-ad011ba60920","ios":"levelo://app?vid=56c4e209-27f1-4b9b-916c-ad011ba60920"},"vehicle_type_id":"4","last_reported":1731956813,"current_range_meters":24000,"station_id":"ce4bhr92rcd13ifvqhrg","pricing_plan_id":"cebpf4jnsgd1na2vs0mg"},{"bike_id":"9c003458-5bcb-4587-ba82-142e30067a2f","system_id":"levelo_inurba_marseille","lat":43.330261,"lon":5.39043,"is_reserved":false,"is_disabled":false,"rental_uris":{"android":"levelo://app?vid=9c003458-5bcb-4587-ba82-142e30067a2f","ios":"levelo://app?vid=9c003458-5bcb-4587-ba82-142e30067a2f"},"vehicle_type_id":"4","last_reported":1731956813,"current_range_meters":38800,"station_id":"ce4bhr92rcd13ifvqhrg","pricing_plan_id":"cebpf4jnsgd1na2vs0mg"},{"bike_id":"e138b0e1-0592-4057-bb8b-cf36d0939c91","system_id":"levelo_inurba_marseille","lat":43.28007,"lon":5.40028,"is_reserved":false,"is_disabled":false,"rental_uris":{"android":"levelo://app?vid=e138b0e1-0592-4057-bb8b-cf36d0939c91","ios":"levelo://app?vid=e138b0e1-0592-4057-bb8b-cf36d0939c91"},"vehicle_type_id":"4","last_reported":1731956813,"current_range_meters":39200,"station_id":"ce4bho92rcd13ifvqh4g","pricing_plan_id":"cebpf4jnsgd1na2vs0mg"},{"bike_id":"1341a828-b981-4198-a789-8a5791ca7539","system_id":"levelo_inurba_marseille","lat":43.25006,"lon":5.3892,"is_reserved":false,"is_disabled":true,"rental_uris":{"android":"levelo://app?vid=1341a828-b981-4198-a789-8a5791ca7539","ios":"levelo://app?vid=1341a828-b981-4198-a789-8a5791ca7539"},"vehicle_type_id":"4","last_reported":1731956813,"current_range_meters":0,"station_id":"ce4bhgp2rcd13ifvqfd0","pricing_plan_id":"cebpf4jnsgd1na2vs0mg"},{"bike_id":"423c94ef-b71b-4307-a3dd-5dfeaef4c110","system_id":"levelo_inurba_marseille","lat":43.284,"lon":5.37519,"is_reserved":false,"is_disabled":true,"rental_uris":{"android":"levelo://app?vid=423c94ef-b71b-4307-a3dd-5dfeaef4c110","ios":"levelo://app?vid=423c94ef-b71b-4307-a3dd-5dfeaef4c110"},"vehicle_type_id":"4","last_reported":1731956813,"current_range_meters":0,"station_id":"ce4bh412rcd13ifvqds0","pricing_plan_id":"cebpf4jnsgd1na2vs0mg"},{"bike_id":"ec4283cf-246b-46e4-81a0-ada35f88a5b3","system_id":"levelo_inurba_marseille","lat":43.27839,"lon":5.39209,"is_reserved":false,"is_disabled":false,"rental_uris":{"android":"levelo://app?vid=ec4283cf-246b-46e4-81a0-ada35f88a5b3","ios":"levelo://app?vid=ec4283cf-246b-46e4-81a0-ada35f88a5b3"},"vehicle_type_id":"4","last_reported":1731956813,"current_range_meters":11600,"station_id":"ce4bhjp2rcd13ifvqga0","pricing_plan_id":"cebpf4jnsgd1na2vs0mg"},{"bike_id":"73e893d7-288d-4212-84f4-e9e28b81fc1a","system_id":"levelo_inurba_marseille","lat":43.23967,"lon":5.36631,"is_reserved":false,"is_disabled":false,"rental_uris":{"android":"levelo://app?vid=73e893d7-288d-4212-84f4-e9e28b81fc1a","ios":"levelo://app?vid=73e893d7-288d-4212-84f4-e9e28b81fc1a"},"vehicle_type_id":"4","last_reported":1731956813,"current_range_meters":21600,"station_id":"ce4bhi12rcd13ifvqfp0","pricing_plan_id":"cebpf4jnsgd1na2vs0mg"},{"bike_id":"632e27b6-1f49-4c4f-bf14-41769475b56c","system_id":"levelo_inurba_marseille","lat":43.289255,"lon":5.383877,"is_reserved":false,"is_disabled":false,"rental_uris":{"android":"levelo://app?vid=632e27b6-1f49-4c4f-bf14-41769475b56c","ios":"levelo://app?vid=632e27b6-1f49-4c4f-bf14-41769475b56c"},"vehicle_type_id":"4","last_reported":1731956813,"current_range_meters":28400,"station_id":"ce4bh612rcd13ifvqe6g","pricing_plan_id":"cebpf4jnsgd1na2vs0mg"},{"bike_id":"ef31495f-6a34-4d74-a72b-91bbac7371df","system_id":"levelo_inurba_marseille","lat":43.25919,"lon":5.4089,"is_reserved":false,"is_disabled":true,"rental_uris":{"android":"levelo://app?vid=ef31495f-6a34-4d74-a72b-91bbac7371df","ios":"levelo://app?vid=ef31495f-6a34-4d74-a72b-91bbac7371df"},"vehicle_type_id":"4","last_reported":1731956813,"current_range_meters":24000,"station_id":"ce4bhm92rcd13ifvqglg","pricing_plan_id":"cebpf4jnsgd1na2vs0mg"},{"bike_id":"d10c90fd-3c70-4bb6-bcaa-6d62b6ce4770","system_id":"levelo_inurba_marseille","lat":43.26066,"lon":5.39394,"is_reserved":false,"is_disabled":true,"rental_uris":{"android":"levelo://app?vid=d10c90fd-3c70-4bb6-bcaa-6d62b6ce4770","ios":"levelo://app?vid=d10c90fd-3c70-4bb6-bcaa-6d62b6ce4770"},"vehicle_type_id":"4","last_reported":1731956813,"current_range_meters":10800,"station_id":"ce4bhh92rcd13ifvqfj0","pricing_plan_id":"cebpf4jnsgd1na2vs0mg"},{"bike_id":"5917a06d-1a89-42ee-9c96-70b3e49f2520","system_id":"levelo_inurba_marseille","lat":43.317,"lon":5.40473,"is_reserved":false,"is_disabled":true,"rental_uris":{"android":"levelo://app?vid=5917a06d-1a89-42ee-9c96-70b3e49f2520","ios":"levelo://app?vid=5917a06d-1a89-42ee-9c96-70b3e49f2520"},"vehicle_type_id":"4","last_reported":1731956813,"current_range_meters":18000,"station_id":"ce4bh012rcd13ifvqd00","pricing_plan_id":"cebpf4jnsgd1na2vs0mg"},{"bike_id":"dbf60536-a536-4a38-8bbd-8d36414f5350","system_id":"levelo_inurba_marseille","lat":43.28884,"lon":5.35859,"is_reserved":false,"is_disabled":false,"rental_uris":{"android":"levelo://app?vid=dbf60536-a536-4a38-8bbd-8d36414f5350","ios":"levelo://app?vid=dbf60536-a536-4a38-8bbd-8d36414f5350"},"vehicle_type_id":"4","last_reported":1731956813,"current_range_meters":38400,"station_id":"ce4bhb12rcd13ifvqem0","pricing_plan_id":"cebpf4jnsgd1na2vs0mg"},{"bike_id":"2c263757-7671-407f-89c7-d1436f782341","system_id":"levelo_inurba_marseille","lat":43.28082,"lon":5.39658,"is_reserved":false,"is_disabled":false,"rental_uris":{"android":"levelo://app?vid=2c263757-7671-407f-89c7-d1436f782341","ios":"levelo://app?vid=2c263757-7671-407f-89c7-d1436f782341"},"vehicle_type_id":"4","last_reported":1731956813,"current_range_meters":28800,"station_id":"ce4bho12rcd13ifvqh2g","pricing_plan_id":"cebpf4jnsgd1na2vs0mg"},{"bike_id":"e095c480-1be3-4d37-84b1-7d30698bce1c","system_id":"levelo_inurba_marseille","lat":43.28714,"lon":5.3739,"is_reserved":false,"is_disabled":false,"rental_uris":{"android":"levelo://app?vid=e095c480-1be3-4d37-84b1-7d30698bce1c","ios":"levelo://app?vid=e095c480-1be3-4d37-84b1-7d30698bce1c"},"vehicle_type_id":"4","last_reported":1731956813,"current_range_meters":8000,"station_id":"ce4bh3p2rcd13ifvqdq0","pricing_plan_id":"cebpf4jnsgd1na2vs0mg"},{"bike_id":"02c7140d-eb0a-4832-a8c4-16edc8f79941","system_id":"levelo_inurba_marseille","lat":43.23975,"lon":5.36633,"is_reserved":false,"is_disabled":false,"rental_uris":{"android":"levelo://app?vid=02c7140d-eb0a-4832-a8c4-16edc8f79941","ios":"levelo://app?vid=02c7140d-eb0a-4832-a8c4-16edc8f79941"},"vehicle_type_id":"4","last_reported":1731956813,"current_range_meters":24400,"station_id":"ce4bhi12rcd13ifvqfp0","pricing_plan_id":"cebpf4jnsgd1na2vs0mg"},{"bike_id":"0534ce24-46b6-4220-851d-cebdfec71164","system_id":"levelo_inurba_marseille","lat":43.23185,"lon":5.39978,"is_reserved":false,"is_disabled":true,"rental_uris":{"android":"levelo://app?vid=0534ce24-46b6-4220-851d-cebdfec71164","ios":"levelo://app?vid=0534ce24-46b6-4220-851d-cebdfec71164"},"vehicle_type_id":"4","last_reported":1731956813,"current_range_meters":0,"station_id":"ce4bhn12rcd13ifvqgqg","pricing_plan_id":"cebpf4jnsgd1na2vs0mg"},{"bike_id":"4e71b834-2bc9-400e-961f-c8036240176c","system_id":"levelo_inurba_marseille","lat":43.29619,"lon":5.37168,"is_reserved":false,"is_disabled":false,"rental_uris":{"android":"levelo://app?vid=4e71b834-2bc9-400e-961f-c8036240176c","ios":"levelo://app?vid=4e71b834-2bc9-400e-961f-c8036240176c"},"vehicle_type_id":"4","last_reported":1731956813,"current_range_meters":16800,"station_id":"ce4bgnh2rcd13ifvqc0g","pricing_plan_id":"cebpf4jnsgd1na2vs0mg"},{"bike_id":"ba5bfc45-6a2b-4d8c-a223-c9252f760033","system_id":"levelo_inurba_marseille","lat":43.296356,"lon":5.37718,"is_reserved":false,"is_disabled":true,"rental_uris":{"android":"levelo://app?vid=ba5bfc45-6a2b-4d8c-a223-c9252f760033","ios":"levelo://app?vid=ba5bfc45-6a2b-4d8c-a223-c9252f760033"},"vehicle_type_id":"4","last_reported":1731956813,"current_range_meters":0,"station_id":"ce4bgi92rcd13ifvqb90","pricing_plan_id":"cebpf4jnsgd1na2vs0mg"},{"bike_id":"3f095bc8-9af8-4b0b-a298-157d8e949f36","system_id":"levelo_inurba_marseille","lat":43.27669,"lon":5.38896,"is_reserved":false,"is_disabled":true,"rental_uris":{"android":"levelo://app?vid=3f095bc8-9af8-4b0b-a298-157d8e949f36","ios":"levelo://app?vid=3f095bc8-9af8-4b0b-a298-157d8e949f36"},"vehicle_type_id":"4","last_reported":1731956813,"current_range_meters":9600,"station_id":"ce4bhi12rcd13ifvqfo0","pricing_plan_id":"cebpf4jnsgd1na2vs0mg"},{"bike_id":"7c407d42-b656-4801-b91f-c3365028215c","system_id":"levelo_inurba_marseille","lat":43.26215,"lon":5.37438,"is_reserved":false,"is_disabled":true,"rental_uris":{"android":"levelo://app?vid=7c407d42-b656-4801-b91f-c3365028215c","ios":"levelo://app?vid=7c407d42-b656-4801-b91f-c3365028215c"},"vehicle_type_id":"4","last_reported":1731956813,"current_range_meters":400,"station_id":"ce4bhgp2rcd13ifvqfc0","pricing_plan_id":"cebpf4jnsgd1na2vs0mg"},{"bike_id":"9d54c834-220b-4daa-8f0f-fee1dbaa4613","system_id":"levelo_inurba_marseille","lat":43.28671,"lon":5.3635,"is_reserved":false,"is_disabled":false,"rental_uris":{"android":"levelo://app?vid=9d54c834-220b-4daa-8f0f-fee1dbaa4613","ios":"levelo://app?vid=9d54c834-220b-4daa-8f0f-fee1dbaa4613"},"vehicle_type_id":"4","last_reported":1731956813,"current_range_meters":13600,"station_id":"ce4bhah2rcd13ifvqej0","pricing_plan_id":"cebpf4jnsgd1na2vs0mg"},{"bike_id":"d674a550-723f-4e20-a0c2-89aa344c2ade","system_id":"levelo_inurba_marseille","lat":43.28205,"lon":5.4437,"is_reserved":false,"is_disabled":false,"rental_uris":{"android":"levelo://app?vid=d674a550-723f-4e20-a0c2-89aa344c2ade","ios":"levelo://app?vid=d674a550-723f-4e20-a0c2-89aa344c2ade"},"vehicle_type_id":"4","last_reported":1731956813,"current_range_meters":7200,"station_id":"","pricing_plan_id":"cebpf4jnsgd1na2vs0mg"},{"bike_id":"f26f9ff4-6d82-459d-bc98-b8addb7fa0b2","system_id":"levelo_inurba_marseille","lat":43.28944,"lon":5.36631,"is_reserved":false,"is_disabled":true,"rental_uris":{"android":"levelo://app?vid=f26f9ff4-6d82-459d-bc98-b8addb7fa0b2","ios":"levelo://app?vid=f26f9ff4-6d82-459d-bc98-b8addb7fa0b2"},"vehicle_type_id":"4","last_reported":1731956813,"current_range_meters":0,"station_id":"ce4bhap2rcd13ifvqek0","pricing_plan_id":"cebpf4jnsgd1na2vs0mg"},{"bike_id":"e8be4fc8-d0ee-49e1-839b-d60867cab8c0","system_id":"levelo_inurba_marseille","lat":43.29804,"lon":5.40406,"is_reserved":false,"is_disabled":false,"rental_uris":{"android":"levelo://app?vid=e8be4fc8-d0ee-49e1-839b-d60867cab8c0","ios":"levelo://app?vid=e8be4fc8-d0ee-49e1-839b-d60867cab8c0"},"vehicle_type_id":"4","last_reported":1731956813,"current_range_meters":37600,"station_id":"ce4bh112rcd13ifvqd90","pricing_plan_id":"cebpf4jnsgd1na2vs0mg"},{"bike_id":"8244c892-adb9-43e2-95f5-ad3aa4640dfc","system_id":"levelo_inurba_marseille","lat":43.29567,"lon":5.3997,"is_reserved":false,"is_disabled":false,"rental_uris":{"android":"levelo://app?vid=8244c892-adb9-43e2-95f5-ad3aa4640dfc","ios":"levelo://app?vid=8244c892-adb9-43e2-95f5-ad3aa4640dfc"},"vehicle_type_id":"4","last_reported":1731956813,"current_range_meters":39200,"station_id":"ce4bh312rcd13ifvqdj0","pricing_plan_id":"cebpf4jnsgd1na2vs0mg"},{"bike_id":"ff5847f9-0d13-416a-bd00-3dd8250c3d80","system_id":"levelo_inurba_marseille","lat":43.29259,"lon":5.40905,"is_reserved":false,"is_disabled":false,"rental_uris":{"android":"levelo://app?vid=ff5847f9-0d13-416a-bd00-3dd8250c3d80","ios":"levelo://app?vid=ff5847f9-0d13-416a-bd00-3dd8250c3d80"},"vehicle_type_id":"4","last_reported":1731956813,"current_range_meters":39200,"station_id":"ce4bh192rcd13ifvqdc0","pricing_plan_id":"cebpf4jnsgd1na2vs0mg"},{"bike_id":"f5476f0f-4305-4e50-9186-db7e15abb5e2","system_id":"levelo_inurba_marseille","lat":43.29798,"lon":5.40399,"is_reserved":false,"is_disabled":false,"rental_uris":{"android":"levelo://app?vid=f5476f0f-4305-4e50-9186-db7e15abb5e2","ios":"levelo://app?vid=f5476f0f-4305-4e50-9186-db7e15abb5e2"},"vehicle_type_id":"4","last_reported":1731956813,"current_range_meters":4800,"station_id":"ce4bh112rcd13ifvqd90","pricing_plan_id":"cebpf4jnsgd1na2vs0mg"},{"bike_id":"f1f50780-48cb-44fa-9dee-6831b7cf5f41","system_id":"levelo_inurba_marseille","lat":43.29517,"lon":5.3903,"is_reserved":false,"is_disabled":false,"rental_uris":{"android":"levelo://app?vid=f1f50780-48cb-44fa-9dee-6831b7cf5f41","ios":"levelo://app?vid=f1f50780-48cb-44fa-9dee-6831b7cf5f41"},"vehicle_type_id":"4","last_reported":1731956813,"current_range_meters":38800,"station_id":"ce4bh3p2rcd13ifvqdp0","pricing_plan_id":"cebpf4jnsgd1na2vs0mg"},{"bike_id":"5873cbbb-60e4-463a-a62f-14bc6adde5e8","system_id":"levelo_inurba_marseille","lat":43.28057,"lon":5.36945,"is_reserved":false,"is_disabled":false,"rental_uris":{"android":"levelo://app?vid=5873cbbb-60e4-463a-a62f-14bc6adde5e8","ios":"levelo://app?vid=5873cbbb-60e4-463a-a62f-14bc6adde5e8"},"vehicle_type_id":"4","last_reported":1731956813,"current_range_meters":8000,"station_id":"ce4bha12rcd13ifvqef0","pricing_plan_id":"cebpf4jnsgd1na2vs0mg"},{"bike_id":"a74ebd93-bc18-4c3e-aace-af4ac37176f1","system_id":"levelo_inurba_marseille","lat":43.32368,"lon":5.38872,"is_reserved":false,"is_disabled":false,"rental_uris":{"android":"levelo://app?vid=a74ebd93-bc18-4c3e-aace-af4ac37176f1","ios":"levelo://app?vid=a74ebd93-bc18-4c3e-aace-af4ac37176f1"},"vehicle_type_id":"4","last_reported":1731956813,"current_range_meters":32000,"station_id":"ce4bhqp2rcd13ifvqhog","pricing_plan_id":"cebpf4jnsgd1na2vs0mg"},{"bike_id":"abce7aef-009c-4b3d-a0b5-a03faaef0a04","system_id":"levelo_inurba_marseille","lat":43.27969,"lon":5.38752,"is_reserved":false,"is_disabled":true,"rental_uris":{"android":"levelo://app?vid=abce7aef-009c-4b3d-a0b5-a03faaef0a04","ios":"levelo://app?vid=abce7aef-009c-4b3d-a0b5-a03faaef0a04"},"vehicle_type_id":"4","last_reported":1731956813,"current_range_meters":0,"station_id":"ce4bhg12rcd13ifvqf80","pricing_plan_id":"cebpf4jnsgd1na2vs0mg"},{"bike_id":"9c82aec4-b25e-4e2d-90e6-c4e64e936483","system_id":"levelo_inurba_marseille","lat":43.24655,"lon":5.38893,"is_reserved":false,"is_disabled":false,"rental_uris":{"android":"levelo://app?vid=9c82aec4-b25e-4e2d-90e6-c4e64e936483","ios":"levelo://app?vid=9c82aec4-b25e-4e2d-90e6-c4e64e936483"},"vehicle_type_id":"4","last_reported":1731956813,"current_range_meters":22000,"station_id":"ce4bhg12rcd13ifvqf60","pricing_plan_id":"cebpf4jnsgd1na2vs0mg"},{"bike_id":"90d5513d-7620-4ad4-bd63-dcf1873f9c83","system_id":"levelo_inurba_marseille","lat":43.28672,"lon":5.38658,"is_reserved":false,"is_disabled":false,"rental_uris":{"android":"levelo://app?vid=90d5513d-7620-4ad4-bd63-dcf1873f9c83","ios":"levelo://app?vid=90d5513d-7620-4ad4-bd63-dcf1873f9c83"},"vehicle_type_id":"4","last_reported":1731956813,"current_range_meters":36800,"station_id":"ce4bh492rcd13ifvqdug","pricing_plan_id":"cebpf4jnsgd1na2vs0mg"},{"bike_id":"d07e1f90-f37b-427a-8dc4-c0c0954b1d4d","system_id":"levelo_inurba_marseille","lat":43.27815,"lon":5.4071,"is_reserved":false,"is_disabled":false,"rental_uris":{"android":"levelo://app?vid=d07e1f90-f37b-427a-8dc4-c0c0954b1d4d","ios":"levelo://app?vid=d07e1f90-f37b-427a-8dc4-c0c0954b1d4d"},"vehicle_type_id":"4","last_reported":1731956813,"current_range_meters":38800,"station_id":"ce4bhnh2rcd13ifvqgtg","pricing_plan_id":"cebpf4jnsgd1na2vs0mg"},{"bike_id":"73332224-98f2-414b-87c0-bc1ba4164316","system_id":"levelo_inurba_marseille","lat":43.30936,"lon":5.40142,"is_reserved":false,"is_disabled":false,"rental_uris":{"android":"levelo://app?vid=73332224-98f2-414b-87c0-bc1ba4164316","ios":"levelo://app?vid=73332224-98f2-414b-87c0-bc1ba4164316"},"vehicle_type_id":"4","last_reported":1731956813,"current_range_meters":16400,"station_id":"ce4bgvp2rcd13ifvqct0","pricing_plan_id":"cebpf4jnsgd1na2vs0mg"},{"bike_id":"a50370ea-a8e6-4aed-8107-45b89122aedf","system_id":"levelo_inurba_marseille","lat":43.26685,"lon":5.38274,"is_reserved":false,"is_disabled":false,"rental_uris":{"android":"levelo://app?vid=a50370ea-a8e6-4aed-8107-45b89122aedf","ios":"levelo://app?vid=a50370ea-a8e6-4aed-8107-45b89122aedf"},"vehicle_type_id":"4","last_reported":1731956813,"current_range_meters":21600,"station_id":"ce4bhg92rcd13ifvqf90","pricing_plan_id":"cebpf4jnsgd1na2vs0mg"},{"bike_id":"03e86a75-4872-4548-9575-ac8738d7d8d3","system_id":"levelo_inurba_marseille","lat":43.29438,"lon":5.39744,"is_reserved":false,"is_disabled":false,"rental_uris":{"android":"levelo://app?vid=03e86a75-4872-4548-9575-ac8738d7d8d3","ios":"levelo://app?vid=03e86a75-4872-4548-9575-ac8738d7d8d3"},"vehicle_type_id":"4","last_reported":1731956813,"current_range_meters":28800,"station_id":"ce4bh3h2rcd13ifvqdo0","pricing_plan_id":"cebpf4jnsgd1na2vs0mg"},{"bike_id":"d1041330-15be-4fe1-91a9-2998443ce887","system_id":"levelo_inurba_marseille","lat":43.29932,"lon":5.37543,"is_reserved":false,"is_disabled":false,"rental_uris":{"android":"levelo://app?vid=d1041330-15be-4fe1-91a9-2998443ce887","ios":"levelo://app?vid=d1041330-15be-4fe1-91a9-2998443ce887"},"vehicle_type_id":"4","last_reported":1731956813,"current_range_meters":28400,"station_id":"","pricing_plan_id":"cebpf4jnsgd1na2vs0mg"},{"bike_id":"f4bc2497-0a9c-4e31-8920-b49fba679d44","system_id":"levelo_inurba_marseille","lat":43.29285,"lon":5.40117,"is_reserved":false,"is_disabled":false,"rental_uris":{"android":"levelo://app?vid=f4bc2497-0a9c-4e31-8920-b49fba679d44","ios":"levelo://app?vid=f4bc2497-0a9c-4e31-8920-b49fba679d44"},"vehicle_type_id":"4","last_reported":1731956813,"current_range_meters":10800,"station_id":"ce4bh312rcd13ifvqdk0","pricing_plan_id":"cebpf4jnsgd1na2vs0mg"},{"bike_id":"60d0a274-ebc6-483f-996f-f439d40e632b","system_id":"levelo_inurba_marseille","lat":43.26408,"lon":5.37779,"is_reserved":false,"is_disabled":false,"rental_uris":{"android":"levelo://app?vid=60d0a274-ebc6-483f-996f-f439d40e632b","ios":"levelo://app?vid=60d0a274-ebc6-483f-996f-f439d40e632b"},"vehicle_type_id":"4","last_reported":1731956813,"current_range_meters":17200,"station_id":"","pricing_plan_id":"cebpf4jnsgd1na2vs0mg"},{"bike_id":"5203ab47-a9f6-48ae-bdd3-3c5a5ab6ee25","system_id":"levelo_inurba_marseille","lat":43.29978,"lon":5.38492,"is_reserved":false,"is_disabled":true,"rental_uris":{"android":"levelo://app?vid=5203ab47-a9f6-48ae-bdd3-3c5a5ab6ee25","ios":"levelo://app?vid=5203ab47-a9f6-48ae-bdd3-3c5a5ab6ee25"},"vehicle_type_id":"4","last_reported":1731956813,"current_range_meters":38400,"station_id":"ce4bgj92rcd13ifvqbd0","pricing_plan_id":"cebpf4jnsgd1na2vs0mg"},{"bike_id":"3814c604-68b4-4512-90dd-0a98fb0781d7","system_id":"levelo_inurba_marseille","lat":43.241781,"lon":5.397113,"is_reserved":false,"is_disabled":false,"rental_uris":{"android":"levelo://app?vid=3814c604-68b4-4512-90dd-0a98fb0781d7","ios":"levelo://app?vid=3814c604-68b4-4512-90dd-0a98fb0781d7"},"vehicle_type_id":"4","last_reported":1731956813,"current_range_meters":24400,"station_id":"ce4bhn12rcd13ifvqgpg","pricing_plan_id":"cebpf4jnsgd1na2vs0mg"},{"bike_id":"040df864-1d44-4716-9bba-b89e08f6be00","system_id":"levelo_inurba_marseille","lat":43.28619,"lon":5.35107,"is_reserved":false,"is_disabled":false,"rental_uris":{"android":"levelo://app?vid=040df864-1d44-4716-9bba-b89e08f6be00","ios":"levelo://app?vid=040df864-1d44-4716-9bba-b89e08f6be00"},"vehicle_type_id":"4","last_reported":1731956813,"current_range_meters":18800,"station_id":"ce4bhch2rcd13ifvqeug","pricing_plan_id":"cebpf4jnsgd1na2vs0mg"},{"bike_id":"e5e2248a-03d3-4b07-b4f7-fd61796e9419","system_id":"levelo_inurba_marseille","lat":43.30035,"lon":5.38077,"is_reserved":false,"is_disabled":true,"rental_uris":{"android":"levelo://app?vid=e5e2248a-03d3-4b07-b4f7-fd61796e9419","ios":"levelo://app?vid=e5e2248a-03d3-4b07-b4f7-fd61796e9419"},"vehicle_type_id":"4","last_reported":1731956813,"current_range_meters":0,"station_id":"","pricing_plan_id":"cebpf4jnsgd1na2vs0mg"},{"bike_id":"603bf79c-2978-4e7a-936a-6b9da01f2789","system_id":"levelo_inurba_marseille","lat":43.30804,"lon":5.38144,"is_reserved":false,"is_disabled":false,"rental_uris":{"android":"levelo://app?vid=603bf79c-2978-4e7a-936a-6b9da01f2789","ios":"levelo://app?vid=603bf79c-2978-4e7a-936a-6b9da01f2789"},"vehicle_type_id":"4","last_reported":1731956813,"current_range_meters":36800,"station_id":"ce4bgt12rcd13ifvqce0","pricing_plan_id":"cebpf4jnsgd1na2vs0mg"},{"bike_id":"9d2c2513-0c89-4f02-98b9-a9b8e8f9ff12","system_id":"levelo_inurba_marseille","lat":43.2795,"lon":5.4104,"is_reserved":false,"is_disabled":false,"rental_uris":{"android":"levelo://app?vid=9d2c2513-0c89-4f02-98b9-a9b8e8f9ff12","ios":"levelo://app?vid=9d2c2513-0c89-4f02-98b9-a9b8e8f9ff12"},"vehicle_type_id":"4","last_reported":1731956813,"current_range_meters":8400,"station_id":"ce4bhnp2rcd13ifvqh0g","pricing_plan_id":"cebpf4jnsgd1na2vs0mg"},{"bike_id":"56edd46b-d236-45f1-ba2f-1f7d8acc3af2","system_id":"levelo_inurba_marseille","lat":43.337444,"lon":5.374475,"is_reserved":false,"is_disabled":false,"rental_uris":{"android":"levelo://app?vid=56edd46b-d236-45f1-ba2f-1f7d8acc3af2","ios":"levelo://app?vid=56edd46b-d236-45f1-ba2f-1f7d8acc3af2"},"vehicle_type_id":"4","last_reported":1731956813,"current_range_meters":38000,"station_id":"","pricing_plan_id":"cebpf4jnsgd1na2vs0mg"},{"bike_id":"e50796fb-dacb-48fc-9bce-fef14a9f4c74","system_id":"levelo_inurba_marseille","lat":43.29261,"lon":5.40909,"is_reserved":false,"is_disabled":false,"rental_uris":{"android":"levelo://app?vid=e50796fb-dacb-48fc-9bce-fef14a9f4c74","ios":"levelo://app?vid=e50796fb-dacb-48fc-9bce-fef14a9f4c74"},"vehicle_type_id":"4","last_reported":1731956813,"current_range_meters":34000,"station_id":"ce4bh192rcd13ifvqdc0","pricing_plan_id":"cebpf4jnsgd1na2vs0mg"},{"bike_id":"642301ba-677a-494a-b986-732fcb6e891a","system_id":"levelo_inurba_marseille","lat":43.30458,"lon":5.37899,"is_reserved":false,"is_disabled":false,"rental_uris":{"android":"levelo://app?vid=642301ba-677a-494a-b986-732fcb6e891a","ios":"levelo://app?vid=642301ba-677a-494a-b986-732fcb6e891a"},"vehicle_type_id":"4","last_reported":1731956813,"current_range_meters":38400,"station_id":"ce4bgup2rcd13ifvqcn0","pricing_plan_id":"cebpf4jnsgd1na2vs0mg"},{"bike_id":"c8b4e4f4-188f-4ddb-9934-f4c256f8e1ab","system_id":"levelo_inurba_marseille","lat":43.29443,"lon":5.39745,"is_reserved":false,"is_disabled":false,"rental_uris":{"android":"levelo://app?vid=c8b4e4f4-188f-4ddb-9934-f4c256f8e1ab","ios":"levelo://app?vid=c8b4e4f4-188f-4ddb-9934-f4c256f8e1ab"},"vehicle_type_id":"4","last_reported":1731956813,"current_range_meters":35600,"station_id":"ce4bh3h2rcd13ifvqdo0","pricing_plan_id":"cebpf4jnsgd1na2vs0mg"},{"bike_id":"cd3ead8f-e453-49dc-8a7f-902dde01b246","system_id":"levelo_inurba_marseille","lat":43.28857,"lon":5.35862,"is_reserved":false,"is_disabled":false,"rental_uris":{"android":"levelo://app?vid=cd3ead8f-e453-49dc-8a7f-902dde01b246","ios":"levelo://app?vid=cd3ead8f-e453-49dc-8a7f-902dde01b246"},"vehicle_type_id":"4","last_reported":1731956813,"current_range_meters":26800,"station_id":"ce4bhb12rcd13ifvqem0","pricing_plan_id":"cebpf4jnsgd1na2vs0mg"},{"bike_id":"9b1b6781-3d42-473e-85d0-b9a1645df227","system_id":"levelo_inurba_marseille","lat":43.29056,"lon":5.39958,"is_reserved":false,"is_disabled":false,"rental_uris":{"android":"levelo://app?vid=9b1b6781-3d42-473e-85d0-b9a1645df227","ios":"levelo://app?vid=9b1b6781-3d42-473e-85d0-b9a1645df227"},"vehicle_type_id":"4","last_reported":1731956813,"current_range_meters":24400,"station_id":"ce4bhh92rcd13ifvqfi0","pricing_plan_id":"cebpf4jnsgd1na2vs0mg"},{"bike_id":"98ac39ea-053a-4b71-b1f2-1b968895b837","system_id":"levelo_inurba_marseille","lat":43.31126,"lon":5.37775,"is_reserved":false,"is_disabled":false,"rental_uris":{"android":"levelo://app?vid=98ac39ea-053a-4b71-b1f2-1b968895b837","ios":"levelo://app?vid=98ac39ea-053a-4b71-b1f2-1b968895b837"},"vehicle_type_id":"4","last_reported":1731956813,"current_range_meters":38800,"station_id":"ce4bgt92rcd13ifvqcg0","pricing_plan_id":"cebpf4jnsgd1na2vs0mg"},{"bike_id":"bf567f31-a5a2-4859-955f-8af907e20fca","system_id":"levelo_inurba_marseille","lat":43.30153,"lon":5.37434,"is_reserved":false,"is_disabled":false,"rental_uris":{"android":"levelo://app?vid=bf567f31-a5a2-4859-955f-8af907e20fca","ios":"levelo://app?vid=bf567f31-a5a2-4859-955f-8af907e20fca"},"vehicle_type_id":"4","last_reported":1731956813,"current_range_meters":30000,"station_id":"ce4bgs92rcd13ifvqcc0","pricing_plan_id":"cebpf4jnsgd1na2vs0mg"},{"bike_id":"466cc262-7358-4083-9e23-47328789012d","system_id":"levelo_inurba_marseille","lat":43.25087,"lon":5.39523,"is_reserved":false,"is_disabled":false,"rental_uris":{"android":"levelo://app?vid=466cc262-7358-4083-9e23-47328789012d","ios":"levelo://app?vid=466cc262-7358-4083-9e23-47328789012d"},"vehicle_type_id":"4","last_reported":1731956813,"current_range_meters":27200,"station_id":"ce4bhm12rcd13ifvqgkg","pricing_plan_id":"cebpf4jnsgd1na2vs0mg"},{"bike_id":"5d0d2d10-95ac-4a34-88d6-ac849c3ba7ce","system_id":"levelo_inurba_marseille","lat":43.29275,"lon":5.40122,"is_reserved":false,"is_disabled":false,"rental_uris":{"android":"levelo://app?vid=5d0d2d10-95ac-4a34-88d6-ac849c3ba7ce","ios":"levelo://app?vid=5d0d2d10-95ac-4a34-88d6-ac849c3ba7ce"},"vehicle_type_id":"4","last_reported":1731956813,"current_range_meters":5600,"station_id":"ce4bh312rcd13ifvqdk0","pricing_plan_id":"cebpf4jnsgd1na2vs0mg"},{"bike_id":"082e9fcf-e027-46cb-9584-d83a0d34771a","system_id":"levelo_inurba_marseille","lat":43.29524,"lon":5.39045,"is_reserved":false,"is_disabled":false,"rental_uris":{"android":"levelo://app?vid=082e9fcf-e027-46cb-9584-d83a0d34771a","ios":"levelo://app?vid=082e9fcf-e027-46cb-9584-d83a0d34771a"},"vehicle_type_id":"4","last_reported":1731956813,"current_range_meters":26000,"station_id":"ce4bh3p2rcd13ifvqdp0","pricing_plan_id":"cebpf4jnsgd1na2vs0mg"},{"bike_id":"fe5617eb-8518-43d2-ac90-070659930eec","system_id":"levelo_inurba_marseille","lat":43.29959,"lon":5.41317,"is_reserved":false,"is_disabled":false,"rental_uris":{"android":"levelo://app?vid=fe5617eb-8518-43d2-ac90-070659930eec","ios":"levelo://app?vid=fe5617eb-8518-43d2-ac90-070659930eec"},"vehicle_type_id":"4","last_reported":1731956813,"current_range_meters":37600,"station_id":"ce4bhp12rcd13ifvqh9g","pricing_plan_id":"cebpf4jnsgd1na2vs0mg"},{"bike_id":"ca86bbac-03f2-446c-80a7-ed358462a82d","system_id":"levelo_inurba_marseille","lat":43.31078,"lon":5.38367,"is_reserved":false,"is_disabled":false,"rental_uris":{"android":"levelo://app?vid=ca86bbac-03f2-446c-80a7-ed358462a82d","ios":"levelo://app?vid=ca86bbac-03f2-446c-80a7-ed358462a82d"},"vehicle_type_id":"4","last_reported":1731956813,"current_range_meters":22400,"station_id":"ce4bgv92rcd13ifvqcr0","pricing_plan_id":"cebpf4jnsgd1na2vs0mg"},{"bike_id":"8be1aaec-2057-4f3e-bbe9-46e6bb554f17","system_id":"levelo_inurba_marseille","lat":43.27992,"lon":5.40012,"is_reserved":false,"is_disabled":false,"rental_uris":{"android":"levelo://app?vid=8be1aaec-2057-4f3e-bbe9-46e6bb554f17","ios":"levelo://app?vid=8be1aaec-2057-4f3e-bbe9-46e6bb554f17"},"vehicle_type_id":"4","last_reported":1731956813,"current_range_meters":18800,"station_id":"ce4bho92rcd13ifvqh4g","pricing_plan_id":"cebpf4jnsgd1na2vs0mg"},{"bike_id":"0c21866d-64a6-48bd-84ec-2cdb016bb953","system_id":"levelo_inurba_marseille","lat":43.24392,"lon":5.37069,"is_reserved":false,"is_disabled":true,"rental_uris":{"android":"levelo://app?vid=0c21866d-64a6-48bd-84ec-2cdb016bb953","ios":"levelo://app?vid=0c21866d-64a6-48bd-84ec-2cdb016bb953"},"vehicle_type_id":"4","last_reported":1731956813,"current_range_meters":2800,"station_id":"ce4bhhh2rcd13ifvqfk0","pricing_plan_id":"cebpf4jnsgd1na2vs0mg"},{"bike_id":"210dff46-0d93-4102-a4a9-6322f66e2e67","system_id":"levelo_inurba_marseille","lat":43.29958,"lon":5.41315,"is_reserved":false,"is_disabled":false,"rental_uris":{"android":"levelo://app?vid=210dff46-0d93-4102-a4a9-6322f66e2e67","ios":"levelo://app?vid=210dff46-0d93-4102-a4a9-6322f66e2e67"},"vehicle_type_id":"4","last_reported":1731956813,"current_range_meters":14800,"station_id":"ce4bhp12rcd13ifvqh9g","pricing_plan_id":"cebpf4jnsgd1na2vs0mg"},{"bike_id":"1f8e31eb-4609-4ceb-8188-fd61d64a2da3","system_id":"levelo_inurba_marseille","lat":43.2846,"lon":5.35874,"is_reserved":false,"is_disabled":false,"rental_uris":{"android":"levelo://app?vid=1f8e31eb-4609-4ceb-8188-fd61d64a2da3","ios":"levelo://app?vid=1f8e31eb-4609-4ceb-8188-fd61d64a2da3"},"vehicle_type_id":"4","last_reported":1731956813,"current_range_meters":37600,"station_id":"ce4bhah2rcd13ifvqei0","pricing_plan_id":"cebpf4jnsgd1na2vs0mg"},{"bike_id":"d6e54eb8-b569-4670-b12b-fc7e345ccec9","system_id":"levelo_inurba_marseille","lat":43.29721,"lon":5.37687,"is_reserved":false,"is_disabled":true,"rental_uris":{"android":"levelo://app?vid=d6e54eb8-b569-4670-b12b-fc7e345ccec9","ios":"levelo://app?vid=d6e54eb8-b569-4670-b12b-fc7e345ccec9"},"vehicle_type_id":"4","last_reported":1731956813,"current_range_meters":38800,"station_id":"ce4bgkh2rcd13ifvqbl0","pricing_plan_id":"cebpf4jnsgd1na2vs0mg"},{"bike_id":"ed49d297-52c1-438f-8530-c430fabd0d5c","system_id":"levelo_inurba_marseille","lat":43.25497,"lon":5.37655,"is_reserved":false,"is_disabled":true,"rental_uris":{"android":"levelo://app?vid=ed49d297-52c1-438f-8530-c430fabd0d5c","ios":"levelo://app?vid=ed49d297-52c1-438f-8530-c430fabd0d5c"},"vehicle_type_id":"4","last_reported":1731956813,"current_range_meters":0,"station_id":"ce4bhh12rcd13ifvqff0","pricing_plan_id":"cebpf4jnsgd1na2vs0mg"},{"bike_id":"259149ad-c421-466a-ad0c-fd16e04ce6fa","system_id":"levelo_inurba_marseille","lat":43.2846,"lon":5.35887,"is_reserved":false,"is_disabled":false,"rental_uris":{"android":"levelo://app?vid=259149ad-c421-466a-ad0c-fd16e04ce6fa","ios":"levelo://app?vid=259149ad-c421-466a-ad0c-fd16e04ce6fa"},"vehicle_type_id":"4","last_reported":1731956813,"current_range_meters":30000,"station_id":"ce4bhah2rcd13ifvqei0","pricing_plan_id":"cebpf4jnsgd1na2vs0mg"},{"bike_id":"d9a233cc-3acd-4580-9bff-c0faf2ddcaf0","system_id":"levelo_inurba_marseille","lat":43.26999,"lon":5.39955,"is_reserved":false,"is_disabled":false,"rental_uris":{"android":"levelo://app?vid=d9a233cc-3acd-4580-9bff-c0faf2ddcaf0","ios":"levelo://app?vid=d9a233cc-3acd-4580-9bff-c0faf2ddcaf0"},"vehicle_type_id":"4","last_reported":1731956813,"current_range_meters":25200,"station_id":"","pricing_plan_id":"cebpf4jnsgd1na2vs0mg"},{"bike_id":"cc94800f-8f00-4fa2-8321-7ffb60c60a1c","system_id":"levelo_inurba_marseille","lat":43.28461,"lon":5.358953,"is_reserved":false,"is_disabled":false,"rental_uris":{"android":"levelo://app?vid=cc94800f-8f00-4fa2-8321-7ffb60c60a1c","ios":"levelo://app?vid=cc94800f-8f00-4fa2-8321-7ffb60c60a1c"},"vehicle_type_id":"4","last_reported":1731956813,"current_range_meters":27200,"station_id":"ce4bhah2rcd13ifvqei0","pricing_plan_id":"cebpf4jnsgd1na2vs0mg"},{"bike_id":"801dea25-03bf-4f11-a8a7-9c85139f31aa","system_id":"levelo_inurba_marseille","lat":43.25086,"lon":5.39513,"is_reserved":false,"is_disabled":false,"rental_uris":{"android":"levelo://app?vid=801dea25-03bf-4f11-a8a7-9c85139f31aa","ios":"levelo://app?vid=801dea25-03bf-4f11-a8a7-9c85139f31aa"},"vehicle_type_id":"4","last_reported":1731956813,"current_range_meters":38000,"station_id":"ce4bhm12rcd13ifvqgkg","pricing_plan_id":"cebpf4jnsgd1na2vs0mg"},{"bike_id":"0b733133-03c9-4766-961e-92b775b50bbc","system_id":"levelo_inurba_marseille","lat":43.28191,"lon":5.44261,"is_reserved":false,"is_disabled":true,"rental_uris":{"android":"levelo://app?vid=0b733133-03c9-4766-961e-92b775b50bbc","ios":"levelo://app?vid=0b733133-03c9-4766-961e-92b775b50bbc"},"vehicle_type_id":"4","last_reported":1731956813,"current_range_meters":1200,"station_id":"","pricing_plan_id":"cebpf4jnsgd1na2vs0mg"},{"bike_id":"74eb70e9-b94e-49a5-9a48-368b4be133db","system_id":"levelo_inurba_marseille","lat":43.30799,"lon":5.43516,"is_reserved":false,"is_disabled":false,"rental_uris":{"android":"levelo://app?vid=74eb70e9-b94e-49a5-9a48-368b4be133db","ios":"levelo://app?vid=74eb70e9-b94e-49a5-9a48-368b4be133db"},"vehicle_type_id":"4","last_reported":1731956813,"current_range_meters":38800,"station_id":"ce4bhph2rcd13ifvqheg","pricing_plan_id":"cebpf4jnsgd1na2vs0mg"},{"bike_id":"4cba050b-d851-4ee5-8ce0-ea7f25d9c27b","system_id":"levelo_inurba_marseille","lat":43.27499,"lon":5.42444,"is_reserved":false,"is_disabled":true,"rental_uris":{"android":"levelo://app?vid=4cba050b-d851-4ee5-8ce0-ea7f25d9c27b","ios":"levelo://app?vid=4cba050b-d851-4ee5-8ce0-ea7f25d9c27b"},"vehicle_type_id":"4","last_reported":1731956813,"current_range_meters":37600,"station_id":"ce4bhn92rcd13ifvqgrg","pricing_plan_id":"cebpf4jnsgd1na2vs0mg"},{"bike_id":"9db7024c-b22d-4087-a30c-ba8f27a72aca","system_id":"levelo_inurba_marseille","lat":43.28102,"lon":5.37842,"is_reserved":false,"is_disabled":false,"rental_uris":{"android":"levelo://app?vid=9db7024c-b22d-4087-a30c-ba8f27a72aca","ios":"levelo://app?vid=9db7024c-b22d-4087-a30c-ba8f27a72aca"},"vehicle_type_id":"4","last_reported":1731956813,"current_range_meters":24800,"station_id":"ce4bha12rcd13ifvqee0","pricing_plan_id":"cebpf4jnsgd1na2vs0mg"},{"bike_id":"f1227225-6193-4e8a-8e80-af7cf43fdf91","system_id":"levelo_inurba_marseille","lat":43.28459,"lon":5.3588,"is_reserved":false,"is_disabled":false,"rental_uris":{"android":"levelo://app?vid=f1227225-6193-4e8a-8e80-af7cf43fdf91","ios":"levelo://app?vid=f1227225-6193-4e8a-8e80-af7cf43fdf91"},"vehicle_type_id":"4","last_reported":1731956813,"current_range_meters":8000,"station_id":"ce4bhah2rcd13ifvqei0","pricing_plan_id":"cebpf4jnsgd1na2vs0mg"},{"bike_id":"7fdb167d-6137-4050-9ec1-b84fe9675b11","system_id":"levelo_inurba_marseille","lat":43.27364,"lon":5.36251,"is_reserved":false,"is_disabled":false,"rental_uris":{"android":"levelo://app?vid=7fdb167d-6137-4050-9ec1-b84fe9675b11","ios":"levelo://app?vid=7fdb167d-6137-4050-9ec1-b84fe9675b11"},"vehicle_type_id":"4","last_reported":1731956813,"current_range_meters":36000,"station_id":"ce4bhbh2rcd13ifvqeo0","pricing_plan_id":"cebpf4jnsgd1na2vs0mg"},{"bike_id":"b1d7f5ad-ff48-400d-b7ef-e34013d555c6","system_id":"levelo_inurba_marseille","lat":43.31375,"lon":5.396822,"is_reserved":false,"is_disabled":true,"rental_uris":{"android":"levelo://app?vid=b1d7f5ad-ff48-400d-b7ef-e34013d555c6","ios":"levelo://app?vid=b1d7f5ad-ff48-400d-b7ef-e34013d555c6"},"vehicle_type_id":"4","last_reported":1731956813,"current_range_meters":2000,"station_id":"ce4bgvp2rcd13ifvqcu0","pricing_plan_id":"cebpf4jnsgd1na2vs0mg"},{"bike_id":"5f00c621-a72b-4c24-8a74-35075ad82af0","system_id":"levelo_inurba_marseille","lat":43.28004,"lon":5.40014,"is_reserved":false,"is_disabled":false,"rental_uris":{"android":"levelo://app?vid=5f00c621-a72b-4c24-8a74-35075ad82af0","ios":"levelo://app?vid=5f00c621-a72b-4c24-8a74-35075ad82af0"},"vehicle_type_id":"4","last_reported":1731956813,"current_range_meters":38800,"station_id":"ce4bho92rcd13ifvqh4g","pricing_plan_id":"cebpf4jnsgd1na2vs0mg"},{"bike_id":"ec6cb356-e15a-42b9-8cc2-86d49b84eef6","system_id":"levelo_inurba_marseille","lat":43.28397,"lon":5.37516,"is_reserved":false,"is_disabled":false,"rental_uris":{"android":"levelo://app?vid=ec6cb356-e15a-42b9-8cc2-86d49b84eef6","ios":"levelo://app?vid=ec6cb356-e15a-42b9-8cc2-86d49b84eef6"},"vehicle_type_id":"4","last_reported":1731956813,"current_range_meters":31200,"station_id":"ce4bh412rcd13ifvqds0","pricing_plan_id":"cebpf4jnsgd1na2vs0mg"},{"bike_id":"b4404c4f-ed9e-4600-8231-c6cc796f2aad","system_id":"levelo_inurba_marseille","lat":43.2465,"lon":5.38892,"is_reserved":false,"is_disabled":false,"rental_uris":{"android":"levelo://app?vid=b4404c4f-ed9e-4600-8231-c6cc796f2aad","ios":"levelo://app?vid=b4404c4f-ed9e-4600-8231-c6cc796f2aad"},"vehicle_type_id":"4","last_reported":1731956813,"current_range_meters":24000,"station_id":"ce4bhg12rcd13ifvqf60","pricing_plan_id":"cebpf4jnsgd1na2vs0mg"},{"bike_id":"6799c54c-4cd6-4d25-a1cb-a4067a584a72","system_id":"levelo_inurba_marseille","lat":43.33724,"lon":5.3918,"is_reserved":false,"is_disabled":false,"rental_uris":{"android":"levelo://app?vid=6799c54c-4cd6-4d25-a1cb-a4067a584a72","ios":"levelo://app?vid=6799c54c-4cd6-4d25-a1cb-a4067a584a72"},"vehicle_type_id":"4","last_reported":1731956813,"current_range_meters":17600,"station_id":"ce4bhr92rcd13ifvqhsg","pricing_plan_id":"cebpf4jnsgd1na2vs0mg"},{"bike_id":"9fb0acf0-02ee-43e1-8a36-3f564bbba08b","system_id":"levelo_inurba_marseille","lat":43.32368,"lon":5.38884,"is_reserved":false,"is_disabled":false,"rental_uris":{"android":"levelo://app?vid=9fb0acf0-02ee-43e1-8a36-3f564bbba08b","ios":"levelo://app?vid=9fb0acf0-02ee-43e1-8a36-3f564bbba08b"},"vehicle_type_id":"4","last_reported":1731956813,"current_range_meters":21600,"station_id":"ce4bhqp2rcd13ifvqhog","pricing_plan_id":"cebpf4jnsgd1na2vs0mg"},{"bike_id":"c15e1af6-d99b-4bbc-9e5e-bbcd43234749","system_id":"levelo_inurba_marseille","lat":43.28689,"lon":5.38672,"is_reserved":false,"is_disabled":false,"rental_uris":{"android":"levelo://app?vid=c15e1af6-d99b-4bbc-9e5e-bbcd43234749","ios":"levelo://app?vid=c15e1af6-d99b-4bbc-9e5e-bbcd43234749"},"vehicle_type_id":"4","last_reported":1731956813,"current_range_meters":37600,"station_id":"ce4bh492rcd13ifvqdug","pricing_plan_id":"cebpf4jnsgd1na2vs0mg"},{"bike_id":"a5dcdcde-517c-445c-8c9c-2a345e737d45","system_id":"levelo_inurba_marseille","lat":43.29532,"lon":5.39408,"is_reserved":false,"is_disabled":false,"rental_uris":{"android":"levelo://app?vid=a5dcdcde-517c-445c-8c9c-2a345e737d45","ios":"levelo://app?vid=a5dcdcde-517c-445c-8c9c-2a345e737d45"},"vehicle_type_id":"4","last_reported":1731956813,"current_range_meters":17200,"station_id":"ce4bh292rcd13ifvqdf0","pricing_plan_id":"cebpf4jnsgd1na2vs0mg"},{"bike_id":"1536f2f2-3c8c-4f16-853a-a9338cbd60c7","system_id":"levelo_inurba_marseille","lat":43.29583,"lon":5.36738,"is_reserved":false,"is_disabled":false,"rental_uris":{"android":"levelo://app?vid=1536f2f2-3c8c-4f16-853a-a9338cbd60c7","ios":"levelo://app?vid=1536f2f2-3c8c-4f16-853a-a9338cbd60c7"},"vehicle_type_id":"4","last_reported":1731956813,"current_range_meters":4800,"station_id":"ce4bgph2rcd13ifvqc2g","pricing_plan_id":"cebpf4jnsgd1na2vs0mg"},{"bike_id":"9f1dfffb-1213-4f6e-84d3-a2f0789a9ef3","system_id":"levelo_inurba_marseille","lat":43.27622,"lon":5.35889,"is_reserved":false,"is_disabled":true,"rental_uris":{"android":"levelo://app?vid=9f1dfffb-1213-4f6e-84d3-a2f0789a9ef3","ios":"levelo://app?vid=9f1dfffb-1213-4f6e-84d3-a2f0789a9ef3"},"vehicle_type_id":"4","last_reported":1731956813,"current_range_meters":0,"station_id":"","pricing_plan_id":"cebpf4jnsgd1na2vs0mg"},{"bike_id":"8dfe3502-1a44-41d0-93ec-2f8847296f61","system_id":"levelo_inurba_marseille","lat":43.29194,"lon":5.35795,"is_reserved":false,"is_disabled":true,"rental_uris":{"android":"levelo://app?vid=8dfe3502-1a44-41d0-93ec-2f8847296f61","ios":"levelo://app?vid=8dfe3502-1a44-41d0-93ec-2f8847296f61"},"vehicle_type_id":"4","last_reported":1731956813,"current_range_meters":18000,"station_id":"ce4bhb12rcd13ifvqel0","pricing_plan_id":"cebpf4jnsgd1na2vs0mg"},{"bike_id":"954054ad-77ac-46c3-a1b5-c8fc266a522b","system_id":"levelo_inurba_marseille","lat":43.31725,"lon":5.42403,"is_reserved":false,"is_disabled":false,"rental_uris":{"android":"levelo://app?vid=954054ad-77ac-46c3-a1b5-c8fc266a522b","ios":"levelo://app?vid=954054ad-77ac-46c3-a1b5-c8fc266a522b"},"vehicle_type_id":"4","last_reported":1731956813,"current_range_meters":24000,"station_id":"ce4bhp92rcd13ifvqhbg","pricing_plan_id":"cebpf4jnsgd1na2vs0mg"},{"bike_id":"0749ab4f-43e6-4732-af9a-c007ac5771de","system_id":"levelo_inurba_marseille","lat":43.30304,"lon":5.39202,"is_reserved":false,"is_disabled":false,"rental_uris":{"android":"levelo://app?vid=0749ab4f-43e6-4732-af9a-c007ac5771de","ios":"levelo://app?vid=0749ab4f-43e6-4732-af9a-c007ac5771de"},"vehicle_type_id":"4","last_reported":1731956813,"current_range_meters":27200,"station_id":"ce4bgkh2rcd13ifvqbk0","pricing_plan_id":"cebpf4jnsgd1na2vs0mg"},{"bike_id":"96a7c93d-f36a-4997-80fb-df7d91730b79","system_id":"levelo_inurba_marseille","lat":43.26565,"lon":5.38993,"is_reserved":false,"is_disabled":true,"rental_uris":{"android":"levelo://app?vid=96a7c93d-f36a-4997-80fb-df7d91730b79","ios":"levelo://app?vid=96a7c93d-f36a-4997-80fb-df7d91730b79"},"vehicle_type_id":"4","last_reported":1731956813,"current_range_meters":0,"station_id":"ce4bhe12rcd13ifvqf30","pricing_plan_id":"cebpf4jnsgd1na2vs0mg"},{"bike_id":"56f1155b-ab82-45d0-99e2-e4dd099a7e5f","system_id":"levelo_inurba_marseille","lat":43.29849,"lon":5.36287,"is_reserved":false,"is_disabled":false,"rental_uris":{"android":"levelo://app?vid=56f1155b-ab82-45d0-99e2-e4dd099a7e5f","ios":"levelo://app?vid=56f1155b-ab82-45d0-99e2-e4dd099a7e5f"},"vehicle_type_id":"4","last_reported":1731956813,"current_range_meters":25600,"station_id":"ce4bgpp2rcd13ifvqc3g","pricing_plan_id":"cebpf4jnsgd1na2vs0mg"},{"bike_id":"2d983866-913c-4390-ae48-1873d10c9730","system_id":"levelo_inurba_marseille","lat":43.24808,"lon":5.37461,"is_reserved":false,"is_disabled":true,"rental_uris":{"android":"levelo://app?vid=2d983866-913c-4390-ae48-1873d10c9730","ios":"levelo://app?vid=2d983866-913c-4390-ae48-1873d10c9730"},"vehicle_type_id":"4","last_reported":1731956813,"current_range_meters":22800,"station_id":"ce4bhgh2rcd13ifvqfb0","pricing_plan_id":"cebpf4jnsgd1na2vs0mg"},{"bike_id":"ffa4f684-6fea-401d-8db3-682e187790cf","system_id":"levelo_inurba_marseille","lat":43.318209,"lon":5.404717,"is_reserved":false,"is_disabled":false,"rental_uris":{"android":"levelo://app?vid=ffa4f684-6fea-401d-8db3-682e187790cf","ios":"levelo://app?vid=ffa4f684-6fea-401d-8db3-682e187790cf"},"vehicle_type_id":"4","last_reported":1731956813,"current_range_meters":39200,"station_id":"ce4bh012rcd13ifvqd00","pricing_plan_id":"cebpf4jnsgd1na2vs0mg"},{"bike_id":"37d60d93-8316-4ddc-b2ac-057e596bc0b2","system_id":"levelo_inurba_marseille","lat":43.27998,"lon":5.40007,"is_reserved":false,"is_disabled":false,"rental_uris":{"android":"levelo://app?vid=37d60d93-8316-4ddc-b2ac-057e596bc0b2","ios":"levelo://app?vid=37d60d93-8316-4ddc-b2ac-057e596bc0b2"},"vehicle_type_id":"4","last_reported":1731956813,"current_range_meters":29600,"station_id":"ce4bho92rcd13ifvqh4g","pricing_plan_id":"cebpf4jnsgd1na2vs0mg"},{"bike_id":"63437fd1-6f50-4e77-a820-dcbc60915f76","system_id":"levelo_inurba_marseille","lat":43.2465,"lon":5.3889,"is_reserved":false,"is_disabled":false,"rental_uris":{"android":"levelo://app?vid=63437fd1-6f50-4e77-a820-dcbc60915f76","ios":"levelo://app?vid=63437fd1-6f50-4e77-a820-dcbc60915f76"},"vehicle_type_id":"4","last_reported":1731956813,"current_range_meters":25200,"station_id":"ce4bhg12rcd13ifvqf60","pricing_plan_id":"cebpf4jnsgd1na2vs0mg"},{"bike_id":"121b701b-7f63-457e-b57c-74c6e7a35a93","system_id":"levelo_inurba_marseille","lat":43.3032,"lon":5.40441,"is_reserved":false,"is_disabled":false,"rental_uris":{"android":"levelo://app?vid=121b701b-7f63-457e-b57c-74c6e7a35a93","ios":"levelo://app?vid=121b701b-7f63-457e-b57c-74c6e7a35a93"},"vehicle_type_id":"4","last_reported":1731956813,"current_range_meters":12000,"station_id":"ce4bh012rcd13ifvqd10","pricing_plan_id":"cebpf4jnsgd1na2vs0mg"},{"bike_id":"d2f04998-0e47-4b82-9dc5-6d7eaf0ea7f1","system_id":"levelo_inurba_marseille","lat":43.2958,"lon":5.39959,"is_reserved":false,"is_disabled":false,"rental_uris":{"android":"levelo://app?vid=d2f04998-0e47-4b82-9dc5-6d7eaf0ea7f1","ios":"levelo://app?vid=d2f04998-0e47-4b82-9dc5-6d7eaf0ea7f1"},"vehicle_type_id":"4","last_reported":1731956813,"current_range_meters":10800,"station_id":"ce4bh312rcd13ifvqdj0","pricing_plan_id":"cebpf4jnsgd1na2vs0mg"},{"bike_id":"a9853979-8e8b-4ac5-bfea-e7c77f46338b","system_id":"levelo_inurba_marseille","lat":43.31043,"lon":5.37113,"is_reserved":false,"is_disabled":false,"rental_uris":{"android":"levelo://app?vid=a9853979-8e8b-4ac5-bfea-e7c77f46338b","ios":"levelo://app?vid=a9853979-8e8b-4ac5-bfea-e7c77f46338b"},"vehicle_type_id":"4","last_reported":1731956813,"current_range_meters":30800,"station_id":"","pricing_plan_id":"cebpf4jnsgd1na2vs0mg"},{"bike_id":"e264033a-f915-4b27-a08a-2f42cfcf052a","system_id":"levelo_inurba_marseille","lat":43.337444,"lon":5.374475,"is_reserved":false,"is_disabled":false,"rental_uris":{"android":"levelo://app?vid=e264033a-f915-4b27-a08a-2f42cfcf052a","ios":"levelo://app?vid=e264033a-f915-4b27-a08a-2f42cfcf052a"},"vehicle_type_id":"4","last_reported":1731956813,"current_range_meters":36400,"station_id":"","pricing_plan_id":"cebpf4jnsgd1na2vs0mg"},{"bike_id":"affc6a42-c87f-4640-9297-4a4ea6bc3ad3","system_id":"levelo_inurba_marseille","lat":43.29552,"lon":5.42279,"is_reserved":false,"is_disabled":false,"rental_uris":{"android":"levelo://app?vid=affc6a42-c87f-4640-9297-4a4ea6bc3ad3","ios":"levelo://app?vid=affc6a42-c87f-4640-9297-4a4ea6bc3ad3"},"vehicle_type_id":"4","last_reported":1731956813,"current_range_meters":10800,"station_id":"ce4bhph2rcd13ifvqhdg","pricing_plan_id":"cebpf4jnsgd1na2vs0mg"},{"bike_id":"167bfcb2-34bc-4fde-9708-323115ef71c3","system_id":"levelo_inurba_marseille","lat":43.28023,"lon":5.38682,"is_reserved":false,"is_disabled":false,"rental_uris":{"android":"levelo://app?vid=167bfcb2-34bc-4fde-9708-323115ef71c3","ios":"levelo://app?vid=167bfcb2-34bc-4fde-9708-323115ef71c3"},"vehicle_type_id":"4","last_reported":1731956813,"current_range_meters":28000,"station_id":"ce4bhq92rcd13ifvqhjg","pricing_plan_id":"cebpf4jnsgd1na2vs0mg"},{"bike_id":"df900be8-2c12-453f-bc2b-7090adc12272","system_id":"levelo_inurba_marseille","lat":43.30139,"lon":5.38781,"is_reserved":false,"is_disabled":true,"rental_uris":{"android":"levelo://app?vid=df900be8-2c12-453f-bc2b-7090adc12272","ios":"levelo://app?vid=df900be8-2c12-453f-bc2b-7090adc12272"},"vehicle_type_id":"4","last_reported":1731956813,"current_range_meters":25200,"station_id":"ce4bghh2rcd13ifvqb60","pricing_plan_id":"cebpf4jnsgd1na2vs0mg"},{"bike_id":"123862ba-68e2-48f6-a477-31ab9dae8bd5","system_id":"levelo_inurba_marseille","lat":43.337444,"lon":5.374475,"is_reserved":false,"is_disabled":true,"rental_uris":{"android":"levelo://app?vid=123862ba-68e2-48f6-a477-31ab9dae8bd5","ios":"levelo://app?vid=123862ba-68e2-48f6-a477-31ab9dae8bd5"},"vehicle_type_id":"4","last_reported":1731956813,"current_range_meters":19200,"station_id":"","pricing_plan_id":"cebpf4jnsgd1na2vs0mg"},{"bike_id":"25ddf417-8230-4dbc-b38a-2b2cb1ba9d73","system_id":"levelo_inurba_marseille","lat":43.30293,"lon":5.37693,"is_reserved":false,"is_disabled":true,"rental_uris":{"android":"levelo://app?vid=25ddf417-8230-4dbc-b38a-2b2cb1ba9d73","ios":"levelo://app?vid=25ddf417-8230-4dbc-b38a-2b2cb1ba9d73"},"vehicle_type_id":"4","last_reported":1731956813,"current_range_meters":16000,"station_id":"ce4bguh2rcd13ifvqcj0","pricing_plan_id":"cebpf4jnsgd1na2vs0mg"},{"bike_id":"203aeef1-141c-4fdd-8aad-facad2087071","system_id":"levelo_inurba_marseille","lat":43.33769,"lon":5.374317,"is_reserved":false,"is_disabled":false,"rental_uris":{"android":"levelo://app?vid=203aeef1-141c-4fdd-8aad-facad2087071","ios":"levelo://app?vid=203aeef1-141c-4fdd-8aad-facad2087071"},"vehicle_type_id":"4","last_reported":1731956813,"current_range_meters":25200,"station_id":"","pricing_plan_id":"cebpf4jnsgd1na2vs0mg"},{"bike_id":"452f360b-0461-4191-a409-1447dcc7809d","system_id":"levelo_inurba_marseille","lat":43.29624,"lon":5.37743,"is_reserved":false,"is_disabled":false,"rental_uris":{"android":"levelo://app?vid=452f360b-0461-4191-a409-1447dcc7809d","ios":"levelo://app?vid=452f360b-0461-4191-a409-1447dcc7809d"},"vehicle_type_id":"4","last_reported":1731956813,"current_range_meters":9200,"station_id":"ce4bgi92rcd13ifvqb90","pricing_plan_id":"cebpf4jnsgd1na2vs0mg"},{"bike_id":"a18e743f-f904-45c8-9217-5413d7928a28","system_id":"levelo_inurba_marseille","lat":43.3044,"lon":5.38891,"is_reserved":false,"is_disabled":false,"rental_uris":{"android":"levelo://app?vid=a18e743f-f904-45c8-9217-5413d7928a28","ios":"levelo://app?vid=a18e743f-f904-45c8-9217-5413d7928a28"},"vehicle_type_id":"4","last_reported":1731956813,"current_range_meters":29600,"station_id":"ce4bgk12rcd13ifvqbi0","pricing_plan_id":"cebpf4jnsgd1na2vs0mg"},{"bike_id":"015475d9-9369-4060-8bef-8b2a0db4bfee","system_id":"levelo_inurba_marseille","lat":43.29829,"lon":5.39346,"is_reserved":false,"is_disabled":false,"rental_uris":{"android":"levelo://app?vid=015475d9-9369-4060-8bef-8b2a0db4bfee","ios":"levelo://app?vid=015475d9-9369-4060-8bef-8b2a0db4bfee"},"vehicle_type_id":"4","last_reported":1731956813,"current_range_meters":38800,"station_id":"chh1huq6cuj3fo74tm60","pricing_plan_id":"cebpf4jnsgd1na2vs0mg"},{"bike_id":"4277ea6e-1564-4af4-aabd-7977ffa44ecb","system_id":"levelo_inurba_marseille","lat":43.29621,"lon":5.37168,"is_reserved":false,"is_disabled":false,"rental_uris":{"android":"levelo://app?vid=4277ea6e-1564-4af4-aabd-7977ffa44ecb","ios":"levelo://app?vid=4277ea6e-1564-4af4-aabd-7977ffa44ecb"},"vehicle_type_id":"4","last_reported":1731956813,"current_range_meters":30800,"station_id":"ce4bgnh2rcd13ifvqc0g","pricing_plan_id":"cebpf4jnsgd1na2vs0mg"},{"bike_id":"844cc995-d4b4-4841-87fb-225c5590a2a6","system_id":"levelo_inurba_marseille","lat":43.28951,"lon":5.36376,"is_reserved":false,"is_disabled":false,"rental_uris":{"android":"levelo://app?vid=844cc995-d4b4-4841-87fb-225c5590a2a6","ios":"levelo://app?vid=844cc995-d4b4-4841-87fb-225c5590a2a6"},"vehicle_type_id":"4","last_reported":1731956813,"current_range_meters":11200,"station_id":"ce4bhc92rcd13ifvqetg","pricing_plan_id":"cebpf4jnsgd1na2vs0mg"},{"bike_id":"2e16f7b4-48f4-4765-a5ce-1323135831d0","system_id":"levelo_inurba_marseille","lat":43.2815,"lon":5.42651,"is_reserved":false,"is_disabled":false,"rental_uris":{"android":"levelo://app?vid=2e16f7b4-48f4-4765-a5ce-1323135831d0","ios":"levelo://app?vid=2e16f7b4-48f4-4765-a5ce-1323135831d0"},"vehicle_type_id":"4","last_reported":1731956813,"current_range_meters":7200,"station_id":"ce4bhnh2rcd13ifvqgug","pricing_plan_id":"cebpf4jnsgd1na2vs0mg"},{"bike_id":"0814e5b2-afc4-4274-a5e1-ccb784183380","system_id":"levelo_inurba_marseille","lat":43.29518,"lon":5.39039,"is_reserved":false,"is_disabled":false,"rental_uris":{"android":"levelo://app?vid=0814e5b2-afc4-4274-a5e1-ccb784183380","ios":"levelo://app?vid=0814e5b2-afc4-4274-a5e1-ccb784183380"},"vehicle_type_id":"4","last_reported":1731956813,"current_range_meters":28800,"station_id":"ce4bh3p2rcd13ifvqdp0","pricing_plan_id":"cebpf4jnsgd1na2vs0mg"},{"bike_id":"674671a9-ba1c-4a0d-a2d0-d1670faad228","system_id":"levelo_inurba_marseille","lat":43.31078,"lon":5.42432,"is_reserved":false,"is_disabled":true,"rental_uris":{"android":"levelo://app?vid=674671a9-ba1c-4a0d-a2d0-d1670faad228","ios":"levelo://app?vid=674671a9-ba1c-4a0d-a2d0-d1670faad228"},"vehicle_type_id":"4","last_reported":1731956813,"current_range_meters":0,"station_id":"ce4bhp92rcd13ifvqhag","pricing_plan_id":"cebpf4jnsgd1na2vs0mg"},{"bike_id":"b3a6886e-1fb3-41aa-94f8-8eafa9007c10","system_id":"levelo_inurba_marseille","lat":43.30905,"lon":5.37183,"is_reserved":false,"is_disabled":false,"rental_uris":{"android":"levelo://app?vid=b3a6886e-1fb3-41aa-94f8-8eafa9007c10","ios":"levelo://app?vid=b3a6886e-1fb3-41aa-94f8-8eafa9007c10"},"vehicle_type_id":"4","last_reported":1731956813,"current_range_meters":4400,"station_id":"ce4bguh2rcd13ifvqckg","pricing_plan_id":"cebpf4jnsgd1na2vs0mg"},{"bike_id":"c882d9aa-c49a-4f1d-8e9e-e5ccf6b8787d","system_id":"levelo_inurba_marseille","lat":43.29843,"lon":5.36269,"is_reserved":false,"is_disabled":false,"rental_uris":{"android":"levelo://app?vid=c882d9aa-c49a-4f1d-8e9e-e5ccf6b8787d","ios":"levelo://app?vid=c882d9aa-c49a-4f1d-8e9e-e5ccf6b8787d"},"vehicle_type_id":"4","last_reported":1731956813,"current_range_meters":38800,"station_id":"ce4bgpp2rcd13ifvqc3g","pricing_plan_id":"cebpf4jnsgd1na2vs0mg"},{"bike_id":"e4a5532d-23c6-44a1-8a40-ea77917bd499","system_id":"levelo_inurba_marseille","lat":43.30125,"lon":5.39871,"is_reserved":false,"is_disabled":false,"rental_uris":{"android":"levelo://app?vid=e4a5532d-23c6-44a1-8a40-ea77917bd499","ios":"levelo://app?vid=e4a5532d-23c6-44a1-8a40-ea77917bd499"},"vehicle_type_id":"4","last_reported":1731956813,"current_range_meters":32400,"station_id":"ce4bh0h2rcd13ifvqd40","pricing_plan_id":"cebpf4jnsgd1na2vs0mg"},{"bike_id":"754ef339-4206-4391-a29c-4a3441435511","system_id":"levelo_inurba_marseille","lat":43.28464,"lon":5.35885,"is_reserved":false,"is_disabled":false,"rental_uris":{"android":"levelo://app?vid=754ef339-4206-4391-a29c-4a3441435511","ios":"levelo://app?vid=754ef339-4206-4391-a29c-4a3441435511"},"vehicle_type_id":"4","last_reported":1731956813,"current_range_meters":16800,"station_id":"ce4bhah2rcd13ifvqei0","pricing_plan_id":"cebpf4jnsgd1na2vs0mg"},{"bike_id":"6cb96ea3-76c0-4985-88d7-ff549b8f9aac","system_id":"levelo_inurba_marseille","lat":43.29881,"lon":5.38902,"is_reserved":false,"is_disabled":false,"rental_uris":{"android":"levelo://app?vid=6cb96ea3-76c0-4985-88d7-ff549b8f9aac","ios":"levelo://app?vid=6cb96ea3-76c0-4985-88d7-ff549b8f9aac"},"vehicle_type_id":"4","last_reported":1731956813,"current_range_meters":9200,"station_id":"ce4bh392rcd13ifvqdl0","pricing_plan_id":"cebpf4jnsgd1na2vs0mg"},{"bike_id":"037575e2-588c-4159-91b9-401205762e5f","system_id":"levelo_inurba_marseille","lat":43.28851,"lon":5.39315,"is_reserved":false,"is_disabled":false,"rental_uris":{"android":"levelo://app?vid=037575e2-588c-4159-91b9-401205762e5f","ios":"levelo://app?vid=037575e2-588c-4159-91b9-401205762e5f"},"vehicle_type_id":"4","last_reported":1731956813,"current_range_meters":33600,"station_id":"ce4bh2p2rcd13ifvqdi0","pricing_plan_id":"cebpf4jnsgd1na2vs0mg"},{"bike_id":"54c3d008-9b23-449d-a09a-a7a7affe242f","system_id":"levelo_inurba_marseille","lat":43.31997,"lon":5.38153,"is_reserved":false,"is_disabled":false,"rental_uris":{"android":"levelo://app?vid=54c3d008-9b23-449d-a09a-a7a7affe242f","ios":"levelo://app?vid=54c3d008-9b23-449d-a09a-a7a7affe242f"},"vehicle_type_id":"4","last_reported":1731956813,"current_range_meters":19200,"station_id":"ce4bhr12rcd13ifvqhpg","pricing_plan_id":"cebpf4jnsgd1na2vs0mg"},{"bike_id":"746c26b3-b945-4191-b394-93c5195805c3","system_id":"levelo_inurba_marseille","lat":43.27945,"lon":5.41048,"is_reserved":false,"is_disabled":false,"rental_uris":{"android":"levelo://app?vid=746c26b3-b945-4191-b394-93c5195805c3","ios":"levelo://app?vid=746c26b3-b945-4191-b394-93c5195805c3"},"vehicle_type_id":"4","last_reported":1731956813,"current_range_meters":14000,"station_id":"ce4bhnp2rcd13ifvqh0g","pricing_plan_id":"cebpf4jnsgd1na2vs0mg"},{"bike_id":"8664fa16-7cad-4311-a4c7-b9bfcf798537","system_id":"levelo_inurba_marseille","lat":43.28991,"lon":5.37833,"is_reserved":false,"is_disabled":false,"rental_uris":{"android":"levelo://app?vid=8664fa16-7cad-4311-a4c7-b9bfcf798537","ios":"levelo://app?vid=8664fa16-7cad-4311-a4c7-b9bfcf798537"},"vehicle_type_id":"4","last_reported":1731956813,"current_range_meters":14800,"station_id":"ce4bh9p2rcd13ifvqed0","pricing_plan_id":"cebpf4jnsgd1na2vs0mg"},{"bike_id":"75420037-a1a0-44de-85e1-44ce9ad329ea","system_id":"levelo_inurba_marseille","lat":43.2847,"lon":5.3589,"is_reserved":false,"is_disabled":false,"rental_uris":{"android":"levelo://app?vid=75420037-a1a0-44de-85e1-44ce9ad329ea","ios":"levelo://app?vid=75420037-a1a0-44de-85e1-44ce9ad329ea"},"vehicle_type_id":"4","last_reported":1731956813,"current_range_meters":36800,"station_id":"ce4bhah2rcd13ifvqei0","pricing_plan_id":"cebpf4jnsgd1na2vs0mg"},{"bike_id":"5ed0dcf0-c2ca-47d5-8497-b51c5d83f101","system_id":"levelo_inurba_marseille","lat":43.26686,"lon":5.38276,"is_reserved":false,"is_disabled":true,"rental_uris":{"android":"levelo://app?vid=5ed0dcf0-c2ca-47d5-8497-b51c5d83f101","ios":"levelo://app?vid=5ed0dcf0-c2ca-47d5-8497-b51c5d83f101"},"vehicle_type_id":"4","last_reported":1731956813,"current_range_meters":38400,"station_id":"ce4bhg92rcd13ifvqf90","pricing_plan_id":"cebpf4jnsgd1na2vs0mg"},{"bike_id":"02715229-b658-4fa1-8848-506ff3ca2609","system_id":"levelo_inurba_marseille","lat":43.24649,"lon":5.38889,"is_reserved":false,"is_disabled":false,"rental_uris":{"android":"levelo://app?vid=02715229-b658-4fa1-8848-506ff3ca2609","ios":"levelo://app?vid=02715229-b658-4fa1-8848-506ff3ca2609"},"vehicle_type_id":"4","last_reported":1731956813,"current_range_meters":19600,"station_id":"ce4bhg12rcd13ifvqf60","pricing_plan_id":"cebpf4jnsgd1na2vs0mg"},{"bike_id":"18fded32-019c-421b-8db7-c4613bc1d599","system_id":"levelo_inurba_marseille","lat":43.25576,"lon":5.38236,"is_reserved":false,"is_disabled":false,"rental_uris":{"android":"levelo://app?vid=18fded32-019c-421b-8db7-c4613bc1d599","ios":"levelo://app?vid=18fded32-019c-421b-8db7-c4613bc1d599"},"vehicle_type_id":"4","last_reported":1731956813,"current_range_meters":23200,"station_id":"ce4bhih2rcd13ifvqfs0","pricing_plan_id":"cebpf4jnsgd1na2vs0mg"},{"bike_id":"d36e7d82-f90b-47a5-9efd-5cc67df5760f","system_id":"levelo_inurba_marseille","lat":43.29199,"lon":5.39334,"is_reserved":false,"is_disabled":false,"rental_uris":{"android":"levelo://app?vid=d36e7d82-f90b-47a5-9efd-5cc67df5760f","ios":"levelo://app?vid=d36e7d82-f90b-47a5-9efd-5cc67df5760f"},"vehicle_type_id":"4","last_reported":1731956813,"current_range_meters":36400,"station_id":"ce4bh192rcd13ifvqdd0","pricing_plan_id":"cebpf4jnsgd1na2vs0mg"},{"bike_id":"48f92302-634c-462c-8f87-74559add9590","system_id":"levelo_inurba_marseille","lat":43.27811,"lon":5.40702,"is_reserved":false,"is_disabled":false,"rental_uris":{"android":"levelo://app?vid=48f92302-634c-462c-8f87-74559add9590","ios":"levelo://app?vid=48f92302-634c-462c-8f87-74559add9590"},"vehicle_type_id":"4","last_reported":1731956813,"current_range_meters":19600,"station_id":"ce4bhnh2rcd13ifvqgtg","pricing_plan_id":"cebpf4jnsgd1na2vs0mg"},{"bike_id":"129aabad-c987-475e-90f3-2bfaf3bf8a5a","system_id":"levelo_inurba_marseille","lat":43.30878,"lon":5.39627,"is_reserved":false,"is_disabled":false,"rental_uris":{"android":"levelo://app?vid=129aabad-c987-475e-90f3-2bfaf3bf8a5a","ios":"levelo://app?vid=129aabad-c987-475e-90f3-2bfaf3bf8a5a"},"vehicle_type_id":"4","last_reported":1731956813,"current_range_meters":24800,"station_id":"ce4bh012rcd13ifvqcv0","pricing_plan_id":"cebpf4jnsgd1na2vs0mg"},{"bike_id":"0c548a2b-6ad9-4fe9-a1fb-a72bd3c5db43","system_id":"levelo_inurba_marseille","lat":43.29438,"lon":5.3975,"is_reserved":false,"is_disabled":false,"rental_uris":{"android":"levelo://app?vid=0c548a2b-6ad9-4fe9-a1fb-a72bd3c5db43","ios":"levelo://app?vid=0c548a2b-6ad9-4fe9-a1fb-a72bd3c5db43"},"vehicle_type_id":"4","last_reported":1731956813,"current_range_meters":4800,"station_id":"ce4bh3h2rcd13ifvqdo0","pricing_plan_id":"cebpf4jnsgd1na2vs0mg"},{"bike_id":"8d377374-9775-4f46-9ae2-a53fea7dcb6a","system_id":"levelo_inurba_marseille","lat":43.30787,"lon":5.37642,"is_reserved":false,"is_disabled":false,"rental_uris":{"android":"levelo://app?vid=8d377374-9775-4f46-9ae2-a53fea7dcb6a","ios":"levelo://app?vid=8d377374-9775-4f46-9ae2-a53fea7dcb6a"},"vehicle_type_id":"4","last_reported":1731956813,"current_range_meters":20000,"station_id":"ce4bgv92rcd13ifvqcq0","pricing_plan_id":"cebpf4jnsgd1na2vs0mg"},{"bike_id":"f0e2f4e5-f602-4a1c-ba1a-aa1d1150f28c","system_id":"levelo_inurba_marseille","lat":43.29634,"lon":5.40593,"is_reserved":false,"is_disabled":false,"rental_uris":{"android":"levelo://app?vid=f0e2f4e5-f602-4a1c-ba1a-aa1d1150f28c","ios":"levelo://app?vid=f0e2f4e5-f602-4a1c-ba1a-aa1d1150f28c"},"vehicle_type_id":"4","last_reported":1731956813,"current_range_meters":38000,"station_id":"ce4bh0h2rcd13ifvqd60","pricing_plan_id":"cebpf4jnsgd1na2vs0mg"},{"bike_id":"628384db-a629-44bc-856e-9d5ee504cce9","system_id":"levelo_inurba_marseille","lat":43.25003,"lon":5.38921,"is_reserved":false,"is_disabled":true,"rental_uris":{"android":"levelo://app?vid=628384db-a629-44bc-856e-9d5ee504cce9","ios":"levelo://app?vid=628384db-a629-44bc-856e-9d5ee504cce9"},"vehicle_type_id":"4","last_reported":1731956813,"current_range_meters":38800,"station_id":"ce4bhgp2rcd13ifvqfd0","pricing_plan_id":"cebpf4jnsgd1na2vs0mg"},{"bike_id":"2c98f310-de06-47e1-8a5f-d38938934c83","system_id":"levelo_inurba_marseille","lat":43.23187,"lon":5.39985,"is_reserved":false,"is_disabled":true,"rental_uris":{"android":"levelo://app?vid=2c98f310-de06-47e1-8a5f-d38938934c83","ios":"levelo://app?vid=2c98f310-de06-47e1-8a5f-d38938934c83"},"vehicle_type_id":"4","last_reported":1731956813,"current_range_meters":0,"station_id":"ce4bhn12rcd13ifvqgqg","pricing_plan_id":"cebpf4jnsgd1na2vs0mg"},{"bike_id":"23135125-383a-4861-98de-64bbe8a2d094","system_id":"levelo_inurba_marseille","lat":43.30925,"lon":5.40144,"is_reserved":false,"is_disabled":false,"rental_uris":{"android":"levelo://app?vid=23135125-383a-4861-98de-64bbe8a2d094","ios":"levelo://app?vid=23135125-383a-4861-98de-64bbe8a2d094"},"vehicle_type_id":"4","last_reported":1731956813,"current_range_meters":13600,"station_id":"ce4bgvp2rcd13ifvqct0","pricing_plan_id":"cebpf4jnsgd1na2vs0mg"},{"bike_id":"3f32c9d6-8aed-4b6d-92f4-88b3106e6e04","system_id":"levelo_inurba_marseille","lat":43.2587,"lon":5.39903,"is_reserved":false,"is_disabled":true,"rental_uris":{"android":"levelo://app?vid=3f32c9d6-8aed-4b6d-92f4-88b3106e6e04","ios":"levelo://app?vid=3f32c9d6-8aed-4b6d-92f4-88b3106e6e04"},"vehicle_type_id":"4","last_reported":1731956813,"current_range_meters":12000,"station_id":"ce4bhl92rcd13ifvqghg","pricing_plan_id":"cebpf4jnsgd1na2vs0mg"},{"bike_id":"59282a02-6b4b-4617-b658-ff49c6291b10","system_id":"levelo_inurba_marseille","lat":43.2846,"lon":5.35886,"is_reserved":false,"is_disabled":false,"rental_uris":{"android":"levelo://app?vid=59282a02-6b4b-4617-b658-ff49c6291b10","ios":"levelo://app?vid=59282a02-6b4b-4617-b658-ff49c6291b10"},"vehicle_type_id":"4","last_reported":1731956813,"current_range_meters":14800,"station_id":"ce4bhah2rcd13ifvqei0","pricing_plan_id":"cebpf4jnsgd1na2vs0mg"},{"bike_id":"b3eaf1d6-7555-41a5-bcba-77796c19961d","system_id":"levelo_inurba_marseille","lat":43.29845,"lon":5.36266,"is_reserved":false,"is_disabled":false,"rental_uris":{"android":"levelo://app?vid=b3eaf1d6-7555-41a5-bcba-77796c19961d","ios":"levelo://app?vid=b3eaf1d6-7555-41a5-bcba-77796c19961d"},"vehicle_type_id":"4","last_reported":1731956813,"current_range_meters":36800,"station_id":"ce4bgpp2rcd13ifvqc3g","pricing_plan_id":"cebpf4jnsgd1na2vs0mg"},{"bike_id":"7c5ea3a8-a728-4c0b-a06a-05abd113adfd","system_id":"levelo_inurba_marseille","lat":43.25816,"lon":5.39432,"is_reserved":false,"is_disabled":true,"rental_uris":{"android":"levelo://app?vid=7c5ea3a8-a728-4c0b-a06a-05abd113adfd","ios":"levelo://app?vid=7c5ea3a8-a728-4c0b-a06a-05abd113adfd"},"vehicle_type_id":"4","last_reported":1731956813,"current_range_meters":0,"station_id":"ce4bhip2rcd13ifvqft0","pricing_plan_id":"cebpf4jnsgd1na2vs0mg"},{"bike_id":"49e7624e-103a-42f5-a246-ce17656f0975","system_id":"levelo_inurba_marseille","lat":43.26031,"lon":5.37555,"is_reserved":false,"is_disabled":false,"rental_uris":{"android":"levelo://app?vid=49e7624e-103a-42f5-a246-ce17656f0975","ios":"levelo://app?vid=49e7624e-103a-42f5-a246-ce17656f0975"},"vehicle_type_id":"4","last_reported":1731956813,"current_range_meters":27600,"station_id":"ce4bhgh2rcd13ifvqfa0","pricing_plan_id":"cebpf4jnsgd1na2vs0mg"},{"bike_id":"4de41581-3b4d-48da-b235-99669862c70a","system_id":"levelo_inurba_marseille","lat":43.2961,"lon":5.37711,"is_reserved":false,"is_disabled":true,"rental_uris":{"android":"levelo://app?vid=4de41581-3b4d-48da-b235-99669862c70a","ios":"levelo://app?vid=4de41581-3b4d-48da-b235-99669862c70a"},"vehicle_type_id":"4","last_reported":1731956813,"current_range_meters":36000,"station_id":"ce4bgi92rcd13ifvqb90","pricing_plan_id":"cebpf4jnsgd1na2vs0mg"},{"bike_id":"b0222684-7565-40dc-91a5-328b5ec85c70","system_id":"levelo_inurba_marseille","lat":43.28076,"lon":5.39657,"is_reserved":false,"is_disabled":false,"rental_uris":{"android":"levelo://app?vid=b0222684-7565-40dc-91a5-328b5ec85c70","ios":"levelo://app?vid=b0222684-7565-40dc-91a5-328b5ec85c70"},"vehicle_type_id":"4","last_reported":1731956813,"current_range_meters":38800,"station_id":"ce4bho12rcd13ifvqh2g","pricing_plan_id":"cebpf4jnsgd1na2vs0mg"},{"bike_id":"fcae7cf1-a7d3-4668-b3bc-06de5e18f103","system_id":"levelo_inurba_marseille","lat":43.2587,"lon":5.39895,"is_reserved":false,"is_disabled":false,"rental_uris":{"android":"levelo://app?vid=fcae7cf1-a7d3-4668-b3bc-06de5e18f103","ios":"levelo://app?vid=fcae7cf1-a7d3-4668-b3bc-06de5e18f103"},"vehicle_type_id":"4","last_reported":1731956813,"current_range_meters":35600,"station_id":"ce4bhl92rcd13ifvqghg","pricing_plan_id":"cebpf4jnsgd1na2vs0mg"},{"bike_id":"2b230e21-05b5-46a3-b9c5-f6223e5aaf4f","system_id":"levelo_inurba_marseille","lat":43.31712,"lon":5.43702,"is_reserved":false,"is_disabled":false,"rental_uris":{"android":"levelo://app?vid=2b230e21-05b5-46a3-b9c5-f6223e5aaf4f","ios":"levelo://app?vid=2b230e21-05b5-46a3-b9c5-f6223e5aaf4f"},"vehicle_type_id":"4","last_reported":1731956813,"current_range_meters":33200,"station_id":"ce4bhp92rcd13ifvqhcg","pricing_plan_id":"cebpf4jnsgd1na2vs0mg"},{"bike_id":"e03ee57d-d6f5-4e29-99df-e78e89cfc6cd","system_id":"levelo_inurba_marseille","lat":43.30937,"lon":5.40142,"is_reserved":false,"is_disabled":false,"rental_uris":{"android":"levelo://app?vid=e03ee57d-d6f5-4e29-99df-e78e89cfc6cd","ios":"levelo://app?vid=e03ee57d-d6f5-4e29-99df-e78e89cfc6cd"},"vehicle_type_id":"4","last_reported":1731956813,"current_range_meters":19600,"station_id":"ce4bgvp2rcd13ifvqct0","pricing_plan_id":"cebpf4jnsgd1na2vs0mg"},{"bike_id":"8f406614-5bf3-4989-b59c-a65d57a10f46","system_id":"levelo_inurba_marseille","lat":43.29569,"lon":5.39967,"is_reserved":false,"is_disabled":false,"rental_uris":{"android":"levelo://app?vid=8f406614-5bf3-4989-b59c-a65d57a10f46","ios":"levelo://app?vid=8f406614-5bf3-4989-b59c-a65d57a10f46"},"vehicle_type_id":"4","last_reported":1731956813,"current_range_meters":36000,"station_id":"ce4bh312rcd13ifvqdj0","pricing_plan_id":"cebpf4jnsgd1na2vs0mg"},{"bike_id":"4ff195aa-0e94-4780-a4e9-74e0f4125314","system_id":"levelo_inurba_marseille","lat":43.29793,"lon":5.39351,"is_reserved":false,"is_disabled":true,"rental_uris":{"android":"levelo://app?vid=4ff195aa-0e94-4780-a4e9-74e0f4125314","ios":"levelo://app?vid=4ff195aa-0e94-4780-a4e9-74e0f4125314"},"vehicle_type_id":"4","last_reported":1731956813,"current_range_meters":38000,"station_id":"chh1huq6cuj3fo74tm60","pricing_plan_id":"cebpf4jnsgd1na2vs0mg"},{"bike_id":"f19a7666-d39e-4cdb-b69b-fad29af870b5","system_id":"levelo_inurba_marseille","lat":43.29929,"lon":5.37475,"is_reserved":false,"is_disabled":false,"rental_uris":{"android":"levelo://app?vid=f19a7666-d39e-4cdb-b69b-fad29af870b5","ios":"levelo://app?vid=f19a7666-d39e-4cdb-b69b-fad29af870b5"},"vehicle_type_id":"4","last_reported":1731956813,"current_range_meters":20000,"station_id":"ce4bgjh2rcd13ifvqbg0","pricing_plan_id":"cebpf4jnsgd1na2vs0mg"},{"bike_id":"84add0bd-cb10-4dcb-82e1-3da91d21fda0","system_id":"levelo_inurba_marseille","lat":43.29899,"lon":5.43667,"is_reserved":false,"is_disabled":false,"rental_uris":{"android":"levelo://app?vid=84add0bd-cb10-4dcb-82e1-3da91d21fda0","ios":"levelo://app?vid=84add0bd-cb10-4dcb-82e1-3da91d21fda0"},"vehicle_type_id":"4","last_reported":1731956813,"current_range_meters":6400,"station_id":"ce4bhpp2rcd13ifvqhfg","pricing_plan_id":"cebpf4jnsgd1na2vs0mg"},{"bike_id":"026b8c68-bd26-4b3a-92e6-b0fa8d046556","system_id":"levelo_inurba_marseille","lat":43.26577,"lon":5.39016,"is_reserved":false,"is_disabled":true,"rental_uris":{"android":"levelo://app?vid=026b8c68-bd26-4b3a-92e6-b0fa8d046556","ios":"levelo://app?vid=026b8c68-bd26-4b3a-92e6-b0fa8d046556"},"vehicle_type_id":"4","last_reported":1731956813,"current_range_meters":1200,"station_id":"ce4bhe12rcd13ifvqf30","pricing_plan_id":"cebpf4jnsgd1na2vs0mg"},{"bike_id":"6fcf8485-44b2-4e7f-a1ac-a973f48cb9a9","system_id":"levelo_inurba_marseille","lat":43.32284,"lon":5.3827,"is_reserved":false,"is_disabled":false,"rental_uris":{"android":"levelo://app?vid=6fcf8485-44b2-4e7f-a1ac-a973f48cb9a9","ios":"levelo://app?vid=6fcf8485-44b2-4e7f-a1ac-a973f48cb9a9"},"vehicle_type_id":"4","last_reported":1731956813,"current_range_meters":25200,"station_id":"ce4bhr12rcd13ifvqhqg","pricing_plan_id":"cebpf4jnsgd1na2vs0mg"},{"bike_id":"fd5a885f-4eb1-48e5-94fa-dbf89a02078d","system_id":"levelo_inurba_marseille","lat":43.29433,"lon":5.39751,"is_reserved":false,"is_disabled":false,"rental_uris":{"android":"levelo://app?vid=fd5a885f-4eb1-48e5-94fa-dbf89a02078d","ios":"levelo://app?vid=fd5a885f-4eb1-48e5-94fa-dbf89a02078d"},"vehicle_type_id":"4","last_reported":1731956813,"current_range_meters":27200,"station_id":"ce4bh3h2rcd13ifvqdo0","pricing_plan_id":"cebpf4jnsgd1na2vs0mg"},{"bike_id":"58f1d607-38ef-4f9a-a488-47fad88b9c0f","system_id":"levelo_inurba_marseille","lat":43.27174,"lon":5.40996,"is_reserved":false,"is_disabled":true,"rental_uris":{"android":"levelo://app?vid=58f1d607-38ef-4f9a-a488-47fad88b9c0f","ios":"levelo://app?vid=58f1d607-38ef-4f9a-a488-47fad88b9c0f"},"vehicle_type_id":"4","last_reported":1731956813,"current_range_meters":0,"station_id":"ce4bhl12rcd13ifvqgf0","pricing_plan_id":"cebpf4jnsgd1na2vs0mg"},{"bike_id":"d482b473-8011-43d1-9203-ef428f8af553","system_id":"levelo_inurba_marseille","lat":43.29553,"lon":5.42283,"is_reserved":false,"is_disabled":false,"rental_uris":{"android":"levelo://app?vid=d482b473-8011-43d1-9203-ef428f8af553","ios":"levelo://app?vid=d482b473-8011-43d1-9203-ef428f8af553"},"vehicle_type_id":"4","last_reported":1731956813,"current_range_meters":17600,"station_id":"ce4bhph2rcd13ifvqhdg","pricing_plan_id":"cebpf4jnsgd1na2vs0mg"},{"bike_id":"94a671e7-b26b-4843-8aae-1b1300cf865b","system_id":"levelo_inurba_marseille","lat":43.31367,"lon":5.38487,"is_reserved":false,"is_disabled":false,"rental_uris":{"android":"levelo://app?vid=94a671e7-b26b-4843-8aae-1b1300cf865b","ios":"levelo://app?vid=94a671e7-b26b-4843-8aae-1b1300cf865b"},"vehicle_type_id":"4","last_reported":1731956813,"current_range_meters":35200,"station_id":"ce4bgt92rcd13ifvqcf0","pricing_plan_id":"cebpf4jnsgd1na2vs0mg"},{"bike_id":"cde5eb04-35f5-4971-aec4-8004f9b2dcd9","system_id":"levelo_inurba_marseille","lat":43.28266,"lon":5.35058,"is_reserved":false,"is_disabled":true,"rental_uris":{"android":"levelo://app?vid=cde5eb04-35f5-4971-aec4-8004f9b2dcd9","ios":"levelo://app?vid=cde5eb04-35f5-4971-aec4-8004f9b2dcd9"},"vehicle_type_id":"4","last_reported":1731956813,"current_range_meters":36400,"station_id":"ce4bhbp2rcd13ifvqerg","pricing_plan_id":"cebpf4jnsgd1na2vs0mg"},{"bike_id":"d9aaa99c-543f-4857-a768-c5d47f66986e","system_id":"levelo_inurba_marseille","lat":43.23178,"lon":5.39982,"is_reserved":false,"is_disabled":false,"rental_uris":{"android":"levelo://app?vid=d9aaa99c-543f-4857-a768-c5d47f66986e","ios":"levelo://app?vid=d9aaa99c-543f-4857-a768-c5d47f66986e"},"vehicle_type_id":"4","last_reported":1731956813,"current_range_meters":29600,"station_id":"ce4bhn12rcd13ifvqgqg","pricing_plan_id":"cebpf4jnsgd1na2vs0mg"},{"bike_id":"9149b744-3ab9-4c51-83ea-c9bdd28789c0","system_id":"levelo_inurba_marseille","lat":43.29559,"lon":5.42288,"is_reserved":false,"is_disabled":true,"rental_uris":{"android":"levelo://app?vid=9149b744-3ab9-4c51-83ea-c9bdd28789c0","ios":"levelo://app?vid=9149b744-3ab9-4c51-83ea-c9bdd28789c0"},"vehicle_type_id":"4","last_reported":1731956813,"current_range_meters":0,"station_id":"ce4bhph2rcd13ifvqhdg","pricing_plan_id":"cebpf4jnsgd1na2vs0mg"},{"bike_id":"06029fdc-3291-4617-9921-c45dba4d17b1","system_id":"levelo_inurba_marseille","lat":43.29517,"lon":5.39401,"is_reserved":false,"is_disabled":false,"rental_uris":{"android":"levelo://app?vid=06029fdc-3291-4617-9921-c45dba4d17b1","ios":"levelo://app?vid=06029fdc-3291-4617-9921-c45dba4d17b1"},"vehicle_type_id":"4","last_reported":1731956813,"current_range_meters":11600,"station_id":"ce4bh292rcd13ifvqdf0","pricing_plan_id":"cebpf4jnsgd1na2vs0mg"},{"bike_id":"c2733315-eae6-452e-a1ab-9550f9ad7c89","system_id":"levelo_inurba_marseille","lat":43.31231,"lon":5.36847,"is_reserved":false,"is_disabled":false,"rental_uris":{"android":"levelo://app?vid=c2733315-eae6-452e-a1ab-9550f9ad7c89","ios":"levelo://app?vid=c2733315-eae6-452e-a1ab-9550f9ad7c89"},"vehicle_type_id":"4","last_reported":1731956813,"current_range_meters":27600,"station_id":"ce4bgl92rcd13ifvqbq0","pricing_plan_id":"cebpf4jnsgd1na2vs0mg"},{"bike_id":"5facb990-bb40-4c9f-a4aa-1ed9dcedde66","system_id":"levelo_inurba_marseille","lat":43.33022,"lon":5.39037,"is_reserved":false,"is_disabled":false,"rental_uris":{"android":"levelo://app?vid=5facb990-bb40-4c9f-a4aa-1ed9dcedde66","ios":"levelo://app?vid=5facb990-bb40-4c9f-a4aa-1ed9dcedde66"},"vehicle_type_id":"4","last_reported":1731956813,"current_range_meters":25200,"station_id":"ce4bhr92rcd13ifvqhrg","pricing_plan_id":"cebpf4jnsgd1na2vs0mg"},{"bike_id":"1a9b2b7f-bafc-4bc5-bab2-74e5a12548ab","system_id":"levelo_inurba_marseille","lat":43.31411,"lon":5.38192,"is_reserved":false,"is_disabled":false,"rental_uris":{"android":"levelo://app?vid=1a9b2b7f-bafc-4bc5-bab2-74e5a12548ab","ios":"levelo://app?vid=1a9b2b7f-bafc-4bc5-bab2-74e5a12548ab"},"vehicle_type_id":"4","last_reported":1731956813,"current_range_meters":38400,"station_id":"","pricing_plan_id":"cebpf4jnsgd1na2vs0mg"},{"bike_id":"0e2bbe61-8f31-47ba-b582-6a82d0b052e0","system_id":"levelo_inurba_marseille","lat":43.29036,"lon":5.38356,"is_reserved":false,"is_disabled":false,"rental_uris":{"android":"levelo://app?vid=0e2bbe61-8f31-47ba-b582-6a82d0b052e0","ios":"levelo://app?vid=0e2bbe61-8f31-47ba-b582-6a82d0b052e0"},"vehicle_type_id":"4","last_reported":1731956813,"current_range_meters":32800,"station_id":"ce4bgip2rcd13ifvqbb0","pricing_plan_id":"cebpf4jnsgd1na2vs0mg"},{"bike_id":"bff402ee-970d-46d4-8d25-a5216fd3bac3","system_id":"levelo_inurba_marseille","lat":43.25004,"lon":5.38919,"is_reserved":false,"is_disabled":true,"rental_uris":{"android":"levelo://app?vid=bff402ee-970d-46d4-8d25-a5216fd3bac3","ios":"levelo://app?vid=bff402ee-970d-46d4-8d25-a5216fd3bac3"},"vehicle_type_id":"4","last_reported":1731956813,"current_range_meters":8000,"station_id":"ce4bhgp2rcd13ifvqfd0","pricing_plan_id":"cebpf4jnsgd1na2vs0mg"},{"bike_id":"c3bc0f64-f384-48a7-9517-04f95522a7e3","system_id":"levelo_inurba_marseille","lat":43.318242,"lon":5.37611,"is_reserved":false,"is_disabled":false,"rental_uris":{"android":"levelo://app?vid=c3bc0f64-f384-48a7-9517-04f95522a7e3","ios":"levelo://app?vid=c3bc0f64-f384-48a7-9517-04f95522a7e3"},"vehicle_type_id":"4","last_reported":1731956813,"current_range_meters":18800,"station_id":"","pricing_plan_id":"cebpf4jnsgd1na2vs0mg"},{"bike_id":"652c9e13-46c8-4c74-a9a3-d4ce31b5591f","system_id":"levelo_inurba_marseille","lat":43.31888,"lon":5.40731,"is_reserved":false,"is_disabled":false,"rental_uris":{"android":"levelo://app?vid=652c9e13-46c8-4c74-a9a3-d4ce31b5591f","ios":"levelo://app?vid=652c9e13-46c8-4c74-a9a3-d4ce31b5591f"},"vehicle_type_id":"4","last_reported":1731956813,"current_range_meters":38800,"station_id":"ce4bhq12rcd13ifvqhig","pricing_plan_id":"cebpf4jnsgd1na2vs0mg"},{"bike_id":"c3adda95-8823-44a7-ab6f-ce72306eabe1","system_id":"levelo_inurba_marseille","lat":43.27423,"lon":5.39413,"is_reserved":false,"is_disabled":true,"rental_uris":{"android":"levelo://app?vid=c3adda95-8823-44a7-ab6f-ce72306eabe1","ios":"levelo://app?vid=c3adda95-8823-44a7-ab6f-ce72306eabe1"},"vehicle_type_id":"4","last_reported":1731956813,"current_range_meters":39200,"station_id":"ce4bhdp2rcd13ifvqf20","pricing_plan_id":"cebpf4jnsgd1na2vs0mg"},{"bike_id":"0a2e4fb8-7c8d-4eb2-b6fb-af8c2b7f3d40","system_id":"levelo_inurba_marseille","lat":43.30549,"lon":5.36708,"is_reserved":false,"is_disabled":true,"rental_uris":{"android":"levelo://app?vid=0a2e4fb8-7c8d-4eb2-b6fb-af8c2b7f3d40","ios":"levelo://app?vid=0a2e4fb8-7c8d-4eb2-b6fb-af8c2b7f3d40"},"vehicle_type_id":"4","last_reported":1731956813,"current_range_meters":13600,"station_id":"ce4bgrp2rcd13ifvqc9g","pricing_plan_id":"cebpf4jnsgd1na2vs0mg"},{"bike_id":"516f73ff-0cad-406c-bce7-59fcdfc34992","system_id":"levelo_inurba_marseille","lat":43.23193,"lon":5.39981,"is_reserved":false,"is_disabled":false,"rental_uris":{"android":"levelo://app?vid=516f73ff-0cad-406c-bce7-59fcdfc34992","ios":"levelo://app?vid=516f73ff-0cad-406c-bce7-59fcdfc34992"},"vehicle_type_id":"4","last_reported":1731956813,"current_range_meters":10800,"station_id":"ce4bhn12rcd13ifvqgqg","pricing_plan_id":"cebpf4jnsgd1na2vs0mg"},{"bike_id":"06fcad9e-8f01-404d-8e82-25e1d4926537","system_id":"levelo_inurba_marseille","lat":43.29845,"lon":5.36274,"is_reserved":false,"is_disabled":false,"rental_uris":{"android":"levelo://app?vid=06fcad9e-8f01-404d-8e82-25e1d4926537","ios":"levelo://app?vid=06fcad9e-8f01-404d-8e82-25e1d4926537"},"vehicle_type_id":"4","last_reported":1731956813,"current_range_meters":24000,"station_id":"ce4bgpp2rcd13ifvqc3g","pricing_plan_id":"cebpf4jnsgd1na2vs0mg"},{"bike_id":"28ef75ad-eb7b-46d6-bd5c-077626bfc471","system_id":"levelo_inurba_marseille","lat":43.30784,"lon":5.3765,"is_reserved":false,"is_disabled":false,"rental_uris":{"android":"levelo://app?vid=28ef75ad-eb7b-46d6-bd5c-077626bfc471","ios":"levelo://app?vid=28ef75ad-eb7b-46d6-bd5c-077626bfc471"},"vehicle_type_id":"4","last_reported":1731956813,"current_range_meters":37600,"station_id":"ce4bgv92rcd13ifvqcq0","pricing_plan_id":"cebpf4jnsgd1na2vs0mg"},{"bike_id":"e1d19d2e-2dc3-48a9-9e47-d2fc54ab151d","system_id":"levelo_inurba_marseille","lat":43.23959,"lon":5.36638,"is_reserved":false,"is_disabled":false,"rental_uris":{"android":"levelo://app?vid=e1d19d2e-2dc3-48a9-9e47-d2fc54ab151d","ios":"levelo://app?vid=e1d19d2e-2dc3-48a9-9e47-d2fc54ab151d"},"vehicle_type_id":"4","last_reported":1731956813,"current_range_meters":38000,"station_id":"ce4bhi12rcd13ifvqfp0","pricing_plan_id":"cebpf4jnsgd1na2vs0mg"},{"bike_id":"df3e2f98-ad5e-451e-9aaf-b4d5087a684f","system_id":"levelo_inurba_marseille","lat":43.335478,"lon":5.409803,"is_reserved":false,"is_disabled":false,"rental_uris":{"android":"levelo://app?vid=df3e2f98-ad5e-451e-9aaf-b4d5087a684f","ios":"levelo://app?vid=df3e2f98-ad5e-451e-9aaf-b4d5087a684f"},"vehicle_type_id":"4","last_reported":1731956813,"current_range_meters":5600,"station_id":"ce4bhq12rcd13ifvqhig","pricing_plan_id":"cebpf4jnsgd1na2vs0mg"},{"bike_id":"638f8d00-ceb3-4062-9f5f-ca647d7df496","system_id":"levelo_inurba_marseille","lat":43.27428,"lon":5.39405,"is_reserved":false,"is_disabled":true,"rental_uris":{"android":"levelo://app?vid=638f8d00-ceb3-4062-9f5f-ca647d7df496","ios":"levelo://app?vid=638f8d00-ceb3-4062-9f5f-ca647d7df496"},"vehicle_type_id":"4","last_reported":1731956813,"current_range_meters":31200,"station_id":"ce4bhdp2rcd13ifvqf20","pricing_plan_id":"cebpf4jnsgd1na2vs0mg"},{"bike_id":"1c9d5a2a-a677-45cf-ae90-9c944e700562","system_id":"levelo_inurba_marseille","lat":43.24168,"lon":5.36395,"is_reserved":false,"is_disabled":false,"rental_uris":{"android":"levelo://app?vid=1c9d5a2a-a677-45cf-ae90-9c944e700562","ios":"levelo://app?vid=1c9d5a2a-a677-45cf-ae90-9c944e700562"},"vehicle_type_id":"4","last_reported":1731956813,"current_range_meters":16800,"station_id":"cpo36qri1sfpv3e86is0","pricing_plan_id":"cebpf4jnsgd1na2vs0mg"},{"bike_id":"4a4eab77-725b-412c-9743-c096390a45fd","system_id":"levelo_inurba_marseille","lat":43.28036,"lon":5.36949,"is_reserved":false,"is_disabled":false,"rental_uris":{"android":"levelo://app?vid=4a4eab77-725b-412c-9743-c096390a45fd","ios":"levelo://app?vid=4a4eab77-725b-412c-9743-c096390a45fd"},"vehicle_type_id":"4","last_reported":1731956813,"current_range_meters":38800,"station_id":"ce4bha12rcd13ifvqef0","pricing_plan_id":"cebpf4jnsgd1na2vs0mg"},{"bike_id":"00c46995-f17a-4f76-abd8-45a07e143650","system_id":"levelo_inurba_marseille","lat":43.27177,"lon":5.4099,"is_reserved":false,"is_disabled":false,"rental_uris":{"android":"levelo://app?vid=00c46995-f17a-4f76-abd8-45a07e143650","ios":"levelo://app?vid=00c46995-f17a-4f76-abd8-45a07e143650"},"vehicle_type_id":"4","last_reported":1731956813,"current_range_meters":33200,"station_id":"ce4bhl12rcd13ifvqgf0","pricing_plan_id":"cebpf4jnsgd1na2vs0mg"},{"bike_id":"f644b4fa-98a0-46e4-a37c-f692601dc455","system_id":"levelo_inurba_marseille","lat":43.25862,"lon":5.39904,"is_reserved":false,"is_disabled":true,"rental_uris":{"android":"levelo://app?vid=f644b4fa-98a0-46e4-a37c-f692601dc455","ios":"levelo://app?vid=f644b4fa-98a0-46e4-a37c-f692601dc455"},"vehicle_type_id":"4","last_reported":1731956813,"current_range_meters":0,"station_id":"ce4bhl92rcd13ifvqghg","pricing_plan_id":"cebpf4jnsgd1na2vs0mg"},{"bike_id":"5b6bc891-12ea-456b-be38-303af3a6bc51","system_id":"levelo_inurba_marseille","lat":43.28002,"lon":5.40006,"is_reserved":false,"is_disabled":false,"rental_uris":{"android":"levelo://app?vid=5b6bc891-12ea-456b-be38-303af3a6bc51","ios":"levelo://app?vid=5b6bc891-12ea-456b-be38-303af3a6bc51"},"vehicle_type_id":"4","last_reported":1731956813,"current_range_meters":38800,"station_id":"ce4bho92rcd13ifvqh4g","pricing_plan_id":"cebpf4jnsgd1na2vs0mg"},{"bike_id":"3f2e793f-445d-48e7-aed6-2086ced939b2","system_id":"levelo_inurba_marseille","lat":43.26505,"lon":5.39546,"is_reserved":false,"is_disabled":true,"rental_uris":{"android":"levelo://app?vid=3f2e793f-445d-48e7-aed6-2086ced939b2","ios":"levelo://app?vid=3f2e793f-445d-48e7-aed6-2086ced939b2"},"vehicle_type_id":"4","last_reported":1731956813,"current_range_meters":0,"station_id":"ce4bhi12rcd13ifvqfq0","pricing_plan_id":"cebpf4jnsgd1na2vs0mg"},{"bike_id":"3d25d818-80cf-415a-996a-afc2d01ce97b","system_id":"levelo_inurba_marseille","lat":43.2779,"lon":5.40723,"is_reserved":false,"is_disabled":false,"rental_uris":{"android":"levelo://app?vid=3d25d818-80cf-415a-996a-afc2d01ce97b","ios":"levelo://app?vid=3d25d818-80cf-415a-996a-afc2d01ce97b"},"vehicle_type_id":"4","last_reported":1731956813,"current_range_meters":20400,"station_id":"ce4bhnh2rcd13ifvqgtg","pricing_plan_id":"cebpf4jnsgd1na2vs0mg"},{"bike_id":"64ed23a0-3533-4dca-8fb9-650aaf2586c1","system_id":"levelo_inurba_marseille","lat":43.31724,"lon":5.42393,"is_reserved":false,"is_disabled":false,"rental_uris":{"android":"levelo://app?vid=64ed23a0-3533-4dca-8fb9-650aaf2586c1","ios":"levelo://app?vid=64ed23a0-3533-4dca-8fb9-650aaf2586c1"},"vehicle_type_id":"4","last_reported":1731956813,"current_range_meters":10800,"station_id":"ce4bhp92rcd13ifvqhbg","pricing_plan_id":"cebpf4jnsgd1na2vs0mg"},{"bike_id":"a618b5c7-4d1b-43b7-b1b4-4f2a06eb8edb","system_id":"levelo_inurba_marseille","lat":43.27995,"lon":5.40006,"is_reserved":false,"is_disabled":false,"rental_uris":{"android":"levelo://app?vid=a618b5c7-4d1b-43b7-b1b4-4f2a06eb8edb","ios":"levelo://app?vid=a618b5c7-4d1b-43b7-b1b4-4f2a06eb8edb"},"vehicle_type_id":"4","last_reported":1731956813,"current_range_meters":15200,"station_id":"ce4bho92rcd13ifvqh4g","pricing_plan_id":"cebpf4jnsgd1na2vs0mg"},{"bike_id":"5fbaf450-90c7-416c-a9b6-8e3b3003c75c","system_id":"levelo_inurba_marseille","lat":43.32482,"lon":5.36569,"is_reserved":false,"is_disabled":false,"rental_uris":{"android":"levelo://app?vid=5fbaf450-90c7-416c-a9b6-8e3b3003c75c","ios":"levelo://app?vid=5fbaf450-90c7-416c-a9b6-8e3b3003c75c"},"vehicle_type_id":"4","last_reported":1731956813,"current_range_meters":38800,"station_id":"ce4bhs12rcd13ifvqhvg","pricing_plan_id":"cebpf4jnsgd1na2vs0mg"},{"bike_id":"2f672a3e-037f-48fa-a067-881af3085117","system_id":"levelo_inurba_marseille","lat":43.30424,"lon":5.41282,"is_reserved":false,"is_disabled":false,"rental_uris":{"android":"levelo://app?vid=2f672a3e-037f-48fa-a067-881af3085117","ios":"levelo://app?vid=2f672a3e-037f-48fa-a067-881af3085117"},"vehicle_type_id":"4","last_reported":1731956813,"current_range_meters":17600,"station_id":"ce4bhop2rcd13ifvqh8g","pricing_plan_id":"cebpf4jnsgd1na2vs0mg"},{"bike_id":"b63d55f4-860b-4ae2-844c-ffcb1a7b50da","system_id":"levelo_inurba_marseille","lat":43.308055,"lon":5.381469,"is_reserved":false,"is_disabled":false,"rental_uris":{"android":"levelo://app?vid=b63d55f4-860b-4ae2-844c-ffcb1a7b50da","ios":"levelo://app?vid=b63d55f4-860b-4ae2-844c-ffcb1a7b50da"},"vehicle_type_id":"4","last_reported":1731956813,"current_range_meters":16000,"station_id":"ce4bgt12rcd13ifvqce0","pricing_plan_id":"cebpf4jnsgd1na2vs0mg"},{"bike_id":"8f9ff61b-d56a-4542-bf57-217372f154b2","system_id":"levelo_inurba_marseille","lat":43.31848,"lon":5.37561,"is_reserved":false,"is_disabled":false,"rental_uris":{"android":"levelo://app?vid=8f9ff61b-d56a-4542-bf57-217372f154b2","ios":"levelo://app?vid=8f9ff61b-d56a-4542-bf57-217372f154b2"},"vehicle_type_id":"4","last_reported":1731956813,"current_range_meters":24400,"station_id":"","pricing_plan_id":"cebpf4jnsgd1na2vs0mg"},{"bike_id":"b07404a1-31a7-42c6-87d5-cad85275c194","system_id":"levelo_inurba_marseille","lat":43.292794,"lon":5.401255,"is_reserved":false,"is_disabled":false,"rental_uris":{"android":"levelo://app?vid=b07404a1-31a7-42c6-87d5-cad85275c194","ios":"levelo://app?vid=b07404a1-31a7-42c6-87d5-cad85275c194"},"vehicle_type_id":"4","last_reported":1731956813,"current_range_meters":36800,"station_id":"ce4bh312rcd13ifvqdk0","pricing_plan_id":"cebpf4jnsgd1na2vs0mg"},{"bike_id":"64dbb36f-f0c2-4718-a476-4d9e6c73a06a","system_id":"levelo_inurba_marseille","lat":43.28464,"lon":5.35882,"is_reserved":false,"is_disabled":false,"rental_uris":{"android":"levelo://app?vid=64dbb36f-f0c2-4718-a476-4d9e6c73a06a","ios":"levelo://app?vid=64dbb36f-f0c2-4718-a476-4d9e6c73a06a"},"vehicle_type_id":"4","last_reported":1731956813,"current_range_meters":27200,"station_id":"ce4bhah2rcd13ifvqei0","pricing_plan_id":"cebpf4jnsgd1na2vs0mg"},{"bike_id":"576c7fdd-3fb0-47d5-931a-93818951fc9a","system_id":"levelo_inurba_marseille","lat":43.2867,"lon":5.38667,"is_reserved":false,"is_disabled":false,"rental_uris":{"android":"levelo://app?vid=576c7fdd-3fb0-47d5-931a-93818951fc9a","ios":"levelo://app?vid=576c7fdd-3fb0-47d5-931a-93818951fc9a"},