{"last_updated":1726956469,"ttl":30,"version":"2.2","data":{"bikes":[{"bike_id":"d6c8088f-c303-42aa-a41b-b070a1bc3589","system_id":"levelo_inurba_marseille","lat":43.24799,"lon":5.37453,"is_reserved":false,"is_disabled":false,"rental_uris":{"android":"levelo://app?vid=d6c8088f-c303-42aa-a41b-b070a1bc3589","ios":"levelo://app?vid=d6c8088f-c303-42aa-a41b-b070a1bc3589"},"vehicle_type_id":"4","last_reported":1726956470,"current_range_meters":20000,"station_id":"ce4bhgh2rcd13ifvqfb0","pricing_plan_id":"cebpf4jnsgd1na2vs0mg"},{"bike_id":"fd84f170-c075-4570-a556-c5e617e29406","system_id":"levelo_inurba_marseille","lat":43.28297,"lon":5.40904,"is_reserved":false,"is_disabled":false,"rental_uris":{"android":"levelo://app?vid=fd84f170-c075-4570-a556-c5e617e29406","ios":"levelo://app?vid=fd84f170-c075-4570-a556-c5e617e29406"},"vehicle_type_id":"4","last_reported":1726956470,"current_range_meters":20400,"station_id":"","pricing_plan_id":"cebpf4jnsgd1na2vs0mg"},{"bike_id":"471d4595-a6f6-4a12-98b4-3e17a6071a63","system_id":"levelo_inurba_marseille","lat":43.280058,"lon":5.400115,"is_reserved":false,"is_disabled":false,"rental_uris":{"android":"levelo://app?vid=471d4595-a6f6-4a12-98b4-3e17a6071a63","ios":"levelo://app?vid=471d4595-a6f6-4a12-98b4-3e17a6071a63"},"vehicle_type_id":"4","last_reported":1726956470,"current_range_meters":39200,"station_id":"ce4bho92rcd13ifvqh4g","pricing_plan_id":"cebpf4jnsgd1na2vs0mg"},{"bike_id":"09ef34b6-482f-4988-9331-10658115e1c1","system_id":"levelo_inurba_marseille","lat":43.31529,"lon":5.38033,"is_reserved":false,"is_disabled":false,"rental_uris":{"android":"levelo://app?vid=09ef34b6-482f-4988-9331-10658115e1c1","ios":"levelo://app?vid=09ef34b6-482f-4988-9331-10658115e1c1"},"vehicle_type_id":"4","last_reported":1726956470,"current_range_meters":20400,"station_id":"ce4bhsp2rcd13ifvqi50","pricing_plan_id":"cebpf4jnsgd1na2vs0mg"},{"bike_id":"05b3d3f0-277c-4707-9e53-54651bbeddc0","system_id":"levelo_inurba_marseille","lat":43.2828,"lon":5.35062,"is_reserved":false,"is_disabled":false,"rental_uris":{"android":"levelo://app?vid=05b3d3f0-277c-4707-9e53-54651bbeddc0","ios":"levelo://app?vid=05b3d3f0-277c-4707-9e53-54651bbeddc0"},"vehicle_type_id":"4","last_reported":1726956470,"current_range_meters":15200,"station_id":"ce4bhbp2rcd13ifvqerg","pricing_plan_id":"cebpf4jnsgd1na2vs0mg"},{"bike_id":"9e921221-89f4-4813-ab71-b523acba55c9","system_id":"levelo_inurba_marseille","lat":43.30881,"lon":5.39643,"is_reserved":false,"is_disabled":false,"rental_uris":{"android":"levelo://app?vid=9e921221-89f4-4813-ab71-b523acba55c9","ios":"levelo://app?vid=9e921221-89f4-4813-ab71-b523acba55c9"},"vehicle_type_id":"4","last_reported":1726956470,"current_range_meters":7200,"station_id":"ce4bh012rcd13ifvqcv0","pricing_plan_id":"cebpf4jnsgd1na2vs0mg"},{"bike_id":"8bb9f58a-7025-4e9c-802b-91c900607241","system_id":"levelo_inurba_marseille","lat":43.29423,"lon":5.38621,"is_reserved":false,"is_disabled":false,"rental_uris":{"android":"levelo://app?vid=8bb9f58a-7025-4e9c-802b-91c900607241","ios":"levelo://app?vid=8bb9f58a-7025-4e9c-802b-91c900607241"},"vehicle_type_id":"4","last_reported":1726956470,"current_range_meters":19200,"station_id":"ce4bh2h2rcd13ifvqdh0","pricing_plan_id":"cebpf4jnsgd1na2vs0mg"},{"bike_id":"a63cc781-8da1-49c5-9c2b-ecc00c0bade3","system_id":"levelo_inurba_marseille","lat":43.31172,"lon":5.38716,"is_reserved":false,"is_disabled":false,"rental_uris":{"android":"levelo://app?vid=a63cc781-8da1-49c5-9c2b-ecc00c0bade3","ios":"levelo://app?vid=a63cc781-8da1-49c5-9c2b-ecc00c0bade3"},"vehicle_type_id":"4","last_reported":1726956470,"current_range_meters":24800,"station_id":"ce4bgv12rcd13ifvqcp0","pricing_plan_id":"cebpf4jnsgd1na2vs0mg"},{"bike_id":"edbb5496-0c94-4700-a91b-1965b1b6dd03","system_id":"levelo_inurba_marseille","lat":43.29025,"lon":5.38638,"is_reserved":false,"is_disabled":false,"rental_uris":{"android":"levelo://app?vid=edbb5496-0c94-4700-a91b-1965b1b6dd03","ios":"levelo://app?vid=edbb5496-0c94-4700-a91b-1965b1b6dd03"},"vehicle_type_id":"4","last_reported":1726956470,"current_range_meters":27200,"station_id":"ce4bh4p2rcd13ifvqe0g","pricing_plan_id":"cebpf4jnsgd1na2vs0mg"},{"bike_id":"0c110f2c-9234-4be0-85f9-d0af8c13d9bc","system_id":"levelo_inurba_marseille","lat":43.29627,"lon":5.406,"is_reserved":false,"is_disabled":false,"rental_uris":{"android":"levelo://app?vid=0c110f2c-9234-4be0-85f9-d0af8c13d9bc","ios":"levelo://app?vid=0c110f2c-9234-4be0-85f9-d0af8c13d9bc"},"vehicle_type_id":"4","last_reported":1726956470,"current_range_meters":38000,"station_id":"ce4bh0h2rcd13ifvqd60","pricing_plan_id":"cebpf4jnsgd1na2vs0mg"},{"bike_id":"32baf909-358d-4c6d-932b-260e32e5b6d4","system_id":"levelo_inurba_marseille","lat":43.28705,"lon":5.39984,"is_reserved":false,"is_disabled":false,"rental_uris":{"android":"levelo://app?vid=32baf909-358d-4c6d-932b-260e32e5b6d4","ios":"levelo://app?vid=32baf909-358d-4c6d-932b-260e32e5b6d4"},"vehicle_type_id":"4","last_reported":1726956470,"current_range_meters":37600,"station_id":"ce4bho92rcd13ifvqh3g","pricing_plan_id":"cebpf4jnsgd1na2vs0mg"},{"bike_id":"a98aea78-8fc1-42f2-8dc1-a416e10032d7","system_id":"levelo_inurba_marseille","lat":43.31356,"lon":5.38493,"is_reserved":false,"is_disabled":false,"rental_uris":{"android":"levelo://app?vid=a98aea78-8fc1-42f2-8dc1-a416e10032d7","ios":"levelo://app?vid=a98aea78-8fc1-42f2-8dc1-a416e10032d7"},"vehicle_type_id":"4","last_reported":1726956470,"current_range_meters":2800,"station_id":"ce4bgt92rcd13ifvqcf0","pricing_plan_id":"cebpf4jnsgd1na2vs0mg"},{"bike_id":"89cdcc83-7aab-4c78-8e76-aa0ccb30eb08","system_id":"levelo_inurba_marseille","lat":43.31714,"lon":5.43708,"is_reserved":false,"is_disabled":false,"rental_uris":{"android":"levelo://app?vid=89cdcc83-7aab-4c78-8e76-aa0ccb30eb08","ios":"levelo://app?vid=89cdcc83-7aab-4c78-8e76-aa0ccb30eb08"},"vehicle_type_id":"4","last_reported":1726956470,"current_range_meters":24000,"station_id":"ce4bhp92rcd13ifvqhcg","pricing_plan_id":"cebpf4jnsgd1na2vs0mg"},{"bike_id":"192ab39d-1d6c-4d0e-92f0-62fa03baae18","system_id":"levelo_inurba_marseille","lat":43.31367,"lon":5.385,"is_reserved":false,"is_disabled":false,"rental_uris":{"android":"levelo://app?vid=192ab39d-1d6c-4d0e-92f0-62fa03baae18","ios":"levelo://app?vid=192ab39d-1d6c-4d0e-92f0-62fa03baae18"},"vehicle_type_id":"4","last_reported":1726956470,"current_range_meters":17200,"station_id":"ce4bgt92rcd13ifvqcf0","pricing_plan_id":"cebpf4jnsgd1na2vs0mg"},{"bike_id":"f7d9c8c0-512e-4533-b4ee-666b76405ac2","system_id":"levelo_inurba_marseille","lat":43.29887,"lon":5.38913,"is_reserved":false,"is_disabled":false,"rental_uris":{"android":"levelo://app?vid=f7d9c8c0-512e-4533-b4ee-666b76405ac2","ios":"levelo://app?vid=f7d9c8c0-512e-4533-b4ee-666b76405ac2"},"vehicle_type_id":"4","last_reported":1726956470,"current_range_meters":16400,"station_id":"ce4bh392rcd13ifvqdl0","pricing_plan_id":"cebpf4jnsgd1na2vs0mg"},{"bike_id":"f6153498-302e-48b7-ac4d-b25f8d056815","system_id":"levelo_inurba_marseille","lat":43.29706,"lon":5.37395,"is_reserved":false,"is_disabled":false,"rental_uris":{"android":"levelo://app?vid=f6153498-302e-48b7-ac4d-b25f8d056815","ios":"levelo://app?vid=f6153498-302e-48b7-ac4d-b25f8d056815"},"vehicle_type_id":"4","last_reported":1726956470,"current_range_meters":20000,"station_id":"","pricing_plan_id":"cebpf4jnsgd1na2vs0mg"},{"bike_id":"83e7d9bb-1995-40e1-a926-e82c63968681","system_id":"levelo_inurba_marseille","lat":43.284637,"lon":5.3921,"is_reserved":false,"is_disabled":false,"rental_uris":{"android":"levelo://app?vid=83e7d9bb-1995-40e1-a926-e82c63968681","ios":"levelo://app?vid=83e7d9bb-1995-40e1-a926-e82c63968681"},"vehicle_type_id":"4","last_reported":1726956470,"current_range_meters":2800,"station_id":"ce4bhoh2rcd13ifvqh5g","pricing_plan_id":"cebpf4jnsgd1na2vs0mg"},{"bike_id":"d7110171-9395-4012-bade-0282d04d79f6","system_id":"levelo_inurba_marseille","lat":43.31362,"lon":5.38503,"is_reserved":false,"is_disabled":false,"rental_uris":{"android":"levelo://app?vid=d7110171-9395-4012-bade-0282d04d79f6","ios":"levelo://app?vid=d7110171-9395-4012-bade-0282d04d79f6"},"vehicle_type_id":"4","last_reported":1726956470,"current_range_meters":3600,"station_id":"ce4bgt92rcd13ifvqcf0","pricing_plan_id":"cebpf4jnsgd1na2vs0mg"},{"bike_id":"797bf7f9-3a34-4b7c-9ca4-f3086ed9d032","system_id":"levelo_inurba_marseille","lat":43.29031,"lon":5.38646,"is_reserved":false,"is_disabled":false,"rental_uris":{"android":"levelo://app?vid=797bf7f9-3a34-4b7c-9ca4-f3086ed9d032","ios":"levelo://app?vid=797bf7f9-3a34-4b7c-9ca4-f3086ed9d032"},"vehicle_type_id":"4","last_reported":1726956470,"current_range_meters":38800,"station_id":"ce4bh4p2rcd13ifvqe0g","pricing_plan_id":"cebpf4jnsgd1na2vs0mg"},{"bike_id":"f1a1b266-38cd-4948-a071-219f89de7e58","system_id":"levelo_inurba_marseille","lat":43.28689,"lon":5.37382,"is_reserved":false,"is_disabled":false,"rental_uris":{"android":"levelo://app?vid=f1a1b266-38cd-4948-a071-219f89de7e58","ios":"levelo://app?vid=f1a1b266-38cd-4948-a071-219f89de7e58"},"vehicle_type_id":"4","last_reported":1726956470,"current_range_meters":33600,"station_id":"ce4bh3p2rcd13ifvqdq0","pricing_plan_id":"cebpf4jnsgd1na2vs0mg"},{"bike_id":"29c3801a-7b4c-47aa-a6ad-d81b447de9a5","system_id":"levelo_inurba_marseille","lat":43.30417,"lon":5.4129,"is_reserved":false,"is_disabled":false,"rental_uris":{"android":"levelo://app?vid=29c3801a-7b4c-47aa-a6ad-d81b447de9a5","ios":"levelo://app?vid=29c3801a-7b4c-47aa-a6ad-d81b447de9a5"},"vehicle_type_id":"4","last_reported":1726956470,"current_range_meters":28400,"station_id":"ce4bhop2rcd13ifvqh8g","pricing_plan_id":"cebpf4jnsgd1na2vs0mg"},{"bike_id":"139813f4-74c8-4e15-a7df-8ee61537a030","system_id":"levelo_inurba_marseille","lat":43.23965,"lon":5.36634,"is_reserved":false,"is_disabled":false,"rental_uris":{"android":"levelo://app?vid=139813f4-74c8-4e15-a7df-8ee61537a030","ios":"levelo://app?vid=139813f4-74c8-4e15-a7df-8ee61537a030"},"vehicle_type_id":"4","last_reported":1726956470,"current_range_meters":24800,"station_id":"ce4bhi12rcd13ifvqfp0","pricing_plan_id":"cebpf4jnsgd1na2vs0mg"},{"bike_id":"b9043ee7-1b51-4205-a7f8-061a93eb7c50","system_id":"levelo_inurba_marseille","lat":43.31888,"lon":5.40728,"is_reserved":false,"is_disabled":false,"rental_uris":{"android":"levelo://app?vid=b9043ee7-1b51-4205-a7f8-061a93eb7c50","ios":"levelo://app?vid=b9043ee7-1b51-4205-a7f8-061a93eb7c50"},"vehicle_type_id":"4","last_reported":1726956470,"current_range_meters":37600,"station_id":"ce4bhq12rcd13ifvqhig","pricing_plan_id":"cebpf4jnsgd1na2vs0mg"},{"bike_id":"3c168981-3815-461f-893b-90b4ce403053","system_id":"levelo_inurba_marseille","lat":43.25867,"lon":5.39895,"is_reserved":false,"is_disabled":false,"rental_uris":{"android":"levelo://app?vid=3c168981-3815-461f-893b-90b4ce403053","ios":"levelo://app?vid=3c168981-3815-461f-893b-90b4ce403053"},"vehicle_type_id":"4","last_reported":1726956470,"current_range_meters":27200,"station_id":"ce4bhl92rcd13ifvqghg","pricing_plan_id":"cebpf4jnsgd1na2vs0mg"},{"bike_id":"3f3a1968-161c-4281-9dac-b1f6f3f79cd0","system_id":"levelo_inurba_marseille","lat":43.27494,"lon":5.42449,"is_reserved":false,"is_disabled":false,"rental_uris":{"android":"levelo://app?vid=3f3a1968-161c-4281-9dac-b1f6f3f79cd0","ios":"levelo://app?vid=3f3a1968-161c-4281-9dac-b1f6f3f79cd0"},"vehicle_type_id":"4","last_reported":1726956470,"current_range_meters":19600,"station_id":"ce4bhn92rcd13ifvqgrg","pricing_plan_id":"cebpf4jnsgd1na2vs0mg"},{"bike_id":"5555a5b5-088d-4c14-9b11-5b965fcc3403","system_id":"levelo_inurba_marseille","lat":43.29538,"lon":5.38544,"is_reserved":false,"is_disabled":false,"rental_uris":{"android":"levelo://app?vid=5555a5b5-088d-4c14-9b11-5b965fcc3403","ios":"levelo://app?vid=5555a5b5-088d-4c14-9b11-5b965fcc3403"},"vehicle_type_id":"4","last_reported":1726956470,"current_range_meters":37600,"station_id":"ce4bgih2rcd13ifvqba0","pricing_plan_id":"cebpf4jnsgd1na2vs0mg"},{"bike_id":"5e1eeb3b-811e-4bb1-adae-2832aa2ad05f","system_id":"levelo_inurba_marseille","lat":43.30141,"lon":5.37422,"is_reserved":false,"is_disabled":false,"rental_uris":{"android":"levelo://app?vid=5e1eeb3b-811e-4bb1-adae-2832aa2ad05f","ios":"levelo://app?vid=5e1eeb3b-811e-4bb1-adae-2832aa2ad05f"},"vehicle_type_id":"4","last_reported":1726956470,"current_range_meters":25600,"station_id":"ce4bgs92rcd13ifvqcc0","pricing_plan_id":"cebpf4jnsgd1na2vs0mg"},{"bike_id":"769aa380-47af-43dd-aae0-a3742784d091","system_id":"levelo_inurba_marseille","lat":43.29514,"lon":5.394,"is_reserved":false,"is_disabled":false,"rental_uris":{"android":"levelo://app?vid=769aa380-47af-43dd-aae0-a3742784d091","ios":"levelo://app?vid=769aa380-47af-43dd-aae0-a3742784d091"},"vehicle_type_id":"4","last_reported":1726956470,"current_range_meters":27200,"station_id":"ce4bh292rcd13ifvqdf0","pricing_plan_id":"cebpf4jnsgd1na2vs0mg"},{"bike_id":"ebabfaca-3986-4d00-be3b-c82a93b1fd1c","system_id":"levelo_inurba_marseille","lat":43.31365,"lon":5.38495,"is_reserved":false,"is_disabled":false,"rental_uris":{"android":"levelo://app?vid=ebabfaca-3986-4d00-be3b-c82a93b1fd1c","ios":"levelo://app?vid=ebabfaca-3986-4d00-be3b-c82a93b1fd1c"},"vehicle_type_id":"4","last_reported":1726956470,"current_range_meters":8800,"station_id":"ce4bgt92rcd13ifvqcf0","pricing_plan_id":"cebpf4jnsgd1na2vs0mg"},{"bike_id":"62d1882c-a800-4e22-a2f4-dfbdf75c7337","system_id":"levelo_inurba_marseille","lat":43.3136,"lon":5.38496,"is_reserved":false,"is_disabled":false,"rental_uris":{"android":"levelo://app?vid=62d1882c-a800-4e22-a2f4-dfbdf75c7337","ios":"levelo://app?vid=62d1882c-a800-4e22-a2f4-dfbdf75c7337"},"vehicle_type_id":"4","last_reported":1726956470,"current_range_meters":36000,"station_id":"ce4bgt92rcd13ifvqcf0","pricing_plan_id":"cebpf4jnsgd1na2vs0mg"},{"bike_id":"765fcc44-248d-45e5-95bf-89cb71612a65","system_id":"levelo_inurba_marseille","lat":43.29251,"lon":5.40915,"is_reserved":false,"is_disabled":false,"rental_uris":{"android":"levelo://app?vid=765fcc44-248d-45e5-95bf-89cb71612a65","ios":"levelo://app?vid=765fcc44-248d-45e5-95bf-89cb71612a65"},"vehicle_type_id":"4","last_reported":1726956470,"current_range_meters":27200,"station_id":"ce4bh192rcd13ifvqdc0","pricing_plan_id":"cebpf4jnsgd1na2vs0mg"},{"bike_id":"3cdbf2d7-bbfd-4bfc-872d-26e3d23bc7cf","system_id":"levelo_inurba_marseille","lat":43.3266,"lon":5.40994,"is_reserved":false,"is_disabled":false,"rental_uris":{"android":"levelo://app?vid=3cdbf2d7-bbfd-4bfc-872d-26e3d23bc7cf","ios":"levelo://app?vid=3cdbf2d7-bbfd-4bfc-872d-26e3d23bc7cf"},"vehicle_type_id":"4","last_reported":1726956470,"current_range_meters":28000,"station_id":"ce4bhpp2rcd13ifvqhgg","pricing_plan_id":"cebpf4jnsgd1na2vs0mg"},{"bike_id":"fce2583f-d181-4213-bc60-59986246c80f","system_id":"levelo_inurba_marseille","lat":43.31356,"lon":5.38496,"is_reserved":false,"is_disabled":false,"rental_uris":{"android":"levelo://app?vid=fce2583f-d181-4213-bc60-59986246c80f","ios":"levelo://app?vid=fce2583f-d181-4213-bc60-59986246c80f"},"vehicle_type_id":"4","last_reported":1726956470,"current_range_meters":9200,"station_id":"ce4bgt92rcd13ifvqcf0","pricing_plan_id":"cebpf4jnsgd1na2vs0mg"},{"bike_id":"86931fd8-028b-44d3-9ef7-b27c26729fee","system_id":"levelo_inurba_marseille","lat":43.29765,"lon":5.39349,"is_reserved":false,"is_disabled":false,"rental_uris":{"android":"levelo://app?vid=86931fd8-028b-44d3-9ef7-b27c26729fee","ios":"levelo://app?vid=86931fd8-028b-44d3-9ef7-b27c26729fee"},"vehicle_type_id":"4","last_reported":1726956470,"current_range_meters":39200,"station_id":"chh1huq6cuj3fo74tm60","pricing_plan_id":"cebpf4jnsgd1na2vs0mg"},{"bike_id":"bc263bf5-20a1-4ba2-aabd-537a1ca16121","system_id":"levelo_inurba_marseille","lat":43.29419,"lon":5.38629,"is_reserved":false,"is_disabled":false,"rental_uris":{"android":"levelo://app?vid=bc263bf5-20a1-4ba2-aabd-537a1ca16121","ios":"levelo://app?vid=bc263bf5-20a1-4ba2-aabd-537a1ca16121"},"vehicle_type_id":"4","last_reported":1726956470,"current_range_meters":8400,"station_id":"ce4bh2h2rcd13ifvqdh0","pricing_plan_id":"cebpf4jnsgd1na2vs0mg"},{"bike_id":"fe6f06e3-532c-4b69-ba49-0d605444bd5f","system_id":"levelo_inurba_marseille","lat":43.29911,"lon":5.37462,"is_reserved":false,"is_disabled":false,"rental_uris":{"android":"levelo://app?vid=fe6f06e3-532c-4b69-ba49-0d605444bd5f","ios":"levelo://app?vid=fe6f06e3-532c-4b69-ba49-0d605444bd5f"},"vehicle_type_id":"4","last_reported":1726956470,"current_range_meters":37600,"station_id":"ce4bgjh2rcd13ifvqbg0","pricing_plan_id":"cebpf4jnsgd1na2vs0mg"},{"bike_id":"ca3b7afa-847c-402c-8294-d17899d2225b","system_id":"levelo_inurba_marseille","lat":43.2796,"lon":5.38732,"is_reserved":false,"is_disabled":false,"rental_uris":{"android":"levelo://app?vid=ca3b7afa-847c-402c-8294-d17899d2225b","ios":"levelo://app?vid=ca3b7afa-847c-402c-8294-d17899d2225b"},"vehicle_type_id":"4","last_reported":1726956470,"current_range_meters":26000,"station_id":"ce4bhg12rcd13ifvqf80","pricing_plan_id":"cebpf4jnsgd1na2vs0mg"},{"bike_id":"6f1ebe60-fb80-480a-9eec-b69e669e9336","system_id":"levelo_inurba_marseille","lat":43.25503,"lon":5.37651,"is_reserved":false,"is_disabled":false,"rental_uris":{"android":"levelo://app?vid=6f1ebe60-fb80-480a-9eec-b69e669e9336","ios":"levelo://app?vid=6f1ebe60-fb80-480a-9eec-b69e669e9336"},"vehicle_type_id":"4","last_reported":1726956470,"current_range_meters":5600,"station_id":"ce4bhh12rcd13ifvqff0","pricing_plan_id":"cebpf4jnsgd1na2vs0mg"},{"bike_id":"9b8e8c86-a645-45a9-8909-a0e727518ce6","system_id":"levelo_inurba_marseille","lat":43.28654,"lon":5.36349,"is_reserved":false,"is_disabled":false,"rental_uris":{"android":"levelo://app?vid=9b8e8c86-a645-45a9-8909-a0e727518ce6","ios":"levelo://app?vid=9b8e8c86-a645-45a9-8909-a0e727518ce6"},"vehicle_type_id":"4","last_reported":1726956470,"current_range_meters":5600,"station_id":"ce4bhah2rcd13ifvqej0","pricing_plan_id":"cebpf4jnsgd1na2vs0mg"},{"bike_id":"2abfd0da-52ff-49fd-a5cb-a8f4dd818089","system_id":"levelo_inurba_marseille","lat":43.28158,"lon":5.42653,"is_reserved":false,"is_disabled":false,"rental_uris":{"android":"levelo://app?vid=2abfd0da-52ff-49fd-a5cb-a8f4dd818089","ios":"levelo://app?vid=2abfd0da-52ff-49fd-a5cb-a8f4dd818089"},"vehicle_type_id":"4","last_reported":1726956470,"current_range_meters":38800,"station_id":"ce4bhnh2rcd13ifvqgug","pricing_plan_id":"cebpf4jnsgd1na2vs0mg"},{"bike_id":"edfb1ff5-b81b-4225-8da9-100a9115b1e3","system_id":"levelo_inurba_marseille","lat":43.29735,"lon":5.36561,"is_reserved":false,"is_disabled":false,"rental_uris":{"android":"levelo://app?vid=edfb1ff5-b81b-4225-8da9-100a9115b1e3","ios":"levelo://app?vid=edfb1ff5-b81b-4225-8da9-100a9115b1e3"},"vehicle_type_id":"4","last_reported":1726956470,"current_range_meters":6400,"station_id":"","pricing_plan_id":"cebpf4jnsgd1na2vs0mg"},{"bike_id":"8fbbcdce-7e5a-416e-9a2c-f2453666cae6","system_id":"levelo_inurba_marseille","lat":43.28107,"lon":5.37829,"is_reserved":false,"is_disabled":false,"rental_uris":{"android":"levelo://app?vid=8fbbcdce-7e5a-416e-9a2c-f2453666cae6","ios":"levelo://app?vid=8fbbcdce-7e5a-416e-9a2c-f2453666cae6"},"vehicle_type_id":"4","last_reported":1726956470,"current_range_meters":36400,"station_id":"ce4bha12rcd13ifvqee0","pricing_plan_id":"cebpf4jnsgd1na2vs0mg"},{"bike_id":"8730acfb-c8b2-426d-aa48-0ec9be9d6218","system_id":"levelo_inurba_marseille","lat":43.28933,"lon":5.38383,"is_reserved":false,"is_disabled":false,"rental_uris":{"android":"levelo://app?vid=8730acfb-c8b2-426d-aa48-0ec9be9d6218","ios":"levelo://app?vid=8730acfb-c8b2-426d-aa48-0ec9be9d6218"},"vehicle_type_id":"4","last_reported":1726956470,"current_range_meters":3200,"station_id":"ce4bh612rcd13ifvqe6g","pricing_plan_id":"cebpf4jnsgd1na2vs0mg"},{"bike_id":"1e36dc23-aa9d-4cac-91fc-380ccf78f185","system_id":"levelo_inurba_marseille","lat":43.29891,"lon":5.39756,"is_reserved":false,"is_disabled":false,"rental_uris":{"android":"levelo://app?vid=1e36dc23-aa9d-4cac-91fc-380ccf78f185","ios":"levelo://app?vid=1e36dc23-aa9d-4cac-91fc-380ccf78f185"},"vehicle_type_id":"4","last_reported":1726956470,"current_range_meters":38800,"station_id":"ce4bh0h2rcd13ifvqd50","pricing_plan_id":"cebpf4jnsgd1na2vs0mg"},{"bike_id":"631488bc-ca0a-465d-b540-dc0fc292dcb4","system_id":"levelo_inurba_marseille","lat":43.31356,"lon":5.38499,"is_reserved":false,"is_disabled":false,"rental_uris":{"android":"levelo://app?vid=631488bc-ca0a-465d-b540-dc0fc292dcb4","ios":"levelo://app?vid=631488bc-ca0a-465d-b540-dc0fc292dcb4"},"vehicle_type_id":"4","last_reported":1726956470,"current_range_meters":18000,"station_id":"ce4bgt92rcd13ifvqcf0","pricing_plan_id":"cebpf4jnsgd1na2vs0mg"},{"bike_id":"d80d6624-57db-4b1a-a776-dd614c437e7a","system_id":"levelo_inurba_marseille","lat":43.30543,"lon":5.3655,"is_reserved":false,"is_disabled":false,"rental_uris":{"android":"levelo://app?vid=d80d6624-57db-4b1a-a776-dd614c437e7a","ios":"levelo://app?vid=d80d6624-57db-4b1a-a776-dd614c437e7a"},"vehicle_type_id":"4","last_reported":1726956470,"current_range_meters":38800,"station_id":"ce4bgs12rcd13ifvqcag","pricing_plan_id":"cebpf4jnsgd1na2vs0mg"},{"bike_id":"2a078445-4245-41e8-a2ec-aad2d864a707","system_id":"levelo_inurba_marseille","lat":43.27902,"lon":5.38003,"is_reserved":false,"is_disabled":false,"rental_uris":{"android":"levelo://app?vid=2a078445-4245-41e8-a2ec-aad2d864a707","ios":"levelo://app?vid=2a078445-4245-41e8-a2ec-aad2d864a707"},"vehicle_type_id":"4","last_reported":1726956470,"current_range_meters":13600,"station_id":"ce4bhf92rcd13ifvqf50","pricing_plan_id":"cebpf4jnsgd1na2vs0mg"},{"bike_id":"eb51972c-e901-47c9-aa4c-bb287b81e5fb","system_id":"levelo_inurba_marseille","lat":43.31757,"lon":5.3902,"is_reserved":false,"is_disabled":false,"rental_uris":{"android":"levelo://app?vid=eb51972c-e901-47c9-aa4c-bb287b81e5fb","ios":"levelo://app?vid=eb51972c-e901-47c9-aa4c-bb287b81e5fb"},"vehicle_type_id":"4","last_reported":1726956470,"current_range_meters":38800,"station_id":"ce4bhqp2rcd13ifvqhng","pricing_plan_id":"cebpf4jnsgd1na2vs0mg"},{"bike_id":"9b270c0b-276d-47a0-b1ea-db76f7a1e4e2","system_id":"levelo_inurba_marseille","lat":43.27375,"lon":5.36254,"is_reserved":false,"is_disabled":false,"rental_uris":{"android":"levelo://app?vid=9b270c0b-276d-47a0-b1ea-db76f7a1e4e2","ios":"levelo://app?vid=9b270c0b-276d-47a0-b1ea-db76f7a1e4e2"},"vehicle_type_id":"4","last_reported":1726956470,"current_range_meters":38800,"station_id":"ce4bhbh2rcd13ifvqeo0","pricing_plan_id":"cebpf4jnsgd1na2vs0mg"},{"bike_id":"03bad859-4358-4bb4-9b18-007f8463f1b5","system_id":"levelo_inurba_marseille","lat":43.2318,"lon":5.39988,"is_reserved":false,"is_disabled":false,"rental_uris":{"android":"levelo://app?vid=03bad859-4358-4bb4-9b18-007f8463f1b5","ios":"levelo://app?vid=03bad859-4358-4bb4-9b18-007f8463f1b5"},"vehicle_type_id":"4","last_reported":1726956470,"current_range_meters":22800,"station_id":"ce4bhn12rcd13ifvqgqg","pricing_plan_id":"cebpf4jnsgd1na2vs0mg"},{"bike_id":"72893abd-c62a-46e9-b638-e54ec5476bce","system_id":"levelo_inurba_marseille","lat":43.304352,"lon":5.41304,"is_reserved":false,"is_disabled":false,"rental_uris":{"android":"levelo://app?vid=72893abd-c62a-46e9-b638-e54ec5476bce","ios":"levelo://app?vid=72893abd-c62a-46e9-b638-e54ec5476bce"},"vehicle_type_id":"4","last_reported":1726956470,"current_range_meters":23200,"station_id":"ce4bhop2rcd13ifvqh8g","pricing_plan_id":"cebpf4jnsgd1na2vs0mg"},{"bike_id":"ea219450-0551-484e-bdfc-3c198bec9523","system_id":"levelo_inurba_marseille","lat":43.25871,"lon":5.39897,"is_reserved":false,"is_disabled":false,"rental_uris":{"android":"levelo://app?vid=ea219450-0551-484e-bdfc-3c198bec9523","ios":"levelo://app?vid=ea219450-0551-484e-bdfc-3c198bec9523"},"vehicle_type_id":"4","last_reported":1726956470,"current_range_meters":24400,"station_id":"ce4bhl92rcd13ifvqghg","pricing_plan_id":"cebpf4jnsgd1na2vs0mg"},{"bike_id":"1acee133-f313-4d90-8b46-80ddf8fa5494","system_id":"levelo_inurba_marseille","lat":43.24658,"lon":5.38895,"is_reserved":false,"is_disabled":false,"rental_uris":{"android":"levelo://app?vid=1acee133-f313-4d90-8b46-80ddf8fa5494","ios":"levelo://app?vid=1acee133-f313-4d90-8b46-80ddf8fa5494"},"vehicle_type_id":"4","last_reported":1726956470,"current_range_meters":12800,"station_id":"ce4bhg12rcd13ifvqf60","pricing_plan_id":"cebpf4jnsgd1na2vs0mg"},{"bike_id":"d3c8bcf3-ce9a-45dd-8fb2-5e123cc5d07b","system_id":"levelo_inurba_marseille","lat":43.30244,"lon":5.40078,"is_reserved":false,"is_disabled":false,"rental_uris":{"android":"levelo://app?vid=d3c8bcf3-ce9a-45dd-8fb2-5e123cc5d07b","ios":"levelo://app?vid=d3c8bcf3-ce9a-45dd-8fb2-5e123cc5d07b"},"vehicle_type_id":"4","last_reported":1726956470,"current_range_meters":16800,"station_id":"ce4bgvh2rcd13ifvqcs0","pricing_plan_id":"cebpf4jnsgd1na2vs0mg"},{"bike_id":"ac42eb2a-831f-44d6-9e0b-81838770d7a8","system_id":"levelo_inurba_marseille","lat":43.30423,"lon":5.38888,"is_reserved":false,"is_disabled":false,"rental_uris":{"android":"levelo://app?vid=ac42eb2a-831f-44d6-9e0b-81838770d7a8","ios":"levelo://app?vid=ac42eb2a-831f-44d6-9e0b-81838770d7a8"},"vehicle_type_id":"4","last_reported":1726956470,"current_range_meters":36400,"station_id":"ce4bgk12rcd13ifvqbi0","pricing_plan_id":"cebpf4jnsgd1na2vs0mg"},{"bike_id":"73c7be31-c09e-4d3b-a821-d101f9423d42","system_id":"levelo_inurba_marseille","lat":43.29514,"lon":5.394,"is_reserved":false,"is_disabled":false,"rental_uris":{"android":"levelo://app?vid=73c7be31-c09e-4d3b-a821-d101f9423d42","ios":"levelo://app?vid=73c7be31-c09e-4d3b-a821-d101f9423d42"},"vehicle_type_id":"4","last_reported":1726956470,"current_range_meters":24400,"station_id":"ce4bh292rcd13ifvqdf0","pricing_plan_id":"cebpf4jnsgd1na2vs0mg"},{"bike_id":"9e0efb9e-b74c-46c1-b670-2ef9a6e39873","system_id":"levelo_inurba_marseille","lat":43.29419,"lon":5.38627,"is_reserved":false,"is_disabled":false,"rental_uris":{"android":"levelo://app?vid=9e0efb9e-b74c-46c1-b670-2ef9a6e39873","ios":"levelo://app?vid=9e0efb9e-b74c-46c1-b670-2ef9a6e39873"},"vehicle_type_id":"4","last_reported":1726956470,"current_range_meters":9600,"station_id":"ce4bh2h2rcd13ifvqdh0","pricing_plan_id":"cebpf4jnsgd1na2vs0mg"},{"bike_id":"7b52389f-d37c-472b-9231-bd5fac9b0858","system_id":"levelo_inurba_marseille","lat":43.2942,"lon":5.38625,"is_reserved":false,"is_disabled":false,"rental_uris":{"android":"levelo://app?vid=7b52389f-d37c-472b-9231-bd5fac9b0858","ios":"levelo://app?vid=7b52389f-d37c-472b-9231-bd5fac9b0858"},"vehicle_type_id":"4","last_reported":1726956470,"current_range_meters":31200,"station_id":"ce4bh2h2rcd13ifvqdh0","pricing_plan_id":"cebpf4jnsgd1na2vs0mg"},{"bike_id":"b8551741-31d4-463a-9ee0-5ca196eb1a9b","system_id":"levelo_inurba_marseille","lat":43.3031,"lon":5.36897,"is_reserved":false,"is_disabled":false,"rental_uris":{"android":"levelo://app?vid=b8551741-31d4-463a-9ee0-5ca196eb1a9b","ios":"levelo://app?vid=b8551741-31d4-463a-9ee0-5ca196eb1a9b"},"vehicle_type_id":"4","last_reported":1726956470,"current_range_meters":39200,"station_id":"ce4bgqh2rcd13ifvqc5g","pricing_plan_id":"cebpf4jnsgd1na2vs0mg"},{"bike_id":"d0c4130d-b4cc-4fdc-a74a-2a4a57298361","system_id":"levelo_inurba_marseille","lat":43.29198,"lon":5.39325,"is_reserved":false,"is_disabled":false,"rental_uris":{"android":"levelo://app?vid=d0c4130d-b4cc-4fdc-a74a-2a4a57298361","ios":"levelo://app?vid=d0c4130d-b4cc-4fdc-a74a-2a4a57298361"},"vehicle_type_id":"4","last_reported":1726956470,"current_range_meters":9600,"station_id":"ce4bh192rcd13ifvqdd0","pricing_plan_id":"cebpf4jnsgd1na2vs0mg"},{"bike_id":"38c4787b-3262-4750-bd86-0d940a72a75e","system_id":"levelo_inurba_marseille","lat":43.284411,"lon":5.392118,"is_reserved":false,"is_disabled":false,"rental_uris":{"android":"levelo://app?vid=38c4787b-3262-4750-bd86-0d940a72a75e","ios":"levelo://app?vid=38c4787b-3262-4750-bd86-0d940a72a75e"},"vehicle_type_id":"4","last_reported":1726956470,"current_range_meters":24400,"station_id":"ce4bhoh2rcd13ifvqh5g","pricing_plan_id":"cebpf4jnsgd1na2vs0mg"},{"bike_id":"69a0448c-62ca-4d59-accd-22ee47f945ef","system_id":"levelo_inurba_marseille","lat":43.26061,"lon":5.39398,"is_reserved":false,"is_disabled":false,"rental_uris":{"android":"levelo://app?vid=69a0448c-62ca-4d59-accd-22ee47f945ef","ios":"levelo://app?vid=69a0448c-62ca-4d59-accd-22ee47f945ef"},"vehicle_type_id":"4","last_reported":1726956470,"current_range_meters":38800,"station_id":"ce4bhh92rcd13ifvqfj0","pricing_plan_id":"cebpf4jnsgd1na2vs0mg"},{"bike_id":"54b7f973-33ed-4b77-bfc3-7847058bc7a6","system_id":"levelo_inurba_marseille","lat":43.31727,"lon":5.42404,"is_reserved":false,"is_disabled":false,"rental_uris":{"android":"levelo://app?vid=54b7f973-33ed-4b77-bfc3-7847058bc7a6","ios":"levelo://app?vid=54b7f973-33ed-4b77-bfc3-7847058bc7a6"},"vehicle_type_id":"4","last_reported":1726956470,"current_range_meters":38800,"station_id":"ce4bhp92rcd13ifvqhbg","pricing_plan_id":"cebpf4jnsgd1na2vs0mg"},{"bike_id":"324838dc-eded-4141-be86-0d69b3166d8a","system_id":"levelo_inurba_marseille","lat":43.23458,"lon":5.38112,"is_reserved":false,"is_disabled":false,"rental_uris":{"android":"levelo://app?vid=324838dc-eded-4141-be86-0d69b3166d8a","ios":"levelo://app?vid=324838dc-eded-4141-be86-0d69b3166d8a"},"vehicle_type_id":"4","last_reported":1726956470,"current_range_meters":10800,"station_id":"","pricing_plan_id":"cebpf4jnsgd1na2vs0mg"},{"bike_id":"eb9f67ff-4867-449f-b00d-9cbb0674363e","system_id":"levelo_inurba_marseille","lat":43.29026,"lon":5.38107,"is_reserved":false,"is_disabled":false,"rental_uris":{"android":"levelo://app?vid=eb9f67ff-4867-449f-b00d-9cbb0674363e","ios":"levelo://app?vid=eb9f67ff-4867-449f-b00d-9cbb0674363e"},"vehicle_type_id":"4","last_reported":1726956470,"current_range_meters":38800,"station_id":"ce4bh4p2rcd13ifvqe1g","pricing_plan_id":"cebpf4jnsgd1na2vs0mg"},{"bike_id":"423f020e-2129-42e2-848b-369681b4cc36","system_id":"levelo_inurba_marseille","lat":43.2921,"lon":5.39328,"is_reserved":false,"is_disabled":false,"rental_uris":{"android":"levelo://app?vid=423f020e-2129-42e2-848b-369681b4cc36","ios":"levelo://app?vid=423f020e-2129-42e2-848b-369681b4cc36"},"vehicle_type_id":"4","last_reported":1726956470,"current_range_meters":38400,"station_id":"ce4bh192rcd13ifvqdd0","pricing_plan_id":"cebpf4jnsgd1na2vs0mg"},{"bike_id":"5419b1bf-d37c-4076-a34c-52ede101758e","system_id":"levelo_inurba_marseille","lat":43.337444,"lon":5.374475,"is_reserved":false,"is_disabled":false,"rental_uris":{"android":"levelo://app?vid=5419b1bf-d37c-4076-a34c-52ede101758e","ios":"levelo://app?vid=5419b1bf-d37c-4076-a34c-52ede101758e"},"vehicle_type_id":"4","last_reported":1726956470,"current_range_meters":30800,"station_id":"","pricing_plan_id":"cebpf4jnsgd1na2vs0mg"},{"bike_id":"24183c46-3f62-49d7-bb95-50a1439b95e2","system_id":"levelo_inurba_marseille","lat":43.24388,"lon":5.37061,"is_reserved":false,"is_disabled":false,"rental_uris":{"android":"levelo://app?vid=24183c46-3f62-49d7-bb95-50a1439b95e2","ios":"levelo://app?vid=24183c46-3f62-49d7-bb95-50a1439b95e2"},"vehicle_type_id":"4","last_reported":1726956470,"current_range_meters":2800,"station_id":"ce4bhhh2rcd13ifvqfk0","pricing_plan_id":"cebpf4jnsgd1na2vs0mg"},{"bike_id":"013a1a54-8c71-4d7d-ad66-178705a1f09a","system_id":"levelo_inurba_marseille","lat":43.2587,"lon":5.39898,"is_reserved":false,"is_disabled":false,"rental_uris":{"android":"levelo://app?vid=013a1a54-8c71-4d7d-ad66-178705a1f09a","ios":"levelo://app?vid=013a1a54-8c71-4d7d-ad66-178705a1f09a"},"vehicle_type_id":"4","last_reported":1726956470,"current_range_meters":38800,"station_id":"ce4bhl92rcd13ifvqghg","pricing_plan_id":"cebpf4jnsgd1na2vs0mg"},{"bike_id":"3d11801b-4666-46ed-99aa-aabfb05b911e","system_id":"levelo_inurba_marseille","lat":43.31997,"lon":5.38148,"is_reserved":false,"is_disabled":false,"rental_uris":{"android":"levelo://app?vid=3d11801b-4666-46ed-99aa-aabfb05b911e","ios":"levelo://app?vid=3d11801b-4666-46ed-99aa-aabfb05b911e"},"vehicle_type_id":"4","last_reported":1726956470,"current_range_meters":38800,"station_id":"ce4bhr12rcd13ifvqhpg","pricing_plan_id":"cebpf4jnsgd1na2vs0mg"},{"bike_id":"41ee961b-4aaa-4ac0-ad2e-205246d953ad","system_id":"levelo_inurba_marseille","lat":43.28106,"lon":5.37846,"is_reserved":false,"is_disabled":false,"rental_uris":{"android":"levelo://app?vid=41ee961b-4aaa-4ac0-ad2e-205246d953ad","ios":"levelo://app?vid=41ee961b-4aaa-4ac0-ad2e-205246d953ad"},"vehicle_type_id":"4","last_reported":1726956470,"current_range_meters":11600,"station_id":"ce4bha12rcd13ifvqee0","pricing_plan_id":"cebpf4jnsgd1na2vs0mg"},{"bike_id":"0789c753-7296-4e61-9942-17d9551f6f04","system_id":"levelo_inurba_marseille","lat":43.29093,"lon":5.38144,"is_reserved":false,"is_disabled":false,"rental_uris":{"android":"levelo://app?vid=0789c753-7296-4e61-9942-17d9551f6f04","ios":"levelo://app?vid=0789c753-7296-4e61-9942-17d9551f6f04"},"vehicle_type_id":"4","last_reported":1726956470,"current_range_meters":38800,"station_id":"ce4bh512rcd13ifvqe2g","pricing_plan_id":"cebpf4jnsgd1na2vs0mg"},{"bike_id":"470259e3-b1c4-4a86-b9be-ae3f1006b367","system_id":"levelo_inurba_marseille","lat":43.31331,"lon":5.39689,"is_reserved":false,"is_disabled":false,"rental_uris":{"android":"levelo://app?vid=470259e3-b1c4-4a86-b9be-ae3f1006b367","ios":"levelo://app?vid=470259e3-b1c4-4a86-b9be-ae3f1006b367"},"vehicle_type_id":"4","last_reported":1726956470,"current_range_meters":38800,"station_id":"ce4bgvp2rcd13ifvqcu0","pricing_plan_id":"cebpf4jnsgd1na2vs0mg"},{"bike_id":"848a7124-d854-4e9a-ac74-74bbf445da50","system_id":"levelo_inurba_marseille","lat":43.28365,"lon":5.38625,"is_reserved":false,"is_disabled":false,"rental_uris":{"android":"levelo://app?vid=848a7124-d854-4e9a-ac74-74bbf445da50","ios":"levelo://app?vid=848a7124-d854-4e9a-ac74-74bbf445da50"},"vehicle_type_id":"4","last_reported":1726956470,"current_range_meters":17600,"station_id":"ce4bh492rcd13ifvqdvg","pricing_plan_id":"cebpf4jnsgd1na2vs0mg"},{"bike_id":"6e2fd8fb-799c-468d-a60b-38d2bf81aa37","system_id":"levelo_inurba_marseille","lat":43.23957,"lon":5.36625,"is_reserved":false,"is_disabled":false,"rental_uris":{"android":"levelo://app?vid=6e2fd8fb-799c-468d-a60b-38d2bf81aa37","ios":"levelo://app?vid=6e2fd8fb-799c-468d-a60b-38d2bf81aa37"},"vehicle_type_id":"4","last_reported":1726956470,"current_range_meters":37600,"station_id":"ce4bhi12rcd13ifvqfp0","pricing_plan_id":"cebpf4jnsgd1na2vs0mg"},{"bike_id":"5f970973-f4f4-4937-9fbe-7af0359838f0","system_id":"levelo_inurba_marseille","lat":43.32343,"lon":5.40621,"is_reserved":false,"is_disabled":false,"rental_uris":{"android":"levelo://app?vid=5f970973-f4f4-4937-9fbe-7af0359838f0","ios":"levelo://app?vid=5f970973-f4f4-4937-9fbe-7af0359838f0"},"vehicle_type_id":"4","last_reported":1726956470,"current_range_meters":29600,"station_id":"ce4bhq92rcd13ifvqhjg","pricing_plan_id":"cebpf4jnsgd1na2vs0mg"},{"bike_id":"f59f9f07-2020-454d-8f62-ca65292624a4","system_id":"levelo_inurba_marseille","lat":43.31326,"lon":5.39701,"is_reserved":false,"is_disabled":false,"rental_uris":{"android":"levelo://app?vid=f59f9f07-2020-454d-8f62-ca65292624a4","ios":"levelo://app?vid=f59f9f07-2020-454d-8f62-ca65292624a4"},"vehicle_type_id":"4","last_reported":1726956470,"current_range_meters":38800,"station_id":"ce4bgvp2rcd13ifvqcu0","pricing_plan_id":"cebpf4jnsgd1na2vs0mg"},{"bike_id":"4d6f1b65-a95d-4510-bfbf-2bbf8ac25c86","system_id":"levelo_inurba_marseille","lat":43.31534,"lon":5.38037,"is_reserved":false,"is_disabled":false,"rental_uris":{"android":"levelo://app?vid=4d6f1b65-a95d-4510-bfbf-2bbf8ac25c86","ios":"levelo://app?vid=4d6f1b65-a95d-4510-bfbf-2bbf8ac25c86"},"vehicle_type_id":"4","last_reported":1726956470,"current_range_meters":37600,"station_id":"ce4bhsp2rcd13ifvqi50","pricing_plan_id":"cebpf4jnsgd1na2vs0mg"},{"bike_id":"f196cae4-4da8-4191-8e3a-3f8fcdaa11a6","system_id":"levelo_inurba_marseille","lat":43.31074,"lon":5.38363,"is_reserved":false,"is_disabled":false,"rental_uris":{"android":"levelo://app?vid=f196cae4-4da8-4191-8e3a-3f8fcdaa11a6","ios":"levelo://app?vid=f196cae4-4da8-4191-8e3a-3f8fcdaa11a6"},"vehicle_type_id":"4","last_reported":1726956470,"current_range_meters":36400,"station_id":"ce4bgv92rcd13ifvqcr0","pricing_plan_id":"cebpf4jnsgd1na2vs0mg"},{"bike_id":"d45967ed-8556-4fdd-b155-3dd503464baa","system_id":"levelo_inurba_marseille","lat":43.29561,"lon":5.42296,"is_reserved":false,"is_disabled":false,"rental_uris":{"android":"levelo://app?vid=d45967ed-8556-4fdd-b155-3dd503464baa","ios":"levelo://app?vid=d45967ed-8556-4fdd-b155-3dd503464baa"},"vehicle_type_id":"4","last_reported":1726956470,"current_range_meters":19600,"station_id":"ce4bhph2rcd13ifvqhdg","pricing_plan_id":"cebpf4jnsgd1na2vs0mg"},{"bike_id":"149779fc-bc45-458a-857f-33707eedaf6a","system_id":"levelo_inurba_marseille","lat":43.23189,"lon":5.35554,"is_reserved":false,"is_disabled":false,"rental_uris":{"android":"levelo://app?vid=149779fc-bc45-458a-857f-33707eedaf6a","ios":"levelo://app?vid=149779fc-bc45-458a-857f-33707eedaf6a"},"vehicle_type_id":"4","last_reported":1726956470,"current_range_meters":18800,"station_id":"ce4bhu92rcd13ifvqi70","pricing_plan_id":"cebpf4jnsgd1na2vs0mg"},{"bike_id":"adea4142-201e-4d62-8b5f-c33b95d4ba3b","system_id":"levelo_inurba_marseille","lat":43.29444,"lon":5.39758,"is_reserved":false,"is_disabled":false,"rental_uris":{"android":"levelo://app?vid=adea4142-201e-4d62-8b5f-c33b95d4ba3b","ios":"levelo://app?vid=adea4142-201e-4d62-8b5f-c33b95d4ba3b"},"vehicle_type_id":"4","last_reported":1726956470,"current_range_meters":37600,"station_id":"ce4bh3h2rcd13ifvqdo0","pricing_plan_id":"cebpf4jnsgd1na2vs0mg"},{"bike_id":"61a9b8a7-9ccd-441e-9f1c-f2b68a748f3f","system_id":"levelo_inurba_marseille","lat":43.26488,"lon":5.39551,"is_reserved":false,"is_disabled":false,"rental_uris":{"android":"levelo://app?vid=61a9b8a7-9ccd-441e-9f1c-f2b68a748f3f","ios":"levelo://app?vid=61a9b8a7-9ccd-441e-9f1c-f2b68a748f3f"},"vehicle_type_id":"4","last_reported":1726956470,"current_range_meters":38800,"station_id":"ce4bhi12rcd13ifvqfq0","pricing_plan_id":"cebpf4jnsgd1na2vs0mg"},{"bike_id":"f2826cdc-7638-4ffc-bb08-a612586ce316","system_id":"levelo_inurba_marseille","lat":43.25109,"lon":5.40321,"is_reserved":false,"is_disabled":false,"rental_uris":{"android":"levelo://app?vid=f2826cdc-7638-4ffc-bb08-a612586ce316","ios":"levelo://app?vid=f2826cdc-7638-4ffc-bb08-a612586ce316"},"vehicle_type_id":"4","last_reported":1726956470,"current_range_meters":35600,"station_id":"ce4bhlh2rcd13ifvqgig","pricing_plan_id":"cebpf4jnsgd1na2vs0mg"},{"bike_id":"039d98d7-7c59-426e-931f-998890f6dd69","system_id":"levelo_inurba_marseille","lat":43.23152,"lon":5.43713,"is_reserved":false,"is_disabled":false,"rental_uris":{"android":"levelo://app?vid=039d98d7-7c59-426e-931f-998890f6dd69","ios":"levelo://app?vid=039d98d7-7c59-426e-931f-998890f6dd69"},"vehicle_type_id":"4","last_reported":1726956470,"current_range_meters":8800,"station_id":"ce4bhmp2rcd13ifvqgog","pricing_plan_id":"cebpf4jnsgd1na2vs0mg"},{"bike_id":"d1a7c670-84be-4413-83a8-34963ddc1e32","system_id":"levelo_inurba_marseille","lat":43.29958,"lon":5.41319,"is_reserved":false,"is_disabled":false,"rental_uris":{"android":"levelo://app?vid=d1a7c670-84be-4413-83a8-34963ddc1e32","ios":"levelo://app?vid=d1a7c670-84be-4413-83a8-34963ddc1e32"},"vehicle_type_id":"4","last_reported":1726956470,"current_range_meters":38000,"station_id":"ce4bhp12rcd13ifvqh9g","pricing_plan_id":"cebpf4jnsgd1na2vs0mg"},{"bike_id":"3029a821-4f09-426b-9136-c97c9c0dcd3a","system_id":"levelo_inurba_marseille","lat":43.26492,"lon":5.39557,"is_reserved":false,"is_disabled":false,"rental_uris":{"android":"levelo://app?vid=3029a821-4f09-426b-9136-c97c9c0dcd3a","ios":"levelo://app?vid=3029a821-4f09-426b-9136-c97c9c0dcd3a"},"vehicle_type_id":"4","last_reported":1726956470,"current_range_meters":38800,"station_id":"ce4bhi12rcd13ifvqfq0","pricing_plan_id":"cebpf4jnsgd1na2vs0mg"},{"bike_id":"604c9531-be4f-4974-bfe2-bd7828d7386f","system_id":"levelo_inurba_marseille","lat":43.29896,"lon":5.4367,"is_reserved":false,"is_disabled":false,"rental_uris":{"android":"levelo://app?vid=604c9531-be4f-4974-bfe2-bd7828d7386f","ios":"levelo://app?vid=604c9531-be4f-4974-bfe2-bd7828d7386f"},"vehicle_type_id":"4","last_reported":1726956470,"current_range_meters":21600,"station_id":"ce4bhpp2rcd13ifvqhfg","pricing_plan_id":"cebpf4jnsgd1na2vs0mg"},{"bike_id":"1f3a3473-3fe1-47b2-88c5-6d07c135debc","system_id":"levelo_inurba_marseille","lat":43.295225,"lon":5.375043,"is_reserved":false,"is_disabled":false,"rental_uris":{"android":"levelo://app?vid=1f3a3473-3fe1-47b2-88c5-6d07c135debc","ios":"levelo://app?vid=1f3a3473-3fe1-47b2-88c5-6d07c135debc"},"vehicle_type_id":"4","last_reported":1726956470,"current_range_meters":37600,"station_id":"ce4bh3p2rcd13ifvqdp0","pricing_plan_id":"cebpf4jnsgd1na2vs0mg"},{"bike_id":"dffd4f54-b346-4788-86ea-8f518e84719a","system_id":"levelo_inurba_marseille","lat":43.31883,"lon":5.4074,"is_reserved":false,"is_disabled":false,"rental_uris":{"android":"levelo://app?vid=dffd4f54-b346-4788-86ea-8f518e84719a","ios":"levelo://app?vid=dffd4f54-b346-4788-86ea-8f518e84719a"},"vehicle_type_id":"4","last_reported":1726956470,"current_range_meters":23200,"station_id":"ce4bhq12rcd13ifvqhig","pricing_plan_id":"cebpf4jnsgd1na2vs0mg"},{"bike_id":"90d8a09e-2181-4187-81ec-24698bc4e496","system_id":"levelo_inurba_marseille","lat":43.28702,"lon":5.39978,"is_reserved":false,"is_disabled":false,"rental_uris":{"android":"levelo://app?vid=90d8a09e-2181-4187-81ec-24698bc4e496","ios":"levelo://app?vid=90d8a09e-2181-4187-81ec-24698bc4e496"},"vehicle_type_id":"4","last_reported":1726956470,"current_range_meters":16000,"station_id":"ce4bho92rcd13ifvqh3g","pricing_plan_id":"cebpf4jnsgd1na2vs0mg"},{"bike_id":"7c45df27-7ef6-468e-b331-208ce3ceb575","system_id":"levelo_inurba_marseille","lat":43.29533,"lon":5.3854,"is_reserved":false,"is_disabled":false,"rental_uris":{"android":"levelo://app?vid=7c45df27-7ef6-468e-b331-208ce3ceb575","ios":"levelo://app?vid=7c45df27-7ef6-468e-b331-208ce3ceb575"},"vehicle_type_id":"4","last_reported":1726956470,"current_range_meters":34000,"station_id":"ce4bh3p2rcd13ifvqdq0","pricing_plan_id":"cebpf4jnsgd1na2vs0mg"},{"bike_id":"ef73c412-c9cf-4fe5-b2f2-97659f297fa2","system_id":"levelo_inurba_marseille","lat":43.28105,"lon":5.37846,"is_reserved":false,"is_disabled":false,"rental_uris":{"android":"levelo://app?vid=ef73c412-c9cf-4fe5-b2f2-97659f297fa2","ios":"levelo://app?vid=ef73c412-c9cf-4fe5-b2f2-97659f297fa2"},"vehicle_type_id":"4","last_reported":1726956470,"current_range_meters":24000,"station_id":"ce4bha12rcd13ifvqee0","pricing_plan_id":"cebpf4jnsgd1na2vs0mg"},{"bike_id":"09705ec6-7c6d-482a-906a-7ef8aeaf7154","system_id":"levelo_inurba_marseille","lat":43.29434,"lon":5.38623,"is_reserved":false,"is_disabled":false,"rental_uris":{"android":"levelo://app?vid=09705ec6-7c6d-482a-906a-7ef8aeaf7154","ios":"levelo://app?vid=09705ec6-7c6d-482a-906a-7ef8aeaf7154"},"vehicle_type_id":"4","last_reported":1726956470,"current_range_meters":9200,"station_id":"ce4bh2h2rcd13ifvqdh0","pricing_plan_id":"cebpf4jnsgd1na2vs0mg"},{"bike_id":"da2fc361-4a22-4fa7-9190-b354d110645b","system_id":"levelo_inurba_marseille","lat":43.29676,"lon":5.37293,"is_reserved":false,"is_disabled":false,"rental_uris":{"android":"levelo://app?vid=da2fc361-4a22-4fa7-9190-b354d110645b","ios":"levelo://app?vid=da2fc361-4a22-4fa7-9190-b354d110645b"},"vehicle_type_id":"4","last_reported":1726956470,"current_range_meters":38800,"station_id":"ce4bgk12rcd13ifvqbj0","pricing_plan_id":"cebpf4jnsgd1na2vs0mg"},{"bike_id":"a8d42cf3-65fd-4e73-93d7-47142c435399","system_id":"levelo_inurba_marseille","lat":43.34378,"lon":5.40844,"is_reserved":false,"is_disabled":false,"rental_uris":{"android":"levelo://app?vid=a8d42cf3-65fd-4e73-93d7-47142c435399","ios":"levelo://app?vid=a8d42cf3-65fd-4e73-93d7-47142c435399"},"vehicle_type_id":"4","last_reported":1726956470,"current_range_meters":24800,"station_id":"","pricing_plan_id":"cebpf4jnsgd1na2vs0mg"},{"bike_id":"70c59413-39ae-491c-b378-e84d6bd04937","system_id":"levelo_inurba_marseille","lat":43.29523,"lon":5.38537,"is_reserved":false,"is_disabled":false,"rental_uris":{"android":"levelo://app?vid=70c59413-39ae-491c-b378-e84d6bd04937","ios":"levelo://app?vid=70c59413-39ae-491c-b378-e84d6bd04937"},"vehicle_type_id":"4","last_reported":1726956470,"current_range_meters":8000,"station_id":"ce4bgih2rcd13ifvqba0","pricing_plan_id":"cebpf4jnsgd1na2vs0mg"},{"bike_id":"2747e2c1-9ef7-4c7f-b359-70679c357edc","system_id":"levelo_inurba_marseille","lat":43.33024,"lon":5.39044,"is_reserved":false,"is_disabled":false,"rental_uris":{"android":"levelo://app?vid=2747e2c1-9ef7-4c7f-b359-70679c357edc","ios":"levelo://app?vid=2747e2c1-9ef7-4c7f-b359-70679c357edc"},"vehicle_type_id":"4","last_reported":1726956470,"current_range_meters":32800,"station_id":"ce4bhr92rcd13ifvqhrg","pricing_plan_id":"cebpf4jnsgd1na2vs0mg"},{"bike_id":"ca6cfcad-1e5e-46e0-bcbd-4d4375771e42","system_id":"levelo_inurba_marseille","lat":43.29447,"lon":5.39746,"is_reserved":false,"is_disabled":false,"rental_uris":{"android":"levelo://app?vid=ca6cfcad-1e5e-46e0-bcbd-4d4375771e42","ios":"levelo://app?vid=ca6cfcad-1e5e-46e0-bcbd-4d4375771e42"},"vehicle_type_id":"4","last_reported":1726956470,"current_range_meters":30400,"station_id":"ce4bh3h2rcd13ifvqdo0","pricing_plan_id":"cebpf4jnsgd1na2vs0mg"},{"bike_id":"eb0e566e-7d71-4cc0-bc76-de33a9fd73a8","system_id":"levelo_inurba_marseille","lat":43.23189,"lon":5.35547,"is_reserved":false,"is_disabled":false,"rental_uris":{"android":"levelo://app?vid=eb0e566e-7d71-4cc0-bc76-de33a9fd73a8","ios":"levelo://app?vid=eb0e566e-7d71-4cc0-bc76-de33a9fd73a8"},"vehicle_type_id":"4","last_reported":1726956470,"current_range_meters":38800,"station_id":"ce4bhu92rcd13ifvqi70","pricing_plan_id":"cebpf4jnsgd1na2vs0mg"},{"bike_id":"6922abe7-0799-44bc-8bb7-c59742963b7b","system_id":"levelo_inurba_marseille","lat":43.287071,"lon":5.399962,"is_reserved":false,"is_disabled":false,"rental_uris":{"android":"levelo://app?vid=6922abe7-0799-44bc-8bb7-c59742963b7b","ios":"levelo://app?vid=6922abe7-0799-44bc-8bb7-c59742963b7b"},"vehicle_type_id":"4","last_reported":1726956470,"current_range_meters":22000,"station_id":"ce4bho92rcd13ifvqh3g","pricing_plan_id":"cebpf4jnsgd1na2vs0mg"},{"bike_id":"04999a37-2436-4404-8c16-cd85cf9b7a10","system_id":"levelo_inurba_marseille","lat":43.33024,"lon":5.39045,"is_reserved":false,"is_disabled":false,"rental_uris":{"android":"levelo://app?vid=04999a37-2436-4404-8c16-cd85cf9b7a10","ios":"levelo://app?vid=04999a37-2436-4404-8c16-cd85cf9b7a10"},"vehicle_type_id":"4","last_reported":1726956470,"current_range_meters":38800,"station_id":"ce4bhr92rcd13ifvqhrg","pricing_plan_id":"cebpf4jnsgd1na2vs0mg"},{"bike_id":"3fbf41e5-61ac-43e4-b61d-239be8b751eb","system_id":"levelo_inurba_marseille","lat":43.29027,"lon":5.38635,"is_reserved":false,"is_disabled":false,"rental_uris":{"android":"levelo://app?vid=3fbf41e5-61ac-43e4-b61d-239be8b751eb","ios":"levelo://app?vid=3fbf41e5-61ac-43e4-b61d-239be8b751eb"},"vehicle_type_id":"4","last_reported":1726956470,"current_range_meters":38400,"station_id":"ce4bh4p2rcd13ifvqe0g","pricing_plan_id":"cebpf4jnsgd1na2vs0mg"},{"bike_id":"c90889c6-4c61-48f2-b140-89043e514d7b","system_id":"levelo_inurba_marseille","lat":43.2594,"lon":5.409,"is_reserved":false,"is_disabled":false,"rental_uris":{"android":"levelo://app?vid=c90889c6-4c61-48f2-b140-89043e514d7b","ios":"levelo://app?vid=c90889c6-4c61-48f2-b140-89043e514d7b"},"vehicle_type_id":"4","last_reported":1726956470,"current_range_meters":4800,"station_id":"ce4bhm92rcd13ifvqglg","pricing_plan_id":"cebpf4jnsgd1na2vs0mg"},{"bike_id":"b9ed473c-04e3-4cf6-84bf-28bfa3738b26","system_id":"levelo_inurba_marseille","lat":43.26217,"lon":5.37448,"is_reserved":false,"is_disabled":false,"rental_uris":{"android":"levelo://app?vid=b9ed473c-04e3-4cf6-84bf-28bfa3738b26","ios":"levelo://app?vid=b9ed473c-04e3-4cf6-84bf-28bfa3738b26"},"vehicle_type_id":"4","last_reported":1726956470,"current_range_meters":30800,"station_id":"","pricing_plan_id":"cebpf4jnsgd1na2vs0mg"},{"bike_id":"ed564cd2-38af-4711-af4b-cfb81096839b","system_id":"levelo_inurba_marseille","lat":43.31167,"lon":5.38709,"is_reserved":false,"is_disabled":false,"rental_uris":{"android":"levelo://app?vid=ed564cd2-38af-4711-af4b-cfb81096839b","ios":"levelo://app?vid=ed564cd2-38af-4711-af4b-cfb81096839b"},"vehicle_type_id":"4","last_reported":1726956470,"current_range_meters":17200,"station_id":"ce4bgv12rcd13ifvqcp0","pricing_plan_id":"cebpf4jnsgd1na2vs0mg"},{"bike_id":"f23dc631-c722-4468-ba44-e9f53d7f19cd","system_id":"levelo_inurba_marseille","lat":43.28721,"lon":5.36091,"is_reserved":false,"is_disabled":false,"rental_uris":{"android":"levelo://app?vid=f23dc631-c722-4468-ba44-e9f53d7f19cd","ios":"levelo://app?vid=f23dc631-c722-4468-ba44-e9f53d7f19cd"},"vehicle_type_id":"4","last_reported":1726956470,"current_range_meters":3600,"station_id":"cki0cbj6b192h4jlfktg","pricing_plan_id":"cebpf4jnsgd1na2vs0mg"},{"bike_id":"5d991e98-79d5-4dc0-9a6a-d2306ad42c9d","system_id":"levelo_inurba_marseille","lat":43.29563,"lon":5.42277,"is_reserved":false,"is_disabled":false,"rental_uris":{"android":"levelo://app?vid=5d991e98-79d5-4dc0-9a6a-d2306ad42c9d","ios":"levelo://app?vid=5d991e98-79d5-4dc0-9a6a-d2306ad42c9d"},"vehicle_type_id":"4","last_reported":1726956470,"current_range_meters":38800,"station_id":"ce4bhph2rcd13ifvqhdg","pricing_plan_id":"cebpf4jnsgd1na2vs0mg"},{"bike_id":"3588ed4b-a839-4c36-8772-3fa913acb2d5","system_id":"levelo_inurba_marseille","lat":43.30331,"lon":5.40442,"is_reserved":false,"is_disabled":false,"rental_uris":{"android":"levelo://app?vid=3588ed4b-a839-4c36-8772-3fa913acb2d5","ios":"levelo://app?vid=3588ed4b-a839-4c36-8772-3fa913acb2d5"},"vehicle_type_id":"4","last_reported":1726956470,"current_range_meters":38800,"station_id":"ce4bh012rcd13ifvqd10","pricing_plan_id":"cebpf4jnsgd1na2vs0mg"},{"bike_id":"e5a1c0e7-6dbe-4fc0-91d4-a39431861126","system_id":"levelo_inurba_marseille","lat":43.26941,"lon":5.40252,"is_reserved":false,"is_disabled":false,"rental_uris":{"android":"levelo://app?vid=e5a1c0e7-6dbe-4fc0-91d4-a39431861126","ios":"levelo://app?vid=e5a1c0e7-6dbe-4fc0-91d4-a39431861126"},"vehicle_type_id":"4","last_reported":1726956470,"current_range_meters":38800,"station_id":"cjm6bp8fraef2m0cb0m0","pricing_plan_id":"cebpf4jnsgd1na2vs0mg"},{"bike_id":"db3e6781-6aaf-49ab-a69b-f951f8ee4f70","system_id":"levelo_inurba_marseille","lat":43.31364,"lon":5.38496,"is_reserved":false,"is_disabled":false,"rental_uris":{"android":"levelo://app?vid=db3e6781-6aaf-49ab-a69b-f951f8ee4f70","ios":"levelo://app?vid=db3e6781-6aaf-49ab-a69b-f951f8ee4f70"},"vehicle_type_id":"4","last_reported":1726956470,"current_range_meters":27200,"station_id":"ce4bgt92rcd13ifvqcf0","pricing_plan_id":"cebpf4jnsgd1na2vs0mg"},{"bike_id":"7b9dd459-340b-4978-bfb0-6c163a5263e8","system_id":"levelo_inurba_marseille","lat":43.23193,"lon":5.35547,"is_reserved":false,"is_disabled":false,"rental_uris":{"android":"levelo://app?vid=7b9dd459-340b-4978-bfb0-6c163a5263e8","ios":"levelo://app?vid=7b9dd459-340b-4978-bfb0-6c163a5263e8"},"vehicle_type_id":"4","last_reported":1726956470,"current_range_meters":38800,"station_id":"ce4bhu92rcd13ifvqi70","pricing_plan_id":"cebpf4jnsgd1na2vs0mg"},{"bike_id":"5fe6825b-17bc-43ae-830e-abec195e7a6f","system_id":"levelo_inurba_marseille","lat":43.292542,"lon":5.38421,"is_reserved":false,"is_disabled":false,"rental_uris":{"android":"levelo://app?vid=5fe6825b-17bc-43ae-830e-abec195e7a6f","ios":"levelo://app?vid=5fe6825b-17bc-43ae-830e-abec195e7a6f"},"vehicle_type_id":"4","last_reported":1726956470,"current_range_meters":29600,"station_id":"ce4bhap2rcd13ifvqek0","pricing_plan_id":"cebpf4jnsgd1na2vs0mg"},{"bike_id":"9eb342ac-6683-4b0e-9068-9b33551dfa85","system_id":"levelo_inurba_marseille","lat":43.273721,"lon":5.362612,"is_reserved":false,"is_disabled":false,"rental_uris":{"android":"levelo://app?vid=9eb342ac-6683-4b0e-9068-9b33551dfa85","ios":"levelo://app?vid=9eb342ac-6683-4b0e-9068-9b33551dfa85"},"vehicle_type_id":"4","last_reported":1726956470,"current_range_meters":1200,"station_id":"ce4bhbh2rcd13ifvqeo0","pricing_plan_id":"cebpf4jnsgd1na2vs0mg"},{"bike_id":"82596a06-ff6c-4fb5-be3f-fd6ac5718f7c","system_id":"levelo_inurba_marseille","lat":43.31327,"lon":5.39693,"is_reserved":false,"is_disabled":false,"rental_uris":{"android":"levelo://app?vid=82596a06-ff6c-4fb5-be3f-fd6ac5718f7c","ios":"levelo://app?vid=82596a06-ff6c-4fb5-be3f-fd6ac5718f7c"},"vehicle_type_id":"4","last_reported":1726956470,"current_range_meters":22800,"station_id":"ce4bgvp2rcd13ifvqcu0","pricing_plan_id":"cebpf4jnsgd1na2vs0mg"},{"bike_id":"cd7bc105-ab4a-412c-8bcd-f9fb1c68c73a","system_id":"levelo_inurba_marseille","lat":43.290387,"lon":5.386406,"is_reserved":false,"is_disabled":false,"rental_uris":{"android":"levelo://app?vid=cd7bc105-ab4a-412c-8bcd-f9fb1c68c73a","ios":"levelo://app?vid=cd7bc105-ab4a-412c-8bcd-f9fb1c68c73a"},"vehicle_type_id":"4","last_reported":1726956470,"current_range_meters":12800,"station_id":"ce4bh4p2rcd13ifvqe0g","pricing_plan_id":"cebpf4jnsgd1na2vs0mg"},{"bike_id":"36ea34aa-955a-48e2-b4cd-0defaa557440","system_id":"levelo_inurba_marseille","lat":43.29449,"lon":5.39751,"is_reserved":false,"is_disabled":false,"rental_uris":{"android":"levelo://app?vid=36ea34aa-955a-48e2-b4cd-0defaa557440","ios":"levelo://app?vid=36ea34aa-955a-48e2-b4cd-0defaa557440"},"vehicle_type_id":"4","last_reported":1726956470,"current_range_meters":3200,"station_id":"ce4bh3h2rcd13ifvqdo0","pricing_plan_id":"cebpf4jnsgd1na2vs0mg"},{"bike_id":"71aa8592-ddf7-4343-aed4-c00d3433340f","system_id":"levelo_inurba_marseille","lat":43.337444,"lon":5.374475,"is_reserved":false,"is_disabled":false,"rental_uris":{"android":"levelo://app?vid=71aa8592-ddf7-4343-aed4-c00d3433340f","ios":"levelo://app?vid=71aa8592-ddf7-4343-aed4-c00d3433340f"},"vehicle_type_id":"4","last_reported":1726956470,"current_range_meters":34000,"station_id":"","pricing_plan_id":"cebpf4jnsgd1na2vs0mg"},{"bike_id":"3740c6df-06cd-419b-9ae6-b8d9e5eff548","system_id":"levelo_inurba_marseille","lat":43.2753,"lon":5.40935,"is_reserved":false,"is_disabled":false,"rental_uris":{"android":"levelo://app?vid=3740c6df-06cd-419b-9ae6-b8d9e5eff548","ios":"levelo://app?vid=3740c6df-06cd-419b-9ae6-b8d9e5eff548"},"vehicle_type_id":"4","last_reported":1726956470,"current_range_meters":16400,"station_id":"","pricing_plan_id":"cebpf4jnsgd1na2vs0mg"},{"bike_id":"c416d47b-78f0-43eb-bd10-52cd2f01cf9a","system_id":"levelo_inurba_marseille","lat":43.31071,"lon":5.38361,"is_reserved":false,"is_disabled":false,"rental_uris":{"android":"levelo://app?vid=c416d47b-78f0-43eb-bd10-52cd2f01cf9a","ios":"levelo://app?vid=c416d47b-78f0-43eb-bd10-52cd2f01cf9a"},"vehicle_type_id":"4","last_reported":1726956470,"current_range_meters":12000,"station_id":"ce4bgv92rcd13ifvqcr0","pricing_plan_id":"cebpf4jnsgd1na2vs0mg"},{"bike_id":"45c98387-e08f-46eb-909a-7463a15aa796","system_id":"levelo_inurba_marseille","lat":43.32546,"lon":5.41432,"is_reserved":false,"is_disabled":false,"rental_uris":{"android":"levelo://app?vid=45c98387-e08f-46eb-909a-7463a15aa796","ios":"levelo://app?vid=45c98387-e08f-46eb-909a-7463a15aa796"},"vehicle_type_id":"4","last_reported":1726956470,"current_range_meters":20400,"station_id":"ce4bhq12rcd13ifvqhhg","pricing_plan_id":"cebpf4jnsgd1na2vs0mg"},{"bike_id":"de474168-7d22-423b-8aa5-2f9882a9c626","system_id":"levelo_inurba_marseille","lat":43.307912,"lon":5.376451,"is_reserved":false,"is_disabled":false,"rental_uris":{"android":"levelo://app?vid=de474168-7d22-423b-8aa5-2f9882a9c626","ios":"levelo://app?vid=de474168-7d22-423b-8aa5-2f9882a9c626"},"vehicle_type_id":"4","last_reported":1726956470,"current_range_meters":39200,"station_id":"ce4bgv92rcd13ifvqcq0","pricing_plan_id":"cebpf4jnsgd1na2vs0mg"},{"bike_id":"031c7f84-a43a-4deb-9b43-a573dd4a878e","system_id":"levelo_inurba_marseille","lat":43.30535,"lon":5.36645,"is_reserved":false,"is_disabled":false,"rental_uris":{"android":"levelo://app?vid=031c7f84-a43a-4deb-9b43-a573dd4a878e","ios":"levelo://app?vid=031c7f84-a43a-4deb-9b43-a573dd4a878e"},"vehicle_type_id":"4","last_reported":1726956470,"current_range_meters":28800,"station_id":"","pricing_plan_id":"cebpf4jnsgd1na2vs0mg"},{"bike_id":"28899bbf-43c6-44fe-bc87-11c1926b2ab8","system_id":"levelo_inurba_marseille","lat":43.2621,"lon":5.37922,"is_reserved":false,"is_disabled":false,"rental_uris":{"android":"levelo://app?vid=28899bbf-43c6-44fe-bc87-11c1926b2ab8","ios":"levelo://app?vid=28899bbf-43c6-44fe-bc87-11c1926b2ab8"},"vehicle_type_id":"4","last_reported":1726956470,"current_range_meters":38800,"station_id":"ce4bhjp2rcd13ifvqg90","pricing_plan_id":"cebpf4jnsgd1na2vs0mg"},{"bike_id":"1de5a332-ecc8-4166-b2bb-a60de45f557a","system_id":"levelo_inurba_marseille","lat":43.29511,"lon":5.39031,"is_reserved":false,"is_disabled":false,"rental_uris":{"android":"levelo://app?vid=1de5a332-ecc8-4166-b2bb-a60de45f557a","ios":"levelo://app?vid=1de5a332-ecc8-4166-b2bb-a60de45f557a"},"vehicle_type_id":"4","last_reported":1726956470,"current_range_meters":28400,"station_id":"ce4bh3p2rcd13ifvqdp0","pricing_plan_id":"cebpf4jnsgd1na2vs0mg"},{"bike_id":"461fe284-eae3-49fe-a8c9-7ed58c2e4f86","system_id":"levelo_inurba_marseille","lat":43.28102,"lon":5.37839,"is_reserved":false,"is_disabled":false,"rental_uris":{"android":"levelo://app?vid=461fe284-eae3-49fe-a8c9-7ed58c2e4f86","ios":"levelo://app?vid=461fe284-eae3-49fe-a8c9-7ed58c2e4f86"},"vehicle_type_id":"4","last_reported":1726956470,"current_range_meters":38800,"station_id":"ce4bha12rcd13ifvqee0","pricing_plan_id":"cebpf4jnsgd1na2vs0mg"},{"bike_id":"6528ea46-21d2-4392-8d15-a2e18652b29e","system_id":"levelo_inurba_marseille","lat":43.29182,"lon":5.39311,"is_reserved":false,"is_disabled":false,"rental_uris":{"android":"levelo://app?vid=6528ea46-21d2-4392-8d15-a2e18652b29e","ios":"levelo://app?vid=6528ea46-21d2-4392-8d15-a2e18652b29e"},"vehicle_type_id":"4","last_reported":1726956470,"current_range_meters":38800,"station_id":"ce4bh192rcd13ifvqdd0","pricing_plan_id":"cebpf4jnsgd1na2vs0mg"},{"bike_id":"314fbbe9-5fd9-4d9d-bd10-270759356c42","system_id":"levelo_inurba_marseille","lat":43.31376,"lon":5.38503,"is_reserved":false,"is_disabled":false,"rental_uris":{"android":"levelo://app?vid=314fbbe9-5fd9-4d9d-bd10-270759356c42","ios":"levelo://app?vid=314fbbe9-5fd9-4d9d-bd10-270759356c42"},"vehicle_type_id":"4","last_reported":1726956470,"current_range_meters":38000,"station_id":"ce4bgt92rcd13ifvqcf0","pricing_plan_id":"cebpf4jnsgd1na2vs0mg"},{"bike_id":"241e2c01-a65a-410b-ab27-432829a871bc","system_id":"levelo_inurba_marseille","lat":43.2812,"lon":5.37853,"is_reserved":false,"is_disabled":false,"rental_uris":{"android":"levelo://app?vid=241e2c01-a65a-410b-ab27-432829a871bc","ios":"levelo://app?vid=241e2c01-a65a-410b-ab27-432829a871bc"},"vehicle_type_id":"4","last_reported":1726956470,"current_range_meters":27200,"station_id":"ce4bha12rcd13ifvqee0","pricing_plan_id":"cebpf4jnsgd1na2vs0mg"},{"bike_id":"c6ece7c7-4ec5-4120-b681-3c568db59171","system_id":"levelo_inurba_marseille","lat":43.30593,"lon":5.37219,"is_reserved":false,"is_disabled":false,"rental_uris":{"android":"levelo://app?vid=c6ece7c7-4ec5-4120-b681-3c568db59171","ios":"levelo://app?vid=c6ece7c7-4ec5-4120-b681-3c568db59171"},"vehicle_type_id":"4","last_reported":1726956470,"current_range_meters":38800,"station_id":"ce4bgqh2rcd13ifvqc4g","pricing_plan_id":"cebpf4jnsgd1na2vs0mg"},{"bike_id":"26e2225d-77c4-46cf-82cd-eceee21d6bdb","system_id":"levelo_inurba_marseille","lat":43.299683,"lon":5.384878,"is_reserved":false,"is_disabled":false,"rental_uris":{"android":"levelo://app?vid=26e2225d-77c4-46cf-82cd-eceee21d6bdb","ios":"levelo://app?vid=26e2225d-77c4-46cf-82cd-eceee21d6bdb"},"vehicle_type_id":"4","last_reported":1726956470,"current_range_meters":37600,"station_id":"ce4bgj92rcd13ifvqbd0","pricing_plan_id":"cebpf4jnsgd1na2vs0mg"},{"bike_id":"02415616-385e-4f14-93d0-2ad915d17a0f","system_id":"levelo_inurba_marseille","lat":43.3134,"lon":5.39709,"is_reserved":false,"is_disabled":false,"rental_uris":{"android":"levelo://app?vid=02415616-385e-4f14-93d0-2ad915d17a0f","ios":"levelo://app?vid=02415616-385e-4f14-93d0-2ad915d17a0f"},"vehicle_type_id":"4","last_reported":1726956470,"current_range_meters":38800,"station_id":"ce4bgvp2rcd13ifvqcu0","pricing_plan_id":"cebpf4jnsgd1na2vs0mg"},{"bike_id":"40f76e9d-c4d4-4e89-b102-5cd9a5126209","system_id":"levelo_inurba_marseille","lat":43.31269,"lon":5.40176,"is_reserved":false,"is_disabled":false,"rental_uris":{"android":"levelo://app?vid=40f76e9d-c4d4-4e89-b102-5cd9a5126209","ios":"levelo://app?vid=40f76e9d-c4d4-4e89-b102-5cd9a5126209"},"vehicle_type_id":"4","last_reported":1726956470,"current_range_meters":30000,"station_id":"ce4bh092rcd13ifvqd30","pricing_plan_id":"cebpf4jnsgd1na2vs0mg"},{"bike_id":"497d23df-68e5-47b5-96be-9fde031243e0","system_id":"levelo_inurba_marseille","lat":43.295274,"lon":5.385416,"is_reserved":false,"is_disabled":false,"rental_uris":{"android":"levelo://app?vid=497d23df-68e5-47b5-96be-9fde031243e0","ios":"levelo://app?vid=497d23df-68e5-47b5-96be-9fde031243e0"},"vehicle_type_id":"4","last_reported":1726956470,"current_range_meters":36000,"station_id":"ce4bgkp2rcd13ifvqbmg","pricing_plan_id":"cebpf4jnsgd1na2vs0mg"},{"bike_id":"3c22d18d-cc67-43da-9f9d-d4761fc3ecd1","system_id":"levelo_inurba_marseille","lat":43.2861,"lon":5.37065,"is_reserved":false,"is_disabled":false,"rental_uris":{"android":"levelo://app?vid=3c22d18d-cc67-43da-9f9d-d4761fc3ecd1","ios":"levelo://app?vid=3c22d18d-cc67-43da-9f9d-d4761fc3ecd1"},"vehicle_type_id":"4","last_reported":1726956470,"current_range_meters":30800,"station_id":"ce4bht12rcd13ifvqi60","pricing_plan_id":"cebpf4jnsgd1na2vs0mg"},{"bike_id":"c9083aa3-e1c9-464f-b45a-c3528c0fc1ed","system_id":"levelo_inurba_marseille","lat":43.2963,"lon":5.40599,"is_reserved":false,"is_disabled":false,"rental_uris":{"android":"levelo://app?vid=c9083aa3-e1c9-464f-b45a-c3528c0fc1ed","ios":"levelo://app?vid=c9083aa3-e1c9-464f-b45a-c3528c0fc1ed"},"vehicle_type_id":"4","last_reported":1726956470,"current_range_meters":32800,"station_id":"ce4bh0h2rcd13ifvqd60","pricing_plan_id":"cebpf4jnsgd1na2vs0mg"},{"bike_id":"8b2cf52a-cc3e-4abe-8268-8348c592fdee","system_id":"levelo_inurba_marseille","lat":43.29416,"lon":5.3863,"is_reserved":false,"is_disabled":false,"rental_uris":{"android":"levelo://app?vid=8b2cf52a-cc3e-4abe-8268-8348c592fdee","ios":"levelo://app?vid=8b2cf52a-cc3e-4abe-8268-8348c592fdee"},"vehicle_type_id":"4","last_reported":1726956470,"current_range_meters":38000,"station_id":"ce4bh2h2rcd13ifvqdh0","pricing_plan_id":"cebpf4jnsgd1na2vs0mg"},{"bike_id":"05099c60-9e4a-49af-b705-c85bfae47e21","system_id":"levelo_inurba_marseille","lat":43.29228,"lon":5.36066,"is_reserved":false,"is_disabled":false,"rental_uris":{"android":"levelo://app?vid=05099c60-9e4a-49af-b705-c85bfae47e21","ios":"levelo://app?vid=05099c60-9e4a-49af-b705-c85bfae47e21"},"vehicle_type_id":"4","last_reported":1726956470,"current_range_meters":35200,"station_id":"ce4bhbh2rcd13ifvqeqg","pricing_plan_id":"cebpf4jnsgd1na2vs0mg"},{"bike_id":"1575e777-51f8-479e-bd95-714cef91a125","system_id":"levelo_inurba_marseille","lat":43.24177,"lon":5.3971,"is_reserved":false,"is_disabled":false,"rental_uris":{"android":"levelo://app?vid=1575e777-51f8-479e-bd95-714cef91a125","ios":"levelo://app?vid=1575e777-51f8-479e-bd95-714cef91a125"},"vehicle_type_id":"4","last_reported":1726956470,"current_range_meters":29600,"station_id":"ce4bhn12rcd13ifvqgpg","pricing_plan_id":"cebpf4jnsgd1na2vs0mg"},{"bike_id":"b54ece0d-4eba-4fdd-a5e5-37e718d6283a","system_id":"levelo_inurba_marseille","lat":43.28854,"lon":5.39315,"is_reserved":false,"is_disabled":false,"rental_uris":{"android":"levelo://app?vid=b54ece0d-4eba-4fdd-a5e5-37e718d6283a","ios":"levelo://app?vid=b54ece0d-4eba-4fdd-a5e5-37e718d6283a"},"vehicle_type_id":"4","last_reported":1726956470,"current_range_meters":38800,"station_id":"ce4bh2p2rcd13ifvqdi0","pricing_plan_id":"cebpf4jnsgd1na2vs0mg"},{"bike_id":"4f6cd953-65f5-4d4f-a052-70118d864e1d","system_id":"levelo_inurba_marseille","lat":43.29896,"lon":5.43663,"is_reserved":false,"is_disabled":false,"rental_uris":{"android":"levelo://app?vid=4f6cd953-65f5-4d4f-a052-70118d864e1d","ios":"levelo://app?vid=4f6cd953-65f5-4d4f-a052-70118d864e1d"},"vehicle_type_id":"4","last_reported":1726956470,"current_range_meters":6800,"station_id":"ce4bhpp2rcd13ifvqhfg","pricing_plan_id":"cebpf4jnsgd1na2vs0mg"},{"bike_id":"ab03fbd4-771e-4097-be15-28a0898ddabb","system_id":"levelo_inurba_marseille","lat":43.31888,"lon":5.40736,"is_reserved":false,"is_disabled":false,"rental_uris":{"android":"levelo://app?vid=ab03fbd4-771e-4097-be15-28a0898ddabb","ios":"levelo://app?vid=ab03fbd4-771e-4097-be15-28a0898ddabb"},"vehicle_type_id":"4","last_reported":1726956470,"current_range_meters":36400,"station_id":"ce4bhq12rcd13ifvqhig","pricing_plan_id":"cebpf4jnsgd1na2vs0mg"},{"bike_id":"d9e213ca-e541-459d-93e9-f901cb508c67","system_id":"levelo_inurba_marseille","lat":43.31703,"lon":5.37755,"is_reserved":false,"is_disabled":false,"rental_uris":{"android":"levelo://app?vid=d9e213ca-e541-459d-93e9-f901cb508c67","ios":"levelo://app?vid=d9e213ca-e541-459d-93e9-f901cb508c67"},"vehicle_type_id":"4","last_reported":1726956470,"current_range_meters":16400,"station_id":"ce4bgth2rcd13ifvqch0","pricing_plan_id":"cebpf4jnsgd1na2vs0mg"},{"bike_id":"742fe014-1f5e-499c-bbc5-66a0cbb87904","system_id":"levelo_inurba_marseille","lat":43.23204,"lon":5.35557,"is_reserved":false,"is_disabled":false,"rental_uris":{"android":"levelo://app?vid=742fe014-1f5e-499c-bbc5-66a0cbb87904","ios":"levelo://app?vid=742fe014-1f5e-499c-bbc5-66a0cbb87904"},"vehicle_type_id":"4","last_reported":1726956470,"current_range_meters":36800,"station_id":"ce4bhu92rcd13ifvqi70","pricing_plan_id":"cebpf4jnsgd1na2vs0mg"},{"bike_id":"320a348b-312f-4667-86c9-a1598946795f","system_id":"levelo_inurba_marseille","lat":43.32365,"lon":5.38887,"is_reserved":false,"is_disabled":false,"rental_uris":{"android":"levelo://app?vid=320a348b-312f-4667-86c9-a1598946795f","ios":"levelo://app?vid=320a348b-312f-4667-86c9-a1598946795f"},"vehicle_type_id":"4","last_reported":1726956470,"current_range_meters":36000,"station_id":"ce4bhqp2rcd13ifvqhog","pricing_plan_id":"cebpf4jnsgd1na2vs0mg"},{"bike_id":"cebd7cfe-01b4-4f94-af93-a3f48d2562dd","system_id":"levelo_inurba_marseille","lat":43.24998,"lon":5.38934,"is_reserved":false,"is_disabled":false,"rental_uris":{"android":"levelo://app?vid=cebd7cfe-01b4-4f94-af93-a3f48d2562dd","ios":"levelo://app?vid=cebd7cfe-01b4-4f94-af93-a3f48d2562dd"},"vehicle_type_id":"4","last_reported":1726956470,"current_range_meters":28000,"station_id":"ce4bhgp2rcd13ifvqfd0","pricing_plan_id":"cebpf4jnsgd1na2vs0mg"},{"bike_id":"7580070f-7973-4da9-a3f4-451599e5fffe","system_id":"levelo_inurba_marseille","lat":43.28935,"lon":5.39621,"is_reserved":false,"is_disabled":false,"rental_uris":{"android":"levelo://app?vid=7580070f-7973-4da9-a3f4-451599e5fffe","ios":"levelo://app?vid=7580070f-7973-4da9-a3f4-451599e5fffe"},"vehicle_type_id":"4","last_reported":1726956470,"current_range_meters":37600,"station_id":"ce4bh3h2rcd13ifvqdn0","pricing_plan_id":"cebpf4jnsgd1na2vs0mg"},{"bike_id":"15bfb919-6e1f-4e7f-83e8-9b12fb95fcef","system_id":"levelo_inurba_marseille","lat":43.31364,"lon":5.38495,"is_reserved":false,"is_disabled":false,"rental_uris":{"android":"levelo://app?vid=15bfb919-6e1f-4e7f-83e8-9b12fb95fcef","ios":"levelo://app?vid=15bfb919-6e1f-4e7f-83e8-9b12fb95fcef"},"vehicle_type_id":"4","last_reported":1726956470,"current_range_meters":23200,"station_id":"ce4bgt92rcd13ifvqcf0","pricing_plan_id":"cebpf4jnsgd1na2vs0mg"},{"bike_id":"feb42740-c719-4916-9efa-d99f861e0e6d","system_id":"levelo_inurba_marseille","lat":43.32482,"lon":5.36574,"is_reserved":false,"is_disabled":false,"rental_uris":{"android":"levelo://app?vid=feb42740-c719-4916-9efa-d99f861e0e6d","ios":"levelo://app?vid=feb42740-c719-4916-9efa-d99f861e0e6d"},"vehicle_type_id":"4","last_reported":1726956470,"current_range_meters":38000,"station_id":"ce4bhs12rcd13ifvqhvg","pricing_plan_id":"cebpf4jnsgd1na2vs0mg"},{"bike_id":"8499f8c6-10cf-43c5-848b-e641e370d44e","system_id":"levelo_inurba_marseille","lat":43.29365,"lon":5.37849,"is_reserved":false,"is_disabled":false,"rental_uris":{"android":"levelo://app?vid=8499f8c6-10cf-43c5-848b-e641e370d44e","ios":"levelo://app?vid=8499f8c6-10cf-43c5-848b-e641e370d44e"},"vehicle_type_id":"4","last_reported":1726956470,"current_range_meters":32000,"station_id":"ce4bgjh2rcd13ifvqbf0","pricing_plan_id":"cebpf4jnsgd1na2vs0mg"},{"bike_id":"6ab6933a-1d40-4dbd-8eb1-cb7ef6a30762","system_id":"levelo_inurba_marseille","lat":43.2919,"lon":5.39329,"is_reserved":false,"is_disabled":false,"rental_uris":{"android":"levelo://app?vid=6ab6933a-1d40-4dbd-8eb1-cb7ef6a30762","ios":"levelo://app?vid=6ab6933a-1d40-4dbd-8eb1-cb7ef6a30762"},"vehicle_type_id":"4","last_reported":1726956470,"current_range_meters":14000,"station_id":"ce4bh192rcd13ifvqdd0","pricing_plan_id":"cebpf4jnsgd1na2vs0mg"},{"bike_id":"2ed077f1-a76e-4ade-9169-7f9158707235","system_id":"levelo_inurba_marseille","lat":43.24665,"lon":5.38162,"is_reserved":false,"is_disabled":false,"rental_uris":{"android":"levelo://app?vid=2ed077f1-a76e-4ade-9169-7f9158707235","ios":"levelo://app?vid=2ed077f1-a76e-4ade-9169-7f9158707235"},"vehicle_type_id":"4","last_reported":1726956470,"current_range_meters":9200,"station_id":"ce4bhih2rcd13ifvqfr0","pricing_plan_id":"cebpf4jnsgd1na2vs0mg"},{"bike_id":"fce734b4-6c36-4cb6-983c-c95238702258","system_id":"levelo_inurba_marseille","lat":43.31072,"lon":5.38115,"is_reserved":false,"is_disabled":false,"rental_uris":{"android":"levelo://app?vid=fce734b4-6c36-4cb6-983c-c95238702258","ios":"levelo://app?vid=fce734b4-6c36-4cb6-983c-c95238702258"},"vehicle_type_id":"4","last_reported":1726956470,"current_range_meters":16800,"station_id":"","pricing_plan_id":"cebpf4jnsgd1na2vs0mg"},{"bike_id":"ab164393-cd31-4221-b165-f26296d40d00","system_id":"levelo_inurba_marseille","lat":43.3108,"lon":5.42433,"is_reserved":false,"is_disabled":false,"rental_uris":{"android":"levelo://app?vid=ab164393-cd31-4221-b165-f26296d40d00","ios":"levelo://app?vid=ab164393-cd31-4221-b165-f26296d40d00"},"vehicle_type_id":"4","last_reported":1726956470,"current_range_meters":13600,"station_id":"ce4bhp92rcd13ifvqhag","pricing_plan_id":"cebpf4jnsgd1na2vs0mg"},{"bike_id":"c775ecb7-3eaa-4b15-938b-cc10bd0e2ff0","system_id":"levelo_inurba_marseille","lat":43.2926,"lon":5.38445,"is_reserved":false,"is_disabled":false,"rental_uris":{"android":"levelo://app?vid=c775ecb7-3eaa-4b15-938b-cc10bd0e2ff0","ios":"levelo://app?vid=c775ecb7-3eaa-4b15-938b-cc10bd0e2ff0"},"vehicle_type_id":"4","last_reported":1726956470,"current_range_meters":38800,"station_id":"ce4bh692rcd13ifvqea0","pricing_plan_id":"cebpf4jnsgd1na2vs0mg"},{"bike_id":"641f5b3a-0958-49cd-babc-8214d157118d","system_id":"levelo_inurba_marseille","lat":43.28442,"lon":5.3918,"is_reserved":false,"is_disabled":false,"rental_uris":{"android":"levelo://app?vid=641f5b3a-0958-49cd-babc-8214d157118d","ios":"levelo://app?vid=641f5b3a-0958-49cd-babc-8214d157118d"},"vehicle_type_id":"4","last_reported":1726956470,"current_range_meters":32400,"station_id":"ce4bhoh2rcd13ifvqh5g","pricing_plan_id":"cebpf4jnsgd1na2vs0mg"},{"bike_id":"a27dbfcf-fdb2-45f8-985f-42b146435a71","system_id":"levelo_inurba_marseille","lat":43.323395,"lon":5.406286,"is_reserved":false,"is_disabled":false,"rental_uris":{"android":"levelo://app?vid=a27dbfcf-fdb2-45f8-985f-42b146435a71","ios":"levelo://app?vid=a27dbfcf-fdb2-45f8-985f-42b146435a71"},"vehicle_type_id":"4","last_reported":1726956470,"current_range_meters":35600,"station_id":"ce4bhq92rcd13ifvqhjg","pricing_plan_id":"cebpf4jnsgd1na2vs0mg"},{"bike_id":"f74941be-f473-4ce7-9230-0799526567ae","system_id":"levelo_inurba_marseille","lat":43.23198,"lon":5.35553,"is_reserved":false,"is_disabled":false,"rental_uris":{"android":"levelo://app?vid=f74941be-f473-4ce7-9230-0799526567ae","ios":"levelo://app?vid=f74941be-f473-4ce7-9230-0799526567ae"},"vehicle_type_id":"4","last_reported":1726956470,"current_range_meters":38800,"station_id":"ce4bhu92rcd13ifvqi70","pricing_plan_id":"cebpf4jnsgd1na2vs0mg"},{"bike_id":"c1ac3a25-dfa3-4df9-a68d-7bda117294da","system_id":"levelo_inurba_marseille","lat":43.29025,"lon":5.3864,"is_reserved":false,"is_disabled":false,"rental_uris":{"android":"levelo://app?vid=c1ac3a25-dfa3-4df9-a68d-7bda117294da","ios":"levelo://app?vid=c1ac3a25-dfa3-4df9-a68d-7bda117294da"},"vehicle_type_id":"4","last_reported":1726956470,"current_range_meters":38400,"station_id":"ce4bh4p2rcd13ifvqe0g","pricing_plan_id":"cebpf4jnsgd1na2vs0mg"},{"bike_id":"835e4c9e-ad92-4033-ade3-5c140676b483","system_id":"levelo_inurba_marseille","lat":43.28662,"lon":5.38658,"is_reserved":false,"is_disabled":false,"rental_uris":{"android":"levelo://app?vid=835e4c9e-ad92-4033-ade3-5c140676b483","ios":"levelo://app?vid=835e4c9e-ad92-4033-ade3-5c140676b483"},"vehicle_type_id":"4","last_reported":1726956470,"current_range_meters":38800,"station_id":"ce4bh492rcd13ifvqdug","pricing_plan_id":"cebpf4jnsgd1na2vs0mg"},{"bike_id":"1b0377f1-d878-4328-a741-9dcdd239aabf","system_id":"levelo_inurba_marseille","lat":43.31368,"lon":5.38494,"is_reserved":false,"is_disabled":false,"rental_uris":{"android":"levelo://app?vid=1b0377f1-d878-4328-a741-9dcdd239aabf","ios":"levelo://app?vid=1b0377f1-d878-4328-a741-9dcdd239aabf"},"vehicle_type_id":"4","last_reported":1726956470,"current_range_meters":23200,"station_id":"ce4bgt92rcd13ifvqcf0","pricing_plan_id":"cebpf4jnsgd1na2vs0mg"},{"bike_id":"fb974cff-cdb0-413b-91ec-8caf5fa6447e","system_id":"levelo_inurba_marseille","lat":43.28662,"lon":5.36367,"is_reserved":false,"is_disabled":false,"rental_uris":{"android":"levelo://app?vid=fb974cff-cdb0-413b-91ec-8caf5fa6447e","ios":"levelo://app?vid=fb974cff-cdb0-413b-91ec-8caf5fa6447e"},"vehicle_type_id":"4","last_reported":1726956470,"current_range_meters":38400,"station_id":"ce4bhah2rcd13ifvqej0","pricing_plan_id":"cebpf4jnsgd1na2vs0mg"},{"bike_id":"bc2224ad-a18e-479e-9927-fa7d79220cd4","system_id":"levelo_inurba_marseille","lat":43.32338,"lon":5.40619,"is_reserved":false,"is_disabled":false,"rental_uris":{"android":"levelo://app?vid=bc2224ad-a18e-479e-9927-fa7d79220cd4","ios":"levelo://app?vid=bc2224ad-a18e-479e-9927-fa7d79220cd4"},"vehicle_type_id":"4","last_reported":1726956470,"current_range_meters":38000,"station_id":"ce4bhq92rcd13ifvqhjg","pricing_plan_id":"cebpf4jnsgd1na2vs0mg"},{"bike_id":"54b1e359-c3a1-4ac6-a62b-6e27baa9c626","system_id":"levelo_inurba_marseille","lat":43.29269,"lon":5.36841,"is_reserved":false,"is_disabled":false,"rental_uris":{"android":"levelo://app?vid=54b1e359-c3a1-4ac6-a62b-6e27baa9c626","ios":"levelo://app?vid=54b1e359-c3a1-4ac6-a62b-6e27baa9c626"},"vehicle_type_id":"4","last_reported":1726956470,"current_range_meters":28400,"station_id":"ce4bhbp2rcd13ifvqesg","pricing_plan_id":"cebpf4jnsgd1na2vs0mg"},{"bike_id":"6a27e725-2d8c-4144-8185-44daee5ca0de","system_id":"levelo_inurba_marseille","lat":43.31756,"lon":5.3902,"is_reserved":false,"is_disabled":false,"rental_uris":{"android":"levelo://app?vid=6a27e725-2d8c-4144-8185-44daee5ca0de","ios":"levelo://app?vid=6a27e725-2d8c-4144-8185-44daee5ca0de"},"vehicle_type_id":"4","last_reported":1726956470,"current_range_meters":22400,"station_id":"ce4bhqp2rcd13ifvqhng","pricing_plan_id":"cebpf4jnsgd1na2vs0mg"},{"bike_id":"aa18d1b9-803b-47fa-bea1-cb0edab5554a","system_id":"levelo_inurba_marseille","lat":43.28697,"lon":5.39974,"is_reserved":false,"is_disabled":false,"rental_uris":{"android":"levelo://app?vid=aa18d1b9-803b-47fa-bea1-cb0edab5554a","ios":"levelo://app?vid=aa18d1b9-803b-47fa-bea1-cb0edab5554a"},"vehicle_type_id":"4","last_reported":1726956470,"current_range_meters":19200,"station_id":"ce4bho92rcd13ifvqh3g","pricing_plan_id":"cebpf4jnsgd1na2vs0mg"},{"bike_id":"949472d1-97b4-4563-9061-d4d0ed91b910","system_id":"levelo_inurba_marseille","lat":43.32373,"lon":5.38877,"is_reserved":false,"is_disabled":false,"rental_uris":{"android":"levelo://app?vid=949472d1-97b4-4563-9061-d4d0ed91b910","ios":"levelo://app?vid=949472d1-97b4-4563-9061-d4d0ed91b910"},"vehicle_type_id":"4","last_reported":1726956470,"current_range_meters":27200,"station_id":"ce4bhqp2rcd13ifvqhog","pricing_plan_id":"cebpf4jnsgd1na2vs0mg"},{"bike_id":"2ce07468-9b3e-42a6-a2fd-7625bfc9d4c1","system_id":"levelo_inurba_marseille","lat":43.28281,"lon":5.35064,"is_reserved":false,"is_disabled":false,"rental_uris":{"android":"levelo://app?vid=2ce07468-9b3e-42a6-a2fd-7625bfc9d4c1","ios":"levelo://app?vid=2ce07468-9b3e-42a6-a2fd-7625bfc9d4c1"},"vehicle_type_id":"4","last_reported":1726956470,"current_range_meters":4400,"station_id":"ce4bhbp2rcd13ifvqerg","pricing_plan_id":"cebpf4jnsgd1na2vs0mg"},{"bike_id":"6c4c3607-82cf-4fe2-8301-90c894cc563f","system_id":"levelo_inurba_marseille","lat":43.31368,"lon":5.385,"is_reserved":false,"is_disabled":false,"rental_uris":{"android":"levelo://app?vid=6c4c3607-82cf-4fe2-8301-90c894cc563f","ios":"levelo://app?vid=6c4c3607-82cf-4fe2-8301-90c894cc563f"},"vehicle_type_id":"4","last_reported":1726956470,"current_range_meters":35600,"station_id":"ce4bgt92rcd13ifvqcf0","pricing_plan_id":"cebpf4jnsgd1na2vs0mg"},{"bike_id":"5313fd38-c2ab-4aa7-89f5-f02e99e34d8d","system_id":"levelo_inurba_marseille","lat":43.28646,"lon":5.38654,"is_reserved":false,"is_disabled":false,"rental_uris":{"android":"levelo://app?vid=5313fd38-c2ab-4aa7-89f5-f02e99e34d8d","ios":"levelo://app?vid=5313fd38-c2ab-4aa7-89f5-f02e99e34d8d"},"vehicle_type_id":"4","last_reported":1726956470,"current_range_meters":38400,"station_id":"ce4bh492rcd13ifvqdug","pricing_plan_id":"cebpf4jnsgd1na2vs0mg"},{"bike_id":"fb2b63d9-4a26-4602-9a57-d2caab531ee7","system_id":"levelo_inurba_marseille","lat":43.33718,"lon":5.39181,"is_reserved":false,"is_disabled":false,"rental_uris":{"android":"levelo://app?vid=fb2b63d9-4a26-4602-9a57-d2caab531ee7","ios":"levelo://app?vid=fb2b63d9-4a26-4602-9a57-d2caab531ee7"},"vehicle_type_id":"4","last_reported":1726956470,"current_range_meters":36800,"station_id":"ce4bhr92rcd13ifvqhsg","pricing_plan_id":"cebpf4jnsgd1na2vs0mg"},{"bike_id":"d541ed92-cfeb-48b8-b34c-853ebcc5b103","system_id":"levelo_inurba_marseille","lat":43.29031,"lon":5.38641,"is_reserved":false,"is_disabled":false,"rental_uris":{"android":"levelo://app?vid=d541ed92-cfeb-48b8-b34c-853ebcc5b103","ios":"levelo://app?vid=d541ed92-cfeb-48b8-b34c-853ebcc5b103"},"vehicle_type_id":"4","last_reported":1726956470,"current_range_meters":38400,"station_id":"ce4bh4p2rcd13ifvqe0g","pricing_plan_id":"cebpf4jnsgd1na2vs0mg"},{"bike_id":"f783e93b-35a6-4c96-a417-f5cb58c7485b","system_id":"levelo_inurba_marseille","lat":43.29511,"lon":5.39403,"is_reserved":false,"is_disabled":false,"rental_uris":{"android":"levelo://app?vid=f783e93b-35a6-4c96-a417-f5cb58c7485b","ios":"levelo://app?vid=f783e93b-35a6-4c96-a417-f5cb58c7485b"},"vehicle_type_id":"4","last_reported":1726956470,"current_range_meters":7200,"station_id":"ce4bh292rcd13ifvqdf0","pricing_plan_id":"cebpf4jnsgd1na2vs0mg"},{"bike_id":"a4b9d024-2703-477c-afc6-79f290a054c0","system_id":"levelo_inurba_marseille","lat":43.262037,"lon":5.379265,"is_reserved":false,"is_disabled":false,"rental_uris":{"android":"levelo://app?vid=a4b9d024-2703-477c-afc6-79f290a054c0","ios":"levelo://app?vid=a4b9d024-2703-477c-afc6-79f290a054c0"},"vehicle_type_id":"4","last_reported":1726956470,"current_range_meters":38800,"station_id":"ce4bhjp2rcd13ifvqg90","pricing_plan_id":"cebpf4jnsgd1na2vs0mg"},{"bike_id":"a9f970fa-8fa9-4f75-a9c9-ba0a24a4c539","system_id":"levelo_inurba_marseille","lat":43.28418,"lon":5.349768,"is_reserved":false,"is_disabled":false,"rental_uris":{"android":"levelo://app?vid=a9f970fa-8fa9-4f75-a9c9-ba0a24a4c539","ios":"levelo://app?vid=a9f970fa-8fa9-4f75-a9c9-ba0a24a4c539"},"vehicle_type_id":"4","last_reported":1726956470,"current_range_meters":12000,"station_id":"ce4bhbh2rcd13ifvqepg","pricing_plan_id":"cebpf4jnsgd1na2vs0mg"},{"bike_id":"a9af6c47-2011-488c-942b-e76e7d5a173d","system_id":"levelo_inurba_marseille","lat":43.29421,"lon":5.38623,"is_reserved":false,"is_disabled":false,"rental_uris":{"android":"levelo://app?vid=a9af6c47-2011-488c-942b-e76e7d5a173d","ios":"levelo://app?vid=a9af6c47-2011-488c-942b-e76e7d5a173d"},"vehicle_type_id":"4","last_reported":1726956470,"current_range_meters":18800,"station_id":"ce4bh2h2rcd13ifvqdh0","pricing_plan_id":"cebpf4jnsgd1na2vs0mg"},{"bike_id":"e352aee2-4c1e-47a7-b58b-0d42fcbcf4ad","system_id":"levelo_inurba_marseille","lat":43.29528,"lon":5.38536,"is_reserved":false,"is_disabled":false,"rental_uris":{"android":"levelo://app?vid=e352aee2-4c1e-47a7-b58b-0d42fcbcf4ad","ios":"levelo://app?vid=e352aee2-4c1e-47a7-b58b-0d42fcbcf4ad"},"vehicle_type_id":"4","last_reported":1726956470,"current_range_meters":8400,"station_id":"ce4bgih2rcd13ifvqba0","pricing_plan_id":"cebpf4jnsgd1na2vs0mg"},{"bike_id":"64587697-05e9-4548-8588-ba3be5577708","system_id":"levelo_inurba_marseille","lat":43.292614,"lon":5.409097,"is_reserved":false,"is_disabled":false,"rental_uris":{"android":"levelo://app?vid=64587697-05e9-4548-8588-ba3be5577708","ios":"levelo://app?vid=64587697-05e9-4548-8588-ba3be5577708"},"vehicle_type_id":"4","last_reported":1726956470,"current_range_meters":12800,"station_id":"ce4bh192rcd13ifvqdc0","pricing_plan_id":"cebpf4jnsgd1na2vs0mg"},{"bike_id":"ac433075-cea9-4f92-b444-ccd3e0887e60","system_id":"levelo_inurba_marseille","lat":43.29028,"lon":5.38634,"is_reserved":false,"is_disabled":false,"rental_uris":{"android":"levelo://app?vid=ac433075-cea9-4f92-b444-ccd3e0887e60","ios":"levelo://app?vid=ac433075-cea9-4f92-b444-ccd3e0887e60"},"vehicle_type_id":"4","last_reported":1726956470,"current_range_meters":38800,"station_id":"ce4bh4p2rcd13ifvqe0g","pricing_plan_id":"cebpf4jnsgd1na2vs0mg"},{"bike_id":"4b5d80be-7d82-4609-828a-348ad471e00f","system_id":"levelo_inurba_marseille","lat":43.33601,"lon":5.41034,"is_reserved":false,"is_disabled":false,"rental_uris":{"android":"levelo://app?vid=4b5d80be-7d82-4609-828a-348ad471e00f","ios":"levelo://app?vid=4b5d80be-7d82-4609-828a-348ad471e00f"},"vehicle_type_id":"4","last_reported":1726956470,"current_range_meters":25600,"station_id":"ce4bhqh2rcd13ifvqhmg","pricing_plan_id":"cebpf4jnsgd1na2vs0mg"},{"bike_id":"5e89eb86-04c1-4929-b3ce-44c08ecb21db","system_id":"levelo_inurba_marseille","lat":43.31071,"lon":5.38357,"is_reserved":false,"is_disabled":false,"rental_uris":{"android":"levelo://app?vid=5e89eb86-04c1-4929-b3ce-44c08ecb21db","ios":"levelo://app?vid=5e89eb86-04c1-4929-b3ce-44c08ecb21db"},"vehicle_type_id":"4","last_reported":1726956470,"current_range_meters":32800,"station_id":"ce4bgv92rcd13ifvqcr0","pricing_plan_id":"cebpf4jnsgd1na2vs0mg"},{"bike_id":"fa690805-233a-4a70-a9f3-33f1b67cdb1f","system_id":"levelo_inurba_marseille","lat":43.32285,"lon":5.38269,"is_reserved":false,"is_disabled":false,"rental_uris":{"android":"levelo://app?vid=fa690805-233a-4a70-a9f3-33f1b67cdb1f","ios":"levelo://app?vid=fa690805-233a-4a70-a9f3-33f1b67cdb1f"},"vehicle_type_id":"4","last_reported":1726956470,"current_range_meters":10000,"station_id":"ce4bhr12rcd13ifvqhqg","pricing_plan_id":"cebpf4jnsgd1na2vs0mg"},{"bike_id":"69cf606e-21f6-4a46-9d4b-1cf16e1a2ff5","system_id":"levelo_inurba_marseille","lat":43.2952,"lon":5.39414,"is_reserved":false,"is_disabled":false,"rental_uris":{"android":"levelo://app?vid=69cf606e-21f6-4a46-9d4b-1cf16e1a2ff5","ios":"levelo://app?vid=69cf606e-21f6-4a46-9d4b-1cf16e1a2ff5"},"vehicle_type_id":"4","last_reported":1726956470,"current_range_meters":39200,"station_id":"ce4bh292rcd13ifvqdf0","pricing_plan_id":"cebpf4jnsgd1na2vs0mg"},{"bike_id":"80e63dfc-a645-4d2f-a0b5-3f87a2df0aaa","system_id":"levelo_inurba_marseille","lat":43.2466,"lon":5.38163,"is_reserved":false,"is_disabled":false,"rental_uris":{"android":"levelo://app?vid=80e63dfc-a645-4d2f-a0b5-3f87a2df0aaa","ios":"levelo://app?vid=80e63dfc-a645-4d2f-a0b5-3f87a2df0aaa"},"vehicle_type_id":"4","last_reported":1726956470,"current_range_meters":36800,"station_id":"ce4bhih2rcd13ifvqfr0","pricing_plan_id":"cebpf4jnsgd1na2vs0mg"},{"bike_id":"c557ed26-c8fd-45b9-a9cf-0a27fd81ef9d","system_id":"levelo_inurba_marseille","lat":43.30321,"lon":5.36896,"is_reserved":false,"is_disabled":false,"rental_uris":{"android":"levelo://app?vid=c557ed26-c8fd-45b9-a9cf-0a27fd81ef9d","ios":"levelo://app?vid=c557ed26-c8fd-45b9-a9cf-0a27fd81ef9d"},"vehicle_type_id":"4","last_reported":1726956470,"current_range_meters":24800,"station_id":"ce4bgqh2rcd13ifvqc5g","pricing_plan_id":"cebpf4jnsgd1na2vs0mg"},{"bike_id":"6cde3416-682c-4a6e-8cc5-54eadd7b854c","system_id":"levelo_inurba_marseille","lat":43.29668,"lon":5.37302,"is_reserved":false,"is_disabled":false,"rental_uris":{"android":"levelo://app?vid=6cde3416-682c-4a6e-8cc5-54eadd7b854c","ios":"levelo://app?vid=6cde3416-682c-4a6e-8cc5-54eadd7b854c"},"vehicle_type_id":"4","last_reported":1726956470,"current_range_meters":36000,"station_id":"ce4bgk12rcd13ifvqbj0","pricing_plan_id":"cebpf4jnsgd1na2vs0mg"},{"bike_id":"99f7c695-6320-410a-9a48-9a5e68fe6c24","system_id":"levelo_inurba_marseille","lat":43.31379,"lon":5.38505,"is_reserved":false,"is_disabled":false,"rental_uris":{"android":"levelo://app?vid=99f7c695-6320-410a-9a48-9a5e68fe6c24","ios":"levelo://app?vid=99f7c695-6320-410a-9a48-9a5e68fe6c24"},"vehicle_type_id":"4","last_reported":1726956470,"current_range_meters":10800,"station_id":"ce4bgt92rcd13ifvqcf0","pricing_plan_id":"cebpf4jnsgd1na2vs0mg"},{"bike_id":"9b99dcf3-e200-494b-9484-34b2c30be53e","system_id":"levelo_inurba_marseille","lat":43.248014,"lon":5.374621,"is_reserved":false,"is_disabled":false,"rental_uris":{"android":"levelo://app?vid=9b99dcf3-e200-494b-9484-34b2c30be53e","ios":"levelo://app?vid=9b99dcf3-e200-494b-9484-34b2c30be53e"},"vehicle_type_id":"4","last_reported":1726956470,"current_range_meters":28000,"station_id":"ce4bhgh2rcd13ifvqfb0","pricing_plan_id":"cebpf4jnsgd1na2vs0mg"},{"bike_id":"b2763354-ec6c-4733-8de6-6c4493759ae9","system_id":"levelo_inurba_marseille","lat":43.29044,"lon":5.40135,"is_reserved":false,"is_disabled":false,"rental_uris":{"android":"levelo://app?vid=b2763354-ec6c-4733-8de6-6c4493759ae9","ios":"levelo://app?vid=b2763354-ec6c-4733-8de6-6c4493759ae9"},"vehicle_type_id":"4","last_reported":1726956470,"current_range_meters":11200,"station_id":"","pricing_plan_id":"cebpf4jnsgd1na2vs0mg"},{"bike_id":"7507f644-3548-4f39-bc85-a6db10d5302c","system_id":"levelo_inurba_marseille","lat":43.23955,"lon":5.36631,"is_reserved":false,"is_disabled":false,"rental_uris":{"android":"levelo://app?vid=7507f644-3548-4f39-bc85-a6db10d5302c","ios":"levelo://app?vid=7507f644-3548-4f39-bc85-a6db10d5302c"},"vehicle_type_id":"4","last_reported":1726956470,"current_range_meters":9600,"station_id":"ce4bhi12rcd13ifvqfp0","pricing_plan_id":"cebpf4jnsgd1na2vs0mg"},{"bike_id":"25132b35-4706-43bb-a221-fa452b170781","system_id":"levelo_inurba_marseille","lat":43.30307,"lon":5.40361,"is_reserved":false,"is_disabled":false,"rental_uris":{"android":"levelo://app?vid=25132b35-4706-43bb-a221-fa452b170781","ios":"levelo://app?vid=25132b35-4706-43bb-a221-fa452b170781"},"vehicle_type_id":"4","last_reported":1726956470,"current_range_meters":3200,"station_id":"","pricing_plan_id":"cebpf4jnsgd1na2vs0mg"},{"bike_id":"27647e7e-ffb5-4268-b96f-98e8829957be","system_id":"levelo_inurba_marseille","lat":43.30906,"lon":5.36851,"is_reserved":false,"is_disabled":false,"rental_uris":{"android":"levelo://app?vid=27647e7e-ffb5-4268-b96f-98e8829957be","ios":"levelo://app?vid=27647e7e-ffb5-4268-b96f-98e8829957be"},"vehicle_type_id":"4","last_reported":1726956470,"current_range_meters":37600,"station_id":"ce4bgn92rcd13ifvqbvg","pricing_plan_id":"cebpf4jnsgd1na2vs0mg"},{"bike_id":"e31de2a4-85fb-467d-a504-2f3cf4294688","system_id":"levelo_inurba_marseille","lat":43.25816,"lon":5.39432,"is_reserved":false,"is_disabled":false,"rental_uris":{"android":"levelo://app?vid=e31de2a4-85fb-467d-a504-2f3cf4294688","ios":"levelo://app?vid=e31de2a4-85fb-467d-a504-2f3cf4294688"},"vehicle_type_id":"4","last_reported":1726956470,"current_range_meters":30800,"station_id":"ce4bhip2rcd13ifvqft0","pricing_plan_id":"cebpf4jnsgd1na2vs0mg"},{"bike_id":"2bb7f320-ae8b-41c8-b4b9-85984e51b0d4","system_id":"levelo_inurba_marseille","lat":43.31354,"lon":5.38495,"is_reserved":false,"is_disabled":false,"rental_uris":{"android":"levelo://app?vid=2bb7f320-ae8b-41c8-b4b9-85984e51b0d4","ios":"levelo://app?vid=2bb7f320-ae8b-41c8-b4b9-85984e51b0d4"},"vehicle_type_id":"4","last_reported":1726956470,"current_range_meters":16800,"station_id":"ce4bgt92rcd13ifvqcf0","pricing_plan_id":"cebpf4jnsgd1na2vs0mg"},{"bike_id":"f3771ae0-e644-4fbf-9d69-447f706dc8ee","system_id":"levelo_inurba_marseille","lat":43.29533,"lon":5.38542,"is_reserved":false,"is_disabled":false,"rental_uris":{"android":"levelo://app?vid=f3771ae0-e644-4fbf-9d69-447f706dc8ee","ios":"levelo://app?vid=f3771ae0-e644-4fbf-9d69-447f706dc8ee"},"vehicle_type_id":"4","last_reported":1726956470,"current_range_meters":20000,"station_id":"ce4bgih2rcd13ifvqba0","pricing_plan_id":"cebpf4jnsgd1na2vs0mg"},{"bike_id":"a7959d80-e847-4449-a79e-762be98146a1","system_id":"levelo_inurba_marseille","lat":43.29525,"lon":5.38539,"is_reserved":false,"is_disabled":false,"rental_uris":{"android":"levelo://app?vid=a7959d80-e847-4449-a79e-762be98146a1","ios":"levelo://app?vid=a7959d80-e847-4449-a79e-762be98146a1"},"vehicle_type_id":"4","last_reported":1726956470,"current_range_meters":16000,"station_id":"ce4bgih2rcd13ifvqba0","pricing_plan_id":"cebpf4jnsgd1na2vs0mg"},{"bike_id":"2b40b9d7-323b-4207-b2de-d3cf4cff3e1f","system_id":"levelo_inurba_marseille","lat":43.23197,"lon":5.35552,"is_reserved":false,"is_disabled":false,"rental_uris":{"android":"levelo://app?vid=2b40b9d7-323b-4207-b2de-d3cf4cff3e1f","ios":"levelo://app?vid=2b40b9d7-323b-4207-b2de-d3cf4cff3e1f"},"vehicle_type_id":"4","last_reported":1726956470,"current_range_meters":18800,"station_id":"ce4bhu92rcd13ifvqi70","pricing_plan_id":"cebpf4jnsgd1na2vs0mg"},{"bike_id":"f1c65647-c1b0-4c23-bf04-752b6fa29535","system_id":"levelo_inurba_marseille","lat":43.31695,"lon":5.37758,"is_reserved":false,"is_disabled":false,"rental_uris":{"android":"levelo://app?vid=f1c65647-c1b0-4c23-bf04-752b6fa29535","ios":"levelo://app?vid=f1c65647-c1b0-4c23-bf04-752b6fa29535"},"vehicle_type_id":"4","last_reported":1726956470,"current_range_meters":39200,"station_id":"ce4bgth2rcd13ifvqch0","pricing_plan_id":"cebpf4jnsgd1na2vs0mg"},{"bike_id":"a3d2ed8b-d701-4635-8c95-5b457c7ce42b","system_id":"levelo_inurba_marseille","lat":43.29023,"lon":5.3864,"is_reserved":false,"is_disabled":false,"rental_uris":{"android":"levelo://app?vid=a3d2ed8b-d701-4635-8c95-5b457c7ce42b","ios":"levelo://app?vid=a3d2ed8b-d701-4635-8c95-5b457c7ce42b"},"vehicle_type_id":"4","last_reported":1726956470,"current_range_meters":38800,"station_id":"ce4bh4p2rcd13ifvqe0g","pricing_plan_id":"cebpf4jnsgd1na2vs0mg"},{"bike_id":"8af29ccc-a1b9-40bd-b0c6-2ba1a3cc6b7f","system_id":"levelo_inurba_marseille","lat":43.29982,"lon":5.38502,"is_reserved":false,"is_disabled":false,"rental_uris":{"android":"levelo://app?vid=8af29ccc-a1b9-40bd-b0c6-2ba1a3cc6b7f","ios":"levelo://app?vid=8af29ccc-a1b9-40bd-b0c6-2ba1a3cc6b7f"},"vehicle_type_id":"4","last_reported":1726956470,"current_range_meters":7200,"station_id":"ce4bgj92rcd13ifvqbd0","pricing_plan_id":"cebpf4jnsgd1na2vs0mg"},{"bike_id":"9f125b04-9b15-4419-bd68-031fb7013f27","system_id":"levelo_inurba_marseille","lat":43.32369,"lon":5.38886,"is_reserved":false,"is_disabled":false,"rental_uris":{"android":"levelo://app?vid=9f125b04-9b15-4419-bd68-031fb7013f27","ios":"levelo://app?vid=9f125b04-9b15-4419-bd68-031fb7013f27"},"vehicle_type_id":"4","last_reported":1726956470,"current_range_meters":22400,"station_id":"ce4bhqp2rcd13ifvqhog","pricing_plan_id":"cebpf4jnsgd1na2vs0mg"},{"bike_id":"356a8421-8494-4de4-8b4d-7e126a095577","system_id":"levelo_inurba_marseille","lat":43.29098,"lon":5.38146,"is_reserved":false,"is_disabled":false,"rental_uris":{"android":"levelo://app?vid=356a8421-8494-4de4-8b4d-7e126a095577","ios":"levelo://app?vid=356a8421-8494-4de4-8b4d-7e126a095577"},"vehicle_type_id":"4","last_reported":1726956470,"current_range_meters":38000,"station_id":"ce4bh512rcd13ifvqe2g","pricing_plan_id":"cebpf4jnsgd1na2vs0mg"},{"bike_id":"f20f670c-aa2a-442b-ad2a-1debbdde948f","system_id":"levelo_inurba_marseille","lat":43.24807,"lon":5.37458,"is_reserved":false,"is_disabled":false,"rental_uris":{"android":"levelo://app?vid=f20f670c-aa2a-442b-ad2a-1debbdde948f","ios":"levelo://app?vid=f20f670c-aa2a-442b-ad2a-1debbdde948f"},"vehicle_type_id":"4","last_reported":1726956470,"current_range_meters":25600,"station_id":"ce4bhgh2rcd13ifvqfb0","pricing_plan_id":"cebpf4jnsgd1na2vs0mg"},{"bike_id":"9126c3cf-de38-4e8c-9d0f-cb288bc3c714","system_id":"levelo_inurba_marseille","lat":43.310791,"lon":5.424335,"is_reserved":false,"is_disabled":false,"rental_uris":{"android":"levelo://app?vid=9126c3cf-de38-4e8c-9d0f-cb288bc3c714","ios":"levelo://app?vid=9126c3cf-de38-4e8c-9d0f-cb288bc3c714"},"vehicle_type_id":"4","last_reported":1726956470,"current_range_meters":25200,"station_id":"ce4bhp92rcd13ifvqhag","pricing_plan_id":"cebpf4jnsgd1na2vs0mg"},{"bike_id":"19e53098-147f-4b3d-9c6d-b7de3d4ee792","system_id":"levelo_inurba_marseille","lat":43.28642,"lon":5.38834,"is_reserved":false,"is_disabled":false,"rental_uris":{"android":"levelo://app?vid=19e53098-147f-4b3d-9c6d-b7de3d4ee792","ios":"levelo://app?vid=19e53098-147f-4b3d-9c6d-b7de3d4ee792"},"vehicle_type_id":"4","last_reported":1726956470,"current_range_meters":36400,"station_id":"","pricing_plan_id":"cebpf4jnsgd1na2vs0mg"},{"bike_id":"fcdbecf9-c036-4033-9bec-0d008ce97e98","system_id":"levelo_inurba_marseille","lat":43.29779,"lon":5.37101,"is_reserved":false,"is_disabled":false,"rental_uris":{"android":"levelo://app?vid=fcdbecf9-c036-4033-9bec-0d008ce97e98","ios":"levelo://app?vid=fcdbecf9-c036-4033-9bec-0d008ce97e98"},"vehicle_type_id":"4","last_reported":1726956470,"current_range_meters":8400,"station_id":"ce4bgop2rcd13ifvqc1g","pricing_plan_id":"cebpf4jnsgd1na2vs0mg"},{"bike_id":"fd75d0de-64a6-4bd1-ba82-21e5b5669e46","system_id":"levelo_inurba_marseille","lat":43.29027,"lon":5.38643,"is_reserved":false,"is_disabled":false,"rental_uris":{"android":"levelo://app?vid=fd75d0de-64a6-4bd1-ba82-21e5b5669e46","ios":"levelo://app?vid=fd75d0de-64a6-4bd1-ba82-21e5b5669e46"},"vehicle_type_id":"4","last_reported":1726956470,"current_range_meters":26800,"station_id":"ce4bh4p2rcd13ifvqe0g","pricing_plan_id":"cebpf4jnsgd1na2vs0mg"},{"bike_id":"da048515-ba92-4349-b7d4-e67776331e61","system_id":"levelo_inurba_marseille","lat":43.29526,"lon":5.38545,"is_reserved":false,"is_disabled":false,"rental_uris":{"android":"levelo://app?vid=da048515-ba92-4349-b7d4-e67776331e61","ios":"levelo://app?vid=da048515-ba92-4349-b7d4-e67776331e61"},"vehicle_type_id":"4","last_reported":1726956470,"current_range_meters":20400,"station_id":"ce4bgih2rcd13ifvqba0","pricing_plan_id":"cebpf4jnsgd1na2vs0mg"},{"bike_id":"cc7ad9ef-322d-4096-9bb5-bdd7e2683284","system_id":"levelo_inurba_marseille","lat":43.30589,"lon":5.3935,"is_reserved":false,"is_disabled":false,"rental_uris":{"android":"levelo://app?vid=cc7ad9ef-322d-4096-9bb5-bdd7e2683284","ios":"levelo://app?vid=cc7ad9ef-322d-4096-9bb5-bdd7e2683284"},"vehicle_type_id":"4","last_reported":1726956470,"current_range_meters":9200,"station_id":"ce4bh0p2rcd13ifvqd80","pricing_plan_id":"cebpf4jnsgd1na2vs0mg"},{"bike_id":"267b0a49-2bd3-4de1-b3c5-11dc3b5703a8","system_id":"levelo_inurba_marseille","lat":43.2942,"lon":5.38628,"is_reserved":false,"is_disabled":false,"rental_uris":{"android":"levelo://app?vid=267b0a49-2bd3-4de1-b3c5-11dc3b5703a8","ios":"levelo://app?vid=267b0a49-2bd3-4de1-b3c5-11dc3b5703a8"},"vehicle_type_id":"4","last_reported":1726956470,"current_range_meters":38800,"station_id":"ce4bh2h2rcd13ifvqdh0","pricing_plan_id":"cebpf4jnsgd1na2vs0mg"},{"bike_id":"1c8211c0-8f2e-46ae-a682-54510508d182","system_id":"levelo_inurba_marseille","lat":43.29624,"lon":5.37171,"is_reserved":false,"is_disabled":false,"rental_uris":{"android":"levelo://app?vid=1c8211c0-8f2e-46ae-a682-54510508d182","ios":"levelo://app?vid=1c8211c0-8f2e-46ae-a682-54510508d182"},"vehicle_type_id":"4","last_reported":1726956470,"current_range_meters":36000,"station_id":"ce4bgnh2rcd13ifvqc0g","pricing_plan_id":"cebpf4jnsgd1na2vs0mg"},{"bike_id":"e6fe0570-7c91-4dae-8564-032a556abdc0","system_id":"levelo_inurba_marseille","lat":43.30315,"lon":5.36902,"is_reserved":false,"is_disabled":false,"rental_uris":{"android":"levelo://app?vid=e6fe0570-7c91-4dae-8564-032a556abdc0","ios":"levelo://app?vid=e6fe0570-7c91-4dae-8564-032a556abdc0"},"vehicle_type_id":"4","last_reported":1726956470,"current_range_meters":38400,"station_id":"ce4bgqh2rcd13ifvqc5g","pricing_plan_id":"cebpf4jnsgd1na2vs0mg"},{"bike_id":"b6309120-084b-4d13-8337-02329fee26f1","system_id":"levelo_inurba_marseille","lat":43.28154,"lon":5.42644,"is_reserved":false,"is_disabled":false,"rental_uris":{"android":"levelo://app?vid=b6309120-084b-4d13-8337-02329fee26f1","ios":"levelo://app?vid=b6309120-084b-4d13-8337-02329fee26f1"},"vehicle_type_id":"4","last_reported":1726956470,"current_range_meters":20000,"station_id":"ce4bhnh2rcd13ifvqgug","pricing_plan_id":"cebpf4jnsgd1na2vs0mg"},{"bike_id":"55e2529a-bd46-4675-8c94-1029de65dc6f","system_id":"levelo_inurba_marseille","lat":43.23152,"lon":5.43714,"is_reserved":false,"is_disabled":false,"rental_uris":{"android":"levelo://app?vid=55e2529a-bd46-4675-8c94-1029de65dc6f","ios":"levelo://app?vid=55e2529a-bd46-4675-8c94-1029de65dc6f"},"vehicle_type_id":"4","last_reported":1726956470,"current_range_meters":23200,"station_id":"ce4bhmp2rcd13ifvqgog","pricing_plan_id":"cebpf4jnsgd1na2vs0mg"},{"bike_id":"ec1d68b2-e842-4165-ba92-0b5b09dd357a","system_id":"levelo_inurba_marseille","lat":43.29601,"lon":5.37715,"is_reserved":false,"is_disabled":false,"rental_uris":{"android":"levelo://app?vid=ec1d68b2-e842-4165-ba92-0b5b09dd357a","ios":"levelo://app?vid=ec1d68b2-e842-4165-ba92-0b5b09dd357a"},"vehicle_type_id":"4","last_reported":1726956470,"current_range_meters":38000,"station_id":"ce4bgth2rcd13ifvqch0","pricing_plan_id":"cebpf4jnsgd1na2vs0mg"},{"bike_id":"31444d97-ada7-4c14-9ccc-e8d8f546def7","system_id":"levelo_inurba_marseille","lat":43.26934,"lon":5.36668,"is_reserved":false,"is_disabled":false,"rental_uris":{"android":"levelo://app?vid=31444d97-ada7-4c14-9ccc-e8d8f546def7","ios":"levelo://app?vid=31444d97-ada7-4c14-9ccc-e8d8f546def7"},"vehicle_type_id":"4","last_reported":1726956470,"current_range_meters":7200,"station_id":"","pricing_plan_id":"cebpf4jnsgd1na2vs0mg"},{"bike_id":"244dd254-79fe-45d7-8154-b8ea8a331c9e","system_id":"levelo_inurba_marseille","lat":43.31331,"lon":5.39696,"is_reserved":false,"is_disabled":false,"rental_uris":{"android":"levelo://app?vid=244dd254-79fe-45d7-8154-b8ea8a331c9e","ios":"levelo://app?vid=244dd254-79fe-45d7-8154-b8ea8a331c9e"},"vehicle_type_id":"4","last_reported":1726956470,"current_range_meters":36800,"station_id":"ce4bgvp2rcd13ifvqcu0","pricing_plan_id":"cebpf4jnsgd1na2vs0mg"},{"bike_id":"0379dddf-12cb-45fe-808a-fdf84c5f2580","system_id":"levelo_inurba_marseille","lat":43.31353,"lon":5.38498,"is_reserved":false,"is_disabled":false,"rental_uris":{"android":"levelo://app?vid=0379dddf-12cb-45fe-808a-fdf84c5f2580","ios":"levelo://app?vid=0379dddf-12cb-45fe-808a-fdf84c5f2580"},"vehicle_type_id":"4","last_reported":1726956470,"current_range_meters":38800,"station_id":"ce4bgt92rcd13ifvqcf0","pricing_plan_id":"cebpf4jnsgd1na2vs0mg"},{"bike_id":"ced66daf-26e0-4b39-8b77-077c35fd4e71","system_id":"levelo_inurba_marseille","lat":43.31069,"lon":5.38353,"is_reserved":false,"is_disabled":false,"rental_uris":{"android":"levelo://app?vid=ced66daf-26e0-4b39-8b77-077c35fd4e71","ios":"levelo://app?vid=ced66daf-26e0-4b39-8b77-077c35fd4e71"},"vehicle_type_id":"4","last_reported":1726956470,"current_range_meters":27600,"station_id":"ce4bgv92rcd13ifvqcr0","pricing_plan_id":"cebpf4jnsgd1na2vs0mg"},