{"last_updated":1774865135,"ttl":60,"version":"2.2","data":{"bikes":[{"bike_id":"78ce74bc-8c9d-4008-acf1-b127bfc6a372","system_id":"levelo_inurba_marseille","lat":43.29769,"lon":5.42777,"is_reserved":false,"is_disabled":false,"rental_uris":{"android":"levelo://app?vid=78ce74bc-8c9d-4008-acf1-b127bfc6a372","ios":"levelo://app?vid=78ce74bc-8c9d-4008-acf1-b127bfc6a372"},"vehicle_type_id":"4","last_reported":1774865135,"current_range_meters":2800,"station_id":"st_d3md5207bmas73dh9klg","pricing_plan_id":"cebpf4jnsgd1na2vs0mg"},{"bike_id":"0166877c-e0b5-42db-a6a9-2d84715f71f7","system_id":"levelo_inurba_marseille","lat":43.33546,"lon":5.37458,"is_reserved":false,"is_disabled":false,"rental_uris":{"android":"levelo://app?vid=0166877c-e0b5-42db-a6a9-2d84715f71f7","ios":"levelo://app?vid=0166877c-e0b5-42db-a6a9-2d84715f71f7"},"vehicle_type_id":"4","last_reported":1774865135,"current_range_meters":2800,"station_id":"st_d46tts09ee8s73dlu43g","pricing_plan_id":"cebpf4jnsgd1na2vs0mg"},{"bike_id":"a4280e67-7d39-4d64-b19b-696e82d601d7","system_id":"levelo_inurba_marseille","lat":43.28534,"lon":5.44102,"is_reserved":false,"is_disabled":false,"rental_uris":{"android":"levelo://app?vid=a4280e67-7d39-4d64-b19b-696e82d601d7","ios":"levelo://app?vid=a4280e67-7d39-4d64-b19b-696e82d601d7"},"vehicle_type_id":"4","last_reported":1774865135,"current_range_meters":2800,"station_id":"st_d3j3df2ikq2c7380ej80","pricing_plan_id":"cebpf4jnsgd1na2vs0mg"},{"bike_id":"b05e7133-d840-46d0-b4cd-ef4cc0d5281e","system_id":"levelo_inurba_marseille","lat":43.29573,"lon":5.42275,"is_reserved":false,"is_disabled":false,"rental_uris":{"android":"levelo://app?vid=b05e7133-d840-46d0-b4cd-ef4cc0d5281e","ios":"levelo://app?vid=b05e7133-d840-46d0-b4cd-ef4cc0d5281e"},"vehicle_type_id":"4","last_reported":1774865135,"current_range_meters":2800,"station_id":"ce4bhph2rcd13ifvqhdg","pricing_plan_id":"cebpf4jnsgd1na2vs0mg"},{"bike_id":"6b1ae015-1742-4483-a44f-6df0a2aebddc","system_id":"levelo_inurba_marseille","lat":43.28643,"lon":5.39511,"is_reserved":false,"is_disabled":false,"rental_uris":{"android":"levelo://app?vid=6b1ae015-1742-4483-a44f-6df0a2aebddc","ios":"levelo://app?vid=6b1ae015-1742-4483-a44f-6df0a2aebddc"},"vehicle_type_id":"4","last_reported":1774865135,"current_range_meters":2800,"station_id":"","pricing_plan_id":"cebpf4jnsgd1na2vs0mg"},{"bike_id":"8c7b4c16-0b73-48e3-b9d7-e565445a012f","system_id":"levelo_inurba_marseille","lat":43.30149,"lon":5.38087,"is_reserved":false,"is_disabled":false,"rental_uris":{"android":"levelo://app?vid=8c7b4c16-0b73-48e3-b9d7-e565445a012f","ios":"levelo://app?vid=8c7b4c16-0b73-48e3-b9d7-e565445a012f"},"vehicle_type_id":"4","last_reported":1774865135,"current_range_meters":2800,"station_id":"ce4bgjp2rcd13ifvqbh0","pricing_plan_id":"cebpf4jnsgd1na2vs0mg"},{"bike_id":"2602a4b9-b179-45bd-93c2-c3f3e6d27714","system_id":"levelo_inurba_marseille","lat":43.286802,"lon":5.386747,"is_reserved":false,"is_disabled":false,"rental_uris":{"android":"levelo://app?vid=2602a4b9-b179-45bd-93c2-c3f3e6d27714","ios":"levelo://app?vid=2602a4b9-b179-45bd-93c2-c3f3e6d27714"},"vehicle_type_id":"4","last_reported":1774865135,"current_range_meters":2800,"station_id":"ce4bh492rcd13ifvqdug","pricing_plan_id":"cebpf4jnsgd1na2vs0mg"},{"bike_id":"9f867f8c-fa23-4629-a0dc-cfec0e9238cb","system_id":"levelo_inurba_marseille","lat":43.30542,"lon":5.367,"is_reserved":false,"is_disabled":false,"rental_uris":{"android":"levelo://app?vid=9f867f8c-fa23-4629-a0dc-cfec0e9238cb","ios":"levelo://app?vid=9f867f8c-fa23-4629-a0dc-cfec0e9238cb"},"vehicle_type_id":"4","last_reported":1774865135,"current_range_meters":2800,"station_id":"ce4bgrp2rcd13ifvqc9g","pricing_plan_id":"cebpf4jnsgd1na2vs0mg"},{"bike_id":"261ccea0-60fa-4ed1-84b8-9968bb71682c","system_id":"levelo_inurba_marseille","lat":43.24646,"lon":5.38899,"is_reserved":false,"is_disabled":false,"rental_uris":{"android":"levelo://app?vid=261ccea0-60fa-4ed1-84b8-9968bb71682c","ios":"levelo://app?vid=261ccea0-60fa-4ed1-84b8-9968bb71682c"},"vehicle_type_id":"4","last_reported":1774865135,"current_range_meters":3200,"station_id":"ce4bhg12rcd13ifvqf60","pricing_plan_id":"cebpf4jnsgd1na2vs0mg"},{"bike_id":"5a269ec1-9340-49c4-96c7-5d499e12231d","system_id":"levelo_inurba_marseille","lat":43.30467,"lon":5.3789,"is_reserved":false,"is_disabled":true,"rental_uris":{"android":"levelo://app?vid=5a269ec1-9340-49c4-96c7-5d499e12231d","ios":"levelo://app?vid=5a269ec1-9340-49c4-96c7-5d499e12231d"},"vehicle_type_id":"4","last_reported":1774865135,"current_range_meters":3200,"station_id":"ce4bgup2rcd13ifvqcn0","pricing_plan_id":"cebpf4jnsgd1na2vs0mg"},{"bike_id":"a71e8aa4-748e-4885-bc6a-7187b068da32","system_id":"levelo_inurba_marseille","lat":43.25733,"lon":5.38685,"is_reserved":false,"is_disabled":false,"rental_uris":{"android":"levelo://app?vid=a71e8aa4-748e-4885-bc6a-7187b068da32","ios":"levelo://app?vid=a71e8aa4-748e-4885-bc6a-7187b068da32"},"vehicle_type_id":"4","last_reported":1774865135,"current_range_meters":3200,"station_id":"","pricing_plan_id":"cebpf4jnsgd1na2vs0mg"},{"bike_id":"f853c738-f8af-4452-82fd-3ddfdc7544d4","system_id":"levelo_inurba_marseille","lat":43.23155,"lon":5.43694,"is_reserved":false,"is_disabled":false,"rental_uris":{"android":"levelo://app?vid=f853c738-f8af-4452-82fd-3ddfdc7544d4","ios":"levelo://app?vid=f853c738-f8af-4452-82fd-3ddfdc7544d4"},"vehicle_type_id":"4","last_reported":1774865135,"current_range_meters":3200,"station_id":"ce4bhmp2rcd13ifvqgog","pricing_plan_id":"cebpf4jnsgd1na2vs0mg"},{"bike_id":"f0cdc608-572a-4bce-8bdf-b72600f2d847","system_id":"levelo_inurba_marseille","lat":43.29533,"lon":5.38548,"is_reserved":false,"is_disabled":false,"rental_uris":{"android":"levelo://app?vid=f0cdc608-572a-4bce-8bdf-b72600f2d847","ios":"levelo://app?vid=f0cdc608-572a-4bce-8bdf-b72600f2d847"},"vehicle_type_id":"4","last_reported":1774865135,"current_range_meters":3200,"station_id":"","pricing_plan_id":"cebpf4jnsgd1na2vs0mg"},{"bike_id":"84c713b7-0b63-4bb8-a6ee-a50270e8a2cc","system_id":"levelo_inurba_marseille","lat":43.29531,"lon":5.38666,"is_reserved":false,"is_disabled":false,"rental_uris":{"android":"levelo://app?vid=84c713b7-0b63-4bb8-a6ee-a50270e8a2cc","ios":"levelo://app?vid=84c713b7-0b63-4bb8-a6ee-a50270e8a2cc"},"vehicle_type_id":"4","last_reported":1774865135,"current_range_meters":3600,"station_id":"","pricing_plan_id":"cebpf4jnsgd1na2vs0mg"},{"bike_id":"172803f2-09bc-4b50-8460-4442ac3a6063","system_id":"levelo_inurba_marseille","lat":43.29821,"lon":5.44067,"is_reserved":false,"is_disabled":false,"rental_uris":{"android":"levelo://app?vid=172803f2-09bc-4b50-8460-4442ac3a6063","ios":"levelo://app?vid=172803f2-09bc-4b50-8460-4442ac3a6063"},"vehicle_type_id":"4","last_reported":1774865135,"current_range_meters":3600,"station_id":"st_d3jp68qikq2c7381ktn0","pricing_plan_id":"cebpf4jnsgd1na2vs0mg"},{"bike_id":"9bd73ab3-d94e-41b6-a4c4-301f19cb0898","system_id":"levelo_inurba_marseille","lat":43.30411,"lon":5.39749,"is_reserved":false,"is_disabled":true,"rental_uris":{"android":"levelo://app?vid=9bd73ab3-d94e-41b6-a4c4-301f19cb0898","ios":"levelo://app?vid=9bd73ab3-d94e-41b6-a4c4-301f19cb0898"},"vehicle_type_id":"4","last_reported":1774865135,"current_range_meters":3600,"station_id":"ce4bh092rcd13ifvqd20","pricing_plan_id":"cebpf4jnsgd1na2vs0mg"},{"bike_id":"4e7f29d2-357a-487f-8923-aaf06a756027","system_id":"levelo_inurba_marseille","lat":43.2847,"lon":5.48399,"is_reserved":false,"is_disabled":false,"rental_uris":{"android":"levelo://app?vid=4e7f29d2-357a-487f-8923-aaf06a756027","ios":"levelo://app?vid=4e7f29d2-357a-487f-8923-aaf06a756027"},"vehicle_type_id":"4","last_reported":1774865135,"current_range_meters":3600,"station_id":"","pricing_plan_id":"cebpf4jnsgd1na2vs0mg"},{"bike_id":"3822ed89-8aff-49d3-9d3f-72dc30c6b081","system_id":"levelo_inurba_marseille","lat":43.27494,"lon":5.4245,"is_reserved":false,"is_disabled":false,"rental_uris":{"android":"levelo://app?vid=3822ed89-8aff-49d3-9d3f-72dc30c6b081","ios":"levelo://app?vid=3822ed89-8aff-49d3-9d3f-72dc30c6b081"},"vehicle_type_id":"4","last_reported":1774865135,"current_range_meters":3600,"station_id":"ce4bhn92rcd13ifvqgrg","pricing_plan_id":"cebpf4jnsgd1na2vs0mg"},{"bike_id":"6bbca9b7-2dd0-4be6-857c-e45b6098a411","system_id":"levelo_inurba_marseille","lat":43.27493,"lon":5.42455,"is_reserved":false,"is_disabled":false,"rental_uris":{"android":"levelo://app?vid=6bbca9b7-2dd0-4be6-857c-e45b6098a411","ios":"levelo://app?vid=6bbca9b7-2dd0-4be6-857c-e45b6098a411"},"vehicle_type_id":"4","last_reported":1774865135,"current_range_meters":3600,"station_id":"ce4bhn92rcd13ifvqgrg","pricing_plan_id":"cebpf4jnsgd1na2vs0mg"},{"bike_id":"99672bd6-038c-4341-8342-44d0a9ae63b9","system_id":"levelo_inurba_marseille","lat":43.25918,"lon":5.40952,"is_reserved":false,"is_disabled":false,"rental_uris":{"android":"levelo://app?vid=99672bd6-038c-4341-8342-44d0a9ae63b9","ios":"levelo://app?vid=99672bd6-038c-4341-8342-44d0a9ae63b9"},"vehicle_type_id":"4","last_reported":1774865135,"current_range_meters":3600,"station_id":"ce4bhm92rcd13ifvqglg","pricing_plan_id":"cebpf4jnsgd1na2vs0mg"},{"bike_id":"685f86b4-f2d8-418a-a33a-b91fe56061bd","system_id":"levelo_inurba_marseille","lat":43.26561,"lon":5.37275,"is_reserved":false,"is_disabled":false,"rental_uris":{"android":"levelo://app?vid=685f86b4-f2d8-418a-a33a-b91fe56061bd","ios":"levelo://app?vid=685f86b4-f2d8-418a-a33a-b91fe56061bd"},"vehicle_type_id":"4","last_reported":1774865135,"current_range_meters":3600,"station_id":"ce4bhg12rcd13ifvqf70","pricing_plan_id":"cebpf4jnsgd1na2vs0mg"},{"bike_id":"5b22f4aa-ee78-4fad-8e5e-5d6f7f7d67ee","system_id":"levelo_inurba_marseille","lat":43.302592,"lon":5.400803,"is_reserved":false,"is_disabled":false,"rental_uris":{"android":"levelo://app?vid=5b22f4aa-ee78-4fad-8e5e-5d6f7f7d67ee","ios":"levelo://app?vid=5b22f4aa-ee78-4fad-8e5e-5d6f7f7d67ee"},"vehicle_type_id":"4","last_reported":1774865135,"current_range_meters":3600,"station_id":"ce4bgt92rcd13ifvqcg0","pricing_plan_id":"cebpf4jnsgd1na2vs0mg"},{"bike_id":"d5d8b5a6-4c71-4feb-ac49-e94e204b862d","system_id":"levelo_inurba_marseille","lat":43.23081,"lon":5.35473,"is_reserved":false,"is_disabled":false,"rental_uris":{"android":"levelo://app?vid=d5d8b5a6-4c71-4feb-ac49-e94e204b862d","ios":"levelo://app?vid=d5d8b5a6-4c71-4feb-ac49-e94e204b862d"},"vehicle_type_id":"4","last_reported":1774865135,"current_range_meters":3600,"station_id":"cpo3342slgdg3j2ifvpg","pricing_plan_id":"cebpf4jnsgd1na2vs0mg"},{"bike_id":"e4956c66-fba0-45d5-a7d2-90ca01f34637","system_id":"levelo_inurba_marseille","lat":43.21747,"lon":5.34603,"is_reserved":false,"is_disabled":false,"rental_uris":{"android":"levelo://app?vid=e4956c66-fba0-45d5-a7d2-90ca01f34637","ios":"levelo://app?vid=e4956c66-fba0-45d5-a7d2-90ca01f34637"},"vehicle_type_id":"4","last_reported":1774865135,"current_range_meters":4000,"station_id":"st_cvj6r9ubvosntc0bgbag","pricing_plan_id":"cebpf4jnsgd1na2vs0mg"},{"bike_id":"9a1e331d-1d6d-423e-90aa-210c6d33f5be","system_id":"levelo_inurba_marseille","lat":43.33269,"lon":5.37919,"is_reserved":false,"is_disabled":false,"rental_uris":{"android":"levelo://app?vid=9a1e331d-1d6d-423e-90aa-210c6d33f5be","ios":"levelo://app?vid=9a1e331d-1d6d-423e-90aa-210c6d33f5be"},"vehicle_type_id":"4","last_reported":1774865135,"current_range_meters":4000,"station_id":"","pricing_plan_id":"cebpf4jnsgd1na2vs0mg"},{"bike_id":"d238cc42-b9be-417c-8554-da52e4baa848","system_id":"levelo_inurba_marseille","lat":43.2417,"lon":5.36394,"is_reserved":false,"is_disabled":false,"rental_uris":{"android":"levelo://app?vid=d238cc42-b9be-417c-8554-da52e4baa848","ios":"levelo://app?vid=d238cc42-b9be-417c-8554-da52e4baa848"},"vehicle_type_id":"4","last_reported":1774865135,"current_range_meters":4000,"station_id":"cpo36qri1sfpv3e86is0","pricing_plan_id":"cebpf4jnsgd1na2vs0mg"},{"bike_id":"4518d333-ae46-4f3f-82be-3d499b7bb7d5","system_id":"levelo_inurba_marseille","lat":43.2337,"lon":5.41259,"is_reserved":false,"is_disabled":true,"rental_uris":{"android":"levelo://app?vid=4518d333-ae46-4f3f-82be-3d499b7bb7d5","ios":"levelo://app?vid=4518d333-ae46-4f3f-82be-3d499b7bb7d5"},"vehicle_type_id":"4","last_reported":1774865135,"current_range_meters":4000,"station_id":"","pricing_plan_id":"cebpf4jnsgd1na2vs0mg"},{"bike_id":"56aa2b32-e01e-42c0-ac20-7596f8f8c60e","system_id":"levelo_inurba_marseille","lat":43.26541,"lon":5.37286,"is_reserved":false,"is_disabled":true,"rental_uris":{"android":"levelo://app?vid=56aa2b32-e01e-42c0-ac20-7596f8f8c60e","ios":"levelo://app?vid=56aa2b32-e01e-42c0-ac20-7596f8f8c60e"},"vehicle_type_id":"4","last_reported":1774865135,"current_range_meters":4000,"station_id":"ce4bhg12rcd13ifvqf70","pricing_plan_id":"cebpf4jnsgd1na2vs0mg"},{"bike_id":"28af8d2b-5bac-433a-894a-9e17123ae234","system_id":"levelo_inurba_marseille","lat":43.28543,"lon":5.441,"is_reserved":false,"is_disabled":false,"rental_uris":{"android":"levelo://app?vid=28af8d2b-5bac-433a-894a-9e17123ae234","ios":"levelo://app?vid=28af8d2b-5bac-433a-894a-9e17123ae234"},"vehicle_type_id":"4","last_reported":1774865135,"current_range_meters":4000,"station_id":"st_d3j3df2ikq2c7380ej80","pricing_plan_id":"cebpf4jnsgd1na2vs0mg"},{"bike_id":"0c7b749c-be4c-4fcd-bb57-c9b3466e9c42","system_id":"levelo_inurba_marseille","lat":43.3036,"lon":5.41878,"is_reserved":false,"is_disabled":false,"rental_uris":{"android":"levelo://app?vid=0c7b749c-be4c-4fcd-bb57-c9b3466e9c42","ios":"levelo://app?vid=0c7b749c-be4c-4fcd-bb57-c9b3466e9c42"},"vehicle_type_id":"4","last_reported":1774865135,"current_range_meters":4000,"station_id":"ce4bhop2rcd13ifvqh7g","pricing_plan_id":"cebpf4jnsgd1na2vs0mg"},{"bike_id":"41afc273-963e-45e1-a1be-f2a593b52cc3","system_id":"levelo_inurba_marseille","lat":43.32662,"lon":5.4099,"is_reserved":false,"is_disabled":false,"rental_uris":{"android":"levelo://app?vid=41afc273-963e-45e1-a1be-f2a593b52cc3","ios":"levelo://app?vid=41afc273-963e-45e1-a1be-f2a593b52cc3"},"vehicle_type_id":"4","last_reported":1774865135,"current_range_meters":4000,"station_id":"ce4bhpp2rcd13ifvqhgg","pricing_plan_id":"cebpf4jnsgd1na2vs0mg"},{"bike_id":"d4ac0334-4fd3-41d1-a329-ac68de885b13","system_id":"levelo_inurba_marseille","lat":43.22562,"lon":5.41623,"is_reserved":false,"is_disabled":false,"rental_uris":{"android":"levelo://app?vid=d4ac0334-4fd3-41d1-a329-ac68de885b13","ios":"levelo://app?vid=d4ac0334-4fd3-41d1-a329-ac68de885b13"},"vehicle_type_id":"4","last_reported":1774865135,"current_range_meters":4000,"station_id":"st_d2o4gvlbi1j2169b742g","pricing_plan_id":"cebpf4jnsgd1na2vs0mg"},{"bike_id":"d842a058-6f86-45cd-85c0-ff40cefd04a4","system_id":"levelo_inurba_marseille","lat":43.29913,"lon":5.37459,"is_reserved":false,"is_disabled":false,"rental_uris":{"android":"levelo://app?vid=d842a058-6f86-45cd-85c0-ff40cefd04a4","ios":"levelo://app?vid=d842a058-6f86-45cd-85c0-ff40cefd04a4"},"vehicle_type_id":"4","last_reported":1774865135,"current_range_meters":4000,"station_id":"ce4bgjh2rcd13ifvqbg0","pricing_plan_id":"cebpf4jnsgd1na2vs0mg"},{"bike_id":"803f4719-04a4-494d-919f-f0c60480260b","system_id":"levelo_inurba_marseille","lat":43.24804,"lon":5.37439,"is_reserved":false,"is_disabled":false,"rental_uris":{"android":"levelo://app?vid=803f4719-04a4-494d-919f-f0c60480260b","ios":"levelo://app?vid=803f4719-04a4-494d-919f-f0c60480260b"},"vehicle_type_id":"4","last_reported":1774865135,"current_range_meters":4400,"station_id":"ce4bhgh2rcd13ifvqfb0","pricing_plan_id":"cebpf4jnsgd1na2vs0mg"},{"bike_id":"cf4e3fa9-d978-402d-a7de-801baf166355","system_id":"levelo_inurba_marseille","lat":43.30316,"lon":5.36873,"is_reserved":false,"is_disabled":false,"rental_uris":{"android":"levelo://app?vid=cf4e3fa9-d978-402d-a7de-801baf166355","ios":"levelo://app?vid=cf4e3fa9-d978-402d-a7de-801baf166355"},"vehicle_type_id":"4","last_reported":1774865135,"current_range_meters":4400,"station_id":"ce4bgqh2rcd13ifvqc5g","pricing_plan_id":"cebpf4jnsgd1na2vs0mg"},{"bike_id":"0e5ccaad-77f1-40ad-ae87-580e94dbec88","system_id":"levelo_inurba_marseille","lat":43.31123,"lon":5.37751,"is_reserved":false,"is_disabled":false,"rental_uris":{"android":"levelo://app?vid=0e5ccaad-77f1-40ad-ae87-580e94dbec88","ios":"levelo://app?vid=0e5ccaad-77f1-40ad-ae87-580e94dbec88"},"vehicle_type_id":"4","last_reported":1774865135,"current_range_meters":4400,"station_id":"ce4bgt92rcd13ifvqcg0","pricing_plan_id":"cebpf4jnsgd1na2vs0mg"},{"bike_id":"e8cb18d8-1065-49ec-b1d9-217635f90878","system_id":"levelo_inurba_marseille","lat":43.32531,"lon":5.36561,"is_reserved":false,"is_disabled":false,"rental_uris":{"android":"levelo://app?vid=e8cb18d8-1065-49ec-b1d9-217635f90878","ios":"levelo://app?vid=e8cb18d8-1065-49ec-b1d9-217635f90878"},"vehicle_type_id":"4","last_reported":1774865135,"current_range_meters":4400,"station_id":"","pricing_plan_id":"cebpf4jnsgd1na2vs0mg"},{"bike_id":"b8ec0b9a-6353-4141-ad88-1aae2c10ae31","system_id":"levelo_inurba_marseille","lat":43.29077,"lon":5.43088,"is_reserved":false,"is_disabled":false,"rental_uris":{"android":"levelo://app?vid=b8ec0b9a-6353-4141-ad88-1aae2c10ae31","ios":"levelo://app?vid=b8ec0b9a-6353-4141-ad88-1aae2c10ae31"},"vehicle_type_id":"4","last_reported":1774865135,"current_range_meters":4400,"station_id":"","pricing_plan_id":"cebpf4jnsgd1na2vs0mg"},{"bike_id":"0beeb1a7-3c04-43a2-a7f8-69beb8048854","system_id":"levelo_inurba_marseille","lat":43.24683,"lon":5.38132,"is_reserved":false,"is_disabled":false,"rental_uris":{"android":"levelo://app?vid=0beeb1a7-3c04-43a2-a7f8-69beb8048854","ios":"levelo://app?vid=0beeb1a7-3c04-43a2-a7f8-69beb8048854"},"vehicle_type_id":"4","last_reported":1774865135,"current_range_meters":4400,"station_id":"ce4bhih2rcd13ifvqfr0","pricing_plan_id":"cebpf4jnsgd1na2vs0mg"},{"bike_id":"2e2f6f92-a6a4-45c0-97c3-957e3d8f2b5d","system_id":"levelo_inurba_marseille","lat":43.29361,"lon":5.38316,"is_reserved":false,"is_disabled":false,"rental_uris":{"android":"levelo://app?vid=2e2f6f92-a6a4-45c0-97c3-957e3d8f2b5d","ios":"levelo://app?vid=2e2f6f92-a6a4-45c0-97c3-957e3d8f2b5d"},"vehicle_type_id":"4","last_reported":1774865135,"current_range_meters":4800,"station_id":"","pricing_plan_id":"cebpf4jnsgd1na2vs0mg"},{"bike_id":"c07aa2dd-1092-4400-9c39-93aef6a06842","system_id":"levelo_inurba_marseille","lat":43.27617,"lon":5.36105,"is_reserved":false,"is_disabled":false,"rental_uris":{"android":"levelo://app?vid=c07aa2dd-1092-4400-9c39-93aef6a06842","ios":"levelo://app?vid=c07aa2dd-1092-4400-9c39-93aef6a06842"},"vehicle_type_id":"4","last_reported":1774865135,"current_range_meters":4800,"station_id":"ce4bgj92rcd13ifvqbe0","pricing_plan_id":"cebpf4jnsgd1na2vs0mg"},{"bike_id":"ce7a3b24-907c-4d1b-affa-a23d750b357b","system_id":"levelo_inurba_marseille","lat":43.28475,"lon":5.48394,"is_reserved":false,"is_disabled":false,"rental_uris":{"android":"levelo://app?vid=ce7a3b24-907c-4d1b-affa-a23d750b357b","ios":"levelo://app?vid=ce7a3b24-907c-4d1b-affa-a23d750b357b"},"vehicle_type_id":"4","last_reported":1774865135,"current_range_meters":4800,"station_id":"","pricing_plan_id":"cebpf4jnsgd1na2vs0mg"},{"bike_id":"f3dc6696-e61b-4b66-bcd1-e83bcf1e9bcc","system_id":"levelo_inurba_marseille","lat":43.30563,"lon":5.3713,"is_reserved":false,"is_disabled":true,"rental_uris":{"android":"levelo://app?vid=f3dc6696-e61b-4b66-bcd1-e83bcf1e9bcc","ios":"levelo://app?vid=f3dc6696-e61b-4b66-bcd1-e83bcf1e9bcc"},"vehicle_type_id":"4","last_reported":1774865135,"current_range_meters":4800,"station_id":"","pricing_plan_id":"cebpf4jnsgd1na2vs0mg"},{"bike_id":"e4ac35e4-8859-436b-9a81-4c436fcedcff","system_id":"levelo_inurba_marseille","lat":43.2853,"lon":5.44134,"is_reserved":false,"is_disabled":false,"rental_uris":{"android":"levelo://app?vid=e4ac35e4-8859-436b-9a81-4c436fcedcff","ios":"levelo://app?vid=e4ac35e4-8859-436b-9a81-4c436fcedcff"},"vehicle_type_id":"4","last_reported":1774865135,"current_range_meters":4800,"station_id":"st_d3j3df2ikq2c7380ej80","pricing_plan_id":"cebpf4jnsgd1na2vs0mg"},{"bike_id":"450a50c7-782c-4e09-a807-a4914be02239","system_id":"levelo_inurba_marseille","lat":43.28849,"lon":5.39351,"is_reserved":false,"is_disabled":false,"rental_uris":{"android":"levelo://app?vid=450a50c7-782c-4e09-a807-a4914be02239","ios":"levelo://app?vid=450a50c7-782c-4e09-a807-a4914be02239"},"vehicle_type_id":"4","last_reported":1774865135,"current_range_meters":4800,"station_id":"ce4bh2p2rcd13ifvqdi0","pricing_plan_id":"cebpf4jnsgd1na2vs0mg"},{"bike_id":"c8f4c43b-5a4c-417a-ac5d-3eb1afdb2fe0","system_id":"levelo_inurba_marseille","lat":43.32475,"lon":5.3657,"is_reserved":false,"is_disabled":false,"rental_uris":{"android":"levelo://app?vid=c8f4c43b-5a4c-417a-ac5d-3eb1afdb2fe0","ios":"levelo://app?vid=c8f4c43b-5a4c-417a-ac5d-3eb1afdb2fe0"},"vehicle_type_id":"4","last_reported":1774865135,"current_range_meters":5600,"station_id":"ce4bhs12rcd13ifvqhvg","pricing_plan_id":"cebpf4jnsgd1na2vs0mg"},{"bike_id":"4d2b67b6-d46e-4833-b02c-3d78b5a6a1da","system_id":"levelo_inurba_marseille","lat":43.30152,"lon":5.38089,"is_reserved":false,"is_disabled":false,"rental_uris":{"android":"levelo://app?vid=4d2b67b6-d46e-4833-b02c-3d78b5a6a1da","ios":"levelo://app?vid=4d2b67b6-d46e-4833-b02c-3d78b5a6a1da"},"vehicle_type_id":"4","last_reported":1774865135,"current_range_meters":5600,"station_id":"ce4bgjp2rcd13ifvqbh0","pricing_plan_id":"cebpf4jnsgd1na2vs0mg"},{"bike_id":"23f00a98-bea4-4237-b995-2165156e5561","system_id":"levelo_inurba_marseille","lat":43.27494,"lon":5.42458,"is_reserved":false,"is_disabled":false,"rental_uris":{"android":"levelo://app?vid=23f00a98-bea4-4237-b995-2165156e5561","ios":"levelo://app?vid=23f00a98-bea4-4237-b995-2165156e5561"},"vehicle_type_id":"4","last_reported":1774865135,"current_range_meters":5600,"station_id":"ce4bhn92rcd13ifvqgrg","pricing_plan_id":"cebpf4jnsgd1na2vs0mg"},{"bike_id":"02217484-4f32-44c2-b7a8-2ef38d2857a8","system_id":"levelo_inurba_marseille","lat":43.25833,"lon":5.39427,"is_reserved":false,"is_disabled":false,"rental_uris":{"android":"levelo://app?vid=02217484-4f32-44c2-b7a8-2ef38d2857a8","ios":"levelo://app?vid=02217484-4f32-44c2-b7a8-2ef38d2857a8"},"vehicle_type_id":"4","last_reported":1774865135,"current_range_meters":5600,"station_id":"ce4bhip2rcd13ifvqft0","pricing_plan_id":"cebpf4jnsgd1na2vs0mg"},{"bike_id":"e3c3026d-0408-46a1-8e06-81449a03debf","system_id":"levelo_inurba_marseille","lat":43.28848,"lon":5.35846,"is_reserved":false,"is_disabled":false,"rental_uris":{"android":"levelo://app?vid=e3c3026d-0408-46a1-8e06-81449a03debf","ios":"levelo://app?vid=e3c3026d-0408-46a1-8e06-81449a03debf"},"vehicle_type_id":"4","last_reported":1774865135,"current_range_meters":5600,"station_id":"ce4bhb12rcd13ifvqem0","pricing_plan_id":"cebpf4jnsgd1na2vs0mg"},{"bike_id":"540be3e0-9d14-4ae8-a2fd-86a6498b10eb","system_id":"levelo_inurba_marseille","lat":43.27487,"lon":5.42461,"is_reserved":false,"is_disabled":false,"rental_uris":{"android":"levelo://app?vid=540be3e0-9d14-4ae8-a2fd-86a6498b10eb","ios":"levelo://app?vid=540be3e0-9d14-4ae8-a2fd-86a6498b10eb"},"vehicle_type_id":"4","last_reported":1774865135,"current_range_meters":5600,"station_id":"ce4bhn92rcd13ifvqgrg","pricing_plan_id":"cebpf4jnsgd1na2vs0mg"},{"bike_id":"47f8e4d1-cb60-42bb-bcee-555499af1955","system_id":"levelo_inurba_marseille","lat":43.28658,"lon":5.36349,"is_reserved":false,"is_disabled":false,"rental_uris":{"android":"levelo://app?vid=47f8e4d1-cb60-42bb-bcee-555499af1955","ios":"levelo://app?vid=47f8e4d1-cb60-42bb-bcee-555499af1955"},"vehicle_type_id":"4","last_reported":1774865135,"current_range_meters":5600,"station_id":"ce4bhah2rcd13ifvqej0","pricing_plan_id":"cebpf4jnsgd1na2vs0mg"},{"bike_id":"b2b0f91c-4b30-4327-b77b-c15d00d9fbd5","system_id":"levelo_inurba_marseille","lat":43.29382,"lon":5.37857,"is_reserved":false,"is_disabled":false,"rental_uris":{"android":"levelo://app?vid=b2b0f91c-4b30-4327-b77b-c15d00d9fbd5","ios":"levelo://app?vid=b2b0f91c-4b30-4327-b77b-c15d00d9fbd5"},"vehicle_type_id":"4","last_reported":1774865135,"current_range_meters":6000,"station_id":"ce4bgjh2rcd13ifvqbf0","pricing_plan_id":"cebpf4jnsgd1na2vs0mg"},{"bike_id":"cee9b460-3960-4431-84b1-f885e5c227d3","system_id":"levelo_inurba_marseille","lat":43.266,"lon":5.39018,"is_reserved":false,"is_disabled":false,"rental_uris":{"android":"levelo://app?vid=cee9b460-3960-4431-84b1-f885e5c227d3","ios":"levelo://app?vid=cee9b460-3960-4431-84b1-f885e5c227d3"},"vehicle_type_id":"4","last_reported":1774865135,"current_range_meters":6000,"station_id":"ce4bhe12rcd13ifvqf30","pricing_plan_id":"cebpf4jnsgd1na2vs0mg"},{"bike_id":"7ff5e948-0e94-496d-8b12-67c7c2774e67","system_id":"levelo_inurba_marseille","lat":43.28534,"lon":5.44109,"is_reserved":false,"is_disabled":false,"rental_uris":{"android":"levelo://app?vid=7ff5e948-0e94-496d-8b12-67c7c2774e67","ios":"levelo://app?vid=7ff5e948-0e94-496d-8b12-67c7c2774e67"},"vehicle_type_id":"4","last_reported":1774865135,"current_range_meters":6000,"station_id":"st_d3j3df2ikq2c7380ej80","pricing_plan_id":"cebpf4jnsgd1na2vs0mg"},{"bike_id":"88900821-ac79-4ee5-8fc9-e889474b5abd","system_id":"levelo_inurba_marseille","lat":43.28627,"lon":5.3507,"is_reserved":false,"is_disabled":false,"rental_uris":{"android":"levelo://app?vid=88900821-ac79-4ee5-8fc9-e889474b5abd","ios":"levelo://app?vid=88900821-ac79-4ee5-8fc9-e889474b5abd"},"vehicle_type_id":"4","last_reported":1774865135,"current_range_meters":6000,"station_id":"ce4bhch2rcd13ifvqeug","pricing_plan_id":"cebpf4jnsgd1na2vs0mg"},{"bike_id":"99312ae0-f3d7-4587-9732-02842bdc8801","system_id":"levelo_inurba_marseille","lat":43.29522,"lon":5.39034,"is_reserved":false,"is_disabled":false,"rental_uris":{"android":"levelo://app?vid=99312ae0-f3d7-4587-9732-02842bdc8801","ios":"levelo://app?vid=99312ae0-f3d7-4587-9732-02842bdc8801"},"vehicle_type_id":"4","last_reported":1774865135,"current_range_meters":6000,"station_id":"ce4bh3p2rcd13ifvqdp0","pricing_plan_id":"cebpf4jnsgd1na2vs0mg"},{"bike_id":"e027651c-1b58-49be-8465-35e7c80537f6","system_id":"levelo_inurba_marseille","lat":43.28624,"lon":5.35112,"is_reserved":false,"is_disabled":false,"rental_uris":{"android":"levelo://app?vid=e027651c-1b58-49be-8465-35e7c80537f6","ios":"levelo://app?vid=e027651c-1b58-49be-8465-35e7c80537f6"},"vehicle_type_id":"4","last_reported":1774865135,"current_range_meters":6000,"station_id":"ce4bhch2rcd13ifvqeug","pricing_plan_id":"cebpf4jnsgd1na2vs0mg"},{"bike_id":"cd1426e4-2c7b-44d2-ba53-f1a2ad9b4839","system_id":"levelo_inurba_marseille","lat":43.30154,"lon":5.38088,"is_reserved":false,"is_disabled":false,"rental_uris":{"android":"levelo://app?vid=cd1426e4-2c7b-44d2-ba53-f1a2ad9b4839","ios":"levelo://app?vid=cd1426e4-2c7b-44d2-ba53-f1a2ad9b4839"},"vehicle_type_id":"4","last_reported":1774865135,"current_range_meters":6000,"station_id":"ce4bgjp2rcd13ifvqbh0","pricing_plan_id":"cebpf4jnsgd1na2vs0mg"},{"bike_id":"077ec99d-4824-4e24-afbe-fa2dbaf30ea1","system_id":"levelo_inurba_marseille","lat":43.295263,"lon":5.390354,"is_reserved":false,"is_disabled":false,"rental_uris":{"android":"levelo://app?vid=077ec99d-4824-4e24-afbe-fa2dbaf30ea1","ios":"levelo://app?vid=077ec99d-4824-4e24-afbe-fa2dbaf30ea1"},"vehicle_type_id":"4","last_reported":1774865135,"current_range_meters":6000,"station_id":"ce4bh3p2rcd13ifvqdp0","pricing_plan_id":"cebpf4jnsgd1na2vs0mg"},{"bike_id":"25935fd8-662d-438b-8a78-ddcbba487562","system_id":"levelo_inurba_marseille","lat":43.2961,"lon":5.37756,"is_reserved":false,"is_disabled":false,"rental_uris":{"android":"levelo://app?vid=25935fd8-662d-438b-8a78-ddcbba487562","ios":"levelo://app?vid=25935fd8-662d-438b-8a78-ddcbba487562"},"vehicle_type_id":"4","last_reported":1774865135,"current_range_meters":6000,"station_id":"ce4bgi92rcd13ifvqb90","pricing_plan_id":"cebpf4jnsgd1na2vs0mg"},{"bike_id":"215fb887-06ca-4716-9109-47b7d1235915","system_id":"levelo_inurba_marseille","lat":43.29532,"lon":5.39009,"is_reserved":false,"is_disabled":true,"rental_uris":{"android":"levelo://app?vid=215fb887-06ca-4716-9109-47b7d1235915","ios":"levelo://app?vid=215fb887-06ca-4716-9109-47b7d1235915"},"vehicle_type_id":"4","last_reported":1774865135,"current_range_meters":6000,"station_id":"ce4bh3p2rcd13ifvqdp0","pricing_plan_id":"cebpf4jnsgd1na2vs0mg"},{"bike_id":"96b45d31-bef5-4eeb-8979-9268c25a6fe7","system_id":"levelo_inurba_marseille","lat":43.31221,"lon":5.36851,"is_reserved":false,"is_disabled":false,"rental_uris":{"android":"levelo://app?vid=96b45d31-bef5-4eeb-8979-9268c25a6fe7","ios":"levelo://app?vid=96b45d31-bef5-4eeb-8979-9268c25a6fe7"},"vehicle_type_id":"4","last_reported":1774865135,"current_range_meters":6000,"station_id":"ce4bgl92rcd13ifvqbq0","pricing_plan_id":"cebpf4jnsgd1na2vs0mg"},{"bike_id":"5966ab47-3cda-4e62-bd42-ae4a9709b9b1","system_id":"levelo_inurba_marseille","lat":43.26675,"lon":5.38263,"is_reserved":false,"is_disabled":false,"rental_uris":{"android":"levelo://app?vid=5966ab47-3cda-4e62-bd42-ae4a9709b9b1","ios":"levelo://app?vid=5966ab47-3cda-4e62-bd42-ae4a9709b9b1"},"vehicle_type_id":"4","last_reported":1774865135,"current_range_meters":6000,"station_id":"ce4bhg92rcd13ifvqf90","pricing_plan_id":"cebpf4jnsgd1na2vs0mg"},{"bike_id":"abbbcda3-bb9d-4c1e-8438-081df8f75c24","system_id":"levelo_inurba_marseille","lat":43.23782,"lon":5.3661,"is_reserved":false,"is_disabled":false,"rental_uris":{"android":"levelo://app?vid=abbbcda3-bb9d-4c1e-8438-081df8f75c24","ios":"levelo://app?vid=abbbcda3-bb9d-4c1e-8438-081df8f75c24"},"vehicle_type_id":"4","last_reported":1774865135,"current_range_meters":6000,"station_id":"st_d3nk18o9ro0c73en2l3g","pricing_plan_id":"cebpf4jnsgd1na2vs0mg"},{"bike_id":"91eafa08-026f-40c5-b5de-6910a52e733d","system_id":"levelo_inurba_marseille","lat":43.2448,"lon":5.42536,"is_reserved":false,"is_disabled":false,"rental_uris":{"android":"levelo://app?vid=91eafa08-026f-40c5-b5de-6910a52e733d","ios":"levelo://app?vid=91eafa08-026f-40c5-b5de-6910a52e733d"},"vehicle_type_id":"4","last_reported":1774865135,"current_range_meters":6000,"station_id":"st_d4a3vfp97mjs738cd8kg","pricing_plan_id":"cebpf4jnsgd1na2vs0mg"},{"bike_id":"9c294a09-0e02-4e21-a5a9-42829cb67108","system_id":"levelo_inurba_marseille","lat":43.27199,"lon":5.39202,"is_reserved":false,"is_disabled":false,"rental_uris":{"android":"levelo://app?vid=9c294a09-0e02-4e21-a5a9-42829cb67108","ios":"levelo://app?vid=9c294a09-0e02-4e21-a5a9-42829cb67108"},"vehicle_type_id":"4","last_reported":1774865135,"current_range_meters":6000,"station_id":"ce4bhhp2rcd13ifvqfm0","pricing_plan_id":"cebpf4jnsgd1na2vs0mg"},{"bike_id":"5e92f888-0d99-457a-b32e-0cc52a100484","system_id":"levelo_inurba_marseille","lat":43.25832,"lon":5.39417,"is_reserved":false,"is_disabled":false,"rental_uris":{"android":"levelo://app?vid=5e92f888-0d99-457a-b32e-0cc52a100484","ios":"levelo://app?vid=5e92f888-0d99-457a-b32e-0cc52a100484"},"vehicle_type_id":"4","last_reported":1774865135,"current_range_meters":6000,"station_id":"ce4bhip2rcd13ifvqft0","pricing_plan_id":"cebpf4jnsgd1na2vs0mg"},{"bike_id":"dc79fefa-d554-4ea7-b0f6-dfb50b76419c","system_id":"levelo_inurba_marseille","lat":43.25825,"lon":5.39434,"is_reserved":false,"is_disabled":false,"rental_uris":{"android":"levelo://app?vid=dc79fefa-d554-4ea7-b0f6-dfb50b76419c","ios":"levelo://app?vid=dc79fefa-d554-4ea7-b0f6-dfb50b76419c"},"vehicle_type_id":"4","last_reported":1774865135,"current_range_meters":6000,"station_id":"ce4bhip2rcd13ifvqft0","pricing_plan_id":"cebpf4jnsgd1na2vs0mg"},{"bike_id":"dbc917c4-91bc-4425-9406-e24d33c16284","system_id":"levelo_inurba_marseille","lat":43.33543,"lon":5.3743,"is_reserved":false,"is_disabled":false,"rental_uris":{"android":"levelo://app?vid=dbc917c4-91bc-4425-9406-e24d33c16284","ios":"levelo://app?vid=dbc917c4-91bc-4425-9406-e24d33c16284"},"vehicle_type_id":"4","last_reported":1774865135,"current_range_meters":6400,"station_id":"st_d46tts09ee8s73dlu43g","pricing_plan_id":"cebpf4jnsgd1na2vs0mg"},{"bike_id":"8fe266f3-c482-43a4-899c-519358ab6ba4","system_id":"levelo_inurba_marseille","lat":43.3112,"lon":5.37759,"is_reserved":false,"is_disabled":false,"rental_uris":{"android":"levelo://app?vid=8fe266f3-c482-43a4-899c-519358ab6ba4","ios":"levelo://app?vid=8fe266f3-c482-43a4-899c-519358ab6ba4"},"vehicle_type_id":"4","last_reported":1774865135,"current_range_meters":6400,"station_id":"ce4bgt92rcd13ifvqcg0","pricing_plan_id":"cebpf4jnsgd1na2vs0mg"},{"bike_id":"dca0e263-84b7-4dc7-affb-635c293f0879","system_id":"levelo_inurba_marseille","lat":43.29563,"lon":5.42288,"is_reserved":false,"is_disabled":false,"rental_uris":{"android":"levelo://app?vid=dca0e263-84b7-4dc7-affb-635c293f0879","ios":"levelo://app?vid=dca0e263-84b7-4dc7-affb-635c293f0879"},"vehicle_type_id":"4","last_reported":1774865135,"current_range_meters":6400,"station_id":"ce4bhph2rcd13ifvqhdg","pricing_plan_id":"cebpf4jnsgd1na2vs0mg"},{"bike_id":"722178ea-9ec4-4a61-a4f3-4a88327f65c6","system_id":"levelo_inurba_marseille","lat":43.32345,"lon":5.36742,"is_reserved":false,"is_disabled":false,"rental_uris":{"android":"levelo://app?vid=722178ea-9ec4-4a61-a4f3-4a88327f65c6","ios":"levelo://app?vid=722178ea-9ec4-4a61-a4f3-4a88327f65c6"},"vehicle_type_id":"4","last_reported":1774865135,"current_range_meters":6400,"station_id":"ce4bhsh2rcd13ifvqi2g","pricing_plan_id":"cebpf4jnsgd1na2vs0mg"},{"bike_id":"119cad68-1815-4565-81d1-f194b3bbca80","system_id":"levelo_inurba_marseille","lat":43.30307,"lon":5.36892,"is_reserved":false,"is_disabled":false,"rental_uris":{"android":"levelo://app?vid=119cad68-1815-4565-81d1-f194b3bbca80","ios":"levelo://app?vid=119cad68-1815-4565-81d1-f194b3bbca80"},"vehicle_type_id":"4","last_reported":1774865135,"current_range_meters":6400,"station_id":"ce4bgqh2rcd13ifvqc5g","pricing_plan_id":"cebpf4jnsgd1na2vs0mg"},{"bike_id":"f16b920d-4760-44fd-92f5-b6cf293c8515","system_id":"levelo_inurba_marseille","lat":43.23192,"lon":5.35553,"is_reserved":false,"is_disabled":false,"rental_uris":{"android":"levelo://app?vid=f16b920d-4760-44fd-92f5-b6cf293c8515","ios":"levelo://app?vid=f16b920d-4760-44fd-92f5-b6cf293c8515"},"vehicle_type_id":"4","last_reported":1774865135,"current_range_meters":6400,"station_id":"ce4bhu92rcd13ifvqi70","pricing_plan_id":"cebpf4jnsgd1na2vs0mg"},{"bike_id":"f49642d7-0c88-4377-92f6-f3b93aee0876","system_id":"levelo_inurba_marseille","lat":43.29598,"lon":5.38104,"is_reserved":false,"is_disabled":true,"rental_uris":{"android":"levelo://app?vid=f49642d7-0c88-4377-92f6-f3b93aee0876","ios":"levelo://app?vid=f49642d7-0c88-4377-92f6-f3b93aee0876"},"vehicle_type_id":"4","last_reported":1774865135,"current_range_meters":6400,"station_id":"ce4bgl12rcd13ifvqbo0","pricing_plan_id":"cebpf4jnsgd1na2vs0mg"},{"bike_id":"609a3f51-95d7-4bff-9fb9-07e7f142b6aa","system_id":"levelo_inurba_marseille","lat":43.29729,"lon":5.37031,"is_reserved":false,"is_disabled":false,"rental_uris":{"android":"levelo://app?vid=609a3f51-95d7-4bff-9fb9-07e7f142b6aa","ios":"levelo://app?vid=609a3f51-95d7-4bff-9fb9-07e7f142b6aa"},"vehicle_type_id":"4","last_reported":1774865135,"current_range_meters":6400,"station_id":"","pricing_plan_id":"cebpf4jnsgd1na2vs0mg"},{"bike_id":"1f7507c0-1d57-4435-a922-7c4f891a00c7","system_id":"levelo_inurba_marseille","lat":43.28792,"lon":5.35994,"is_reserved":false,"is_disabled":false,"rental_uris":{"android":"levelo://app?vid=1f7507c0-1d57-4435-a922-7c4f891a00c7","ios":"levelo://app?vid=1f7507c0-1d57-4435-a922-7c4f891a00c7"},"vehicle_type_id":"4","last_reported":1774865135,"current_range_meters":6400,"station_id":"","pricing_plan_id":"cebpf4jnsgd1na2vs0mg"},{"bike_id":"f24d0418-15e6-468a-b8a0-08eebec6ba10","system_id":"levelo_inurba_marseille","lat":43.29317,"lon":5.38604,"is_reserved":false,"is_disabled":false,"rental_uris":{"android":"levelo://app?vid=f24d0418-15e6-468a-b8a0-08eebec6ba10","ios":"levelo://app?vid=f24d0418-15e6-468a-b8a0-08eebec6ba10"},"vehicle_type_id":"4","last_reported":1774865135,"current_range_meters":6400,"station_id":"","pricing_plan_id":"cebpf4jnsgd1na2vs0mg"},{"bike_id":"dd5cceed-893b-47d7-a45a-329a3d85bbb0","system_id":"levelo_inurba_marseille","lat":43.312681,"lon":5.401763,"is_reserved":false,"is_disabled":false,"rental_uris":{"android":"levelo://app?vid=dd5cceed-893b-47d7-a45a-329a3d85bbb0","ios":"levelo://app?vid=dd5cceed-893b-47d7-a45a-329a3d85bbb0"},"vehicle_type_id":"4","last_reported":1774865135,"current_range_meters":6800,"station_id":"ce4bh092rcd13ifvqd30","pricing_plan_id":"cebpf4jnsgd1na2vs0mg"},{"bike_id":"1faa5505-633d-42e0-8f1b-8299dbd5fe13","system_id":"levelo_inurba_marseille","lat":43.30551,"lon":5.36692,"is_reserved":false,"is_disabled":false,"rental_uris":{"android":"levelo://app?vid=1faa5505-633d-42e0-8f1b-8299dbd5fe13","ios":"levelo://app?vid=1faa5505-633d-42e0-8f1b-8299dbd5fe13"},"vehicle_type_id":"4","last_reported":1774865135,"current_range_meters":6800,"station_id":"ce4bgrp2rcd13ifvqc9g","pricing_plan_id":"cebpf4jnsgd1na2vs0mg"},{"bike_id":"4cf0f09b-60bc-42a1-9a20-c86317d00ab9","system_id":"levelo_inurba_marseille","lat":43.30939,"lon":5.38982,"is_reserved":false,"is_disabled":false,"rental_uris":{"android":"levelo://app?vid=4cf0f09b-60bc-42a1-9a20-c86317d00ab9","ios":"levelo://app?vid=4cf0f09b-60bc-42a1-9a20-c86317d00ab9"},"vehicle_type_id":"4","last_reported":1774865135,"current_range_meters":6800,"station_id":"ce4bgup2rcd13ifvqco0","pricing_plan_id":"cebpf4jnsgd1na2vs0mg"},{"bike_id":"d31ab0b8-58aa-434b-ba4e-2a28244b9a47","system_id":"levelo_inurba_marseille","lat":43.29131,"lon":5.38073,"is_reserved":false,"is_disabled":false,"rental_uris":{"android":"levelo://app?vid=d31ab0b8-58aa-434b-ba4e-2a28244b9a47","ios":"levelo://app?vid=d31ab0b8-58aa-434b-ba4e-2a28244b9a47"},"vehicle_type_id":"4","last_reported":1774865135,"current_range_meters":6800,"station_id":"","pricing_plan_id":"cebpf4jnsgd1na2vs0mg"},{"bike_id":"169c1d4a-c874-4f24-8a56-560e80814a9e","system_id":"levelo_inurba_marseille","lat":43.30952,"lon":5.39028,"is_reserved":false,"is_disabled":false,"rental_uris":{"android":"levelo://app?vid=169c1d4a-c874-4f24-8a56-560e80814a9e","ios":"levelo://app?vid=169c1d4a-c874-4f24-8a56-560e80814a9e"},"vehicle_type_id":"4","last_reported":1774865135,"current_range_meters":6800,"station_id":"ce4bgup2rcd13ifvqco0","pricing_plan_id":"cebpf4jnsgd1na2vs0mg"},{"bike_id":"53f142a0-3955-4808-b4c6-e1524bc3e079","system_id":"levelo_inurba_marseille","lat":43.21215,"lon":5.35053,"is_reserved":false,"is_disabled":false,"rental_uris":{"android":"levelo://app?vid=53f142a0-3955-4808-b4c6-e1524bc3e079","ios":"levelo://app?vid=53f142a0-3955-4808-b4c6-e1524bc3e079"},"vehicle_type_id":"4","last_reported":1774865135,"current_range_meters":6800,"station_id":"","pricing_plan_id":"cebpf4jnsgd1na2vs0mg"},{"bike_id":"2e473b1d-39dc-4686-a52e-6eb05e99392b","system_id":"levelo_inurba_marseille","lat":43.28433,"lon":5.34983,"is_reserved":false,"is_disabled":false,"rental_uris":{"android":"levelo://app?vid=2e473b1d-39dc-4686-a52e-6eb05e99392b","ios":"levelo://app?vid=2e473b1d-39dc-4686-a52e-6eb05e99392b"},"vehicle_type_id":"4","last_reported":1774865135,"current_range_meters":6800,"station_id":"ce4bhbh2rcd13ifvqepg","pricing_plan_id":"cebpf4jnsgd1na2vs0mg"},{"bike_id":"c86d845d-a9a1-4000-acdd-408b4f74bb9d","system_id":"levelo_inurba_marseille","lat":43.31356,"lon":5.3672,"is_reserved":false,"is_disabled":false,"rental_uris":{"android":"levelo://app?vid=c86d845d-a9a1-4000-acdd-408b4f74bb9d","ios":"levelo://app?vid=c86d845d-a9a1-4000-acdd-408b4f74bb9d"},"vehicle_type_id":"4","last_reported":1774865135,"current_range_meters":6800,"station_id":"ce4bgr92rcd13ifvqc6g","pricing_plan_id":"cebpf4jnsgd1na2vs0mg"},{"bike_id":"59f02258-c77d-4c49-9c7b-1f67ecd2886b","system_id":"levelo_inurba_marseille","lat":43.24084,"lon":5.3776,"is_reserved":false,"is_disabled":false,"rental_uris":{"android":"levelo://app?vid=59f02258-c77d-4c49-9c7b-1f67ecd2886b","ios":"levelo://app?vid=59f02258-c77d-4c49-9c7b-1f67ecd2886b"},"vehicle_type_id":"4","last_reported":1774865135,"current_range_meters":6800,"station_id":"ce4bhnp2rcd13ifvqgvg","pricing_plan_id":"cebpf4jnsgd1na2vs0mg"},{"bike_id":"9a731604-e7dc-4ade-811d-54b958e51ead","system_id":"levelo_inurba_marseille","lat":43.31694,"lon":5.40466,"is_reserved":false,"is_disabled":false,"rental_uris":{"android":"levelo://app?vid=9a731604-e7dc-4ade-811d-54b958e51ead","ios":"levelo://app?vid=9a731604-e7dc-4ade-811d-54b958e51ead"},"vehicle_type_id":"4","last_reported":1774865135,"current_range_meters":6800,"station_id":"ce4bh012rcd13ifvqd00","pricing_plan_id":"cebpf4jnsgd1na2vs0mg"},{"bike_id":"a9163397-fa96-4554-8b2b-ef807a16af1a","system_id":"levelo_inurba_marseille","lat":43.231508,"lon":5.437271,"is_reserved":false,"is_disabled":false,"rental_uris":{"android":"levelo://app?vid=a9163397-fa96-4554-8b2b-ef807a16af1a","ios":"levelo://app?vid=a9163397-fa96-4554-8b2b-ef807a16af1a"},"vehicle_type_id":"4","last_reported":1774865135,"current_range_meters":6800,"station_id":"ce4bhmp2rcd13ifvqgog","pricing_plan_id":"cebpf4jnsgd1na2vs0mg"},{"bike_id":"3aae17fa-7bc6-455a-960a-4ceda4265238","system_id":"levelo_inurba_marseille","lat":43.32363,"lon":5.36734,"is_reserved":false,"is_disabled":false,"rental_uris":{"android":"levelo://app?vid=3aae17fa-7bc6-455a-960a-4ceda4265238","ios":"levelo://app?vid=3aae17fa-7bc6-455a-960a-4ceda4265238"},"vehicle_type_id":"4","last_reported":1774865135,"current_range_meters":6800,"station_id":"ce4bhsh2rcd13ifvqi2g","pricing_plan_id":"cebpf4jnsgd1na2vs0mg"},{"bike_id":"67a5d5c7-3521-4623-a1ce-e8cf1f7867be","system_id":"levelo_inurba_marseille","lat":43.24474,"lon":5.42536,"is_reserved":false,"is_disabled":false,"rental_uris":{"android":"levelo://app?vid=67a5d5c7-3521-4623-a1ce-e8cf1f7867be","ios":"levelo://app?vid=67a5d5c7-3521-4623-a1ce-e8cf1f7867be"},"vehicle_type_id":"4","last_reported":1774865135,"current_range_meters":6800,"station_id":"st_d4a3vfp97mjs738cd8kg","pricing_plan_id":"cebpf4jnsgd1na2vs0mg"},{"bike_id":"fe403204-bde1-42fb-bd59-5bc984e17331","system_id":"levelo_inurba_marseille","lat":43.23158,"lon":5.43708,"is_reserved":false,"is_disabled":false,"rental_uris":{"android":"levelo://app?vid=fe403204-bde1-42fb-bd59-5bc984e17331","ios":"levelo://app?vid=fe403204-bde1-42fb-bd59-5bc984e17331"},"vehicle_type_id":"4","last_reported":1774865135,"current_range_meters":6800,"station_id":"ce4bhmp2rcd13ifvqgog","pricing_plan_id":"cebpf4jnsgd1na2vs0mg"},{"bike_id":"d50b4d91-9e1b-441f-b59d-bdfdc40305b1","system_id":"levelo_inurba_marseille","lat":43.28997,"lon":5.3561,"is_reserved":false,"is_disabled":false,"rental_uris":{"android":"levelo://app?vid=d50b4d91-9e1b-441f-b59d-bdfdc40305b1","ios":"levelo://app?vid=d50b4d91-9e1b-441f-b59d-bdfdc40305b1"},"vehicle_type_id":"4","last_reported":1774865135,"current_range_meters":6800,"station_id":"ce4bhb92rcd13ifvqen0","pricing_plan_id":"cebpf4jnsgd1na2vs0mg"},{"bike_id":"496cdebc-c3e4-41cb-9a9b-c6677bbdd848","system_id":"levelo_inurba_marseille","lat":43.22567,"lon":5.34795,"is_reserved":false,"is_disabled":false,"rental_uris":{"android":"levelo://app?vid=496cdebc-c3e4-41cb-9a9b-c6677bbdd848","ios":"levelo://app?vid=496cdebc-c3e4-41cb-9a9b-c6677bbdd848"},"vehicle_type_id":"4","last_reported":1774865135,"current_range_meters":7200,"station_id":"st_cvj5dfep6f1abm77gieg","pricing_plan_id":"cebpf4jnsgd1na2vs0mg"},{"bike_id":"7fd4a531-a1d5-43de-b3e8-0c956ead8626","system_id":"levelo_inurba_marseille","lat":43.31271,"lon":5.40168,"is_reserved":false,"is_disabled":false,"rental_uris":{"android":"levelo://app?vid=7fd4a531-a1d5-43de-b3e8-0c956ead8626","ios":"levelo://app?vid=7fd4a531-a1d5-43de-b3e8-0c956ead8626"},"vehicle_type_id":"4","last_reported":1774865135,"current_range_meters":7200,"station_id":"ce4bh092rcd13ifvqd30","pricing_plan_id":"cebpf4jnsgd1na2vs0mg"},{"bike_id":"b90caad3-7060-4253-981e-42cd0d5fd64b","system_id":"levelo_inurba_marseille","lat":43.28473,"lon":5.484,"is_reserved":false,"is_disabled":false,"rental_uris":{"android":"levelo://app?vid=b90caad3-7060-4253-981e-42cd0d5fd64b","ios":"levelo://app?vid=b90caad3-7060-4253-981e-42cd0d5fd64b"},"vehicle_type_id":"4","last_reported":1774865135,"current_range_meters":7200,"station_id":"st_d3svhcjqgbts73a3dn0g","pricing_plan_id":"cebpf4jnsgd1na2vs0mg"},{"bike_id":"7ea68384-f694-4a28-85a7-1a4829b38dc5","system_id":"levelo_inurba_marseille","lat":43.28533,"lon":5.44068,"is_reserved":false,"is_disabled":false,"rental_uris":{"android":"levelo://app?vid=7ea68384-f694-4a28-85a7-1a4829b38dc5","ios":"levelo://app?vid=7ea68384-f694-4a28-85a7-1a4829b38dc5"},"vehicle_type_id":"4","last_reported":1774865135,"current_range_meters":7200,"station_id":"st_d3j3df2ikq2c7380ej80","pricing_plan_id":"cebpf4jnsgd1na2vs0mg"},{"bike_id":"14e7a081-448d-429e-8742-53ba000d00ec","system_id":"levelo_inurba_marseille","lat":43.23788,"lon":5.36648,"is_reserved":false,"is_disabled":false,"rental_uris":{"android":"levelo://app?vid=14e7a081-448d-429e-8742-53ba000d00ec","ios":"levelo://app?vid=14e7a081-448d-429e-8742-53ba000d00ec"},"vehicle_type_id":"4","last_reported":1774865135,"current_range_meters":7200,"station_id":"st_d3nk18o9ro0c73en2l3g","pricing_plan_id":"cebpf4jnsgd1na2vs0mg"},{"bike_id":"3e56278a-47c3-4d27-b2a7-b0223efdc25d","system_id":"levelo_inurba_marseille","lat":43.28423,"lon":5.3499,"is_reserved":false,"is_disabled":false,"rental_uris":{"android":"levelo://app?vid=3e56278a-47c3-4d27-b2a7-b0223efdc25d","ios":"levelo://app?vid=3e56278a-47c3-4d27-b2a7-b0223efdc25d"},"vehicle_type_id":"4","last_reported":1774865135,"current_range_meters":7200,"station_id":"ce4bhbh2rcd13ifvqepg","pricing_plan_id":"cebpf4jnsgd1na2vs0mg"},{"bike_id":"29049f9a-cda2-426d-9e6c-1d886e0b8215","system_id":"levelo_inurba_marseille","lat":43.29174,"lon":5.42755,"is_reserved":false,"is_disabled":false,"rental_uris":{"android":"levelo://app?vid=29049f9a-cda2-426d-9e6c-1d886e0b8215","ios":"levelo://app?vid=29049f9a-cda2-426d-9e6c-1d886e0b8215"},"vehicle_type_id":"4","last_reported":1774865135,"current_range_meters":7200,"station_id":"","pricing_plan_id":"cebpf4jnsgd1na2vs0mg"},{"bike_id":"8489331d-8f95-4b36-a026-08bb56c1991f","system_id":"levelo_inurba_marseille","lat":43.23779,"lon":5.36619,"is_reserved":false,"is_disabled":false,"rental_uris":{"android":"levelo://app?vid=8489331d-8f95-4b36-a026-08bb56c1991f","ios":"levelo://app?vid=8489331d-8f95-4b36-a026-08bb56c1991f"},"vehicle_type_id":"4","last_reported":1774865135,"current_range_meters":7200,"station_id":"st_d3nk18o9ro0c73en2l3g","pricing_plan_id":"cebpf4jnsgd1na2vs0mg"},{"bike_id":"bed085cd-e643-4cf8-a83c-4e3f37218df7","system_id":"levelo_inurba_marseille","lat":43.23142,"lon":5.40245,"is_reserved":false,"is_disabled":false,"rental_uris":{"android":"levelo://app?vid=bed085cd-e643-4cf8-a83c-4e3f37218df7","ios":"levelo://app?vid=bed085cd-e643-4cf8-a83c-4e3f37218df7"},"vehicle_type_id":"4","last_reported":1774865135,"current_range_meters":7200,"station_id":"","pricing_plan_id":"cebpf4jnsgd1na2vs0mg"},{"bike_id":"86db0319-41a7-4493-adee-c184becfe762","system_id":"levelo_inurba_marseille","lat":43.289,"lon":5.45701,"is_reserved":false,"is_disabled":false,"rental_uris":{"android":"levelo://app?vid=86db0319-41a7-4493-adee-c184becfe762","ios":"levelo://app?vid=86db0319-41a7-4493-adee-c184becfe762"},"vehicle_type_id":"4","last_reported":1774865135,"current_range_meters":7200,"station_id":"","pricing_plan_id":"cebpf4jnsgd1na2vs0mg"},{"bike_id":"aba4a31a-18d2-4cad-bb8c-30bd606f5c4c","system_id":"levelo_inurba_marseille","lat":43.24165,"lon":5.36385,"is_reserved":false,"is_disabled":false,"rental_uris":{"android":"levelo://app?vid=aba4a31a-18d2-4cad-bb8c-30bd606f5c4c","ios":"levelo://app?vid=aba4a31a-18d2-4cad-bb8c-30bd606f5c4c"},"vehicle_type_id":"4","last_reported":1774865135,"current_range_meters":7200,"station_id":"cpo36qri1sfpv3e86is0","pricing_plan_id":"cebpf4jnsgd1na2vs0mg"},{"bike_id":"d702f9f6-8c8f-4dee-8b59-b578a0195d00","system_id":"levelo_inurba_marseille","lat":43.31216,"lon":5.36879,"is_reserved":false,"is_disabled":false,"rental_uris":{"android":"levelo://app?vid=d702f9f6-8c8f-4dee-8b59-b578a0195d00","ios":"levelo://app?vid=d702f9f6-8c8f-4dee-8b59-b578a0195d00"},"vehicle_type_id":"4","last_reported":1774865135,"current_range_meters":7200,"station_id":"ce4bgl92rcd13ifvqbq0","pricing_plan_id":"cebpf4jnsgd1na2vs0mg"},{"bike_id":"1f632983-5db3-47dd-8d4d-7395c1a9aa86","system_id":"levelo_inurba_marseille","lat":43.24798,"lon":5.37456,"is_reserved":false,"is_disabled":false,"rental_uris":{"android":"levelo://app?vid=1f632983-5db3-47dd-8d4d-7395c1a9aa86","ios":"levelo://app?vid=1f632983-5db3-47dd-8d4d-7395c1a9aa86"},"vehicle_type_id":"4","last_reported":1774865135,"current_range_meters":8000,"station_id":"ce4bhgh2rcd13ifvqfb0","pricing_plan_id":"cebpf4jnsgd1na2vs0mg"},{"bike_id":"805b1366-a6eb-4fde-a8d5-98af0890737e","system_id":"levelo_inurba_marseille","lat":43.23061,"lon":5.35477,"is_reserved":false,"is_disabled":false,"rental_uris":{"android":"levelo://app?vid=805b1366-a6eb-4fde-a8d5-98af0890737e","ios":"levelo://app?vid=805b1366-a6eb-4fde-a8d5-98af0890737e"},"vehicle_type_id":"4","last_reported":1774865135,"current_range_meters":8000,"station_id":"cpo3342slgdg3j2ifvpg","pricing_plan_id":"cebpf4jnsgd1na2vs0mg"},{"bike_id":"0dff1657-701a-46a5-aa66-060096e7915a","system_id":"levelo_inurba_marseille","lat":43.27374,"lon":5.36248,"is_reserved":false,"is_disabled":false,"rental_uris":{"android":"levelo://app?vid=0dff1657-701a-46a5-aa66-060096e7915a","ios":"levelo://app?vid=0dff1657-701a-46a5-aa66-060096e7915a"},"vehicle_type_id":"4","last_reported":1774865135,"current_range_meters":8000,"station_id":"ce4bhbh2rcd13ifvqeo0","pricing_plan_id":"cebpf4jnsgd1na2vs0mg"},{"bike_id":"989bebe7-8615-4cd7-aeef-fec5c5f64679","system_id":"levelo_inurba_marseille","lat":43.24349,"lon":5.36992,"is_reserved":false,"is_disabled":false,"rental_uris":{"android":"levelo://app?vid=989bebe7-8615-4cd7-aeef-fec5c5f64679","ios":"levelo://app?vid=989bebe7-8615-4cd7-aeef-fec5c5f64679"},"vehicle_type_id":"4","last_reported":1774865135,"current_range_meters":8000,"station_id":"","pricing_plan_id":"cebpf4jnsgd1na2vs0mg"},{"bike_id":"fa2139d7-56b5-4664-870b-94753042ac1d","system_id":"levelo_inurba_marseille","lat":43.21196,"lon":5.35072,"is_reserved":false,"is_disabled":false,"rental_uris":{"android":"levelo://app?vid=fa2139d7-56b5-4664-870b-94753042ac1d","ios":"levelo://app?vid=fa2139d7-56b5-4664-870b-94753042ac1d"},"vehicle_type_id":"4","last_reported":1774865135,"current_range_meters":8000,"station_id":"st_cvj6sg6p6f1abm77japg","pricing_plan_id":"cebpf4jnsgd1na2vs0mg"},{"bike_id":"d04f709c-d702-4a3e-8fe6-e62255574b5f","system_id":"levelo_inurba_marseille","lat":43.30153,"lon":5.38109,"is_reserved":false,"is_disabled":false,"rental_uris":{"android":"levelo://app?vid=d04f709c-d702-4a3e-8fe6-e62255574b5f","ios":"levelo://app?vid=d04f709c-d702-4a3e-8fe6-e62255574b5f"},"vehicle_type_id":"4","last_reported":1774865135,"current_range_meters":8000,"station_id":"ce4bgjp2rcd13ifvqbh0","pricing_plan_id":"cebpf4jnsgd1na2vs0mg"},{"bike_id":"bd4170bf-c62e-4e29-b059-a9677a6eb12e","system_id":"levelo_inurba_marseille","lat":43.30912,"lon":5.36831,"is_reserved":false,"is_disabled":false,"rental_uris":{"android":"levelo://app?vid=bd4170bf-c62e-4e29-b059-a9677a6eb12e","ios":"levelo://app?vid=bd4170bf-c62e-4e29-b059-a9677a6eb12e"},"vehicle_type_id":"4","last_reported":1774865135,"current_range_meters":8000,"station_id":"ce4bgn92rcd13ifvqbvg","pricing_plan_id":"cebpf4jnsgd1na2vs0mg"},{"bike_id":"e41785ec-8fcc-4cb0-a070-a80c4fd8a0b8","system_id":"levelo_inurba_marseille","lat":43.29268,"lon":5.3684,"is_reserved":false,"is_disabled":false,"rental_uris":{"android":"levelo://app?vid=e41785ec-8fcc-4cb0-a070-a80c4fd8a0b8","ios":"levelo://app?vid=e41785ec-8fcc-4cb0-a070-a80c4fd8a0b8"},"vehicle_type_id":"4","last_reported":1774865135,"current_range_meters":8000,"station_id":"ce4bhbp2rcd13ifvqesg","pricing_plan_id":"cebpf4jnsgd1na2vs0mg"},{"bike_id":"131a88d5-b5b2-4532-b511-14fa6f230522","system_id":"levelo_inurba_marseille","lat":43.33731,"lon":5.3918,"is_reserved":false,"is_disabled":false,"rental_uris":{"android":"levelo://app?vid=131a88d5-b5b2-4532-b511-14fa6f230522","ios":"levelo://app?vid=131a88d5-b5b2-4532-b511-14fa6f230522"},"vehicle_type_id":"4","last_reported":1774865135,"current_range_meters":8000,"station_id":"ce4bhr92rcd13ifvqhsg","pricing_plan_id":"cebpf4jnsgd1na2vs0mg"},{"bike_id":"1227dc61-c55b-43f3-83a0-014c73aacab8","system_id":"levelo_inurba_marseille","lat":43.23975,"lon":5.36641,"is_reserved":false,"is_disabled":false,"rental_uris":{"android":"levelo://app?vid=1227dc61-c55b-43f3-83a0-014c73aacab8","ios":"levelo://app?vid=1227dc61-c55b-43f3-83a0-014c73aacab8"},"vehicle_type_id":"4","last_reported":1774865135,"current_range_meters":8000,"station_id":"ce4bhi12rcd13ifvqfp0","pricing_plan_id":"cebpf4jnsgd1na2vs0mg"},{"bike_id":"3ac0129c-9c97-4af6-b6ad-c66c14a5c227","system_id":"levelo_inurba_marseille","lat":43.28489,"lon":5.48366,"is_reserved":false,"is_disabled":false,"rental_uris":{"android":"levelo://app?vid=3ac0129c-9c97-4af6-b6ad-c66c14a5c227","ios":"levelo://app?vid=3ac0129c-9c97-4af6-b6ad-c66c14a5c227"},"vehicle_type_id":"4","last_reported":1774865135,"current_range_meters":8000,"station_id":"","pricing_plan_id":"cebpf4jnsgd1na2vs0mg"},{"bike_id":"2e076d73-a95c-47c1-a528-9839c111607c","system_id":"levelo_inurba_marseille","lat":43.24172,"lon":5.39722,"is_reserved":false,"is_disabled":false,"rental_uris":{"android":"levelo://app?vid=2e076d73-a95c-47c1-a528-9839c111607c","ios":"levelo://app?vid=2e076d73-a95c-47c1-a528-9839c111607c"},"vehicle_type_id":"4","last_reported":1774865135,"current_range_meters":8000,"station_id":"ce4bhn12rcd13ifvqgpg","pricing_plan_id":"cebpf4jnsgd1na2vs0mg"},{"bike_id":"e589261b-c8a2-4282-a7a8-0cffe840d18a","system_id":"levelo_inurba_marseille","lat":43.30149,"lon":5.38081,"is_reserved":false,"is_disabled":false,"rental_uris":{"android":"levelo://app?vid=e589261b-c8a2-4282-a7a8-0cffe840d18a","ios":"levelo://app?vid=e589261b-c8a2-4282-a7a8-0cffe840d18a"},"vehicle_type_id":"4","last_reported":1774865135,"current_range_meters":8000,"station_id":"ce4bgjp2rcd13ifvqbh0","pricing_plan_id":"cebpf4jnsgd1na2vs0mg"},{"bike_id":"c0d049d2-9884-47fd-b25d-2edd239d3046","system_id":"levelo_inurba_marseille","lat":43.28544,"lon":5.44087,"is_reserved":false,"is_disabled":false,"rental_uris":{"android":"levelo://app?vid=c0d049d2-9884-47fd-b25d-2edd239d3046","ios":"levelo://app?vid=c0d049d2-9884-47fd-b25d-2edd239d3046"},"vehicle_type_id":"4","last_reported":1774865135,"current_range_meters":8000,"station_id":"st_d3j3df2ikq2c7380ej80","pricing_plan_id":"cebpf4jnsgd1na2vs0mg"},{"bike_id":"1f8b06bb-3f91-46ec-ae05-36fb92f0336b","system_id":"levelo_inurba_marseille","lat":43.26404,"lon":5.39865,"is_reserved":false,"is_disabled":false,"rental_uris":{"android":"levelo://app?vid=1f8b06bb-3f91-46ec-ae05-36fb92f0336b","ios":"levelo://app?vid=1f8b06bb-3f91-46ec-ae05-36fb92f0336b"},"vehicle_type_id":"4","last_reported":1774865135,"current_range_meters":8000,"station_id":"","pricing_plan_id":"cebpf4jnsgd1na2vs0mg"},{"bike_id":"de3208ad-e0aa-43cf-b3d0-9b02dc8b1328","system_id":"levelo_inurba_marseille","lat":43.24166,"lon":5.36386,"is_reserved":false,"is_disabled":false,"rental_uris":{"android":"levelo://app?vid=de3208ad-e0aa-43cf-b3d0-9b02dc8b1328","ios":"levelo://app?vid=de3208ad-e0aa-43cf-b3d0-9b02dc8b1328"},"vehicle_type_id":"4","last_reported":1774865135,"current_range_meters":8000,"station_id":"cpo36qri1sfpv3e86is0","pricing_plan_id":"cebpf4jnsgd1na2vs0mg"},{"bike_id":"71983624-569c-45d9-9fb5-891a7993a82a","system_id":"levelo_inurba_marseille","lat":43.28426,"lon":5.34998,"is_reserved":false,"is_disabled":false,"rental_uris":{"android":"levelo://app?vid=71983624-569c-45d9-9fb5-891a7993a82a","ios":"levelo://app?vid=71983624-569c-45d9-9fb5-891a7993a82a"},"vehicle_type_id":"4","last_reported":1774865135,"current_range_meters":8000,"station_id":"ce4bhbh2rcd13ifvqepg","pricing_plan_id":"cebpf4jnsgd1na2vs0mg"},{"bike_id":"c0eec902-074b-4a18-af47-ff048b653a5e","system_id":"levelo_inurba_marseille","lat":43.28479,"lon":5.48393,"is_reserved":false,"is_disabled":false,"rental_uris":{"android":"levelo://app?vid=c0eec902-074b-4a18-af47-ff048b653a5e","ios":"levelo://app?vid=c0eec902-074b-4a18-af47-ff048b653a5e"},"vehicle_type_id":"4","last_reported":1774865135,"current_range_meters":8400,"station_id":"","pricing_plan_id":"cebpf4jnsgd1na2vs0mg"},{"bike_id":"132e7de0-1c60-4e16-8ba9-01efee9304af","system_id":"levelo_inurba_marseille","lat":43.32352,"lon":5.36752,"is_reserved":false,"is_disabled":false,"rental_uris":{"android":"levelo://app?vid=132e7de0-1c60-4e16-8ba9-01efee9304af","ios":"levelo://app?vid=132e7de0-1c60-4e16-8ba9-01efee9304af"},"vehicle_type_id":"4","last_reported":1774865135,"current_range_meters":8400,"station_id":"ce4bhsh2rcd13ifvqi2g","pricing_plan_id":"cebpf4jnsgd1na2vs0mg"},{"bike_id":"8429f855-c4a0-4803-9ce7-0d1fb93dbfe8","system_id":"levelo_inurba_marseille","lat":43.28477,"lon":5.484,"is_reserved":false,"is_disabled":false,"rental_uris":{"android":"levelo://app?vid=8429f855-c4a0-4803-9ce7-0d1fb93dbfe8","ios":"levelo://app?vid=8429f855-c4a0-4803-9ce7-0d1fb93dbfe8"},"vehicle_type_id":"4","last_reported":1774865135,"current_range_meters":8400,"station_id":"st_d3svhcjqgbts73a3dn0g","pricing_plan_id":"cebpf4jnsgd1na2vs0mg"},{"bike_id":"c6f0bfb9-609a-4cc4-9c64-edb005bc49da","system_id":"levelo_inurba_marseille","lat":43.28439,"lon":5.34994,"is_reserved":false,"is_disabled":false,"rental_uris":{"android":"levelo://app?vid=c6f0bfb9-609a-4cc4-9c64-edb005bc49da","ios":"levelo://app?vid=c6f0bfb9-609a-4cc4-9c64-edb005bc49da"},"vehicle_type_id":"4","last_reported":1774865135,"current_range_meters":8400,"station_id":"ce4bhbh2rcd13ifvqepg","pricing_plan_id":"cebpf4jnsgd1na2vs0mg"},{"bike_id":"1f50d665-ad56-4564-8bce-5cff2a4e2b4f","system_id":"levelo_inurba_marseille","lat":43.24191,"lon":5.39727,"is_reserved":false,"is_disabled":false,"rental_uris":{"android":"levelo://app?vid=1f50d665-ad56-4564-8bce-5cff2a4e2b4f","ios":"levelo://app?vid=1f50d665-ad56-4564-8bce-5cff2a4e2b4f"},"vehicle_type_id":"4","last_reported":1774865135,"current_range_meters":8400,"station_id":"ce4bhn12rcd13ifvqgpg","pricing_plan_id":"cebpf4jnsgd1na2vs0mg"},{"bike_id":"dd315dbc-c8b0-4537-a749-b503fe948b51","system_id":"levelo_inurba_marseille","lat":43.299255,"lon":5.381414,"is_reserved":false,"is_disabled":false,"rental_uris":{"android":"levelo://app?vid=dd315dbc-c8b0-4537-a749-b503fe948b51","ios":"levelo://app?vid=dd315dbc-c8b0-4537-a749-b503fe948b51"},"vehicle_type_id":"4","last_reported":1774865135,"current_range_meters":8400,"station_id":"ce4bgj12rcd13ifvqbc0","pricing_plan_id":"cebpf4jnsgd1na2vs0mg"},{"bike_id":"073f36a8-fcb1-4a6b-9072-2c42883573b0","system_id":"levelo_inurba_marseille","lat":43.25921,"lon":5.40883,"is_reserved":false,"is_disabled":false,"rental_uris":{"android":"levelo://app?vid=073f36a8-fcb1-4a6b-9072-2c42883573b0","ios":"levelo://app?vid=073f36a8-fcb1-4a6b-9072-2c42883573b0"},"vehicle_type_id":"4","last_reported":1774865135,"current_range_meters":8400,"station_id":"ce4bhm92rcd13ifvqglg","pricing_plan_id":"cebpf4jnsgd1na2vs0mg"},{"bike_id":"d083f989-b9c7-4d7e-aef9-325c00e11066","system_id":"levelo_inurba_marseille","lat":43.29843,"lon":5.36282,"is_reserved":false,"is_disabled":false,"rental_uris":{"android":"levelo://app?vid=d083f989-b9c7-4d7e-aef9-325c00e11066","ios":"levelo://app?vid=d083f989-b9c7-4d7e-aef9-325c00e11066"},"vehicle_type_id":"4","last_reported":1774865135,"current_range_meters":8400,"station_id":"ce4bgpp2rcd13ifvqc3g","pricing_plan_id":"cebpf4jnsgd1na2vs0mg"},{"bike_id":"e514b04b-9f50-4119-bfb2-7f19c4fc4c24","system_id":"levelo_inurba_marseille","lat":43.26861,"lon":5.404,"is_reserved":false,"is_disabled":false,"rental_uris":{"android":"levelo://app?vid=e514b04b-9f50-4119-bfb2-7f19c4fc4c24","ios":"levelo://app?vid=e514b04b-9f50-4119-bfb2-7f19c4fc4c24"},"vehicle_type_id":"4","last_reported":1774865135,"current_range_meters":8400,"station_id":"","pricing_plan_id":"cebpf4jnsgd1na2vs0mg"},{"bike_id":"5a1ce7c4-ce01-4a53-a619-f43c1b6558d1","system_id":"levelo_inurba_marseille","lat":43.27489,"lon":5.42458,"is_reserved":false,"is_disabled":false,"rental_uris":{"android":"levelo://app?vid=5a1ce7c4-ce01-4a53-a619-f43c1b6558d1","ios":"levelo://app?vid=5a1ce7c4-ce01-4a53-a619-f43c1b6558d1"},"vehicle_type_id":"4","last_reported":1774865135,"current_range_meters":8400,"station_id":"ce4bhn92rcd13ifvqgrg","pricing_plan_id":"cebpf4jnsgd1na2vs0mg"},{"bike_id":"97ce69f1-7181-466d-9bc2-d076363b5f27","system_id":"levelo_inurba_marseille","lat":43.24169,"lon":5.3639,"is_reserved":false,"is_disabled":false,"rental_uris":{"android":"levelo://app?vid=97ce69f1-7181-466d-9bc2-d076363b5f27","ios":"levelo://app?vid=97ce69f1-7181-466d-9bc2-d076363b5f27"},"vehicle_type_id":"4","last_reported":1774865135,"current_range_meters":8400,"station_id":"cpo36qri1sfpv3e86is0","pricing_plan_id":"cebpf4jnsgd1na2vs0mg"},{"bike_id":"7e053c55-3ad4-4417-8e0a-b7be8ecc43bf","system_id":"levelo_inurba_marseille","lat":43.21746,"lon":5.34604,"is_reserved":false,"is_disabled":false,"rental_uris":{"android":"levelo://app?vid=7e053c55-3ad4-4417-8e0a-b7be8ecc43bf","ios":"levelo://app?vid=7e053c55-3ad4-4417-8e0a-b7be8ecc43bf"},"vehicle_type_id":"4","last_reported":1774865135,"current_range_meters":8400,"station_id":"st_cvj6r9ubvosntc0bgbag","pricing_plan_id":"cebpf4jnsgd1na2vs0mg"},{"bike_id":"53ab5b1d-cae9-45a1-acf9-cea4f7b6ff95","system_id":"levelo_inurba_marseille","lat":43.23063,"lon":5.35485,"is_reserved":false,"is_disabled":false,"rental_uris":{"android":"levelo://app?vid=53ab5b1d-cae9-45a1-acf9-cea4f7b6ff95","ios":"levelo://app?vid=53ab5b1d-cae9-45a1-acf9-cea4f7b6ff95"},"vehicle_type_id":"4","last_reported":1774865135,"current_range_meters":8400,"station_id":"cpo3342slgdg3j2ifvpg","pricing_plan_id":"cebpf4jnsgd1na2vs0mg"},{"bike_id":"90c5083d-61d7-4212-893f-2dfc58168774","system_id":"levelo_inurba_marseille","lat":43.24159,"lon":5.36392,"is_reserved":false,"is_disabled":false,"rental_uris":{"android":"levelo://app?vid=90c5083d-61d7-4212-893f-2dfc58168774","ios":"levelo://app?vid=90c5083d-61d7-4212-893f-2dfc58168774"},"vehicle_type_id":"4","last_reported":1774865135,"current_range_meters":8400,"station_id":"cpo36qri1sfpv3e86is0","pricing_plan_id":"cebpf4jnsgd1na2vs0mg"},{"bike_id":"fbb8d1ee-af97-443e-a94c-eaf376f4d550","system_id":"levelo_inurba_marseille","lat":43.29952,"lon":5.3667,"is_reserved":false,"is_disabled":false,"rental_uris":{"android":"levelo://app?vid=fbb8d1ee-af97-443e-a94c-eaf376f4d550","ios":"levelo://app?vid=fbb8d1ee-af97-443e-a94c-eaf376f4d550"},"vehicle_type_id":"4","last_reported":1774865135,"current_range_meters":8400,"station_id":"","pricing_plan_id":"cebpf4jnsgd1na2vs0mg"},{"bike_id":"d52f390d-ddeb-4189-8a01-66d9ee05efc7","system_id":"levelo_inurba_marseille","lat":43.2583,"lon":5.39435,"is_reserved":false,"is_disabled":false,"rental_uris":{"android":"levelo://app?vid=d52f390d-ddeb-4189-8a01-66d9ee05efc7","ios":"levelo://app?vid=d52f390d-ddeb-4189-8a01-66d9ee05efc7"},"vehicle_type_id":"4","last_reported":1774865135,"current_range_meters":8400,"station_id":"ce4bhip2rcd13ifvqft0","pricing_plan_id":"cebpf4jnsgd1na2vs0mg"},{"bike_id":"6ec34bea-26f7-40b0-a43f-af966ce23820","system_id":"levelo_inurba_marseille","lat":43.30144,"lon":5.38078,"is_reserved":false,"is_disabled":false,"rental_uris":{"android":"levelo://app?vid=6ec34bea-26f7-40b0-a43f-af966ce23820","ios":"levelo://app?vid=6ec34bea-26f7-40b0-a43f-af966ce23820"},"vehicle_type_id":"4","last_reported":1774865135,"current_range_meters":8400,"station_id":"ce4bgjp2rcd13ifvqbh0","pricing_plan_id":"cebpf4jnsgd1na2vs0mg"},{"bike_id":"8b4108a6-c7e2-4043-b547-cb1e59a8963a","system_id":"levelo_inurba_marseille","lat":43.24326,"lon":5.40861,"is_reserved":false,"is_disabled":false,"rental_uris":{"android":"levelo://app?vid=8b4108a6-c7e2-4043-b547-cb1e59a8963a","ios":"levelo://app?vid=8b4108a6-c7e2-4043-b547-cb1e59a8963a"},"vehicle_type_id":"4","last_reported":1774865135,"current_range_meters":8400,"station_id":"","pricing_plan_id":"cebpf4jnsgd1na2vs0mg"},{"bike_id":"03ec0070-1d93-4ac5-87d3-21d47edad7cd","system_id":"levelo_inurba_marseille","lat":43.23795,"lon":5.3664,"is_reserved":false,"is_disabled":false,"rental_uris":{"android":"levelo://app?vid=03ec0070-1d93-4ac5-87d3-21d47edad7cd","ios":"levelo://app?vid=03ec0070-1d93-4ac5-87d3-21d47edad7cd"},"vehicle_type_id":"4","last_reported":1774865135,"current_range_meters":8800,"station_id":"st_d3nk18o9ro0c73en2l3g","pricing_plan_id":"cebpf4jnsgd1na2vs0mg"},{"bike_id":"046881a8-ab16-4490-bda4-767f874d1bc8","system_id":"levelo_inurba_marseille","lat":43.287178,"lon":5.360977,"is_reserved":false,"is_disabled":false,"rental_uris":{"android":"levelo://app?vid=046881a8-ab16-4490-bda4-767f874d1bc8","ios":"levelo://app?vid=046881a8-ab16-4490-bda4-767f874d1bc8"},"vehicle_type_id":"4","last_reported":1774865135,"current_range_meters":8800,"station_id":"","pricing_plan_id":"cebpf4jnsgd1na2vs0mg"},{"bike_id":"bbea286a-6e48-49d8-bcfc-d69bfefa013e","system_id":"levelo_inurba_marseille","lat":43.28603,"lon":5.35108,"is_reserved":false,"is_disabled":false,"rental_uris":{"android":"levelo://app?vid=bbea286a-6e48-49d8-bcfc-d69bfefa013e","ios":"levelo://app?vid=bbea286a-6e48-49d8-bcfc-d69bfefa013e"},"vehicle_type_id":"4","last_reported":1774865135,"current_range_meters":8800,"station_id":"ce4bhch2rcd13ifvqeug","pricing_plan_id":"cebpf4jnsgd1na2vs0mg"},{"bike_id":"b2fedf6b-2cd3-4ea3-9573-b48aa9b36329","system_id":"levelo_inurba_marseille","lat":43.28631,"lon":5.35086,"is_reserved":false,"is_disabled":false,"rental_uris":{"android":"levelo://app?vid=b2fedf6b-2cd3-4ea3-9573-b48aa9b36329","ios":"levelo://app?vid=b2fedf6b-2cd3-4ea3-9573-b48aa9b36329"},"vehicle_type_id":"4","last_reported":1774865135,"current_range_meters":8800,"station_id":"ce4bhch2rcd13ifvqeug","pricing_plan_id":"cebpf4jnsgd1na2vs0mg"},{"bike_id":"b6cc933c-6bc2-4eef-9a7c-4e6a85131db4","system_id":"levelo_inurba_marseille","lat":43.24164,"lon":5.36406,"is_reserved":false,"is_disabled":false,"rental_uris":{"android":"levelo://app?vid=b6cc933c-6bc2-4eef-9a7c-4e6a85131db4","ios":"levelo://app?vid=b6cc933c-6bc2-4eef-9a7c-4e6a85131db4"},"vehicle_type_id":"4","last_reported":1774865135,"current_range_meters":8800,"station_id":"cpo36qri1sfpv3e86is0","pricing_plan_id":"cebpf4jnsgd1na2vs0mg"},{"bike_id":"ccf225b1-f4e7-468c-b7be-f7e3965c10ed","system_id":"levelo_inurba_marseille","lat":43.26205,"lon":5.37927,"is_reserved":false,"is_disabled":false,"rental_uris":{"android":"levelo://app?vid=ccf225b1-f4e7-468c-b7be-f7e3965c10ed","ios":"levelo://app?vid=ccf225b1-f4e7-468c-b7be-f7e3965c10ed"},"vehicle_type_id":"4","last_reported":1774865135,"current_range_meters":8800,"station_id":"ce4bhjp2rcd13ifvqg90","pricing_plan_id":"cebpf4jnsgd1na2vs0mg"},{"bike_id":"b6938045-aea3-42ee-a0ce-c31138818cd9","system_id":"levelo_inurba_marseille","lat":43.2959,"lon":5.37523,"is_reserved":false,"is_disabled":false,"rental_uris":{"android":"levelo://app?vid=b6938045-aea3-42ee-a0ce-c31138818cd9","ios":"levelo://app?vid=b6938045-aea3-42ee-a0ce-c31138818cd9"},"vehicle_type_id":"4","last_reported":1774865135,"current_range_meters":8800,"station_id":"ce4bgh92rcd13ifvqb50","pricing_plan_id":"cebpf4jnsgd1na2vs0mg"},{"bike_id":"94ebd6be-fb80-4ec3-8693-d1f514f30182","system_id":"levelo_inurba_marseille","lat":43.30545,"lon":5.36692,"is_reserved":false,"is_disabled":false,"rental_uris":{"android":"levelo://app?vid=94ebd6be-fb80-4ec3-8693-d1f514f30182","ios":"levelo://app?vid=94ebd6be-fb80-4ec3-8693-d1f514f30182"},"vehicle_type_id":"4","last_reported":1774865135,"current_range_meters":8800,"station_id":"ce4bgrp2rcd13ifvqc9g","pricing_plan_id":"cebpf4jnsgd1na2vs0mg"},{"bike_id":"ded1f352-2271-4b3b-bb5d-6818edd936ac","system_id":"levelo_inurba_marseille","lat":43.29549,"lon":5.39015,"is_reserved":false,"is_disabled":true,"rental_uris":{"android":"levelo://app?vid=ded1f352-2271-4b3b-bb5d-6818edd936ac","ios":"levelo://app?vid=ded1f352-2271-4b3b-bb5d-6818edd936ac"},"vehicle_type_id":"4","last_reported":1774865135,"current_range_meters":8800,"station_id":"ce4bh3p2rcd13ifvqdp0","pricing_plan_id":"cebpf4jnsgd1na2vs0mg"},{"bike_id":"c67c5d5c-6a86-4840-bc88-5726340ce24f","system_id":"levelo_inurba_marseille","lat":43.23908,"lon":5.37447,"is_reserved":false,"is_disabled":false,"rental_uris":{"android":"levelo://app?vid=c67c5d5c-6a86-4840-bc88-5726340ce24f","ios":"levelo://app?vid=c67c5d5c-6a86-4840-bc88-5726340ce24f"},"vehicle_type_id":"4","last_reported":1774865135,"current_range_meters":8800,"station_id":"st_d6sm7csbq4hs73f8fpjg","pricing_plan_id":"cebpf4jnsgd1na2vs0mg"},{"bike_id":"8d26c30b-3847-405c-8066-75bf15658130","system_id":"levelo_inurba_marseille","lat":43.29832,"lon":5.36339,"is_reserved":false,"is_disabled":false,"rental_uris":{"android":"levelo://app?vid=8d26c30b-3847-405c-8066-75bf15658130","ios":"levelo://app?vid=8d26c30b-3847-405c-8066-75bf15658130"},"vehicle_type_id":"4","last_reported":1774865135,"current_range_meters":8800,"station_id":"","pricing_plan_id":"cebpf4jnsgd1na2vs0mg"},{"bike_id":"e2491530-7c3b-41df-80e0-1a5c4af36aa4","system_id":"levelo_inurba_marseille","lat":43.23794,"lon":5.36621,"is_reserved":false,"is_disabled":false,"rental_uris":{"android":"levelo://app?vid=e2491530-7c3b-41df-80e0-1a5c4af36aa4","ios":"levelo://app?vid=e2491530-7c3b-41df-80e0-1a5c4af36aa4"},"vehicle_type_id":"4","last_reported":1774865135,"current_range_meters":8800,"station_id":"st_d3nk18o9ro0c73en2l3g","pricing_plan_id":"cebpf4jnsgd1na2vs0mg"},{"bike_id":"5ae1cde3-c020-448f-8cff-83f80611c531","system_id":"levelo_inurba_marseille","lat":43.24465,"lon":5.42533,"is_reserved":false,"is_disabled":false,"rental_uris":{"android":"levelo://app?vid=5ae1cde3-c020-448f-8cff-83f80611c531","ios":"levelo://app?vid=5ae1cde3-c020-448f-8cff-83f80611c531"},"vehicle_type_id":"4","last_reported":1774865135,"current_range_meters":8800,"station_id":"st_d4a3vfp97mjs738cd8kg","pricing_plan_id":"cebpf4jnsgd1na2vs0mg"},{"bike_id":"6cb80350-a12f-414d-8a45-edb4d9decdf0","system_id":"levelo_inurba_marseille","lat":43.28538,"lon":5.44092,"is_reserved":false,"is_disabled":false,"rental_uris":{"android":"levelo://app?vid=6cb80350-a12f-414d-8a45-edb4d9decdf0","ios":"levelo://app?vid=6cb80350-a12f-414d-8a45-edb4d9decdf0"},"vehicle_type_id":"4","last_reported":1774865135,"current_range_meters":8800,"station_id":"st_d3j3df2ikq2c7380ej80","pricing_plan_id":"cebpf4jnsgd1na2vs0mg"},{"bike_id":"cace6a75-41af-4909-a80a-68d60c5c1a04","system_id":"levelo_inurba_marseille","lat":43.28426,"lon":5.34997,"is_reserved":false,"is_disabled":false,"rental_uris":{"android":"levelo://app?vid=cace6a75-41af-4909-a80a-68d60c5c1a04","ios":"levelo://app?vid=cace6a75-41af-4909-a80a-68d60c5c1a04"},"vehicle_type_id":"4","last_reported":1774865135,"current_range_meters":8800,"station_id":"ce4bhbh2rcd13ifvqepg","pricing_plan_id":"cebpf4jnsgd1na2vs0mg"},{"bike_id":"57a31671-07ac-494c-895d-e0576641700b","system_id":"levelo_inurba_marseille","lat":43.23972,"lon":5.36632,"is_reserved":false,"is_disabled":false,"rental_uris":{"android":"levelo://app?vid=57a31671-07ac-494c-895d-e0576641700b","ios":"levelo://app?vid=57a31671-07ac-494c-895d-e0576641700b"},"vehicle_type_id":"4","last_reported":1774865135,"current_range_meters":8800,"station_id":"ce4bhi12rcd13ifvqfp0","pricing_plan_id":"cebpf4jnsgd1na2vs0mg"},{"bike_id":"cb88b7c0-158f-47d6-b62a-c3ee88f004a1","system_id":"levelo_inurba_marseille","lat":43.24478,"lon":5.42529,"is_reserved":false,"is_disabled":false,"rental_uris":{"android":"levelo://app?vid=cb88b7c0-158f-47d6-b62a-c3ee88f004a1","ios":"levelo://app?vid=cb88b7c0-158f-47d6-b62a-c3ee88f004a1"},"vehicle_type_id":"4","last_reported":1774865135,"current_range_meters":8800,"station_id":"st_d4a3vfp97mjs738cd8kg","pricing_plan_id":"cebpf4jnsgd1na2vs0mg"},{"bike_id":"c4b95ebd-7f1d-45da-a00b-69d6d7c574e4","system_id":"levelo_inurba_marseille","lat":43.24425,"lon":5.3701,"is_reserved":false,"is_disabled":false,"rental_uris":{"android":"levelo://app?vid=c4b95ebd-7f1d-45da-a00b-69d6d7c574e4","ios":"levelo://app?vid=c4b95ebd-7f1d-45da-a00b-69d6d7c574e4"},"vehicle_type_id":"4","last_reported":1774865135,"current_range_meters":8800,"station_id":"ce4bhhh2rcd13ifvqfk0","pricing_plan_id":"cebpf4jnsgd1na2vs0mg"},{"bike_id":"227cc43c-6fb3-476a-abb2-74c924061fb2","system_id":"levelo_inurba_marseille","lat":43.22568,"lon":5.41638,"is_reserved":false,"is_disabled":false,"rental_uris":{"android":"levelo://app?vid=227cc43c-6fb3-476a-abb2-74c924061fb2","ios":"levelo://app?vid=227cc43c-6fb3-476a-abb2-74c924061fb2"},"vehicle_type_id":"4","last_reported":1774865135,"current_range_meters":8800,"station_id":"st_d2o4gvlbi1j2169b742g","pricing_plan_id":"cebpf4jnsgd1na2vs0mg"},{"bike_id":"f54bfc49-c52e-433a-9661-97eeb8e5a586","system_id":"levelo_inurba_marseille","lat":43.23792,"lon":5.36631,"is_reserved":false,"is_disabled":false,"rental_uris":{"android":"levelo://app?vid=f54bfc49-c52e-433a-9661-97eeb8e5a586","ios":"levelo://app?vid=f54bfc49-c52e-433a-9661-97eeb8e5a586"},"vehicle_type_id":"4","last_reported":1774865135,"current_range_meters":8800,"station_id":"st_d3nk18o9ro0c73en2l3g","pricing_plan_id":"cebpf4jnsgd1na2vs0mg"},{"bike_id":"aca6641d-7d59-4b6d-aca8-5ef46eb491ec","system_id":"levelo_inurba_marseille","lat":43.23059,"lon":5.35518,"is_reserved":false,"is_disabled":false,"rental_uris":{"android":"levelo://app?vid=aca6641d-7d59-4b6d-aca8-5ef46eb491ec","ios":"levelo://app?vid=aca6641d-7d59-4b6d-aca8-5ef46eb491ec"},"vehicle_type_id":"4","last_reported":1774865135,"current_range_meters":8800,"station_id":"cpo3342slgdg3j2ifvpg","pricing_plan_id":"cebpf4jnsgd1na2vs0mg"},{"bike_id":"d175c754-8563-4b72-ba16-a3e037f90e46","system_id":"levelo_inurba_marseille","lat":43.27136,"lon":5.39178,"is_reserved":false,"is_disabled":false,"rental_uris":{"android":"levelo://app?vid=d175c754-8563-4b72-ba16-a3e037f90e46","ios":"levelo://app?vid=d175c754-8563-4b72-ba16-a3e037f90e46"},"vehicle_type_id":"4","last_reported":1774865135,"current_range_meters":8800,"station_id":"","pricing_plan_id":"cebpf4jnsgd1na2vs0mg"},{"bike_id":"cde37b3d-5bf8-45ad-ae5c-441c1680e201","system_id":"levelo_inurba_marseille","lat":43.27899,"lon":5.39127,"is_reserved":false,"is_disabled":false,"rental_uris":{"android":"levelo://app?vid=cde37b3d-5bf8-45ad-ae5c-441c1680e201","ios":"levelo://app?vid=cde37b3d-5bf8-45ad-ae5c-441c1680e201"},"vehicle_type_id":"4","last_reported":1774865135,"current_range_meters":9200,"station_id":"","pricing_plan_id":"cebpf4jnsgd1na2vs0mg"},{"bike_id":"4977f95e-718a-4120-8926-2364059fe1a3","system_id":"levelo_inurba_marseille","lat":43.26684,"lon":5.38267,"is_reserved":false,"is_disabled":false,"rental_uris":{"android":"levelo://app?vid=4977f95e-718a-4120-8926-2364059fe1a3","ios":"levelo://app?vid=4977f95e-718a-4120-8926-2364059fe1a3"},"vehicle_type_id":"4","last_reported":1774865135,"current_range_meters":9200,"station_id":"","pricing_plan_id":"cebpf4jnsgd1na2vs0mg"},{"bike_id":"7cefc45d-38f5-45cf-a99c-dfb4be1018fe","system_id":"levelo_inurba_marseille","lat":43.24461,"lon":5.42527,"is_reserved":false,"is_disabled":false,"rental_uris":{"android":"levelo://app?vid=7cefc45d-38f5-45cf-a99c-dfb4be1018fe","ios":"levelo://app?vid=7cefc45d-38f5-45cf-a99c-dfb4be1018fe"},"vehicle_type_id":"4","last_reported":1774865135,"current_range_meters":9200,"station_id":"st_d4a3vfp97mjs738cd8kg","pricing_plan_id":"cebpf4jnsgd1na2vs0mg"},{"bike_id":"9c1440ce-c955-43db-9800-7794805da744","system_id":"levelo_inurba_marseille","lat":43.23976,"lon":5.36634,"is_reserved":false,"is_disabled":false,"rental_uris":{"android":"levelo://app?vid=9c1440ce-c955-43db-9800-7794805da744","ios":"levelo://app?vid=9c1440ce-c955-43db-9800-7794805da744"},"vehicle_type_id":"4","last_reported":1774865135,"current_range_meters":9200,"station_id":"ce4bhi12rcd13ifvqfp0","pricing_plan_id":"cebpf4jnsgd1na2vs0mg"},{"bike_id":"fe2c2d4e-ad0a-4ad1-b727-7e9a7d4ef824","system_id":"levelo_inurba_marseille","lat":43.28513,"lon":5.48365,"is_reserved":false,"is_disabled":false,"rental_uris":{"android":"levelo://app?vid=fe2c2d4e-ad0a-4ad1-b727-7e9a7d4ef824","ios":"levelo://app?vid=fe2c2d4e-ad0a-4ad1-b727-7e9a7d4ef824"},"vehicle_type_id":"4","last_reported":1774865135,"current_range_meters":9200,"station_id":"","pricing_plan_id":"cebpf4jnsgd1na2vs0mg"},{"bike_id":"d653ed05-f213-45fd-84c6-b781deb83672","system_id":"levelo_inurba_marseille","lat":43.22555,"lon":5.41633,"is_reserved":false,"is_disabled":false,"rental_uris":{"android":"levelo://app?vid=d653ed05-f213-45fd-84c6-b781deb83672","ios":"levelo://app?vid=d653ed05-f213-45fd-84c6-b781deb83672"},"vehicle_type_id":"4","last_reported":1774865135,"current_range_meters":9200,"station_id":"st_d2o4gvlbi1j2169b742g","pricing_plan_id":"cebpf4jnsgd1na2vs0mg"},{"bike_id":"bd22810e-4e9c-45ac-8057-6360dc8fe6a3","system_id":"levelo_inurba_marseille","lat":43.2417,"lon":5.36393,"is_reserved":false,"is_disabled":false,"rental_uris":{"android":"levelo://app?vid=bd22810e-4e9c-45ac-8057-6360dc8fe6a3","ios":"levelo://app?vid=bd22810e-4e9c-45ac-8057-6360dc8fe6a3"},"vehicle_type_id":"4","last_reported":1774865135,"current_range_meters":9200,"station_id":"cpo36qri1sfpv3e86is0","pricing_plan_id":"cebpf4jnsgd1na2vs0mg"},{"bike_id":"e68f3366-4661-41e2-954e-052dff571e84","system_id":"levelo_inurba_marseille","lat":43.27214,"lon":5.39199,"is_reserved":false,"is_disabled":true,"rental_uris":{"android":"levelo://app?vid=e68f3366-4661-41e2-954e-052dff571e84","ios":"levelo://app?vid=e68f3366-4661-41e2-954e-052dff571e84"},"vehicle_type_id":"4","last_reported":1774865135,"current_range_meters":9200,"station_id":"ce4bhhp2rcd13ifvqfm0","pricing_plan_id":"cebpf4jnsgd1na2vs0mg"},{"bike_id":"70d43021-d0d5-46ae-b732-349c735ced01","system_id":"levelo_inurba_marseille","lat":43.28445,"lon":5.38683,"is_reserved":false,"is_disabled":false,"rental_uris":{"android":"levelo://app?vid=70d43021-d0d5-46ae-b732-349c735ced01","ios":"levelo://app?vid=70d43021-d0d5-46ae-b732-349c735ced01"},"vehicle_type_id":"4","last_reported":1774865135,"current_range_meters":9200,"station_id":"","pricing_plan_id":"cebpf4jnsgd1na2vs0mg"},{"bike_id":"0d128293-8160-4792-9c1e-826ac5d76c3f","system_id":"levelo_inurba_marseille","lat":43.26289,"lon":5.38791,"is_reserved":false,"is_disabled":false,"rental_uris":{"android":"levelo://app?vid=0d128293-8160-4792-9c1e-826ac5d76c3f","ios":"levelo://app?vid=0d128293-8160-4792-9c1e-826ac5d76c3f"},"vehicle_type_id":"4","last_reported":1774865135,"current_range_meters":9200,"station_id":"","pricing_plan_id":"cebpf4jnsgd1na2vs0mg"},{"bike_id":"d79c2376-c143-4b77-a689-4401a66eb2b4","system_id":"levelo_inurba_marseille","lat":43.28934,"lon":5.36635,"is_reserved":false,"is_disabled":false,"rental_uris":{"android":"levelo://app?vid=d79c2376-c143-4b77-a689-4401a66eb2b4","ios":"levelo://app?vid=d79c2376-c143-4b77-a689-4401a66eb2b4"},"vehicle_type_id":"4","last_reported":1774865135,"current_range_meters":9200,"station_id":"ce4bhap2rcd13ifvqek0","pricing_plan_id":"cebpf4jnsgd1na2vs0mg"},{"bike_id":"c0f606fe-baa5-492a-85a1-9ee65c00252f","system_id":"levelo_inurba_marseille","lat":43.23215,"lon":5.35537,"is_reserved":false,"is_disabled":false,"rental_uris":{"android":"levelo://app?vid=c0f606fe-baa5-492a-85a1-9ee65c00252f","ios":"levelo://app?vid=c0f606fe-baa5-492a-85a1-9ee65c00252f"},"vehicle_type_id":"4","last_reported":1774865135,"current_range_meters":9200,"station_id":"ce4bhu92rcd13ifvqi70","pricing_plan_id":"cebpf4jnsgd1na2vs0mg"},{"bike_id":"8224fee4-1d52-4b11-b16a-70c5a6603dd7","system_id":"levelo_inurba_marseille","lat":43.28484,"lon":5.48385,"is_reserved":false,"is_disabled":false,"rental_uris":{"android":"levelo://app?vid=8224fee4-1d52-4b11-b16a-70c5a6603dd7","ios":"levelo://app?vid=8224fee4-1d52-4b11-b16a-70c5a6603dd7"},"vehicle_type_id":"4","last_reported":1774865135,"current_range_meters":9200,"station_id":"","pricing_plan_id":"cebpf4jnsgd1na2vs0mg"},{"bike_id":"4086b2ca-54f4-468c-a9c4-93b3edb1a625","system_id":"levelo_inurba_marseille","lat":43.29828,"lon":5.37151,"is_reserved":false,"is_disabled":false,"rental_uris":{"android":"levelo://app?vid=4086b2ca-54f4-468c-a9c4-93b3edb1a625","ios":"levelo://app?vid=4086b2ca-54f4-468c-a9c4-93b3edb1a625"},"vehicle_type_id":"4","last_reported":1774865135,"current_range_meters":9600,"station_id":"","pricing_plan_id":"cebpf4jnsgd1na2vs0mg"},{"bike_id":"3a922081-a991-4b97-906e-7f7dba00403a","system_id":"levelo_inurba_marseille","lat":43.32352,"lon":5.36748,"is_reserved":false,"is_disabled":false,"rental_uris":{"android":"levelo://app?vid=3a922081-a991-4b97-906e-7f7dba00403a","ios":"levelo://app?vid=3a922081-a991-4b97-906e-7f7dba00403a"},"vehicle_type_id":"4","last_reported":1774865135,"current_range_meters":9600,"station_id":"ce4bhsh2rcd13ifvqi2g","pricing_plan_id":"cebpf4jnsgd1na2vs0mg"},{"bike_id":"2f4d7dc2-1f45-47d2-9aa6-0704800973ee","system_id":"levelo_inurba_marseille","lat":43.28667,"lon":5.46704,"is_reserved":false,"is_disabled":false,"rental_uris":{"android":"levelo://app?vid=2f4d7dc2-1f45-47d2-9aa6-0704800973ee","ios":"levelo://app?vid=2f4d7dc2-1f45-47d2-9aa6-0704800973ee"},"vehicle_type_id":"4","last_reported":1774865135,"current_range_meters":9600,"station_id":"st_d6tc3vkotcvc738tfjhg","pricing_plan_id":"cebpf4jnsgd1na2vs0mg"},{"bike_id":"a04bce70-e6d2-40ba-9711-b42df0461942","system_id":"levelo_inurba_marseille","lat":43.33605,"lon":5.41004,"is_reserved":false,"is_disabled":false,"rental_uris":{"android":"levelo://app?vid=a04bce70-e6d2-40ba-9711-b42df0461942","ios":"levelo://app?vid=a04bce70-e6d2-40ba-9711-b42df0461942"},"vehicle_type_id":"4","last_reported":1774865135,"current_range_meters":9600,"station_id":"ce4bhqh2rcd13ifvqhmg","pricing_plan_id":"cebpf4jnsgd1na2vs0mg"},{"bike_id":"2c9a0922-0198-4256-b2ac-2c0d229a41e5","system_id":"levelo_inurba_marseille","lat":43.31352,"lon":5.36721,"is_reserved":false,"is_disabled":false,"rental_uris":{"android":"levelo://app?vid=2c9a0922-0198-4256-b2ac-2c0d229a41e5","ios":"levelo://app?vid=2c9a0922-0198-4256-b2ac-2c0d229a41e5"},"vehicle_type_id":"4","last_reported":1774865135,"current_range_meters":9600,"station_id":"ce4bgr92rcd13ifvqc6g","pricing_plan_id":"cebpf4jnsgd1na2vs0mg"},{"bike_id":"f2ac8faa-b8e8-4025-bb6d-4e45873c4422","system_id":"levelo_inurba_marseille","lat":43.23173,"lon":5.43685,"is_reserved":false,"is_disabled":false,"rental_uris":{"android":"levelo://app?vid=f2ac8faa-b8e8-4025-bb6d-4e45873c4422","ios":"levelo://app?vid=f2ac8faa-b8e8-4025-bb6d-4e45873c4422"},"vehicle_type_id":"4","last_reported":1774865135,"current_range_meters":9600,"station_id":"ce4bhmp2rcd13ifvqgog","pricing_plan_id":"cebpf4jnsgd1na2vs0mg"},{"bike_id":"aff3ff3f-6b67-4330-8619-cb367673fc13","system_id":"levelo_inurba_marseille","lat":43.2439,"lon":5.37064,"is_reserved":false,"is_disabled":false,"rental_uris":{"android":"levelo://app?vid=aff3ff3f-6b67-4330-8619-cb367673fc13","ios":"levelo://app?vid=aff3ff3f-6b67-4330-8619-cb367673fc13"},"vehicle_type_id":"4","last_reported":1774865135,"current_range_meters":9600,"station_id":"ce4bhhh2rcd13ifvqfk0","pricing_plan_id":"cebpf4jnsgd1na2vs0mg"},{"bike_id":"8338ea8e-57ee-4143-82c5-988ef8cd3458","system_id":"levelo_inurba_marseille","lat":43.28853,"lon":5.393,"is_reserved":false,"is_disabled":false,"rental_uris":{"android":"levelo://app?vid=8338ea8e-57ee-4143-82c5-988ef8cd3458","ios":"levelo://app?vid=8338ea8e-57ee-4143-82c5-988ef8cd3458"},"vehicle_type_id":"4","last_reported":1774865135,"current_range_meters":9600,"station_id":"ce4bh2p2rcd13ifvqdi0","pricing_plan_id":"cebpf4jnsgd1na2vs0mg"},{"bike_id":"8e18dfde-e4cf-4c8a-966e-1edd803a3a74","system_id":"levelo_inurba_marseille","lat":43.2951,"lon":5.39412,"is_reserved":false,"is_disabled":false,"rental_uris":{"android":"levelo://app?vid=8e18dfde-e4cf-4c8a-966e-1edd803a3a74","ios":"levelo://app?vid=8e18dfde-e4cf-4c8a-966e-1edd803a3a74"},"vehicle_type_id":"4","last_reported":1774865135,"current_range_meters":9600,"station_id":"ce4bh292rcd13ifvqdf0","pricing_plan_id":"cebpf4jnsgd1na2vs0mg"},{"bike_id":"df222e19-2a08-43ea-a37e-7bbfc665166a","system_id":"levelo_inurba_marseille","lat":43.29828,"lon":5.44036,"is_reserved":false,"is_disabled":false,"rental_uris":{"android":"levelo://app?vid=df222e19-2a08-43ea-a37e-7bbfc665166a","ios":"levelo://app?vid=df222e19-2a08-43ea-a37e-7bbfc665166a"},"vehicle_type_id":"4","last_reported":1774865135,"current_range_meters":9600,"station_id":"st_d3jp68qikq2c7381ktn0","pricing_plan_id":"cebpf4jnsgd1na2vs0mg"},{"bike_id":"cddebeca-66b0-4dd1-afc6-e610149dff5f","system_id":"levelo_inurba_marseille","lat":43.25882,"lon":5.4088,"is_reserved":false,"is_disabled":false,"rental_uris":{"android":"levelo://app?vid=cddebeca-66b0-4dd1-afc6-e610149dff5f","ios":"levelo://app?vid=cddebeca-66b0-4dd1-afc6-e610149dff5f"},"vehicle_type_id":"4","last_reported":1774865135,"current_range_meters":9600,"station_id":"ce4bhm92rcd13ifvqglg","pricing_plan_id":"cebpf4jnsgd1na2vs0mg"},{"bike_id":"47bb4987-8c67-4623-a1c3-92da9a025dcf","system_id":"levelo_inurba_marseille","lat":43.27496,"lon":5.42446,"is_reserved":false,"is_disabled":false,"rental_uris":{"android":"levelo://app?vid=47bb4987-8c67-4623-a1c3-92da9a025dcf","ios":"levelo://app?vid=47bb4987-8c67-4623-a1c3-92da9a025dcf"},"vehicle_type_id":"4","last_reported":1774865135,"current_range_meters":9600,"station_id":"ce4bhn92rcd13ifvqgrg","pricing_plan_id":"cebpf4jnsgd1na2vs0mg"},{"bike_id":"b69b7ee0-eb68-4e40-9110-6ed5a17a58dc","system_id":"levelo_inurba_marseille","lat":43.28424,"lon":5.34986,"is_reserved":false,"is_disabled":false,"rental_uris":{"android":"levelo://app?vid=b69b7ee0-eb68-4e40-9110-6ed5a17a58dc","ios":"levelo://app?vid=b69b7ee0-eb68-4e40-9110-6ed5a17a58dc"},"vehicle_type_id":"4","last_reported":1774865135,"current_range_meters":9600,"station_id":"ce4bhbh2rcd13ifvqepg","pricing_plan_id":"cebpf4jnsgd1na2vs0mg"},{"bike_id":"7807e959-548b-4573-9349-6f8ad219a4a5","system_id":"levelo_inurba_marseille","lat":43.24165,"lon":5.36427,"is_reserved":false,"is_disabled":false,"rental_uris":{"android":"levelo://app?vid=7807e959-548b-4573-9349-6f8ad219a4a5","ios":"levelo://app?vid=7807e959-548b-4573-9349-6f8ad219a4a5"},"vehicle_type_id":"4","last_reported":1774865135,"current_range_meters":9600,"station_id":"cpo36qri1sfpv3e86is0","pricing_plan_id":"cebpf4jnsgd1na2vs0mg"},{"bike_id":"8138d89a-b631-4423-9013-2581299c0a6a","system_id":"levelo_inurba_marseille","lat":43.24807,"lon":5.37448,"is_reserved":false,"is_disabled":false,"rental_uris":{"android":"levelo://app?vid=8138d89a-b631-4423-9013-2581299c0a6a","ios":"levelo://app?vid=8138d89a-b631-4423-9013-2581299c0a6a"},"vehicle_type_id":"4","last_reported":1774865135,"current_range_meters":9600,"station_id":"ce4bhgh2rcd13ifvqfb0","pricing_plan_id":"cebpf4jnsgd1na2vs0mg"},{"bike_id":"0f2aaab1-6172-4bc1-9a4f-2fb906580fc3","system_id":"levelo_inurba_marseille","lat":43.24949,"lon":5.40484,"is_reserved":false,"is_disabled":false,"rental_uris":{"android":"levelo://app?vid=0f2aaab1-6172-4bc1-9a4f-2fb906580fc3","ios":"levelo://app?vid=0f2aaab1-6172-4bc1-9a4f-2fb906580fc3"},"vehicle_type_id":"4","last_reported":1774865135,"current_range_meters":9600,"station_id":"st_d2ngiaodas8pm72gd1h0","pricing_plan_id":"cebpf4jnsgd1na2vs0mg"},{"bike_id":"cf039980-8909-4a03-aa52-b426c9efd4e8","system_id":"levelo_inurba_marseille","lat":43.21747,"lon":5.34605,"is_reserved":false,"is_disabled":false,"rental_uris":{"android":"levelo://app?vid=cf039980-8909-4a03-aa52-b426c9efd4e8","ios":"levelo://app?vid=cf039980-8909-4a03-aa52-b426c9efd4e8"},"vehicle_type_id":"4","last_reported":1774865135,"current_range_meters":9600,"station_id":"st_cvj6r9ubvosntc0bgbag","pricing_plan_id":"cebpf4jnsgd1na2vs0mg"},{"bike_id":"5324f073-a80f-4b44-b3a4-717613026589","system_id":"levelo_inurba_marseille","lat":43.24394,"lon":5.39904,"is_reserved":false,"is_disabled":false,"rental_uris":{"android":"levelo://app?vid=5324f073-a80f-4b44-b3a4-717613026589","ios":"levelo://app?vid=5324f073-a80f-4b44-b3a4-717613026589"},"vehicle_type_id":"4","last_reported":1774865135,"current_range_meters":9600,"station_id":"","pricing_plan_id":"cebpf4jnsgd1na2vs0mg"},{"bike_id":"bb9c9ce8-7ad8-4c58-9c75-429d43a3d175","system_id":"levelo_inurba_marseille","lat":43.24034,"lon":5.362,"is_reserved":false,"is_disabled":false,"rental_uris":{"android":"levelo://app?vid=bb9c9ce8-7ad8-4c58-9c75-429d43a3d175","ios":"levelo://app?vid=bb9c9ce8-7ad8-4c58-9c75-429d43a3d175"},"vehicle_type_id":"4","last_reported":1774865135,"current_range_meters":9600,"station_id":"","pricing_plan_id":"cebpf4jnsgd1na2vs0mg"},{"bike_id":"72ee8908-2118-4510-8242-1cee77f54b7c","system_id":"levelo_inurba_marseille","lat":43.27393,"lon":5.42375,"is_reserved":false,"is_disabled":false,"rental_uris":{"android":"levelo://app?vid=72ee8908-2118-4510-8242-1cee77f54b7c","ios":"levelo://app?vid=72ee8908-2118-4510-8242-1cee77f54b7c"},"vehicle_type_id":"4","last_reported":1774865135,"current_range_meters":9600,"station_id":"","pricing_plan_id":"cebpf4jnsgd1na2vs0mg"},{"bike_id":"99357e4e-0fd2-4bed-b022-406a548cc7c5","system_id":"levelo_inurba_marseille","lat":43.23974,"lon":5.36619,"is_reserved":false,"is_disabled":false,"rental_uris":{"android":"levelo://app?vid=99357e4e-0fd2-4bed-b022-406a548cc7c5","ios":"levelo://app?vid=99357e4e-0fd2-4bed-b022-406a548cc7c5"},"vehicle_type_id":"4","last_reported":1774865135,"current_range_meters":9600,"station_id":"ce4bhi12rcd13ifvqfp0","pricing_plan_id":"cebpf4jnsgd1na2vs0mg"},{"bike_id":"cdd03503-77cd-4362-8a0a-e5acc5388907","system_id":"levelo_inurba_marseille","lat":43.2827,"lon":5.35078,"is_reserved":false,"is_disabled":false,"rental_uris":{"android":"levelo://app?vid=cdd03503-77cd-4362-8a0a-e5acc5388907","ios":"levelo://app?vid=cdd03503-77cd-4362-8a0a-e5acc5388907"},"vehicle_type_id":"4","last_reported":1774865135,"current_range_meters":10000,"station_id":"ce4bhbp2rcd13ifvqerg","pricing_plan_id":"cebpf4jnsgd1na2vs0mg"},{"bike_id":"a2df5bbc-915e-4be4-8861-be4d46ce41c0","system_id":"levelo_inurba_marseille","lat":43.28474,"lon":5.48415,"is_reserved":false,"is_disabled":false,"rental_uris":{"android":"levelo://app?vid=a2df5bbc-915e-4be4-8861-be4d46ce41c0","ios":"levelo://app?vid=a2df5bbc-915e-4be4-8861-be4d46ce41c0"},"vehicle_type_id":"4","last_reported":1774865135,"current_range_meters":10000,"station_id":"","pricing_plan_id":"cebpf4jnsgd1na2vs0mg"},{"bike_id":"10063e3f-8609-45d7-a82d-682af1ae1436","system_id":"levelo_inurba_marseille","lat":43.29099,"lon":5.42894,"is_reserved":false,"is_disabled":false,"rental_uris":{"android":"levelo://app?vid=10063e3f-8609-45d7-a82d-682af1ae1436","ios":"levelo://app?vid=10063e3f-8609-45d7-a82d-682af1ae1436"},"vehicle_type_id":"4","last_reported":1774865135,"current_range_meters":10000,"station_id":"","pricing_plan_id":"cebpf4jnsgd1na2vs0mg"},{"bike_id":"816d1509-b6a4-4401-86a1-6ea0eb371364","system_id":"levelo_inurba_marseille","lat":43.23808,"lon":5.36605,"is_reserved":false,"is_disabled":false,"rental_uris":{"android":"levelo://app?vid=816d1509-b6a4-4401-86a1-6ea0eb371364","ios":"levelo://app?vid=816d1509-b6a4-4401-86a1-6ea0eb371364"},"vehicle_type_id":"4","last_reported":1774865135,"current_range_meters":10000,"station_id":"st_d3nk18o9ro0c73en2l3g","pricing_plan_id":"cebpf4jnsgd1na2vs0mg"},{"bike_id":"d90b30f7-db03-414a-88e2-268b512c6ce2","system_id":"levelo_inurba_marseille","lat":43.25008,"lon":5.38967,"is_reserved":false,"is_disabled":false,"rental_uris":{"android":"levelo://app?vid=d90b30f7-db03-414a-88e2-268b512c6ce2","ios":"levelo://app?vid=d90b30f7-db03-414a-88e2-268b512c6ce2"},"vehicle_type_id":"4","last_reported":1774865135,"current_range_meters":10000,"station_id":"ce4bhgp2rcd13ifvqfd0","pricing_plan_id":"cebpf4jnsgd1na2vs0mg"},{"bike_id":"f1c7cedb-7ca6-425d-bb6e-eba3f64564e5","system_id":"levelo_inurba_marseille","lat":43.24177,"lon":5.39711,"is_reserved":false,"is_disabled":false,"rental_uris":{"android":"levelo://app?vid=f1c7cedb-7ca6-425d-bb6e-eba3f64564e5","ios":"levelo://app?vid=f1c7cedb-7ca6-425d-bb6e-eba3f64564e5"},"vehicle_type_id":"4","last_reported":1774865135,"current_range_meters":10000,"station_id":"ce4bhn12rcd13ifvqgpg","pricing_plan_id":"cebpf4jnsgd1na2vs0mg"},{"bike_id":"fc230a14-954a-4d36-be5c-8f8498288ae5","system_id":"levelo_inurba_marseille","lat":43.28285,"lon":5.34991,"is_reserved":false,"is_disabled":false,"rental_uris":{"android":"levelo://app?vid=fc230a14-954a-4d36-be5c-8f8498288ae5","ios":"levelo://app?vid=fc230a14-954a-4d36-be5c-8f8498288ae5"},"vehicle_type_id":"4","last_reported":1774865135,"current_range_meters":10000,"station_id":"ce4bhbp2rcd13ifvqerg","pricing_plan_id":"cebpf4jnsgd1na2vs0mg"},{"bike_id":"71402cb6-01ee-4f5a-9551-b1e9fe6371e2","system_id":"levelo_inurba_marseille","lat":43.28936,"lon":5.43226,"is_reserved":false,"is_disabled":false,"rental_uris":{"android":"levelo://app?vid=71402cb6-01ee-4f5a-9551-b1e9fe6371e2","ios":"levelo://app?vid=71402cb6-01ee-4f5a-9551-b1e9fe6371e2"},"vehicle_type_id":"4","last_reported":1774865135,"current_range_meters":10000,"station_id":"","pricing_plan_id":"cebpf4jnsgd1na2vs0mg"},{"bike_id":"358db42a-5298-4c91-b37d-1ca0e9b22ee4","system_id":"levelo_inurba_marseille","lat":43.29373,"lon":5.37846,"is_reserved":false,"is_disabled":false,"rental_uris":{"android":"levelo://app?vid=358db42a-5298-4c91-b37d-1ca0e9b22ee4","ios":"levelo://app?vid=358db42a-5298-4c91-b37d-1ca0e9b22ee4"},"vehicle_type_id":"4","last_reported":1774865135,"current_range_meters":10000,"station_id":"ce4bgjh2rcd13ifvqbf0","pricing_plan_id":"cebpf4jnsgd1na2vs0mg"},{"bike_id":"9e8c35a2-3d4d-48a8-87e2-0775e9d3d581","system_id":"levelo_inurba_marseille","lat":43.27487,"lon":5.40823,"is_reserved":false,"is_disabled":false,"rental_uris":{"android":"levelo://app?vid=9e8c35a2-3d4d-48a8-87e2-0775e9d3d581","ios":"levelo://app?vid=9e8c35a2-3d4d-48a8-87e2-0775e9d3d581"},"vehicle_type_id":"4","last_reported":1774865135,"current_range_meters":10000,"station_id":"","pricing_plan_id":"cebpf4jnsgd1na2vs0mg"},{"bike_id":"370e4e08-6d82-4b38-8b87-e7eadfcbd0ed","system_id":"levelo_inurba_marseille","lat":43.24184,"lon":5.3972,"is_reserved":false,"is_disabled":false,"rental_uris":{"android":"levelo://app?vid=370e4e08-6d82-4b38-8b87-e7eadfcbd0ed","ios":"levelo://app?vid=370e4e08-6d82-4b38-8b87-e7eadfcbd0ed"},"vehicle_type_id":"4","last_reported":1774865135,"current_range_meters":10000,"station_id":"ce4bhn12rcd13ifvqgpg","pricing_plan_id":"cebpf4jnsgd1na2vs0mg"},{"bike_id":"10f05ed2-5813-4d4b-a9c2-f44482f892e6","system_id":"levelo_inurba_marseille","lat":43.31575,"lon":5.36898,"is_reserved":false,"is_disabled":false,"rental_uris":{"android":"levelo://app?vid=10f05ed2-5813-4d4b-a9c2-f44482f892e6","ios":"levelo://app?vid=10f05ed2-5813-4d4b-a9c2-f44482f892e6"},"vehicle_type_id":"4","last_reported":1774865135,"current_range_meters":10000,"station_id":"","pricing_plan_id":"cebpf4jnsgd1na2vs0mg"},{"bike_id":"f7bbba91-ee9a-4abe-bd88-c64afed9737f","system_id":"levelo_inurba_marseille","lat":43.23197,"lon":5.35542,"is_reserved":false,"is_disabled":false,"rental_uris":{"android":"levelo://app?vid=f7bbba91-ee9a-4abe-bd88-c64afed9737f","ios":"levelo://app?vid=f7bbba91-ee9a-4abe-bd88-c64afed9737f"},"vehicle_type_id":"4","last_reported":1774865135,"current_range_meters":10000,"station_id":"ce4bhu92rcd13ifvqi70","pricing_plan_id":"cebpf4jnsgd1na2vs0mg"},{"bike_id":"fad8eb85-309b-49f3-984f-57c198a75fb1","system_id":"levelo_inurba_marseille","lat":43.30889,"lon":5.3787,"is_reserved":false,"is_disabled":false,"rental_uris":{"android":"levelo://app?vid=fad8eb85-309b-49f3-984f-57c198a75fb1","ios":"levelo://app?vid=fad8eb85-309b-49f3-984f-57c198a75fb1"},"vehicle_type_id":"4","last_reported":1774865135,"current_range_meters":10000,"station_id":"","pricing_plan_id":"cebpf4jnsgd1na2vs0mg"},{"bike_id":"6b29d76d-7647-4ae9-88a6-1816b39268e2","system_id":"levelo_inurba_marseille","lat":43.24949,"lon":5.40491,"is_reserved":false,"is_disabled":false,"rental_uris":{"android":"levelo://app?vid=6b29d76d-7647-4ae9-88a6-1816b39268e2","ios":"levelo://app?vid=6b29d76d-7647-4ae9-88a6-1816b39268e2"},"vehicle_type_id":"4","last_reported":1774865135,"current_range_meters":10000,"station_id":"st_d2ngiaodas8pm72gd1h0","pricing_plan_id":"cebpf4jnsgd1na2vs0mg"},{"bike_id":"7eb573e3-4a67-4738-a5aa-1e3708d3c45b","system_id":"levelo_inurba_marseille","lat":43.26386,"lon":5.4107,"is_reserved":false,"is_disabled":false,"rental_uris":{"android":"levelo://app?vid=7eb573e3-4a67-4738-a5aa-1e3708d3c45b","ios":"levelo://app?vid=7eb573e3-4a67-4738-a5aa-1e3708d3c45b"},"vehicle_type_id":"4","last_reported":1774865135,"current_range_meters":10000,"station_id":"st_d4e5ca6na9uc73bfl5fg","pricing_plan_id":"cebpf4jnsgd1na2vs0mg"},{"bike_id":"8289ea9c-9f3c-47cc-ae82-8027b0a738ac","system_id":"levelo_inurba_marseille","lat":43.31927,"lon":5.36734,"is_reserved":false,"is_disabled":false,"rental_uris":{"android":"levelo://app?vid=8289ea9c-9f3c-47cc-ae82-8027b0a738ac","ios":"levelo://app?vid=8289ea9c-9f3c-47cc-ae82-8027b0a738ac"},"vehicle_type_id":"4","last_reported":1774865135,"current_range_meters":10000,"station_id":"","pricing_plan_id":"cebpf4jnsgd1na2vs0mg"},{"bike_id":"9b046cb1-2621-4075-b04d-5d0d07d9702e","system_id":"levelo_inurba_marseille","lat":43.22932,"lon":5.35365,"is_reserved":false,"is_disabled":false,"rental_uris":{"android":"levelo://app?vid=9b046cb1-2621-4075-b04d-5d0d07d9702e","ios":"levelo://app?vid=9b046cb1-2621-4075-b04d-5d0d07d9702e"},"vehicle_type_id":"4","last_reported":1774865135,"current_range_meters":10000,"station_id":"cpo3532slgdg3j2ikp40","pricing_plan_id":"cebpf4jnsgd1na2vs0mg"},{"bike_id":"9e65d6a3-3312-40c8-ac51-2258542c4f9d","system_id":"levelo_inurba_marseille","lat":43.30128,"lon":5.3669,"is_reserved":false,"is_disabled":false,"rental_uris":{"android":"levelo://app?vid=9e65d6a3-3312-40c8-ac51-2258542c4f9d","ios":"levelo://app?vid=9e65d6a3-3312-40c8-ac51-2258542c4f9d"},"vehicle_type_id":"4","last_reported":1774865135,"current_range_meters":10000,"station_id":"","pricing_plan_id":"cebpf4jnsgd1na2vs0mg"},{"bike_id":"43e4bb96-0cd3-4e42-baf5-dd0ee842f69a","system_id":"levelo_inurba_marseille","lat":43.23801,"lon":5.36626,"is_reserved":false,"is_disabled":false,"rental_uris":{"android":"levelo://app?vid=43e4bb96-0cd3-4e42-baf5-dd0ee842f69a","ios":"levelo://app?vid=43e4bb96-0cd3-4e42-baf5-dd0ee842f69a"},"vehicle_type_id":"4","last_reported":1774865135,"current_range_meters":10000,"station_id":"st_d3nk18o9ro0c73en2l3g","pricing_plan_id":"cebpf4jnsgd1na2vs0mg"},{"bike_id":"292b7b98-babf-43b6-9db1-2e9a2a0bb032","system_id":"levelo_inurba_marseille","lat":43.29623,"lon":5.37721,"is_reserved":false,"is_disabled":false,"rental_uris":{"android":"levelo://app?vid=292b7b98-babf-43b6-9db1-2e9a2a0bb032","ios":"levelo://app?vid=292b7b98-babf-43b6-9db1-2e9a2a0bb032"},"vehicle_type_id":"4","last_reported":1774865135,"current_range_meters":10000,"station_id":"ce4bgi92rcd13ifvqb90","pricing_plan_id":"cebpf4jnsgd1na2vs0mg"},{"bike_id":"6ec1889d-c43d-42d7-9ebb-6d09626d1897","system_id":"levelo_inurba_marseille","lat":43.24646,"lon":5.38897,"is_reserved":false,"is_disabled":false,"rental_uris":{"android":"levelo://app?vid=6ec1889d-c43d-42d7-9ebb-6d09626d1897","ios":"levelo://app?vid=6ec1889d-c43d-42d7-9ebb-6d09626d1897"},"vehicle_type_id":"4","last_reported":1774865135,"current_range_meters":10800,"station_id":"ce4bhg12rcd13ifvqf60","pricing_plan_id":"cebpf4jnsgd1na2vs0mg"},{"bike_id":"7295cb79-f36e-4270-8caa-c6206fb48de3","system_id":"levelo_inurba_marseille","lat":43.32466,"lon":5.36557,"is_reserved":false,"is_disabled":false,"rental_uris":{"android":"levelo://app?vid=7295cb79-f36e-4270-8caa-c6206fb48de3","ios":"levelo://app?vid=7295cb79-f36e-4270-8caa-c6206fb48de3"},"vehicle_type_id":"4","last_reported":1774865135,"current_range_meters":10800,"station_id":"ce4bhs12rcd13ifvqhvg","pricing_plan_id":"cebpf4jnsgd1na2vs0mg"},{"bike_id":"6154ce6a-6063-43ce-9e4a-767e1486eb9e","system_id":"levelo_inurba_marseille","lat":43.23096,"lon":5.35457,"is_reserved":false,"is_disabled":false,"rental_uris":{"android":"levelo://app?vid=6154ce6a-6063-43ce-9e4a-767e1486eb9e","ios":"levelo://app?vid=6154ce6a-6063-43ce-9e4a-767e1486eb9e"},"vehicle_type_id":"4","last_reported":1774865135,"current_range_meters":10800,"station_id":"","pricing_plan_id":"cebpf4jnsgd1na2vs0mg"},