{"last_updated":1738674960,"ttl":60,"version":"2.2","data":{"bikes":[{"bike_id":"a6accd57-54cf-4d44-87f9-766d1013e2f7","system_id":"levelo_inurba_marseille","lat":43.26031,"lon":5.37562,"is_reserved":false,"is_disabled":false,"rental_uris":{"android":"levelo://app?vid=a6accd57-54cf-4d44-87f9-766d1013e2f7","ios":"levelo://app?vid=a6accd57-54cf-4d44-87f9-766d1013e2f7"},"vehicle_type_id":"4","last_reported":1738674960,"current_range_meters":36800,"station_id":"ce4bhgh2rcd13ifvqfa0","pricing_plan_id":"cebpf4jnsgd1na2vs0mg"},{"bike_id":"63e47c93-0af5-4d7f-8415-4c61b993e261","system_id":"levelo_inurba_marseille","lat":43.30908,"lon":5.3684,"is_reserved":false,"is_disabled":false,"rental_uris":{"android":"levelo://app?vid=63e47c93-0af5-4d7f-8415-4c61b993e261","ios":"levelo://app?vid=63e47c93-0af5-4d7f-8415-4c61b993e261"},"vehicle_type_id":"4","last_reported":1738674960,"current_range_meters":33200,"station_id":"ce4bgn92rcd13ifvqbvg","pricing_plan_id":"cebpf4jnsgd1na2vs0mg"},{"bike_id":"1ae6562d-660e-4805-b9fa-ffde6ca908d4","system_id":"levelo_inurba_marseille","lat":43.28697,"lon":5.37373,"is_reserved":false,"is_disabled":false,"rental_uris":{"android":"levelo://app?vid=1ae6562d-660e-4805-b9fa-ffde6ca908d4","ios":"levelo://app?vid=1ae6562d-660e-4805-b9fa-ffde6ca908d4"},"vehicle_type_id":"4","last_reported":1738674960,"current_range_meters":24800,"station_id":"ce4bh3p2rcd13ifvqdq0","pricing_plan_id":"cebpf4jnsgd1na2vs0mg"},{"bike_id":"5de6f6e1-3eb6-4936-9461-f12693c42397","system_id":"levelo_inurba_marseille","lat":43.27377,"lon":5.3625,"is_reserved":false,"is_disabled":false,"rental_uris":{"android":"levelo://app?vid=5de6f6e1-3eb6-4936-9461-f12693c42397","ios":"levelo://app?vid=5de6f6e1-3eb6-4936-9461-f12693c42397"},"vehicle_type_id":"4","last_reported":1738674960,"current_range_meters":18000,"station_id":"ce4bhbh2rcd13ifvqeo0","pricing_plan_id":"cebpf4jnsgd1na2vs0mg"},{"bike_id":"30a877c0-3bac-4df1-a6c7-56ed3f59496a","system_id":"levelo_inurba_marseille","lat":43.30146,"lon":5.37418,"is_reserved":false,"is_disabled":false,"rental_uris":{"android":"levelo://app?vid=30a877c0-3bac-4df1-a6c7-56ed3f59496a","ios":"levelo://app?vid=30a877c0-3bac-4df1-a6c7-56ed3f59496a"},"vehicle_type_id":"4","last_reported":1738674960,"current_range_meters":24000,"station_id":"ce4bgs92rcd13ifvqcc0","pricing_plan_id":"cebpf4jnsgd1na2vs0mg"},{"bike_id":"53a9d8da-5f7e-48a8-b489-8866ab88b092","system_id":"levelo_inurba_marseille","lat":43.28254,"lon":5.35047,"is_reserved":false,"is_disabled":false,"rental_uris":{"android":"levelo://app?vid=53a9d8da-5f7e-48a8-b489-8866ab88b092","ios":"levelo://app?vid=53a9d8da-5f7e-48a8-b489-8866ab88b092"},"vehicle_type_id":"4","last_reported":1738674960,"current_range_meters":39200,"station_id":"ce4bhbp2rcd13ifvqerg","pricing_plan_id":"cebpf4jnsgd1na2vs0mg"},{"bike_id":"27a9b4df-b659-41ae-bc37-cfb29e251d05","system_id":"levelo_inurba_marseille","lat":43.30294,"lon":5.36898,"is_reserved":false,"is_disabled":true,"rental_uris":{"android":"levelo://app?vid=27a9b4df-b659-41ae-bc37-cfb29e251d05","ios":"levelo://app?vid=27a9b4df-b659-41ae-bc37-cfb29e251d05"},"vehicle_type_id":"4","last_reported":1738674960,"current_range_meters":400,"station_id":"ce4bgqh2rcd13ifvqc5g","pricing_plan_id":"cebpf4jnsgd1na2vs0mg"},{"bike_id":"c3d081d5-4d92-46ae-b635-182bf30c7a9e","system_id":"levelo_inurba_marseille","lat":43.305299,"lon":5.365537,"is_reserved":false,"is_disabled":false,"rental_uris":{"android":"levelo://app?vid=c3d081d5-4d92-46ae-b635-182bf30c7a9e","ios":"levelo://app?vid=c3d081d5-4d92-46ae-b635-182bf30c7a9e"},"vehicle_type_id":"4","last_reported":1738674960,"current_range_meters":27600,"station_id":"ce4bgs12rcd13ifvqcag","pricing_plan_id":"cebpf4jnsgd1na2vs0mg"},{"bike_id":"98f88f27-19f0-4446-846f-23a9e600101b","system_id":"levelo_inurba_marseille","lat":43.29974,"lon":5.38515,"is_reserved":false,"is_disabled":false,"rental_uris":{"android":"levelo://app?vid=98f88f27-19f0-4446-846f-23a9e600101b","ios":"levelo://app?vid=98f88f27-19f0-4446-846f-23a9e600101b"},"vehicle_type_id":"4","last_reported":1738674960,"current_range_meters":32800,"station_id":"ce4bgj92rcd13ifvqbd0","pricing_plan_id":"cebpf4jnsgd1na2vs0mg"},{"bike_id":"218cf88c-674f-46a7-9455-3b01fdb97c07","system_id":"levelo_inurba_marseille","lat":43.23152,"lon":5.43714,"is_reserved":false,"is_disabled":false,"rental_uris":{"android":"levelo://app?vid=218cf88c-674f-46a7-9455-3b01fdb97c07","ios":"levelo://app?vid=218cf88c-674f-46a7-9455-3b01fdb97c07"},"vehicle_type_id":"4","last_reported":1738674960,"current_range_meters":38800,"station_id":"ce4bhmp2rcd13ifvqgog","pricing_plan_id":"cebpf4jnsgd1na2vs0mg"},{"bike_id":"4adc5aab-b210-4641-aba5-160a4e23aeb0","system_id":"levelo_inurba_marseille","lat":43.29626,"lon":5.37159,"is_reserved":false,"is_disabled":false,"rental_uris":{"android":"levelo://app?vid=4adc5aab-b210-4641-aba5-160a4e23aeb0","ios":"levelo://app?vid=4adc5aab-b210-4641-aba5-160a4e23aeb0"},"vehicle_type_id":"4","last_reported":1738674960,"current_range_meters":37600,"station_id":"ce4bgnh2rcd13ifvqc0g","pricing_plan_id":"cebpf4jnsgd1na2vs0mg"},{"bike_id":"03e56226-a4a2-447a-b0ef-d77b2ac074e2","system_id":"levelo_inurba_marseille","lat":43.23998,"lon":5.37711,"is_reserved":false,"is_disabled":false,"rental_uris":{"android":"levelo://app?vid=03e56226-a4a2-447a-b0ef-d77b2ac074e2","ios":"levelo://app?vid=03e56226-a4a2-447a-b0ef-d77b2ac074e2"},"vehicle_type_id":"4","last_reported":1738674960,"current_range_meters":26800,"station_id":"","pricing_plan_id":"cebpf4jnsgd1na2vs0mg"},{"bike_id":"82c020e6-48a2-44a9-b214-f74833af6b0a","system_id":"levelo_inurba_marseille","lat":43.2693,"lon":5.38912,"is_reserved":false,"is_disabled":false,"rental_uris":{"android":"levelo://app?vid=82c020e6-48a2-44a9-b214-f74833af6b0a","ios":"levelo://app?vid=82c020e6-48a2-44a9-b214-f74833af6b0a"},"vehicle_type_id":"4","last_reported":1738674960,"current_range_meters":24800,"station_id":"ce4bhhh2rcd13ifvqfl0","pricing_plan_id":"cebpf4jnsgd1na2vs0mg"},{"bike_id":"7863b9f3-4b57-455e-8624-a6a075799264","system_id":"levelo_inurba_marseille","lat":43.26682,"lon":5.38275,"is_reserved":false,"is_disabled":false,"rental_uris":{"android":"levelo://app?vid=7863b9f3-4b57-455e-8624-a6a075799264","ios":"levelo://app?vid=7863b9f3-4b57-455e-8624-a6a075799264"},"vehicle_type_id":"4","last_reported":1738674960,"current_range_meters":28400,"station_id":"ce4bhg92rcd13ifvqf90","pricing_plan_id":"cebpf4jnsgd1na2vs0mg"},{"bike_id":"ff547c82-a2e1-41e4-beb1-ba086d55dfbf","system_id":"levelo_inurba_marseille","lat":43.23199,"lon":5.39973,"is_reserved":false,"is_disabled":false,"rental_uris":{"android":"levelo://app?vid=ff547c82-a2e1-41e4-beb1-ba086d55dfbf","ios":"levelo://app?vid=ff547c82-a2e1-41e4-beb1-ba086d55dfbf"},"vehicle_type_id":"4","last_reported":1738674960,"current_range_meters":16000,"station_id":"ce4bhn12rcd13ifvqgqg","pricing_plan_id":"cebpf4jnsgd1na2vs0mg"},{"bike_id":"ab0b6329-8448-4e17-8b0d-f17e0a460b82","system_id":"levelo_inurba_marseille","lat":43.29305,"lon":5.36857,"is_reserved":false,"is_disabled":false,"rental_uris":{"android":"levelo://app?vid=ab0b6329-8448-4e17-8b0d-f17e0a460b82","ios":"levelo://app?vid=ab0b6329-8448-4e17-8b0d-f17e0a460b82"},"vehicle_type_id":"4","last_reported":1738674960,"current_range_meters":36800,"station_id":"ce4bhbp2rcd13ifvqesg","pricing_plan_id":"cebpf4jnsgd1na2vs0mg"},{"bike_id":"c835a4f7-cc05-45bd-a5f6-1bed625cc89d","system_id":"levelo_inurba_marseille","lat":43.24081,"lon":5.37753,"is_reserved":false,"is_disabled":false,"rental_uris":{"android":"levelo://app?vid=c835a4f7-cc05-45bd-a5f6-1bed625cc89d","ios":"levelo://app?vid=c835a4f7-cc05-45bd-a5f6-1bed625cc89d"},"vehicle_type_id":"4","last_reported":1738674960,"current_range_meters":38800,"station_id":"ce4bhnp2rcd13ifvqgvg","pricing_plan_id":"cebpf4jnsgd1na2vs0mg"},{"bike_id":"dafd10ed-96a4-4fae-a2bc-6ff46c93b8d6","system_id":"levelo_inurba_marseille","lat":43.26225,"lon":5.37449,"is_reserved":false,"is_disabled":false,"rental_uris":{"android":"levelo://app?vid=dafd10ed-96a4-4fae-a2bc-6ff46c93b8d6","ios":"levelo://app?vid=dafd10ed-96a4-4fae-a2bc-6ff46c93b8d6"},"vehicle_type_id":"4","last_reported":1738674960,"current_range_meters":3200,"station_id":"ce4bhgp2rcd13ifvqfc0","pricing_plan_id":"cebpf4jnsgd1na2vs0mg"},{"bike_id":"585548c3-dfea-4775-b261-9cda396a75ed","system_id":"levelo_inurba_marseille","lat":43.30931,"lon":5.40146,"is_reserved":false,"is_disabled":true,"rental_uris":{"android":"levelo://app?vid=585548c3-dfea-4775-b261-9cda396a75ed","ios":"levelo://app?vid=585548c3-dfea-4775-b261-9cda396a75ed"},"vehicle_type_id":"4","last_reported":1738674960,"current_range_meters":38800,"station_id":"ce4bgvp2rcd13ifvqct0","pricing_plan_id":"cebpf4jnsgd1na2vs0mg"},{"bike_id":"c5bc887f-937a-4827-8fcd-0e5d0dcc3dcb","system_id":"levelo_inurba_marseille","lat":43.30606,"lon":5.36538,"is_reserved":false,"is_disabled":false,"rental_uris":{"android":"levelo://app?vid=c5bc887f-937a-4827-8fcd-0e5d0dcc3dcb","ios":"levelo://app?vid=c5bc887f-937a-4827-8fcd-0e5d0dcc3dcb"},"vehicle_type_id":"4","last_reported":1738674960,"current_range_meters":34000,"station_id":"ce4bgs12rcd13ifvqcag","pricing_plan_id":"cebpf4jnsgd1na2vs0mg"},{"bike_id":"b011ebf9-c847-456d-877a-df15c2d17a06","system_id":"levelo_inurba_marseille","lat":43.28074,"lon":5.3966,"is_reserved":false,"is_disabled":false,"rental_uris":{"android":"levelo://app?vid=b011ebf9-c847-456d-877a-df15c2d17a06","ios":"levelo://app?vid=b011ebf9-c847-456d-877a-df15c2d17a06"},"vehicle_type_id":"4","last_reported":1738674960,"current_range_meters":38800,"station_id":"ce4bho12rcd13ifvqh2g","pricing_plan_id":"cebpf4jnsgd1na2vs0mg"},{"bike_id":"832999f0-c04f-44d1-bc21-6c254510930a","system_id":"levelo_inurba_marseille","lat":43.24636,"lon":5.38902,"is_reserved":false,"is_disabled":false,"rental_uris":{"android":"levelo://app?vid=832999f0-c04f-44d1-bc21-6c254510930a","ios":"levelo://app?vid=832999f0-c04f-44d1-bc21-6c254510930a"},"vehicle_type_id":"4","last_reported":1738674960,"current_range_meters":36400,"station_id":"ce4bhg12rcd13ifvqf60","pricing_plan_id":"cebpf4jnsgd1na2vs0mg"},{"bike_id":"820e8ef9-125b-498e-aafa-fafccb5e57f1","system_id":"levelo_inurba_marseille","lat":43.30585,"lon":5.36703,"is_reserved":false,"is_disabled":false,"rental_uris":{"android":"levelo://app?vid=820e8ef9-125b-498e-aafa-fafccb5e57f1","ios":"levelo://app?vid=820e8ef9-125b-498e-aafa-fafccb5e57f1"},"vehicle_type_id":"4","last_reported":1738674960,"current_range_meters":24000,"station_id":"ce4bgrp2rcd13ifvqc9g","pricing_plan_id":"cebpf4jnsgd1na2vs0mg"},{"bike_id":"56e2cdf5-61da-4932-90f0-fa7b3d2be962","system_id":"levelo_inurba_marseille","lat":43.27429,"lon":5.39416,"is_reserved":false,"is_disabled":false,"rental_uris":{"android":"levelo://app?vid=56e2cdf5-61da-4932-90f0-fa7b3d2be962","ios":"levelo://app?vid=56e2cdf5-61da-4932-90f0-fa7b3d2be962"},"vehicle_type_id":"4","last_reported":1738674960,"current_range_meters":24000,"station_id":"ce4bhdp2rcd13ifvqf20","pricing_plan_id":"cebpf4jnsgd1na2vs0mg"},{"bike_id":"75069a50-5192-4281-b196-e250931917ed","system_id":"levelo_inurba_marseille","lat":43.28488,"lon":5.38554,"is_reserved":false,"is_disabled":false,"rental_uris":{"android":"levelo://app?vid=75069a50-5192-4281-b196-e250931917ed","ios":"levelo://app?vid=75069a50-5192-4281-b196-e250931917ed"},"vehicle_type_id":"4","last_reported":1738674960,"current_range_meters":38800,"station_id":"ce4bh8p2rcd13ifvqeb0","pricing_plan_id":"cebpf4jnsgd1na2vs0mg"},{"bike_id":"c92d27b3-011a-4b9b-85d3-c7a68cdf0054","system_id":"levelo_inurba_marseille","lat":43.324777,"lon":5.365669,"is_reserved":false,"is_disabled":true,"rental_uris":{"android":"levelo://app?vid=c92d27b3-011a-4b9b-85d3-c7a68cdf0054","ios":"levelo://app?vid=c92d27b3-011a-4b9b-85d3-c7a68cdf0054"},"vehicle_type_id":"4","last_reported":1738674960,"current_range_meters":16800,"station_id":"","pricing_plan_id":"cebpf4jnsgd1na2vs0mg"},{"bike_id":"3e574816-3754-460d-8072-f6ebe3757ea0","system_id":"levelo_inurba_marseille","lat":43.32369,"lon":5.36765,"is_reserved":false,"is_disabled":false,"rental_uris":{"android":"levelo://app?vid=3e574816-3754-460d-8072-f6ebe3757ea0","ios":"levelo://app?vid=3e574816-3754-460d-8072-f6ebe3757ea0"},"vehicle_type_id":"4","last_reported":1738674960,"current_range_meters":18000,"station_id":"ce4bhsh2rcd13ifvqi2g","pricing_plan_id":"cebpf4jnsgd1na2vs0mg"},{"bike_id":"46f85741-547f-4c61-ad56-e23bee10013f","system_id":"levelo_inurba_marseille","lat":43.28488,"lon":5.38562,"is_reserved":false,"is_disabled":false,"rental_uris":{"android":"levelo://app?vid=46f85741-547f-4c61-ad56-e23bee10013f","ios":"levelo://app?vid=46f85741-547f-4c61-ad56-e23bee10013f"},"vehicle_type_id":"4","last_reported":1738674960,"current_range_meters":28000,"station_id":"ce4bh8p2rcd13ifvqeb0","pricing_plan_id":"cebpf4jnsgd1na2vs0mg"},{"bike_id":"a1a7079b-68b5-45ca-9af8-b6bc9f7cd559","system_id":"levelo_inurba_marseille","lat":43.22937,"lon":5.35375,"is_reserved":false,"is_disabled":false,"rental_uris":{"android":"levelo://app?vid=a1a7079b-68b5-45ca-9af8-b6bc9f7cd559","ios":"levelo://app?vid=a1a7079b-68b5-45ca-9af8-b6bc9f7cd559"},"vehicle_type_id":"4","last_reported":1738674960,"current_range_meters":39200,"station_id":"cpo3532slgdg3j2ikp40","pricing_plan_id":"cebpf4jnsgd1na2vs0mg"},{"bike_id":"391156ab-23e6-4087-9fff-4d00554806c8","system_id":"levelo_inurba_marseille","lat":43.27529,"lon":5.38403,"is_reserved":false,"is_disabled":false,"rental_uris":{"android":"levelo://app?vid=391156ab-23e6-4087-9fff-4d00554806c8","ios":"levelo://app?vid=391156ab-23e6-4087-9fff-4d00554806c8"},"vehicle_type_id":"4","last_reported":1738674960,"current_range_meters":33200,"station_id":"ce4bhh92rcd13ifvqfi0","pricing_plan_id":"cebpf4jnsgd1na2vs0mg"},{"bike_id":"c5d244f0-0f80-49dd-80ea-357f59117f57","system_id":"levelo_inurba_marseille","lat":43.30455,"lon":5.36905,"is_reserved":false,"is_disabled":false,"rental_uris":{"android":"levelo://app?vid=c5d244f0-0f80-49dd-80ea-357f59117f57","ios":"levelo://app?vid=c5d244f0-0f80-49dd-80ea-357f59117f57"},"vehicle_type_id":"4","last_reported":1738674960,"current_range_meters":23200,"station_id":"","pricing_plan_id":"cebpf4jnsgd1na2vs0mg"},{"bike_id":"cc6882dc-c292-40fb-8164-0c7aad10a6e6","system_id":"levelo_inurba_marseille","lat":43.31325,"lon":5.3671,"is_reserved":false,"is_disabled":false,"rental_uris":{"android":"levelo://app?vid=cc6882dc-c292-40fb-8164-0c7aad10a6e6","ios":"levelo://app?vid=cc6882dc-c292-40fb-8164-0c7aad10a6e6"},"vehicle_type_id":"4","last_reported":1738674960,"current_range_meters":38800,"station_id":"ce4bgr92rcd13ifvqc6g","pricing_plan_id":"cebpf4jnsgd1na2vs0mg"},{"bike_id":"7a2d1c7c-697f-41e7-9a56-3b4fb1b139f2","system_id":"levelo_inurba_marseille","lat":43.23158,"lon":5.43714,"is_reserved":false,"is_disabled":false,"rental_uris":{"android":"levelo://app?vid=7a2d1c7c-697f-41e7-9a56-3b4fb1b139f2","ios":"levelo://app?vid=7a2d1c7c-697f-41e7-9a56-3b4fb1b139f2"},"vehicle_type_id":"4","last_reported":1738674960,"current_range_meters":38800,"station_id":"ce4bhmp2rcd13ifvqgog","pricing_plan_id":"cebpf4jnsgd1na2vs0mg"},{"bike_id":"dbf7072a-7876-4e1d-a586-d51c7ff2c81e","system_id":"levelo_inurba_marseille","lat":43.31325,"lon":5.3969,"is_reserved":false,"is_disabled":false,"rental_uris":{"android":"levelo://app?vid=dbf7072a-7876-4e1d-a586-d51c7ff2c81e","ios":"levelo://app?vid=dbf7072a-7876-4e1d-a586-d51c7ff2c81e"},"vehicle_type_id":"4","last_reported":1738674960,"current_range_meters":29600,"station_id":"ce4bgvp2rcd13ifvqcu0","pricing_plan_id":"cebpf4jnsgd1na2vs0mg"},{"bike_id":"fff747a3-bd82-458d-baaa-d1987fbbf2c0","system_id":"levelo_inurba_marseille","lat":43.24552,"lon":5.39536,"is_reserved":false,"is_disabled":true,"rental_uris":{"android":"levelo://app?vid=fff747a3-bd82-458d-baaa-d1987fbbf2c0","ios":"levelo://app?vid=fff747a3-bd82-458d-baaa-d1987fbbf2c0"},"vehicle_type_id":"4","last_reported":1738674960,"current_range_meters":2000,"station_id":"ce4bhlp2rcd13ifvqgjg","pricing_plan_id":"cebpf4jnsgd1na2vs0mg"},{"bike_id":"38d9c123-c80e-4d99-abd9-1554da4e609f","system_id":"levelo_inurba_marseille","lat":43.25068,"lon":5.38933,"is_reserved":false,"is_disabled":false,"rental_uris":{"android":"levelo://app?vid=38d9c123-c80e-4d99-abd9-1554da4e609f","ios":"levelo://app?vid=38d9c123-c80e-4d99-abd9-1554da4e609f"},"vehicle_type_id":"4","last_reported":1738674960,"current_range_meters":27200,"station_id":"","pricing_plan_id":"cebpf4jnsgd1na2vs0mg"},{"bike_id":"2864b757-e8cb-4cea-aa37-53c50aa4d82e","system_id":"levelo_inurba_marseille","lat":43.28353,"lon":5.38107,"is_reserved":false,"is_disabled":false,"rental_uris":{"android":"levelo://app?vid=2864b757-e8cb-4cea-aa37-53c50aa4d82e","ios":"levelo://app?vid=2864b757-e8cb-4cea-aa37-53c50aa4d82e"},"vehicle_type_id":"4","last_reported":1738674960,"current_range_meters":9600,"station_id":"ce4bh412rcd13ifvqdr0","pricing_plan_id":"cebpf4jnsgd1na2vs0mg"},{"bike_id":"b2a6436f-4c95-46dd-a3bd-6af91e9591d2","system_id":"levelo_inurba_marseille","lat":43.25587,"lon":5.3825,"is_reserved":false,"is_disabled":false,"rental_uris":{"android":"levelo://app?vid=b2a6436f-4c95-46dd-a3bd-6af91e9591d2","ios":"levelo://app?vid=b2a6436f-4c95-46dd-a3bd-6af91e9591d2"},"vehicle_type_id":"4","last_reported":1738674960,"current_range_meters":19200,"station_id":"ce4bhih2rcd13ifvqfs0","pricing_plan_id":"cebpf4jnsgd1na2vs0mg"},{"bike_id":"bae04b91-7c9b-40e4-9325-58877cce4c07","system_id":"levelo_inurba_marseille","lat":43.305365,"lon":5.36534,"is_reserved":false,"is_disabled":false,"rental_uris":{"android":"levelo://app?vid=bae04b91-7c9b-40e4-9325-58877cce4c07","ios":"levelo://app?vid=bae04b91-7c9b-40e4-9325-58877cce4c07"},"vehicle_type_id":"4","last_reported":1738674960,"current_range_meters":11600,"station_id":"ce4bgs12rcd13ifvqcag","pricing_plan_id":"cebpf4jnsgd1na2vs0mg"},{"bike_id":"057e49ee-69e0-4f6a-80ea-f36deea13337","system_id":"levelo_inurba_marseille","lat":43.26204,"lon":5.37927,"is_reserved":false,"is_disabled":false,"rental_uris":{"android":"levelo://app?vid=057e49ee-69e0-4f6a-80ea-f36deea13337","ios":"levelo://app?vid=057e49ee-69e0-4f6a-80ea-f36deea13337"},"vehicle_type_id":"4","last_reported":1738674960,"current_range_meters":16000,"station_id":"ce4bhjp2rcd13ifvqg90","pricing_plan_id":"cebpf4jnsgd1na2vs0mg"},{"bike_id":"36aab991-c8ad-4b9b-9159-cf5af6e561ef","system_id":"levelo_inurba_marseille","lat":43.32543,"lon":5.41442,"is_reserved":false,"is_disabled":false,"rental_uris":{"android":"levelo://app?vid=36aab991-c8ad-4b9b-9159-cf5af6e561ef","ios":"levelo://app?vid=36aab991-c8ad-4b9b-9159-cf5af6e561ef"},"vehicle_type_id":"4","last_reported":1738674960,"current_range_meters":36800,"station_id":"ce4bhq12rcd13ifvqhhg","pricing_plan_id":"cebpf4jnsgd1na2vs0mg"},{"bike_id":"f49399e3-6204-4840-b71d-d4fdec09f64b","system_id":"levelo_inurba_marseille","lat":43.25936,"lon":5.40858,"is_reserved":false,"is_disabled":false,"rental_uris":{"android":"levelo://app?vid=f49399e3-6204-4840-b71d-d4fdec09f64b","ios":"levelo://app?vid=f49399e3-6204-4840-b71d-d4fdec09f64b"},"vehicle_type_id":"4","last_reported":1738674960,"current_range_meters":28400,"station_id":"ce4bhm92rcd13ifvqglg","pricing_plan_id":"cebpf4jnsgd1na2vs0mg"},{"bike_id":"3c8e5445-cf86-469e-9c11-4a5caaef9b7e","system_id":"levelo_inurba_marseille","lat":43.2467,"lon":5.38904,"is_reserved":false,"is_disabled":false,"rental_uris":{"android":"levelo://app?vid=3c8e5445-cf86-469e-9c11-4a5caaef9b7e","ios":"levelo://app?vid=3c8e5445-cf86-469e-9c11-4a5caaef9b7e"},"vehicle_type_id":"4","last_reported":1738674960,"current_range_meters":38400,"station_id":"ce4bhg12rcd13ifvqf60","pricing_plan_id":"cebpf4jnsgd1na2vs0mg"},{"bike_id":"86dbfce9-da2e-4102-b41d-b78c10cbdd73","system_id":"levelo_inurba_marseille","lat":43.28505,"lon":5.38547,"is_reserved":false,"is_disabled":false,"rental_uris":{"android":"levelo://app?vid=86dbfce9-da2e-4102-b41d-b78c10cbdd73","ios":"levelo://app?vid=86dbfce9-da2e-4102-b41d-b78c10cbdd73"},"vehicle_type_id":"4","last_reported":1738674960,"current_range_meters":38800,"station_id":"ce4bh8p2rcd13ifvqeb0","pricing_plan_id":"cebpf4jnsgd1na2vs0mg"},{"bike_id":"108425ae-26f3-4c4a-af36-86dce62b57e7","system_id":"levelo_inurba_marseille","lat":43.30967,"lon":5.39076,"is_reserved":false,"is_disabled":false,"rental_uris":{"android":"levelo://app?vid=108425ae-26f3-4c4a-af36-86dce62b57e7","ios":"levelo://app?vid=108425ae-26f3-4c4a-af36-86dce62b57e7"},"vehicle_type_id":"4","last_reported":1738674960,"current_range_meters":32400,"station_id":"ce4bgup2rcd13ifvqco0","pricing_plan_id":"cebpf4jnsgd1na2vs0mg"},{"bike_id":"30d68ac6-7ba6-4749-8154-bf914e372a6a","system_id":"levelo_inurba_marseille","lat":43.32369,"lon":5.38887,"is_reserved":false,"is_disabled":false,"rental_uris":{"android":"levelo://app?vid=30d68ac6-7ba6-4749-8154-bf914e372a6a","ios":"levelo://app?vid=30d68ac6-7ba6-4749-8154-bf914e372a6a"},"vehicle_type_id":"4","last_reported":1738674960,"current_range_meters":37600,"station_id":"ce4bhqp2rcd13ifvqhog","pricing_plan_id":"cebpf4jnsgd1na2vs0mg"},{"bike_id":"70db77fa-5101-4cc3-b5ef-7ecd27e20697","system_id":"levelo_inurba_marseille","lat":43.230521,"lon":5.354939,"is_reserved":false,"is_disabled":false,"rental_uris":{"android":"levelo://app?vid=70db77fa-5101-4cc3-b5ef-7ecd27e20697","ios":"levelo://app?vid=70db77fa-5101-4cc3-b5ef-7ecd27e20697"},"vehicle_type_id":"4","last_reported":1738674960,"current_range_meters":24400,"station_id":"cpo3342slgdg3j2ifvpg","pricing_plan_id":"cebpf4jnsgd1na2vs0mg"},{"bike_id":"47835302-4051-4ddc-bf72-ddbdf3a013d2","system_id":"levelo_inurba_marseille","lat":43.29709,"lon":5.36593,"is_reserved":false,"is_disabled":false,"rental_uris":{"android":"levelo://app?vid=47835302-4051-4ddc-bf72-ddbdf3a013d2","ios":"levelo://app?vid=47835302-4051-4ddc-bf72-ddbdf3a013d2"},"vehicle_type_id":"4","last_reported":1738674960,"current_range_meters":17200,"station_id":"ce4bgn12rcd13ifvqbt0","pricing_plan_id":"cebpf4jnsgd1na2vs0mg"},{"bike_id":"e33c097b-83d0-40ec-9fbf-364e5b0a9ef8","system_id":"levelo_inurba_marseille","lat":43.231932,"lon":5.355513,"is_reserved":false,"is_disabled":false,"rental_uris":{"android":"levelo://app?vid=e33c097b-83d0-40ec-9fbf-364e5b0a9ef8","ios":"levelo://app?vid=e33c097b-83d0-40ec-9fbf-364e5b0a9ef8"},"vehicle_type_id":"4","last_reported":1738674960,"current_range_meters":38800,"station_id":"ce4bhu92rcd13ifvqi70","pricing_plan_id":"cebpf4jnsgd1na2vs0mg"},{"bike_id":"80061fe9-c71d-4313-9d2c-36d6b62edcb3","system_id":"levelo_inurba_marseille","lat":43.2907,"lon":5.39977,"is_reserved":false,"is_disabled":true,"rental_uris":{"android":"levelo://app?vid=80061fe9-c71d-4313-9d2c-36d6b62edcb3","ios":"levelo://app?vid=80061fe9-c71d-4313-9d2c-36d6b62edcb3"},"vehicle_type_id":"4","last_reported":1738674960,"current_range_meters":22000,"station_id":"ce4bh392rcd13ifvqdm0","pricing_plan_id":"cebpf4jnsgd1na2vs0mg"},{"bike_id":"206da775-068b-44b2-9a02-54f9619e5b13","system_id":"levelo_inurba_marseille","lat":43.31318,"lon":5.40185,"is_reserved":false,"is_disabled":false,"rental_uris":{"android":"levelo://app?vid=206da775-068b-44b2-9a02-54f9619e5b13","ios":"levelo://app?vid=206da775-068b-44b2-9a02-54f9619e5b13"},"vehicle_type_id":"4","last_reported":1738674960,"current_range_meters":35600,"station_id":"ce4bh092rcd13ifvqd30","pricing_plan_id":"cebpf4jnsgd1na2vs0mg"},{"bike_id":"e54520c5-718e-4e37-ae87-8d31457c1f83","system_id":"levelo_inurba_marseille","lat":43.29927,"lon":5.36539,"is_reserved":false,"is_disabled":false,"rental_uris":{"android":"levelo://app?vid=e54520c5-718e-4e37-ae87-8d31457c1f83","ios":"levelo://app?vid=e54520c5-718e-4e37-ae87-8d31457c1f83"},"vehicle_type_id":"4","last_reported":1738674960,"current_range_meters":25600,"station_id":"ce4bgm92rcd13ifvqbr0","pricing_plan_id":"cebpf4jnsgd1na2vs0mg"},{"bike_id":"0e775c38-7145-4e54-8c6f-1ded1dd2ad0f","system_id":"levelo_inurba_marseille","lat":43.24568,"lon":5.39534,"is_reserved":false,"is_disabled":false,"rental_uris":{"android":"levelo://app?vid=0e775c38-7145-4e54-8c6f-1ded1dd2ad0f","ios":"levelo://app?vid=0e775c38-7145-4e54-8c6f-1ded1dd2ad0f"},"vehicle_type_id":"4","last_reported":1738674960,"current_range_meters":39200,"station_id":"ce4bhlp2rcd13ifvqgjg","pricing_plan_id":"cebpf4jnsgd1na2vs0mg"},{"bike_id":"087030d9-e5e2-496a-a083-b7c401a9076d","system_id":"levelo_inurba_marseille","lat":43.26215,"lon":5.37447,"is_reserved":false,"is_disabled":false,"rental_uris":{"android":"levelo://app?vid=087030d9-e5e2-496a-a083-b7c401a9076d","ios":"levelo://app?vid=087030d9-e5e2-496a-a083-b7c401a9076d"},"vehicle_type_id":"4","last_reported":1738674960,"current_range_meters":38800,"station_id":"ce4bhgp2rcd13ifvqfc0","pricing_plan_id":"cebpf4jnsgd1na2vs0mg"},{"bike_id":"89e0fb27-5f26-4cfe-9f61-e8651117733f","system_id":"levelo_inurba_marseille","lat":43.22926,"lon":5.35381,"is_reserved":false,"is_disabled":false,"rental_uris":{"android":"levelo://app?vid=89e0fb27-5f26-4cfe-9f61-e8651117733f","ios":"levelo://app?vid=89e0fb27-5f26-4cfe-9f61-e8651117733f"},"vehicle_type_id":"4","last_reported":1738674960,"current_range_meters":37600,"station_id":"cpo3532slgdg3j2ikp40","pricing_plan_id":"cebpf4jnsgd1na2vs0mg"},{"bike_id":"23c2312a-5007-4c8a-a123-f9a5a9881062","system_id":"levelo_inurba_marseille","lat":43.3015,"lon":5.37421,"is_reserved":false,"is_disabled":false,"rental_uris":{"android":"levelo://app?vid=23c2312a-5007-4c8a-a123-f9a5a9881062","ios":"levelo://app?vid=23c2312a-5007-4c8a-a123-f9a5a9881062"},"vehicle_type_id":"4","last_reported":1738674960,"current_range_meters":30800,"station_id":"ce4bgs92rcd13ifvqcc0","pricing_plan_id":"cebpf4jnsgd1na2vs0mg"},{"bike_id":"5d6a1f65-65cf-4daf-b43d-94278437f155","system_id":"levelo_inurba_marseille","lat":43.29265,"lon":5.38442,"is_reserved":false,"is_disabled":false,"rental_uris":{"android":"levelo://app?vid=5d6a1f65-65cf-4daf-b43d-94278437f155","ios":"levelo://app?vid=5d6a1f65-65cf-4daf-b43d-94278437f155"},"vehicle_type_id":"4","last_reported":1738674960,"current_range_meters":25600,"station_id":"ce4bh692rcd13ifvqea0","pricing_plan_id":"cebpf4jnsgd1na2vs0mg"},{"bike_id":"20ada9ef-6aae-4663-bb06-99d5bdc4e9d6","system_id":"levelo_inurba_marseille","lat":43.30209,"lon":5.39457,"is_reserved":false,"is_disabled":false,"rental_uris":{"android":"levelo://app?vid=20ada9ef-6aae-4663-bb06-99d5bdc4e9d6","ios":"levelo://app?vid=20ada9ef-6aae-4663-bb06-99d5bdc4e9d6"},"vehicle_type_id":"4","last_reported":1738674960,"current_range_meters":38400,"station_id":"ce4bh0p2rcd13ifvqd70","pricing_plan_id":"cebpf4jnsgd1na2vs0mg"},{"bike_id":"73ce5867-64af-413e-8de7-68ce3423aed3","system_id":"levelo_inurba_marseille","lat":43.24073,"lon":5.37747,"is_reserved":false,"is_disabled":false,"rental_uris":{"android":"levelo://app?vid=73ce5867-64af-413e-8de7-68ce3423aed3","ios":"levelo://app?vid=73ce5867-64af-413e-8de7-68ce3423aed3"},"vehicle_type_id":"4","last_reported":1738674960,"current_range_meters":24800,"station_id":"ce4bhnp2rcd13ifvqgvg","pricing_plan_id":"cebpf4jnsgd1na2vs0mg"},{"bike_id":"40b564fd-d6af-48bb-8bad-945e9f4b2e6c","system_id":"levelo_inurba_marseille","lat":43.23148,"lon":5.43714,"is_reserved":false,"is_disabled":false,"rental_uris":{"android":"levelo://app?vid=40b564fd-d6af-48bb-8bad-945e9f4b2e6c","ios":"levelo://app?vid=40b564fd-d6af-48bb-8bad-945e9f4b2e6c"},"vehicle_type_id":"4","last_reported":1738674960,"current_range_meters":16400,"station_id":"ce4bhmp2rcd13ifvqgog","pricing_plan_id":"cebpf4jnsgd1na2vs0mg"},{"bike_id":"e3db5298-076a-4c0a-9594-b357ccc8871b","system_id":"levelo_inurba_marseille","lat":43.27973,"lon":5.38749,"is_reserved":false,"is_disabled":false,"rental_uris":{"android":"levelo://app?vid=e3db5298-076a-4c0a-9594-b357ccc8871b","ios":"levelo://app?vid=e3db5298-076a-4c0a-9594-b357ccc8871b"},"vehicle_type_id":"4","last_reported":1738674960,"current_range_meters":20000,"station_id":"ce4bhg12rcd13ifvqf80","pricing_plan_id":"cebpf4jnsgd1na2vs0mg"},{"bike_id":"20bed491-cc82-4c28-9828-d43fe6cb2a93","system_id":"levelo_inurba_marseille","lat":43.31235,"lon":5.3686,"is_reserved":false,"is_disabled":false,"rental_uris":{"android":"levelo://app?vid=20bed491-cc82-4c28-9828-d43fe6cb2a93","ios":"levelo://app?vid=20bed491-cc82-4c28-9828-d43fe6cb2a93"},"vehicle_type_id":"4","last_reported":1738674960,"current_range_meters":16400,"station_id":"ce4bgl92rcd13ifvqbq0","pricing_plan_id":"cebpf4jnsgd1na2vs0mg"},{"bike_id":"b7843de3-92c9-4d9b-9591-40748364ee45","system_id":"levelo_inurba_marseille","lat":43.29843,"lon":5.36268,"is_reserved":false,"is_disabled":false,"rental_uris":{"android":"levelo://app?vid=b7843de3-92c9-4d9b-9591-40748364ee45","ios":"levelo://app?vid=b7843de3-92c9-4d9b-9591-40748364ee45"},"vehicle_type_id":"4","last_reported":1738674960,"current_range_meters":8400,"station_id":"ce4bgpp2rcd13ifvqc3g","pricing_plan_id":"cebpf4jnsgd1na2vs0mg"},{"bike_id":"9a246337-8b93-40ac-8041-a37c41945aaf","system_id":"levelo_inurba_marseille","lat":43.26952,"lon":5.40235,"is_reserved":false,"is_disabled":false,"rental_uris":{"android":"levelo://app?vid=9a246337-8b93-40ac-8041-a37c41945aaf","ios":"levelo://app?vid=9a246337-8b93-40ac-8041-a37c41945aaf"},"vehicle_type_id":"4","last_reported":1738674960,"current_range_meters":19600,"station_id":"cjm6bp8fraef2m0cb0m0","pricing_plan_id":"cebpf4jnsgd1na2vs0mg"},{"bike_id":"7c8b5db2-a7e4-491a-b7d5-94dc69c11823","system_id":"levelo_inurba_marseille","lat":43.32333,"lon":5.38321,"is_reserved":false,"is_disabled":false,"rental_uris":{"android":"levelo://app?vid=7c8b5db2-a7e4-491a-b7d5-94dc69c11823","ios":"levelo://app?vid=7c8b5db2-a7e4-491a-b7d5-94dc69c11823"},"vehicle_type_id":"4","last_reported":1738674960,"current_range_meters":24800,"station_id":"","pricing_plan_id":"cebpf4jnsgd1na2vs0mg"},{"bike_id":"278902b4-7b50-4f46-8ac1-6d0f29cc8638","system_id":"levelo_inurba_marseille","lat":43.24403,"lon":5.37054,"is_reserved":false,"is_disabled":false,"rental_uris":{"android":"levelo://app?vid=278902b4-7b50-4f46-8ac1-6d0f29cc8638","ios":"levelo://app?vid=278902b4-7b50-4f46-8ac1-6d0f29cc8638"},"vehicle_type_id":"4","last_reported":1738674960,"current_range_meters":38000,"station_id":"ce4bhhh2rcd13ifvqfk0","pricing_plan_id":"cebpf4jnsgd1na2vs0mg"},{"bike_id":"892d3765-5c4a-4b7c-80bb-37a8d91fb9fc","system_id":"levelo_inurba_marseille","lat":43.27319,"lon":5.39088,"is_reserved":false,"is_disabled":false,"rental_uris":{"android":"levelo://app?vid=892d3765-5c4a-4b7c-80bb-37a8d91fb9fc","ios":"levelo://app?vid=892d3765-5c4a-4b7c-80bb-37a8d91fb9fc"},"vehicle_type_id":"4","last_reported":1738674960,"current_range_meters":8800,"station_id":"ce4bhgp2rcd13ifvqfe0","pricing_plan_id":"cebpf4jnsgd1na2vs0mg"},{"bike_id":"f3557d42-3ec3-497b-b8ed-c642ec0dc6aa","system_id":"levelo_inurba_marseille","lat":43.26194,"lon":5.37449,"is_reserved":false,"is_disabled":false,"rental_uris":{"android":"levelo://app?vid=f3557d42-3ec3-497b-b8ed-c642ec0dc6aa","ios":"levelo://app?vid=f3557d42-3ec3-497b-b8ed-c642ec0dc6aa"},"vehicle_type_id":"4","last_reported":1738674960,"current_range_meters":19200,"station_id":"ce4bhgp2rcd13ifvqfc0","pricing_plan_id":"cebpf4jnsgd1na2vs0mg"},{"bike_id":"cf3f02fd-1afd-4c83-a86f-904227ce876c","system_id":"levelo_inurba_marseille","lat":43.32548,"lon":5.4145,"is_reserved":false,"is_disabled":false,"rental_uris":{"android":"levelo://app?vid=cf3f02fd-1afd-4c83-a86f-904227ce876c","ios":"levelo://app?vid=cf3f02fd-1afd-4c83-a86f-904227ce876c"},"vehicle_type_id":"4","last_reported":1738674960,"current_range_meters":30800,"station_id":"ce4bhq12rcd13ifvqhhg","pricing_plan_id":"cebpf4jnsgd1na2vs0mg"},{"bike_id":"3ab0ceb6-cd89-477f-8038-1be761eb4bda","system_id":"levelo_inurba_marseille","lat":43.29211,"lon":5.36039,"is_reserved":false,"is_disabled":false,"rental_uris":{"android":"levelo://app?vid=3ab0ceb6-cd89-477f-8038-1be761eb4bda","ios":"levelo://app?vid=3ab0ceb6-cd89-477f-8038-1be761eb4bda"},"vehicle_type_id":"4","last_reported":1738674960,"current_range_meters":12800,"station_id":"ce4bhbh2rcd13ifvqeqg","pricing_plan_id":"cebpf4jnsgd1na2vs0mg"},{"bike_id":"f876c5f4-d351-4f17-9695-ad6fce8ba38c","system_id":"levelo_inurba_marseille","lat":43.24058,"lon":5.37667,"is_reserved":false,"is_disabled":false,"rental_uris":{"android":"levelo://app?vid=f876c5f4-d351-4f17-9695-ad6fce8ba38c","ios":"levelo://app?vid=f876c5f4-d351-4f17-9695-ad6fce8ba38c"},"vehicle_type_id":"4","last_reported":1738674960,"current_range_meters":25200,"station_id":"","pricing_plan_id":"cebpf4jnsgd1na2vs0mg"},{"bike_id":"e40f9edb-09d6-4f03-aa3e-db6a097a5060","system_id":"levelo_inurba_marseille","lat":43.23063,"lon":5.35489,"is_reserved":false,"is_disabled":false,"rental_uris":{"android":"levelo://app?vid=e40f9edb-09d6-4f03-aa3e-db6a097a5060","ios":"levelo://app?vid=e40f9edb-09d6-4f03-aa3e-db6a097a5060"},"vehicle_type_id":"4","last_reported":1738674960,"current_range_meters":26000,"station_id":"cpo3342slgdg3j2ifvpg","pricing_plan_id":"cebpf4jnsgd1na2vs0mg"},{"bike_id":"a7707bf1-29c6-4f48-976f-2880303742fc","system_id":"levelo_inurba_marseille","lat":43.29517,"lon":5.3903,"is_reserved":false,"is_disabled":true,"rental_uris":{"android":"levelo://app?vid=a7707bf1-29c6-4f48-976f-2880303742fc","ios":"levelo://app?vid=a7707bf1-29c6-4f48-976f-2880303742fc"},"vehicle_type_id":"4","last_reported":1738674960,"current_range_meters":14000,"station_id":"ce4bh3p2rcd13ifvqdp0","pricing_plan_id":"cebpf4jnsgd1na2vs0mg"},{"bike_id":"3756bd28-c99b-413c-854e-aa0ddfc617c2","system_id":"levelo_inurba_marseille","lat":43.29718,"lon":5.36616,"is_reserved":false,"is_disabled":false,"rental_uris":{"android":"levelo://app?vid=3756bd28-c99b-413c-854e-aa0ddfc617c2","ios":"levelo://app?vid=3756bd28-c99b-413c-854e-aa0ddfc617c2"},"vehicle_type_id":"4","last_reported":1738674960,"current_range_meters":32000,"station_id":"ce4bgn12rcd13ifvqbt0","pricing_plan_id":"cebpf4jnsgd1na2vs0mg"},{"bike_id":"4ba0208b-a237-4fb4-9d2e-1d8063b17b57","system_id":"levelo_inurba_marseille","lat":43.25917,"lon":5.40887,"is_reserved":false,"is_disabled":false,"rental_uris":{"android":"levelo://app?vid=4ba0208b-a237-4fb4-9d2e-1d8063b17b57","ios":"levelo://app?vid=4ba0208b-a237-4fb4-9d2e-1d8063b17b57"},"vehicle_type_id":"4","last_reported":1738674960,"current_range_meters":22800,"station_id":"ce4bhm92rcd13ifvqglg","pricing_plan_id":"cebpf4jnsgd1na2vs0mg"},{"bike_id":"e04a84fa-f329-4358-a002-83d6217f5fb0","system_id":"levelo_inurba_marseille","lat":43.2977,"lon":5.37114,"is_reserved":false,"is_disabled":false,"rental_uris":{"android":"levelo://app?vid=e04a84fa-f329-4358-a002-83d6217f5fb0","ios":"levelo://app?vid=e04a84fa-f329-4358-a002-83d6217f5fb0"},"vehicle_type_id":"4","last_reported":1738674960,"current_range_meters":38000,"station_id":"ce4bgop2rcd13ifvqc1g","pricing_plan_id":"cebpf4jnsgd1na2vs0mg"},{"bike_id":"9b6c2f59-ce76-4ddd-9d4e-7b0f7de83b7f","system_id":"levelo_inurba_marseille","lat":43.33606,"lon":5.41038,"is_reserved":false,"is_disabled":false,"rental_uris":{"android":"levelo://app?vid=9b6c2f59-ce76-4ddd-9d4e-7b0f7de83b7f","ios":"levelo://app?vid=9b6c2f59-ce76-4ddd-9d4e-7b0f7de83b7f"},"vehicle_type_id":"4","last_reported":1738674960,"current_range_meters":38000,"station_id":"ce4bhqh2rcd13ifvqhmg","pricing_plan_id":"cebpf4jnsgd1na2vs0mg"},{"bike_id":"ba81c394-29ad-47e5-86a0-b9895c678ae8","system_id":"levelo_inurba_marseille","lat":43.27653,"lon":5.38873,"is_reserved":false,"is_disabled":false,"rental_uris":{"android":"levelo://app?vid=ba81c394-29ad-47e5-86a0-b9895c678ae8","ios":"levelo://app?vid=ba81c394-29ad-47e5-86a0-b9895c678ae8"},"vehicle_type_id":"4","last_reported":1738674960,"current_range_meters":36800,"station_id":"ce4bhi12rcd13ifvqfo0","pricing_plan_id":"cebpf4jnsgd1na2vs0mg"},{"bike_id":"5105e794-8f56-4998-b5ce-9b5937c2a99c","system_id":"levelo_inurba_marseille","lat":43.3266,"lon":5.40989,"is_reserved":false,"is_disabled":false,"rental_uris":{"android":"levelo://app?vid=5105e794-8f56-4998-b5ce-9b5937c2a99c","ios":"levelo://app?vid=5105e794-8f56-4998-b5ce-9b5937c2a99c"},"vehicle_type_id":"4","last_reported":1738674960,"current_range_meters":27200,"station_id":"ce4bhpp2rcd13ifvqhgg","pricing_plan_id":"cebpf4jnsgd1na2vs0mg"},{"bike_id":"abfef716-ff8e-455a-bfdf-1757c8e08e3b","system_id":"levelo_inurba_marseille","lat":43.30636,"lon":5.37225,"is_reserved":false,"is_disabled":false,"rental_uris":{"android":"levelo://app?vid=abfef716-ff8e-455a-bfdf-1757c8e08e3b","ios":"levelo://app?vid=abfef716-ff8e-455a-bfdf-1757c8e08e3b"},"vehicle_type_id":"4","last_reported":1738674960,"current_range_meters":38800,"station_id":"ce4bgqh2rcd13ifvqc4g","pricing_plan_id":"cebpf4jnsgd1na2vs0mg"},{"bike_id":"8c0f28f0-c587-4374-8c95-376d0641de2d","system_id":"levelo_inurba_marseille","lat":43.2989,"lon":5.37469,"is_reserved":false,"is_disabled":false,"rental_uris":{"android":"levelo://app?vid=8c0f28f0-c587-4374-8c95-376d0641de2d","ios":"levelo://app?vid=8c0f28f0-c587-4374-8c95-376d0641de2d"},"vehicle_type_id":"4","last_reported":1738674960,"current_range_meters":25600,"station_id":"ce4bgjh2rcd13ifvqbg0","pricing_plan_id":"cebpf4jnsgd1na2vs0mg"},{"bike_id":"f99c2d6a-f6bd-43c9-9b5e-96aec13e4155","system_id":"levelo_inurba_marseille","lat":43.31346,"lon":5.36727,"is_reserved":false,"is_disabled":false,"rental_uris":{"android":"levelo://app?vid=f99c2d6a-f6bd-43c9-9b5e-96aec13e4155","ios":"levelo://app?vid=f99c2d6a-f6bd-43c9-9b5e-96aec13e4155"},"vehicle_type_id":"4","last_reported":1738674960,"current_range_meters":38800,"station_id":"ce4bgr92rcd13ifvqc6g","pricing_plan_id":"cebpf4jnsgd1na2vs0mg"},{"bike_id":"3356b867-8857-44a4-9882-de148bdf9b77","system_id":"levelo_inurba_marseille","lat":43.29911,"lon":5.37474,"is_reserved":false,"is_disabled":false,"rental_uris":{"android":"levelo://app?vid=3356b867-8857-44a4-9882-de148bdf9b77","ios":"levelo://app?vid=3356b867-8857-44a4-9882-de148bdf9b77"},"vehicle_type_id":"4","last_reported":1738674960,"current_range_meters":18000,"station_id":"ce4bgjh2rcd13ifvqbg0","pricing_plan_id":"cebpf4jnsgd1na2vs0mg"},{"bike_id":"28bb841b-94b3-4842-8d56-4fd8bc4ce1ed","system_id":"levelo_inurba_marseille","lat":43.24543,"lon":5.39527,"is_reserved":false,"is_disabled":false,"rental_uris":{"android":"levelo://app?vid=28bb841b-94b3-4842-8d56-4fd8bc4ce1ed","ios":"levelo://app?vid=28bb841b-94b3-4842-8d56-4fd8bc4ce1ed"},"vehicle_type_id":"4","last_reported":1738674960,"current_range_meters":11600,"station_id":"ce4bhlp2rcd13ifvqgjg","pricing_plan_id":"cebpf4jnsgd1na2vs0mg"},{"bike_id":"19c7a087-c6ce-48e8-b53a-d3b89213b68d","system_id":"levelo_inurba_marseille","lat":43.27308,"lon":5.39072,"is_reserved":false,"is_disabled":true,"rental_uris":{"android":"levelo://app?vid=19c7a087-c6ce-48e8-b53a-d3b89213b68d","ios":"levelo://app?vid=19c7a087-c6ce-48e8-b53a-d3b89213b68d"},"vehicle_type_id":"4","last_reported":1738674960,"current_range_meters":1600,"station_id":"ce4bhgp2rcd13ifvqfe0","pricing_plan_id":"cebpf4jnsgd1na2vs0mg"},{"bike_id":"f7b27116-dd62-4f1b-995b-2135a8693209","system_id":"levelo_inurba_marseille","lat":43.29019,"lon":5.38601,"is_reserved":false,"is_disabled":false,"rental_uris":{"android":"levelo://app?vid=f7b27116-dd62-4f1b-995b-2135a8693209","ios":"levelo://app?vid=f7b27116-dd62-4f1b-995b-2135a8693209"},"vehicle_type_id":"4","last_reported":1738674960,"current_range_meters":36800,"station_id":"ce4bh4p2rcd13ifvqe0g","pricing_plan_id":"cebpf4jnsgd1na2vs0mg"},{"bike_id":"e270e9c9-c637-4eec-85ca-20047cef130b","system_id":"levelo_inurba_marseille","lat":43.23156,"lon":5.43708,"is_reserved":false,"is_disabled":false,"rental_uris":{"android":"levelo://app?vid=e270e9c9-c637-4eec-85ca-20047cef130b","ios":"levelo://app?vid=e270e9c9-c637-4eec-85ca-20047cef130b"},"vehicle_type_id":"4","last_reported":1738674960,"current_range_meters":38400,"station_id":"ce4bhmp2rcd13ifvqgog","pricing_plan_id":"cebpf4jnsgd1na2vs0mg"},{"bike_id":"dfe4a7c7-0508-43ad-a0c0-ea841f1a5151","system_id":"levelo_inurba_marseille","lat":43.312219,"lon":5.368453,"is_reserved":false,"is_disabled":false,"rental_uris":{"android":"levelo://app?vid=dfe4a7c7-0508-43ad-a0c0-ea841f1a5151","ios":"levelo://app?vid=dfe4a7c7-0508-43ad-a0c0-ea841f1a5151"},"vehicle_type_id":"4","last_reported":1738674960,"current_range_meters":34000,"station_id":"ce4bgl92rcd13ifvqbq0","pricing_plan_id":"cebpf4jnsgd1na2vs0mg"},{"bike_id":"2596d18e-5a51-415d-81d9-dda15ef753ca","system_id":"levelo_inurba_marseille","lat":43.2963,"lon":5.37166,"is_reserved":false,"is_disabled":false,"rental_uris":{"android":"levelo://app?vid=2596d18e-5a51-415d-81d9-dda15ef753ca","ios":"levelo://app?vid=2596d18e-5a51-415d-81d9-dda15ef753ca"},"vehicle_type_id":"4","last_reported":1738674960,"current_range_meters":37600,"station_id":"ce4bgnh2rcd13ifvqc0g","pricing_plan_id":"cebpf4jnsgd1na2vs0mg"},{"bike_id":"cb0238c2-4a63-49e4-a81d-cb761e159ecc","system_id":"levelo_inurba_marseille","lat":43.29008,"lon":5.35607,"is_reserved":false,"is_disabled":false,"rental_uris":{"android":"levelo://app?vid=cb0238c2-4a63-49e4-a81d-cb761e159ecc","ios":"levelo://app?vid=cb0238c2-4a63-49e4-a81d-cb761e159ecc"},"vehicle_type_id":"4","last_reported":1738674960,"current_range_meters":38800,"station_id":"ce4bhb92rcd13ifvqen0","pricing_plan_id":"cebpf4jnsgd1na2vs0mg"},{"bike_id":"8bd3ef89-4d48-42b3-8d94-f04f70b798d2","system_id":"levelo_inurba_marseille","lat":43.28719,"lon":5.37931,"is_reserved":false,"is_disabled":false,"rental_uris":{"android":"levelo://app?vid=8bd3ef89-4d48-42b3-8d94-f04f70b798d2","ios":"levelo://app?vid=8bd3ef89-4d48-42b3-8d94-f04f70b798d2"},"vehicle_type_id":"4","last_reported":1738674960,"current_range_meters":34000,"station_id":"ce4bh9p2rcd13ifvqec0","pricing_plan_id":"cebpf4jnsgd1na2vs0mg"},{"bike_id":"005249ad-a5ba-4e73-997c-32d7121f7635","system_id":"levelo_inurba_marseille","lat":43.279143,"lon":5.3958,"is_reserved":false,"is_disabled":false,"rental_uris":{"android":"levelo://app?vid=005249ad-a5ba-4e73-997c-32d7121f7635","ios":"levelo://app?vid=005249ad-a5ba-4e73-997c-32d7121f7635"},"vehicle_type_id":"4","last_reported":1738674960,"current_range_meters":29600,"station_id":"ce4bhf92rcd13ifvqf40","pricing_plan_id":"cebpf4jnsgd1na2vs0mg"},{"bike_id":"284984b1-0b04-4286-8de9-da966b43349a","system_id":"levelo_inurba_marseille","lat":43.24707,"lon":5.38129,"is_reserved":false,"is_disabled":false,"rental_uris":{"android":"levelo://app?vid=284984b1-0b04-4286-8de9-da966b43349a","ios":"levelo://app?vid=284984b1-0b04-4286-8de9-da966b43349a"},"vehicle_type_id":"4","last_reported":1738674960,"current_range_meters":32800,"station_id":"","pricing_plan_id":"cebpf4jnsgd1na2vs0mg"},{"bike_id":"e6084c4a-6f17-4598-bd83-e190055a7ca3","system_id":"levelo_inurba_marseille","lat":43.29513,"lon":5.37503,"is_reserved":false,"is_disabled":false,"rental_uris":{"android":"levelo://app?vid=e6084c4a-6f17-4598-bd83-e190055a7ca3","ios":"levelo://app?vid=e6084c4a-6f17-4598-bd83-e190055a7ca3"},"vehicle_type_id":"4","last_reported":1738674960,"current_range_meters":37600,"station_id":"ce4bgkp2rcd13ifvqbmg","pricing_plan_id":"cebpf4jnsgd1na2vs0mg"},{"bike_id":"49043dcc-dc87-4f32-9b9e-584978211017","system_id":"levelo_inurba_marseille","lat":43.30165,"lon":5.374,"is_reserved":false,"is_disabled":false,"rental_uris":{"android":"levelo://app?vid=49043dcc-dc87-4f32-9b9e-584978211017","ios":"levelo://app?vid=49043dcc-dc87-4f32-9b9e-584978211017"},"vehicle_type_id":"4","last_reported":1738674960,"current_range_meters":38800,"station_id":"ce4bgs92rcd13ifvqcc0","pricing_plan_id":"cebpf4jnsgd1na2vs0mg"},{"bike_id":"88f6ec14-1047-428a-bfc8-ed7564b679d3","system_id":"levelo_inurba_marseille","lat":43.24391,"lon":5.37066,"is_reserved":false,"is_disabled":false,"rental_uris":{"android":"levelo://app?vid=88f6ec14-1047-428a-bfc8-ed7564b679d3","ios":"levelo://app?vid=88f6ec14-1047-428a-bfc8-ed7564b679d3"},"vehicle_type_id":"4","last_reported":1738674960,"current_range_meters":38800,"station_id":"ce4bhhh2rcd13ifvqfk0","pricing_plan_id":"cebpf4jnsgd1na2vs0mg"},{"bike_id":"941a420b-bcd5-4f63-a1ba-5c15116a6c1e","system_id":"levelo_inurba_marseille","lat":43.29247,"lon":5.36409,"is_reserved":false,"is_disabled":false,"rental_uris":{"android":"levelo://app?vid=941a420b-bcd5-4f63-a1ba-5c15116a6c1e","ios":"levelo://app?vid=941a420b-bcd5-4f63-a1ba-5c15116a6c1e"},"vehicle_type_id":"4","last_reported":1738674960,"current_range_meters":38000,"station_id":"","pricing_plan_id":"cebpf4jnsgd1na2vs0mg"},{"bike_id":"9560758e-cba7-460c-b061-2bc13d6a6670","system_id":"levelo_inurba_marseille","lat":43.28938,"lon":5.36632,"is_reserved":false,"is_disabled":false,"rental_uris":{"android":"levelo://app?vid=9560758e-cba7-460c-b061-2bc13d6a6670","ios":"levelo://app?vid=9560758e-cba7-460c-b061-2bc13d6a6670"},"vehicle_type_id":"4","last_reported":1738674960,"current_range_meters":24400,"station_id":"ce4bhap2rcd13ifvqek0","pricing_plan_id":"cebpf4jnsgd1na2vs0mg"},{"bike_id":"adb61299-bc52-4989-ae99-4ff9c7c8fb61","system_id":"levelo_inurba_marseille","lat":43.25722,"lon":5.41113,"is_reserved":false,"is_disabled":false,"rental_uris":{"android":"levelo://app?vid=adb61299-bc52-4989-ae99-4ff9c7c8fb61","ios":"levelo://app?vid=adb61299-bc52-4989-ae99-4ff9c7c8fb61"},"vehicle_type_id":"4","last_reported":1738674960,"current_range_meters":22000,"station_id":"ce4bhkp2rcd13ifvqgd0","pricing_plan_id":"cebpf4jnsgd1na2vs0mg"},{"bike_id":"ac10ecdc-782c-467c-8065-29ce4e1b1aab","system_id":"levelo_inurba_marseille","lat":43.32656,"lon":5.41001,"is_reserved":false,"is_disabled":false,"rental_uris":{"android":"levelo://app?vid=ac10ecdc-782c-467c-8065-29ce4e1b1aab","ios":"levelo://app?vid=ac10ecdc-782c-467c-8065-29ce4e1b1aab"},"vehicle_type_id":"4","last_reported":1738674960,"current_range_meters":2800,"station_id":"ce4bhpp2rcd13ifvqhgg","pricing_plan_id":"cebpf4jnsgd1na2vs0mg"},{"bike_id":"352d595e-1fe6-4582-beb8-01e7d677d0ed","system_id":"levelo_inurba_marseille","lat":43.23965,"lon":5.36618,"is_reserved":false,"is_disabled":false,"rental_uris":{"android":"levelo://app?vid=352d595e-1fe6-4582-beb8-01e7d677d0ed","ios":"levelo://app?vid=352d595e-1fe6-4582-beb8-01e7d677d0ed"},"vehicle_type_id":"4","last_reported":1738674960,"current_range_meters":3200,"station_id":"ce4bhi12rcd13ifvqfp0","pricing_plan_id":"cebpf4jnsgd1na2vs0mg"},{"bike_id":"c19b3c74-f079-41ca-a5e6-f86d20b3a1ed","system_id":"levelo_inurba_marseille","lat":43.28425,"lon":5.34985,"is_reserved":false,"is_disabled":false,"rental_uris":{"android":"levelo://app?vid=c19b3c74-f079-41ca-a5e6-f86d20b3a1ed","ios":"levelo://app?vid=c19b3c74-f079-41ca-a5e6-f86d20b3a1ed"},"vehicle_type_id":"4","last_reported":1738674960,"current_range_meters":18800,"station_id":"ce4bhbh2rcd13ifvqepg","pricing_plan_id":"cebpf4jnsgd1na2vs0mg"},{"bike_id":"03215b30-aa65-4b10-b451-ed50967ec88e","system_id":"levelo_inurba_marseille","lat":43.34468,"lon":5.35952,"is_reserved":false,"is_disabled":true,"rental_uris":{"android":"levelo://app?vid=03215b30-aa65-4b10-b451-ed50967ec88e","ios":"levelo://app?vid=03215b30-aa65-4b10-b451-ed50967ec88e"},"vehicle_type_id":"4","last_reported":1738674960,"current_range_meters":0,"station_id":"","pricing_plan_id":"cebpf4jnsgd1na2vs0mg"},{"bike_id":"6e519aec-f827-4c87-81d5-881547364c15","system_id":"levelo_inurba_marseille","lat":43.29688,"lon":5.3729,"is_reserved":false,"is_disabled":false,"rental_uris":{"android":"levelo://app?vid=6e519aec-f827-4c87-81d5-881547364c15","ios":"levelo://app?vid=6e519aec-f827-4c87-81d5-881547364c15"},"vehicle_type_id":"4","last_reported":1738674960,"current_range_meters":24800,"station_id":"ce4bgk12rcd13ifvqbj0","pricing_plan_id":"cebpf4jnsgd1na2vs0mg"},{"bike_id":"3646b458-ebfa-4892-b059-5c47546195db","system_id":"levelo_inurba_marseille","lat":43.30539,"lon":5.37945,"is_reserved":false,"is_disabled":false,"rental_uris":{"android":"levelo://app?vid=3646b458-ebfa-4892-b059-5c47546195db","ios":"levelo://app?vid=3646b458-ebfa-4892-b059-5c47546195db"},"vehicle_type_id":"4","last_reported":1738674960,"current_range_meters":28800,"station_id":"ce4bgup2rcd13ifvqcn0","pricing_plan_id":"cebpf4jnsgd1na2vs0mg"},{"bike_id":"d1d51ec2-e1ab-4b92-9a4b-f935b04ef436","system_id":"levelo_inurba_marseille","lat":43.25013,"lon":5.38917,"is_reserved":false,"is_disabled":false,"rental_uris":{"android":"levelo://app?vid=d1d51ec2-e1ab-4b92-9a4b-f935b04ef436","ios":"levelo://app?vid=d1d51ec2-e1ab-4b92-9a4b-f935b04ef436"},"vehicle_type_id":"4","last_reported":1738674960,"current_range_meters":24400,"station_id":"ce4bhgp2rcd13ifvqfd0","pricing_plan_id":"cebpf4jnsgd1na2vs0mg"},{"bike_id":"102b9f2d-4c9c-4720-8aef-3f4ab487e1a0","system_id":"levelo_inurba_marseille","lat":43.32423,"lon":5.38982,"is_reserved":false,"is_disabled":false,"rental_uris":{"android":"levelo://app?vid=102b9f2d-4c9c-4720-8aef-3f4ab487e1a0","ios":"levelo://app?vid=102b9f2d-4c9c-4720-8aef-3f4ab487e1a0"},"vehicle_type_id":"4","last_reported":1738674960,"current_range_meters":11600,"station_id":"","pricing_plan_id":"cebpf4jnsgd1na2vs0mg"},{"bike_id":"7a2080c9-d44a-471c-9acd-526428e8e5dc","system_id":"levelo_inurba_marseille","lat":43.22948,"lon":5.3538,"is_reserved":false,"is_disabled":false,"rental_uris":{"android":"levelo://app?vid=7a2080c9-d44a-471c-9acd-526428e8e5dc","ios":"levelo://app?vid=7a2080c9-d44a-471c-9acd-526428e8e5dc"},"vehicle_type_id":"4","last_reported":1738674960,"current_range_meters":38800,"station_id":"cpo3532slgdg3j2ikp40","pricing_plan_id":"cebpf4jnsgd1na2vs0mg"},{"bike_id":"63048f82-d2f8-4892-b5b3-d703ed24ef1c","system_id":"levelo_inurba_marseille","lat":43.29005,"lon":5.35598,"is_reserved":false,"is_disabled":false,"rental_uris":{"android":"levelo://app?vid=63048f82-d2f8-4892-b5b3-d703ed24ef1c","ios":"levelo://app?vid=63048f82-d2f8-4892-b5b3-d703ed24ef1c"},"vehicle_type_id":"4","last_reported":1738674960,"current_range_meters":38400,"station_id":"ce4bhb92rcd13ifvqen0","pricing_plan_id":"cebpf4jnsgd1na2vs0mg"},{"bike_id":"abafacbc-f330-4045-83f4-a4d449f86546","system_id":"levelo_inurba_marseille","lat":43.30977,"lon":5.36909,"is_reserved":false,"is_disabled":false,"rental_uris":{"android":"levelo://app?vid=abafacbc-f330-4045-83f4-a4d449f86546","ios":"levelo://app?vid=abafacbc-f330-4045-83f4-a4d449f86546"},"vehicle_type_id":"4","last_reported":1738674960,"current_range_meters":38000,"station_id":"","pricing_plan_id":"cebpf4jnsgd1na2vs0mg"},{"bike_id":"1bdf073d-c097-4150-87c6-187750a9dea9","system_id":"levelo_inurba_marseille","lat":43.26212,"lon":5.3742,"is_reserved":false,"is_disabled":false,"rental_uris":{"android":"levelo://app?vid=1bdf073d-c097-4150-87c6-187750a9dea9","ios":"levelo://app?vid=1bdf073d-c097-4150-87c6-187750a9dea9"},"vehicle_type_id":"4","last_reported":1738674960,"current_range_meters":38400,"station_id":"ce4bhgp2rcd13ifvqfc0","pricing_plan_id":"cebpf4jnsgd1na2vs0mg"},{"bike_id":"53e192fa-9242-41bc-abc6-5a4d77388b6e","system_id":"levelo_inurba_marseille","lat":43.295349,"lon":5.385407,"is_reserved":false,"is_disabled":false,"rental_uris":{"android":"levelo://app?vid=53e192fa-9242-41bc-abc6-5a4d77388b6e","ios":"levelo://app?vid=53e192fa-9242-41bc-abc6-5a4d77388b6e"},"vehicle_type_id":"4","last_reported":1738674960,"current_range_meters":22400,"station_id":"ce4bgn92rcd13ifvqbvg","pricing_plan_id":"cebpf4jnsgd1na2vs0mg"},{"bike_id":"43d88c9c-d0eb-4b4f-b95e-e1d05d1ad7b8","system_id":"levelo_inurba_marseille","lat":43.29621,"lon":5.37166,"is_reserved":false,"is_disabled":false,"rental_uris":{"android":"levelo://app?vid=43d88c9c-d0eb-4b4f-b95e-e1d05d1ad7b8","ios":"levelo://app?vid=43d88c9c-d0eb-4b4f-b95e-e1d05d1ad7b8"},"vehicle_type_id":"4","last_reported":1738674960,"current_range_meters":27600,"station_id":"ce4bgnh2rcd13ifvqc0g","pricing_plan_id":"cebpf4jnsgd1na2vs0mg"},{"bike_id":"7fbea1ed-9953-4891-b9fe-ad84cdd12b3a","system_id":"levelo_inurba_marseille","lat":43.28929,"lon":5.38373,"is_reserved":false,"is_disabled":false,"rental_uris":{"android":"levelo://app?vid=7fbea1ed-9953-4891-b9fe-ad84cdd12b3a","ios":"levelo://app?vid=7fbea1ed-9953-4891-b9fe-ad84cdd12b3a"},"vehicle_type_id":"4","last_reported":1738674960,"current_range_meters":39200,"station_id":"ce4bh612rcd13ifvqe6g","pricing_plan_id":"cebpf4jnsgd1na2vs0mg"},{"bike_id":"6dfe34ee-89dc-4687-a40b-bb003e3c18c6","system_id":"levelo_inurba_marseille","lat":43.28113,"lon":5.37844,"is_reserved":false,"is_disabled":true,"rental_uris":{"android":"levelo://app?vid=6dfe34ee-89dc-4687-a40b-bb003e3c18c6","ios":"levelo://app?vid=6dfe34ee-89dc-4687-a40b-bb003e3c18c6"},"vehicle_type_id":"4","last_reported":1738674960,"current_range_meters":38800,"station_id":"ce4bha12rcd13ifvqee0","pricing_plan_id":"cebpf4jnsgd1na2vs0mg"},{"bike_id":"0bb638d0-2838-47fa-8a2d-f175e9aec41a","system_id":"levelo_inurba_marseille","lat":43.23969,"lon":5.36617,"is_reserved":false,"is_disabled":false,"rental_uris":{"android":"levelo://app?vid=0bb638d0-2838-47fa-8a2d-f175e9aec41a","ios":"levelo://app?vid=0bb638d0-2838-47fa-8a2d-f175e9aec41a"},"vehicle_type_id":"4","last_reported":1738674960,"current_range_meters":14800,"station_id":"ce4bhi12rcd13ifvqfp0","pricing_plan_id":"cebpf4jnsgd1na2vs0mg"},{"bike_id":"527225ef-7ea1-4609-aded-699f77a699d2","system_id":"levelo_inurba_marseille","lat":43.3058,"lon":5.36706,"is_reserved":false,"is_disabled":false,"rental_uris":{"android":"levelo://app?vid=527225ef-7ea1-4609-aded-699f77a699d2","ios":"levelo://app?vid=527225ef-7ea1-4609-aded-699f77a699d2"},"vehicle_type_id":"4","last_reported":1738674960,"current_range_meters":28000,"station_id":"","pricing_plan_id":"cebpf4jnsgd1na2vs0mg"},{"bike_id":"4303ed51-f7da-450f-b179-33715c6c513e","system_id":"levelo_inurba_marseille","lat":43.28486,"lon":5.38542,"is_reserved":false,"is_disabled":false,"rental_uris":{"android":"levelo://app?vid=4303ed51-f7da-450f-b179-33715c6c513e","ios":"levelo://app?vid=4303ed51-f7da-450f-b179-33715c6c513e"},"vehicle_type_id":"4","last_reported":1738674960,"current_range_meters":25200,"station_id":"ce4bh8p2rcd13ifvqeb0","pricing_plan_id":"cebpf4jnsgd1na2vs0mg"},{"bike_id":"2fed9ba3-3909-423b-8e60-69abd9978d73","system_id":"levelo_inurba_marseille","lat":43.26815,"lon":5.40273,"is_reserved":false,"is_disabled":false,"rental_uris":{"android":"levelo://app?vid=2fed9ba3-3909-423b-8e60-69abd9978d73","ios":"levelo://app?vid=2fed9ba3-3909-423b-8e60-69abd9978d73"},"vehicle_type_id":"4","last_reported":1738674960,"current_range_meters":38800,"station_id":"ce501612rcd8frsf0b60","pricing_plan_id":"cebpf4jnsgd1na2vs0mg"},{"bike_id":"d83008f8-7777-4dc5-a56b-8434cb6a396f","system_id":"levelo_inurba_marseille","lat":43.284797,"lon":5.385488,"is_reserved":false,"is_disabled":false,"rental_uris":{"android":"levelo://app?vid=d83008f8-7777-4dc5-a56b-8434cb6a396f","ios":"levelo://app?vid=d83008f8-7777-4dc5-a56b-8434cb6a396f"},"vehicle_type_id":"4","last_reported":1738674960,"current_range_meters":27600,"station_id":"ce4bh8p2rcd13ifvqeb0","pricing_plan_id":"cebpf4jnsgd1na2vs0mg"},{"bike_id":"a2360890-da0d-437a-916b-04e787d9f58a","system_id":"levelo_inurba_marseille","lat":43.32495,"lon":5.36577,"is_reserved":false,"is_disabled":false,"rental_uris":{"android":"levelo://app?vid=a2360890-da0d-437a-916b-04e787d9f58a","ios":"levelo://app?vid=a2360890-da0d-437a-916b-04e787d9f58a"},"vehicle_type_id":"4","last_reported":1738674960,"current_range_meters":34000,"station_id":"ce4bhs12rcd13ifvqhvg","pricing_plan_id":"cebpf4jnsgd1na2vs0mg"},{"bike_id":"06d50490-7376-428b-a866-2a619c64c1e2","system_id":"levelo_inurba_marseille","lat":43.28842,"lon":5.35862,"is_reserved":false,"is_disabled":false,"rental_uris":{"android":"levelo://app?vid=06d50490-7376-428b-a866-2a619c64c1e2","ios":"levelo://app?vid=06d50490-7376-428b-a866-2a619c64c1e2"},"vehicle_type_id":"4","last_reported":1738674960,"current_range_meters":6000,"station_id":"ce4bhb12rcd13ifvqem0","pricing_plan_id":"cebpf4jnsgd1na2vs0mg"},{"bike_id":"6e7c1ac2-e791-43c7-8c36-9db37854d07d","system_id":"levelo_inurba_marseille","lat":43.28663,"lon":5.35039,"is_reserved":false,"is_disabled":true,"rental_uris":{"android":"levelo://app?vid=6e7c1ac2-e791-43c7-8c36-9db37854d07d","ios":"levelo://app?vid=6e7c1ac2-e791-43c7-8c36-9db37854d07d"},"vehicle_type_id":"4","last_reported":1738674960,"current_range_meters":25600,"station_id":"ce4bhch2rcd13ifvqeug","pricing_plan_id":"cebpf4jnsgd1na2vs0mg"},{"bike_id":"dc7046c0-2c32-461f-9598-e9cad1a0e646","system_id":"levelo_inurba_marseille","lat":43.27063,"lon":5.40257,"is_reserved":false,"is_disabled":false,"rental_uris":{"android":"levelo://app?vid=dc7046c0-2c32-461f-9598-e9cad1a0e646","ios":"levelo://app?vid=dc7046c0-2c32-461f-9598-e9cad1a0e646"},"vehicle_type_id":"4","last_reported":1738674960,"current_range_meters":10800,"station_id":"ce4bhk92rcd13ifvqgc0","pricing_plan_id":"cebpf4jnsgd1na2vs0mg"},{"bike_id":"639b8337-8bd0-4ac1-8ff5-117dd1fb6e62","system_id":"levelo_inurba_marseille","lat":43.27224,"lon":5.39185,"is_reserved":false,"is_disabled":false,"rental_uris":{"android":"levelo://app?vid=639b8337-8bd0-4ac1-8ff5-117dd1fb6e62","ios":"levelo://app?vid=639b8337-8bd0-4ac1-8ff5-117dd1fb6e62"},"vehicle_type_id":"4","last_reported":1738674960,"current_range_meters":4400,"station_id":"ce4bhhp2rcd13ifvqfm0","pricing_plan_id":"cebpf4jnsgd1na2vs0mg"},{"bike_id":"1418b524-1535-4478-a5d6-289886b7efa0","system_id":"levelo_inurba_marseille","lat":43.28164,"lon":5.42638,"is_reserved":false,"is_disabled":false,"rental_uris":{"android":"levelo://app?vid=1418b524-1535-4478-a5d6-289886b7efa0","ios":"levelo://app?vid=1418b524-1535-4478-a5d6-289886b7efa0"},"vehicle_type_id":"4","last_reported":1738674960,"current_range_meters":34000,"station_id":"ce4bhnh2rcd13ifvqgug","pricing_plan_id":"cebpf4jnsgd1na2vs0mg"},{"bike_id":"08e9e660-550b-4bec-8d65-1ba90bdb998b","system_id":"levelo_inurba_marseille","lat":43.30458,"lon":5.37901,"is_reserved":false,"is_disabled":false,"rental_uris":{"android":"levelo://app?vid=08e9e660-550b-4bec-8d65-1ba90bdb998b","ios":"levelo://app?vid=08e9e660-550b-4bec-8d65-1ba90bdb998b"},"vehicle_type_id":"4","last_reported":1738674960,"current_range_meters":38400,"station_id":"ce4bgup2rcd13ifvqcn0","pricing_plan_id":"cebpf4jnsgd1na2vs0mg"},{"bike_id":"f8a64017-c9fd-4970-b9ef-56d8f996ff24","system_id":"levelo_inurba_marseille","lat":43.29601,"lon":5.37716,"is_reserved":false,"is_disabled":false,"rental_uris":{"android":"levelo://app?vid=f8a64017-c9fd-4970-b9ef-56d8f996ff24","ios":"levelo://app?vid=f8a64017-c9fd-4970-b9ef-56d8f996ff24"},"vehicle_type_id":"4","last_reported":1738674960,"current_range_meters":38800,"station_id":"ce4bgi92rcd13ifvqb90","pricing_plan_id":"cebpf4jnsgd1na2vs0mg"},{"bike_id":"a0e59078-9c20-4a69-9691-e9604e2a9a8c","system_id":"levelo_inurba_marseille","lat":43.30468,"lon":5.37914,"is_reserved":false,"is_disabled":false,"rental_uris":{"android":"levelo://app?vid=a0e59078-9c20-4a69-9691-e9604e2a9a8c","ios":"levelo://app?vid=a0e59078-9c20-4a69-9691-e9604e2a9a8c"},"vehicle_type_id":"4","last_reported":1738674960,"current_range_meters":11600,"station_id":"ce4bgup2rcd13ifvqcn0","pricing_plan_id":"cebpf4jnsgd1na2vs0mg"},{"bike_id":"f8fb3883-e95e-42e6-be20-3d44997fd90a","system_id":"levelo_inurba_marseille","lat":43.25591,"lon":5.38236,"is_reserved":false,"is_disabled":false,"rental_uris":{"android":"levelo://app?vid=f8fb3883-e95e-42e6-be20-3d44997fd90a","ios":"levelo://app?vid=f8fb3883-e95e-42e6-be20-3d44997fd90a"},"vehicle_type_id":"4","last_reported":1738674960,"current_range_meters":33600,"station_id":"ce4bhih2rcd13ifvqfs0","pricing_plan_id":"cebpf4jnsgd1na2vs0mg"},{"bike_id":"91d68664-789f-4fee-a0ce-6243151d200f","system_id":"levelo_inurba_marseille","lat":43.29006,"lon":5.35612,"is_reserved":false,"is_disabled":false,"rental_uris":{"android":"levelo://app?vid=91d68664-789f-4fee-a0ce-6243151d200f","ios":"levelo://app?vid=91d68664-789f-4fee-a0ce-6243151d200f"},"vehicle_type_id":"4","last_reported":1738674960,"current_range_meters":8400,"station_id":"ce4bhb92rcd13ifvqen0","pricing_plan_id":"cebpf4jnsgd1na2vs0mg"},{"bike_id":"25a25fe7-e9c6-4107-ae06-8b148f630206","system_id":"levelo_inurba_marseille","lat":43.29891,"lon":5.39732,"is_reserved":false,"is_disabled":false,"rental_uris":{"android":"levelo://app?vid=25a25fe7-e9c6-4107-ae06-8b148f630206","ios":"levelo://app?vid=25a25fe7-e9c6-4107-ae06-8b148f630206"},"vehicle_type_id":"4","last_reported":1738674960,"current_range_meters":38000,"station_id":"ce4bh0h2rcd13ifvqd50","pricing_plan_id":"cebpf4jnsgd1na2vs0mg"},{"bike_id":"064a75a3-a1c9-45fa-9e21-d76aab0fba54","system_id":"levelo_inurba_marseille","lat":43.30456,"lon":5.379115,"is_reserved":false,"is_disabled":false,"rental_uris":{"android":"levelo://app?vid=064a75a3-a1c9-45fa-9e21-d76aab0fba54","ios":"levelo://app?vid=064a75a3-a1c9-45fa-9e21-d76aab0fba54"},"vehicle_type_id":"4","last_reported":1738674960,"current_range_meters":14000,"station_id":"ce4bgup2rcd13ifvqcn0","pricing_plan_id":"cebpf4jnsgd1na2vs0mg"},{"bike_id":"ba9659b0-1bff-4bf9-aec7-272758d875e8","system_id":"levelo_inurba_marseille","lat":43.29635,"lon":5.3717,"is_reserved":false,"is_disabled":false,"rental_uris":{"android":"levelo://app?vid=ba9659b0-1bff-4bf9-aec7-272758d875e8","ios":"levelo://app?vid=ba9659b0-1bff-4bf9-aec7-272758d875e8"},"vehicle_type_id":"4","last_reported":1738674960,"current_range_meters":32400,"station_id":"ce4bgnh2rcd13ifvqc0g","pricing_plan_id":"cebpf4jnsgd1na2vs0mg"},{"bike_id":"7ac0548f-32a2-43de-967b-25fe82a03af8","system_id":"levelo_inurba_marseille","lat":43.25941,"lon":5.40903,"is_reserved":false,"is_disabled":false,"rental_uris":{"android":"levelo://app?vid=7ac0548f-32a2-43de-967b-25fe82a03af8","ios":"levelo://app?vid=7ac0548f-32a2-43de-967b-25fe82a03af8"},"vehicle_type_id":"4","last_reported":1738674960,"current_range_meters":25200,"station_id":"ce4bhm92rcd13ifvqglg","pricing_plan_id":"cebpf4jnsgd1na2vs0mg"},{"bike_id":"d017a21b-7b58-4514-bf06-3b19fe96541c","system_id":"levelo_inurba_marseille","lat":43.28279,"lon":5.35065,"is_reserved":false,"is_disabled":false,"rental_uris":{"android":"levelo://app?vid=d017a21b-7b58-4514-bf06-3b19fe96541c","ios":"levelo://app?vid=d017a21b-7b58-4514-bf06-3b19fe96541c"},"vehicle_type_id":"4","last_reported":1738674960,"current_range_meters":32000,"station_id":"ce4bhbp2rcd13ifvqerg","pricing_plan_id":"cebpf4jnsgd1na2vs0mg"},{"bike_id":"48457462-e2e5-4b0c-9657-da77fe2191e8","system_id":"levelo_inurba_marseille","lat":43.30554,"lon":5.36544,"is_reserved":false,"is_disabled":false,"rental_uris":{"android":"levelo://app?vid=48457462-e2e5-4b0c-9657-da77fe2191e8","ios":"levelo://app?vid=48457462-e2e5-4b0c-9657-da77fe2191e8"},"vehicle_type_id":"4","last_reported":1738674960,"current_range_meters":24800,"station_id":"ce4bgs12rcd13ifvqcag","pricing_plan_id":"cebpf4jnsgd1na2vs0mg"},{"bike_id":"a9ee38d0-21e8-4d99-8e3f-cc643e32473e","system_id":"levelo_inurba_marseille","lat":43.27819,"lon":5.40712,"is_reserved":false,"is_disabled":false,"rental_uris":{"android":"levelo://app?vid=a9ee38d0-21e8-4d99-8e3f-cc643e32473e","ios":"levelo://app?vid=a9ee38d0-21e8-4d99-8e3f-cc643e32473e"},"vehicle_type_id":"4","last_reported":1738674960,"current_range_meters":38800,"station_id":"ce4bhnh2rcd13ifvqgtg","pricing_plan_id":"cebpf4jnsgd1na2vs0mg"},{"bike_id":"d2fbd47d-3a23-4a2b-8dce-41b42b58af9a","system_id":"levelo_inurba_marseille","lat":43.30553,"lon":5.38436,"is_reserved":false,"is_disabled":false,"rental_uris":{"android":"levelo://app?vid=d2fbd47d-3a23-4a2b-8dce-41b42b58af9a","ios":"levelo://app?vid=d2fbd47d-3a23-4a2b-8dce-41b42b58af9a"},"vehicle_type_id":"4","last_reported":1738674960,"current_range_meters":38800,"station_id":"ce4bgg92rcd13ifvqb30","pricing_plan_id":"cebpf4jnsgd1na2vs0mg"},{"bike_id":"630dd466-e4dd-4ada-8a39-01e92abf0818","system_id":"levelo_inurba_marseille","lat":43.26199,"lon":5.37453,"is_reserved":false,"is_disabled":false,"rental_uris":{"android":"levelo://app?vid=630dd466-e4dd-4ada-8a39-01e92abf0818","ios":"levelo://app?vid=630dd466-e4dd-4ada-8a39-01e92abf0818"},"vehicle_type_id":"4","last_reported":1738674960,"current_range_meters":34000,"station_id":"ce4bhgp2rcd13ifvqfc0","pricing_plan_id":"cebpf4jnsgd1na2vs0mg"},{"bike_id":"0725e51d-ca8c-45b8-9eca-52212a326df0","system_id":"levelo_inurba_marseille","lat":43.2917,"lon":5.37169,"is_reserved":false,"is_disabled":false,"rental_uris":{"android":"levelo://app?vid=0725e51d-ca8c-45b8-9eca-52212a326df0","ios":"levelo://app?vid=0725e51d-ca8c-45b8-9eca-52212a326df0"},"vehicle_type_id":"4","last_reported":1738674960,"current_range_meters":22800,"station_id":"ce4bha92rcd13ifvqeh0","pricing_plan_id":"cebpf4jnsgd1na2vs0mg"},{"bike_id":"a231d1e2-1656-4f79-a789-779688c0390d","system_id":"levelo_inurba_marseille","lat":43.28998,"lon":5.35575,"is_reserved":false,"is_disabled":false,"rental_uris":{"android":"levelo://app?vid=a231d1e2-1656-4f79-a789-779688c0390d","ios":"levelo://app?vid=a231d1e2-1656-4f79-a789-779688c0390d"},"vehicle_type_id":"4","last_reported":1738674960,"current_range_meters":27200,"station_id":"ce4bhb92rcd13ifvqen0","pricing_plan_id":"cebpf4jnsgd1na2vs0mg"},{"bike_id":"3034d64e-f78e-468c-b4d6-2520a053438f","system_id":"levelo_inurba_marseille","lat":43.23195,"lon":5.39988,"is_reserved":false,"is_disabled":false,"rental_uris":{"android":"levelo://app?vid=3034d64e-f78e-468c-b4d6-2520a053438f","ios":"levelo://app?vid=3034d64e-f78e-468c-b4d6-2520a053438f"},"vehicle_type_id":"4","last_reported":1738674960,"current_range_meters":38800,"station_id":"ce4bhn12rcd13ifvqgqg","pricing_plan_id":"cebpf4jnsgd1na2vs0mg"},{"bike_id":"cc29db30-f2f1-468a-a201-3c6c24c1d6c0","system_id":"levelo_inurba_marseille","lat":43.29599,"lon":5.37735,"is_reserved":false,"is_disabled":false,"rental_uris":{"android":"levelo://app?vid=cc29db30-f2f1-468a-a201-3c6c24c1d6c0","ios":"levelo://app?vid=cc29db30-f2f1-468a-a201-3c6c24c1d6c0"},"vehicle_type_id":"4","last_reported":1738674960,"current_range_meters":37600,"station_id":"ce4bgi92rcd13ifvqb90","pricing_plan_id":"cebpf4jnsgd1na2vs0mg"},{"bike_id":"343ee9fa-65bc-44d7-b41c-f81f2cce2b1a","system_id":"levelo_inurba_marseille","lat":43.231503,"lon":5.437173,"is_reserved":false,"is_disabled":false,"rental_uris":{"android":"levelo://app?vid=343ee9fa-65bc-44d7-b41c-f81f2cce2b1a","ios":"levelo://app?vid=343ee9fa-65bc-44d7-b41c-f81f2cce2b1a"},"vehicle_type_id":"4","last_reported":1738674960,"current_range_meters":19600,"station_id":"ce4bhmp2rcd13ifvqgog","pricing_plan_id":"cebpf4jnsgd1na2vs0mg"},{"bike_id":"50e3a371-5883-4157-815f-32679bde171a","system_id":"levelo_inurba_marseille","lat":43.27839,"lon":5.39212,"is_reserved":false,"is_disabled":false,"rental_uris":{"android":"levelo://app?vid=50e3a371-5883-4157-815f-32679bde171a","ios":"levelo://app?vid=50e3a371-5883-4157-815f-32679bde171a"},"vehicle_type_id":"4","last_reported":1738674960,"current_range_meters":23200,"station_id":"ce4bhjp2rcd13ifvqga0","pricing_plan_id":"cebpf4jnsgd1na2vs0mg"},{"bike_id":"7f87d5fc-9445-41df-bd3e-5287cb6adb70","system_id":"levelo_inurba_marseille","lat":43.26806,"lon":5.40263,"is_reserved":false,"is_disabled":false,"rental_uris":{"android":"levelo://app?vid=7f87d5fc-9445-41df-bd3e-5287cb6adb70","ios":"levelo://app?vid=7f87d5fc-9445-41df-bd3e-5287cb6adb70"},"vehicle_type_id":"4","last_reported":1738674960,"current_range_meters":10000,"station_id":"ce501612rcd8frsf0b60","pricing_plan_id":"cebpf4jnsgd1na2vs0mg"},{"bike_id":"26d50996-2c19-48f1-bdd6-eba75f8cc07f","system_id":"levelo_inurba_marseille","lat":43.284877,"lon":5.385387,"is_reserved":false,"is_disabled":false,"rental_uris":{"android":"levelo://app?vid=26d50996-2c19-48f1-bdd6-eba75f8cc07f","ios":"levelo://app?vid=26d50996-2c19-48f1-bdd6-eba75f8cc07f"},"vehicle_type_id":"4","last_reported":1738674960,"current_range_meters":12000,"station_id":"ce4bh8p2rcd13ifvqeb0","pricing_plan_id":"cebpf4jnsgd1na2vs0mg"},{"bike_id":"e214cb68-bd90-4283-80e9-951f93a1751c","system_id":"levelo_inurba_marseille","lat":43.323291,"lon":5.406163,"is_reserved":false,"is_disabled":false,"rental_uris":{"android":"levelo://app?vid=e214cb68-bd90-4283-80e9-951f93a1751c","ios":"levelo://app?vid=e214cb68-bd90-4283-80e9-951f93a1751c"},"vehicle_type_id":"4","last_reported":1738674960,"current_range_meters":38000,"station_id":"ce4bhq92rcd13ifvqhjg","pricing_plan_id":"cebpf4jnsgd1na2vs0mg"},{"bike_id":"649599e3-9252-4d00-ad77-a8ea70e06ee9","system_id":"levelo_inurba_marseille","lat":43.29234,"lon":5.36044,"is_reserved":false,"is_disabled":false,"rental_uris":{"android":"levelo://app?vid=649599e3-9252-4d00-ad77-a8ea70e06ee9","ios":"levelo://app?vid=649599e3-9252-4d00-ad77-a8ea70e06ee9"},"vehicle_type_id":"4","last_reported":1738674960,"current_range_meters":36800,"station_id":"ce4bhbh2rcd13ifvqeqg","pricing_plan_id":"cebpf4jnsgd1na2vs0mg"},{"bike_id":"a7dc0848-081a-4438-bce6-7e161a91f066","system_id":"levelo_inurba_marseille","lat":43.28175,"lon":5.42631,"is_reserved":false,"is_disabled":false,"rental_uris":{"android":"levelo://app?vid=a7dc0848-081a-4438-bce6-7e161a91f066","ios":"levelo://app?vid=a7dc0848-081a-4438-bce6-7e161a91f066"},"vehicle_type_id":"4","last_reported":1738674960,"current_range_meters":34800,"station_id":"ce4bhnh2rcd13ifvqgug","pricing_plan_id":"cebpf4jnsgd1na2vs0mg"},{"bike_id":"aaf2cb7a-da0b-47cd-ac64-ece12eefc43b","system_id":"levelo_inurba_marseille","lat":43.25934,"lon":5.40911,"is_reserved":false,"is_disabled":false,"rental_uris":{"android":"levelo://app?vid=aaf2cb7a-da0b-47cd-ac64-ece12eefc43b","ios":"levelo://app?vid=aaf2cb7a-da0b-47cd-ac64-ece12eefc43b"},"vehicle_type_id":"4","last_reported":1738674960,"current_range_meters":30000,"station_id":"ce4bhm92rcd13ifvqglg","pricing_plan_id":"cebpf4jnsgd1na2vs0mg"},{"bike_id":"efb4e0c5-012a-40d5-b751-7a0e28f587ae","system_id":"levelo_inurba_marseille","lat":43.28278,"lon":5.35064,"is_reserved":false,"is_disabled":false,"rental_uris":{"android":"levelo://app?vid=efb4e0c5-012a-40d5-b751-7a0e28f587ae","ios":"levelo://app?vid=efb4e0c5-012a-40d5-b751-7a0e28f587ae"},"vehicle_type_id":"4","last_reported":1738674960,"current_range_meters":7200,"station_id":"ce4bhbp2rcd13ifvqerg","pricing_plan_id":"cebpf4jnsgd1na2vs0mg"},{"bike_id":"2055a81d-8e5e-4bf5-b5e1-2fc40f396b7c","system_id":"levelo_inurba_marseille","lat":43.30554,"lon":5.38442,"is_reserved":false,"is_disabled":true,"rental_uris":{"android":"levelo://app?vid=2055a81d-8e5e-4bf5-b5e1-2fc40f396b7c","ios":"levelo://app?vid=2055a81d-8e5e-4bf5-b5e1-2fc40f396b7c"},"vehicle_type_id":"4","last_reported":1738674960,"current_range_meters":32800,"station_id":"ce4bgg92rcd13ifvqb30","pricing_plan_id":"cebpf4jnsgd1na2vs0mg"},{"bike_id":"4e115706-dda5-4286-b487-8f0777838c31","system_id":"levelo_inurba_marseille","lat":43.25054,"lon":5.39536,"is_reserved":false,"is_disabled":false,"rental_uris":{"android":"levelo://app?vid=4e115706-dda5-4286-b487-8f0777838c31","ios":"levelo://app?vid=4e115706-dda5-4286-b487-8f0777838c31"},"vehicle_type_id":"4","last_reported":1738674960,"current_range_meters":37600,"station_id":"ce4bhm12rcd13ifvqgkg","pricing_plan_id":"cebpf4jnsgd1na2vs0mg"},{"bike_id":"c8bd1d84-2291-473f-ab82-361f165fe1db","system_id":"levelo_inurba_marseille","lat":43.24171,"lon":5.36402,"is_reserved":false,"is_disabled":false,"rental_uris":{"android":"levelo://app?vid=c8bd1d84-2291-473f-ab82-361f165fe1db","ios":"levelo://app?vid=c8bd1d84-2291-473f-ab82-361f165fe1db"},"vehicle_type_id":"4","last_reported":1738674960,"current_range_meters":38400,"station_id":"cpo36qri1sfpv3e86is0","pricing_plan_id":"cebpf4jnsgd1na2vs0mg"},{"bike_id":"da05f112-ffb2-4f41-a3cb-99544f3f7f0e","system_id":"levelo_inurba_marseille","lat":43.30539,"lon":5.36695,"is_reserved":false,"is_disabled":false,"rental_uris":{"android":"levelo://app?vid=da05f112-ffb2-4f41-a3cb-99544f3f7f0e","ios":"levelo://app?vid=da05f112-ffb2-4f41-a3cb-99544f3f7f0e"},"vehicle_type_id":"4","last_reported":1738674960,"current_range_meters":33200,"station_id":"ce4bgrp2rcd13ifvqc9g","pricing_plan_id":"cebpf4jnsgd1na2vs0mg"},{"bike_id":"b685bfd1-bf4f-47a8-9ce5-2ee55c422fb9","system_id":"levelo_inurba_marseille","lat":43.2901,"lon":5.35609,"is_reserved":false,"is_disabled":false,"rental_uris":{"android":"levelo://app?vid=b685bfd1-bf4f-47a8-9ce5-2ee55c422fb9","ios":"levelo://app?vid=b685bfd1-bf4f-47a8-9ce5-2ee55c422fb9"},"vehicle_type_id":"4","last_reported":1738674960,"current_range_meters":17200,"station_id":"ce4bhb92rcd13ifvqen0","pricing_plan_id":"cebpf4jnsgd1na2vs0mg"},{"bike_id":"bb846df9-2969-480a-aed6-edbcf9c326fb","system_id":"levelo_inurba_marseille","lat":43.24818,"lon":5.37461,"is_reserved":false,"is_disabled":false,"rental_uris":{"android":"levelo://app?vid=bb846df9-2969-480a-aed6-edbcf9c326fb","ios":"levelo://app?vid=bb846df9-2969-480a-aed6-edbcf9c326fb"},"vehicle_type_id":"4","last_reported":1738674960,"current_range_meters":25200,"station_id":"ce4bhgh2rcd13ifvqfb0","pricing_plan_id":"cebpf4jnsgd1na2vs0mg"},{"bike_id":"4d403d41-d83c-4686-b4bc-0e198c774c4c","system_id":"levelo_inurba_marseille","lat":43.29255,"lon":5.38422,"is_reserved":false,"is_disabled":false,"rental_uris":{"android":"levelo://app?vid=4d403d41-d83c-4686-b4bc-0e198c774c4c","ios":"levelo://app?vid=4d403d41-d83c-4686-b4bc-0e198c774c4c"},"vehicle_type_id":"4","last_reported":1738674960,"current_range_meters":12000,"station_id":"ce4bh692rcd13ifvqea0","pricing_plan_id":"cebpf4jnsgd1na2vs0mg"},{"bike_id":"cd07e062-2af1-406e-bcb9-5f1ec4730937","system_id":"levelo_inurba_marseille","lat":43.23066,"lon":5.35496,"is_reserved":false,"is_disabled":false,"rental_uris":{"android":"levelo://app?vid=cd07e062-2af1-406e-bcb9-5f1ec4730937","ios":"levelo://app?vid=cd07e062-2af1-406e-bcb9-5f1ec4730937"},"vehicle_type_id":"4","last_reported":1738674960,"current_range_meters":8800,"station_id":"cpo3342slgdg3j2ifvpg","pricing_plan_id":"cebpf4jnsgd1na2vs0mg"},{"bike_id":"516f2549-79cf-4297-a0ad-3d3f06a71f80","system_id":"levelo_inurba_marseille","lat":43.31735,"lon":5.42392,"is_reserved":false,"is_disabled":true,"rental_uris":{"android":"levelo://app?vid=516f2549-79cf-4297-a0ad-3d3f06a71f80","ios":"levelo://app?vid=516f2549-79cf-4297-a0ad-3d3f06a71f80"},"vehicle_type_id":"4","last_reported":1738674960,"current_range_meters":2800,"station_id":"ce4bhp92rcd13ifvqhbg","pricing_plan_id":"cebpf4jnsgd1na2vs0mg"},{"bike_id":"f8bafc49-537d-40c1-a09f-0120d2fe31ed","system_id":"levelo_inurba_marseille","lat":43.26512,"lon":5.41902,"is_reserved":false,"is_disabled":false,"rental_uris":{"android":"levelo://app?vid=f8bafc49-537d-40c1-a09f-0120d2fe31ed","ios":"levelo://app?vid=f8bafc49-537d-40c1-a09f-0120d2fe31ed"},"vehicle_type_id":"4","last_reported":1738674960,"current_range_meters":20000,"station_id":"ce4bhn92rcd13ifvqgrg","pricing_plan_id":"cebpf4jnsgd1na2vs0mg"},{"bike_id":"7d369b59-9e87-4651-8e01-4a70bae58c40","system_id":"levelo_inurba_marseille","lat":43.23191,"lon":5.3556,"is_reserved":false,"is_disabled":false,"rental_uris":{"android":"levelo://app?vid=7d369b59-9e87-4651-8e01-4a70bae58c40","ios":"levelo://app?vid=7d369b59-9e87-4651-8e01-4a70bae58c40"},"vehicle_type_id":"4","last_reported":1738674960,"current_range_meters":14800,"station_id":"ce4bhu92rcd13ifvqi70","pricing_plan_id":"cebpf4jnsgd1na2vs0mg"},{"bike_id":"473dc738-2184-4c96-a388-d3c1ef9e6829","system_id":"levelo_inurba_marseille","lat":43.24015,"lon":5.36268,"is_reserved":false,"is_disabled":false,"rental_uris":{"android":"levelo://app?vid=473dc738-2184-4c96-a388-d3c1ef9e6829","ios":"levelo://app?vid=473dc738-2184-4c96-a388-d3c1ef9e6829"},"vehicle_type_id":"4","last_reported":1738674960,"current_range_meters":14000,"station_id":"","pricing_plan_id":"cebpf4jnsgd1na2vs0mg"},{"bike_id":"45a7daa2-2a2e-4454-90c3-1009aaecc5bd","system_id":"levelo_inurba_marseille","lat":43.23208,"lon":5.35547,"is_reserved":false,"is_disabled":false,"rental_uris":{"android":"levelo://app?vid=45a7daa2-2a2e-4454-90c3-1009aaecc5bd","ios":"levelo://app?vid=45a7daa2-2a2e-4454-90c3-1009aaecc5bd"},"vehicle_type_id":"4","last_reported":1738674960,"current_range_meters":8800,"station_id":"ce4bhu92rcd13ifvqi70","pricing_plan_id":"cebpf4jnsgd1na2vs0mg"},{"bike_id":"dc3072d3-15a2-4b0d-8e8d-1985f0080e4f","system_id":"levelo_inurba_marseille","lat":43.27498,"lon":5.42462,"is_reserved":false,"is_disabled":false,"rental_uris":{"android":"levelo://app?vid=dc3072d3-15a2-4b0d-8e8d-1985f0080e4f","ios":"levelo://app?vid=dc3072d3-15a2-4b0d-8e8d-1985f0080e4f"},"vehicle_type_id":"4","last_reported":1738674960,"current_range_meters":23200,"station_id":"ce4bhn92rcd13ifvqgrg","pricing_plan_id":"cebpf4jnsgd1na2vs0mg"},{"bike_id":"ea1f4fef-7f3b-4dfe-9b47-e9d0983a53d4","system_id":"levelo_inurba_marseille","lat":43.2873,"lon":5.36114,"is_reserved":false,"is_disabled":false,"rental_uris":{"android":"levelo://app?vid=ea1f4fef-7f3b-4dfe-9b47-e9d0983a53d4","ios":"levelo://app?vid=ea1f4fef-7f3b-4dfe-9b47-e9d0983a53d4"},"vehicle_type_id":"4","last_reported":1738674960,"current_range_meters":16800,"station_id":"cki0cbj6b192h4jlfktg","pricing_plan_id":"cebpf4jnsgd1na2vs0mg"},{"bike_id":"bc6527ef-ae8a-48fd-b4eb-5029b536f5f3","system_id":"levelo_inurba_marseille","lat":43.24663,"lon":5.38166,"is_reserved":false,"is_disabled":false,"rental_uris":{"android":"levelo://app?vid=bc6527ef-ae8a-48fd-b4eb-5029b536f5f3","ios":"levelo://app?vid=bc6527ef-ae8a-48fd-b4eb-5029b536f5f3"},"vehicle_type_id":"4","last_reported":1738674960,"current_range_meters":34800,"station_id":"ce4bhih2rcd13ifvqfr0","pricing_plan_id":"cebpf4jnsgd1na2vs0mg"},{"bike_id":"cb360eae-9e0a-4706-ac77-865a26f70022","system_id":"levelo_inurba_marseille","lat":43.23163,"lon":5.43713,"is_reserved":false,"is_disabled":false,"rental_uris":{"android":"levelo://app?vid=cb360eae-9e0a-4706-ac77-865a26f70022","ios":"levelo://app?vid=cb360eae-9e0a-4706-ac77-865a26f70022"},"vehicle_type_id":"4","last_reported":1738674960,"current_range_meters":13600,"station_id":"ce4bhmp2rcd13ifvqgog","pricing_plan_id":"cebpf4jnsgd1na2vs0mg"},{"bike_id":"35798297-b936-47d1-8a98-bfdb50e14c75","system_id":"levelo_inurba_marseille","lat":43.32097,"lon":5.43293,"is_reserved":false,"is_disabled":true,"rental_uris":{"android":"levelo://app?vid=35798297-b936-47d1-8a98-bfdb50e14c75","ios":"levelo://app?vid=35798297-b936-47d1-8a98-bfdb50e14c75"},"vehicle_type_id":"4","last_reported":1738674960,"current_range_meters":37600,"station_id":"","pricing_plan_id":"cebpf4jnsgd1na2vs0mg"},{"bike_id":"9cd5f3e9-785d-4a9e-b93e-8836911dfa40","system_id":"levelo_inurba_marseille","lat":43.29781,"lon":5.39341,"is_reserved":false,"is_disabled":false,"rental_uris":{"android":"levelo://app?vid=9cd5f3e9-785d-4a9e-b93e-8836911dfa40","ios":"levelo://app?vid=9cd5f3e9-785d-4a9e-b93e-8836911dfa40"},"vehicle_type_id":"4","last_reported":1738674960,"current_range_meters":8000,"station_id":"chh1huq6cuj3fo74tm60","pricing_plan_id":"cebpf4jnsgd1na2vs0mg"},{"bike_id":"e6dc612f-7f56-4634-8aac-2cfefb7b3910","system_id":"levelo_inurba_marseille","lat":43.28282,"lon":5.35072,"is_reserved":false,"is_disabled":true,"rental_uris":{"android":"levelo://app?vid=e6dc612f-7f56-4634-8aac-2cfefb7b3910","ios":"levelo://app?vid=e6dc612f-7f56-4634-8aac-2cfefb7b3910"},"vehicle_type_id":"4","last_reported":1738674960,"current_range_meters":31200,"station_id":"ce4bhbp2rcd13ifvqerg","pricing_plan_id":"cebpf4jnsgd1na2vs0mg"},{"bike_id":"28f8a7f5-18be-410d-ba36-c7b54e69eef0","system_id":"levelo_inurba_marseille","lat":43.3054,"lon":5.36537,"is_reserved":false,"is_disabled":false,"rental_uris":{"android":"levelo://app?vid=28f8a7f5-18be-410d-ba36-c7b54e69eef0","ios":"levelo://app?vid=28f8a7f5-18be-410d-ba36-c7b54e69eef0"},"vehicle_type_id":"4","last_reported":1738674960,"current_range_meters":11200,"station_id":"ce4bgs12rcd13ifvqcag","pricing_plan_id":"cebpf4jnsgd1na2vs0mg"},{"bike_id":"39e60ebb-4194-4901-9e22-464146ea8a8d","system_id":"levelo_inurba_marseille","lat":43.27864,"lon":5.38803,"is_reserved":false,"is_disabled":true,"rental_uris":{"android":"levelo://app?vid=39e60ebb-4194-4901-9e22-464146ea8a8d","ios":"levelo://app?vid=39e60ebb-4194-4901-9e22-464146ea8a8d"},"vehicle_type_id":"4","last_reported":1738674960,"current_range_meters":1600,"station_id":"ce4bhg12rcd13ifvqf80","pricing_plan_id":"cebpf4jnsgd1na2vs0mg"},{"bike_id":"2ba16976-e007-4ad1-ac6e-04c97d20b2d5","system_id":"levelo_inurba_marseille","lat":43.30096,"lon":5.3908,"is_reserved":false,"is_disabled":false,"rental_uris":{"android":"levelo://app?vid=2ba16976-e007-4ad1-ac6e-04c97d20b2d5","ios":"levelo://app?vid=2ba16976-e007-4ad1-ac6e-04c97d20b2d5"},"vehicle_type_id":"4","last_reported":1738674960,"current_range_meters":36800,"station_id":"ce4bh192rcd13ifvqdb0","pricing_plan_id":"cebpf4jnsgd1na2vs0mg"},{"bike_id":"1a590ba1-d7cf-4ac3-b910-1a8d1d9e7737","system_id":"levelo_inurba_marseille","lat":43.25282,"lon":5.40267,"is_reserved":false,"is_disabled":true,"rental_uris":{"android":"levelo://app?vid=1a590ba1-d7cf-4ac3-b910-1a8d1d9e7737","ios":"levelo://app?vid=1a590ba1-d7cf-4ac3-b910-1a8d1d9e7737"},"vehicle_type_id":"4","last_reported":1738674960,"current_range_meters":0,"station_id":"","pricing_plan_id":"cebpf4jnsgd1na2vs0mg"},{"bike_id":"b33a36d4-9a6c-4b95-8224-aed4770c4627","system_id":"levelo_inurba_marseille","lat":43.2751,"lon":5.4244,"is_reserved":false,"is_disabled":true,"rental_uris":{"android":"levelo://app?vid=b33a36d4-9a6c-4b95-8224-aed4770c4627","ios":"levelo://app?vid=b33a36d4-9a6c-4b95-8224-aed4770c4627"},"vehicle_type_id":"4","last_reported":1738674960,"current_range_meters":8000,"station_id":"ce4bhn92rcd13ifvqgrg","pricing_plan_id":"cebpf4jnsgd1na2vs0mg"},{"bike_id":"72683267-a842-4c1d-866d-ba68ffa6f68e","system_id":"levelo_inurba_marseille","lat":43.2959,"lon":5.36741,"is_reserved":false,"is_disabled":false,"rental_uris":{"android":"levelo://app?vid=72683267-a842-4c1d-866d-ba68ffa6f68e","ios":"levelo://app?vid=72683267-a842-4c1d-866d-ba68ffa6f68e"},"vehicle_type_id":"4","last_reported":1738674960,"current_range_meters":38800,"station_id":"ce4bgph2rcd13ifvqc2g","pricing_plan_id":"cebpf4jnsgd1na2vs0mg"},{"bike_id":"ae14429a-f4ea-4b32-930e-11b78348d0f8","system_id":"levelo_inurba_marseille","lat":43.27828,"lon":5.39208,"is_reserved":false,"is_disabled":false,"rental_uris":{"android":"levelo://app?vid=ae14429a-f4ea-4b32-930e-11b78348d0f8","ios":"levelo://app?vid=ae14429a-f4ea-4b32-930e-11b78348d0f8"},"vehicle_type_id":"4","last_reported":1738674960,"current_range_meters":26800,"station_id":"ce4bhjp2rcd13ifvqga0","pricing_plan_id":"cebpf4jnsgd1na2vs0mg"},{"bike_id":"dd6d90c3-35a0-41aa-b551-c5db13d1a11c","system_id":"levelo_inurba_marseille","lat":43.2894,"lon":5.36399,"is_reserved":false,"is_disabled":false,"rental_uris":{"android":"levelo://app?vid=dd6d90c3-35a0-41aa-b551-c5db13d1a11c","ios":"levelo://app?vid=dd6d90c3-35a0-41aa-b551-c5db13d1a11c"},"vehicle_type_id":"4","last_reported":1738674960,"current_range_meters":33600,"station_id":"ce4bhc92rcd13ifvqetg","pricing_plan_id":"cebpf4jnsgd1na2vs0mg"},{"bike_id":"c6544a4f-c228-46ff-937e-d2fb821e8bc8","system_id":"levelo_inurba_marseille","lat":43.28716,"lon":5.36107,"is_reserved":false,"is_disabled":true,"rental_uris":{"android":"levelo://app?vid=c6544a4f-c228-46ff-937e-d2fb821e8bc8","ios":"levelo://app?vid=c6544a4f-c228-46ff-937e-d2fb821e8bc8"},"vehicle_type_id":"4","last_reported":1738674960,"current_range_meters":2000,"station_id":"cki0cbj6b192h4jlfktg","pricing_plan_id":"cebpf4jnsgd1na2vs0mg"},{"bike_id":"6bb18b6b-35db-4080-8375-2a2e83c6fc4b","system_id":"levelo_inurba_marseille","lat":43.23146,"lon":5.43726,"is_reserved":false,"is_disabled":true,"rental_uris":{"android":"levelo://app?vid=6bb18b6b-35db-4080-8375-2a2e83c6fc4b","ios":"levelo://app?vid=6bb18b6b-35db-4080-8375-2a2e83c6fc4b"},"vehicle_type_id":"4","last_reported":1738674960,"current_range_meters":38800,"station_id":"ce4bhmp2rcd13ifvqgog","pricing_plan_id":"cebpf4jnsgd1na2vs0mg"},{"bike_id":"6e575a77-4030-4c2e-9e08-85a8d2317500","system_id":"levelo_inurba_marseille","lat":43.27497,"lon":5.42453,"is_reserved":false,"is_disabled":true,"rental_uris":{"android":"levelo://app?vid=6e575a77-4030-4c2e-9e08-85a8d2317500","ios":"levelo://app?vid=6e575a77-4030-4c2e-9e08-85a8d2317500"},"vehicle_type_id":"4","last_reported":1738674960,"current_range_meters":0,"station_id":"ce4bhn92rcd13ifvqgrg","pricing_plan_id":"cebpf4jnsgd1na2vs0mg"},{"bike_id":"78457c84-afc4-43eb-9af0-e6a59bca3ee6","system_id":"levelo_inurba_marseille","lat":43.27494,"lon":5.42459,"is_reserved":false,"is_disabled":false,"rental_uris":{"android":"levelo://app?vid=78457c84-afc4-43eb-9af0-e6a59bca3ee6","ios":"levelo://app?vid=78457c84-afc4-43eb-9af0-e6a59bca3ee6"},"vehicle_type_id":"4","last_reported":1738674960,"current_range_meters":7200,"station_id":"ce4bhn92rcd13ifvqgrg","pricing_plan_id":"cebpf4jnsgd1na2vs0mg"},{"bike_id":"787b7837-f258-4886-bbf5-841ee39c0166","system_id":"levelo_inurba_marseille","lat":43.28286,"lon":5.35077,"is_reserved":false,"is_disabled":true,"rental_uris":{"android":"levelo://app?vid=787b7837-f258-4886-bbf5-841ee39c0166","ios":"levelo://app?vid=787b7837-f258-4886-bbf5-841ee39c0166"},"vehicle_type_id":"4","last_reported":1738674960,"current_range_meters":37600,"station_id":"ce4bhbp2rcd13ifvqerg","pricing_plan_id":"cebpf4jnsgd1na2vs0mg"},{"bike_id":"35e9be92-813b-4a24-804a-34341a2b466d","system_id":"levelo_inurba_marseille","lat":43.26504,"lon":5.39555,"is_reserved":false,"is_disabled":false,"rental_uris":{"android":"levelo://app?vid=35e9be92-813b-4a24-804a-34341a2b466d","ios":"levelo://app?vid=35e9be92-813b-4a24-804a-34341a2b466d"},"vehicle_type_id":"4","last_reported":1738674960,"current_range_meters":38800,"station_id":"ce4bhi12rcd13ifvqfq0","pricing_plan_id":"cebpf4jnsgd1na2vs0mg"},{"bike_id":"f554b947-83c1-4903-8d42-99f15d0817e7","system_id":"levelo_inurba_marseille","lat":43.2848,"lon":5.38502,"is_reserved":false,"is_disabled":false,"rental_uris":{"android":"levelo://app?vid=f554b947-83c1-4903-8d42-99f15d0817e7","ios":"levelo://app?vid=f554b947-83c1-4903-8d42-99f15d0817e7"},"vehicle_type_id":"4","last_reported":1738674960,"current_range_meters":17600,"station_id":"ce4bh8p2rcd13ifvqeb0","pricing_plan_id":"cebpf4jnsgd1na2vs0mg"},{"bike_id":"e3c6399d-b2a8-46bb-92d8-89ae30f82186","system_id":"levelo_inurba_marseille","lat":43.25587,"lon":5.38245,"is_reserved":false,"is_disabled":true,"rental_uris":{"android":"levelo://app?vid=e3c6399d-b2a8-46bb-92d8-89ae30f82186","ios":"levelo://app?vid=e3c6399d-b2a8-46bb-92d8-89ae30f82186"},"vehicle_type_id":"4","last_reported":1738674960,"current_range_meters":0,"station_id":"ce4bhih2rcd13ifvqfs0","pricing_plan_id":"cebpf4jnsgd1na2vs0mg"},{"bike_id":"5e8aae15-3255-4ede-90c3-f63c2218e99e","system_id":"levelo_inurba_marseille","lat":43.30544,"lon":5.36708,"is_reserved":false,"is_disabled":false,"rental_uris":{"android":"levelo://app?vid=5e8aae15-3255-4ede-90c3-f63c2218e99e","ios":"levelo://app?vid=5e8aae15-3255-4ede-90c3-f63c2218e99e"},"vehicle_type_id":"4","last_reported":1738674960,"current_range_meters":36000,"station_id":"ce4bgrp2rcd13ifvqc9g","pricing_plan_id":"cebpf4jnsgd1na2vs0mg"},{"bike_id":"ebcd7cef-5f7e-4ebe-9167-09a985ccebad","system_id":"levelo_inurba_marseille","lat":43.30894,"lon":5.37187,"is_reserved":false,"is_disabled":false,"rental_uris":{"android":"levelo://app?vid=ebcd7cef-5f7e-4ebe-9167-09a985ccebad","ios":"levelo://app?vid=ebcd7cef-5f7e-4ebe-9167-09a985ccebad"},"vehicle_type_id":"4","last_reported":1738674960,"current_range_meters":36400,"station_id":"ce4bguh2rcd13ifvqckg","pricing_plan_id":"cebpf4jnsgd1na2vs0mg"},{"bike_id":"7abb2d48-2f13-4d6d-991f-410034d4efbb","system_id":"levelo_inurba_marseille","lat":43.30291,"lon":5.37708,"is_reserved":false,"is_disabled":false,"rental_uris":{"android":"levelo://app?vid=7abb2d48-2f13-4d6d-991f-410034d4efbb","ios":"levelo://app?vid=7abb2d48-2f13-4d6d-991f-410034d4efbb"},"vehicle_type_id":"4","last_reported":1738674960,"current_range_meters":34000,"station_id":"ce4bguh2rcd13ifvqcj0","pricing_plan_id":"cebpf4jnsgd1na2vs0mg"},{"bike_id":"eac8e106-76e0-4f1b-81af-4eaefecd2501","system_id":"levelo_inurba_marseille","lat":43.25017,"lon":5.3892,"is_reserved":false,"is_disabled":false,"rental_uris":{"android":"levelo://app?vid=eac8e106-76e0-4f1b-81af-4eaefecd2501","ios":"levelo://app?vid=eac8e106-76e0-4f1b-81af-4eaefecd2501"},"vehicle_type_id":"4","last_reported":1738674960,"current_range_meters":16400,"station_id":"ce4bhgp2rcd13ifvqfd0","pricing_plan_id":"cebpf4jnsgd1na2vs0mg"},{"bike_id":"e8c0d652-28f3-4f82-b6bb-9e11ae34bf36","system_id":"levelo_inurba_marseille","lat":43.30559,"lon":5.36531,"is_reserved":false,"is_disabled":false,"rental_uris":{"android":"levelo://app?vid=e8c0d652-28f3-4f82-b6bb-9e11ae34bf36","ios":"levelo://app?vid=e8c0d652-28f3-4f82-b6bb-9e11ae34bf36"},"vehicle_type_id":"4","last_reported":1738674960,"current_range_meters":30400,"station_id":"ce4bgs12rcd13ifvqcag","pricing_plan_id":"cebpf4jnsgd1na2vs0mg"},{"bike_id":"c3639867-ab6c-4fba-bab5-6ad508a4baeb","system_id":"levelo_inurba_marseille","lat":43.30901,"lon":5.36837,"is_reserved":false,"is_disabled":false,"rental_uris":{"android":"levelo://app?vid=c3639867-ab6c-4fba-bab5-6ad508a4baeb","ios":"levelo://app?vid=c3639867-ab6c-4fba-bab5-6ad508a4baeb"},"vehicle_type_id":"4","last_reported":1738674960,"current_range_meters":25200,"station_id":"ce4bgn92rcd13ifvqbvg","pricing_plan_id":"cebpf4jnsgd1na2vs0mg"},{"bike_id":"5d854341-693a-4482-8cbe-e11dc185dc60","system_id":"levelo_inurba_marseille","lat":43.301264,"lon":5.398579,"is_reserved":false,"is_disabled":false,"rental_uris":{"android":"levelo://app?vid=5d854341-693a-4482-8cbe-e11dc185dc60","ios":"levelo://app?vid=5d854341-693a-4482-8cbe-e11dc185dc60"},"vehicle_type_id":"4","last_reported":1738674960,"current_range_meters":30400,"station_id":"ce4bh0h2rcd13ifvqd40","pricing_plan_id":"cebpf4jnsgd1na2vs0mg"},{"bike_id":"22c89430-f0f5-4c8a-8078-068bbc98b62a","system_id":"levelo_inurba_marseille","lat":43.28847,"lon":5.35851,"is_reserved":false,"is_disabled":false,"rental_uris":{"android":"levelo://app?vid=22c89430-f0f5-4c8a-8078-068bbc98b62a","ios":"levelo://app?vid=22c89430-f0f5-4c8a-8078-068bbc98b62a"},"vehicle_type_id":"4","last_reported":1738674960,"current_range_meters":37600,"station_id":"ce4bhb12rcd13ifvqem0","pricing_plan_id":"cebpf4jnsgd1na2vs0mg"},{"bike_id":"d81dc98d-acf4-49a8-8e45-cf9e3bebd020","system_id":"levelo_inurba_marseille","lat":43.27615,"lon":5.36128,"is_reserved":false,"is_disabled":false,"rental_uris":{"android":"levelo://app?vid=d81dc98d-acf4-49a8-8e45-cf9e3bebd020","ios":"levelo://app?vid=d81dc98d-acf4-49a8-8e45-cf9e3bebd020"},"vehicle_type_id":"4","last_reported":1738674960,"current_range_meters":38800,"station_id":"ce4bgj92rcd13ifvqbe0","pricing_plan_id":"cebpf4jnsgd1na2vs0mg"},{"bike_id":"61ceb31b-03f6-4213-9b34-0374ee45b479","system_id":"levelo_inurba_marseille","lat":43.32162,"lon":5.36779,"is_reserved":false,"is_disabled":false,"rental_uris":{"android":"levelo://app?vid=61ceb31b-03f6-4213-9b34-0374ee45b479","ios":"levelo://app?vid=61ceb31b-03f6-4213-9b34-0374ee45b479"},"vehicle_type_id":"4","last_reported":1738674960,"current_range_meters":24800,"station_id":"","pricing_plan_id":"cebpf4jnsgd1na2vs0mg"},{"bike_id":"841f4406-cdff-4b3f-8ab5-ee007941dd38","system_id":"levelo_inurba_marseille","lat":43.28932,"lon":5.36386,"is_reserved":false,"is_disabled":false,"rental_uris":{"android":"levelo://app?vid=841f4406-cdff-4b3f-8ab5-ee007941dd38","ios":"levelo://app?vid=841f4406-cdff-4b3f-8ab5-ee007941dd38"},"vehicle_type_id":"4","last_reported":1738674960,"current_range_meters":36000,"station_id":"ce4bhc92rcd13ifvqetg","pricing_plan_id":"cebpf4jnsgd1na2vs0mg"},{"bike_id":"a9400fb7-4f95-420d-933a-8ce03860c31d","system_id":"levelo_inurba_marseille","lat":43.27215,"lon":5.39194,"is_reserved":false,"is_disabled":false,"rental_uris":{"android":"levelo://app?vid=a9400fb7-4f95-420d-933a-8ce03860c31d","ios":"levelo://app?vid=a9400fb7-4f95-420d-933a-8ce03860c31d"},"vehicle_type_id":"4","last_reported":1738674960,"current_range_meters":22000,"station_id":"ce4bhhp2rcd13ifvqfm0","pricing_plan_id":"cebpf4jnsgd1na2vs0mg"},{"bike_id":"5bc6287f-5ed6-4b7e-a064-4a574b583e66","system_id":"levelo_inurba_marseille","lat":43.30126,"lon":5.37341,"is_reserved":false,"is_disabled":false,"rental_uris":{"android":"levelo://app?vid=5bc6287f-5ed6-4b7e-a064-4a574b583e66","ios":"levelo://app?vid=5bc6287f-5ed6-4b7e-a064-4a574b583e66"},"vehicle_type_id":"4","last_reported":1738674960,"current_range_meters":26800,"station_id":"","pricing_plan_id":"cebpf4jnsgd1na2vs0mg"},{"bike_id":"45558e41-2602-4f88-886b-86eaba41d2ae","system_id":"levelo_inurba_marseille","lat":43.30209,"lon":5.39455,"is_reserved":false,"is_disabled":false,"rental_uris":{"android":"levelo://app?vid=45558e41-2602-4f88-886b-86eaba41d2ae","ios":"levelo://app?vid=45558e41-2602-4f88-886b-86eaba41d2ae"},"vehicle_type_id":"4","last_reported":1738674960,"current_range_meters":38800,"station_id":"ce4bh0p2rcd13ifvqd70","pricing_plan_id":"cebpf4jnsgd1na2vs0mg"},{"bike_id":"aca7f856-95b0-4e97-8a0a-cf9d567272bd","system_id":"levelo_inurba_marseille","lat":43.23075,"lon":5.355,"is_reserved":false,"is_disabled":false,"rental_uris":{"android":"levelo://app?vid=aca7f856-95b0-4e97-8a0a-cf9d567272bd","ios":"levelo://app?vid=aca7f856-95b0-4e97-8a0a-cf9d567272bd"},"vehicle_type_id":"4","last_reported":1738674960,"current_range_meters":33600,"station_id":"cpo3342slgdg3j2ifvpg","pricing_plan_id":"cebpf4jnsgd1na2vs0mg"},{"bike_id":"66ad8793-4f95-45a0-a366-f3e0edeffe23","system_id":"levelo_inurba_marseille","lat":43.29199,"lon":5.35803,"is_reserved":false,"is_disabled":false,"rental_uris":{"android":"levelo://app?vid=66ad8793-4f95-45a0-a366-f3e0edeffe23","ios":"levelo://app?vid=66ad8793-4f95-45a0-a366-f3e0edeffe23"},"vehicle_type_id":"4","last_reported":1738674960,"current_range_meters":29600,"station_id":"ce4bhb12rcd13ifvqel0","pricing_plan_id":"cebpf4jnsgd1na2vs0mg"},{"bike_id":"25047966-b320-4605-9f52-2f47d91d8d1f","system_id":"levelo_inurba_marseille","lat":43.29577,"lon":5.39978,"is_reserved":false,"is_disabled":false,"rental_uris":{"android":"levelo://app?vid=25047966-b320-4605-9f52-2f47d91d8d1f","ios":"levelo://app?vid=25047966-b320-4605-9f52-2f47d91d8d1f"},"vehicle_type_id":"4","last_reported":1738674960,"current_range_meters":18800,"station_id":"ce4bh312rcd13ifvqdj0","pricing_plan_id":"cebpf4jnsgd1na2vs0mg"},{"bike_id":"e5f34f7c-c503-40c2-aeb7-a92c676b8443","system_id":"levelo_inurba_marseille","lat":43.2873,"lon":5.39976,"is_reserved":false,"is_disabled":true,"rental_uris":{"android":"levelo://app?vid=e5f34f7c-c503-40c2-aeb7-a92c676b8443","ios":"levelo://app?vid=e5f34f7c-c503-40c2-aeb7-a92c676b8443"},"vehicle_type_id":"4","last_reported":1738674960,"current_range_meters":0,"station_id":"ce4bho92rcd13ifvqh3g","pricing_plan_id":"cebpf4jnsgd1na2vs0mg"},{"bike_id":"06b948e0-80a8-479d-b506-6c0e8883522c","system_id":"levelo_inurba_marseille","lat":43.30551,"lon":5.36695,"is_reserved":false,"is_disabled":false,"rental_uris":{"android":"levelo://app?vid=06b948e0-80a8-479d-b506-6c0e8883522c","ios":"levelo://app?vid=06b948e0-80a8-479d-b506-6c0e8883522c"},"vehicle_type_id":"4","last_reported":1738674960,"current_range_meters":38000,"station_id":"ce4bgrp2rcd13ifvqc9g","pricing_plan_id":"cebpf4jnsgd1na2vs0mg"},{"bike_id":"982759eb-b654-4e86-8e5f-84ccdf0fd4f4","system_id":"levelo_inurba_marseille","lat":43.30777,"lon":5.37648,"is_reserved":false,"is_disabled":false,"rental_uris":{"android":"levelo://app?vid=982759eb-b654-4e86-8e5f-84ccdf0fd4f4","ios":"levelo://app?vid=982759eb-b654-4e86-8e5f-84ccdf0fd4f4"},"vehicle_type_id":"4","last_reported":1738674960,"current_range_meters":38800,"station_id":"ce4bgv92rcd13ifvqcq0","pricing_plan_id":"cebpf4jnsgd1na2vs0mg"},{"bike_id":"40bdcfb2-751b-4558-b6d4-3ac74ace0aab","system_id":"levelo_inurba_marseille","lat":43.33781,"lon":5.37486,"is_reserved":false,"is_disabled":true,"rental_uris":{"android":"levelo://app?vid=40bdcfb2-751b-4558-b6d4-3ac74ace0aab","ios":"levelo://app?vid=40bdcfb2-751b-4558-b6d4-3ac74ace0aab"},"vehicle_type_id":"4","last_reported":1738674960,"current_range_meters":0,"station_id":"","pricing_plan_id":"cebpf4jnsgd1na2vs0mg"},{"bike_id":"0e62b167-dd1c-49ee-be4a-aebffb1b8fe9","system_id":"levelo_inurba_marseille","lat":43.29807,"lon":5.38091,"is_reserved":false,"is_disabled":false,"rental_uris":{"android":"levelo://app?vid=0e62b167-dd1c-49ee-be4a-aebffb1b8fe9","ios":"levelo://app?vid=0e62b167-dd1c-49ee-be4a-aebffb1b8fe9"},"vehicle_type_id":"4","last_reported":1738674960,"current_range_meters":38000,"station_id":"ce4bgip2rcd13ifvqbb0","pricing_plan_id":"cebpf4jnsgd1na2vs0mg"},{"bike_id":"f22ab9c4-4472-465c-9846-9bcae534d3af","system_id":"levelo_inurba_marseille","lat":43.32381,"lon":5.36783,"is_reserved":false,"is_disabled":false,"rental_uris":{"android":"levelo://app?vid=f22ab9c4-4472-465c-9846-9bcae534d3af","ios":"levelo://app?vid=f22ab9c4-4472-465c-9846-9bcae534d3af"},"vehicle_type_id":"4","last_reported":1738674960,"current_range_meters":30000,"station_id":"ce4bhsh2rcd13ifvqi2g","pricing_plan_id":"cebpf4jnsgd1na2vs0mg"},{"bike_id":"4f0d7afb-7919-4d92-a699-5b52ab930452","system_id":"levelo_inurba_marseille","lat":43.25831,"lon":5.39413,"is_reserved":false,"is_disabled":false,"rental_uris":{"android":"levelo://app?vid=4f0d7afb-7919-4d92-a699-5b52ab930452","ios":"levelo://app?vid=4f0d7afb-7919-4d92-a699-5b52ab930452"},"vehicle_type_id":"4","last_reported":1738674960,"current_range_meters":37600,"station_id":"ce4bhip2rcd13ifvqft0","pricing_plan_id":"cebpf4jnsgd1na2vs0mg"},{"bike_id":"7b39ed00-86df-4303-bda1-bfc0fee1e7e2","system_id":"levelo_inurba_marseille","lat":43.32461,"lon":5.45536,"is_reserved":false,"is_disabled":false,"rental_uris":{"android":"levelo://app?vid=7b39ed00-86df-4303-bda1-bfc0fee1e7e2","ios":"levelo://app?vid=7b39ed00-86df-4303-bda1-bfc0fee1e7e2"},"vehicle_type_id":"4","last_reported":1738674960,"current_range_meters":24800,"station_id":"","pricing_plan_id":"cebpf4jnsgd1na2vs0mg"},{"bike_id":"2d6767c0-1313-4ab9-90d1-1691bd24bfe9","system_id":"levelo_inurba_marseille","lat":43.28941,"lon":5.36636,"is_reserved":false,"is_disabled":false,"rental_uris":{"android":"levelo://app?vid=2d6767c0-1313-4ab9-90d1-1691bd24bfe9","ios":"levelo://app?vid=2d6767c0-1313-4ab9-90d1-1691bd24bfe9"},"vehicle_type_id":"4","last_reported":1738674960,"current_range_meters":38400,"station_id":"ce4bhap2rcd13ifvqek0","pricing_plan_id":"cebpf4jnsgd1na2vs0mg"},{"bike_id":"771e725a-d615-420e-82e0-db8d4144a910","system_id":"levelo_inurba_marseille","lat":43.32488,"lon":5.36551,"is_reserved":false,"is_disabled":false,"rental_uris":{"android":"levelo://app?vid=771e725a-d615-420e-82e0-db8d4144a910","ios":"levelo://app?vid=771e725a-d615-420e-82e0-db8d4144a910"},"vehicle_type_id":"4","last_reported":1738674960,"current_range_meters":24000,"station_id":"ce4bhs12rcd13ifvqhvg","pricing_plan_id":"cebpf4jnsgd1na2vs0mg"},{"bike_id":"edbbb982-1b47-4a32-a728-95be045ac446","system_id":"levelo_inurba_marseille","lat":43.29982,"lon":5.37158,"is_reserved":false,"is_disabled":false,"rental_uris":{"android":"levelo://app?vid=edbbb982-1b47-4a32-a728-95be045ac446","ios":"levelo://app?vid=edbbb982-1b47-4a32-a728-95be045ac446"},"vehicle_type_id":"4","last_reported":1738674960,"current_range_meters":39200,"station_id":"ce4bgr92rcd13ifvqc7g","pricing_plan_id":"cebpf4jnsgd1na2vs0mg"},{"bike_id":"31534464-a915-4d39-b204-d521bb2268b2","system_id":"levelo_inurba_marseille","lat":43.26694,"lon":5.38264,"is_reserved":false,"is_disabled":false,"rental_uris":{"android":"levelo://app?vid=31534464-a915-4d39-b204-d521bb2268b2","ios":"levelo://app?vid=31534464-a915-4d39-b204-d521bb2268b2"},"vehicle_type_id":"4","last_reported":1738674960,"current_range_meters":2800,"station_id":"ce4bhg92rcd13ifvqf90","pricing_plan_id":"cebpf4jnsgd1na2vs0mg"},{"bike_id":"06d53856-6963-4380-9724-132560d8f796","system_id":"levelo_inurba_marseille","lat":43.25824,"lon":5.39437,"is_reserved":false,"is_disabled":false,"rental_uris":{"android":"levelo://app?vid=06d53856-6963-4380-9724-132560d8f796","ios":"levelo://app?vid=06d53856-6963-4380-9724-132560d8f796"},"vehicle_type_id":"4","last_reported":1738674960,"current_range_meters":38800,"station_id":"ce4bhip2rcd13ifvqft0","pricing_plan_id":"cebpf4jnsgd1na2vs0mg"},{"bike_id":"c7efea0b-41ab-47c4-93f0-43a53000a63b","system_id":"levelo_inurba_marseille","lat":43.2308,"lon":5.35489,"is_reserved":false,"is_disabled":false,"rental_uris":{"android":"levelo://app?vid=c7efea0b-41ab-47c4-93f0-43a53000a63b","ios":"levelo://app?vid=c7efea0b-41ab-47c4-93f0-43a53000a63b"},