{"last_updated":1725815263,"ttl":30,"version":"2.2","data":{"bikes":[{"bike_id":"fc41f49c-1eff-4375-a11e-5c220fdd964a","system_id":"levelo_inurba_marseille","lat":43.31341,"lon":5.367098,"is_reserved":false,"is_disabled":false,"rental_uris":{"android":"levelo://app?vid=fc41f49c-1eff-4375-a11e-5c220fdd964a","ios":"levelo://app?vid=fc41f49c-1eff-4375-a11e-5c220fdd964a"},"vehicle_type_id":"4","last_reported":1725815263,"current_range_meters":24800,"station_id":"ce4bgr92rcd13ifvqc6g","pricing_plan_id":"cebpf4jnsgd1na2vs0mg"},{"bike_id":"ece456e4-0117-4156-b6e4-84e76055074a","system_id":"levelo_inurba_marseille","lat":43.309076,"lon":5.368465,"is_reserved":false,"is_disabled":false,"rental_uris":{"android":"levelo://app?vid=ece456e4-0117-4156-b6e4-84e76055074a","ios":"levelo://app?vid=ece456e4-0117-4156-b6e4-84e76055074a"},"vehicle_type_id":"4","last_reported":1725815263,"current_range_meters":25200,"station_id":"ce4bgn92rcd13ifvqbvg","pricing_plan_id":"cebpf4jnsgd1na2vs0mg"},{"bike_id":"b03996d1-9bca-4981-91d7-9c6e1541706d","system_id":"levelo_inurba_marseille","lat":43.314811,"lon":5.373103,"is_reserved":false,"is_disabled":false,"rental_uris":{"android":"levelo://app?vid=b03996d1-9bca-4981-91d7-9c6e1541706d","ios":"levelo://app?vid=b03996d1-9bca-4981-91d7-9c6e1541706d"},"vehicle_type_id":"4","last_reported":1725815263,"current_range_meters":29200,"station_id":"ce4bgt12rcd13ifvqcd0","pricing_plan_id":"cebpf4jnsgd1na2vs0mg"},{"bike_id":"9eaf78ea-975f-446c-bb37-4949d6f5be54","system_id":"levelo_inurba_marseille","lat":43.308217,"lon":5.37137,"is_reserved":false,"is_disabled":false,"rental_uris":{"android":"levelo://app?vid=9eaf78ea-975f-446c-bb37-4949d6f5be54","ios":"levelo://app?vid=9eaf78ea-975f-446c-bb37-4949d6f5be54"},"vehicle_type_id":"4","last_reported":1725815263,"current_range_meters":30400,"station_id":"","pricing_plan_id":"cebpf4jnsgd1na2vs0mg"},{"bike_id":"d4b148ac-889c-41c3-be96-97f7674dc89f","system_id":"levelo_inurba_marseille","lat":43.3178,"lon":5.37223,"is_reserved":false,"is_disabled":false,"rental_uris":{"android":"levelo://app?vid=d4b148ac-889c-41c3-be96-97f7674dc89f","ios":"levelo://app?vid=d4b148ac-889c-41c3-be96-97f7674dc89f"},"vehicle_type_id":"4","last_reported":1725815263,"current_range_meters":20000,"station_id":"","pricing_plan_id":"cebpf4jnsgd1na2vs0mg"},{"bike_id":"ea826bfa-85f4-42d7-a62d-7264c87ae61b","system_id":"levelo_inurba_marseille","lat":43.305712,"lon":5.365641,"is_reserved":false,"is_disabled":false,"rental_uris":{"android":"levelo://app?vid=ea826bfa-85f4-42d7-a62d-7264c87ae61b","ios":"levelo://app?vid=ea826bfa-85f4-42d7-a62d-7264c87ae61b"},"vehicle_type_id":"4","last_reported":1725815263,"current_range_meters":31200,"station_id":"ce4bgs12rcd13ifvqcag","pricing_plan_id":"cebpf4jnsgd1na2vs0mg"},{"bike_id":"d73f8d5b-c336-4f69-a4da-964e3d2faca2","system_id":"levelo_inurba_marseille","lat":43.30541,"lon":5.36538,"is_reserved":false,"is_disabled":false,"rental_uris":{"android":"levelo://app?vid=d73f8d5b-c336-4f69-a4da-964e3d2faca2","ios":"levelo://app?vid=d73f8d5b-c336-4f69-a4da-964e3d2faca2"},"vehicle_type_id":"4","last_reported":1725815263,"current_range_meters":0,"station_id":"ce4bgs12rcd13ifvqcag","pricing_plan_id":"cebpf4jnsgd1na2vs0mg"},{"bike_id":"abfa8884-3d1c-48eb-8283-9f4ccef59c84","system_id":"levelo_inurba_marseille","lat":43.305714,"lon":5.365633,"is_reserved":false,"is_disabled":false,"rental_uris":{"android":"levelo://app?vid=abfa8884-3d1c-48eb-8283-9f4ccef59c84","ios":"levelo://app?vid=abfa8884-3d1c-48eb-8283-9f4ccef59c84"},"vehicle_type_id":"4","last_reported":1725815263,"current_range_meters":0,"station_id":"ce4bgs12rcd13ifvqcag","pricing_plan_id":"cebpf4jnsgd1na2vs0mg"},{"bike_id":"b2271a95-235b-4292-a747-ff96c2ad1624","system_id":"levelo_inurba_marseille","lat":43.305989,"lon":5.37225,"is_reserved":false,"is_disabled":false,"rental_uris":{"android":"levelo://app?vid=b2271a95-235b-4292-a747-ff96c2ad1624","ios":"levelo://app?vid=b2271a95-235b-4292-a747-ff96c2ad1624"},"vehicle_type_id":"4","last_reported":1725815263,"current_range_meters":0,"station_id":"ce4bgqh2rcd13ifvqc4g","pricing_plan_id":"cebpf4jnsgd1na2vs0mg"},{"bike_id":"811ce60a-3022-4964-894f-7775c528a80b","system_id":"levelo_inurba_marseille","lat":43.305989,"lon":5.37225,"is_reserved":false,"is_disabled":false,"rental_uris":{"android":"levelo://app?vid=811ce60a-3022-4964-894f-7775c528a80b","ios":"levelo://app?vid=811ce60a-3022-4964-894f-7775c528a80b"},"vehicle_type_id":"4","last_reported":1725815263,"current_range_meters":24400,"station_id":"ce4bgqh2rcd13ifvqc4g","pricing_plan_id":"cebpf4jnsgd1na2vs0mg"},{"bike_id":"1823b88c-f78a-4939-8829-afcccf4bd1e7","system_id":"levelo_inurba_marseille","lat":43.311125,"lon":5.377624,"is_reserved":false,"is_disabled":false,"rental_uris":{"android":"levelo://app?vid=1823b88c-f78a-4939-8829-afcccf4bd1e7","ios":"levelo://app?vid=1823b88c-f78a-4939-8829-afcccf4bd1e7"},"vehicle_type_id":"4","last_reported":1725815263,"current_range_meters":17600,"station_id":"ce4bgt92rcd13ifvqcg0","pricing_plan_id":"cebpf4jnsgd1na2vs0mg"},{"bike_id":"4e5a8917-a9e2-4440-beea-3ed078c55584","system_id":"levelo_inurba_marseille","lat":43.307945,"lon":5.376487,"is_reserved":false,"is_disabled":false,"rental_uris":{"android":"levelo://app?vid=4e5a8917-a9e2-4440-beea-3ed078c55584","ios":"levelo://app?vid=4e5a8917-a9e2-4440-beea-3ed078c55584"},"vehicle_type_id":"4","last_reported":1725815263,"current_range_meters":17200,"station_id":"ce4bgv92rcd13ifvqcq0","pricing_plan_id":"cebpf4jnsgd1na2vs0mg"},{"bike_id":"bf79dfac-4d8d-4b6e-ac0f-f6d4a2ab8135","system_id":"levelo_inurba_marseille","lat":43.30794,"lon":5.37659,"is_reserved":false,"is_disabled":false,"rental_uris":{"android":"levelo://app?vid=bf79dfac-4d8d-4b6e-ac0f-f6d4a2ab8135","ios":"levelo://app?vid=bf79dfac-4d8d-4b6e-ac0f-f6d4a2ab8135"},"vehicle_type_id":"4","last_reported":1725815263,"current_range_meters":0,"station_id":"ce4bgv92rcd13ifvqcq0","pricing_plan_id":"cebpf4jnsgd1na2vs0mg"},{"bike_id":"f94766f9-e62d-485d-9c46-c95e702474ab","system_id":"levelo_inurba_marseille","lat":43.317075,"lon":5.377367,"is_reserved":false,"is_disabled":false,"rental_uris":{"android":"levelo://app?vid=f94766f9-e62d-485d-9c46-c95e702474ab","ios":"levelo://app?vid=f94766f9-e62d-485d-9c46-c95e702474ab"},"vehicle_type_id":"4","last_reported":1725815263,"current_range_meters":18800,"station_id":"ce4bgth2rcd13ifvqch0","pricing_plan_id":"cebpf4jnsgd1na2vs0mg"},{"bike_id":"a4adebcc-2100-4f8f-a7df-69b3cc0bca7c","system_id":"levelo_inurba_marseille","lat":43.317075,"lon":5.377367,"is_reserved":false,"is_disabled":false,"rental_uris":{"android":"levelo://app?vid=a4adebcc-2100-4f8f-a7df-69b3cc0bca7c","ios":"levelo://app?vid=a4adebcc-2100-4f8f-a7df-69b3cc0bca7c"},"vehicle_type_id":"4","last_reported":1725815263,"current_range_meters":31600,"station_id":"ce4bgth2rcd13ifvqch0","pricing_plan_id":"cebpf4jnsgd1na2vs0mg"},{"bike_id":"8a571155-8318-4199-a0e6-6b03f4e147ab","system_id":"levelo_inurba_marseille","lat":43.317075,"lon":5.377367,"is_reserved":false,"is_disabled":false,"rental_uris":{"android":"levelo://app?vid=8a571155-8318-4199-a0e6-6b03f4e147ab","ios":"levelo://app?vid=8a571155-8318-4199-a0e6-6b03f4e147ab"},"vehicle_type_id":"4","last_reported":1725815263,"current_range_meters":7600,"station_id":"ce4bgth2rcd13ifvqch0","pricing_plan_id":"cebpf4jnsgd1na2vs0mg"},{"bike_id":"da566e56-6622-4890-bf66-87df86965ede","system_id":"levelo_inurba_marseille","lat":43.317143,"lon":5.37761,"is_reserved":false,"is_disabled":false,"rental_uris":{"android":"levelo://app?vid=da566e56-6622-4890-bf66-87df86965ede","ios":"levelo://app?vid=da566e56-6622-4890-bf66-87df86965ede"},"vehicle_type_id":"4","last_reported":1725815263,"current_range_meters":30800,"station_id":"ce4bgth2rcd13ifvqch0","pricing_plan_id":"cebpf4jnsgd1na2vs0mg"},{"bike_id":"e6240958-5766-4e43-be3c-5414d3e93fa9","system_id":"levelo_inurba_marseille","lat":43.31354,"lon":5.37918,"is_reserved":false,"is_disabled":false,"rental_uris":{"android":"levelo://app?vid=e6240958-5766-4e43-be3c-5414d3e93fa9","ios":"levelo://app?vid=e6240958-5766-4e43-be3c-5414d3e93fa9"},"vehicle_type_id":"4","last_reported":1725815263,"current_range_meters":18800,"station_id":"","pricing_plan_id":"cebpf4jnsgd1na2vs0mg"},{"bike_id":"7ab8715e-bd15-4872-86cc-dc0b6a89da37","system_id":"levelo_inurba_marseille","lat":43.315289,"lon":5.380349,"is_reserved":false,"is_disabled":false,"rental_uris":{"android":"levelo://app?vid=7ab8715e-bd15-4872-86cc-dc0b6a89da37","ios":"levelo://app?vid=7ab8715e-bd15-4872-86cc-dc0b6a89da37"},"vehicle_type_id":"4","last_reported":1725815263,"current_range_meters":10800,"station_id":"ce4bhsp2rcd13ifvqi50","pricing_plan_id":"cebpf4jnsgd1na2vs0mg"},{"bike_id":"9b7cecf6-f14c-4888-85b5-db8e628e3791","system_id":"levelo_inurba_marseille","lat":43.301939,"lon":5.366286,"is_reserved":false,"is_disabled":false,"rental_uris":{"android":"levelo://app?vid=9b7cecf6-f14c-4888-85b5-db8e628e3791","ios":"levelo://app?vid=9b7cecf6-f14c-4888-85b5-db8e628e3791"},"vehicle_type_id":"4","last_reported":1725815263,"current_range_meters":12400,"station_id":"ce4bgrh2rcd13ifvqc8g","pricing_plan_id":"cebpf4jnsgd1na2vs0mg"},{"bike_id":"1ec65cf9-1ec2-4214-afbf-409f5863ed41","system_id":"levelo_inurba_marseille","lat":43.308012,"lon":5.381511,"is_reserved":false,"is_disabled":false,"rental_uris":{"android":"levelo://app?vid=1ec65cf9-1ec2-4214-afbf-409f5863ed41","ios":"levelo://app?vid=1ec65cf9-1ec2-4214-afbf-409f5863ed41"},"vehicle_type_id":"4","last_reported":1725815263,"current_range_meters":22400,"station_id":"ce4bgt12rcd13ifvqce0","pricing_plan_id":"cebpf4jnsgd1na2vs0mg"},{"bike_id":"7d5dc096-e09c-4f65-af17-7527aaf046f2","system_id":"levelo_inurba_marseille","lat":43.324771,"lon":5.36557,"is_reserved":false,"is_disabled":false,"rental_uris":{"android":"levelo://app?vid=7d5dc096-e09c-4f65-af17-7527aaf046f2","ios":"levelo://app?vid=7d5dc096-e09c-4f65-af17-7527aaf046f2"},"vehicle_type_id":"4","last_reported":1725815263,"current_range_meters":30800,"station_id":"ce4bhs12rcd13ifvqhvg","pricing_plan_id":"cebpf4jnsgd1na2vs0mg"},{"bike_id":"15366ac0-6c82-4df6-bf9c-aefdeeffe81e","system_id":"levelo_inurba_marseille","lat":43.324771,"lon":5.36557,"is_reserved":false,"is_disabled":false,"rental_uris":{"android":"levelo://app?vid=15366ac0-6c82-4df6-bf9c-aefdeeffe81e","ios":"levelo://app?vid=15366ac0-6c82-4df6-bf9c-aefdeeffe81e"},"vehicle_type_id":"4","last_reported":1725815263,"current_range_meters":14800,"station_id":"ce4bhs12rcd13ifvqhvg","pricing_plan_id":"cebpf4jnsgd1na2vs0mg"},{"bike_id":"f4cf2b14-0787-453d-b183-96238c9a5283","system_id":"levelo_inurba_marseille","lat":43.32483,"lon":5.36558,"is_reserved":false,"is_disabled":false,"rental_uris":{"android":"levelo://app?vid=f4cf2b14-0787-453d-b183-96238c9a5283","ios":"levelo://app?vid=f4cf2b14-0787-453d-b183-96238c9a5283"},"vehicle_type_id":"4","last_reported":1725815263,"current_range_meters":31200,"station_id":"ce4bhs12rcd13ifvqhvg","pricing_plan_id":"cebpf4jnsgd1na2vs0mg"},{"bike_id":"517c6418-f24b-410c-936b-da4943fd859c","system_id":"levelo_inurba_marseille","lat":43.324771,"lon":5.36557,"is_reserved":false,"is_disabled":false,"rental_uris":{"android":"levelo://app?vid=517c6418-f24b-410c-936b-da4943fd859c","ios":"levelo://app?vid=517c6418-f24b-410c-936b-da4943fd859c"},"vehicle_type_id":"4","last_reported":1725815263,"current_range_meters":20000,"station_id":"ce4bhs12rcd13ifvqhvg","pricing_plan_id":"cebpf4jnsgd1na2vs0mg"},{"bike_id":"8111d373-d8ce-46c3-8612-d016e1f13fb5","system_id":"levelo_inurba_marseille","lat":43.324771,"lon":5.36557,"is_reserved":false,"is_disabled":false,"rental_uris":{"android":"levelo://app?vid=8111d373-d8ce-46c3-8612-d016e1f13fb5","ios":"levelo://app?vid=8111d373-d8ce-46c3-8612-d016e1f13fb5"},"vehicle_type_id":"4","last_reported":1725815263,"current_range_meters":28800,"station_id":"ce4bhs12rcd13ifvqhvg","pricing_plan_id":"cebpf4jnsgd1na2vs0mg"},{"bike_id":"d22bcbbd-7590-47b3-8223-4cc9c614db33","system_id":"levelo_inurba_marseille","lat":43.310804,"lon":5.38359,"is_reserved":false,"is_disabled":false,"rental_uris":{"android":"levelo://app?vid=d22bcbbd-7590-47b3-8223-4cc9c614db33","ios":"levelo://app?vid=d22bcbbd-7590-47b3-8223-4cc9c614db33"},"vehicle_type_id":"4","last_reported":1725815263,"current_range_meters":18400,"station_id":"ce4bgv92rcd13ifvqcr0","pricing_plan_id":"cebpf4jnsgd1na2vs0mg"},{"bike_id":"8a780604-247b-47f8-8506-9d91af66a595","system_id":"levelo_inurba_marseille","lat":43.302784,"lon":5.377158,"is_reserved":false,"is_disabled":false,"rental_uris":{"android":"levelo://app?vid=8a780604-247b-47f8-8506-9d91af66a595","ios":"levelo://app?vid=8a780604-247b-47f8-8506-9d91af66a595"},"vehicle_type_id":"4","last_reported":1725815263,"current_range_meters":15600,"station_id":"ce4bguh2rcd13ifvqcj0","pricing_plan_id":"cebpf4jnsgd1na2vs0mg"},{"bike_id":"2a56ff5a-7d55-4899-ba79-9c1a01077a95","system_id":"levelo_inurba_marseille","lat":43.301429,"lon":5.37413,"is_reserved":false,"is_disabled":false,"rental_uris":{"android":"levelo://app?vid=2a56ff5a-7d55-4899-ba79-9c1a01077a95","ios":"levelo://app?vid=2a56ff5a-7d55-4899-ba79-9c1a01077a95"},"vehicle_type_id":"4","last_reported":1725815263,"current_range_meters":4000,"station_id":"ce4bgs92rcd13ifvqcc0","pricing_plan_id":"cebpf4jnsgd1na2vs0mg"},{"bike_id":"67d4d8cb-6d39-4214-8161-d25f595a39a0","system_id":"levelo_inurba_marseille","lat":43.31994,"lon":5.38152,"is_reserved":false,"is_disabled":false,"rental_uris":{"android":"levelo://app?vid=67d4d8cb-6d39-4214-8161-d25f595a39a0","ios":"levelo://app?vid=67d4d8cb-6d39-4214-8161-d25f595a39a0"},"vehicle_type_id":"4","last_reported":1725815263,"current_range_meters":3600,"station_id":"ce4bhr12rcd13ifvqhpg","pricing_plan_id":"cebpf4jnsgd1na2vs0mg"},{"bike_id":"d60cdb4d-c076-41d1-8789-e2bc8f17ed68","system_id":"levelo_inurba_marseille","lat":43.319935,"lon":5.381699,"is_reserved":false,"is_disabled":false,"rental_uris":{"android":"levelo://app?vid=d60cdb4d-c076-41d1-8789-e2bc8f17ed68","ios":"levelo://app?vid=d60cdb4d-c076-41d1-8789-e2bc8f17ed68"},"vehicle_type_id":"4","last_reported":1725815263,"current_range_meters":23600,"station_id":"ce4bhr12rcd13ifvqhpg","pricing_plan_id":"cebpf4jnsgd1na2vs0mg"},{"bike_id":"73e8a2b3-516a-4661-abfe-8a7fbebdb342","system_id":"levelo_inurba_marseille","lat":43.313571,"lon":5.384829,"is_reserved":false,"is_disabled":false,"rental_uris":{"android":"levelo://app?vid=73e8a2b3-516a-4661-abfe-8a7fbebdb342","ios":"levelo://app?vid=73e8a2b3-516a-4661-abfe-8a7fbebdb342"},"vehicle_type_id":"4","last_reported":1725815263,"current_range_meters":0,"station_id":"ce4bgt92rcd13ifvqcf0","pricing_plan_id":"cebpf4jnsgd1na2vs0mg"},{"bike_id":"3e3bf617-9efe-48eb-bb9a-16ed12671c55","system_id":"levelo_inurba_marseille","lat":43.299846,"lon":5.371733,"is_reserved":false,"is_disabled":false,"rental_uris":{"android":"levelo://app?vid=3e3bf617-9efe-48eb-bb9a-16ed12671c55","ios":"levelo://app?vid=3e3bf617-9efe-48eb-bb9a-16ed12671c55"},"vehicle_type_id":"4","last_reported":1725815263,"current_range_meters":27600,"station_id":"ce4bgr92rcd13ifvqc7g","pricing_plan_id":"cebpf4jnsgd1na2vs0mg"},{"bike_id":"3b1ebd99-2a60-4ff9-a34b-4e25a20d287c","system_id":"levelo_inurba_marseille","lat":43.299724,"lon":5.371829,"is_reserved":false,"is_disabled":false,"rental_uris":{"android":"levelo://app?vid=3b1ebd99-2a60-4ff9-a34b-4e25a20d287c","ios":"levelo://app?vid=3b1ebd99-2a60-4ff9-a34b-4e25a20d287c"},"vehicle_type_id":"4","last_reported":1725815263,"current_range_meters":9600,"station_id":"ce4bgr92rcd13ifvqc7g","pricing_plan_id":"cebpf4jnsgd1na2vs0mg"},{"bike_id":"6b52b2fd-1549-4aef-82f7-6b8b9c2a9ebb","system_id":"levelo_inurba_marseille","lat":43.305787,"lon":5.383683,"is_reserved":false,"is_disabled":false,"rental_uris":{"android":"levelo://app?vid=6b52b2fd-1549-4aef-82f7-6b8b9c2a9ebb","ios":"levelo://app?vid=6b52b2fd-1549-4aef-82f7-6b8b9c2a9ebb"},"vehicle_type_id":"4","last_reported":1725815263,"current_range_meters":0,"station_id":"","pricing_plan_id":"cebpf4jnsgd1na2vs0mg"},{"bike_id":"bab08c8f-10c0-440f-a145-636db1bef1af","system_id":"levelo_inurba_marseille","lat":43.298433,"lon":5.362774,"is_reserved":false,"is_disabled":false,"rental_uris":{"android":"levelo://app?vid=bab08c8f-10c0-440f-a145-636db1bef1af","ios":"levelo://app?vid=bab08c8f-10c0-440f-a145-636db1bef1af"},"vehicle_type_id":"4","last_reported":1725815263,"current_range_meters":0,"station_id":"ce4bgpp2rcd13ifvqc3g","pricing_plan_id":"cebpf4jnsgd1na2vs0mg"},{"bike_id":"8e342a21-ca17-43fb-aba9-e0fc916ae006","system_id":"levelo_inurba_marseille","lat":43.305364,"lon":5.384119,"is_reserved":false,"is_disabled":false,"rental_uris":{"android":"levelo://app?vid=8e342a21-ca17-43fb-aba9-e0fc916ae006","ios":"levelo://app?vid=8e342a21-ca17-43fb-aba9-e0fc916ae006"},"vehicle_type_id":"4","last_reported":1725815263,"current_range_meters":16800,"station_id":"ce4bgg92rcd13ifvqb30","pricing_plan_id":"cebpf4jnsgd1na2vs0mg"},{"bike_id":"f6236abf-1bfe-4a7f-b235-a2a648792fa7","system_id":"levelo_inurba_marseille","lat":43.31168,"lon":5.38708,"is_reserved":false,"is_disabled":false,"rental_uris":{"android":"levelo://app?vid=f6236abf-1bfe-4a7f-b235-a2a648792fa7","ios":"levelo://app?vid=f6236abf-1bfe-4a7f-b235-a2a648792fa7"},"vehicle_type_id":"4","last_reported":1725815263,"current_range_meters":18000,"station_id":"ce4bgv12rcd13ifvqcp0","pricing_plan_id":"cebpf4jnsgd1na2vs0mg"},{"bike_id":"edde6fdf-a5e5-4753-b65a-202db0acb5ee","system_id":"levelo_inurba_marseille","lat":43.299243,"lon":5.37481,"is_reserved":false,"is_disabled":false,"rental_uris":{"android":"levelo://app?vid=edde6fdf-a5e5-4753-b65a-202db0acb5ee","ios":"levelo://app?vid=edde6fdf-a5e5-4753-b65a-202db0acb5ee"},"vehicle_type_id":"4","last_reported":1725815263,"current_range_meters":5200,"station_id":"ce4bgjh2rcd13ifvqbg0","pricing_plan_id":"cebpf4jnsgd1na2vs0mg"},{"bike_id":"f7571495-1e44-4287-86ec-eb398fd233f5","system_id":"levelo_inurba_marseille","lat":43.301498,"lon":5.380773,"is_reserved":false,"is_disabled":false,"rental_uris":{"android":"levelo://app?vid=f7571495-1e44-4287-86ec-eb398fd233f5","ios":"levelo://app?vid=f7571495-1e44-4287-86ec-eb398fd233f5"},"vehicle_type_id":"4","last_reported":1725815263,"current_range_meters":0,"station_id":"ce4bgjp2rcd13ifvqbh0","pricing_plan_id":"cebpf4jnsgd1na2vs0mg"},{"bike_id":"62953769-bad5-49c0-81ed-44b4d9f5698f","system_id":"levelo_inurba_marseille","lat":43.297846,"lon":5.371125,"is_reserved":false,"is_disabled":false,"rental_uris":{"android":"levelo://app?vid=62953769-bad5-49c0-81ed-44b4d9f5698f","ios":"levelo://app?vid=62953769-bad5-49c0-81ed-44b4d9f5698f"},"vehicle_type_id":"4","last_reported":1725815263,"current_range_meters":24800,"station_id":"ce4bgop2rcd13ifvqc1g","pricing_plan_id":"cebpf4jnsgd1na2vs0mg"},{"bike_id":"c44588a4-f0c3-4e47-9551-12f24c76e247","system_id":"levelo_inurba_marseille","lat":43.322872,"lon":5.382756,"is_reserved":false,"is_disabled":false,"rental_uris":{"android":"levelo://app?vid=c44588a4-f0c3-4e47-9551-12f24c76e247","ios":"levelo://app?vid=c44588a4-f0c3-4e47-9551-12f24c76e247"},"vehicle_type_id":"4","last_reported":1725815263,"current_range_meters":29200,"station_id":"ce4bhr12rcd13ifvqhqg","pricing_plan_id":"cebpf4jnsgd1na2vs0mg"},{"bike_id":"9d4d4ad3-9fa4-4394-8995-8a5887e80cc8","system_id":"levelo_inurba_marseille","lat":43.32288,"lon":5.38268,"is_reserved":false,"is_disabled":false,"rental_uris":{"android":"levelo://app?vid=9d4d4ad3-9fa4-4394-8995-8a5887e80cc8","ios":"levelo://app?vid=9d4d4ad3-9fa4-4394-8995-8a5887e80cc8"},"vehicle_type_id":"4","last_reported":1725815263,"current_range_meters":6000,"station_id":"ce4bhr12rcd13ifvqhqg","pricing_plan_id":"cebpf4jnsgd1na2vs0mg"},{"bike_id":"2e865a37-4525-4154-bfa5-2e253b800524","system_id":"levelo_inurba_marseille","lat":43.322872,"lon":5.382756,"is_reserved":false,"is_disabled":false,"rental_uris":{"android":"levelo://app?vid=2e865a37-4525-4154-bfa5-2e253b800524","ios":"levelo://app?vid=2e865a37-4525-4154-bfa5-2e253b800524"},"vehicle_type_id":"4","last_reported":1725815263,"current_range_meters":29600,"station_id":"ce4bhr12rcd13ifvqhqg","pricing_plan_id":"cebpf4jnsgd1na2vs0mg"},{"bike_id":"1a5f8300-291b-493d-ad5b-ec07f0eaf598","system_id":"levelo_inurba_marseille","lat":43.322872,"lon":5.382756,"is_reserved":false,"is_disabled":false,"rental_uris":{"android":"levelo://app?vid=1a5f8300-291b-493d-ad5b-ec07f0eaf598","ios":"levelo://app?vid=1a5f8300-291b-493d-ad5b-ec07f0eaf598"},"vehicle_type_id":"4","last_reported":1725815263,"current_range_meters":25200,"station_id":"ce4bhr12rcd13ifvqhqg","pricing_plan_id":"cebpf4jnsgd1na2vs0mg"},{"bike_id":"105bc4e8-c71e-4b5d-b34c-269838fe1e0e","system_id":"levelo_inurba_marseille","lat":43.31586,"lon":5.3887,"is_reserved":false,"is_disabled":false,"rental_uris":{"android":"levelo://app?vid=105bc4e8-c71e-4b5d-b34c-269838fe1e0e","ios":"levelo://app?vid=105bc4e8-c71e-4b5d-b34c-269838fe1e0e"},"vehicle_type_id":"4","last_reported":1725815263,"current_range_meters":10000,"station_id":"","pricing_plan_id":"cebpf4jnsgd1na2vs0mg"},{"bike_id":"2cb973a1-73c7-4d9d-852c-d682ceefc052","system_id":"levelo_inurba_marseille","lat":43.2968,"lon":5.37291,"is_reserved":false,"is_disabled":false,"rental_uris":{"android":"levelo://app?vid=2cb973a1-73c7-4d9d-852c-d682ceefc052","ios":"levelo://app?vid=2cb973a1-73c7-4d9d-852c-d682ceefc052"},"vehicle_type_id":"4","last_reported":1725815263,"current_range_meters":17200,"station_id":"ce4bgk12rcd13ifvqbj0","pricing_plan_id":"cebpf4jnsgd1na2vs0mg"},{"bike_id":"8a8887de-5c7d-4b1c-91b2-78e9c920b48d","system_id":"levelo_inurba_marseille","lat":43.2968,"lon":5.37291,"is_reserved":false,"is_disabled":false,"rental_uris":{"android":"levelo://app?vid=8a8887de-5c7d-4b1c-91b2-78e9c920b48d","ios":"levelo://app?vid=8a8887de-5c7d-4b1c-91b2-78e9c920b48d"},"vehicle_type_id":"4","last_reported":1725815263,"current_range_meters":29600,"station_id":"ce4bgk12rcd13ifvqbj0","pricing_plan_id":"cebpf4jnsgd1na2vs0mg"},{"bike_id":"acf6317c-6321-4346-9ad0-7f56d27b8743","system_id":"levelo_inurba_marseille","lat":43.296131,"lon":5.370791,"is_reserved":false,"is_disabled":false,"rental_uris":{"android":"levelo://app?vid=acf6317c-6321-4346-9ad0-7f56d27b8743","ios":"levelo://app?vid=acf6317c-6321-4346-9ad0-7f56d27b8743"},"vehicle_type_id":"4","last_reported":1725815263,"current_range_meters":4400,"station_id":"ce4bgnh2rcd13ifvqc0g","pricing_plan_id":"cebpf4jnsgd1na2vs0mg"},{"bike_id":"8bf75f9f-9336-4df0-a4e0-049aacefb617","system_id":"levelo_inurba_marseille","lat":43.296131,"lon":5.370773,"is_reserved":false,"is_disabled":false,"rental_uris":{"android":"levelo://app?vid=8bf75f9f-9336-4df0-a4e0-049aacefb617","ios":"levelo://app?vid=8bf75f9f-9336-4df0-a4e0-049aacefb617"},"vehicle_type_id":"4","last_reported":1725815263,"current_range_meters":19600,"station_id":"ce4bgnh2rcd13ifvqc0g","pricing_plan_id":"cebpf4jnsgd1na2vs0mg"},{"bike_id":"25c30180-7c69-4dd8-a420-74b78389bc99","system_id":"levelo_inurba_marseille","lat":43.296131,"lon":5.370791,"is_reserved":false,"is_disabled":false,"rental_uris":{"android":"levelo://app?vid=25c30180-7c69-4dd8-a420-74b78389bc99","ios":"levelo://app?vid=25c30180-7c69-4dd8-a420-74b78389bc99"},"vehicle_type_id":"4","last_reported":1725815263,"current_range_meters":21600,"station_id":"ce4bgnh2rcd13ifvqc0g","pricing_plan_id":"cebpf4jnsgd1na2vs0mg"},{"bike_id":"1af40115-97a4-4ef3-9520-052ed3a09308","system_id":"levelo_inurba_marseille","lat":43.29573,"lon":5.367355,"is_reserved":false,"is_disabled":false,"rental_uris":{"android":"levelo://app?vid=1af40115-97a4-4ef3-9520-052ed3a09308","ios":"levelo://app?vid=1af40115-97a4-4ef3-9520-052ed3a09308"},"vehicle_type_id":"4","last_reported":1725815263,"current_range_meters":22400,"station_id":"ce4bgph2rcd13ifvqc2g","pricing_plan_id":"cebpf4jnsgd1na2vs0mg"},{"bike_id":"0e807f4b-bcc9-4acf-9b3f-084936e3b097","system_id":"levelo_inurba_marseille","lat":43.296921,"lon":5.376579,"is_reserved":false,"is_disabled":false,"rental_uris":{"android":"levelo://app?vid=0e807f4b-bcc9-4acf-9b3f-084936e3b097","ios":"levelo://app?vid=0e807f4b-bcc9-4acf-9b3f-084936e3b097"},"vehicle_type_id":"4","last_reported":1725815263,"current_range_meters":15600,"station_id":"ce4bgkh2rcd13ifvqbl0","pricing_plan_id":"cebpf4jnsgd1na2vs0mg"},{"bike_id":"22068ac0-4340-4793-ab30-6ba9d0df3731","system_id":"levelo_inurba_marseille","lat":43.299028,"lon":5.381509,"is_reserved":false,"is_disabled":false,"rental_uris":{"android":"levelo://app?vid=22068ac0-4340-4793-ab30-6ba9d0df3731","ios":"levelo://app?vid=22068ac0-4340-4793-ab30-6ba9d0df3731"},"vehicle_type_id":"4","last_reported":1725815263,"current_range_meters":3200,"station_id":"ce4bgj12rcd13ifvqbc0","pricing_plan_id":"cebpf4jnsgd1na2vs0mg"},{"bike_id":"ae1acb71-41b9-48b2-a29e-68a00f6074b5","system_id":"levelo_inurba_marseille","lat":43.299028,"lon":5.381509,"is_reserved":false,"is_disabled":false,"rental_uris":{"android":"levelo://app?vid=ae1acb71-41b9-48b2-a29e-68a00f6074b5","ios":"levelo://app?vid=ae1acb71-41b9-48b2-a29e-68a00f6074b5"},"vehicle_type_id":"4","last_reported":1725815263,"current_range_meters":27200,"station_id":"ce4bgj12rcd13ifvqbc0","pricing_plan_id":"cebpf4jnsgd1na2vs0mg"},{"bike_id":"5de689ef-01af-49e9-b66d-8fee28ec26d2","system_id":"levelo_inurba_marseille","lat":43.299028,"lon":5.381509,"is_reserved":false,"is_disabled":false,"rental_uris":{"android":"levelo://app?vid=5de689ef-01af-49e9-b66d-8fee28ec26d2","ios":"levelo://app?vid=5de689ef-01af-49e9-b66d-8fee28ec26d2"},"vehicle_type_id":"4","last_reported":1725815263,"current_range_meters":13600,"station_id":"ce4bgj12rcd13ifvqbc0","pricing_plan_id":"cebpf4jnsgd1na2vs0mg"},{"bike_id":"ce951157-5d0f-4bf9-a5f6-30a2b320049f","system_id":"levelo_inurba_marseille","lat":43.299028,"lon":5.381509,"is_reserved":false,"is_disabled":false,"rental_uris":{"android":"levelo://app?vid=ce951157-5d0f-4bf9-a5f6-30a2b320049f","ios":"levelo://app?vid=ce951157-5d0f-4bf9-a5f6-30a2b320049f"},"vehicle_type_id":"4","last_reported":1725815263,"current_range_meters":15200,"station_id":"ce4bgj12rcd13ifvqbc0","pricing_plan_id":"cebpf4jnsgd1na2vs0mg"},{"bike_id":"f95cdcb1-93ea-4c40-b482-c59e4d1b5caf","system_id":"levelo_inurba_marseille","lat":43.299028,"lon":5.381509,"is_reserved":false,"is_disabled":false,"rental_uris":{"android":"levelo://app?vid=f95cdcb1-93ea-4c40-b482-c59e4d1b5caf","ios":"levelo://app?vid=f95cdcb1-93ea-4c40-b482-c59e4d1b5caf"},"vehicle_type_id":"4","last_reported":1725815263,"current_range_meters":11200,"station_id":"ce4bgj12rcd13ifvqbc0","pricing_plan_id":"cebpf4jnsgd1na2vs0mg"},{"bike_id":"95f61ed2-2a78-49ad-8be0-fb7fe0127772","system_id":"levelo_inurba_marseille","lat":43.309589,"lon":5.390258,"is_reserved":false,"is_disabled":false,"rental_uris":{"android":"levelo://app?vid=95f61ed2-2a78-49ad-8be0-fb7fe0127772","ios":"levelo://app?vid=95f61ed2-2a78-49ad-8be0-fb7fe0127772"},"vehicle_type_id":"4","last_reported":1725815263,"current_range_meters":25200,"station_id":"ce4bgup2rcd13ifvqco0","pricing_plan_id":"cebpf4jnsgd1na2vs0mg"},{"bike_id":"9402750e-4474-4f24-b9c7-527987f15166","system_id":"levelo_inurba_marseille","lat":43.309589,"lon":5.390258,"is_reserved":false,"is_disabled":false,"rental_uris":{"android":"levelo://app?vid=9402750e-4474-4f24-b9c7-527987f15166","ios":"levelo://app?vid=9402750e-4474-4f24-b9c7-527987f15166"},"vehicle_type_id":"4","last_reported":1725815263,"current_range_meters":15600,"station_id":"ce4bgup2rcd13ifvqco0","pricing_plan_id":"cebpf4jnsgd1na2vs0mg"},{"bike_id":"deafb718-d01d-491e-a875-7ac54fb46dbf","system_id":"levelo_inurba_marseille","lat":43.309589,"lon":5.390258,"is_reserved":false,"is_disabled":false,"rental_uris":{"android":"levelo://app?vid=deafb718-d01d-491e-a875-7ac54fb46dbf","ios":"levelo://app?vid=deafb718-d01d-491e-a875-7ac54fb46dbf"},"vehicle_type_id":"4","last_reported":1725815263,"current_range_meters":3600,"station_id":"ce4bgup2rcd13ifvqco0","pricing_plan_id":"cebpf4jnsgd1na2vs0mg"},{"bike_id":"98dbd890-1b33-444b-862d-b48993b2e886","system_id":"levelo_inurba_marseille","lat":43.309589,"lon":5.390258,"is_reserved":false,"is_disabled":false,"rental_uris":{"android":"levelo://app?vid=98dbd890-1b33-444b-862d-b48993b2e886","ios":"levelo://app?vid=98dbd890-1b33-444b-862d-b48993b2e886"},"vehicle_type_id":"4","last_reported":1725815263,"current_range_meters":400,"station_id":"ce4bgup2rcd13ifvqco0","pricing_plan_id":"cebpf4jnsgd1na2vs0mg"},{"bike_id":"6195e950-0604-48e2-9ed4-29c7dcb0ba8a","system_id":"levelo_inurba_marseille","lat":43.30952,"lon":5.39038,"is_reserved":false,"is_disabled":false,"rental_uris":{"android":"levelo://app?vid=6195e950-0604-48e2-9ed4-29c7dcb0ba8a","ios":"levelo://app?vid=6195e950-0604-48e2-9ed4-29c7dcb0ba8a"},"vehicle_type_id":"4","last_reported":1725815263,"current_range_meters":26000,"station_id":"ce4bgup2rcd13ifvqco0","pricing_plan_id":"cebpf4jnsgd1na2vs0mg"},{"bike_id":"10f69fe8-7773-460f-8cbc-84d5043d302b","system_id":"levelo_inurba_marseille","lat":43.32253,"lon":5.387034,"is_reserved":false,"is_disabled":false,"rental_uris":{"android":"levelo://app?vid=10f69fe8-7773-460f-8cbc-84d5043d302b","ios":"levelo://app?vid=10f69fe8-7773-460f-8cbc-84d5043d302b"},"vehicle_type_id":"4","last_reported":1725815263,"current_range_meters":18800,"station_id":"","pricing_plan_id":"cebpf4jnsgd1na2vs0mg"},{"bike_id":"53e1d79c-619d-4f0a-9d1d-e473bfaece90","system_id":"levelo_inurba_marseille","lat":43.29583,"lon":5.3751,"is_reserved":false,"is_disabled":false,"rental_uris":{"android":"levelo://app?vid=53e1d79c-619d-4f0a-9d1d-e473bfaece90","ios":"levelo://app?vid=53e1d79c-619d-4f0a-9d1d-e473bfaece90"},"vehicle_type_id":"4","last_reported":1725815263,"current_range_meters":0,"station_id":"ce4bgh92rcd13ifvqb50","pricing_plan_id":"cebpf4jnsgd1na2vs0mg"},{"bike_id":"fc117b43-0e6f-43a3-b1c5-601934414780","system_id":"levelo_inurba_marseille","lat":43.298037,"lon":5.381066,"is_reserved":false,"is_disabled":false,"rental_uris":{"android":"levelo://app?vid=fc117b43-0e6f-43a3-b1c5-601934414780","ios":"levelo://app?vid=fc117b43-0e6f-43a3-b1c5-601934414780"},"vehicle_type_id":"4","last_reported":1725815263,"current_range_meters":0,"station_id":"ce4bgip2rcd13ifvqbb0","pricing_plan_id":"cebpf4jnsgd1na2vs0mg"},{"bike_id":"36fd5a54-cf6d-495a-9613-f25b0aab2ed4","system_id":"levelo_inurba_marseille","lat":43.295748,"lon":5.37522,"is_reserved":false,"is_disabled":false,"rental_uris":{"android":"levelo://app?vid=36fd5a54-cf6d-495a-9613-f25b0aab2ed4","ios":"levelo://app?vid=36fd5a54-cf6d-495a-9613-f25b0aab2ed4"},"vehicle_type_id":"4","last_reported":1725815263,"current_range_meters":0,"station_id":"ce4bgh92rcd13ifvqb50","pricing_plan_id":"cebpf4jnsgd1na2vs0mg"},{"bike_id":"40e6a47c-0482-47bd-8521-cdf4501a6097","system_id":"levelo_inurba_marseille","lat":43.304278,"lon":5.388868,"is_reserved":false,"is_disabled":false,"rental_uris":{"android":"levelo://app?vid=40e6a47c-0482-47bd-8521-cdf4501a6097","ios":"levelo://app?vid=40e6a47c-0482-47bd-8521-cdf4501a6097"},"vehicle_type_id":"4","last_reported":1725815263,"current_range_meters":18400,"station_id":"ce4bgk12rcd13ifvqbi0","pricing_plan_id":"cebpf4jnsgd1na2vs0mg"},{"bike_id":"7746ea22-7e9b-4b6d-a5c1-4d74c2527cab","system_id":"levelo_inurba_marseille","lat":43.296263,"lon":5.377094,"is_reserved":false,"is_disabled":false,"rental_uris":{"android":"levelo://app?vid=7746ea22-7e9b-4b6d-a5c1-4d74c2527cab","ios":"levelo://app?vid=7746ea22-7e9b-4b6d-a5c1-4d74c2527cab"},"vehicle_type_id":"4","last_reported":1725815263,"current_range_meters":12000,"station_id":"ce4bgi92rcd13ifvqb90","pricing_plan_id":"cebpf4jnsgd1na2vs0mg"},{"bike_id":"4d73fecf-43d0-4c1f-b49a-79e9d7553197","system_id":"levelo_inurba_marseille","lat":43.299707,"lon":5.384859,"is_reserved":false,"is_disabled":false,"rental_uris":{"android":"levelo://app?vid=4d73fecf-43d0-4c1f-b49a-79e9d7553197","ios":"levelo://app?vid=4d73fecf-43d0-4c1f-b49a-79e9d7553197"},"vehicle_type_id":"4","last_reported":1725815263,"current_range_meters":19200,"station_id":"ce4bgj92rcd13ifvqbd0","pricing_plan_id":"cebpf4jnsgd1na2vs0mg"},{"bike_id":"9a1aee90-d030-47c2-82a2-08407522794e","system_id":"levelo_inurba_marseille","lat":43.295279,"lon":5.375048,"is_reserved":false,"is_disabled":false,"rental_uris":{"android":"levelo://app?vid=9a1aee90-d030-47c2-82a2-08407522794e","ios":"levelo://app?vid=9a1aee90-d030-47c2-82a2-08407522794e"},"vehicle_type_id":"4","last_reported":1725815263,"current_range_meters":14400,"station_id":"ce4bgkp2rcd13ifvqbmg","pricing_plan_id":"cebpf4jnsgd1na2vs0mg"},{"bike_id":"c0c679c8-3f6e-4b60-b158-44f4a9e89814","system_id":"levelo_inurba_marseille","lat":43.29976,"lon":5.38477,"is_reserved":false,"is_disabled":false,"rental_uris":{"android":"levelo://app?vid=c0c679c8-3f6e-4b60-b158-44f4a9e89814","ios":"levelo://app?vid=c0c679c8-3f6e-4b60-b158-44f4a9e89814"},"vehicle_type_id":"4","last_reported":1725815263,"current_range_meters":0,"station_id":"ce4bgj92rcd13ifvqbd0","pricing_plan_id":"cebpf4jnsgd1na2vs0mg"},{"bike_id":"aa46c25b-5c45-40ca-88a6-870a9464eb3e","system_id":"levelo_inurba_marseille","lat":43.299707,"lon":5.384859,"is_reserved":false,"is_disabled":false,"rental_uris":{"android":"levelo://app?vid=aa46c25b-5c45-40ca-88a6-870a9464eb3e","ios":"levelo://app?vid=aa46c25b-5c45-40ca-88a6-870a9464eb3e"},"vehicle_type_id":"4","last_reported":1725815263,"current_range_meters":4800,"station_id":"ce4bgj92rcd13ifvqbd0","pricing_plan_id":"cebpf4jnsgd1na2vs0mg"},{"bike_id":"816c81f3-f911-46e2-b503-0e730cc611e8","system_id":"levelo_inurba_marseille","lat":43.29973,"lon":5.38495,"is_reserved":false,"is_disabled":false,"rental_uris":{"android":"levelo://app?vid=816c81f3-f911-46e2-b503-0e730cc611e8","ios":"levelo://app?vid=816c81f3-f911-46e2-b503-0e730cc611e8"},"vehicle_type_id":"4","last_reported":1725815263,"current_range_meters":20400,"station_id":"ce4bgj92rcd13ifvqbd0","pricing_plan_id":"cebpf4jnsgd1na2vs0mg"},{"bike_id":"7ba59f76-ea73-46d7-b85a-81a7d83ff353","system_id":"levelo_inurba_marseille","lat":43.299707,"lon":5.384859,"is_reserved":false,"is_disabled":false,"rental_uris":{"android":"levelo://app?vid=7ba59f76-ea73-46d7-b85a-81a7d83ff353","ios":"levelo://app?vid=7ba59f76-ea73-46d7-b85a-81a7d83ff353"},"vehicle_type_id":"4","last_reported":1725815263,"current_range_meters":7200,"station_id":"ce4bgj92rcd13ifvqbd0","pricing_plan_id":"cebpf4jnsgd1na2vs0mg"},{"bike_id":"60fea9cb-e161-45d2-8e3d-dbdcc05006f8","system_id":"levelo_inurba_marseille","lat":43.29966,"lon":5.38497,"is_reserved":false,"is_disabled":false,"rental_uris":{"android":"levelo://app?vid=60fea9cb-e161-45d2-8e3d-dbdcc05006f8","ios":"levelo://app?vid=60fea9cb-e161-45d2-8e3d-dbdcc05006f8"},"vehicle_type_id":"4","last_reported":1725815263,"current_range_meters":0,"station_id":"ce4bgj92rcd13ifvqbd0","pricing_plan_id":"cebpf4jnsgd1na2vs0mg"},{"bike_id":"4a6b2f71-b39e-4233-977d-da5ed126cd2f","system_id":"levelo_inurba_marseille","lat":43.299724,"lon":5.384848,"is_reserved":false,"is_disabled":false,"rental_uris":{"android":"levelo://app?vid=4a6b2f71-b39e-4233-977d-da5ed126cd2f","ios":"levelo://app?vid=4a6b2f71-b39e-4233-977d-da5ed126cd2f"},"vehicle_type_id":"4","last_reported":1725815263,"current_range_meters":0,"station_id":"ce4bgj92rcd13ifvqbd0","pricing_plan_id":"cebpf4jnsgd1na2vs0mg"},{"bike_id":"20cc9fd2-3737-4a70-86f3-1fb0fcffff69","system_id":"levelo_inurba_marseille","lat":43.301396,"lon":5.387812,"is_reserved":false,"is_disabled":false,"rental_uris":{"android":"levelo://app?vid=20cc9fd2-3737-4a70-86f3-1fb0fcffff69","ios":"levelo://app?vid=20cc9fd2-3737-4a70-86f3-1fb0fcffff69"},"vehicle_type_id":"4","last_reported":1725815263,"current_range_meters":0,"station_id":"ce4bghh2rcd13ifvqb60","pricing_plan_id":"cebpf4jnsgd1na2vs0mg"},{"bike_id":"174fc179-834a-469c-b7e6-512db7e5e8e3","system_id":"levelo_inurba_marseille","lat":43.32367,"lon":5.388836,"is_reserved":false,"is_disabled":false,"rental_uris":{"android":"levelo://app?vid=174fc179-834a-469c-b7e6-512db7e5e8e3","ios":"levelo://app?vid=174fc179-834a-469c-b7e6-512db7e5e8e3"},"vehicle_type_id":"4","last_reported":1725815263,"current_range_meters":8800,"station_id":"ce4bhqp2rcd13ifvqhog","pricing_plan_id":"cebpf4jnsgd1na2vs0mg"},{"bike_id":"bcaa10f7-fd9e-4ad0-b0c8-b8b15c428fe5","system_id":"levelo_inurba_marseille","lat":43.32368,"lon":5.38882,"is_reserved":false,"is_disabled":false,"rental_uris":{"android":"levelo://app?vid=bcaa10f7-fd9e-4ad0-b0c8-b8b15c428fe5","ios":"levelo://app?vid=bcaa10f7-fd9e-4ad0-b0c8-b8b15c428fe5"},"vehicle_type_id":"4","last_reported":1725815263,"current_range_meters":18400,"station_id":"ce4bhqp2rcd13ifvqhog","pricing_plan_id":"cebpf4jnsgd1na2vs0mg"},{"bike_id":"216d844b-fdd7-47a2-aec5-e00d77ba1292","system_id":"levelo_inurba_marseille","lat":43.32367,"lon":5.388836,"is_reserved":false,"is_disabled":false,"rental_uris":{"android":"levelo://app?vid=216d844b-fdd7-47a2-aec5-e00d77ba1292","ios":"levelo://app?vid=216d844b-fdd7-47a2-aec5-e00d77ba1292"},"vehicle_type_id":"4","last_reported":1725815263,"current_range_meters":0,"station_id":"ce4bhqp2rcd13ifvqhog","pricing_plan_id":"cebpf4jnsgd1na2vs0mg"},{"bike_id":"53e603fc-0171-40e5-bd2b-ab4b8cb81b62","system_id":"levelo_inurba_marseille","lat":43.32367,"lon":5.388836,"is_reserved":false,"is_disabled":false,"rental_uris":{"android":"levelo://app?vid=53e603fc-0171-40e5-bd2b-ab4b8cb81b62","ios":"levelo://app?vid=53e603fc-0171-40e5-bd2b-ab4b8cb81b62"},"vehicle_type_id":"4","last_reported":1725815263,"current_range_meters":2400,"station_id":"ce4bhqp2rcd13ifvqhog","pricing_plan_id":"cebpf4jnsgd1na2vs0mg"},{"bike_id":"5658eeec-093d-4e3e-acb2-85af2411fae2","system_id":"levelo_inurba_marseille","lat":43.32367,"lon":5.388836,"is_reserved":false,"is_disabled":false,"rental_uris":{"android":"levelo://app?vid=5658eeec-093d-4e3e-acb2-85af2411fae2","ios":"levelo://app?vid=5658eeec-093d-4e3e-acb2-85af2411fae2"},"vehicle_type_id":"4","last_reported":1725815263,"current_range_meters":15200,"station_id":"ce4bhqp2rcd13ifvqhog","pricing_plan_id":"cebpf4jnsgd1na2vs0mg"},{"bike_id":"f7a05193-2849-48d9-bef3-9f7408eafb02","system_id":"levelo_inurba_marseille","lat":43.29415,"lon":5.37494,"is_reserved":false,"is_disabled":false,"rental_uris":{"android":"levelo://app?vid=f7a05193-2849-48d9-bef3-9f7408eafb02","ios":"levelo://app?vid=f7a05193-2849-48d9-bef3-9f7408eafb02"},"vehicle_type_id":"4","last_reported":1725815263,"current_range_meters":0,"station_id":"","pricing_plan_id":"cebpf4jnsgd1na2vs0mg"},{"bike_id":"1389f4a0-fe8c-45a8-89e1-761602337135","system_id":"levelo_inurba_marseille","lat":43.32367,"lon":5.38925,"is_reserved":false,"is_disabled":false,"rental_uris":{"android":"levelo://app?vid=1389f4a0-fe8c-45a8-89e1-761602337135","ios":"levelo://app?vid=1389f4a0-fe8c-45a8-89e1-761602337135"},"vehicle_type_id":"4","last_reported":1725815263,"current_range_meters":15600,"station_id":"ce4bhqp2rcd13ifvqhog","pricing_plan_id":"cebpf4jnsgd1na2vs0mg"},{"bike_id":"5e0aab4a-7314-40e2-9452-5089412f8114","system_id":"levelo_inurba_marseille","lat":43.29602,"lon":5.381084,"is_reserved":false,"is_disabled":false,"rental_uris":{"android":"levelo://app?vid=5e0aab4a-7314-40e2-9452-5089412f8114","ios":"levelo://app?vid=5e0aab4a-7314-40e2-9452-5089412f8114"},"vehicle_type_id":"4","last_reported":1725815263,"current_range_meters":13200,"station_id":"ce4bgl12rcd13ifvqbo0","pricing_plan_id":"cebpf4jnsgd1na2vs0mg"},{"bike_id":"74c59e3d-56c9-4373-9efe-a345696f9a5c","system_id":"levelo_inurba_marseille","lat":43.3237,"lon":5.38926,"is_reserved":false,"is_disabled":false,"rental_uris":{"android":"levelo://app?vid=74c59e3d-56c9-4373-9efe-a345696f9a5c","ios":"levelo://app?vid=74c59e3d-56c9-4373-9efe-a345696f9a5c"},"vehicle_type_id":"4","last_reported":1725815263,"current_range_meters":20800,"station_id":"","pricing_plan_id":"cebpf4jnsgd1na2vs0mg"},{"bike_id":"41704600-e9e6-4869-aefd-a4a12996605b","system_id":"levelo_inurba_marseille","lat":43.3237,"lon":5.38926,"is_reserved":false,"is_disabled":false,"rental_uris":{"android":"levelo://app?vid=41704600-e9e6-4869-aefd-a4a12996605b","ios":"levelo://app?vid=41704600-e9e6-4869-aefd-a4a12996605b"},"vehicle_type_id":"4","last_reported":1725815263,"current_range_meters":8400,"station_id":"ce4bhqp2rcd13ifvqhog","pricing_plan_id":"cebpf4jnsgd1na2vs0mg"},{"bike_id":"0742844b-f50a-426b-8a22-8012baa0a9e4","system_id":"levelo_inurba_marseille","lat":43.29602,"lon":5.381084,"is_reserved":false,"is_disabled":false,"rental_uris":{"android":"levelo://app?vid=0742844b-f50a-426b-8a22-8012baa0a9e4","ios":"levelo://app?vid=0742844b-f50a-426b-8a22-8012baa0a9e4"},"vehicle_type_id":"4","last_reported":1725815263,"current_range_meters":27600,"station_id":"ce4bgl12rcd13ifvqbo0","pricing_plan_id":"cebpf4jnsgd1na2vs0mg"},{"bike_id":"777edce1-e6b2-40d8-ad9b-52831fd7877c","system_id":"levelo_inurba_marseille","lat":43.29602,"lon":5.381084,"is_reserved":false,"is_disabled":false,"rental_uris":{"android":"levelo://app?vid=777edce1-e6b2-40d8-ad9b-52831fd7877c","ios":"levelo://app?vid=777edce1-e6b2-40d8-ad9b-52831fd7877c"},"vehicle_type_id":"4","last_reported":1725815263,"current_range_meters":20800,"station_id":"ce4bgl12rcd13ifvqbo0","pricing_plan_id":"cebpf4jnsgd1na2vs0mg"},{"bike_id":"6f37c59d-cd45-4a97-aadb-ecec4a0a2f6a","system_id":"levelo_inurba_marseille","lat":43.29327,"lon":5.37076,"is_reserved":false,"is_disabled":false,"rental_uris":{"android":"levelo://app?vid=6f37c59d-cd45-4a97-aadb-ecec4a0a2f6a","ios":"levelo://app?vid=6f37c59d-cd45-4a97-aadb-ecec4a0a2f6a"},"vehicle_type_id":"4","last_reported":1725815263,"current_range_meters":23600,"station_id":"","pricing_plan_id":"cebpf4jnsgd1na2vs0mg"},{"bike_id":"33a18126-65e8-4928-ae76-7111d2c451bd","system_id":"levelo_inurba_marseille","lat":43.29279,"lon":5.36842,"is_reserved":false,"is_disabled":false,"rental_uris":{"android":"levelo://app?vid=33a18126-65e8-4928-ae76-7111d2c451bd","ios":"levelo://app?vid=33a18126-65e8-4928-ae76-7111d2c451bd"},"vehicle_type_id":"4","last_reported":1725815263,"current_range_meters":0,"station_id":"ce4bhbp2rcd13ifvqesg","pricing_plan_id":"cebpf4jnsgd1na2vs0mg"},{"bike_id":"3163eb09-3a0f-47bf-aa41-bba77f6e6a26","system_id":"levelo_inurba_marseille","lat":43.29274,"lon":5.36838,"is_reserved":false,"is_disabled":false,"rental_uris":{"android":"levelo://app?vid=3163eb09-3a0f-47bf-aa41-bba77f6e6a26","ios":"levelo://app?vid=3163eb09-3a0f-47bf-aa41-bba77f6e6a26"},"vehicle_type_id":"4","last_reported":1725815263,"current_range_meters":0,"station_id":"ce4bhbp2rcd13ifvqesg","pricing_plan_id":"cebpf4jnsgd1na2vs0mg"},{"bike_id":"7a0a9128-8d68-4495-9efd-2254377c1fed","system_id":"levelo_inurba_marseille","lat":43.293009,"lon":5.374584,"is_reserved":false,"is_disabled":false,"rental_uris":{"android":"levelo://app?vid=7a0a9128-8d68-4495-9efd-2254377c1fed","ios":"levelo://app?vid=7a0a9128-8d68-4495-9efd-2254377c1fed"},"vehicle_type_id":"4","last_reported":1725815263,"current_range_meters":4000,"station_id":"ce4bgi12rcd13ifvqb70","pricing_plan_id":"cebpf4jnsgd1na2vs0mg"},{"bike_id":"4172e4c7-bbc6-4f58-8799-2bdd0fe8fc19","system_id":"levelo_inurba_marseille","lat":43.305994,"lon":5.393687,"is_reserved":false,"is_disabled":false,"rental_uris":{"android":"levelo://app?vid=4172e4c7-bbc6-4f58-8799-2bdd0fe8fc19","ios":"levelo://app?vid=4172e4c7-bbc6-4f58-8799-2bdd0fe8fc19"},"vehicle_type_id":"4","last_reported":1725815263,"current_range_meters":3600,"station_id":"ce4bh0p2rcd13ifvqd80","pricing_plan_id":"cebpf4jnsgd1na2vs0mg"},{"bike_id":"401c7b82-e426-406d-8c2c-9ba803e903c5","system_id":"levelo_inurba_marseille","lat":43.303002,"lon":5.392142,"is_reserved":false,"is_disabled":false,"rental_uris":{"android":"levelo://app?vid=401c7b82-e426-406d-8c2c-9ba803e903c5","ios":"levelo://app?vid=401c7b82-e426-406d-8c2c-9ba803e903c5"},"vehicle_type_id":"4","last_reported":1725815263,"current_range_meters":0,"station_id":"ce4bgkh2rcd13ifvqbk0","pricing_plan_id":"cebpf4jnsgd1na2vs0mg"},{"bike_id":"f9fb28a8-7ae5-44ea-ad3f-d485df1f419d","system_id":"levelo_inurba_marseille","lat":43.292311,"lon":5.360731,"is_reserved":false,"is_disabled":false,"rental_uris":{"android":"levelo://app?vid=f9fb28a8-7ae5-44ea-ad3f-d485df1f419d","ios":"levelo://app?vid=f9fb28a8-7ae5-44ea-ad3f-d485df1f419d"},"vehicle_type_id":"4","last_reported":1725815263,"current_range_meters":6800,"station_id":"ce4bhbh2rcd13ifvqeqg","pricing_plan_id":"cebpf4jnsgd1na2vs0mg"},{"bike_id":"ff0bfdba-dc8d-4d4b-a753-0f68699ec5d4","system_id":"levelo_inurba_marseille","lat":43.2936,"lon":5.37835,"is_reserved":false,"is_disabled":false,"rental_uris":{"android":"levelo://app?vid=ff0bfdba-dc8d-4d4b-a753-0f68699ec5d4","ios":"levelo://app?vid=ff0bfdba-dc8d-4d4b-a753-0f68699ec5d4"},"vehicle_type_id":"4","last_reported":1725815263,"current_range_meters":20800,"station_id":"ce4bgjh2rcd13ifvqbf0","pricing_plan_id":"cebpf4jnsgd1na2vs0mg"},{"bike_id":"a652c04a-003f-47ac-b3cf-84d5a54aa450","system_id":"levelo_inurba_marseille","lat":43.292311,"lon":5.360731,"is_reserved":false,"is_disabled":false,"rental_uris":{"android":"levelo://app?vid=a652c04a-003f-47ac-b3cf-84d5a54aa450","ios":"levelo://app?vid=a652c04a-003f-47ac-b3cf-84d5a54aa450"},"vehicle_type_id":"4","last_reported":1725815263,"current_range_meters":4400,"station_id":"ce4bhbh2rcd13ifvqeqg","pricing_plan_id":"cebpf4jnsgd1na2vs0mg"},{"bike_id":"8589d70a-0459-4a1c-8957-717f634bb900","system_id":"levelo_inurba_marseille","lat":43.292311,"lon":5.360731,"is_reserved":false,"is_disabled":false,"rental_uris":{"android":"levelo://app?vid=8589d70a-0459-4a1c-8957-717f634bb900","ios":"levelo://app?vid=8589d70a-0459-4a1c-8957-717f634bb900"},"vehicle_type_id":"4","last_reported":1725815263,"current_range_meters":13600,"station_id":"ce4bhbh2rcd13ifvqeqg","pricing_plan_id":"cebpf4jnsgd1na2vs0mg"},{"bike_id":"a2483c7b-4a51-4f17-bc1d-c7c4a9ba8901","system_id":"levelo_inurba_marseille","lat":43.292311,"lon":5.360731,"is_reserved":false,"is_disabled":false,"rental_uris":{"android":"levelo://app?vid=a2483c7b-4a51-4f17-bc1d-c7c4a9ba8901","ios":"levelo://app?vid=a2483c7b-4a51-4f17-bc1d-c7c4a9ba8901"},"vehicle_type_id":"4","last_reported":1725815263,"current_range_meters":0,"station_id":"ce4bhbh2rcd13ifvqeqg","pricing_plan_id":"cebpf4jnsgd1na2vs0mg"},{"bike_id":"e715178d-4bb8-4ff2-8208-70d32c320352","system_id":"levelo_inurba_marseille","lat":43.29224,"lon":5.36048,"is_reserved":false,"is_disabled":false,"rental_uris":{"android":"levelo://app?vid=e715178d-4bb8-4ff2-8208-70d32c320352","ios":"levelo://app?vid=e715178d-4bb8-4ff2-8208-70d32c320352"},"vehicle_type_id":"4","last_reported":1725815263,"current_range_meters":0,"station_id":"ce4bhbh2rcd13ifvqeqg","pricing_plan_id":"cebpf4jnsgd1na2vs0mg"},{"bike_id":"611b370e-660f-4d20-9a87-a27d9f993fe5","system_id":"levelo_inurba_marseille","lat":43.298764,"lon":5.388973,"is_reserved":false,"is_disabled":false,"rental_uris":{"android":"levelo://app?vid=611b370e-660f-4d20-9a87-a27d9f993fe5","ios":"levelo://app?vid=611b370e-660f-4d20-9a87-a27d9f993fe5"},"vehicle_type_id":"4","last_reported":1725815263,"current_range_meters":25600,"station_id":"ce4bh392rcd13ifvqdl0","pricing_plan_id":"cebpf4jnsgd1na2vs0mg"},{"bike_id":"298b90ea-5c8b-4968-9528-41846e34f574","system_id":"levelo_inurba_marseille","lat":43.298764,"lon":5.388973,"is_reserved":false,"is_disabled":false,"rental_uris":{"android":"levelo://app?vid=298b90ea-5c8b-4968-9528-41846e34f574","ios":"levelo://app?vid=298b90ea-5c8b-4968-9528-41846e34f574"},"vehicle_type_id":"4","last_reported":1725815263,"current_range_meters":0,"station_id":"ce4bh392rcd13ifvqdl0","pricing_plan_id":"cebpf4jnsgd1na2vs0mg"},{"bike_id":"6ea8b1bf-d681-4b47-a396-88bb57de5366","system_id":"levelo_inurba_marseille","lat":43.291671,"lon":5.371575,"is_reserved":false,"is_disabled":false,"rental_uris":{"android":"levelo://app?vid=6ea8b1bf-d681-4b47-a396-88bb57de5366","ios":"levelo://app?vid=6ea8b1bf-d681-4b47-a396-88bb57de5366"},"vehicle_type_id":"4","last_reported":1725815263,"current_range_meters":23600,"station_id":"ce4bha92rcd13ifvqeh0","pricing_plan_id":"cebpf4jnsgd1na2vs0mg"},{"bike_id":"188fc173-c10a-47da-8075-ba3fa82f3e2f","system_id":"levelo_inurba_marseille","lat":43.298764,"lon":5.388973,"is_reserved":false,"is_disabled":false,"rental_uris":{"android":"levelo://app?vid=188fc173-c10a-47da-8075-ba3fa82f3e2f","ios":"levelo://app?vid=188fc173-c10a-47da-8075-ba3fa82f3e2f"},"vehicle_type_id":"4","last_reported":1725815263,"current_range_meters":16400,"station_id":"ce4bh392rcd13ifvqdl0","pricing_plan_id":"cebpf4jnsgd1na2vs0mg"},{"bike_id":"95ab419b-0f99-41c3-8b54-85c1210db888","system_id":"levelo_inurba_marseille","lat":43.291675,"lon":5.371583,"is_reserved":false,"is_disabled":false,"rental_uris":{"android":"levelo://app?vid=95ab419b-0f99-41c3-8b54-85c1210db888","ios":"levelo://app?vid=95ab419b-0f99-41c3-8b54-85c1210db888"},"vehicle_type_id":"4","last_reported":1725815263,"current_range_meters":29200,"station_id":"ce4bha92rcd13ifvqeh0","pricing_plan_id":"cebpf4jnsgd1na2vs0mg"},{"bike_id":"82872fe6-8163-4dbd-9581-56764f3c6fde","system_id":"levelo_inurba_marseille","lat":43.30887,"lon":5.39655,"is_reserved":false,"is_disabled":false,"rental_uris":{"android":"levelo://app?vid=82872fe6-8163-4dbd-9581-56764f3c6fde","ios":"levelo://app?vid=82872fe6-8163-4dbd-9581-56764f3c6fde"},"vehicle_type_id":"4","last_reported":1725815263,"current_range_meters":26800,"station_id":"ce4bh012rcd13ifvqcv0","pricing_plan_id":"cebpf4jnsgd1na2vs0mg"},{"bike_id":"bfed6385-7ebb-46f1-b7e2-6c9c69b9eb3e","system_id":"levelo_inurba_marseille","lat":43.29529,"lon":5.385581,"is_reserved":false,"is_disabled":false,"rental_uris":{"android":"levelo://app?vid=bfed6385-7ebb-46f1-b7e2-6c9c69b9eb3e","ios":"levelo://app?vid=bfed6385-7ebb-46f1-b7e2-6c9c69b9eb3e"},"vehicle_type_id":"4","last_reported":1725815263,"current_range_meters":2400,"station_id":"ce4bgih2rcd13ifvqba0","pricing_plan_id":"cebpf4jnsgd1na2vs0mg"},{"bike_id":"83878f38-7031-4a1a-a601-bc0ae9d02d79","system_id":"levelo_inurba_marseille","lat":43.29536,"lon":5.38545,"is_reserved":false,"is_disabled":false,"rental_uris":{"android":"levelo://app?vid=83878f38-7031-4a1a-a601-bc0ae9d02d79","ios":"levelo://app?vid=83878f38-7031-4a1a-a601-bc0ae9d02d79"},"vehicle_type_id":"4","last_reported":1725815263,"current_range_meters":0,"station_id":"ce4bgih2rcd13ifvqba0","pricing_plan_id":"cebpf4jnsgd1na2vs0mg"},{"bike_id":"2fc7b7ab-ec8a-439b-8e39-ea219e44c413","system_id":"levelo_inurba_marseille","lat":43.29529,"lon":5.385581,"is_reserved":false,"is_disabled":false,"rental_uris":{"android":"levelo://app?vid=2fc7b7ab-ec8a-439b-8e39-ea219e44c413","ios":"levelo://app?vid=2fc7b7ab-ec8a-439b-8e39-ea219e44c413"},"vehicle_type_id":"4","last_reported":1725815263,"current_range_meters":25600,"station_id":"ce4bgih2rcd13ifvqba0","pricing_plan_id":"cebpf4jnsgd1na2vs0mg"},{"bike_id":"bd7304f0-a5f1-479d-b7c3-8adaf11e8768","system_id":"levelo_inurba_marseille","lat":43.29529,"lon":5.385581,"is_reserved":false,"is_disabled":false,"rental_uris":{"android":"levelo://app?vid=bd7304f0-a5f1-479d-b7c3-8adaf11e8768","ios":"levelo://app?vid=bd7304f0-a5f1-479d-b7c3-8adaf11e8768"},"vehicle_type_id":"4","last_reported":1725815263,"current_range_meters":22400,"station_id":"ce4bgih2rcd13ifvqba0","pricing_plan_id":"cebpf4jnsgd1na2vs0mg"},{"bike_id":"c6632ab8-20f9-4ab8-b4b3-f1c336088595","system_id":"levelo_inurba_marseille","lat":43.29531,"lon":5.38544,"is_reserved":false,"is_disabled":false,"rental_uris":{"android":"levelo://app?vid=c6632ab8-20f9-4ab8-b4b3-f1c336088595","ios":"levelo://app?vid=c6632ab8-20f9-4ab8-b4b3-f1c336088595"},"vehicle_type_id":"4","last_reported":1725815263,"current_range_meters":0,"station_id":"ce4bgih2rcd13ifvqba0","pricing_plan_id":"cebpf4jnsgd1na2vs0mg"},{"bike_id":"badc5e93-0fd6-4cfd-8776-6f0382d46c48","system_id":"levelo_inurba_marseille","lat":43.290779,"lon":5.371482,"is_reserved":false,"is_disabled":false,"rental_uris":{"android":"levelo://app?vid=badc5e93-0fd6-4cfd-8776-6f0382d46c48","ios":"levelo://app?vid=badc5e93-0fd6-4cfd-8776-6f0382d46c48"},"vehicle_type_id":"4","last_reported":1725815263,"current_range_meters":30800,"station_id":"ce4bh5p2rcd13ifvqe4g","pricing_plan_id":"cebpf4jnsgd1na2vs0mg"},{"bike_id":"d5cab59f-d3ad-497a-a8ec-2b922a93d018","system_id":"levelo_inurba_marseille","lat":43.290624,"lon":5.359245,"is_reserved":false,"is_disabled":false,"rental_uris":{"android":"levelo://app?vid=d5cab59f-d3ad-497a-a8ec-2b922a93d018","ios":"levelo://app?vid=d5cab59f-d3ad-497a-a8ec-2b922a93d018"},"vehicle_type_id":"4","last_reported":1725815263,"current_range_meters":14000,"station_id":"ce4bha92rcd13ifvqeg0","pricing_plan_id":"cebpf4jnsgd1na2vs0mg"},{"bike_id":"061cc26f-0193-48c5-bd2d-aa76a149db34","system_id":"levelo_inurba_marseille","lat":43.302008,"lon":5.394694,"is_reserved":false,"is_disabled":false,"rental_uris":{"android":"levelo://app?vid=061cc26f-0193-48c5-bd2d-aa76a149db34","ios":"levelo://app?vid=061cc26f-0193-48c5-bd2d-aa76a149db34"},"vehicle_type_id":"4","last_reported":1725815263,"current_range_meters":24800,"station_id":"ce4bh0p2rcd13ifvqd70","pricing_plan_id":"cebpf4jnsgd1na2vs0mg"},{"bike_id":"14929bc5-9587-4e8b-ac9a-905146668538","system_id":"levelo_inurba_marseille","lat":43.290624,"lon":5.359245,"is_reserved":false,"is_disabled":false,"rental_uris":{"android":"levelo://app?vid=14929bc5-9587-4e8b-ac9a-905146668538","ios":"levelo://app?vid=14929bc5-9587-4e8b-ac9a-905146668538"},"vehicle_type_id":"4","last_reported":1725815263,"current_range_meters":17600,"station_id":"ce4bha92rcd13ifvqeg0","pricing_plan_id":"cebpf4jnsgd1na2vs0mg"},{"bike_id":"bd78a730-b460-4aa1-bf5c-9aa71d5c8615","system_id":"levelo_inurba_marseille","lat":43.290624,"lon":5.359245,"is_reserved":false,"is_disabled":false,"rental_uris":{"android":"levelo://app?vid=bd78a730-b460-4aa1-bf5c-9aa71d5c8615","ios":"levelo://app?vid=bd78a730-b460-4aa1-bf5c-9aa71d5c8615"},"vehicle_type_id":"4","last_reported":1725815263,"current_range_meters":15600,"station_id":"ce4bha92rcd13ifvqeg0","pricing_plan_id":"cebpf4jnsgd1na2vs0mg"},{"bike_id":"10a43f03-0db9-4b57-a21b-9593464f8822","system_id":"levelo_inurba_marseille","lat":43.28999,"lon":5.37252,"is_reserved":false,"is_disabled":false,"rental_uris":{"android":"levelo://app?vid=10a43f03-0db9-4b57-a21b-9593464f8822","ios":"levelo://app?vid=10a43f03-0db9-4b57-a21b-9593464f8822"},"vehicle_type_id":"4","last_reported":1725815263,"current_range_meters":0,"station_id":"","pricing_plan_id":"cebpf4jnsgd1na2vs0mg"},{"bike_id":"cc360ab0-1a2b-4dca-a486-0bd4560b1ede","system_id":"levelo_inurba_marseille","lat":43.290327,"lon":5.375711,"is_reserved":false,"is_disabled":false,"rental_uris":{"android":"levelo://app?vid=cc360ab0-1a2b-4dca-a486-0bd4560b1ede","ios":"levelo://app?vid=cc360ab0-1a2b-4dca-a486-0bd4560b1ede"},"vehicle_type_id":"4","last_reported":1725815263,"current_range_meters":26800,"station_id":"ce4bh692rcd13ifvqe90","pricing_plan_id":"cebpf4jnsgd1na2vs0mg"},{"bike_id":"f1adf143-bdca-4bdc-9e8d-7b3343e0d111","system_id":"levelo_inurba_marseille","lat":43.294153,"lon":5.386305,"is_reserved":false,"is_disabled":false,"rental_uris":{"android":"levelo://app?vid=f1adf143-bdca-4bdc-9e8d-7b3343e0d111","ios":"levelo://app?vid=f1adf143-bdca-4bdc-9e8d-7b3343e0d111"},"vehicle_type_id":"4","last_reported":1725815263,"current_range_meters":18000,"station_id":"ce4bh2h2rcd13ifvqdh0","pricing_plan_id":"cebpf4jnsgd1na2vs0mg"},{"bike_id":"dd49b0fa-537a-4293-90d0-c1379e8ed87a","system_id":"levelo_inurba_marseille","lat":43.294162,"lon":5.386292,"is_reserved":false,"is_disabled":false,"rental_uris":{"android":"levelo://app?vid=dd49b0fa-537a-4293-90d0-c1379e8ed87a","ios":"levelo://app?vid=dd49b0fa-537a-4293-90d0-c1379e8ed87a"},"vehicle_type_id":"4","last_reported":1725815263,"current_range_meters":19200,"station_id":"ce4bh2h2rcd13ifvqdh0","pricing_plan_id":"cebpf4jnsgd1na2vs0mg"},{"bike_id":"85e0e3a3-5da1-4c1d-941e-14d598f7c042","system_id":"levelo_inurba_marseille","lat":43.294153,"lon":5.386305,"is_reserved":false,"is_disabled":false,"rental_uris":{"android":"levelo://app?vid=85e0e3a3-5da1-4c1d-941e-14d598f7c042","ios":"levelo://app?vid=85e0e3a3-5da1-4c1d-941e-14d598f7c042"},"vehicle_type_id":"4","last_reported":1725815263,"current_range_meters":9200,"station_id":"ce4bh2h2rcd13ifvqdh0","pricing_plan_id":"cebpf4jnsgd1na2vs0mg"},{"bike_id":"14bf89e1-3dd7-464f-90b4-9d781fdf9471","system_id":"levelo_inurba_marseille","lat":43.294153,"lon":5.386305,"is_reserved":false,"is_disabled":false,"rental_uris":{"android":"levelo://app?vid=14bf89e1-3dd7-464f-90b4-9d781fdf9471","ios":"levelo://app?vid=14bf89e1-3dd7-464f-90b4-9d781fdf9471"},"vehicle_type_id":"4","last_reported":1725815263,"current_range_meters":16800,"station_id":"ce4bh2h2rcd13ifvqdh0","pricing_plan_id":"cebpf4jnsgd1na2vs0mg"},{"bike_id":"6dae05a3-8a8c-48d6-8acf-85b3255c726e","system_id":"levelo_inurba_marseille","lat":43.294153,"lon":5.386305,"is_reserved":false,"is_disabled":false,"rental_uris":{"android":"levelo://app?vid=6dae05a3-8a8c-48d6-8acf-85b3255c726e","ios":"levelo://app?vid=6dae05a3-8a8c-48d6-8acf-85b3255c726e"},"vehicle_type_id":"4","last_reported":1725815263,"current_range_meters":13200,"station_id":"ce4bh2h2rcd13ifvqdh0","pricing_plan_id":"cebpf4jnsgd1na2vs0mg"},{"bike_id":"4d1810dc-0a01-4c68-993b-ef91dd651eeb","system_id":"levelo_inurba_marseille","lat":43.294162,"lon":5.386292,"is_reserved":false,"is_disabled":false,"rental_uris":{"android":"levelo://app?vid=4d1810dc-0a01-4c68-993b-ef91dd651eeb","ios":"levelo://app?vid=4d1810dc-0a01-4c68-993b-ef91dd651eeb"},"vehicle_type_id":"4","last_reported":1725815263,"current_range_meters":8000,"station_id":"ce4bh2h2rcd13ifvqdh0","pricing_plan_id":"cebpf4jnsgd1na2vs0mg"},{"bike_id":"b2069f90-d1a9-4486-8d59-baeb7cb76397","system_id":"levelo_inurba_marseille","lat":43.2942,"lon":5.38631,"is_reserved":false,"is_disabled":false,"rental_uris":{"android":"levelo://app?vid=b2069f90-d1a9-4486-8d59-baeb7cb76397","ios":"levelo://app?vid=b2069f90-d1a9-4486-8d59-baeb7cb76397"},"vehicle_type_id":"4","last_reported":1725815263,"current_range_meters":0,"station_id":"ce4bh2h2rcd13ifvqdh0","pricing_plan_id":"cebpf4jnsgd1na2vs0mg"},{"bike_id":"d9e655bb-fcf5-41fb-948e-43ffd077852e","system_id":"levelo_inurba_marseille","lat":43.294153,"lon":5.386305,"is_reserved":false,"is_disabled":false,"rental_uris":{"android":"levelo://app?vid=d9e655bb-fcf5-41fb-948e-43ffd077852e","ios":"levelo://app?vid=d9e655bb-fcf5-41fb-948e-43ffd077852e"},"vehicle_type_id":"4","last_reported":1725815263,"current_range_meters":26400,"station_id":"ce4bh2h2rcd13ifvqdh0","pricing_plan_id":"cebpf4jnsgd1na2vs0mg"},{"bike_id":"deb6d07c-b47f-4f95-9554-bcb8acb0df49","system_id":"levelo_inurba_marseille","lat":43.289468,"lon":5.363719,"is_reserved":false,"is_disabled":false,"rental_uris":{"android":"levelo://app?vid=deb6d07c-b47f-4f95-9554-bcb8acb0df49","ios":"levelo://app?vid=deb6d07c-b47f-4f95-9554-bcb8acb0df49"},"vehicle_type_id":"4","last_reported":1725815263,"current_range_meters":9600,"station_id":"ce4bhc92rcd13ifvqetg","pricing_plan_id":"cebpf4jnsgd1na2vs0mg"},{"bike_id":"8f6941b7-670e-4d17-ba86-68870780fe0e","system_id":"levelo_inurba_marseille","lat":43.294153,"lon":5.386305,"is_reserved":false,"is_disabled":false,"rental_uris":{"android":"levelo://app?vid=8f6941b7-670e-4d17-ba86-68870780fe0e","ios":"levelo://app?vid=8f6941b7-670e-4d17-ba86-68870780fe0e"},"vehicle_type_id":"4","last_reported":1725815263,"current_range_meters":25600,"station_id":"ce4bh2h2rcd13ifvqdh0","pricing_plan_id":"cebpf4jnsgd1na2vs0mg"},{"bike_id":"7d7f560c-74e1-47cc-9111-addecbc2691f","system_id":"levelo_inurba_marseille","lat":43.289468,"lon":5.363719,"is_reserved":false,"is_disabled":false,"rental_uris":{"android":"levelo://app?vid=7d7f560c-74e1-47cc-9111-addecbc2691f","ios":"levelo://app?vid=7d7f560c-74e1-47cc-9111-addecbc2691f"},"vehicle_type_id":"4","last_reported":1725815263,"current_range_meters":20000,"station_id":"ce4bhc92rcd13ifvqetg","pricing_plan_id":"cebpf4jnsgd1na2vs0mg"},{"bike_id":"58d1e44b-9adc-4332-b5d6-06fa04cb9efa","system_id":"levelo_inurba_marseille","lat":43.292644,"lon":5.384257,"is_reserved":false,"is_disabled":false,"rental_uris":{"android":"levelo://app?vid=58d1e44b-9adc-4332-b5d6-06fa04cb9efa","ios":"levelo://app?vid=58d1e44b-9adc-4332-b5d6-06fa04cb9efa"},"vehicle_type_id":"4","last_reported":1725815263,"current_range_meters":21200,"station_id":"ce4bh692rcd13ifvqea0","pricing_plan_id":"cebpf4jnsgd1na2vs0mg"},{"bike_id":"ee53a119-a0be-4126-b5c5-dd0a86ac52e0","system_id":"levelo_inurba_marseille","lat":43.29265,"lon":5.38436,"is_reserved":false,"is_disabled":false,"rental_uris":{"android":"levelo://app?vid=ee53a119-a0be-4126-b5c5-dd0a86ac52e0","ios":"levelo://app?vid=ee53a119-a0be-4126-b5c5-dd0a86ac52e0"},"vehicle_type_id":"4","last_reported":1725815263,"current_range_meters":0,"station_id":"ce4bh692rcd13ifvqea0","pricing_plan_id":"cebpf4jnsgd1na2vs0mg"},{"bike_id":"79500b64-f397-4df2-bc68-8ce24b588b00","system_id":"levelo_inurba_marseille","lat":43.292642,"lon":5.384254,"is_reserved":false,"is_disabled":false,"rental_uris":{"android":"levelo://app?vid=79500b64-f397-4df2-bc68-8ce24b588b00","ios":"levelo://app?vid=79500b64-f397-4df2-bc68-8ce24b588b00"},"vehicle_type_id":"4","last_reported":1725815263,"current_range_meters":800,"station_id":"ce4bh692rcd13ifvqea0","pricing_plan_id":"cebpf4jnsgd1na2vs0mg"},{"bike_id":"155e5cf0-fb59-4a2d-9da6-6bc79091d06e","system_id":"levelo_inurba_marseille","lat":43.290995,"lon":5.381361,"is_reserved":false,"is_disabled":false,"rental_uris":{"android":"levelo://app?vid=155e5cf0-fb59-4a2d-9da6-6bc79091d06e","ios":"levelo://app?vid=155e5cf0-fb59-4a2d-9da6-6bc79091d06e"},"vehicle_type_id":"4","last_reported":1725815263,"current_range_meters":26800,"station_id":"ce4bh512rcd13ifvqe2g","pricing_plan_id":"cebpf4jnsgd1na2vs0mg"},{"bike_id":"c11c9150-86f7-427e-b1c6-6bcfcfc81253","system_id":"levelo_inurba_marseille","lat":43.289741,"lon":5.378306,"is_reserved":false,"is_disabled":false,"rental_uris":{"android":"levelo://app?vid=c11c9150-86f7-427e-b1c6-6bcfcfc81253","ios":"levelo://app?vid=c11c9150-86f7-427e-b1c6-6bcfcfc81253"},"vehicle_type_id":"4","last_reported":1725815263,"current_range_meters":18000,"station_id":"ce4bh9p2rcd13ifvqed0","pricing_plan_id":"cebpf4jnsgd1na2vs0mg"},{"bike_id":"2b26d2d0-f63a-458e-9174-e9ae39585a4c","system_id":"levelo_inurba_marseille","lat":43.289741,"lon":5.378306,"is_reserved":false,"is_disabled":false,"rental_uris":{"android":"levelo://app?vid=2b26d2d0-f63a-458e-9174-e9ae39585a4c","ios":"levelo://app?vid=2b26d2d0-f63a-458e-9174-e9ae39585a4c"},"vehicle_type_id":"4","last_reported":1725815263,"current_range_meters":2800,"station_id":"ce4bh9p2rcd13ifvqed0","pricing_plan_id":"cebpf4jnsgd1na2vs0mg"},{"bike_id":"5c0b836e-b6c2-4ca0-81bf-bc8e69ee0a4e","system_id":"levelo_inurba_marseille","lat":43.29788,"lon":5.39342,"is_reserved":false,"is_disabled":false,"rental_uris":{"android":"levelo://app?vid=5c0b836e-b6c2-4ca0-81bf-bc8e69ee0a4e","ios":"levelo://app?vid=5c0b836e-b6c2-4ca0-81bf-bc8e69ee0a4e"},"vehicle_type_id":"4","last_reported":1725815263,"current_range_meters":16400,"station_id":"chh1huq6cuj3fo74tm60","pricing_plan_id":"cebpf4jnsgd1na2vs0mg"},{"bike_id":"f75855fb-6c12-424a-9341-417e4e7693d3","system_id":"levelo_inurba_marseille","lat":43.29789,"lon":5.39346,"is_reserved":false,"is_disabled":false,"rental_uris":{"android":"levelo://app?vid=f75855fb-6c12-424a-9341-417e4e7693d3","ios":"levelo://app?vid=f75855fb-6c12-424a-9341-417e4e7693d3"},"vehicle_type_id":"4","last_reported":1725815263,"current_range_meters":4000,"station_id":"chh1huq6cuj3fo74tm60","pricing_plan_id":"cebpf4jnsgd1na2vs0mg"},{"bike_id":"9949542c-dbd7-4127-bcc5-8963e69d3316","system_id":"levelo_inurba_marseille","lat":43.295169,"lon":5.390426,"is_reserved":false,"is_disabled":false,"rental_uris":{"android":"levelo://app?vid=9949542c-dbd7-4127-bcc5-8963e69d3316","ios":"levelo://app?vid=9949542c-dbd7-4127-bcc5-8963e69d3316"},"vehicle_type_id":"4","last_reported":1725815263,"current_range_meters":15600,"station_id":"ce4bh3p2rcd13ifvqdp0","pricing_plan_id":"cebpf4jnsgd1na2vs0mg"},{"bike_id":"34546423-e620-466b-af3a-41caf46ab046","system_id":"levelo_inurba_marseille","lat":43.28977,"lon":5.37832,"is_reserved":false,"is_disabled":false,"rental_uris":{"android":"levelo://app?vid=34546423-e620-466b-af3a-41caf46ab046","ios":"levelo://app?vid=34546423-e620-466b-af3a-41caf46ab046"},"vehicle_type_id":"4","last_reported":1725815263,"current_range_meters":400,"station_id":"ce4bh9p2rcd13ifvqed0","pricing_plan_id":"cebpf4jnsgd1na2vs0mg"},{"bike_id":"d8c7b767-daae-4b75-84be-f4ad5e520968","system_id":"levelo_inurba_marseille","lat":43.330442,"lon":5.389148,"is_reserved":false,"is_disabled":false,"rental_uris":{"android":"levelo://app?vid=d8c7b767-daae-4b75-84be-f4ad5e520968","ios":"levelo://app?vid=d8c7b767-daae-4b75-84be-f4ad5e520968"},"vehicle_type_id":"4","last_reported":1725815263,"current_range_meters":31200,"station_id":"ce4bhr92rcd13ifvqhrg","pricing_plan_id":"cebpf4jnsgd1na2vs0mg"},{"bike_id":"5e265840-fc21-4e32-a313-f75d9ca40ac5","system_id":"levelo_inurba_marseille","lat":43.33022,"lon":5.39038,"is_reserved":false,"is_disabled":false,"rental_uris":{"android":"levelo://app?vid=5e265840-fc21-4e32-a313-f75d9ca40ac5","ios":"levelo://app?vid=5e265840-fc21-4e32-a313-f75d9ca40ac5"},"vehicle_type_id":"4","last_reported":1725815263,"current_range_meters":10000,"station_id":"ce4bhr92rcd13ifvqhrg","pricing_plan_id":"cebpf4jnsgd1na2vs0mg"},{"bike_id":"796c518e-a25c-409d-9c1b-08c9e0185ef2","system_id":"levelo_inurba_marseille","lat":43.330442,"lon":5.389148,"is_reserved":false,"is_disabled":false,"rental_uris":{"android":"levelo://app?vid=796c518e-a25c-409d-9c1b-08c9e0185ef2","ios":"levelo://app?vid=796c518e-a25c-409d-9c1b-08c9e0185ef2"},"vehicle_type_id":"4","last_reported":1725815263,"current_range_meters":31600,"station_id":"ce4bhr92rcd13ifvqhrg","pricing_plan_id":"cebpf4jnsgd1na2vs0mg"},{"bike_id":"93b047bd-488c-452d-8e23-6ef41cac66e9","system_id":"levelo_inurba_marseille","lat":43.295233,"lon":5.390365,"is_reserved":false,"is_disabled":false,"rental_uris":{"android":"levelo://app?vid=93b047bd-488c-452d-8e23-6ef41cac66e9","ios":"levelo://app?vid=93b047bd-488c-452d-8e23-6ef41cac66e9"},"vehicle_type_id":"4","last_reported":1725815263,"current_range_meters":800,"station_id":"ce4bh3p2rcd13ifvqdp0","pricing_plan_id":"cebpf4jnsgd1na2vs0mg"},{"bike_id":"ed566c35-a845-426c-ae52-2bb50a0abd6b","system_id":"levelo_inurba_marseille","lat":43.330442,"lon":5.389148,"is_reserved":false,"is_disabled":false,"rental_uris":{"android":"levelo://app?vid=ed566c35-a845-426c-ae52-2bb50a0abd6b","ios":"levelo://app?vid=ed566c35-a845-426c-ae52-2bb50a0abd6b"},"vehicle_type_id":"4","last_reported":1725815263,"current_range_meters":31200,"station_id":"ce4bhr92rcd13ifvqhrg","pricing_plan_id":"cebpf4jnsgd1na2vs0mg"},{"bike_id":"374f7d16-6ee0-4f04-b640-ec54d5ce29bc","system_id":"levelo_inurba_marseille","lat":43.330217,"lon":5.39044,"is_reserved":false,"is_disabled":false,"rental_uris":{"android":"levelo://app?vid=374f7d16-6ee0-4f04-b640-ec54d5ce29bc","ios":"levelo://app?vid=374f7d16-6ee0-4f04-b640-ec54d5ce29bc"},"vehicle_type_id":"4","last_reported":1725815263,"current_range_meters":30800,"station_id":"ce4bhr92rcd13ifvqhrg","pricing_plan_id":"cebpf4jnsgd1na2vs0mg"},{"bike_id":"a096d293-dc5e-493c-a6ce-e2d3b6e86a8f","system_id":"levelo_inurba_marseille","lat":43.330442,"lon":5.389148,"is_reserved":false,"is_disabled":false,"rental_uris":{"android":"levelo://app?vid=a096d293-dc5e-493c-a6ce-e2d3b6e86a8f","ios":"levelo://app?vid=a096d293-dc5e-493c-a6ce-e2d3b6e86a8f"},"vehicle_type_id":"4","last_reported":1725815263,"current_range_meters":23600,"station_id":"ce4bhr92rcd13ifvqhrg","pricing_plan_id":"cebpf4jnsgd1na2vs0mg"},{"bike_id":"a4e1f23b-0617-40f6-a9cd-936d021734c0","system_id":"levelo_inurba_marseille","lat":43.330442,"lon":5.389148,"is_reserved":false,"is_disabled":false,"rental_uris":{"android":"levelo://app?vid=a4e1f23b-0617-40f6-a9cd-936d021734c0","ios":"levelo://app?vid=a4e1f23b-0617-40f6-a9cd-936d021734c0"},"vehicle_type_id":"4","last_reported":1725815263,"current_range_meters":24800,"station_id":"ce4bhr92rcd13ifvqhrg","pricing_plan_id":"cebpf4jnsgd1na2vs0mg"},{"bike_id":"b5679bef-3f92-449d-876f-76820b24a6d9","system_id":"levelo_inurba_marseille","lat":43.330442,"lon":5.389148,"is_reserved":false,"is_disabled":false,"rental_uris":{"android":"levelo://app?vid=b5679bef-3f92-449d-876f-76820b24a6d9","ios":"levelo://app?vid=b5679bef-3f92-449d-876f-76820b24a6d9"},"vehicle_type_id":"4","last_reported":1725815263,"current_range_meters":30800,"station_id":"ce4bhr92rcd13ifvqhrg","pricing_plan_id":"cebpf4jnsgd1na2vs0mg"},{"bike_id":"b5c88cb3-bb88-45da-a538-65d522f8e634","system_id":"levelo_inurba_marseille","lat":43.330442,"lon":5.389148,"is_reserved":false,"is_disabled":false,"rental_uris":{"android":"levelo://app?vid=b5c88cb3-bb88-45da-a538-65d522f8e634","ios":"levelo://app?vid=b5c88cb3-bb88-45da-a538-65d522f8e634"},"vehicle_type_id":"4","last_reported":1725815263,"current_range_meters":31200,"station_id":"ce4bhr92rcd13ifvqhrg","pricing_plan_id":"cebpf4jnsgd1na2vs0mg"},{"bike_id":"8f7f5026-877c-40ca-bd29-cf4878fb7a32","system_id":"levelo_inurba_marseille","lat":43.29521,"lon":5.39044,"is_reserved":false,"is_disabled":false,"rental_uris":{"android":"levelo://app?vid=8f7f5026-877c-40ca-bd29-cf4878fb7a32","ios":"levelo://app?vid=8f7f5026-877c-40ca-bd29-cf4878fb7a32"},"vehicle_type_id":"4","last_reported":1725815263,"current_range_meters":19600,"station_id":"ce4bh3p2rcd13ifvqdp0","pricing_plan_id":"cebpf4jnsgd1na2vs0mg"},{"bike_id":"8e9d0ddf-4ce3-4362-95ff-da34b6ae6a0a","system_id":"levelo_inurba_marseille","lat":43.28846,"lon":5.35855,"is_reserved":false,"is_disabled":false,"rental_uris":{"android":"levelo://app?vid=8e9d0ddf-4ce3-4362-95ff-da34b6ae6a0a","ios":"levelo://app?vid=8e9d0ddf-4ce3-4362-95ff-da34b6ae6a0a"},"vehicle_type_id":"4","last_reported":1725815263,"current_range_meters":20800,"station_id":"ce4bhb12rcd13ifvqem0","pricing_plan_id":"cebpf4jnsgd1na2vs0mg"},{"bike_id":"8a4f44ad-8e83-4b7f-875b-c112b0729694","system_id":"levelo_inurba_marseille","lat":43.28842,"lon":5.35863,"is_reserved":false,"is_disabled":false,"rental_uris":{"android":"levelo://app?vid=8a4f44ad-8e83-4b7f-875b-c112b0729694","ios":"levelo://app?vid=8a4f44ad-8e83-4b7f-875b-c112b0729694"},"vehicle_type_id":"4","last_reported":1725815263,"current_range_meters":23200,"station_id":"ce4bhb12rcd13ifvqem0","pricing_plan_id":"cebpf4jnsgd1na2vs0mg"},{"bike_id":"0112747b-0a2f-4333-b71a-d27c7605e812","system_id":"levelo_inurba_marseille","lat":43.309371,"lon":5.401449,"is_reserved":false,"is_disabled":false,"rental_uris":{"android":"levelo://app?vid=0112747b-0a2f-4333-b71a-d27c7605e812","ios":"levelo://app?vid=0112747b-0a2f-4333-b71a-d27c7605e812"},"vehicle_type_id":"4","last_reported":1725815263,"current_range_meters":16800,"station_id":"ce4bgvp2rcd13ifvqct0","pricing_plan_id":"cebpf4jnsgd1na2vs0mg"},{"bike_id":"40565d8c-4159-4883-b3f0-28e961f6be9e","system_id":"levelo_inurba_marseille","lat":43.33716,"lon":5.35769,"is_reserved":false,"is_disabled":false,"rental_uris":{"android":"levelo://app?vid=40565d8c-4159-4883-b3f0-28e961f6be9e","ios":"levelo://app?vid=40565d8c-4159-4883-b3f0-28e961f6be9e"},"vehicle_type_id":"4","last_reported":1725815263,"current_range_meters":11200,"station_id":"","pricing_plan_id":"cebpf4jnsgd1na2vs0mg"},{"bike_id":"fe6eab0b-521c-43c2-ac6f-9f8075476e27","system_id":"levelo_inurba_marseille","lat":43.309371,"lon":5.401449,"is_reserved":false,"is_disabled":false,"rental_uris":{"android":"levelo://app?vid=fe6eab0b-521c-43c2-ac6f-9f8075476e27","ios":"levelo://app?vid=fe6eab0b-521c-43c2-ac6f-9f8075476e27"},"vehicle_type_id":"4","last_reported":1725815263,"current_range_meters":14000,"station_id":"ce4bgvp2rcd13ifvqct0","pricing_plan_id":"cebpf4jnsgd1na2vs0mg"},{"bike_id":"b63ab875-f371-4017-b04e-5940ef49d8a6","system_id":"levelo_inurba_marseille","lat":43.309371,"lon":5.401449,"is_reserved":false,"is_disabled":false,"rental_uris":{"android":"levelo://app?vid=b63ab875-f371-4017-b04e-5940ef49d8a6","ios":"levelo://app?vid=b63ab875-f371-4017-b04e-5940ef49d8a6"},"vehicle_type_id":"4","last_reported":1725815263,"current_range_meters":21200,"station_id":"ce4bgvp2rcd13ifvqct0","pricing_plan_id":"cebpf4jnsgd1na2vs0mg"},{"bike_id":"cf7e7489-e1ac-4207-91e0-7076ae7b72fe","system_id":"levelo_inurba_marseille","lat":43.309371,"lon":5.401449,"is_reserved":false,"is_disabled":false,"rental_uris":{"android":"levelo://app?vid=cf7e7489-e1ac-4207-91e0-7076ae7b72fe","ios":"levelo://app?vid=cf7e7489-e1ac-4207-91e0-7076ae7b72fe"},"vehicle_type_id":"4","last_reported":1725815263,"current_range_meters":6400,"station_id":"ce4bgvp2rcd13ifvqct0","pricing_plan_id":"cebpf4jnsgd1na2vs0mg"},{"bike_id":"edbaf6c5-edbd-40f1-a9e1-ddde1a2b4618","system_id":"levelo_inurba_marseille","lat":43.309371,"lon":5.401449,"is_reserved":false,"is_disabled":false,"rental_uris":{"android":"levelo://app?vid=edbaf6c5-edbd-40f1-a9e1-ddde1a2b4618","ios":"levelo://app?vid=edbaf6c5-edbd-40f1-a9e1-ddde1a2b4618"},"vehicle_type_id":"4","last_reported":1725815263,"current_range_meters":15200,"station_id":"ce4bgvp2rcd13ifvqct0","pricing_plan_id":"cebpf4jnsgd1na2vs0mg"},{"bike_id":"9247293a-0b77-4899-9bc1-22536c0d9eaf","system_id":"levelo_inurba_marseille","lat":43.309371,"lon":5.401449,"is_reserved":false,"is_disabled":false,"rental_uris":{"android":"levelo://app?vid=9247293a-0b77-4899-9bc1-22536c0d9eaf","ios":"levelo://app?vid=9247293a-0b77-4899-9bc1-22536c0d9eaf"},"vehicle_type_id":"4","last_reported":1725815263,"current_range_meters":22800,"station_id":"ce4bgvp2rcd13ifvqct0","pricing_plan_id":"cebpf4jnsgd1na2vs0mg"},{"bike_id":"3d282d65-1e8c-42f3-b076-0576da966490","system_id":"levelo_inurba_marseille","lat":43.312609,"lon":5.401662,"is_reserved":false,"is_disabled":false,"rental_uris":{"android":"levelo://app?vid=3d282d65-1e8c-42f3-b076-0576da966490","ios":"levelo://app?vid=3d282d65-1e8c-42f3-b076-0576da966490"},"vehicle_type_id":"4","last_reported":1725815263,"current_range_meters":27200,"station_id":"ce4bh092rcd13ifvqd30","pricing_plan_id":"cebpf4jnsgd1na2vs0mg"},{"bike_id":"3f3244df-bee4-4437-b2a1-ab9135c8e39a","system_id":"levelo_inurba_marseille","lat":43.33755,"lon":5.37455,"is_reserved":false,"is_disabled":false,"rental_uris":{"android":"levelo://app?vid=3f3244df-bee4-4437-b2a1-ab9135c8e39a","ios":"levelo://app?vid=3f3244df-bee4-4437-b2a1-ab9135c8e39a"},"vehicle_type_id":"4","last_reported":1725815263,"current_range_meters":15600,"station_id":"","pricing_plan_id":"cebpf4jnsgd1na2vs0mg"},{"bike_id":"45985ff5-fc75-4626-9a62-c7067a0f7ca9","system_id":"levelo_inurba_marseille","lat":43.337556,"lon":5.37452,"is_reserved":false,"is_disabled":false,"rental_uris":{"android":"levelo://app?vid=45985ff5-fc75-4626-9a62-c7067a0f7ca9","ios":"levelo://app?vid=45985ff5-fc75-4626-9a62-c7067a0f7ca9"},"vehicle_type_id":"4","last_reported":1725815263,"current_range_meters":28800,"station_id":"","pricing_plan_id":"cebpf4jnsgd1na2vs0mg"},{"bike_id":"39f5af82-2d9d-49b5-9de0-0477144a0224","system_id":"levelo_inurba_marseille","lat":43.33756,"lon":5.37457,"is_reserved":false,"is_disabled":false,"rental_uris":{"android":"levelo://app?vid=39f5af82-2d9d-49b5-9de0-0477144a0224","ios":"levelo://app?vid=39f5af82-2d9d-49b5-9de0-0477144a0224"},"vehicle_type_id":"4","last_reported":1725815263,"current_range_meters":18800,"station_id":"","pricing_plan_id":"cebpf4jnsgd1na2vs0mg"},{"bike_id":"7e2bef77-7c4e-4f09-b1fc-2e2120ff8b14","system_id":"levelo_inurba_marseille","lat":43.30642,"lon":5.401031,"is_reserved":false,"is_disabled":false,"rental_uris":{"android":"levelo://app?vid=7e2bef77-7c4e-4f09-b1fc-2e2120ff8b14","ios":"levelo://app?vid=7e2bef77-7c4e-4f09-b1fc-2e2120ff8b14"},"vehicle_type_id":"4","last_reported":1725815263,"current_range_meters":2400,"station_id":"ce4bh112rcd13ifvqda0","pricing_plan_id":"cebpf4jnsgd1na2vs0mg"},{"bike_id":"2e12692b-7be7-4226-bdd6-7b34af10ae2b","system_id":"levelo_inurba_marseille","lat":43.306412,"lon":5.401035,"is_reserved":false,"is_disabled":false,"rental_uris":{"android":"levelo://app?vid=2e12692b-7be7-4226-bdd6-7b34af10ae2b","ios":"levelo://app?vid=2e12692b-7be7-4226-bdd6-7b34af10ae2b"},"vehicle_type_id":"4","last_reported":1725815263,"current_range_meters":12800,"station_id":"ce4bh112rcd13ifvqda0","pricing_plan_id":"cebpf4jnsgd1na2vs0mg"},{"bike_id":"057f1bf3-86d8-4e3b-b4cb-fed8a5700a26","system_id":"levelo_inurba_marseille","lat":43.301117,"lon":5.398795,"is_reserved":false,"is_disabled":false,"rental_uris":{"android":"levelo://app?vid=057f1bf3-86d8-4e3b-b4cb-fed8a5700a26","ios":"levelo://app?vid=057f1bf3-86d8-4e3b-b4cb-fed8a5700a26"},"vehicle_type_id":"4","last_reported":1725815263,"current_range_meters":19200,"station_id":"ce4bh0h2rcd13ifvqd40","pricing_plan_id":"cebpf4jnsgd1na2vs0mg"},{"bike_id":"8041c972-8dea-4243-8fdd-7bb34a5eb18f","system_id":"levelo_inurba_marseille","lat":43.301117,"lon":5.398795,"is_reserved":false,"is_disabled":false,"rental_uris":{"android":"levelo://app?vid=8041c972-8dea-4243-8fdd-7bb34a5eb18f","ios":"levelo://app?vid=8041c972-8dea-4243-8fdd-7bb34a5eb18f"},"vehicle_type_id":"4","last_reported":1725815263,"current_range_meters":30800,"station_id":"ce4bh0h2rcd13ifvqd40","pricing_plan_id":"cebpf4jnsgd1na2vs0mg"},{"bike_id":"09eabb77-afad-4d4e-bde3-ca350cb6e3db","system_id":"levelo_inurba_marseille","lat":43.301117,"lon":5.398795,"is_reserved":false,"is_disabled":false,"rental_uris":{"android":"levelo://app?vid=09eabb77-afad-4d4e-bde3-ca350cb6e3db","ios":"levelo://app?vid=09eabb77-afad-4d4e-bde3-ca350cb6e3db"},"vehicle_type_id":"4","last_reported":1725815263,"current_range_meters":26800,"station_id":"ce4bh0h2rcd13ifvqd40","pricing_plan_id":"cebpf4jnsgd1na2vs0mg"},{"bike_id":"c0a5e885-b9d5-4210-8369-3d5be9793a0f","system_id":"levelo_inurba_marseille","lat":43.28727,"lon":5.36078,"is_reserved":false,"is_disabled":false,"rental_uris":{"android":"levelo://app?vid=c0a5e885-b9d5-4210-8369-3d5be9793a0f","ios":"levelo://app?vid=c0a5e885-b9d5-4210-8369-3d5be9793a0f"},"vehicle_type_id":"4","last_reported":1725815263,"current_range_meters":4800,"station_id":"cki0cbj6b192h4jlfktg","pricing_plan_id":"cebpf4jnsgd1na2vs0mg"},{"bike_id":"eebe1182-07ae-4a90-86b1-9bc8ce5f1a1f","system_id":"levelo_inurba_marseille","lat":43.286961,"lon":5.373785,"is_reserved":false,"is_disabled":false,"rental_uris":{"android":"levelo://app?vid=eebe1182-07ae-4a90-86b1-9bc8ce5f1a1f","ios":"levelo://app?vid=eebe1182-07ae-4a90-86b1-9bc8ce5f1a1f"},"vehicle_type_id":"4","last_reported":1725815263,"current_range_meters":29200,"station_id":"ce4bh3p2rcd13ifvqdq0","pricing_plan_id":"cebpf4jnsgd1na2vs0mg"},{"bike_id":"9f898b07-9e86-47e3-a06a-5e17cdf0b35a","system_id":"levelo_inurba_marseille","lat":43.286961,"lon":5.373785,"is_reserved":false,"is_disabled":false,"rental_uris":{"android":"levelo://app?vid=9f898b07-9e86-47e3-a06a-5e17cdf0b35a","ios":"levelo://app?vid=9f898b07-9e86-47e3-a06a-5e17cdf0b35a"},"vehicle_type_id":"4","last_reported":1725815263,"current_range_meters":0,"station_id":"ce4bh3p2rcd13ifvqdq0","pricing_plan_id":"cebpf4jnsgd1na2vs0mg"},{"bike_id":"6ef99398-9a05-44ba-8734-422c2057fb3b","system_id":"levelo_inurba_marseille","lat":43.298681,"lon":5.397225,"is_reserved":false,"is_disabled":false,"rental_uris":{"android":"levelo://app?vid=6ef99398-9a05-44ba-8734-422c2057fb3b","ios":"levelo://app?vid=6ef99398-9a05-44ba-8734-422c2057fb3b"},"vehicle_type_id":"4","last_reported":1725815263,"current_range_meters":23200,"station_id":"ce4bh0h2rcd13ifvqd50","pricing_plan_id":"cebpf4jnsgd1na2vs0mg"},{"bike_id":"d83e708a-5811-4396-a44f-0a9e4ad4bc08","system_id":"levelo_inurba_marseille","lat":43.295196,"lon":5.39397,"is_reserved":false,"is_disabled":false,"rental_uris":{"android":"levelo://app?vid=d83e708a-5811-4396-a44f-0a9e4ad4bc08","ios":"levelo://app?vid=d83e708a-5811-4396-a44f-0a9e4ad4bc08"},"vehicle_type_id":"4","last_reported":1725815263,"current_range_meters":0,"station_id":"ce4bh292rcd13ifvqdf0","pricing_plan_id":"cebpf4jnsgd1na2vs0mg"},{"bike_id":"cfaef79a-2936-41f8-bd97-774a4da9a53e","system_id":"levelo_inurba_marseille","lat":43.29031,"lon":5.38633,"is_reserved":false,"is_disabled":false,"rental_uris":{"android":"levelo://app?vid=cfaef79a-2936-41f8-bd97-774a4da9a53e","ios":"levelo://app?vid=cfaef79a-2936-41f8-bd97-774a4da9a53e"},"vehicle_type_id":"4","last_reported":1725815263,"current_range_meters":4400,"station_id":"ce4bh4p2rcd13ifvqe0g","pricing_plan_id":"cebpf4jnsgd1na2vs0mg"},{"bike_id":"ccfdca65-cfe9-4363-9a90-75c87140b5b3","system_id":"levelo_inurba_marseille","lat":43.302759,"lon":5.400793,"is_reserved":false,"is_disabled":false,"rental_uris":{"android":"levelo://app?vid=ccfdca65-cfe9-4363-9a90-75c87140b5b3","ios":"levelo://app?vid=ccfdca65-cfe9-4363-9a90-75c87140b5b3"},"vehicle_type_id":"4","last_reported":1725815263,"current_range_meters":20400,"station_id":"ce4bgvh2rcd13ifvqcs0","pricing_plan_id":"cebpf4jnsgd1na2vs0mg"},{"bike_id":"2439d4d3-c646-4945-a4ba-63860f9910e8","system_id":"levelo_inurba_marseille","lat":43.289307,"lon":5.38406,"is_reserved":false,"is_disabled":false,"rental_uris":{"android":"levelo://app?vid=2439d4d3-c646-4945-a4ba-63860f9910e8","ios":"levelo://app?vid=2439d4d3-c646-4945-a4ba-63860f9910e8"},"vehicle_type_id":"4","last_reported":1725815263,"current_range_meters":18000,"station_id":"ce4bh612rcd13ifvqe6g","pricing_plan_id":"cebpf4jnsgd1na2vs0mg"},{"bike_id":"45f848ee-6818-4fe7-9a07-fd2eb0dba9f1","system_id":"levelo_inurba_marseille","lat":43.290336,"lon":5.386425,"is_reserved":false,"is_disabled":false,"rental_uris":{"android":"levelo://app?vid=45f848ee-6818-4fe7-9a07-fd2eb0dba9f1","ios":"levelo://app?vid=45f848ee-6818-4fe7-9a07-fd2eb0dba9f1"},"vehicle_type_id":"4","last_reported":1725815263,"current_range_meters":0,"station_id":"ce4bh4p2rcd13ifvqe0g","pricing_plan_id":"cebpf4jnsgd1na2vs0mg"},{"bike_id":"47476b8b-3ccb-4c90-b045-3f05bd6b5e43","system_id":"levelo_inurba_marseille","lat":43.302414,"lon":5.40057,"is_reserved":false,"is_disabled":false,"rental_uris":{"android":"levelo://app?vid=47476b8b-3ccb-4c90-b045-3f05bd6b5e43","ios":"levelo://app?vid=47476b8b-3ccb-4c90-b045-3f05bd6b5e43"},"vehicle_type_id":"4","last_reported":1725815263,"current_range_meters":25600,"station_id":"ce4bgvh2rcd13ifvqcs0","pricing_plan_id":"cebpf4jnsgd1na2vs0mg"},{"bike_id":"e49635cb-44ef-498b-b51c-40b07a60377a","system_id":"levelo_inurba_marseille","lat":43.282744,"lon":5.350533,"is_reserved":false,"is_disabled":false,"rental_uris":{"android":"levelo://app?vid=e49635cb-44ef-498b-b51c-40b07a60377a","ios":"levelo://app?vid=e49635cb-44ef-498b-b51c-40b07a60377a"},"vehicle_type_id":"4","last_reported":1725815263,"current_range_meters":18800,"station_id":"ce4bhbp2rcd13ifvqerg","pricing_plan_id":"cebpf4jnsgd1na2vs0mg"},{"bike_id":"a978b290-f32f-44a0-bd14-0dd528f5901a","system_id":"levelo_inurba_marseille","lat":43.286039,"lon":5.370681,"is_reserved":false,"is_disabled":false,"rental_uris":{"android":"levelo://app?vid=a978b290-f32f-44a0-bd14-0dd528f5901a","ios":"levelo://app?vid=a978b290-f32f-44a0-bd14-0dd528f5901a"},"vehicle_type_id":"4","last_reported":1725815263,"current_range_meters":15200,"station_id":"ce4bht12rcd13ifvqi60","pricing_plan_id":"cebpf4jnsgd1na2vs0mg"},{"bike_id":"f441b6f6-0604-4eda-afbb-95684bf93c4f","system_id":"levelo_inurba_marseille","lat":43.286039,"lon":5.370681,"is_reserved":false,"is_disabled":false,"rental_uris":{"android":"levelo://app?vid=f441b6f6-0604-4eda-afbb-95684bf93c4f","ios":"levelo://app?vid=f441b6f6-0604-4eda-afbb-95684bf93c4f"},"vehicle_type_id":"4","last_reported":1725815263,"current_range_meters":0,"station_id":"ce4bht12rcd13ifvqi60","pricing_plan_id":"cebpf4jnsgd1na2vs0mg"},{"bike_id":"40bee104-c9e7-4272-a1b6-5b7dcdb754aa","system_id":"levelo_inurba_marseille","lat":43.286039,"lon":5.370679,"is_reserved":false,"is_disabled":false,"rental_uris":{"android":"levelo://app?vid=40bee104-c9e7-4272-a1b6-5b7dcdb754aa","ios":"levelo://app?vid=40bee104-c9e7-4272-a1b6-5b7dcdb754aa"},"vehicle_type_id":"4","last_reported":1725815263,"current_range_meters":4400,"station_id":"ce4bht12rcd13ifvqi60","pricing_plan_id":"cebpf4jnsgd1na2vs0mg"},{"bike_id":"aafc3934-eef1-4d6b-be94-ad589ca4f41f","system_id":"levelo_inurba_marseille","lat":43.286039,"lon":5.370679,"is_reserved":false,"is_disabled":false,"rental_uris":{"android":"levelo://app?vid=aafc3934-eef1-4d6b-be94-ad589ca4f41f","ios":"levelo://app?vid=aafc3934-eef1-4d6b-be94-ad589ca4f41f"},"vehicle_type_id":"4","last_reported":1725815263,"current_range_meters":10800,"station_id":"ce4bht12rcd13ifvqi60","pricing_plan_id":"cebpf4jnsgd1na2vs0mg"},{"bike_id":"1af8fe08-fc26-41f1-820b-63b6ea0e787a","system_id":"levelo_inurba_marseille","lat":43.286039,"lon":5.370681,"is_reserved":false,"is_disabled":false,"rental_uris":{"android":"levelo://app?vid=1af8fe08-fc26-41f1-820b-63b6ea0e787a","ios":"levelo://app?vid=1af8fe08-fc26-41f1-820b-63b6ea0e787a"},"vehicle_type_id":"4","last_reported":1725815263,"current_range_meters":8000,"station_id":"ce4bht12rcd13ifvqi60","pricing_plan_id":"cebpf4jnsgd1na2vs0mg"},{"bike_id":"7a4aa15d-651d-457e-a04b-9f03afd8500b","system_id":"levelo_inurba_marseille","lat":43.286039,"lon":5.370681,"is_reserved":false,"is_disabled":false,"rental_uris":{"android":"levelo://app?vid=7a4aa15d-651d-457e-a04b-9f03afd8500b","ios":"levelo://app?vid=7a4aa15d-651d-457e-a04b-9f03afd8500b"},"vehicle_type_id":"4","last_reported":1725815263,"current_range_meters":20400,"station_id":"ce4bht12rcd13ifvqi60","pricing_plan_id":"cebpf4jnsgd1na2vs0mg"},{"bike_id":"8f310843-b91c-4db8-a791-24831af12a7f","system_id":"levelo_inurba_marseille","lat":43.286039,"lon":5.370681,"is_reserved":false,"is_disabled":false,"rental_uris":{"android":"levelo://app?vid=8f310843-b91c-4db8-a791-24831af12a7f","ios":"levelo://app?vid=8f310843-b91c-4db8-a791-24831af12a7f"},"vehicle_type_id":"4","last_reported":1725815263,"current_range_meters":23200,"station_id":"ce4bht12rcd13ifvqi60","pricing_plan_id":"cebpf4jnsgd1na2vs0mg"},{"bike_id":"4f776547-bbd7-4091-987b-8a4281959417","system_id":"levelo_inurba_marseille","lat":43.287184,"lon":5.37937,"is_reserved":false,"is_disabled":false,"rental_uris":{"android":"levelo://app?vid=4f776547-bbd7-4091-987b-8a4281959417","ios":"levelo://app?vid=4f776547-bbd7-4091-987b-8a4281959417"},"vehicle_type_id":"4","last_reported":1725815263,"current_range_meters":22000,"station_id":"ce4bh9p2rcd13ifvqec0","pricing_plan_id":"cebpf4jnsgd1na2vs0mg"},{"bike_id":"e35168b3-cc8f-4d3d-b771-915e6adc852f","system_id":"levelo_inurba_marseille","lat":43.287185,"lon":5.379373,"is_reserved":false,"is_disabled":false,"rental_uris":{"android":"levelo://app?vid=e35168b3-cc8f-4d3d-b771-915e6adc852f","ios":"levelo://app?vid=e35168b3-cc8f-4d3d-b771-915e6adc852f"},"vehicle_type_id":"4","last_reported":1725815263,"current_range_meters":25200,"station_id":"ce4bh9p2rcd13ifvqec0","pricing_plan_id":"cebpf4jnsgd1na2vs0mg"},{"bike_id":"0a540e6a-14cd-45f4-b9c1-8204c43ecc7b","system_id":"levelo_inurba_marseille","lat":43.2974,"lon":5.39816,"is_reserved":false,"is_disabled":false,"rental_uris":{"android":"levelo://app?vid=0a540e6a-14cd-45f4-b9c1-8204c43ecc7b","ios":"levelo://app?vid=0a540e6a-14cd-45f4-b9c1-8204c43ecc7b"},"vehicle_type_id":"4","last_reported":1725815263,"current_range_meters":1600,"station_id":"","pricing_plan_id":"cebpf4jnsgd1na2vs0mg"},{"bike_id":"bf8685a9-19dd-4abf-8d31-d001348b2b02","system_id":"levelo_inurba_marseille","lat":43.290336,"lon":5.386425,"is_reserved":false,"is_disabled":false,"rental_uris":{"android":"levelo://app?vid=bf8685a9-19dd-4abf-8d31-d001348b2b02","ios":"levelo://app?vid=bf8685a9-19dd-4abf-8d31-d001348b2b02"},"vehicle_type_id":"4","last_reported":1725815263,"current_range_meters":16400,"station_id":"ce4bh4p2rcd13ifvqe0g","pricing_plan_id":"cebpf4jnsgd1na2vs0mg"},{"bike_id":"534d9670-1026-4aa5-acac-4551b878b324","system_id":"levelo_inurba_marseille","lat":43.286039,"lon":5.370681,"is_reserved":false,"is_disabled":false,"rental_uris":{"android":"levelo://app?vid=534d9670-1026-4aa5-acac-4551b878b324","ios":"levelo://app?vid=534d9670-1026-4aa5-acac-4551b878b324"},"vehicle_type_id":"4","last_reported":1725815263,"current_range_meters":3600,"station_id":"ce4bht12rcd13ifvqi60","pricing_plan_id":"cebpf4jnsgd1na2vs0mg"},{"bike_id":"2857ceec-c1bb-4c03-8997-d2e8c05e4314","system_id":"levelo_inurba_marseille","lat":43.316828,"lon":5.404723,"is_reserved":false,"is_disabled":false,"rental_uris":{"android":"levelo://app?vid=2857ceec-c1bb-4c03-8997-d2e8c05e4314","ios":"levelo://app?vid=2857ceec-c1bb-4c03-8997-d2e8c05e4314"},"vehicle_type_id":"4","last_reported":1725815263,"current_range_meters":22000,"station_id":"ce4bh012rcd13ifvqd00","pricing_plan_id":"cebpf4jnsgd1na2vs0mg"},{"bike_id":"07ca8547-b730-4331-ae52-e10bd00a0e4f","system_id":"levelo_inurba_marseille","lat":43.316821,"lon":5.404737,"is_reserved":false,"is_disabled":false,"rental_uris":{"android":"levelo://app?vid=07ca8547-b730-4331-ae52-e10bd00a0e4f","ios":"levelo://app?vid=07ca8547-b730-4331-ae52-e10bd00a0e4f"},"vehicle_type_id":"4","last_reported":1725815263,"current_range_meters":31200,"station_id":"ce4bh012rcd13ifvqd00","pricing_plan_id":"cebpf4jnsgd1na2vs0mg"},{"bike_id":"152c8863-0c05-4bcb-bc20-2920d681e8aa","system_id":"levelo_inurba_marseille","lat":43.316828,"lon":5.404723,"is_reserved":false,"is_disabled":false,"rental_uris":{"android":"levelo://app?vid=152c8863-0c05-4bcb-bc20-2920d681e8aa","ios":"levelo://app?vid=152c8863-0c05-4bcb-bc20-2920d681e8aa"},"vehicle_type_id":"4","last_reported":1725815263,"current_range_meters":19200,"station_id":"ce4bh012rcd13ifvqd00","pricing_plan_id":"cebpf4jnsgd1na2vs0mg"},{"bike_id":"84c8b8f7-fe68-46e0-bb1f-ebaadf0717d9","system_id":"levelo_inurba_marseille","lat":43.316821,"lon":5.404737,"is_reserved":false,"is_disabled":false,"rental_uris":{"android":"levelo://app?vid=84c8b8f7-fe68-46e0-bb1f-ebaadf0717d9","ios":"levelo://app?vid=84c8b8f7-fe68-46e0-bb1f-ebaadf0717d9"},"vehicle_type_id":"4","last_reported":1725815263,"current_range_meters":28000,"station_id":"ce4bh012rcd13ifvqd00","pricing_plan_id":"cebpf4jnsgd1na2vs0mg"},{"bike_id":"36564c28-0258-4445-8b82-28ce6f5b0b2e","system_id":"levelo_inurba_marseille","lat":43.29193,"lon":5.393095,"is_reserved":false,"is_disabled":false,"rental_uris":{"android":"levelo://app?vid=36564c28-0258-4445-8b82-28ce6f5b0b2e","ios":"levelo://app?vid=36564c28-0258-4445-8b82-28ce6f5b0b2e"},"vehicle_type_id":"4","last_reported":1725815263,"current_range_meters":20400,"station_id":"ce4bh192rcd13ifvqdd0","pricing_plan_id":"cebpf4jnsgd1na2vs0mg"},{"bike_id":"f9a2a2e1-be60-4482-a44e-96ac0fc56d01","system_id":"levelo_inurba_marseille","lat":43.284538,"lon":5.358657,"is_reserved":false,"is_disabled":false,"rental_uris":{"android":"levelo://app?vid=f9a2a2e1-be60-4482-a44e-96ac0fc56d01","ios":"levelo://app?vid=f9a2a2e1-be60-4482-a44e-96ac0fc56d01"},"vehicle_type_id":"4","last_reported":1725815263,"current_range_meters":24800,"station_id":"ce4bhah2rcd13ifvqei0","pricing_plan_id":"cebpf4jnsgd1na2vs0mg"},{"bike_id":"63aa4792-e4ff-4ec3-83ea-9991b7ceb3d3","system_id":"levelo_inurba_marseille","lat":43.303256,"lon":5.404389,"is_reserved":false,"is_disabled":false,"rental_uris":{"android":"levelo://app?vid=63aa4792-e4ff-4ec3-83ea-9991b7ceb3d3","ios":"levelo://app?vid=63aa4792-e4ff-4ec3-83ea-9991b7ceb3d3"},"vehicle_type_id":"4","last_reported":1725815263,"current_range_meters":3200,"station_id":"ce4bh012rcd13ifvqd10","pricing_plan_id":"cebpf4jnsgd1na2vs0mg"},{"bike_id":"62d537d4-6b70-43f3-ad85-4af3cfeca2bb","system_id":"levelo_inurba_marseille","lat":43.303247,"lon":5.404433,"is_reserved":false,"is_disabled":false,"rental_uris":{"android":"levelo://app?vid=62d537d4-6b70-43f3-ad85-4af3cfeca2bb","ios":"levelo://app?vid=62d537d4-6b70-43f3-ad85-4af3cfeca2bb"},"vehicle_type_id":"4","last_reported":1725815263,"current_range_meters":0,"station_id":"ce4bh012rcd13ifvqd10","pricing_plan_id":"cebpf4jnsgd1na2vs0mg"},{"bike_id":"4a9be160-1f22-4326-a01b-c185421fc4e2","system_id":"levelo_inurba_marseille","lat":43.28622,"lon":5.35111,"is_reserved":false,"is_disabled":false,"rental_uris":{"android":"levelo://app?vid=4a9be160-1f22-4326-a01b-c185421fc4e2","ios":"levelo://app?vid=4a9be160-1f22-4326-a01b-c185421fc4e2"},"vehicle_type_id":"4","last_reported":1725815263,"current_range_meters":27200,"station_id":"ce4bhch2rcd13ifvqeug","pricing_plan_id":"cebpf4jnsgd1na2vs0mg"},{"bike_id":"6e864241-a96c-4136-ae58-c7be2062d1d8","system_id":"levelo_inurba_marseille","lat":43.30323,"lon":5.40451,"is_reserved":false,"is_disabled":false,"rental_uris":{"android":"levelo://app?vid=6e864241-a96c-4136-ae58-c7be2062d1d8","ios":"levelo://app?vid=6e864241-a96c-4136-ae58-c7be2062d1d8"},"vehicle_type_id":"4","last_reported":1725815263,"current_range_meters":10000,"station_id":"ce4bh012rcd13ifvqd10","pricing_plan_id":"cebpf4jnsgd1na2vs0mg"},{"bike_id":"6178ff15-8a37-434c-bf12-d517cf7d2f5e","system_id":"levelo_inurba_marseille","lat":43.28617,"lon":5.35105,"is_reserved":false,"is_disabled":false,"rental_uris":{"android":"levelo://app?vid=6178ff15-8a37-434c-bf12-d517cf7d2f5e","ios":"levelo://app?vid=6178ff15-8a37-434c-bf12-d517cf7d2f5e"},"vehicle_type_id":"4","last_reported":1725815263,"current_range_meters":22800,"station_id":"ce4bhch2rcd13ifvqeug","pricing_plan_id":"cebpf4jnsgd1na2vs0mg"},{"bike_id":"60b15c4d-c732-47be-ae79-1e6e12eec51d","system_id":"levelo_inurba_marseille","lat":43.28617,"lon":5.35104,"is_reserved":false,"is_disabled":false,"rental_uris":{"android":"levelo://app?vid=60b15c4d-c732-47be-ae79-1e6e12eec51d","ios":"levelo://app?vid=60b15c4d-c732-47be-ae79-1e6e12eec51d"},"vehicle_type_id":"4","last_reported":1725815263,"current_range_meters":6800,"station_id":"ce4bhch2rcd13ifvqeug","pricing_plan_id":"cebpf4jnsgd1na2vs0mg"},{"bike_id":"f2e1985c-c7c4-4946-a53c-1217b8e3dd16","system_id":"levelo_inurba_marseille","lat":43.285856,"lon":5.350771,"is_reserved":false,"is_disabled":false,"rental_uris":{"android":"levelo://app?vid=f2e1985c-c7c4-4946-a53c-1217b8e3dd16","ios":"levelo://app?vid=f2e1985c-c7c4-4946-a53c-1217b8e3dd16"},"vehicle_type_id":"4","last_reported":1725815263,"current_range_meters":5200,"station_id":"ce4bhch2rcd13ifvqeug","pricing_plan_id":"cebpf4jnsgd1na2vs0mg"},{"bike_id":"fb19c087-04d6-4eb6-b571-9e168494f7db","system_id":"levelo_inurba_marseille","lat":43.295713,"lon":5.399639,"is_reserved":false,"is_disabled":false,"rental_uris":{"android":"levelo://app?vid=fb19c087-04d6-4eb6-b571-9e168494f7db","ios":"levelo://app?vid=fb19c087-04d6-4eb6-b571-9e168494f7db"},"vehicle_type_id":"4","last_reported":1725815263,"current_range_meters":0,"station_id":"ce4bh312rcd13ifvqdj0","pricing_plan_id":"cebpf4jnsgd1na2vs0mg"},{"bike_id":"99cfaa8b-0ee7-4844-9162-8f3687ee67bc","system_id":"levelo_inurba_marseille","lat":43.28665,"lon":5.38676,"is_reserved":false,"is_disabled":false,"rental_uris":{"android":"levelo://app?vid=99cfaa8b-0ee7-4844-9162-8f3687ee67bc","ios":"levelo://app?vid=99cfaa8b-0ee7-4844-9162-8f3687ee67bc"},"vehicle_type_id":"4","last_reported":1725815263,"current_range_meters":0,"station_id":"ce4bh492rcd13ifvqdug","pricing_plan_id":"cebpf4jnsgd1na2vs0mg"},{"bike_id":"ba0d2442-1adb-4df4-ac07-5cfdd4b2c0d4","system_id":"levelo_inurba_marseille","lat":43.319179,"lon":5.407725,"is_reserved":false,"is_disabled":false,"rental_uris":{"android":"levelo://app?vid=ba0d2442-1adb-4df4-ac07-5cfdd4b2c0d4","ios":"levelo://app?vid=ba0d2442-1adb-4df4-ac07-5cfdd4b2c0d4"},"vehicle_type_id":"4","last_reported":1725815263,"current_range_meters":16800,"station_id":"ce4bhq12rcd13ifvqhig","pricing_plan_id":"cebpf4jnsgd1na2vs0mg"},{"bike_id":"f099882b-d5a7-4f39-98c4-d8de9886a4b4","system_id":"levelo_inurba_marseille","lat":43.319179,"lon":5.407725,"is_reserved":false,"is_disabled":false,"rental_uris":{"android":"levelo://app?vid=f099882b-d5a7-4f39-98c4-d8de9886a4b4","ios":"levelo://app?vid=f099882b-d5a7-4f39-98c4-d8de9886a4b4"},"vehicle_type_id":"4","last_reported":1725815263,"current_range_meters":30800,"station_id":"ce4bhq12rcd13ifvqhig","pricing_plan_id":"cebpf4jnsgd1na2vs0mg"},{"bike_id":"99a04fa2-1987-482d-8656-a427b31f7a63","system_id":"levelo_inurba_marseille","lat":43.319179,"lon":5.407725,"is_reserved":false,"is_disabled":false,"rental_uris":{"android":"levelo://app?vid=99a04fa2-1987-482d-8656-a427b31f7a63","ios":"levelo://app?vid=99a04fa2-1987-482d-8656-a427b31f7a63"},"vehicle_type_id":"4","last_reported":1725815263,"current_range_meters":11200,"station_id":"ce4bhq12rcd13ifvqhig","pricing_plan_id":"cebpf4jnsgd1na2vs0mg"},{"bike_id":"827b7493-961c-4cc7-bbfb-0d5b54b1ab4c","system_id":"levelo_inurba_marseille","lat":43.319179,"lon":5.407725,"is_reserved":false,"is_disabled":false,"rental_uris":{"android":"levelo://app?vid=827b7493-961c-4cc7-bbfb-0d5b54b1ab4c","ios":"levelo://app?vid=827b7493-961c-4cc7-bbfb-0d5b54b1ab4c"},"vehicle_type_id":"4","last_reported":1725815263,"current_range_meters":29200,"station_id":"ce4bhq12rcd13ifvqhig","pricing_plan_id":"cebpf4jnsgd1na2vs0mg"},{"bike_id":"2da9a35b-7839-40fa-8c99-468475e07ba9","system_id":"levelo_inurba_marseille","lat":43.319179,"lon":5.407725,"is_reserved":false,"is_disabled":false,"rental_uris":{"android":"levelo://app?vid=2da9a35b-7839-40fa-8c99-468475e07ba9","ios":"levelo://app?vid=2da9a35b-7839-40fa-8c99-468475e07ba9"},"vehicle_type_id":"4","last_reported":1725815263,"current_range_meters":30400,"station_id":"ce4bhq12rcd13ifvqhig","pricing_plan_id":"cebpf4jnsgd1na2vs0mg"},{"bike_id":"0954c634-4801-4440-8808-7dcf674c054f","system_id":"levelo_inurba_marseille","lat":43.28825,"lon":5.3916,"is_reserved":false,"is_disabled":false,"rental_uris":{"android":"levelo://app?vid=0954c634-4801-4440-8808-7dcf674c054f","ios":"levelo://app?vid=0954c634-4801-4440-8808-7dcf674c054f"},"vehicle_type_id":"4","last_reported":1725815263,"current_range_meters":9200,"station_id":"","pricing_plan_id":"cebpf4jnsgd1na2vs0mg"},{"bike_id":"18f7455d-ac53-4ab8-bf77-a7dcded6b691","system_id":"levelo_inurba_marseille","lat":43.33716,"lon":5.3918,"is_reserved":false,"is_disabled":false,"rental_uris":{"android":"levelo://app?vid=18f7455d-ac53-4ab8-bf77-a7dcded6b691","ios":"levelo://app?vid=18f7455d-ac53-4ab8-bf77-a7dcded6b691"},"vehicle_type_id":"4","last_reported":1725815263,"current_range_meters":27600,"station_id":"ce4bhr92rcd13ifvqhsg","pricing_plan_id":"cebpf4jnsgd1na2vs0mg"},{"bike_id":"33848d7b-c181-4b82-9668-81288976e0f0","system_id":"levelo_inurba_marseille","lat":43.304299,"lon":5.407086,"is_reserved":false,"is_disabled":false,"rental_uris":{"android":"levelo://app?vid=33848d7b-c181-4b82-9668-81288976e0f0","ios":"levelo://app?vid=33848d7b-c181-4b82-9668-81288976e0f0"},"vehicle_type_id":"4","last_reported":1725815263,"current_range_meters":21600,"station_id":"","pricing_plan_id":"cebpf4jnsgd1na2vs0mg"},{"bike_id":"90b10346-3ff6-4bf1-b67d-fa0e279640c3","system_id":"levelo_inurba_marseille","lat":43.33717,"lon":5.391857,"is_reserved":false,"is_disabled":false,"rental_uris":{"android":"levelo://app?vid=90b10346-3ff6-4bf1-b67d-fa0e279640c3","ios":"levelo://app?vid=90b10346-3ff6-4bf1-b67d-fa0e279640c3"},"vehicle_type_id":"4","last_reported":1725815263,"current_range_meters":19600,"station_id":"ce4bhr92rcd13ifvqhsg","pricing_plan_id":"cebpf4jnsgd1na2vs0mg"},{"bike_id":"dbd79bb9-9c1d-447f-949e-955b800d96b7","system_id":"levelo_inurba_marseille","lat":43.33725,"lon":5.39183,"is_reserved":false,"is_disabled":false,"rental_uris":{"android":"levelo://app?vid=dbd79bb9-9c1d-447f-949e-955b800d96b7","ios":"levelo://app?vid=dbd79bb9-9c1d-447f-949e-955b800d96b7"},"vehicle_type_id":"4","last_reported":1725815263,"current_range_meters":31200,"station_id":"ce4bhr92rcd13ifvqhsg","pricing_plan_id":"cebpf4jnsgd1na2vs0mg"},{"bike_id":"62a4c3dd-14c5-40d9-876d-20e374bc1fb7","system_id":"levelo_inurba_marseille","lat":43.33725,"lon":5.39194,"is_reserved":false,"is_disabled":false,"rental_uris":{"android":"levelo://app?vid=62a4c3dd-14c5-40d9-876d-20e374bc1fb7","ios":"levelo://app?vid=62a4c3dd-14c5-40d9-876d-20e374bc1fb7"},"vehicle_type_id":"4","last_reported":1725815263,"current_range_meters":16400,"station_id":"ce4bhr92rcd13ifvqhsg","pricing_plan_id":"cebpf4jnsgd1na2vs0mg"},