{"last_updated":1678226840,"ttl":30,"version":"2.2","data":{"bikes":[{"bike_id":"e028b574-f3f7-41fc-9ce4-646480fbc4df","system_id":"levelo_inurba_marseille","lat":43.314811,"lon":5.373103,"is_reserved":false,"is_disabled":false,"rental_uris":{"android":"levelo://app?vid=e028b574-f3f7-41fc-9ce4-646480fbc4df","ios":"levelo://app?vid=e028b574-f3f7-41fc-9ce4-646480fbc4df"},"vehicle_type_id":"4","last_reported":1678226840,"current_range_meters":14000,"station_id":"ce4bgt12rcd13ifvqcd0","pricing_plan_id":"free"},{"bike_id":"ff7433c6-000e-416b-84a4-aea133e1b874","system_id":"levelo_inurba_marseille","lat":43.314811,"lon":5.373103,"is_reserved":false,"is_disabled":false,"rental_uris":{"android":"levelo://app?vid=ff7433c6-000e-416b-84a4-aea133e1b874","ios":"levelo://app?vid=ff7433c6-000e-416b-84a4-aea133e1b874"},"vehicle_type_id":"4","last_reported":1678226840,"current_range_meters":8800,"station_id":"ce4bgt12rcd13ifvqcd0","pricing_plan_id":"free"},{"bike_id":"9e2aa78e-2670-4576-b50a-004733babce6","system_id":"levelo_inurba_marseille","lat":43.308614,"lon":5.372098,"is_reserved":false,"is_disabled":false,"rental_uris":{"android":"levelo://app?vid=9e2aa78e-2670-4576-b50a-004733babce6","ios":"levelo://app?vid=9e2aa78e-2670-4576-b50a-004733babce6"},"vehicle_type_id":"4","last_reported":1678226840,"current_range_meters":0,"station_id":"ce4bguh2rcd13ifvqckg","pricing_plan_id":"free"},{"bike_id":"2e7a965b-2886-41e1-89b0-e1e03ad13923","system_id":"levelo_inurba_marseille","lat":43.308614,"lon":5.372098,"is_reserved":false,"is_disabled":false,"rental_uris":{"android":"levelo://app?vid=2e7a965b-2886-41e1-89b0-e1e03ad13923","ios":"levelo://app?vid=2e7a965b-2886-41e1-89b0-e1e03ad13923"},"vehicle_type_id":"4","last_reported":1678226840,"current_range_meters":0,"station_id":"ce4bguh2rcd13ifvqckg","pricing_plan_id":"free"},{"bike_id":"23d33833-2744-4e69-a364-a8a52136068b","system_id":"levelo_inurba_marseille","lat":43.305838,"lon":5.370998,"is_reserved":false,"is_disabled":false,"rental_uris":{"android":"levelo://app?vid=23d33833-2744-4e69-a364-a8a52136068b","ios":"levelo://app?vid=23d33833-2744-4e69-a364-a8a52136068b"},"vehicle_type_id":"4","last_reported":1678226840,"current_range_meters":0,"station_id":"","pricing_plan_id":"free"},{"bike_id":"d8cb1948-ccf4-4326-9667-1802dcb98a8c","system_id":"levelo_inurba_marseille","lat":43.305989,"lon":5.37225,"is_reserved":false,"is_disabled":false,"rental_uris":{"android":"levelo://app?vid=d8cb1948-ccf4-4326-9667-1802dcb98a8c","ios":"levelo://app?vid=d8cb1948-ccf4-4326-9667-1802dcb98a8c"},"vehicle_type_id":"4","last_reported":1678226840,"current_range_meters":18800,"station_id":"ce4bgqh2rcd13ifvqc4g","pricing_plan_id":"free"},{"bike_id":"80ac2269-380e-46a8-8105-b30e205bac15","system_id":"levelo_inurba_marseille","lat":43.305989,"lon":5.37225,"is_reserved":false,"is_disabled":false,"rental_uris":{"android":"levelo://app?vid=80ac2269-380e-46a8-8105-b30e205bac15","ios":"levelo://app?vid=80ac2269-380e-46a8-8105-b30e205bac15"},"vehicle_type_id":"4","last_reported":1678226840,"current_range_meters":21600,"station_id":"ce4bgqh2rcd13ifvqc4g","pricing_plan_id":"free"},{"bike_id":"c94b52a1-9b6e-4b55-9ad9-d67cdac84a7b","system_id":"levelo_inurba_marseille","lat":43.305989,"lon":5.37225,"is_reserved":false,"is_disabled":false,"rental_uris":{"android":"levelo://app?vid=c94b52a1-9b6e-4b55-9ad9-d67cdac84a7b","ios":"levelo://app?vid=c94b52a1-9b6e-4b55-9ad9-d67cdac84a7b"},"vehicle_type_id":"4","last_reported":1678226840,"current_range_meters":11200,"station_id":"ce4bgqh2rcd13ifvqc4g","pricing_plan_id":"free"},{"bike_id":"e64cefa8-caea-43bd-90b8-888f62931744","system_id":"levelo_inurba_marseille","lat":43.31693,"lon":5.37763,"is_reserved":false,"is_disabled":false,"rental_uris":{"android":"levelo://app?vid=e64cefa8-caea-43bd-90b8-888f62931744","ios":"levelo://app?vid=e64cefa8-caea-43bd-90b8-888f62931744"},"vehicle_type_id":"4","last_reported":1678226840,"current_range_meters":2400,"station_id":"ce4bgth2rcd13ifvqch0","pricing_plan_id":"free"},{"bike_id":"25e1479d-7b14-4248-ab09-3e114980952b","system_id":"levelo_inurba_marseille","lat":43.317075,"lon":5.377367,"is_reserved":false,"is_disabled":false,"rental_uris":{"android":"levelo://app?vid=25e1479d-7b14-4248-ab09-3e114980952b","ios":"levelo://app?vid=25e1479d-7b14-4248-ab09-3e114980952b"},"vehicle_type_id":"4","last_reported":1678226840,"current_range_meters":27600,"station_id":"ce4bgth2rcd13ifvqch0","pricing_plan_id":"free"},{"bike_id":"26ea2204-6028-4688-95d5-c06142b448ca","system_id":"levelo_inurba_marseille","lat":43.317075,"lon":5.377367,"is_reserved":false,"is_disabled":false,"rental_uris":{"android":"levelo://app?vid=26ea2204-6028-4688-95d5-c06142b448ca","ios":"levelo://app?vid=26ea2204-6028-4688-95d5-c06142b448ca"},"vehicle_type_id":"4","last_reported":1678226840,"current_range_meters":11200,"station_id":"ce4bgth2rcd13ifvqch0","pricing_plan_id":"free"},{"bike_id":"4e208051-2fce-4460-843f-649f4e6f3ed0","system_id":"levelo_inurba_marseille","lat":43.301939,"lon":5.366286,"is_reserved":false,"is_disabled":false,"rental_uris":{"android":"levelo://app?vid=4e208051-2fce-4460-843f-649f4e6f3ed0","ios":"levelo://app?vid=4e208051-2fce-4460-843f-649f4e6f3ed0"},"vehicle_type_id":"4","last_reported":1678226840,"current_range_meters":23600,"station_id":"ce4bgrh2rcd13ifvqc8g","pricing_plan_id":"free"},{"bike_id":"60a25a6f-4c15-4e38-bd2a-7f03cfc5f5a1","system_id":"levelo_inurba_marseille","lat":43.308007,"lon":5.381574,"is_reserved":false,"is_disabled":false,"rental_uris":{"android":"levelo://app?vid=60a25a6f-4c15-4e38-bd2a-7f03cfc5f5a1","ios":"levelo://app?vid=60a25a6f-4c15-4e38-bd2a-7f03cfc5f5a1"},"vehicle_type_id":"4","last_reported":1678226840,"current_range_meters":0,"station_id":"","pricing_plan_id":"free"},{"bike_id":"91f4628a-85af-4d12-8822-91fd243e7f3f","system_id":"levelo_inurba_marseille","lat":43.30804,"lon":5.38162,"is_reserved":false,"is_disabled":false,"rental_uris":{"android":"levelo://app?vid=91f4628a-85af-4d12-8822-91fd243e7f3f","ios":"levelo://app?vid=91f4628a-85af-4d12-8822-91fd243e7f3f"},"vehicle_type_id":"4","last_reported":1678226840,"current_range_meters":17600,"station_id":"ce4bgt12rcd13ifvqce0","pricing_plan_id":"free"},{"bike_id":"cb264b9c-7da4-4451-b1af-c3965454b1ce","system_id":"levelo_inurba_marseille","lat":43.308012,"lon":5.381511,"is_reserved":false,"is_disabled":false,"rental_uris":{"android":"levelo://app?vid=cb264b9c-7da4-4451-b1af-c3965454b1ce","ios":"levelo://app?vid=cb264b9c-7da4-4451-b1af-c3965454b1ce"},"vehicle_type_id":"4","last_reported":1678226840,"current_range_meters":11200,"station_id":"ce4bgt12rcd13ifvqce0","pricing_plan_id":"free"},{"bike_id":"b23c6e6d-2e9a-4f75-a6cc-479dcbabd505","system_id":"levelo_inurba_marseille","lat":43.304606,"lon":5.379026,"is_reserved":false,"is_disabled":false,"rental_uris":{"android":"levelo://app?vid=b23c6e6d-2e9a-4f75-a6cc-479dcbabd505","ios":"levelo://app?vid=b23c6e6d-2e9a-4f75-a6cc-479dcbabd505"},"vehicle_type_id":"4","last_reported":1678226840,"current_range_meters":7600,"station_id":"ce4bgup2rcd13ifvqcn0","pricing_plan_id":"free"},{"bike_id":"8cd29498-5212-4c7e-b120-5cfbad6f385e","system_id":"levelo_inurba_marseille","lat":43.304621,"lon":5.379048,"is_reserved":false,"is_disabled":false,"rental_uris":{"android":"levelo://app?vid=8cd29498-5212-4c7e-b120-5cfbad6f385e","ios":"levelo://app?vid=8cd29498-5212-4c7e-b120-5cfbad6f385e"},"vehicle_type_id":"4","last_reported":1678226840,"current_range_meters":13200,"station_id":"ce4bgup2rcd13ifvqcn0","pricing_plan_id":"free"},{"bike_id":"364a6d12-455d-4b2c-98d0-7ca4162148d0","system_id":"levelo_inurba_marseille","lat":43.304606,"lon":5.379026,"is_reserved":false,"is_disabled":false,"rental_uris":{"android":"levelo://app?vid=364a6d12-455d-4b2c-98d0-7ca4162148d0","ios":"levelo://app?vid=364a6d12-455d-4b2c-98d0-7ca4162148d0"},"vehicle_type_id":"4","last_reported":1678226840,"current_range_meters":7600,"station_id":"ce4bgup2rcd13ifvqcn0","pricing_plan_id":"free"},{"bike_id":"24a278f1-7caf-4f95-ba61-639d43c968f8","system_id":"levelo_inurba_marseille","lat":43.30143,"lon":5.37413,"is_reserved":false,"is_disabled":false,"rental_uris":{"android":"levelo://app?vid=24a278f1-7caf-4f95-ba61-639d43c968f8","ios":"levelo://app?vid=24a278f1-7caf-4f95-ba61-639d43c968f8"},"vehicle_type_id":"4","last_reported":1678226840,"current_range_meters":30000,"station_id":"ce4bgs92rcd13ifvqcc0","pricing_plan_id":"free"},{"bike_id":"8a7034b2-c201-4470-9f5b-1133feb2d522","system_id":"levelo_inurba_marseille","lat":43.313571,"lon":5.384829,"is_reserved":false,"is_disabled":false,"rental_uris":{"android":"levelo://app?vid=8a7034b2-c201-4470-9f5b-1133feb2d522","ios":"levelo://app?vid=8a7034b2-c201-4470-9f5b-1133feb2d522"},"vehicle_type_id":"4","last_reported":1678226840,"current_range_meters":11600,"station_id":"ce4bgt92rcd13ifvqcf0","pricing_plan_id":"free"},{"bike_id":"840cf3e4-1e2f-4d28-80ee-b58d70ea023f","system_id":"levelo_inurba_marseille","lat":43.298433,"lon":5.362774,"is_reserved":false,"is_disabled":false,"rental_uris":{"android":"levelo://app?vid=840cf3e4-1e2f-4d28-80ee-b58d70ea023f","ios":"levelo://app?vid=840cf3e4-1e2f-4d28-80ee-b58d70ea023f"},"vehicle_type_id":"4","last_reported":1678226840,"current_range_meters":23600,"station_id":"ce4bgpp2rcd13ifvqc3g","pricing_plan_id":"free"},{"bike_id":"4fe0ee7a-ab62-4cfb-b17a-d4fe6662659c","system_id":"levelo_inurba_marseille","lat":43.305364,"lon":5.384119,"is_reserved":false,"is_disabled":false,"rental_uris":{"android":"levelo://app?vid=4fe0ee7a-ab62-4cfb-b17a-d4fe6662659c","ios":"levelo://app?vid=4fe0ee7a-ab62-4cfb-b17a-d4fe6662659c"},"vehicle_type_id":"4","last_reported":1678226840,"current_range_meters":14400,"station_id":"ce4bgg92rcd13ifvqb30","pricing_plan_id":"free"},{"bike_id":"cfdc80fb-0ca4-4861-beda-762a32785536","system_id":"levelo_inurba_marseille","lat":43.29842,"lon":5.36264,"is_reserved":false,"is_disabled":false,"rental_uris":{"android":"levelo://app?vid=cfdc80fb-0ca4-4861-beda-762a32785536","ios":"levelo://app?vid=cfdc80fb-0ca4-4861-beda-762a32785536"},"vehicle_type_id":"4","last_reported":1678226840,"current_range_meters":25600,"station_id":"ce4bgpp2rcd13ifvqc3g","pricing_plan_id":"free"},{"bike_id":"92ef316d-907c-49d2-b0d8-8963eabe3560","system_id":"levelo_inurba_marseille","lat":43.305364,"lon":5.384119,"is_reserved":false,"is_disabled":false,"rental_uris":{"android":"levelo://app?vid=92ef316d-907c-49d2-b0d8-8963eabe3560","ios":"levelo://app?vid=92ef316d-907c-49d2-b0d8-8963eabe3560"},"vehicle_type_id":"4","last_reported":1678226840,"current_range_meters":0,"station_id":"ce4bgg92rcd13ifvqb30","pricing_plan_id":"free"},{"bike_id":"2fff25c7-a94b-4ed2-95c5-feb8d5c73e18","system_id":"levelo_inurba_marseille","lat":43.31173,"lon":5.38712,"is_reserved":false,"is_disabled":false,"rental_uris":{"android":"levelo://app?vid=2fff25c7-a94b-4ed2-95c5-feb8d5c73e18","ios":"levelo://app?vid=2fff25c7-a94b-4ed2-95c5-feb8d5c73e18"},"vehicle_type_id":"4","last_reported":1678226840,"current_range_meters":16400,"station_id":"ce4bgv12rcd13ifvqcp0","pricing_plan_id":"free"},{"bike_id":"775c6d93-90e0-437e-a299-147646e3fd5d","system_id":"levelo_inurba_marseille","lat":43.311722,"lon":5.387247,"is_reserved":false,"is_disabled":false,"rental_uris":{"android":"levelo://app?vid=775c6d93-90e0-437e-a299-147646e3fd5d","ios":"levelo://app?vid=775c6d93-90e0-437e-a299-147646e3fd5d"},"vehicle_type_id":"4","last_reported":1678226840,"current_range_meters":28800,"station_id":"ce4bgv12rcd13ifvqcp0","pricing_plan_id":"free"},{"bike_id":"86c4f221-bf16-4da5-b1e3-79ba1ac14f6f","system_id":"levelo_inurba_marseille","lat":43.328247,"lon":5.366897,"is_reserved":false,"is_disabled":false,"rental_uris":{"android":"levelo://app?vid=86c4f221-bf16-4da5-b1e3-79ba1ac14f6f","ios":"levelo://app?vid=86c4f221-bf16-4da5-b1e3-79ba1ac14f6f"},"vehicle_type_id":"4","last_reported":1678226840,"current_range_meters":0,"station_id":"ce4bhs92rcd13ifvqi0g","pricing_plan_id":"free"},{"bike_id":"880dee65-5b22-4b9e-b5f1-4b0ba3226ced","system_id":"levelo_inurba_marseille","lat":43.328371,"lon":5.366912,"is_reserved":false,"is_disabled":false,"rental_uris":{"android":"levelo://app?vid=880dee65-5b22-4b9e-b5f1-4b0ba3226ced","ios":"levelo://app?vid=880dee65-5b22-4b9e-b5f1-4b0ba3226ced"},"vehicle_type_id":"4","last_reported":1678226840,"current_range_meters":16000,"station_id":"ce4bhs92rcd13ifvqi0g","pricing_plan_id":"free"},{"bike_id":"e554fe19-0dd7-4786-a1ea-5e84d79718e6","system_id":"levelo_inurba_marseille","lat":43.328371,"lon":5.366912,"is_reserved":false,"is_disabled":false,"rental_uris":{"android":"levelo://app?vid=e554fe19-0dd7-4786-a1ea-5e84d79718e6","ios":"levelo://app?vid=e554fe19-0dd7-4786-a1ea-5e84d79718e6"},"vehicle_type_id":"4","last_reported":1678226840,"current_range_meters":15600,"station_id":"ce4bhs92rcd13ifvqi0g","pricing_plan_id":"free"},{"bike_id":"5ef59c72-905c-4c73-9834-87a3086b515a","system_id":"levelo_inurba_marseille","lat":43.328371,"lon":5.366912,"is_reserved":false,"is_disabled":false,"rental_uris":{"android":"levelo://app?vid=5ef59c72-905c-4c73-9834-87a3086b515a","ios":"levelo://app?vid=5ef59c72-905c-4c73-9834-87a3086b515a"},"vehicle_type_id":"4","last_reported":1678226840,"current_range_meters":6000,"station_id":"ce4bhs92rcd13ifvqi0g","pricing_plan_id":"free"},{"bike_id":"65edacf3-7553-4f3e-995c-d4ac0cd78032","system_id":"levelo_inurba_marseille","lat":43.328371,"lon":5.366912,"is_reserved":false,"is_disabled":false,"rental_uris":{"android":"levelo://app?vid=65edacf3-7553-4f3e-995c-d4ac0cd78032","ios":"levelo://app?vid=65edacf3-7553-4f3e-995c-d4ac0cd78032"},"vehicle_type_id":"4","last_reported":1678226840,"current_range_meters":14800,"station_id":"ce4bhs92rcd13ifvqi0g","pricing_plan_id":"free"},{"bike_id":"3bfd20ca-7983-4706-a342-bbd348a1bbcc","system_id":"levelo_inurba_marseille","lat":43.328371,"lon":5.366912,"is_reserved":false,"is_disabled":false,"rental_uris":{"android":"levelo://app?vid=3bfd20ca-7983-4706-a342-bbd348a1bbcc","ios":"levelo://app?vid=3bfd20ca-7983-4706-a342-bbd348a1bbcc"},"vehicle_type_id":"4","last_reported":1678226840,"current_range_meters":15600,"station_id":"ce4bhs92rcd13ifvqi0g","pricing_plan_id":"free"},{"bike_id":"cc44b73e-1fde-4e04-9674-6f985d934bf1","system_id":"levelo_inurba_marseille","lat":43.328371,"lon":5.366912,"is_reserved":false,"is_disabled":false,"rental_uris":{"android":"levelo://app?vid=cc44b73e-1fde-4e04-9674-6f985d934bf1","ios":"levelo://app?vid=cc44b73e-1fde-4e04-9674-6f985d934bf1"},"vehicle_type_id":"4","last_reported":1678226840,"current_range_meters":6400,"station_id":"ce4bhs92rcd13ifvqi0g","pricing_plan_id":"free"},{"bike_id":"36d4f49c-720f-4fa0-b108-908cdf3c0741","system_id":"levelo_inurba_marseille","lat":43.32834,"lon":5.36682,"is_reserved":false,"is_disabled":false,"rental_uris":{"android":"levelo://app?vid=36d4f49c-720f-4fa0-b108-908cdf3c0741","ios":"levelo://app?vid=36d4f49c-720f-4fa0-b108-908cdf3c0741"},"vehicle_type_id":"4","last_reported":1678226840,"current_range_meters":4800,"station_id":"ce4bhs92rcd13ifvqi0g","pricing_plan_id":"free"},{"bike_id":"8571b3ec-cb13-4b1c-ba6d-99d046af49fb","system_id":"levelo_inurba_marseille","lat":43.29622,"lon":5.37169,"is_reserved":false,"is_disabled":false,"rental_uris":{"android":"levelo://app?vid=8571b3ec-cb13-4b1c-ba6d-99d046af49fb","ios":"levelo://app?vid=8571b3ec-cb13-4b1c-ba6d-99d046af49fb"},"vehicle_type_id":"4","last_reported":1678226840,"current_range_meters":0,"station_id":"","pricing_plan_id":"free"},{"bike_id":"dd69d69a-cd97-4b84-8a26-4de8fa60a9b4","system_id":"levelo_inurba_marseille","lat":43.29573,"lon":5.367355,"is_reserved":false,"is_disabled":false,"rental_uris":{"android":"levelo://app?vid=dd69d69a-cd97-4b84-8a26-4de8fa60a9b4","ios":"levelo://app?vid=dd69d69a-cd97-4b84-8a26-4de8fa60a9b4"},"vehicle_type_id":"4","last_reported":1678226840,"current_range_meters":0,"station_id":"ce4bgph2rcd13ifvqc2g","pricing_plan_id":"free"},{"bike_id":"ddf26907-2a89-40d6-95d5-cef89e9f3f21","system_id":"levelo_inurba_marseille","lat":43.317104,"lon":5.436818,"is_reserved":false,"is_disabled":false,"rental_uris":{"android":"levelo://app?vid=ddf26907-2a89-40d6-95d5-cef89e9f3f21","ios":"levelo://app?vid=ddf26907-2a89-40d6-95d5-cef89e9f3f21"},"vehicle_type_id":"4","last_reported":1678226840,"current_range_meters":30800,"station_id":"ce4bhp92rcd13ifvqhcg","pricing_plan_id":"free"},{"bike_id":"b8b84868-59a9-4a50-b72b-76570668d638","system_id":"levelo_inurba_marseille","lat":43.299028,"lon":5.381509,"is_reserved":false,"is_disabled":false,"rental_uris":{"android":"levelo://app?vid=b8b84868-59a9-4a50-b72b-76570668d638","ios":"levelo://app?vid=b8b84868-59a9-4a50-b72b-76570668d638"},"vehicle_type_id":"4","last_reported":1678226840,"current_range_meters":17600,"station_id":"ce4bgj12rcd13ifvqbc0","pricing_plan_id":"free"},{"bike_id":"be3549a4-7689-48bd-a9cd-be5a74e14298","system_id":"levelo_inurba_marseille","lat":43.309589,"lon":5.390258,"is_reserved":false,"is_disabled":false,"rental_uris":{"android":"levelo://app?vid=be3549a4-7689-48bd-a9cd-be5a74e14298","ios":"levelo://app?vid=be3549a4-7689-48bd-a9cd-be5a74e14298"},"vehicle_type_id":"4","last_reported":1678226840,"current_range_meters":14000,"station_id":"ce4bgup2rcd13ifvqco0","pricing_plan_id":"free"},{"bike_id":"e6379870-5868-4812-a65f-949793caaead","system_id":"levelo_inurba_marseille","lat":43.309589,"lon":5.390258,"is_reserved":false,"is_disabled":false,"rental_uris":{"android":"levelo://app?vid=e6379870-5868-4812-a65f-949793caaead","ios":"levelo://app?vid=e6379870-5868-4812-a65f-949793caaead"},"vehicle_type_id":"4","last_reported":1678226840,"current_range_meters":16800,"station_id":"ce4bgup2rcd13ifvqco0","pricing_plan_id":"free"},{"bike_id":"a058e4d0-d8a9-44c8-a105-0f09fe756cca","system_id":"levelo_inurba_marseille","lat":43.309589,"lon":5.390258,"is_reserved":false,"is_disabled":false,"rental_uris":{"android":"levelo://app?vid=a058e4d0-d8a9-44c8-a105-0f09fe756cca","ios":"levelo://app?vid=a058e4d0-d8a9-44c8-a105-0f09fe756cca"},"vehicle_type_id":"4","last_reported":1678226840,"current_range_meters":0,"station_id":"ce4bgup2rcd13ifvqco0","pricing_plan_id":"free"},{"bike_id":"a2ce11ea-55ce-415e-8f92-3b4ef0972f23","system_id":"levelo_inurba_marseille","lat":43.31755,"lon":5.39015,"is_reserved":false,"is_disabled":false,"rental_uris":{"android":"levelo://app?vid=a2ce11ea-55ce-415e-8f92-3b4ef0972f23","ios":"levelo://app?vid=a2ce11ea-55ce-415e-8f92-3b4ef0972f23"},"vehicle_type_id":"4","last_reported":1678226840,"current_range_meters":6000,"station_id":"","pricing_plan_id":"free"},{"bike_id":"086bc20d-eeb6-48e8-b296-998a644deee6","system_id":"levelo_inurba_marseille","lat":43.31753,"lon":5.39016,"is_reserved":false,"is_disabled":false,"rental_uris":{"android":"levelo://app?vid=086bc20d-eeb6-48e8-b296-998a644deee6","ios":"levelo://app?vid=086bc20d-eeb6-48e8-b296-998a644deee6"},"vehicle_type_id":"4","last_reported":1678226840,"current_range_meters":14400,"station_id":"","pricing_plan_id":"free"},{"bike_id":"0c5738dd-400d-4e6d-a98c-72fb3d32fcd3","system_id":"levelo_inurba_marseille","lat":43.317557,"lon":5.390173,"is_reserved":false,"is_disabled":false,"rental_uris":{"android":"levelo://app?vid=0c5738dd-400d-4e6d-a98c-72fb3d32fcd3","ios":"levelo://app?vid=0c5738dd-400d-4e6d-a98c-72fb3d32fcd3"},"vehicle_type_id":"4","last_reported":1678226840,"current_range_meters":18400,"station_id":"ce4bhqp2rcd13ifvqhng","pricing_plan_id":"free"},{"bike_id":"36deac6a-e562-4687-ae0c-4ad7a83049e8","system_id":"levelo_inurba_marseille","lat":43.317557,"lon":5.390173,"is_reserved":false,"is_disabled":false,"rental_uris":{"android":"levelo://app?vid=36deac6a-e562-4687-ae0c-4ad7a83049e8","ios":"levelo://app?vid=36deac6a-e562-4687-ae0c-4ad7a83049e8"},"vehicle_type_id":"4","last_reported":1678226840,"current_range_meters":400,"station_id":"ce4bhqp2rcd13ifvqhng","pricing_plan_id":"free"},{"bike_id":"ee986517-1015-4490-a10c-33a77abbaf90","system_id":"levelo_inurba_marseille","lat":43.296243,"lon":5.377097,"is_reserved":false,"is_disabled":false,"rental_uris":{"android":"levelo://app?vid=ee986517-1015-4490-a10c-33a77abbaf90","ios":"levelo://app?vid=ee986517-1015-4490-a10c-33a77abbaf90"},"vehicle_type_id":"4","last_reported":1678226840,"current_range_meters":0,"station_id":"ce4bgi92rcd13ifvqb90","pricing_plan_id":"free"},{"bike_id":"4877fb94-466b-4b82-8abf-052fb1b945ca","system_id":"levelo_inurba_marseille","lat":43.32364,"lon":5.38877,"is_reserved":false,"is_disabled":false,"rental_uris":{"android":"levelo://app?vid=4877fb94-466b-4b82-8abf-052fb1b945ca","ios":"levelo://app?vid=4877fb94-466b-4b82-8abf-052fb1b945ca"},"vehicle_type_id":"4","last_reported":1678226840,"current_range_meters":31200,"station_id":"ce4bhqp2rcd13ifvqhog","pricing_plan_id":"free"},{"bike_id":"6a5c0800-d4a8-411d-8e31-7844a07b7436","system_id":"levelo_inurba_marseille","lat":43.32367,"lon":5.388836,"is_reserved":false,"is_disabled":false,"rental_uris":{"android":"levelo://app?vid=6a5c0800-d4a8-411d-8e31-7844a07b7436","ios":"levelo://app?vid=6a5c0800-d4a8-411d-8e31-7844a07b7436"},"vehicle_type_id":"4","last_reported":1678226840,"current_range_meters":10400,"station_id":"ce4bhqp2rcd13ifvqhog","pricing_plan_id":"free"},{"bike_id":"90d3f984-dc76-4c26-89dc-08ababd0b9f5","system_id":"levelo_inurba_marseille","lat":43.32363,"lon":5.38882,"is_reserved":false,"is_disabled":false,"rental_uris":{"android":"levelo://app?vid=90d3f984-dc76-4c26-89dc-08ababd0b9f5","ios":"levelo://app?vid=90d3f984-dc76-4c26-89dc-08ababd0b9f5"},"vehicle_type_id":"4","last_reported":1678226840,"current_range_meters":8800,"station_id":"ce4bhqp2rcd13ifvqhog","pricing_plan_id":"free"},{"bike_id":"cb81a7a8-1852-49bb-9364-8eda5bf9cd79","system_id":"levelo_inurba_marseille","lat":43.32367,"lon":5.388836,"is_reserved":false,"is_disabled":false,"rental_uris":{"android":"levelo://app?vid=cb81a7a8-1852-49bb-9364-8eda5bf9cd79","ios":"levelo://app?vid=cb81a7a8-1852-49bb-9364-8eda5bf9cd79"},"vehicle_type_id":"4","last_reported":1678226840,"current_range_meters":25600,"station_id":"ce4bhqp2rcd13ifvqhog","pricing_plan_id":"free"},{"bike_id":"875c2b0b-1c1c-4dd5-b6df-1c330bb2e1bf","system_id":"levelo_inurba_marseille","lat":43.32363,"lon":5.38884,"is_reserved":false,"is_disabled":false,"rental_uris":{"android":"levelo://app?vid=875c2b0b-1c1c-4dd5-b6df-1c330bb2e1bf","ios":"levelo://app?vid=875c2b0b-1c1c-4dd5-b6df-1c330bb2e1bf"},"vehicle_type_id":"4","last_reported":1678226840,"current_range_meters":12800,"station_id":"","pricing_plan_id":"free"},{"bike_id":"c19519f0-1de8-4ada-8b55-f694afbd3089","system_id":"levelo_inurba_marseille","lat":43.323647,"lon":5.388836,"is_reserved":false,"is_disabled":false,"rental_uris":{"android":"levelo://app?vid=c19519f0-1de8-4ada-8b55-f694afbd3089","ios":"levelo://app?vid=c19519f0-1de8-4ada-8b55-f694afbd3089"},"vehicle_type_id":"4","last_reported":1678226840,"current_range_meters":18000,"station_id":"ce4bhqp2rcd13ifvqhog","pricing_plan_id":"free"},{"bike_id":"2c460104-4dc4-4fb6-b9fb-02551b939b50","system_id":"levelo_inurba_marseille","lat":43.32367,"lon":5.388836,"is_reserved":false,"is_disabled":false,"rental_uris":{"android":"levelo://app?vid=2c460104-4dc4-4fb6-b9fb-02551b939b50","ios":"levelo://app?vid=2c460104-4dc4-4fb6-b9fb-02551b939b50"},"vehicle_type_id":"4","last_reported":1678226840,"current_range_meters":11600,"station_id":"ce4bhqp2rcd13ifvqhog","pricing_plan_id":"free"},{"bike_id":"9f8a3e07-b19c-4d8d-8cf6-b5561388c8c2","system_id":"levelo_inurba_marseille","lat":43.32366,"lon":5.388844,"is_reserved":false,"is_disabled":false,"rental_uris":{"android":"levelo://app?vid=9f8a3e07-b19c-4d8d-8cf6-b5561388c8c2","ios":"levelo://app?vid=9f8a3e07-b19c-4d8d-8cf6-b5561388c8c2"},"vehicle_type_id":"4","last_reported":1678226840,"current_range_meters":28400,"station_id":"","pricing_plan_id":"free"},{"bike_id":"b06e1042-c75f-4366-a42a-73660fe72bb3","system_id":"levelo_inurba_marseille","lat":43.32367,"lon":5.388836,"is_reserved":false,"is_disabled":false,"rental_uris":{"android":"levelo://app?vid=b06e1042-c75f-4366-a42a-73660fe72bb3","ios":"levelo://app?vid=b06e1042-c75f-4366-a42a-73660fe72bb3"},"vehicle_type_id":"4","last_reported":1678226840,"current_range_meters":21200,"station_id":"ce4bhqp2rcd13ifvqhog","pricing_plan_id":"free"},{"bike_id":"e8b62d11-c899-4e39-b427-4268fce27d3c","system_id":"levelo_inurba_marseille","lat":43.32367,"lon":5.388836,"is_reserved":false,"is_disabled":false,"rental_uris":{"android":"levelo://app?vid=e8b62d11-c899-4e39-b427-4268fce27d3c","ios":"levelo://app?vid=e8b62d11-c899-4e39-b427-4268fce27d3c"},"vehicle_type_id":"4","last_reported":1678226840,"current_range_meters":31200,"station_id":"ce4bhqp2rcd13ifvqhog","pricing_plan_id":"free"},{"bike_id":"4ee1d9d2-a5de-41b7-94e7-6688740f5a63","system_id":"levelo_inurba_marseille","lat":43.294755,"lon":5.380994,"is_reserved":false,"is_disabled":false,"rental_uris":{"android":"levelo://app?vid=4ee1d9d2-a5de-41b7-94e7-6688740f5a63","ios":"levelo://app?vid=4ee1d9d2-a5de-41b7-94e7-6688740f5a63"},"vehicle_type_id":"4","last_reported":1678226840,"current_range_meters":0,"station_id":"","pricing_plan_id":"free"},{"bike_id":"06e805f6-966f-47aa-b8c5-cd15d0394e23","system_id":"levelo_inurba_marseille","lat":43.300852,"lon":5.390859,"is_reserved":false,"is_disabled":false,"rental_uris":{"android":"levelo://app?vid=06e805f6-966f-47aa-b8c5-cd15d0394e23","ios":"levelo://app?vid=06e805f6-966f-47aa-b8c5-cd15d0394e23"},"vehicle_type_id":"4","last_reported":1678226840,"current_range_meters":0,"station_id":"ce4bh192rcd13ifvqdb0","pricing_plan_id":"free"},{"bike_id":"6840b03a-03a8-4053-bd58-67bf3d045f21","system_id":"levelo_inurba_marseille","lat":43.29854,"lon":5.38879,"is_reserved":false,"is_disabled":false,"rental_uris":{"android":"levelo://app?vid=6840b03a-03a8-4053-bd58-67bf3d045f21","ios":"levelo://app?vid=6840b03a-03a8-4053-bd58-67bf3d045f21"},"vehicle_type_id":"4","last_reported":1678226840,"current_range_meters":17600,"station_id":"","pricing_plan_id":"free"},{"bike_id":"d780b40c-d5a6-484a-be39-ddb9e5f10d69","system_id":"levelo_inurba_marseille","lat":43.298764,"lon":5.388973,"is_reserved":false,"is_disabled":false,"rental_uris":{"android":"levelo://app?vid=d780b40c-d5a6-484a-be39-ddb9e5f10d69","ios":"levelo://app?vid=d780b40c-d5a6-484a-be39-ddb9e5f10d69"},"vehicle_type_id":"4","last_reported":1678226840,"current_range_meters":16000,"station_id":"ce4bh392rcd13ifvqdl0","pricing_plan_id":"free"},{"bike_id":"2abb455c-65ec-4a20-ab8d-c1ac141df068","system_id":"levelo_inurba_marseille","lat":43.313081,"lon":5.396808,"is_reserved":false,"is_disabled":false,"rental_uris":{"android":"levelo://app?vid=2abb455c-65ec-4a20-ab8d-c1ac141df068","ios":"levelo://app?vid=2abb455c-65ec-4a20-ab8d-c1ac141df068"},"vehicle_type_id":"4","last_reported":1678226840,"current_range_meters":22400,"station_id":"ce4bgvp2rcd13ifvqcu0","pricing_plan_id":"free"},{"bike_id":"94841641-ef14-423a-8550-577250c9fc0e","system_id":"levelo_inurba_marseille","lat":43.313291,"lon":5.396838,"is_reserved":false,"is_disabled":false,"rental_uris":{"android":"levelo://app?vid=94841641-ef14-423a-8550-577250c9fc0e","ios":"levelo://app?vid=94841641-ef14-423a-8550-577250c9fc0e"},"vehicle_type_id":"4","last_reported":1678226840,"current_range_meters":29600,"station_id":"ce4bgvp2rcd13ifvqcu0","pricing_plan_id":"free"},{"bike_id":"f5289260-8660-4b41-8029-24a34f2f28f5","system_id":"levelo_inurba_marseille","lat":43.31329,"lon":5.39695,"is_reserved":false,"is_disabled":false,"rental_uris":{"android":"levelo://app?vid=f5289260-8660-4b41-8029-24a34f2f28f5","ios":"levelo://app?vid=f5289260-8660-4b41-8029-24a34f2f28f5"},"vehicle_type_id":"4","last_reported":1678226840,"current_range_meters":24800,"station_id":"","pricing_plan_id":"free"},{"bike_id":"d9256199-cd9b-4aca-a2af-1301b91c216a","system_id":"levelo_inurba_marseille","lat":43.313291,"lon":5.396838,"is_reserved":false,"is_disabled":false,"rental_uris":{"android":"levelo://app?vid=d9256199-cd9b-4aca-a2af-1301b91c216a","ios":"levelo://app?vid=d9256199-cd9b-4aca-a2af-1301b91c216a"},"vehicle_type_id":"4","last_reported":1678226840,"current_range_meters":28800,"station_id":"ce4bgvp2rcd13ifvqcu0","pricing_plan_id":"free"},{"bike_id":"967935c5-5620-4dd7-93e8-c76663202f0a","system_id":"levelo_inurba_marseille","lat":43.313291,"lon":5.396838,"is_reserved":false,"is_disabled":false,"rental_uris":{"android":"levelo://app?vid=967935c5-5620-4dd7-93e8-c76663202f0a","ios":"levelo://app?vid=967935c5-5620-4dd7-93e8-c76663202f0a"},"vehicle_type_id":"4","last_reported":1678226840,"current_range_meters":30400,"station_id":"ce4bgvp2rcd13ifvqcu0","pricing_plan_id":"free"},{"bike_id":"824abb22-c18d-4bb2-90a7-88d1b74a3892","system_id":"levelo_inurba_marseille","lat":43.313291,"lon":5.396838,"is_reserved":false,"is_disabled":false,"rental_uris":{"android":"levelo://app?vid=824abb22-c18d-4bb2-90a7-88d1b74a3892","ios":"levelo://app?vid=824abb22-c18d-4bb2-90a7-88d1b74a3892"},"vehicle_type_id":"4","last_reported":1678226840,"current_range_meters":27200,"station_id":"ce4bgvp2rcd13ifvqcu0","pricing_plan_id":"free"},{"bike_id":"34303234-a701-4077-9d01-f6245f8a4a9e","system_id":"levelo_inurba_marseille","lat":43.313291,"lon":5.396838,"is_reserved":false,"is_disabled":false,"rental_uris":{"android":"levelo://app?vid=34303234-a701-4077-9d01-f6245f8a4a9e","ios":"levelo://app?vid=34303234-a701-4077-9d01-f6245f8a4a9e"},"vehicle_type_id":"4","last_reported":1678226840,"current_range_meters":31200,"station_id":"ce4bgvp2rcd13ifvqcu0","pricing_plan_id":"free"},{"bike_id":"2c6de570-956e-49de-9d57-a2d4662b9232","system_id":"levelo_inurba_marseille","lat":43.290779,"lon":5.371482,"is_reserved":false,"is_disabled":false,"rental_uris":{"android":"levelo://app?vid=2c6de570-956e-49de-9d57-a2d4662b9232","ios":"levelo://app?vid=2c6de570-956e-49de-9d57-a2d4662b9232"},"vehicle_type_id":"4","last_reported":1678226840,"current_range_meters":12400,"station_id":"ce4bh5p2rcd13ifvqe4g","pricing_plan_id":"free"},{"bike_id":"eaf5199c-548e-42fc-ae8e-c173342d8507","system_id":"levelo_inurba_marseille","lat":43.302008,"lon":5.394694,"is_reserved":false,"is_disabled":false,"rental_uris":{"android":"levelo://app?vid=eaf5199c-548e-42fc-ae8e-c173342d8507","ios":"levelo://app?vid=eaf5199c-548e-42fc-ae8e-c173342d8507"},"vehicle_type_id":"4","last_reported":1678226840,"current_range_meters":26800,"station_id":"ce4bh0p2rcd13ifvqd70","pricing_plan_id":"free"},{"bike_id":"2092f04b-19d8-45f2-a68a-d35b0df9e875","system_id":"levelo_inurba_marseille","lat":43.302008,"lon":5.394694,"is_reserved":false,"is_disabled":false,"rental_uris":{"android":"levelo://app?vid=2092f04b-19d8-45f2-a68a-d35b0df9e875","ios":"levelo://app?vid=2092f04b-19d8-45f2-a68a-d35b0df9e875"},"vehicle_type_id":"4","last_reported":1678226840,"current_range_meters":26400,"station_id":"ce4bh0p2rcd13ifvqd70","pricing_plan_id":"free"},{"bike_id":"cb367ed2-dd7a-4810-adb6-bd606a0ede87","system_id":"levelo_inurba_marseille","lat":43.290624,"lon":5.359245,"is_reserved":false,"is_disabled":false,"rental_uris":{"android":"levelo://app?vid=cb367ed2-dd7a-4810-adb6-bd606a0ede87","ios":"levelo://app?vid=cb367ed2-dd7a-4810-adb6-bd606a0ede87"},"vehicle_type_id":"4","last_reported":1678226840,"current_range_meters":9200,"station_id":"ce4bha92rcd13ifvqeg0","pricing_plan_id":"free"},{"bike_id":"999929d6-aa0c-46e6-9500-b4fa150a8151","system_id":"levelo_inurba_marseille","lat":43.290624,"lon":5.359245,"is_reserved":false,"is_disabled":false,"rental_uris":{"android":"levelo://app?vid=999929d6-aa0c-46e6-9500-b4fa150a8151","ios":"levelo://app?vid=999929d6-aa0c-46e6-9500-b4fa150a8151"},"vehicle_type_id":"4","last_reported":1678226840,"current_range_meters":5200,"station_id":"ce4bha92rcd13ifvqeg0","pricing_plan_id":"free"},{"bike_id":"5515adbb-c5d0-4465-997c-1dc89b1eaaab","system_id":"levelo_inurba_marseille","lat":43.290624,"lon":5.359245,"is_reserved":false,"is_disabled":false,"rental_uris":{"android":"levelo://app?vid=5515adbb-c5d0-4465-997c-1dc89b1eaaab","ios":"levelo://app?vid=5515adbb-c5d0-4465-997c-1dc89b1eaaab"},"vehicle_type_id":"4","last_reported":1678226840,"current_range_meters":400,"station_id":"ce4bha92rcd13ifvqeg0","pricing_plan_id":"free"},{"bike_id":"222af8ab-5c98-4cf3-b958-77a7fdc4dd54","system_id":"levelo_inurba_marseille","lat":43.290624,"lon":5.359245,"is_reserved":false,"is_disabled":false,"rental_uris":{"android":"levelo://app?vid=222af8ab-5c98-4cf3-b958-77a7fdc4dd54","ios":"levelo://app?vid=222af8ab-5c98-4cf3-b958-77a7fdc4dd54"},"vehicle_type_id":"4","last_reported":1678226840,"current_range_meters":11200,"station_id":"ce4bha92rcd13ifvqeg0","pricing_plan_id":"free"},{"bike_id":"8104518a-7699-4164-8750-d447ed7cfe0b","system_id":"levelo_inurba_marseille","lat":43.290624,"lon":5.359245,"is_reserved":false,"is_disabled":false,"rental_uris":{"android":"levelo://app?vid=8104518a-7699-4164-8750-d447ed7cfe0b","ios":"levelo://app?vid=8104518a-7699-4164-8750-d447ed7cfe0b"},"vehicle_type_id":"4","last_reported":1678226840,"current_range_meters":16800,"station_id":"ce4bha92rcd13ifvqeg0","pricing_plan_id":"free"},{"bike_id":"199a3579-662f-4c87-bf08-4a3e8814f765","system_id":"levelo_inurba_marseille","lat":43.290319,"lon":5.375732,"is_reserved":false,"is_disabled":false,"rental_uris":{"android":"levelo://app?vid=199a3579-662f-4c87-bf08-4a3e8814f765","ios":"levelo://app?vid=199a3579-662f-4c87-bf08-4a3e8814f765"},"vehicle_type_id":"4","last_reported":1678226840,"current_range_meters":11200,"station_id":"ce4bh692rcd13ifvqe90","pricing_plan_id":"free"},{"bike_id":"3c254893-5235-43de-918a-5c0490811907","system_id":"levelo_inurba_marseille","lat":43.292644,"lon":5.384257,"is_reserved":false,"is_disabled":false,"rental_uris":{"android":"levelo://app?vid=3c254893-5235-43de-918a-5c0490811907","ios":"levelo://app?vid=3c254893-5235-43de-918a-5c0490811907"},"vehicle_type_id":"4","last_reported":1678226840,"current_range_meters":24400,"station_id":"ce4bh692rcd13ifvqea0","pricing_plan_id":"free"},{"bike_id":"e29c1d3c-d50f-47c1-9300-8fe7165cd3af","system_id":"levelo_inurba_marseille","lat":43.292644,"lon":5.384257,"is_reserved":false,"is_disabled":false,"rental_uris":{"android":"levelo://app?vid=e29c1d3c-d50f-47c1-9300-8fe7165cd3af","ios":"levelo://app?vid=e29c1d3c-d50f-47c1-9300-8fe7165cd3af"},"vehicle_type_id":"4","last_reported":1678226840,"current_range_meters":27600,"station_id":"ce4bh692rcd13ifvqea0","pricing_plan_id":"free"},{"bike_id":"5aeef49c-0dee-48bb-be9e-cc302346c83f","system_id":"levelo_inurba_marseille","lat":43.288813,"lon":5.365155,"is_reserved":false,"is_disabled":false,"rental_uris":{"android":"levelo://app?vid=5aeef49c-0dee-48bb-be9e-cc302346c83f","ios":"levelo://app?vid=5aeef49c-0dee-48bb-be9e-cc302346c83f"},"vehicle_type_id":"4","last_reported":1678226840,"current_range_meters":0,"station_id":"","pricing_plan_id":"free"},{"bike_id":"6db89af2-7af6-453c-8d31-56fde84c8a88","system_id":"levelo_inurba_marseille","lat":43.3304,"lon":5.38919,"is_reserved":false,"is_disabled":false,"rental_uris":{"android":"levelo://app?vid=6db89af2-7af6-453c-8d31-56fde84c8a88","ios":"levelo://app?vid=6db89af2-7af6-453c-8d31-56fde84c8a88"},"vehicle_type_id":"4","last_reported":1678226840,"current_range_meters":24400,"station_id":"ce4bhr92rcd13ifvqhrg","pricing_plan_id":"free"},{"bike_id":"029da041-4e88-413f-8efc-7e655416b370","system_id":"levelo_inurba_marseille","lat":43.330442,"lon":5.389148,"is_reserved":false,"is_disabled":false,"rental_uris":{"android":"levelo://app?vid=029da041-4e88-413f-8efc-7e655416b370","ios":"levelo://app?vid=029da041-4e88-413f-8efc-7e655416b370"},"vehicle_type_id":"4","last_reported":1678226840,"current_range_meters":6000,"station_id":"ce4bhr92rcd13ifvqhrg","pricing_plan_id":"free"},{"bike_id":"2972babe-10de-49a5-b311-7449e1854508","system_id":"levelo_inurba_marseille","lat":43.330442,"lon":5.389148,"is_reserved":false,"is_disabled":false,"rental_uris":{"android":"levelo://app?vid=2972babe-10de-49a5-b311-7449e1854508","ios":"levelo://app?vid=2972babe-10de-49a5-b311-7449e1854508"},"vehicle_type_id":"4","last_reported":1678226840,"current_range_meters":8800,"station_id":"ce4bhr92rcd13ifvqhrg","pricing_plan_id":"free"},{"bike_id":"a0c07d4e-26d5-476b-9dbb-1d427a44c9d0","system_id":"levelo_inurba_marseille","lat":43.33045,"lon":5.38918,"is_reserved":false,"is_disabled":false,"rental_uris":{"android":"levelo://app?vid=a0c07d4e-26d5-476b-9dbb-1d427a44c9d0","ios":"levelo://app?vid=a0c07d4e-26d5-476b-9dbb-1d427a44c9d0"},"vehicle_type_id":"4","last_reported":1678226840,"current_range_meters":400,"station_id":"ce4bhr92rcd13ifvqhrg","pricing_plan_id":"free"},{"bike_id":"d5d1de10-783b-403c-af10-694d1375797b","system_id":"levelo_inurba_marseille","lat":43.33046,"lon":5.38918,"is_reserved":false,"is_disabled":false,"rental_uris":{"android":"levelo://app?vid=d5d1de10-783b-403c-af10-694d1375797b","ios":"levelo://app?vid=d5d1de10-783b-403c-af10-694d1375797b"},"vehicle_type_id":"4","last_reported":1678226840,"current_range_meters":0,"station_id":"ce4bhr92rcd13ifvqhrg","pricing_plan_id":"free"},{"bike_id":"587da706-d19f-4624-ac3e-3f7eb37fbe42","system_id":"levelo_inurba_marseille","lat":43.29004,"lon":5.3562,"is_reserved":false,"is_disabled":false,"rental_uris":{"android":"levelo://app?vid=587da706-d19f-4624-ac3e-3f7eb37fbe42","ios":"levelo://app?vid=587da706-d19f-4624-ac3e-3f7eb37fbe42"},"vehicle_type_id":"4","last_reported":1678226840,"current_range_meters":7200,"station_id":"ce4bhb92rcd13ifvqen0","pricing_plan_id":"free"},{"bike_id":"4d1f8d51-c561-482e-b008-521cc34bda56","system_id":"levelo_inurba_marseille","lat":43.330442,"lon":5.389148,"is_reserved":false,"is_disabled":false,"rental_uris":{"android":"levelo://app?vid=4d1f8d51-c561-482e-b008-521cc34bda56","ios":"levelo://app?vid=4d1f8d51-c561-482e-b008-521cc34bda56"},"vehicle_type_id":"4","last_reported":1678226840,"current_range_meters":21200,"station_id":"ce4bhr92rcd13ifvqhrg","pricing_plan_id":"free"},{"bike_id":"ba2fe0ab-bd28-4441-b28a-3b2fbea9d07e","system_id":"levelo_inurba_marseille","lat":43.29004,"lon":5.35609,"is_reserved":false,"is_disabled":false,"rental_uris":{"android":"levelo://app?vid=ba2fe0ab-bd28-4441-b28a-3b2fbea9d07e","ios":"levelo://app?vid=ba2fe0ab-bd28-4441-b28a-3b2fbea9d07e"},"vehicle_type_id":"4","last_reported":1678226840,"current_range_meters":0,"station_id":"ce4bhb92rcd13ifvqen0","pricing_plan_id":"free"},{"bike_id":"bca4cb95-2be3-48f4-ab75-b54bd184bff4","system_id":"levelo_inurba_marseille","lat":43.330442,"lon":5.389148,"is_reserved":false,"is_disabled":false,"rental_uris":{"android":"levelo://app?vid=bca4cb95-2be3-48f4-ab75-b54bd184bff4","ios":"levelo://app?vid=bca4cb95-2be3-48f4-ab75-b54bd184bff4"},"vehicle_type_id":"4","last_reported":1678226840,"current_range_meters":0,"station_id":"ce4bhr92rcd13ifvqhrg","pricing_plan_id":"free"},{"bike_id":"acee22f8-5025-468a-a2b3-c2eb76c3877b","system_id":"levelo_inurba_marseille","lat":43.290991,"lon":5.381324,"is_reserved":false,"is_disabled":false,"rental_uris":{"android":"levelo://app?vid=acee22f8-5025-468a-a2b3-c2eb76c3877b","ios":"levelo://app?vid=acee22f8-5025-468a-a2b3-c2eb76c3877b"},"vehicle_type_id":"4","last_reported":1678226840,"current_range_meters":0,"station_id":"ce4bh512rcd13ifvqe2g","pricing_plan_id":"free"},{"bike_id":"b3990595-57d9-4dee-98d1-f69136ea4f20","system_id":"levelo_inurba_marseille","lat":43.290995,"lon":5.381361,"is_reserved":false,"is_disabled":false,"rental_uris":{"android":"levelo://app?vid=b3990595-57d9-4dee-98d1-f69136ea4f20","ios":"levelo://app?vid=b3990595-57d9-4dee-98d1-f69136ea4f20"},"vehicle_type_id":"4","last_reported":1678226840,"current_range_meters":0,"station_id":"ce4bh512rcd13ifvqe2g","pricing_plan_id":"free"},{"bike_id":"fa86d8f8-bac4-4ba9-bfc1-d057ce6d63e4","system_id":"levelo_inurba_marseille","lat":43.290997,"lon":5.381463,"is_reserved":false,"is_disabled":false,"rental_uris":{"android":"levelo://app?vid=fa86d8f8-bac4-4ba9-bfc1-d057ce6d63e4","ios":"levelo://app?vid=fa86d8f8-bac4-4ba9-bfc1-d057ce6d63e4"},"vehicle_type_id":"4","last_reported":1678226840,"current_range_meters":0,"station_id":"","pricing_plan_id":"free"},{"bike_id":"82e63835-374e-45ce-aab8-49d51342a138","system_id":"levelo_inurba_marseille","lat":43.290972,"lon":5.38152,"is_reserved":false,"is_disabled":false,"rental_uris":{"android":"levelo://app?vid=82e63835-374e-45ce-aab8-49d51342a138","ios":"levelo://app?vid=82e63835-374e-45ce-aab8-49d51342a138"},"vehicle_type_id":"4","last_reported":1678226840,"current_range_meters":0,"station_id":"","pricing_plan_id":"free"},{"bike_id":"35f5387d-88f6-4ac6-a183-87501265ea7d","system_id":"levelo_inurba_marseille","lat":43.290967,"lon":5.38155,"is_reserved":false,"is_disabled":false,"rental_uris":{"android":"levelo://app?vid=35f5387d-88f6-4ac6-a183-87501265ea7d","ios":"levelo://app?vid=35f5387d-88f6-4ac6-a183-87501265ea7d"},"vehicle_type_id":"4","last_reported":1678226840,"current_range_meters":0,"station_id":"ce4bh512rcd13ifvqe2g","pricing_plan_id":"free"},{"bike_id":"23475b8a-2077-4648-8b4a-f72b911f5ade","system_id":"levelo_inurba_marseille","lat":43.290995,"lon":5.381361,"is_reserved":false,"is_disabled":false,"rental_uris":{"android":"levelo://app?vid=23475b8a-2077-4648-8b4a-f72b911f5ade","ios":"levelo://app?vid=23475b8a-2077-4648-8b4a-f72b911f5ade"},"vehicle_type_id":"4","last_reported":1678226840,"current_range_meters":6800,"station_id":"ce4bh512rcd13ifvqe2g","pricing_plan_id":"free"},{"bike_id":"c58339cc-b54f-4399-b890-65d30c4316af","system_id":"levelo_inurba_marseille","lat":43.28856,"lon":5.358371,"is_reserved":false,"is_disabled":false,"rental_uris":{"android":"levelo://app?vid=c58339cc-b54f-4399-b890-65d30c4316af","ios":"levelo://app?vid=c58339cc-b54f-4399-b890-65d30c4316af"},"vehicle_type_id":"4","last_reported":1678226840,"current_range_meters":9600,"station_id":"ce4bhb12rcd13ifvqem0","pricing_plan_id":"free"},{"bike_id":"81d1027a-8ac7-495d-a7f9-d7c69edcc41e","system_id":"levelo_inurba_marseille","lat":43.28856,"lon":5.358371,"is_reserved":false,"is_disabled":false,"rental_uris":{"android":"levelo://app?vid=81d1027a-8ac7-495d-a7f9-d7c69edcc41e","ios":"levelo://app?vid=81d1027a-8ac7-495d-a7f9-d7c69edcc41e"},"vehicle_type_id":"4","last_reported":1678226840,"current_range_meters":0,"station_id":"ce4bhb12rcd13ifvqem0","pricing_plan_id":"free"},{"bike_id":"bcdd5c08-295d-4b3a-a020-bc2854ceb553","system_id":"levelo_inurba_marseille","lat":43.28856,"lon":5.358371,"is_reserved":false,"is_disabled":false,"rental_uris":{"android":"levelo://app?vid=bcdd5c08-295d-4b3a-a020-bc2854ceb553","ios":"levelo://app?vid=bcdd5c08-295d-4b3a-a020-bc2854ceb553"},"vehicle_type_id":"4","last_reported":1678226840,"current_range_meters":9200,"station_id":"ce4bhb12rcd13ifvqem0","pricing_plan_id":"free"},{"bike_id":"406367d2-fedb-4be6-a852-cdfa5a81d72e","system_id":"levelo_inurba_marseille","lat":43.28856,"lon":5.358371,"is_reserved":false,"is_disabled":false,"rental_uris":{"android":"levelo://app?vid=406367d2-fedb-4be6-a852-cdfa5a81d72e","ios":"levelo://app?vid=406367d2-fedb-4be6-a852-cdfa5a81d72e"},"vehicle_type_id":"4","last_reported":1678226840,"current_range_meters":15200,"station_id":"ce4bhb12rcd13ifvqem0","pricing_plan_id":"free"},{"bike_id":"7118ad89-a40e-4f51-82c6-607b207dcc6d","system_id":"levelo_inurba_marseille","lat":43.28856,"lon":5.358371,"is_reserved":false,"is_disabled":false,"rental_uris":{"android":"levelo://app?vid=7118ad89-a40e-4f51-82c6-607b207dcc6d","ios":"levelo://app?vid=7118ad89-a40e-4f51-82c6-607b207dcc6d"},"vehicle_type_id":"4","last_reported":1678226840,"current_range_meters":10000,"station_id":"ce4bhb12rcd13ifvqem0","pricing_plan_id":"free"},{"bike_id":"ec3e6d95-72cd-451f-9af0-77080050a20c","system_id":"levelo_inurba_marseille","lat":43.28856,"lon":5.358371,"is_reserved":false,"is_disabled":false,"rental_uris":{"android":"levelo://app?vid=ec3e6d95-72cd-451f-9af0-77080050a20c","ios":"levelo://app?vid=ec3e6d95-72cd-451f-9af0-77080050a20c"},"vehicle_type_id":"4","last_reported":1678226840,"current_range_meters":32000,"station_id":"ce4bhb12rcd13ifvqem0","pricing_plan_id":"free"},{"bike_id":"c78f602e-ad07-42f0-87ff-65b273364ce9","system_id":"levelo_inurba_marseille","lat":43.28856,"lon":5.358371,"is_reserved":false,"is_disabled":false,"rental_uris":{"android":"levelo://app?vid=c78f602e-ad07-42f0-87ff-65b273364ce9","ios":"levelo://app?vid=c78f602e-ad07-42f0-87ff-65b273364ce9"},"vehicle_type_id":"4","last_reported":1678226840,"current_range_meters":25200,"station_id":"ce4bhb12rcd13ifvqem0","pricing_plan_id":"free"},{"bike_id":"47da02e2-750d-4609-bbe7-3b3a1de14ba7","system_id":"levelo_inurba_marseille","lat":43.306412,"lon":5.401035,"is_reserved":false,"is_disabled":false,"rental_uris":{"android":"levelo://app?vid=47da02e2-750d-4609-bbe7-3b3a1de14ba7","ios":"levelo://app?vid=47da02e2-750d-4609-bbe7-3b3a1de14ba7"},"vehicle_type_id":"4","last_reported":1678226840,"current_range_meters":30000,"station_id":"ce4bh112rcd13ifvqda0","pricing_plan_id":"free"},{"bike_id":"cf960bda-8f77-437e-ab10-5a5712200468","system_id":"levelo_inurba_marseille","lat":43.306412,"lon":5.401035,"is_reserved":false,"is_disabled":false,"rental_uris":{"android":"levelo://app?vid=cf960bda-8f77-437e-ab10-5a5712200468","ios":"levelo://app?vid=cf960bda-8f77-437e-ab10-5a5712200468"},"vehicle_type_id":"4","last_reported":1678226840,"current_range_meters":0,"station_id":"ce4bh112rcd13ifvqda0","pricing_plan_id":"free"},{"bike_id":"9025cc1a-ce11-40ea-8951-9e6016a25beb","system_id":"levelo_inurba_marseille","lat":43.30649,"lon":5.40096,"is_reserved":false,"is_disabled":false,"rental_uris":{"android":"levelo://app?vid=9025cc1a-ce11-40ea-8951-9e6016a25beb","ios":"levelo://app?vid=9025cc1a-ce11-40ea-8951-9e6016a25beb"},"vehicle_type_id":"4","last_reported":1678226840,"current_range_meters":29600,"station_id":"","pricing_plan_id":"free"},{"bike_id":"a2f0066d-2dcf-4eb0-9503-cfb5410702b9","system_id":"levelo_inurba_marseille","lat":43.286593,"lon":5.363346,"is_reserved":false,"is_disabled":false,"rental_uris":{"android":"levelo://app?vid=a2f0066d-2dcf-4eb0-9503-cfb5410702b9","ios":"levelo://app?vid=a2f0066d-2dcf-4eb0-9503-cfb5410702b9"},"vehicle_type_id":"4","last_reported":1678226840,"current_range_meters":11600,"station_id":"ce4bhah2rcd13ifvqej0","pricing_plan_id":"free"},{"bike_id":"c8f5024a-6095-4dad-934e-1f33fb37358c","system_id":"levelo_inurba_marseille","lat":43.286593,"lon":5.363346,"is_reserved":false,"is_disabled":false,"rental_uris":{"android":"levelo://app?vid=c8f5024a-6095-4dad-934e-1f33fb37358c","ios":"levelo://app?vid=c8f5024a-6095-4dad-934e-1f33fb37358c"},"vehicle_type_id":"4","last_reported":1678226840,"current_range_meters":10000,"station_id":"ce4bhah2rcd13ifvqej0","pricing_plan_id":"free"},{"bike_id":"d19a463c-2069-45c8-8215-70d09746a01e","system_id":"levelo_inurba_marseille","lat":43.286593,"lon":5.363346,"is_reserved":false,"is_disabled":false,"rental_uris":{"android":"levelo://app?vid=d19a463c-2069-45c8-8215-70d09746a01e","ios":"levelo://app?vid=d19a463c-2069-45c8-8215-70d09746a01e"},"vehicle_type_id":"4","last_reported":1678226840,"current_range_meters":0,"station_id":"ce4bhah2rcd13ifvqej0","pricing_plan_id":"free"},{"bike_id":"7585d124-85f7-4f6e-ac13-e4cc36e4eb30","system_id":"levelo_inurba_marseille","lat":43.298681,"lon":5.397225,"is_reserved":false,"is_disabled":false,"rental_uris":{"android":"levelo://app?vid=7585d124-85f7-4f6e-ac13-e4cc36e4eb30","ios":"levelo://app?vid=7585d124-85f7-4f6e-ac13-e4cc36e4eb30"},"vehicle_type_id":"4","last_reported":1678226840,"current_range_meters":23200,"station_id":"ce4bh0h2rcd13ifvqd50","pricing_plan_id":"free"},{"bike_id":"5e07e066-3425-457a-a708-2badf5d712fd","system_id":"levelo_inurba_marseille","lat":43.298681,"lon":5.397225,"is_reserved":false,"is_disabled":false,"rental_uris":{"android":"levelo://app?vid=5e07e066-3425-457a-a708-2badf5d712fd","ios":"levelo://app?vid=5e07e066-3425-457a-a708-2badf5d712fd"},"vehicle_type_id":"4","last_reported":1678226840,"current_range_meters":16000,"station_id":"ce4bh0h2rcd13ifvqd50","pricing_plan_id":"free"},{"bike_id":"4a3d2f45-2fef-41bc-96e2-03a1af9398c6","system_id":"levelo_inurba_marseille","lat":43.298681,"lon":5.397225,"is_reserved":false,"is_disabled":false,"rental_uris":{"android":"levelo://app?vid=4a3d2f45-2fef-41bc-96e2-03a1af9398c6","ios":"levelo://app?vid=4a3d2f45-2fef-41bc-96e2-03a1af9398c6"},"vehicle_type_id":"4","last_reported":1678226840,"current_range_meters":26800,"station_id":"ce4bh0h2rcd13ifvqd50","pricing_plan_id":"free"},{"bike_id":"c93e8e3a-27fa-4569-b5ba-0196f4573b24","system_id":"levelo_inurba_marseille","lat":43.298681,"lon":5.397225,"is_reserved":false,"is_disabled":false,"rental_uris":{"android":"levelo://app?vid=c93e8e3a-27fa-4569-b5ba-0196f4573b24","ios":"levelo://app?vid=c93e8e3a-27fa-4569-b5ba-0196f4573b24"},"vehicle_type_id":"4","last_reported":1678226840,"current_range_meters":27200,"station_id":"ce4bh0h2rcd13ifvqd50","pricing_plan_id":"free"},{"bike_id":"11c970cd-9d71-4b81-bffa-1ca5625e4648","system_id":"levelo_inurba_marseille","lat":43.302759,"lon":5.400793,"is_reserved":false,"is_disabled":false,"rental_uris":{"android":"levelo://app?vid=11c970cd-9d71-4b81-bffa-1ca5625e4648","ios":"levelo://app?vid=11c970cd-9d71-4b81-bffa-1ca5625e4648"},"vehicle_type_id":"4","last_reported":1678226840,"current_range_meters":23600,"station_id":"ce4bgvh2rcd13ifvqcs0","pricing_plan_id":"free"},{"bike_id":"e5dbecb9-c7a6-4dd5-a11f-d33a1a644fbb","system_id":"levelo_inurba_marseille","lat":43.302759,"lon":5.400793,"is_reserved":false,"is_disabled":false,"rental_uris":{"android":"levelo://app?vid=e5dbecb9-c7a6-4dd5-a11f-d33a1a644fbb","ios":"levelo://app?vid=e5dbecb9-c7a6-4dd5-a11f-d33a1a644fbb"},"vehicle_type_id":"4","last_reported":1678226840,"current_range_meters":5600,"station_id":"ce4bgvh2rcd13ifvqcs0","pricing_plan_id":"free"},{"bike_id":"0bc6a219-ca9a-4adc-9501-9efb84dd5c18","system_id":"levelo_inurba_marseille","lat":43.286039,"lon":5.370679,"is_reserved":false,"is_disabled":false,"rental_uris":{"android":"levelo://app?vid=0bc6a219-ca9a-4adc-9501-9efb84dd5c18","ios":"levelo://app?vid=0bc6a219-ca9a-4adc-9501-9efb84dd5c18"},"vehicle_type_id":"4","last_reported":1678226840,"current_range_meters":800,"station_id":"ce4bht12rcd13ifvqi60","pricing_plan_id":"free"},{"bike_id":"0a68c980-25af-4ab6-b0a6-4046a531f624","system_id":"levelo_inurba_marseille","lat":43.287185,"lon":5.379373,"is_reserved":false,"is_disabled":false,"rental_uris":{"android":"levelo://app?vid=0a68c980-25af-4ab6-b0a6-4046a531f624","ios":"levelo://app?vid=0a68c980-25af-4ab6-b0a6-4046a531f624"},"vehicle_type_id":"4","last_reported":1678226840,"current_range_meters":2800,"station_id":"ce4bh9p2rcd13ifvqec0","pricing_plan_id":"free"},{"bike_id":"9516a636-1577-45d9-97f9-5151cd4f222d","system_id":"levelo_inurba_marseille","lat":43.316517,"lon":5.404375,"is_reserved":false,"is_disabled":false,"rental_uris":{"android":"levelo://app?vid=9516a636-1577-45d9-97f9-5151cd4f222d","ios":"levelo://app?vid=9516a636-1577-45d9-97f9-5151cd4f222d"},"vehicle_type_id":"4","last_reported":1678226840,"current_range_meters":0,"station_id":"ce4bh012rcd13ifvqd00","pricing_plan_id":"free"},{"bike_id":"3ec128d0-98ab-45bd-9a26-a9d2a905d892","system_id":"levelo_inurba_marseille","lat":43.316517,"lon":5.404375,"is_reserved":false,"is_disabled":false,"rental_uris":{"android":"levelo://app?vid=3ec128d0-98ab-45bd-9a26-a9d2a905d892","ios":"levelo://app?vid=3ec128d0-98ab-45bd-9a26-a9d2a905d892"},"vehicle_type_id":"4","last_reported":1678226840,"current_range_meters":31600,"station_id":"ce4bh012rcd13ifvqd00","pricing_plan_id":"free"},{"bike_id":"055352d2-d2f7-4daa-80b7-12ade4346929","system_id":"levelo_inurba_marseille","lat":43.316517,"lon":5.404375,"is_reserved":false,"is_disabled":false,"rental_uris":{"android":"levelo://app?vid=055352d2-d2f7-4daa-80b7-12ade4346929","ios":"levelo://app?vid=055352d2-d2f7-4daa-80b7-12ade4346929"},"vehicle_type_id":"4","last_reported":1678226840,"current_range_meters":31600,"station_id":"ce4bh012rcd13ifvqd00","pricing_plan_id":"free"},{"bike_id":"f8107d2c-c2d5-448b-96a6-ef2e1b05346e","system_id":"levelo_inurba_marseille","lat":43.316517,"lon":5.404375,"is_reserved":false,"is_disabled":false,"rental_uris":{"android":"levelo://app?vid=f8107d2c-c2d5-448b-96a6-ef2e1b05346e","ios":"levelo://app?vid=f8107d2c-c2d5-448b-96a6-ef2e1b05346e"},"vehicle_type_id":"4","last_reported":1678226840,"current_range_meters":26000,"station_id":"ce4bh012rcd13ifvqd00","pricing_plan_id":"free"},{"bike_id":"bf307c10-ba7e-43ff-a163-bec2fa0acd57","system_id":"levelo_inurba_marseille","lat":43.316517,"lon":5.404375,"is_reserved":false,"is_disabled":false,"rental_uris":{"android":"levelo://app?vid=bf307c10-ba7e-43ff-a163-bec2fa0acd57","ios":"levelo://app?vid=bf307c10-ba7e-43ff-a163-bec2fa0acd57"},"vehicle_type_id":"4","last_reported":1678226840,"current_range_meters":26000,"station_id":"ce4bh012rcd13ifvqd00","pricing_plan_id":"free"},{"bike_id":"1a2ff13d-43a7-475e-b82f-aeae964cb89e","system_id":"levelo_inurba_marseille","lat":43.316517,"lon":5.404375,"is_reserved":false,"is_disabled":false,"rental_uris":{"android":"levelo://app?vid=1a2ff13d-43a7-475e-b82f-aeae964cb89e","ios":"levelo://app?vid=1a2ff13d-43a7-475e-b82f-aeae964cb89e"},"vehicle_type_id":"4","last_reported":1678226840,"current_range_meters":22800,"station_id":"ce4bh012rcd13ifvqd00","pricing_plan_id":"free"},{"bike_id":"ec48ee8b-d84c-4502-95f2-b3c1a18fc0ba","system_id":"levelo_inurba_marseille","lat":43.316517,"lon":5.404375,"is_reserved":false,"is_disabled":false,"rental_uris":{"android":"levelo://app?vid=ec48ee8b-d84c-4502-95f2-b3c1a18fc0ba","ios":"levelo://app?vid=ec48ee8b-d84c-4502-95f2-b3c1a18fc0ba"},"vehicle_type_id":"4","last_reported":1678226840,"current_range_meters":23200,"station_id":"ce4bh012rcd13ifvqd00","pricing_plan_id":"free"},{"bike_id":"6420d3b7-4e27-40f0-8b4b-1b65351966d4","system_id":"levelo_inurba_marseille","lat":43.316517,"lon":5.404375,"is_reserved":false,"is_disabled":false,"rental_uris":{"android":"levelo://app?vid=6420d3b7-4e27-40f0-8b4b-1b65351966d4","ios":"levelo://app?vid=6420d3b7-4e27-40f0-8b4b-1b65351966d4"},"vehicle_type_id":"4","last_reported":1678226840,"current_range_meters":29600,"station_id":"ce4bh012rcd13ifvqd00","pricing_plan_id":"free"},{"bike_id":"6588e522-9372-4917-83ad-dca7a4419c99","system_id":"levelo_inurba_marseille","lat":43.316517,"lon":5.404375,"is_reserved":false,"is_disabled":false,"rental_uris":{"android":"levelo://app?vid=6588e522-9372-4917-83ad-dca7a4419c99","ios":"levelo://app?vid=6588e522-9372-4917-83ad-dca7a4419c99"},"vehicle_type_id":"4","last_reported":1678226840,"current_range_meters":30800,"station_id":"ce4bh012rcd13ifvqd00","pricing_plan_id":"free"},{"bike_id":"8d20e5ef-ecd1-4f01-bda5-af7a5a45c520","system_id":"levelo_inurba_marseille","lat":43.316517,"lon":5.404375,"is_reserved":false,"is_disabled":false,"rental_uris":{"android":"levelo://app?vid=8d20e5ef-ecd1-4f01-bda5-af7a5a45c520","ios":"levelo://app?vid=8d20e5ef-ecd1-4f01-bda5-af7a5a45c520"},"vehicle_type_id":"4","last_reported":1678226840,"current_range_meters":31600,"station_id":"ce4bh012rcd13ifvqd00","pricing_plan_id":"free"},{"bike_id":"68b970a6-9ded-4459-882a-42a3d21c9223","system_id":"levelo_inurba_marseille","lat":43.31648,"lon":5.40438,"is_reserved":false,"is_disabled":false,"rental_uris":{"android":"levelo://app?vid=68b970a6-9ded-4459-882a-42a3d21c9223","ios":"levelo://app?vid=68b970a6-9ded-4459-882a-42a3d21c9223"},"vehicle_type_id":"4","last_reported":1678226840,"current_range_meters":26400,"station_id":"ce4bh012rcd13ifvqd00","pricing_plan_id":"free"},{"bike_id":"fdefb30a-307d-46de-9cdd-1d692d75b837","system_id":"levelo_inurba_marseille","lat":43.31648,"lon":5.40438,"is_reserved":false,"is_disabled":false,"rental_uris":{"android":"levelo://app?vid=fdefb30a-307d-46de-9cdd-1d692d75b837","ios":"levelo://app?vid=fdefb30a-307d-46de-9cdd-1d692d75b837"},"vehicle_type_id":"4","last_reported":1678226840,"current_range_meters":28800,"station_id":"","pricing_plan_id":"free"},{"bike_id":"2b3dbf90-41f2-4167-b1d6-e97f1ccff26e","system_id":"levelo_inurba_marseille","lat":43.31647,"lon":5.40439,"is_reserved":false,"is_disabled":false,"rental_uris":{"android":"levelo://app?vid=2b3dbf90-41f2-4167-b1d6-e97f1ccff26e","ios":"levelo://app?vid=2b3dbf90-41f2-4167-b1d6-e97f1ccff26e"},"vehicle_type_id":"4","last_reported":1678226840,"current_range_meters":30800,"station_id":"ce4bh012rcd13ifvqd00","pricing_plan_id":"free"},{"bike_id":"f70bf337-dd37-48a7-bb9d-212122d5d3da","system_id":"levelo_inurba_marseille","lat":43.31648,"lon":5.40439,"is_reserved":false,"is_disabled":false,"rental_uris":{"android":"levelo://app?vid=f70bf337-dd37-48a7-bb9d-212122d5d3da","ios":"levelo://app?vid=f70bf337-dd37-48a7-bb9d-212122d5d3da"},"vehicle_type_id":"4","last_reported":1678226840,"current_range_meters":30400,"station_id":"","pricing_plan_id":"free"},{"bike_id":"744eb3ba-3d59-437b-9881-d8bfe7db3aea","system_id":"levelo_inurba_marseille","lat":43.3165,"lon":5.40439,"is_reserved":false,"is_disabled":false,"rental_uris":{"android":"levelo://app?vid=744eb3ba-3d59-437b-9881-d8bfe7db3aea","ios":"levelo://app?vid=744eb3ba-3d59-437b-9881-d8bfe7db3aea"},"vehicle_type_id":"4","last_reported":1678226840,"current_range_meters":14800,"station_id":"","pricing_plan_id":"free"},{"bike_id":"153ae908-81ba-46b7-9a1e-1dce1d7527fd","system_id":"levelo_inurba_marseille","lat":43.316517,"lon":5.404375,"is_reserved":false,"is_disabled":false,"rental_uris":{"android":"levelo://app?vid=153ae908-81ba-46b7-9a1e-1dce1d7527fd","ios":"levelo://app?vid=153ae908-81ba-46b7-9a1e-1dce1d7527fd"},"vehicle_type_id":"4","last_reported":1678226840,"current_range_meters":28400,"station_id":"ce4bh012rcd13ifvqd00","pricing_plan_id":"free"},{"bike_id":"367ba2da-b74f-4e22-8c4c-96bf774fd88b","system_id":"levelo_inurba_marseille","lat":43.31645,"lon":5.40441,"is_reserved":false,"is_disabled":false,"rental_uris":{"android":"levelo://app?vid=367ba2da-b74f-4e22-8c4c-96bf774fd88b","ios":"levelo://app?vid=367ba2da-b74f-4e22-8c4c-96bf774fd88b"},"vehicle_type_id":"4","last_reported":1678226840,"current_range_meters":24000,"station_id":"","pricing_plan_id":"free"},{"bike_id":"d226fd50-17a4-47db-b57f-bee4192bdda5","system_id":"levelo_inurba_marseille","lat":43.316463,"lon":5.404427,"is_reserved":false,"is_disabled":false,"rental_uris":{"android":"levelo://app?vid=d226fd50-17a4-47db-b57f-bee4192bdda5","ios":"levelo://app?vid=d226fd50-17a4-47db-b57f-bee4192bdda5"},"vehicle_type_id":"4","last_reported":1678226840,"current_range_meters":0,"station_id":"ce4bh012rcd13ifvqd00","pricing_plan_id":"free"},{"bike_id":"cb96273f-f1db-43fe-92a9-9aef5dae05c3","system_id":"levelo_inurba_marseille","lat":43.316517,"lon":5.404375,"is_reserved":false,"is_disabled":false,"rental_uris":{"android":"levelo://app?vid=cb96273f-f1db-43fe-92a9-9aef5dae05c3","ios":"levelo://app?vid=cb96273f-f1db-43fe-92a9-9aef5dae05c3"},"vehicle_type_id":"4","last_reported":1678226840,"current_range_meters":26400,"station_id":"ce4bh012rcd13ifvqd00","pricing_plan_id":"free"},{"bike_id":"edd94406-6bde-4ea6-b0c3-06ac27032c55","system_id":"levelo_inurba_marseille","lat":43.31646,"lon":5.40445,"is_reserved":false,"is_disabled":false,"rental_uris":{"android":"levelo://app?vid=edd94406-6bde-4ea6-b0c3-06ac27032c55","ios":"levelo://app?vid=edd94406-6bde-4ea6-b0c3-06ac27032c55"},"vehicle_type_id":"4","last_reported":1678226840,"current_range_meters":28000,"station_id":"","pricing_plan_id":"free"},{"bike_id":"8e119521-6acf-47f5-b582-74be75cf42f7","system_id":"levelo_inurba_marseille","lat":43.334022,"lon":5.39213,"is_reserved":false,"is_disabled":false,"rental_uris":{"android":"levelo://app?vid=8e119521-6acf-47f5-b582-74be75cf42f7","ios":"levelo://app?vid=8e119521-6acf-47f5-b582-74be75cf42f7"},"vehicle_type_id":"4","last_reported":1678226840,"current_range_meters":8400,"station_id":"","pricing_plan_id":"free"},{"bike_id":"23e2f9d2-d862-4b95-b0ec-50e6488cd6ef","system_id":"levelo_inurba_marseille","lat":43.286013,"lon":5.353433,"is_reserved":false,"is_disabled":false,"rental_uris":{"android":"levelo://app?vid=23e2f9d2-d862-4b95-b0ec-50e6488cd6ef","ios":"levelo://app?vid=23e2f9d2-d862-4b95-b0ec-50e6488cd6ef"},"vehicle_type_id":"4","last_reported":1678226840,"current_range_meters":7200,"station_id":"","pricing_plan_id":"free"},{"bike_id":"9dca5b02-f046-4d47-8139-26ca6618b57c","system_id":"levelo_inurba_marseille","lat":43.284534,"lon":5.358662,"is_reserved":false,"is_disabled":false,"rental_uris":{"android":"levelo://app?vid=9dca5b02-f046-4d47-8139-26ca6618b57c","ios":"levelo://app?vid=9dca5b02-f046-4d47-8139-26ca6618b57c"},"vehicle_type_id":"4","last_reported":1678226840,"current_range_meters":1200,"station_id":"ce4bhah2rcd13ifvqei0","pricing_plan_id":"free"},{"bike_id":"b403ac6f-1ebd-438f-b2be-7861431dc180","system_id":"levelo_inurba_marseille","lat":43.28462,"lon":5.35895,"is_reserved":false,"is_disabled":false,"rental_uris":{"android":"levelo://app?vid=b403ac6f-1ebd-438f-b2be-7861431dc180","ios":"levelo://app?vid=b403ac6f-1ebd-438f-b2be-7861431dc180"},"vehicle_type_id":"4","last_reported":1678226840,"current_range_meters":2400,"station_id":"","pricing_plan_id":"free"},{"bike_id":"503c50e1-7546-47fc-9b14-2b4c8f932717","system_id":"levelo_inurba_marseille","lat":43.284534,"lon":5.358662,"is_reserved":false,"is_disabled":false,"rental_uris":{"android":"levelo://app?vid=503c50e1-7546-47fc-9b14-2b4c8f932717","ios":"levelo://app?vid=503c50e1-7546-47fc-9b14-2b4c8f932717"},"vehicle_type_id":"4","last_reported":1678226840,"current_range_meters":6800,"station_id":"ce4bhah2rcd13ifvqei0","pricing_plan_id":"free"},{"bike_id":"a2b96ed1-9e04-463d-99ab-4ebe92dc6cfd","system_id":"levelo_inurba_marseille","lat":43.284534,"lon":5.358662,"is_reserved":false,"is_disabled":false,"rental_uris":{"android":"levelo://app?vid=a2b96ed1-9e04-463d-99ab-4ebe92dc6cfd","ios":"levelo://app?vid=a2b96ed1-9e04-463d-99ab-4ebe92dc6cfd"},"vehicle_type_id":"4","last_reported":1678226840,"current_range_meters":22800,"station_id":"ce4bhah2rcd13ifvqei0","pricing_plan_id":"free"},{"bike_id":"50e48011-a1df-4354-9451-780bbed247e9","system_id":"levelo_inurba_marseille","lat":43.284534,"lon":5.358662,"is_reserved":false,"is_disabled":false,"rental_uris":{"android":"levelo://app?vid=50e48011-a1df-4354-9451-780bbed247e9","ios":"levelo://app?vid=50e48011-a1df-4354-9451-780bbed247e9"},"vehicle_type_id":"4","last_reported":1678226840,"current_range_meters":26000,"station_id":"ce4bhah2rcd13ifvqei0","pricing_plan_id":"free"},{"bike_id":"76342e30-f3fa-4abc-8c5e-4e34685f9aa5","system_id":"levelo_inurba_marseille","lat":43.284534,"lon":5.358662,"is_reserved":false,"is_disabled":false,"rental_uris":{"android":"levelo://app?vid=76342e30-f3fa-4abc-8c5e-4e34685f9aa5","ios":"levelo://app?vid=76342e30-f3fa-4abc-8c5e-4e34685f9aa5"},"vehicle_type_id":"4","last_reported":1678226840,"current_range_meters":5600,"station_id":"ce4bhah2rcd13ifvqei0","pricing_plan_id":"free"},{"bike_id":"0cb6b5f8-7503-41e1-9239-1ba7b739c832","system_id":"levelo_inurba_marseille","lat":43.284534,"lon":5.358662,"is_reserved":false,"is_disabled":false,"rental_uris":{"android":"levelo://app?vid=0cb6b5f8-7503-41e1-9239-1ba7b739c832","ios":"levelo://app?vid=0cb6b5f8-7503-41e1-9239-1ba7b739c832"},"vehicle_type_id":"4","last_reported":1678226840,"current_range_meters":5200,"station_id":"ce4bhah2rcd13ifvqei0","pricing_plan_id":"free"},{"bike_id":"13e68381-e6c7-48c3-addd-ac7337abf9cc","system_id":"levelo_inurba_marseille","lat":43.295713,"lon":5.399639,"is_reserved":false,"is_disabled":false,"rental_uris":{"android":"levelo://app?vid=13e68381-e6c7-48c3-addd-ac7337abf9cc","ios":"levelo://app?vid=13e68381-e6c7-48c3-addd-ac7337abf9cc"},"vehicle_type_id":"4","last_reported":1678226840,"current_range_meters":11600,"station_id":"ce4bh312rcd13ifvqdj0","pricing_plan_id":"free"},{"bike_id":"943f599b-6759-463b-8f76-980634d8ddac","system_id":"levelo_inurba_marseille","lat":43.29155,"lon":5.39588,"is_reserved":false,"is_disabled":false,"rental_uris":{"android":"levelo://app?vid=943f599b-6759-463b-8f76-980634d8ddac","ios":"levelo://app?vid=943f599b-6759-463b-8f76-980634d8ddac"},"vehicle_type_id":"4","last_reported":1678226840,"current_range_meters":4000,"station_id":"","pricing_plan_id":"free"},{"bike_id":"b507f02b-2e71-4f48-a0b0-9bebd54df1f3","system_id":"levelo_inurba_marseille","lat":43.2898,"lon":5.39408,"is_reserved":false,"is_disabled":false,"rental_uris":{"android":"levelo://app?vid=b507f02b-2e71-4f48-a0b0-9bebd54df1f3","ios":"levelo://app?vid=b507f02b-2e71-4f48-a0b0-9bebd54df1f3"},"vehicle_type_id":"4","last_reported":1678226840,"current_range_meters":6000,"station_id":"","pricing_plan_id":"free"},{"bike_id":"1a0985e7-8012-4188-a1ab-5d2a657e6e8f","system_id":"levelo_inurba_marseille","lat":43.33723,"lon":5.39173,"is_reserved":false,"is_disabled":false,"rental_uris":{"android":"levelo://app?vid=1a0985e7-8012-4188-a1ab-5d2a657e6e8f","ios":"levelo://app?vid=1a0985e7-8012-4188-a1ab-5d2a657e6e8f"},"vehicle_type_id":"4","last_reported":1678226840,"current_range_meters":21200,"station_id":"ce4bhr92rcd13ifvqhsg","pricing_plan_id":"free"},{"bike_id":"ca19565d-b39d-42a2-aa01-5e3fa46c41f6","system_id":"levelo_inurba_marseille","lat":43.337168,"lon":5.391825,"is_reserved":false,"is_disabled":false,"rental_uris":{"android":"levelo://app?vid=ca19565d-b39d-42a2-aa01-5e3fa46c41f6","ios":"levelo://app?vid=ca19565d-b39d-42a2-aa01-5e3fa46c41f6"},"vehicle_type_id":"4","last_reported":1678226840,"current_range_meters":2800,"station_id":"ce4bhr92rcd13ifvqhsg","pricing_plan_id":"free"},{"bike_id":"7efd7e54-e291-409a-a356-504506587cae","system_id":"levelo_inurba_marseille","lat":43.337168,"lon":5.391825,"is_reserved":false,"is_disabled":false,"rental_uris":{"android":"levelo://app?vid=7efd7e54-e291-409a-a356-504506587cae","ios":"levelo://app?vid=7efd7e54-e291-409a-a356-504506587cae"},"vehicle_type_id":"4","last_reported":1678226840,"current_range_meters":0,"station_id":"ce4bhr92rcd13ifvqhsg","pricing_plan_id":"free"},{"bike_id":"356dacce-9210-49f9-a9ca-08fabcadc7f9","system_id":"levelo_inurba_marseille","lat":43.323332,"lon":5.40616,"is_reserved":false,"is_disabled":false,"rental_uris":{"android":"levelo://app?vid=356dacce-9210-49f9-a9ca-08fabcadc7f9","ios":"levelo://app?vid=356dacce-9210-49f9-a9ca-08fabcadc7f9"},"vehicle_type_id":"4","last_reported":1678226840,"current_range_meters":13600,"station_id":"ce4bhq92rcd13ifvqhjg","pricing_plan_id":"free"},{"bike_id":"23d153c6-f01c-47fe-89b4-4d7792591203","system_id":"levelo_inurba_marseille","lat":43.33721,"lon":5.39186,"is_reserved":false,"is_disabled":false,"rental_uris":{"android":"levelo://app?vid=23d153c6-f01c-47fe-89b4-4d7792591203","ios":"levelo://app?vid=23d153c6-f01c-47fe-89b4-4d7792591203"},"vehicle_type_id":"4","last_reported":1678226840,"current_range_meters":18000,"station_id":"ce4bhr92rcd13ifvqhsg","pricing_plan_id":"free"},{"bike_id":"52ec1317-6258-4cd8-802a-01ff73acd84d","system_id":"levelo_inurba_marseille","lat":43.337168,"lon":5.391825,"is_reserved":false,"is_disabled":false,"rental_uris":{"android":"levelo://app?vid=52ec1317-6258-4cd8-802a-01ff73acd84d","ios":"levelo://app?vid=52ec1317-6258-4cd8-802a-01ff73acd84d"},"vehicle_type_id":"4","last_reported":1678226840,"current_range_meters":400,"station_id":"ce4bhr92rcd13ifvqhsg","pricing_plan_id":"free"},{"bike_id":"ab0feb94-5fb8-4a18-8a28-af999dec1d0f","system_id":"levelo_inurba_marseille","lat":43.33725,"lon":5.39184,"is_reserved":false,"is_disabled":false,"rental_uris":{"android":"levelo://app?vid=ab0feb94-5fb8-4a18-8a28-af999dec1d0f","ios":"levelo://app?vid=ab0feb94-5fb8-4a18-8a28-af999dec1d0f"},"vehicle_type_id":"4","last_reported":1678226840,"current_range_meters":27600,"station_id":"","pricing_plan_id":"free"},{"bike_id":"0984a3a5-e7ec-436d-89c2-1f41475d970a","system_id":"levelo_inurba_marseille","lat":43.32334,"lon":5.40621,"is_reserved":false,"is_disabled":false,"rental_uris":{"android":"levelo://app?vid=0984a3a5-e7ec-436d-89c2-1f41475d970a","ios":"levelo://app?vid=0984a3a5-e7ec-436d-89c2-1f41475d970a"},"vehicle_type_id":"4","last_reported":1678226840,"current_range_meters":21200,"station_id":"ce4bhq92rcd13ifvqhjg","pricing_plan_id":"free"},{"bike_id":"c8241319-0afc-4e27-8528-1c6a7ecdbe85","system_id":"levelo_inurba_marseille","lat":43.32338,"lon":5.4062,"is_reserved":false,"is_disabled":false,"rental_uris":{"android":"levelo://app?vid=c8241319-0afc-4e27-8528-1c6a7ecdbe85","ios":"levelo://app?vid=c8241319-0afc-4e27-8528-1c6a7ecdbe85"},"vehicle_type_id":"4","last_reported":1678226840,"current_range_meters":10000,"station_id":"ce4bhq92rcd13ifvqhjg","pricing_plan_id":"free"},{"bike_id":"d466e6a7-11a3-49a3-b6d5-38acc44e2457","system_id":"levelo_inurba_marseille","lat":43.322902,"lon":5.406442,"is_reserved":false,"is_disabled":false,"rental_uris":{"android":"levelo://app?vid=d466e6a7-11a3-49a3-b6d5-38acc44e2457","ios":"levelo://app?vid=d466e6a7-11a3-49a3-b6d5-38acc44e2457"},"vehicle_type_id":"4","last_reported":1678226840,"current_range_meters":7200,"station_id":"","pricing_plan_id":"free"},{"bike_id":"80deefc5-447f-4997-8b8f-20621bb8f8bb","system_id":"levelo_inurba_marseille","lat":43.323363,"lon":5.406217,"is_reserved":false,"is_disabled":false,"rental_uris":{"android":"levelo://app?vid=80deefc5-447f-4997-8b8f-20621bb8f8bb","ios":"levelo://app?vid=80deefc5-447f-4997-8b8f-20621bb8f8bb"},"vehicle_type_id":"4","last_reported":1678226840,"current_range_meters":12400,"station_id":"","pricing_plan_id":"free"},{"bike_id":"b633daa5-dd71-4ea0-9043-b6f0b29c3ff6","system_id":"levelo_inurba_marseille","lat":43.3234,"lon":5.4062,"is_reserved":false,"is_disabled":false,"rental_uris":{"android":"levelo://app?vid=b633daa5-dd71-4ea0-9043-b6f0b29c3ff6","ios":"levelo://app?vid=b633daa5-dd71-4ea0-9043-b6f0b29c3ff6"},"vehicle_type_id":"4","last_reported":1678226840,"current_range_meters":10400,"station_id":"ce4bhq92rcd13ifvqhjg","pricing_plan_id":"free"},{"bike_id":"be723eb2-fe68-47b9-8031-53deb5571e51","system_id":"levelo_inurba_marseille","lat":43.337261,"lon":5.391855,"is_reserved":false,"is_disabled":false,"rental_uris":{"android":"levelo://app?vid=be723eb2-fe68-47b9-8031-53deb5571e51","ios":"levelo://app?vid=be723eb2-fe68-47b9-8031-53deb5571e51"},"vehicle_type_id":"4","last_reported":1678226840,"current_range_meters":0,"station_id":"","pricing_plan_id":"free"},{"bike_id":"049dad72-6330-444a-8c59-496aca383226","system_id":"levelo_inurba_marseille","lat":43.33728,"lon":5.391835,"is_reserved":false,"is_disabled":false,"rental_uris":{"android":"levelo://app?vid=049dad72-6330-444a-8c59-496aca383226","ios":"levelo://app?vid=049dad72-6330-444a-8c59-496aca383226"},"vehicle_type_id":"4","last_reported":1678226840,"current_range_meters":29600,"station_id":"","pricing_plan_id":"free"},{"bike_id":"51f672f4-e90f-45e2-b1a4-2196828216f3","system_id":"levelo_inurba_marseille","lat":43.32335,"lon":5.40625,"is_reserved":false,"is_disabled":false,"rental_uris":{"android":"levelo://app?vid=51f672f4-e90f-45e2-b1a4-2196828216f3","ios":"levelo://app?vid=51f672f4-e90f-45e2-b1a4-2196828216f3"},"vehicle_type_id":"4","last_reported":1678226840,"current_range_meters":15600,"station_id":"","pricing_plan_id":"free"},{"bike_id":"59f59454-8a57-4227-9f94-d58974282b49","system_id":"levelo_inurba_marseille","lat":43.32337,"lon":5.40625,"is_reserved":false,"is_disabled":false,"rental_uris":{"android":"levelo://app?vid=59f59454-8a57-4227-9f94-d58974282b49","ios":"levelo://app?vid=59f59454-8a57-4227-9f94-d58974282b49"},"vehicle_type_id":"4","last_reported":1678226840,"current_range_meters":18800,"station_id":"","pricing_plan_id":"free"},{"bike_id":"de4a8079-ad6c-46ae-8e7f-a059f09ed22a","system_id":"levelo_inurba_marseille","lat":43.337168,"lon":5.391825,"is_reserved":false,"is_disabled":false,"rental_uris":{"android":"levelo://app?vid=de4a8079-ad6c-46ae-8e7f-a059f09ed22a","ios":"levelo://app?vid=de4a8079-ad6c-46ae-8e7f-a059f09ed22a"},"vehicle_type_id":"4","last_reported":1678226840,"current_range_meters":24400,"station_id":"ce4bhr92rcd13ifvqhsg","pricing_plan_id":"free"},{"bike_id":"d4c7f542-c031-417a-8366-7658ace0fd1c","system_id":"levelo_inurba_marseille","lat":43.337293,"lon":5.391857,"is_reserved":false,"is_disabled":false,"rental_uris":{"android":"levelo://app?vid=d4c7f542-c031-417a-8366-7658ace0fd1c","ios":"levelo://app?vid=d4c7f542-c031-417a-8366-7658ace0fd1c"},"vehicle_type_id":"4","last_reported":1678226840,"current_range_meters":2000,"station_id":"","pricing_plan_id":"free"},{"bike_id":"c4dbf44f-b2f6-4712-bc48-ad2c8fae7753","system_id":"levelo_inurba_marseille","lat":43.33727,"lon":5.39194,"is_reserved":false,"is_disabled":false,"rental_uris":{"android":"levelo://app?vid=c4dbf44f-b2f6-4712-bc48-ad2c8fae7753","ios":"levelo://app?vid=c4dbf44f-b2f6-4712-bc48-ad2c8fae7753"},"vehicle_type_id":"4","last_reported":1678226840,"current_range_meters":20400,"station_id":"ce4bhr92rcd13ifvqhsg","pricing_plan_id":"free"},{"bike_id":"e95cc4b5-d339-422d-bf25-57cf1647088a","system_id":"levelo_inurba_marseille","lat":43.28481,"lon":5.38405,"is_reserved":false,"is_disabled":false,"rental_uris":{"android":"levelo://app?vid=e95cc4b5-d339-422d-bf25-57cf1647088a","ios":"levelo://app?vid=e95cc4b5-d339-422d-bf25-57cf1647088a"},"vehicle_type_id":"4","last_reported":1678226840,"current_range_meters":21200,"station_id":"ce4bh512rcd13ifvqe3g","pricing_plan_id":"free"},{"bike_id":"b51686d5-640f-4216-aa79-f064d542da93","system_id":"levelo_inurba_marseille","lat":43.284219,"lon":5.3497,"is_reserved":false,"is_disabled":false,"rental_uris":{"android":"levelo://app?vid=b51686d5-640f-4216-aa79-f064d542da93","ios":"levelo://app?vid=b51686d5-640f-4216-aa79-f064d542da93"},"vehicle_type_id":"4","last_reported":1678226840,"current_range_meters":27200,"station_id":"ce4bhbh2rcd13ifvqepg","pricing_plan_id":"free"},{"bike_id":"6f608261-9c69-4b77-9387-5af4c5a61586","system_id":"levelo_inurba_marseille","lat":43.28419,"lon":5.34991,"is_reserved":false,"is_disabled":false,"rental_uris":{"android":"levelo://app?vid=6f608261-9c69-4b77-9387-5af4c5a61586","ios":"levelo://app?vid=6f608261-9c69-4b77-9387-5af4c5a61586"},"vehicle_type_id":"4","last_reported":1678226840,"current_range_meters":0,"station_id":"ce4bhbh2rcd13ifvqepg","pricing_plan_id":"free"},{"bike_id":"cf6dd2e0-cd15-4836-a266-bd7577c69253","system_id":"levelo_inurba_marseille","lat":43.282083,"lon":5.377062,"is_reserved":false,"is_disabled":false,"rental_uris":{"android":"levelo://app?vid=cf6dd2e0-cd15-4836-a266-bd7577c69253","ios":"levelo://app?vid=cf6dd2e0-cd15-4836-a266-bd7577c69253"},"vehicle_type_id":"4","last_reported":1678226840,"current_range_meters":0,"station_id":"","pricing_plan_id":"free"},{"bike_id":"02c26c22-057e-4e0c-ac7b-71bd06b84666","system_id":"levelo_inurba_marseille","lat":43.28273,"lon":5.35071,"is_reserved":false,"is_disabled":false,"rental_uris":{"android":"levelo://app?vid=02c26c22-057e-4e0c-ac7b-71bd06b84666","ios":"levelo://app?vid=02c26c22-057e-4e0c-ac7b-71bd06b84666"},"vehicle_type_id":"4","last_reported":1678226840,"current_range_meters":0,"station_id":"ce4bhbp2rcd13ifvqerg","pricing_plan_id":"free"},{"bike_id":"c5b8ca1c-5b0b-4220-8e99-a5b7ca5c0e24","system_id":"levelo_inurba_marseille","lat":43.282727,"lon":5.350634,"is_reserved":false,"is_disabled":false,"rental_uris":{"android":"levelo://app?vid=c5b8ca1c-5b0b-4220-8e99-a5b7ca5c0e24","ios":"levelo://app?vid=c5b8ca1c-5b0b-4220-8e99-a5b7ca5c0e24"},"vehicle_type_id":"4","last_reported":1678226840,"current_range_meters":0,"station_id":"ce4bhbp2rcd13ifvqerg","pricing_plan_id":"free"},{"bike_id":"79d8713e-e5fe-4a32-810a-5d2c68abb1b6","system_id":"levelo_inurba_marseille","lat":43.282744,"lon":5.350533,"is_reserved":false,"is_disabled":false,"rental_uris":{"android":"levelo://app?vid=79d8713e-e5fe-4a32-810a-5d2c68abb1b6","ios":"levelo://app?vid=79d8713e-e5fe-4a32-810a-5d2c68abb1b6"},"vehicle_type_id":"4","last_reported":1678226840,"current_range_meters":15200,"station_id":"ce4bhbp2rcd13ifvqerg","pricing_plan_id":"free"},{"bike_id":"36eead4e-e568-4412-bec1-08269340c942","system_id":"levelo_inurba_marseille","lat":43.282744,"lon":5.350533,"is_reserved":false,"is_disabled":false,"rental_uris":{"android":"levelo://app?vid=36eead4e-e568-4412-bec1-08269340c942","ios":"levelo://app?vid=36eead4e-e568-4412-bec1-08269340c942"},"vehicle_type_id":"4","last_reported":1678226840,"current_range_meters":5200,"station_id":"ce4bhbp2rcd13ifvqerg","pricing_plan_id":"free"},{"bike_id":"dff6405c-b259-4e99-802e-dcb775cbbf0b","system_id":"levelo_inurba_marseille","lat":43.283713,"lon":5.386527,"is_reserved":false,"is_disabled":false,"rental_uris":{"android":"levelo://app?vid=dff6405c-b259-4e99-802e-dcb775cbbf0b","ios":"levelo://app?vid=dff6405c-b259-4e99-802e-dcb775cbbf0b"},"vehicle_type_id":"4","last_reported":1678226840,"current_range_meters":0,"station_id":"ce4bh492rcd13ifvqdvg","pricing_plan_id":"free"},{"bike_id":"e65604fd-16fe-41fd-a81e-46cfd00ad7b3","system_id":"levelo_inurba_marseille","lat":43.282744,"lon":5.350533,"is_reserved":false,"is_disabled":false,"rental_uris":{"android":"levelo://app?vid=e65604fd-16fe-41fd-a81e-46cfd00ad7b3","ios":"levelo://app?vid=e65604fd-16fe-41fd-a81e-46cfd00ad7b3"},"vehicle_type_id":"4","last_reported":1678226840,"current_range_meters":0,"station_id":"ce4bhbp2rcd13ifvqerg","pricing_plan_id":"free"},{"bike_id":"3509ce95-1ac1-42f3-b153-e7e93731ad48","system_id":"levelo_inurba_marseille","lat":43.282744,"lon":5.350533,"is_reserved":false,"is_disabled":false,"rental_uris":{"android":"levelo://app?vid=3509ce95-1ac1-42f3-b153-e7e93731ad48","ios":"levelo://app?vid=3509ce95-1ac1-42f3-b153-e7e93731ad48"},"vehicle_type_id":"4","last_reported":1678226840,"current_range_meters":23600,"station_id":"ce4bhbp2rcd13ifvqerg","pricing_plan_id":"free"},{"bike_id":"3e23727e-ecb5-47c5-893c-c5f51cb63767","system_id":"levelo_inurba_marseille","lat":43.28039,"lon":5.369297,"is_reserved":false,"is_disabled":false,"rental_uris":{"android":"levelo://app?vid=3e23727e-ecb5-47c5-893c-c5f51cb63767","ios":"levelo://app?vid=3e23727e-ecb5-47c5-893c-c5f51cb63767"},"vehicle_type_id":"4","last_reported":1678226840,"current_range_meters":17600,"station_id":"ce4bha12rcd13ifvqef0","pricing_plan_id":"free"},{"bike_id":"c60a06d3-248a-4480-b735-24fd33af48be","system_id":"levelo_inurba_marseille","lat":43.28039,"lon":5.369297,"is_reserved":false,"is_disabled":false,"rental_uris":{"android":"levelo://app?vid=c60a06d3-248a-4480-b735-24fd33af48be","ios":"levelo://app?vid=c60a06d3-248a-4480-b735-24fd33af48be"},"vehicle_type_id":"4","last_reported":1678226840,"current_range_meters":27200,"station_id":"ce4bha12rcd13ifvqef0","pricing_plan_id":"free"},{"bike_id":"ca187cd8-85d4-4dc1-8ab1-a80345a3a443","system_id":"levelo_inurba_marseille","lat":43.280341,"lon":5.369445,"is_reserved":false,"is_disabled":false,"rental_uris":{"android":"levelo://app?vid=ca187cd8-85d4-4dc1-8ab1-a80345a3a443","ios":"levelo://app?vid=ca187cd8-85d4-4dc1-8ab1-a80345a3a443"},"vehicle_type_id":"4","last_reported":1678226840,"current_range_meters":13200,"station_id":"ce4bha12rcd13ifvqef0","pricing_plan_id":"free"},{"bike_id":"df9b2bc7-f01a-4493-9480-414de5bf9324","system_id":"levelo_inurba_marseille","lat":43.28039,"lon":5.369297,"is_reserved":false,"is_disabled":false,"rental_uris":{"android":"levelo://app?vid=df9b2bc7-f01a-4493-9480-414de5bf9324","ios":"levelo://app?vid=df9b2bc7-f01a-4493-9480-414de5bf9324"},"vehicle_type_id":"4","last_reported":1678226840,"current_range_meters":19200,"station_id":"ce4bha12rcd13ifvqef0","pricing_plan_id":"free"},{"bike_id":"d64d2e88-0ff5-4497-bf27-de5bad5c52d1","system_id":"levelo_inurba_marseille","lat":43.280334,"lon":5.369497,"is_reserved":false,"is_disabled":false,"rental_uris":{"android":"levelo://app?vid=d64d2e88-0ff5-4497-bf27-de5bad5c52d1","ios":"levelo://app?vid=d64d2e88-0ff5-4497-bf27-de5bad5c52d1"},"vehicle_type_id":"4","last_reported":1678226840,"current_range_meters":14000,"station_id":"ce4bha12rcd13ifvqef0","pricing_plan_id":"free"},{"bike_id":"e4b3ac76-a113-4bdf-9ef3-037ec032ad31","system_id":"levelo_inurba_marseille","lat":43.280323,"lon":5.369411,"is_reserved":false,"is_disabled":false,"rental_uris":{"android":"levelo://app?vid=e4b3ac76-a113-4bdf-9ef3-037ec032ad31","ios":"levelo://app?vid=e4b3ac76-a113-4bdf-9ef3-037ec032ad31"},"vehicle_type_id":"4","last_reported":1678226840,"current_range_meters":8800,"station_id":"","pricing_plan_id":"free"},{"bike_id":"ab493cd2-f341-4304-932c-dadd436736de","system_id":"levelo_inurba_marseille","lat":43.280313,"lon":5.369484,"is_reserved":false,"is_disabled":false,"rental_uris":{"android":"levelo://app?vid=ab493cd2-f341-4304-932c-dadd436736de","ios":"levelo://app?vid=ab493cd2-f341-4304-932c-dadd436736de"},"vehicle_type_id":"4","last_reported":1678226840,"current_range_meters":0,"station_id":"","pricing_plan_id":"free"},{"bike_id":"d6f4e36e-fd5b-4650-830d-1cb925f2f784","system_id":"levelo_inurba_marseille","lat":43.28039,"lon":5.369297,"is_reserved":false,"is_disabled":false,"rental_uris":{"android":"levelo://app?vid=d6f4e36e-fd5b-4650-830d-1cb925f2f784","ios":"levelo://app?vid=d6f4e36e-fd5b-4650-830d-1cb925f2f784"},"vehicle_type_id":"4","last_reported":1678226840,"current_range_meters":12400,"station_id":"ce4bha12rcd13ifvqef0","pricing_plan_id":"free"},{"bike_id":"be3e685f-bd77-45bc-a00e-38be4904a326","system_id":"levelo_inurba_marseille","lat":43.304188,"lon":5.412904,"is_reserved":false,"is_disabled":false,"rental_uris":{"android":"levelo://app?vid=be3e685f-bd77-45bc-a00e-38be4904a326","ios":"levelo://app?vid=be3e685f-bd77-45bc-a00e-38be4904a326"},"vehicle_type_id":"4","last_reported":1678226840,"current_range_meters":24800,"station_id":"ce4bhop2rcd13ifvqh8g","pricing_plan_id":"free"},{"bike_id":"315f8307-5058-4ae2-ad28-b37162946063","system_id":"levelo_inurba_marseille","lat":43.304188,"lon":5.412904,"is_reserved":false,"is_disabled":false,"rental_uris":{"android":"levelo://app?vid=315f8307-5058-4ae2-ad28-b37162946063","ios":"levelo://app?vid=315f8307-5058-4ae2-ad28-b37162946063"},"vehicle_type_id":"4","last_reported":1678226840,"current_range_meters":16400,"station_id":"ce4bhop2rcd13ifvqh8g","pricing_plan_id":"free"},{"bike_id":"3b7cb5f2-b298-4e16-8620-b05435f94fd8","system_id":"levelo_inurba_marseille","lat":43.320525,"lon":5.41535,"is_reserved":false,"is_disabled":false,"rental_uris":{"android":"levelo://app?vid=3b7cb5f2-b298-4e16-8620-b05435f94fd8","ios":"levelo://app?vid=3b7cb5f2-b298-4e16-8620-b05435f94fd8"},"vehicle_type_id":"4","last_reported":1678226840,"current_range_meters":6000,"station_id":"","pricing_plan_id":"free"},{"bike_id":"94f94ea0-c1e3-4503-9eb0-f737d576ff24","system_id":"levelo_inurba_marseille","lat":43.32043,"lon":5.4154,"is_reserved":false,"is_disabled":false,"rental_uris":{"android":"levelo://app?vid=94f94ea0-c1e3-4503-9eb0-f737d576ff24","ios":"levelo://app?vid=94f94ea0-c1e3-4503-9eb0-f737d576ff24"},"vehicle_type_id":"4","last_reported":1678226840,"current_range_meters":0,"station_id":"","pricing_plan_id":"free"},{"bike_id":"8f86add7-ec07-4b99-ae5c-20f3ee34baef","system_id":"levelo_inurba_marseille","lat":43.299579,"lon":5.413255,"is_reserved":false,"is_disabled":false,"rental_uris":{"android":"levelo://app?vid=8f86add7-ec07-4b99-ae5c-20f3ee34baef","ios":"levelo://app?vid=8f86add7-ec07-4b99-ae5c-20f3ee34baef"},"vehicle_type_id":"4","last_reported":1678226840,"current_range_meters":29600,"station_id":"ce4bhp12rcd13ifvqh9g","pricing_plan_id":"free"},{"bike_id":"ce55ac55-fe5c-4e51-9ed4-353261ec6246","system_id":"levelo_inurba_marseille","lat":43.320045,"lon":5.415048,"is_reserved":false,"is_disabled":false,"rental_uris":{"android":"levelo://app?vid=ce55ac55-fe5c-4e51-9ed4-353261ec6246","ios":"levelo://app?vid=ce55ac55-fe5c-4e51-9ed4-353261ec6246"},"vehicle_type_id":"4","last_reported":1678226840,"current_range_meters":5200,"station_id":"ce4bhq92rcd13ifvqhkg","pricing_plan_id":"free"},{"bike_id":"38dd2bd7-fc25-4cf2-84a1-a963d73db5f3","system_id":"levelo_inurba_marseille","lat":43.320045,"lon":5.415048,"is_reserved":false,"is_disabled":false,"rental_uris":{"android":"levelo://app?vid=38dd2bd7-fc25-4cf2-84a1-a963d73db5f3","ios":"levelo://app?vid=38dd2bd7-fc25-4cf2-84a1-a963d73db5f3"},"vehicle_type_id":"4","last_reported":1678226840,"current_range_meters":24000,"station_id":"ce4bhq92rcd13ifvqhkg","pricing_plan_id":"free"},{"bike_id":"775a6db6-e19c-4739-8f8b-45feaf2c4963","system_id":"levelo_inurba_marseille","lat":43.320428,"lon":5.41546,"is_reserved":false,"is_disabled":false,"rental_uris":{"android":"levelo://app?vid=775a6db6-e19c-4739-8f8b-45feaf2c4963","ios":"levelo://app?vid=775a6db6-e19c-4739-8f8b-45feaf2c4963"},"vehicle_type_id":"4","last_reported":1678226840,"current_range_meters":800,"station_id":"","pricing_plan_id":"free"},{"bike_id":"d77a3a84-3910-48a4-b44f-bfa2e6f2bb1f","system_id":"levelo_inurba_marseille","lat":43.299579,"lon":5.413255,"is_reserved":false,"is_disabled":false,"rental_uris":{"android":"levelo://app?vid=d77a3a84-3910-48a4-b44f-bfa2e6f2bb1f","ios":"levelo://app?vid=d77a3a84-3910-48a4-b44f-bfa2e6f2bb1f"},"vehicle_type_id":"4","last_reported":1678226840,"current_range_meters":23600,"station_id":"ce4bhp12rcd13ifvqh9g","pricing_plan_id":"free"},{"bike_id":"f8dd7bfa-eda0-4252-8ba1-e7fe84691cc2","system_id":"levelo_inurba_marseille","lat":43.299579,"lon":5.413255,"is_reserved":false,"is_disabled":false,"rental_uris":{"android":"levelo://app?vid=f8dd7bfa-eda0-4252-8ba1-e7fe84691cc2","ios":"levelo://app?vid=f8dd7bfa-eda0-4252-8ba1-e7fe84691cc2"},"vehicle_type_id":"4","last_reported":1678226840,"current_range_meters":28000,"station_id":"ce4bhp12rcd13ifvqh9g","pricing_plan_id":"free"},{"bike_id":"922f614d-8eb5-4a9b-9865-2e54d765be28","system_id":"levelo_inurba_marseille","lat":43.292644,"lon":5.384257,"is_reserved":false,"is_disabled":false,"rental_uris":{"android":"levelo://app?vid=922f614d-8eb5-4a9b-9865-2e54d765be28","ios":"levelo://app?vid=922f614d-8eb5-4a9b-9865-2e54d765be28"},"vehicle_type_id":"4","last_reported":1678226840,"current_range_meters":400,"station_id":"ce4bh692rcd13ifvqea0","pricing_plan_id":"free"},{"bike_id":"e98c2c42-e554-4ccb-8fc8-6a96e5941997","system_id":"levelo_inurba_marseille","lat":43.292569,"lon":5.409107,"is_reserved":false,"is_disabled":false,"rental_uris":{"android":"levelo://app?vid=e98c2c42-e554-4ccb-8fc8-6a96e5941997","ios":"levelo://app?vid=e98c2c42-e554-4ccb-8fc8-6a96e5941997"},"vehicle_type_id":"4","last_reported":1678226840,"current_range_meters":0,"station_id":"ce4bh192rcd13ifvqdc0","pricing_plan_id":"free"},{"bike_id":"7f2b8ee3-d4b4-4935-ad70-eb175f6ad6b4","system_id":"levelo_inurba_marseille","lat":43.292571,"lon":5.409107,"is_reserved":false,"is_disabled":false,"rental_uris":{"android":"levelo://app?vid=7f2b8ee3-d4b4-4935-ad70-eb175f6ad6b4","ios":"levelo://app?vid=7f2b8ee3-d4b4-4935-ad70-eb175f6ad6b4"},"vehicle_type_id":"4","last_reported":1678226840,"current_range_meters":23600,"station_id":"ce4bh192rcd13ifvqdc0","pricing_plan_id":"free"},{"bike_id":"d9afddd3-4631-473c-b6c2-ac6f73b9adfc","system_id":"levelo_inurba_marseille","lat":43.325233,"lon":5.414318,"is_reserved":false,"is_disabled":false,"rental_uris":{"android":"levelo://app?vid=d9afddd3-4631-473c-b6c2-ac6f73b9adfc","ios":"levelo://app?vid=d9afddd3-4631-473c-b6c2-ac6f73b9adfc"},"vehicle_type_id":"4","last_reported":1678226840,"current_range_meters":2800,"station_id":"ce4bhq12rcd13ifvqhhg","pricing_plan_id":"free"},{"bike_id":"d002ec26-0c08-4839-b4bb-13dc6d023197","system_id":"levelo_inurba_marseille","lat":43.325243,"lon":5.414326,"is_reserved":false,"is_disabled":false,"rental_uris":{"android":"levelo://app?vid=d002ec26-0c08-4839-b4bb-13dc6d023197","ios":"levelo://app?vid=d002ec26-0c08-4839-b4bb-13dc6d023197"},"vehicle_type_id":"4","last_reported":1678226840,"current_range_meters":1200,"station_id":"ce4bhq12rcd13ifvqhhg","pricing_plan_id":"free"},{"bike_id":"0e239685-f9c0-41bb-a455-813f82a14055","system_id":"levelo_inurba_marseille","lat":43.292571,"lon":5.409107,"is_reserved":false,"is_disabled":false,"rental_uris":{"android":"levelo://app?vid=0e239685-f9c0-41bb-a455-813f82a14055","ios":"levelo://app?vid=0e239685-f9c0-41bb-a455-813f82a14055"},"vehicle_type_id":"4","last_reported":1678226840,"current_range_meters":19600,"station_id":"ce4bh192rcd13ifvqdc0","pricing_plan_id":"free"},{"bike_id":"c0309ac4-02df-4b10-b544-553a460fbc78","system_id":"levelo_inurba_marseille","lat":43.235283,"lon":5.409923,"is_reserved":false,"is_disabled":false,"rental_uris":{"android":"levelo://app?vid=c0309ac4-02df-4b10-b544-553a460fbc78","ios":"levelo://app?vid=c0309ac4-02df-4b10-b544-553a460fbc78"},"vehicle_type_id":"4","last_reported":1678226840,"current_range_meters":5200,"station_id":"","pricing_plan_id":"free"},{"bike_id":"2e3ca9a4-3670-455d-b96b-18278bd4f56b","system_id":"levelo_inurba_marseille","lat":43.27618,"lon":5.361009,"is_reserved":false,"is_disabled":false,"rental_uris":{"android":"levelo://app?vid=2e3ca9a4-3670-455d-b96b-18278bd4f56b","ios":"levelo://app?vid=2e3ca9a4-3670-455d-b96b-18278bd4f56b"},"vehicle_type_id":"4","last_reported":1678226840,"current_range_meters":16000,"station_id":"ce4bgj92rcd13ifvqbe0","pricing_plan_id":"free"},{"bike_id":"9e9936e3-de1f-4663-adc7-495160ff8ebd","system_id":"levelo_inurba_marseille","lat":43.27618,"lon":5.361009,"is_reserved":false,"is_disabled":false,"rental_uris":{"android":"levelo://app?vid=9e9936e3-de1f-4663-adc7-495160ff8ebd","ios":"levelo://app?vid=9e9936e3-de1f-4663-adc7-495160ff8ebd"},"vehicle_type_id":"4","last_reported":1678226840,"current_range_meters":7600,"station_id":"ce4bgj92rcd13ifvqbe0","pricing_plan_id":"free"},{"bike_id":"60c94c2c-ed8a-4f69-b34d-530c27e96725","system_id":"levelo_inurba_marseille","lat":43.325243,"lon":5.414326,"is_reserved":false,"is_disabled":false,"rental_uris":{"android":"levelo://app?vid=60c94c2c-ed8a-4f69-b34d-530c27e96725","ios":"levelo://app?vid=60c94c2c-ed8a-4f69-b34d-530c27e96725"},"vehicle_type_id":"4","last_reported":1678226840,"current_range_meters":30800,"station_id":"ce4bhq12rcd13ifvqhhg","pricing_plan_id":"free"},{"bike_id":"090e2b45-a915-470d-a12a-c03f58057613","system_id":"levelo_inurba_marseille","lat":43.27615,"lon":5.36118,"is_reserved":false,"is_disabled":false,"rental_uris":{"android":"levelo://app?vid=090e2b45-a915-470d-a12a-c03f58057613","ios":"levelo://app?vid=090e2b45-a915-470d-a12a-c03f58057613"},"vehicle_type_id":"4","last_reported":1678226840,"current_range_meters":16000,"station_id":"","pricing_plan_id":"free"},{"bike_id":"340d66e8-bda1-48b8-b9e2-90cd8e482b59","system_id":"levelo_inurba_marseille","lat":43.276133,"lon":5.361072,"is_reserved":false,"is_disabled":false,"rental_uris":{"android":"levelo://app?vid=340d66e8-bda1-48b8-b9e2-90cd8e482b59","ios":"levelo://app?vid=340d66e8-bda1-48b8-b9e2-90cd8e482b59"},"vehicle_type_id":"4","last_reported":1678226840,"current_range_meters":9200,"station_id":"ce4bgj92rcd13ifvqbe0","pricing_plan_id":"free"},{"bike_id":"b34b833d-f9e2-49e7-926f-4536e05e0640","system_id":"levelo_inurba_marseille","lat":43.335965,"lon":5.40978,"is_reserved":false,"is_disabled":false,"rental_uris":{"android":"levelo://app?vid=b34b833d-f9e2-49e7-926f-4536e05e0640","ios":"levelo://app?vid=b34b833d-f9e2-49e7-926f-4536e05e0640"},"vehicle_type_id":"4","last_reported":1678226840,"current_range_meters":0,"station_id":"","pricing_plan_id":"free"},{"bike_id":"31a15b17-a18a-4c11-9514-617fc48edbb4","system_id":"levelo_inurba_marseille","lat":43.27381,"lon":5.36256,"is_reserved":false,"is_disabled":false,"rental_uris":{"android":"levelo://app?vid=31a15b17-a18a-4c11-9514-617fc48edbb4","ios":"levelo://app?vid=31a15b17-a18a-4c11-9514-617fc48edbb4"},"vehicle_type_id":"4","last_reported":1678226840,"current_range_meters":1600,"station_id":"ce4bhbh2rcd13ifvqeo0","pricing_plan_id":"free"},{"bike_id":"d4b79244-b631-47cc-89da-2f4dd3e2f847","system_id":"levelo_inurba_marseille","lat":43.2738,"lon":5.36258,"is_reserved":false,"is_disabled":false,"rental_uris":{"android":"levelo://app?vid=d4b79244-b631-47cc-89da-2f4dd3e2f847","ios":"levelo://app?vid=d4b79244-b631-47cc-89da-2f4dd3e2f847"},"vehicle_type_id":"4","last_reported":1678226840,"current_range_meters":19600,"station_id":"ce4bhbh2rcd13ifvqeo0","pricing_plan_id":"free"},{"bike_id":"88eedc7b-dd58-4b8f-abc9-020d11215194","system_id":"levelo_inurba_marseille","lat":43.273803,"lon":5.362531,"is_reserved":false,"is_disabled":false,"rental_uris":{"android":"levelo://app?vid=88eedc7b-dd58-4b8f-abc9-020d11215194","ios":"levelo://app?vid=88eedc7b-dd58-4b8f-abc9-020d11215194"},"vehicle_type_id":"4","last_reported":1678226840,"current_range_meters":12000,"station_id":"ce4bhbh2rcd13ifvqeo0","pricing_plan_id":"free"},{"bike_id":"ae94e0b1-c74f-4227-af9f-6a3209b764c2","system_id":"levelo_inurba_marseille","lat":43.2738,"lon":5.36254,"is_reserved":false,"is_disabled":false,"rental_uris":{"android":"levelo://app?vid=ae94e0b1-c74f-4227-af9f-6a3209b764c2","ios":"levelo://app?vid=ae94e0b1-c74f-4227-af9f-6a3209b764c2"},"vehicle_type_id":"4","last_reported":1678226840,"current_range_meters":0,"station_id":"ce4bhbh2rcd13ifvqeo0","pricing_plan_id":"free"},{"bike_id":"7c7b727f-4ee4-4cb4-a988-de186dfebbc3","system_id":"levelo_inurba_marseille","lat":43.273613,"lon":5.362705,"is_reserved":false,"is_disabled":false,"rental_uris":{"android":"levelo://app?vid=7c7b727f-4ee4-4cb4-a988-de186dfebbc3","ios":"levelo://app?vid=7c7b727f-4ee4-4cb4-a988-de186dfebbc3"},"vehicle_type_id":"4","last_reported":1678226840,"current_range_meters":24400,"station_id":"ce4bhbh2rcd13ifvqeo0","pricing_plan_id":"free"},{"bike_id":"f859c8de-e6f9-4539-85be-5860b3c138ad","system_id":"levelo_inurba_marseille","lat":43.273613,"lon":5.362705,"is_reserved":false,"is_disabled":false,"rental_uris":{"android":"levelo://app?vid=f859c8de-e6f9-4539-85be-5860b3c138ad","ios":"levelo://app?vid=f859c8de-e6f9-4539-85be-5860b3c138ad"},"vehicle_type_id":"4","last_reported":1678226840,"current_range_meters":0,"station_id":"ce4bhbh2rcd13ifvqeo0","pricing_plan_id":"free"},{"bike_id":"f0f8af8e-b37c-4577-a443-480fc48243c0","system_id":"levelo_inurba_marseille","lat":43.33612,"lon":5.410321,"is_reserved":false,"is_disabled":false,"rental_uris":{"android":"levelo://app?vid=f0f8af8e-b37c-4577-a443-480fc48243c0","ios":"levelo://app?vid=f0f8af8e-b37c-4577-a443-480fc48243c0"},"vehicle_type_id":"4","last_reported":1678226840,"current_range_meters":14000,"station_id":"ce4bhqh2rcd13ifvqhmg","pricing_plan_id":"free"},{"bike_id":"60dc63fd-421b-4bcb-a99a-6eda3d500837","system_id":"levelo_inurba_marseille","lat":43.33612,"lon":5.410321,"is_reserved":false,"is_disabled":false,"rental_uris":{"android":"levelo://app?vid=60dc63fd-421b-4bcb-a99a-6eda3d500837","ios":"levelo://app?vid=60dc63fd-421b-4bcb-a99a-6eda3d500837"},"vehicle_type_id":"4","last_reported":1678226840,"current_range_meters":6000,"station_id":"ce4bhqh2rcd13ifvqhmg","pricing_plan_id":"free"},{"bike_id":"4cba71a6-8c0c-49e8-ada6-4e1721bebb00","system_id":"levelo_inurba_marseille","lat":43.317121,"lon":5.423936,"is_reserved":false,"is_disabled":false,"rental_uris":{"android":"levelo://app?vid=4cba71a6-8c0c-49e8-ada6-4e1721bebb00","ios":"levelo://app?vid=4cba71a6-8c0c-49e8-ada6-4e1721bebb00"},"vehicle_type_id":"4","last_reported":1678226840,"current_range_meters":26400,"station_id":"ce4bhp92rcd13ifvqhbg","pricing_plan_id":"free"},{"bike_id":"8410146e-bbca-4603-b549-3495e7115207","system_id":"levelo_inurba_marseille","lat":43.317121,"lon":5.423936,"is_reserved":false,"is_disabled":false,"rental_uris":{"android":"levelo://app?vid=8410146e-bbca-4603-b549-3495e7115207","ios":"levelo://app?vid=8410146e-bbca-4603-b549-3495e7115207"},"vehicle_type_id":"4","last_reported":1678226840,"current_range_meters":28800,"station_id":"ce4bhp92rcd13ifvqhbg","pricing_plan_id":"free"},{"bike_id":"590c7288-d3d7-451b-b069-bbe9914df065","system_id":"levelo_inurba_marseille","lat":43.317121,"lon":5.423936,"is_reserved":false,"is_disabled":false,"rental_uris":{"android":"levelo://app?vid=590c7288-d3d7-451b-b069-bbe9914df065","ios":"levelo://app?vid=590c7288-d3d7-451b-b069-bbe9914df065"},"vehicle_type_id":"4","last_reported":1678226840,"current_range_meters":30400,"station_id":"ce4bhp92rcd13ifvqhbg","pricing_plan_id":"free"},{"bike_id":"29aab685-ed27-4461-bfa7-0be13b6f1247","system_id":"levelo_inurba_marseille","lat":43.310785,"lon":5.424305,"is_reserved":false,"is_disabled":false,"rental_uris":{"android":"levelo://app?vid=29aab685-ed27-4461-bfa7-0be13b6f1247","ios":"levelo://app?vid=29aab685-ed27-4461-bfa7-0be13b6f1247"},"vehicle_type_id":"4","last_reported":1678226840,"current_range_meters":19200,"station_id":"ce4bhp92rcd13ifvqhag","pricing_plan_id":"free"},{"bike_id":"d66d215f-4be2-463f-813a-4c41d0a10b20","system_id":"levelo_inurba_marseille","lat":43.317121,"lon":5.423936,"is_reserved":false,"is_disabled":false,"rental_uris":{"android":"levelo://app?vid=d66d215f-4be2-463f-813a-4c41d0a10b20","ios":"levelo://app?vid=d66d215f-4be2-463f-813a-4c41d0a10b20"},"vehicle_type_id":"4","last_reported":1678226840,"current_range_meters":31600,"station_id":"ce4bhp92rcd13ifvqhbg","pricing_plan_id":"free"},{"bike_id":"ba25d3fc-5a08-48e3-b4e0-999837d33296","system_id":"levelo_inurba_marseille","lat":43.317121,"lon":5.423936,"is_reserved":false,"is_disabled":false,"rental_uris":{"android":"levelo://app?vid=ba25d3fc-5a08-48e3-b4e0-999837d33296","ios":"levelo://app?vid=ba25d3fc-5a08-48e3-b4e0-999837d33296"},"vehicle_type_id":"4","last_reported":1678226840,"current_range_meters":22000,"station_id":"ce4bhp92rcd13ifvqhbg","pricing_plan_id":"free"},{"bike_id":"e9c5949a-ede5-44c0-9df0-6ffe877b98fb","system_id":"levelo_inurba_marseille","lat":43.31089,"lon":5.42433,"is_reserved":false,"is_disabled":false,"rental_uris":{"android":"levelo://app?vid=e9c5949a-ede5-44c0-9df0-6ffe877b98fb","ios":"levelo://app?vid=e9c5949a-ede5-44c0-9df0-6ffe877b98fb"},"vehicle_type_id":"4","last_reported":1678226840,"current_range_meters":25200,"station_id":"","pricing_plan_id":"free"},{"bike_id":"91eaa121-f6fc-429c-927e-5f02f4f485a9","system_id":"levelo_inurba_marseille","lat":43.317121,"lon":5.423936,"is_reserved":false,"is_disabled":false,"rental_uris":{"android":"levelo://app?vid=91eaa121-f6fc-429c-927e-5f02f4f485a9","ios":"levelo://app?vid=91eaa121-f6fc-429c-927e-5f02f4f485a9"},"vehicle_type_id":"4","last_reported":1678226840,"current_range_meters":23200,"station_id":"ce4bhp92rcd13ifvqhbg","pricing_plan_id":"free"},{"bike_id":"5ee86eda-26a0-4a8e-9513-50de01b73b56","system_id":"levelo_inurba_marseille","lat":43.2778,"lon":5.39899,"is_reserved":false,"is_disabled":false,"rental_uris":{"android":"levelo://app?vid=5ee86eda-26a0-4a8e-9513-50de01b73b56","ios":"levelo://app?vid=5ee86eda-26a0-4a8e-9513-50de01b73b56"},"vehicle_type_id":"4","last_reported":1678226840,"current_range_meters":26800,"station_id":"","pricing_plan_id":"free"},{"bike_id":"53eb4c3c-a79c-4c16-bbb0-b5ee00990822","system_id":"levelo_inurba_marseille","lat":43.35125,"lon":5.34184,"is_reserved":false,"is_disabled":false,"rental_uris":{"android":"levelo://app?vid=53eb4c3c-a79c-4c16-bbb0-b5ee00990822","ios":"levelo://app?vid=53eb4c3c-a79c-4c16-bbb0-b5ee00990822"},"vehicle_type_id":"4","last_reported":1678226840,"current_range_meters":1600,"station_id":"","pricing_plan_id":"free"},{"bike_id":"deb467c2-ffdb-486b-84ad-69d00a23860f","system_id":"levelo_inurba_marseille","lat":43.304212,"lon":5.425682,"is_reserved":false,"is_disabled":false,"rental_uris":{"android":"levelo://app?vid=deb467c2-ffdb-486b-84ad-69d00a23860f","ios":"levelo://app?vid=deb467c2-ffdb-486b-84ad-69d00a23860f"},"vehicle_type_id":"4","last_reported":1678226840,"current_range_meters":20800,"station_id":"","pricing_plan_id":"free"},{"bike_id":"72b87734-6f9e-4cd9-90cc-9fdda57284ad","system_id":"levelo_inurba_marseille","lat":43.295523,"lon":5.422926,"is_reserved":false,"is_disabled":false,"rental_uris":{"android":"levelo://app?vid=72b87734-6f9e-4cd9-90cc-9fdda57284ad","ios":"levelo://app?vid=72b87734-6f9e-4cd9-90cc-9fdda57284ad"},"vehicle_type_id":"4","last_reported":1678226840,"current_range_meters":28400,"station_id":"ce4bhph2rcd13ifvqhdg","pricing_plan_id":"free"},