{"last_updated":1746349764,"ttl":60,"version":"2.2","data":{"bikes":[{"bike_id":"20a0161f-8c97-41c6-b725-2c48f8bc5d22","system_id":"levelo_inurba_marseille","lat":43.33048,"lon":5.39457,"is_reserved":false,"is_disabled":false,"rental_uris":{"android":"levelo://app?vid=20a0161f-8c97-41c6-b725-2c48f8bc5d22","ios":"levelo://app?vid=20a0161f-8c97-41c6-b725-2c48f8bc5d22"},"vehicle_type_id":"4","last_reported":1746349764,"current_range_meters":2800,"station_id":"","pricing_plan_id":"cebpf4jnsgd1na2vs0mg"},{"bike_id":"80b86fd7-2f2b-485d-84d6-29a5b6023e5d","system_id":"levelo_inurba_marseille","lat":43.303,"lon":5.3921,"is_reserved":false,"is_disabled":false,"rental_uris":{"android":"levelo://app?vid=80b86fd7-2f2b-485d-84d6-29a5b6023e5d","ios":"levelo://app?vid=80b86fd7-2f2b-485d-84d6-29a5b6023e5d"},"vehicle_type_id":"4","last_reported":1746349764,"current_range_meters":3200,"station_id":"ce4bgkh2rcd13ifvqbk0","pricing_plan_id":"cebpf4jnsgd1na2vs0mg"},{"bike_id":"a191187e-f7a0-47c5-b756-56cd399e9df1","system_id":"levelo_inurba_marseille","lat":43.27055,"lon":5.4026,"is_reserved":false,"is_disabled":false,"rental_uris":{"android":"levelo://app?vid=a191187e-f7a0-47c5-b756-56cd399e9df1","ios":"levelo://app?vid=a191187e-f7a0-47c5-b756-56cd399e9df1"},"vehicle_type_id":"4","last_reported":1746349764,"current_range_meters":3600,"station_id":"ce4bhk92rcd13ifvqgc0","pricing_plan_id":"cebpf4jnsgd1na2vs0mg"},{"bike_id":"d11b7274-ad1d-4343-a0b8-143798db8be1","system_id":"levelo_inurba_marseille","lat":43.22921,"lon":5.35379,"is_reserved":false,"is_disabled":true,"rental_uris":{"android":"levelo://app?vid=d11b7274-ad1d-4343-a0b8-143798db8be1","ios":"levelo://app?vid=d11b7274-ad1d-4343-a0b8-143798db8be1"},"vehicle_type_id":"4","last_reported":1746349764,"current_range_meters":3600,"station_id":"cpo3532slgdg3j2ikp40","pricing_plan_id":"cebpf4jnsgd1na2vs0mg"},{"bike_id":"4341dfab-438e-4d1a-8a6a-87a65b8fed8c","system_id":"levelo_inurba_marseille","lat":43.29914,"lon":5.38138,"is_reserved":false,"is_disabled":true,"rental_uris":{"android":"levelo://app?vid=4341dfab-438e-4d1a-8a6a-87a65b8fed8c","ios":"levelo://app?vid=4341dfab-438e-4d1a-8a6a-87a65b8fed8c"},"vehicle_type_id":"4","last_reported":1746349764,"current_range_meters":3600,"station_id":"ce4bgj12rcd13ifvqbc0","pricing_plan_id":"cebpf4jnsgd1na2vs0mg"},{"bike_id":"c948a955-803a-4067-bbbb-d5ee73c0dd1c","system_id":"levelo_inurba_marseille","lat":43.26556,"lon":5.37278,"is_reserved":false,"is_disabled":false,"rental_uris":{"android":"levelo://app?vid=c948a955-803a-4067-bbbb-d5ee73c0dd1c","ios":"levelo://app?vid=c948a955-803a-4067-bbbb-d5ee73c0dd1c"},"vehicle_type_id":"4","last_reported":1746349764,"current_range_meters":3600,"station_id":"ce4bhg12rcd13ifvqf70","pricing_plan_id":"cebpf4jnsgd1na2vs0mg"},{"bike_id":"ea54a43f-bc03-4784-86c5-a6aba0a39cd2","system_id":"levelo_inurba_marseille","lat":43.30164,"lon":5.38331,"is_reserved":false,"is_disabled":false,"rental_uris":{"android":"levelo://app?vid=ea54a43f-bc03-4784-86c5-a6aba0a39cd2","ios":"levelo://app?vid=ea54a43f-bc03-4784-86c5-a6aba0a39cd2"},"vehicle_type_id":"4","last_reported":1746349764,"current_range_meters":3600,"station_id":"","pricing_plan_id":"cebpf4jnsgd1na2vs0mg"},{"bike_id":"20128e84-93ae-4d65-b261-8c473a3a46a7","system_id":"levelo_inurba_marseille","lat":43.315409,"lon":5.380229,"is_reserved":false,"is_disabled":false,"rental_uris":{"android":"levelo://app?vid=20128e84-93ae-4d65-b261-8c473a3a46a7","ios":"levelo://app?vid=20128e84-93ae-4d65-b261-8c473a3a46a7"},"vehicle_type_id":"4","last_reported":1746349764,"current_range_meters":3600,"station_id":"ce4bhsp2rcd13ifvqi50","pricing_plan_id":"cebpf4jnsgd1na2vs0mg"},{"bike_id":"ee431cbb-877d-4c13-8c16-79999e3facb4","system_id":"levelo_inurba_marseille","lat":43.33193,"lon":5.43088,"is_reserved":false,"is_disabled":false,"rental_uris":{"android":"levelo://app?vid=ee431cbb-877d-4c13-8c16-79999e3facb4","ios":"levelo://app?vid=ee431cbb-877d-4c13-8c16-79999e3facb4"},"vehicle_type_id":"4","last_reported":1746349764,"current_range_meters":4000,"station_id":"","pricing_plan_id":"cebpf4jnsgd1na2vs0mg"},{"bike_id":"b24e1c00-6f34-4818-ab0a-32914331665c","system_id":"levelo_inurba_marseille","lat":43.30789,"lon":5.37648,"is_reserved":false,"is_disabled":false,"rental_uris":{"android":"levelo://app?vid=b24e1c00-6f34-4818-ab0a-32914331665c","ios":"levelo://app?vid=b24e1c00-6f34-4818-ab0a-32914331665c"},"vehicle_type_id":"4","last_reported":1746349764,"current_range_meters":4000,"station_id":"ce4bgv92rcd13ifvqcq0","pricing_plan_id":"cebpf4jnsgd1na2vs0mg"},{"bike_id":"8c71a0e4-eeb7-4f68-8026-134a953bb5f4","system_id":"levelo_inurba_marseille","lat":43.32545,"lon":5.41439,"is_reserved":false,"is_disabled":false,"rental_uris":{"android":"levelo://app?vid=8c71a0e4-eeb7-4f68-8026-134a953bb5f4","ios":"levelo://app?vid=8c71a0e4-eeb7-4f68-8026-134a953bb5f4"},"vehicle_type_id":"4","last_reported":1746349764,"current_range_meters":3600,"station_id":"ce4bhq12rcd13ifvqhhg","pricing_plan_id":"cebpf4jnsgd1na2vs0mg"},{"bike_id":"343558bc-7f35-44a3-aec0-03f28380f248","system_id":"levelo_inurba_marseille","lat":43.26186,"lon":5.37463,"is_reserved":false,"is_disabled":false,"rental_uris":{"android":"levelo://app?vid=343558bc-7f35-44a3-aec0-03f28380f248","ios":"levelo://app?vid=343558bc-7f35-44a3-aec0-03f28380f248"},"vehicle_type_id":"4","last_reported":1746349764,"current_range_meters":4400,"station_id":"ce4bhgp2rcd13ifvqfc0","pricing_plan_id":"cebpf4jnsgd1na2vs0mg"},{"bike_id":"dffe801c-54a4-4856-aa3d-e70caa285be4","system_id":"levelo_inurba_marseille","lat":43.29238,"lon":5.36137,"is_reserved":false,"is_disabled":true,"rental_uris":{"android":"levelo://app?vid=dffe801c-54a4-4856-aa3d-e70caa285be4","ios":"levelo://app?vid=dffe801c-54a4-4856-aa3d-e70caa285be4"},"vehicle_type_id":"4","last_reported":1746349764,"current_range_meters":4400,"station_id":"","pricing_plan_id":"cebpf4jnsgd1na2vs0mg"},{"bike_id":"79f8d3a9-9ac2-4e74-a90b-a37303721a20","system_id":"levelo_inurba_marseille","lat":43.29273,"lon":5.40111,"is_reserved":false,"is_disabled":false,"rental_uris":{"android":"levelo://app?vid=79f8d3a9-9ac2-4e74-a90b-a37303721a20","ios":"levelo://app?vid=79f8d3a9-9ac2-4e74-a90b-a37303721a20"},"vehicle_type_id":"4","last_reported":1746349764,"current_range_meters":4400,"station_id":"ce4bh312rcd13ifvqdk0","pricing_plan_id":"cebpf4jnsgd1na2vs0mg"},{"bike_id":"e341752c-8655-4500-bdaa-1fbfa4780079","system_id":"levelo_inurba_marseille","lat":43.29058,"lon":5.37148,"is_reserved":false,"is_disabled":true,"rental_uris":{"android":"levelo://app?vid=e341752c-8655-4500-bdaa-1fbfa4780079","ios":"levelo://app?vid=e341752c-8655-4500-bdaa-1fbfa4780079"},"vehicle_type_id":"4","last_reported":1746349764,"current_range_meters":4800,"station_id":"ce4bh5p2rcd13ifvqe4g","pricing_plan_id":"cebpf4jnsgd1na2vs0mg"},{"bike_id":"208c1a96-c46f-4193-b924-3bf7033ea14e","system_id":"levelo_inurba_marseille","lat":43.23194,"lon":5.35542,"is_reserved":false,"is_disabled":false,"rental_uris":{"android":"levelo://app?vid=208c1a96-c46f-4193-b924-3bf7033ea14e","ios":"levelo://app?vid=208c1a96-c46f-4193-b924-3bf7033ea14e"},"vehicle_type_id":"4","last_reported":1746349764,"current_range_meters":4800,"station_id":"ce4bhu92rcd13ifvqi70","pricing_plan_id":"cebpf4jnsgd1na2vs0mg"},{"bike_id":"c7f43adf-abf8-45f7-a4fe-8e1cf7384f23","system_id":"levelo_inurba_marseille","lat":43.304069,"lon":5.41286,"is_reserved":false,"is_disabled":false,"rental_uris":{"android":"levelo://app?vid=c7f43adf-abf8-45f7-a4fe-8e1cf7384f23","ios":"levelo://app?vid=c7f43adf-abf8-45f7-a4fe-8e1cf7384f23"},"vehicle_type_id":"4","last_reported":1746349764,"current_range_meters":4800,"station_id":"ce4bhop2rcd13ifvqh8g","pricing_plan_id":"cebpf4jnsgd1na2vs0mg"},{"bike_id":"570b486c-50df-4f1f-97df-caa86c0d419e","system_id":"levelo_inurba_marseille","lat":43.33711,"lon":5.35557,"is_reserved":false,"is_disabled":false,"rental_uris":{"android":"levelo://app?vid=570b486c-50df-4f1f-97df-caa86c0d419e","ios":"levelo://app?vid=570b486c-50df-4f1f-97df-caa86c0d419e"},"vehicle_type_id":"4","last_reported":1746349764,"current_range_meters":5600,"station_id":"","pricing_plan_id":"cebpf4jnsgd1na2vs0mg"},{"bike_id":"986ed733-1181-4f78-b119-7e644dd19458","system_id":"levelo_inurba_marseille","lat":43.307937,"lon":5.4353,"is_reserved":false,"is_disabled":false,"rental_uris":{"android":"levelo://app?vid=986ed733-1181-4f78-b119-7e644dd19458","ios":"levelo://app?vid=986ed733-1181-4f78-b119-7e644dd19458"},"vehicle_type_id":"4","last_reported":1746349764,"current_range_meters":5600,"station_id":"ce4bhph2rcd13ifvqheg","pricing_plan_id":"cebpf4jnsgd1na2vs0mg"},{"bike_id":"b49abcf2-c321-4828-9597-b785de8121d6","system_id":"levelo_inurba_marseille","lat":43.2337,"lon":5.39939,"is_reserved":false,"is_disabled":false,"rental_uris":{"android":"levelo://app?vid=b49abcf2-c321-4828-9597-b785de8121d6","ios":"levelo://app?vid=b49abcf2-c321-4828-9597-b785de8121d6"},"vehicle_type_id":"4","last_reported":1746349764,"current_range_meters":6000,"station_id":"ce4bhn12rcd13ifvqgqg","pricing_plan_id":"cebpf4jnsgd1na2vs0mg"},{"bike_id":"909825d5-7ad2-409e-b0de-cec7d5b4fa06","system_id":"levelo_inurba_marseille","lat":43.242149,"lon":5.367445,"is_reserved":false,"is_disabled":false,"rental_uris":{"android":"levelo://app?vid=909825d5-7ad2-409e-b0de-cec7d5b4fa06","ios":"levelo://app?vid=909825d5-7ad2-409e-b0de-cec7d5b4fa06"},"vehicle_type_id":"4","last_reported":1746349764,"current_range_meters":6000,"station_id":"","pricing_plan_id":"cebpf4jnsgd1na2vs0mg"},{"bike_id":"39d83911-e17e-4776-b8f2-6450602c8696","system_id":"levelo_inurba_marseille","lat":43.298945,"lon":5.43661,"is_reserved":false,"is_disabled":false,"rental_uris":{"android":"levelo://app?vid=39d83911-e17e-4776-b8f2-6450602c8696","ios":"levelo://app?vid=39d83911-e17e-4776-b8f2-6450602c8696"},"vehicle_type_id":"4","last_reported":1746349764,"current_range_meters":6400,"station_id":"ce4bhpp2rcd13ifvqhfg","pricing_plan_id":"cebpf4jnsgd1na2vs0mg"},{"bike_id":"0e0be7bc-20e5-424a-89ff-1b6d292738ac","system_id":"levelo_inurba_marseille","lat":43.217515,"lon":5.346002,"is_reserved":false,"is_disabled":false,"rental_uris":{"android":"levelo://app?vid=0e0be7bc-20e5-424a-89ff-1b6d292738ac","ios":"levelo://app?vid=0e0be7bc-20e5-424a-89ff-1b6d292738ac"},"vehicle_type_id":"4","last_reported":1746349764,"current_range_meters":6400,"station_id":"","pricing_plan_id":"cebpf4jnsgd1na2vs0mg"},{"bike_id":"e27ce41e-d31e-4411-a762-387f29d91877","system_id":"levelo_inurba_marseille","lat":43.295463,"lon":5.422882,"is_reserved":false,"is_disabled":false,"rental_uris":{"android":"levelo://app?vid=e27ce41e-d31e-4411-a762-387f29d91877","ios":"levelo://app?vid=e27ce41e-d31e-4411-a762-387f29d91877"},"vehicle_type_id":"4","last_reported":1746349764,"current_range_meters":6400,"station_id":"ce4bhph2rcd13ifvqhdg","pricing_plan_id":"cebpf4jnsgd1na2vs0mg"},{"bike_id":"cf2fd608-072e-45c0-bd03-67ba356a726a","system_id":"levelo_inurba_marseille","lat":43.25571,"lon":5.38237,"is_reserved":false,"is_disabled":false,"rental_uris":{"android":"levelo://app?vid=cf2fd608-072e-45c0-bd03-67ba356a726a","ios":"levelo://app?vid=cf2fd608-072e-45c0-bd03-67ba356a726a"},"vehicle_type_id":"4","last_reported":1746349764,"current_range_meters":6800,"station_id":"ce4bhih2rcd13ifvqfs0","pricing_plan_id":"cebpf4jnsgd1na2vs0mg"},{"bike_id":"c7e47698-0020-47cf-94a4-404079760935","system_id":"levelo_inurba_marseille","lat":43.28422,"lon":5.37521,"is_reserved":false,"is_disabled":true,"rental_uris":{"android":"levelo://app?vid=c7e47698-0020-47cf-94a4-404079760935","ios":"levelo://app?vid=c7e47698-0020-47cf-94a4-404079760935"},"vehicle_type_id":"4","last_reported":1746349764,"current_range_meters":6800,"station_id":"ce4bh412rcd13ifvqds0","pricing_plan_id":"cebpf4jnsgd1na2vs0mg"},{"bike_id":"db9be0c1-80d5-4315-9367-2a96fca91123","system_id":"levelo_inurba_marseille","lat":43.30636,"lon":5.40069,"is_reserved":false,"is_disabled":false,"rental_uris":{"android":"levelo://app?vid=db9be0c1-80d5-4315-9367-2a96fca91123","ios":"levelo://app?vid=db9be0c1-80d5-4315-9367-2a96fca91123"},"vehicle_type_id":"4","last_reported":1746349764,"current_range_meters":6800,"station_id":"ce4bh112rcd13ifvqda0","pricing_plan_id":"cebpf4jnsgd1na2vs0mg"},{"bike_id":"125ca05d-5a4c-4327-ae64-e200198cedf3","system_id":"levelo_inurba_marseille","lat":43.2957,"lon":5.42286,"is_reserved":false,"is_disabled":false,"rental_uris":{"android":"levelo://app?vid=125ca05d-5a4c-4327-ae64-e200198cedf3","ios":"levelo://app?vid=125ca05d-5a4c-4327-ae64-e200198cedf3"},"vehicle_type_id":"4","last_reported":1746349764,"current_range_meters":6800,"station_id":"ce4bhph2rcd13ifvqhdg","pricing_plan_id":"cebpf4jnsgd1na2vs0mg"},{"bike_id":"fefd08ec-5881-4aed-9781-2a8173dd5fb9","system_id":"levelo_inurba_marseille","lat":43.2943,"lon":5.38245,"is_reserved":false,"is_disabled":false,"rental_uris":{"android":"levelo://app?vid=fefd08ec-5881-4aed-9781-2a8173dd5fb9","ios":"levelo://app?vid=fefd08ec-5881-4aed-9781-2a8173dd5fb9"},"vehicle_type_id":"4","last_reported":1746349764,"current_range_meters":6800,"station_id":"","pricing_plan_id":"cebpf4jnsgd1na2vs0mg"},{"bike_id":"6012e73f-a97d-4080-8451-31be47c04cb3","system_id":"levelo_inurba_marseille","lat":43.241634,"lon":5.397258,"is_reserved":false,"is_disabled":false,"rental_uris":{"android":"levelo://app?vid=6012e73f-a97d-4080-8451-31be47c04cb3","ios":"levelo://app?vid=6012e73f-a97d-4080-8451-31be47c04cb3"},"vehicle_type_id":"4","last_reported":1746349764,"current_range_meters":6800,"station_id":"ce4bhn12rcd13ifvqgpg","pricing_plan_id":"cebpf4jnsgd1na2vs0mg"},{"bike_id":"33d984bb-57d7-4933-bc68-507510f5f8a6","system_id":"levelo_inurba_marseille","lat":43.24166,"lon":5.39748,"is_reserved":false,"is_disabled":false,"rental_uris":{"android":"levelo://app?vid=33d984bb-57d7-4933-bc68-507510f5f8a6","ios":"levelo://app?vid=33d984bb-57d7-4933-bc68-507510f5f8a6"},"vehicle_type_id":"4","last_reported":1746349764,"current_range_meters":6800,"station_id":"ce4bhn12rcd13ifvqgpg","pricing_plan_id":"cebpf4jnsgd1na2vs0mg"},{"bike_id":"ad1447d4-03b6-47a9-a233-d56094090f53","system_id":"levelo_inurba_marseille","lat":43.27496,"lon":5.424587,"is_reserved":false,"is_disabled":false,"rental_uris":{"android":"levelo://app?vid=ad1447d4-03b6-47a9-a233-d56094090f53","ios":"levelo://app?vid=ad1447d4-03b6-47a9-a233-d56094090f53"},"vehicle_type_id":"4","last_reported":1746349764,"current_range_meters":6800,"station_id":"ce4bhn92rcd13ifvqgrg","pricing_plan_id":"cebpf4jnsgd1na2vs0mg"},{"bike_id":"5fe20b90-2b25-4f46-83de-41732f6cc581","system_id":"levelo_inurba_marseille","lat":43.28153,"lon":5.4264,"is_reserved":false,"is_disabled":false,"rental_uris":{"android":"levelo://app?vid=5fe20b90-2b25-4f46-83de-41732f6cc581","ios":"levelo://app?vid=5fe20b90-2b25-4f46-83de-41732f6cc581"},"vehicle_type_id":"4","last_reported":1746349764,"current_range_meters":6400,"station_id":"ce4bhnh2rcd13ifvqgug","pricing_plan_id":"cebpf4jnsgd1na2vs0mg"},{"bike_id":"b7351ae1-b7b6-4733-8649-24bbbdfba4ca","system_id":"levelo_inurba_marseille","lat":43.21747,"lon":5.3461,"is_reserved":false,"is_disabled":false,"rental_uris":{"android":"levelo://app?vid=b7351ae1-b7b6-4733-8649-24bbbdfba4ca","ios":"levelo://app?vid=b7351ae1-b7b6-4733-8649-24bbbdfba4ca"},"vehicle_type_id":"4","last_reported":1746349764,"current_range_meters":6800,"station_id":"st_cvj6r9ubvosntc0bgbag","pricing_plan_id":"cebpf4jnsgd1na2vs0mg"},{"bike_id":"dfb3396e-96f5-457c-af11-f6f27dad33e9","system_id":"levelo_inurba_marseille","lat":43.27187,"lon":5.36472,"is_reserved":false,"is_disabled":false,"rental_uris":{"android":"levelo://app?vid=dfb3396e-96f5-457c-af11-f6f27dad33e9","ios":"levelo://app?vid=dfb3396e-96f5-457c-af11-f6f27dad33e9"},"vehicle_type_id":"4","last_reported":1746349764,"current_range_meters":7200,"station_id":"","pricing_plan_id":"cebpf4jnsgd1na2vs0mg"},{"bike_id":"47e70338-14a6-494d-992e-fe0185af4406","system_id":"levelo_inurba_marseille","lat":43.26915,"lon":5.40252,"is_reserved":false,"is_disabled":false,"rental_uris":{"android":"levelo://app?vid=47e70338-14a6-494d-992e-fe0185af4406","ios":"levelo://app?vid=47e70338-14a6-494d-992e-fe0185af4406"},"vehicle_type_id":"4","last_reported":1746349764,"current_range_meters":7200,"station_id":"cjm6bp8fraef2m0cb0m0","pricing_plan_id":"cebpf4jnsgd1na2vs0mg"},{"bike_id":"0ca2aeff-c10c-4be3-8c0b-3162193c983e","system_id":"levelo_inurba_marseille","lat":43.307754,"lon":5.376576,"is_reserved":false,"is_disabled":true,"rental_uris":{"android":"levelo://app?vid=0ca2aeff-c10c-4be3-8c0b-3162193c983e","ios":"levelo://app?vid=0ca2aeff-c10c-4be3-8c0b-3162193c983e"},"vehicle_type_id":"4","last_reported":1746349764,"current_range_meters":7200,"station_id":"","pricing_plan_id":"cebpf4jnsgd1na2vs0mg"},{"bike_id":"721f19a3-6fc8-4aa3-b8d6-b74174066f05","system_id":"levelo_inurba_marseille","lat":43.31994,"lon":5.38149,"is_reserved":false,"is_disabled":false,"rental_uris":{"android":"levelo://app?vid=721f19a3-6fc8-4aa3-b8d6-b74174066f05","ios":"levelo://app?vid=721f19a3-6fc8-4aa3-b8d6-b74174066f05"},"vehicle_type_id":"4","last_reported":1746349764,"current_range_meters":7200,"station_id":"ce4bhr12rcd13ifvqhpg","pricing_plan_id":"cebpf4jnsgd1na2vs0mg"},{"bike_id":"702b6be1-19c8-40b8-9c1a-2ab0c019e557","system_id":"levelo_inurba_marseille","lat":43.29436,"lon":5.39749,"is_reserved":false,"is_disabled":false,"rental_uris":{"android":"levelo://app?vid=702b6be1-19c8-40b8-9c1a-2ab0c019e557","ios":"levelo://app?vid=702b6be1-19c8-40b8-9c1a-2ab0c019e557"},"vehicle_type_id":"4","last_reported":1746349764,"current_range_meters":7200,"station_id":"ce4bh3h2rcd13ifvqdo0","pricing_plan_id":"cebpf4jnsgd1na2vs0mg"},{"bike_id":"ebb2013e-15d2-433c-816f-21ed3c52f6ac","system_id":"levelo_inurba_marseille","lat":43.29872,"lon":5.39736,"is_reserved":false,"is_disabled":false,"rental_uris":{"android":"levelo://app?vid=ebb2013e-15d2-433c-816f-21ed3c52f6ac","ios":"levelo://app?vid=ebb2013e-15d2-433c-816f-21ed3c52f6ac"},"vehicle_type_id":"4","last_reported":1746349764,"current_range_meters":7200,"station_id":"ce4bh0h2rcd13ifvqd50","pricing_plan_id":"cebpf4jnsgd1na2vs0mg"},{"bike_id":"8df6e310-0880-40a9-a691-cd475dfa3928","system_id":"levelo_inurba_marseille","lat":43.28591,"lon":5.44247,"is_reserved":false,"is_disabled":false,"rental_uris":{"android":"levelo://app?vid=8df6e310-0880-40a9-a691-cd475dfa3928","ios":"levelo://app?vid=8df6e310-0880-40a9-a691-cd475dfa3928"},"vehicle_type_id":"4","last_reported":1746349764,"current_range_meters":7200,"station_id":"","pricing_plan_id":"cebpf4jnsgd1na2vs0mg"},{"bike_id":"8df37787-a611-4ce6-9e65-032cb168f59b","system_id":"levelo_inurba_marseille","lat":43.21186,"lon":5.35077,"is_reserved":false,"is_disabled":false,"rental_uris":{"android":"levelo://app?vid=8df37787-a611-4ce6-9e65-032cb168f59b","ios":"levelo://app?vid=8df37787-a611-4ce6-9e65-032cb168f59b"},"vehicle_type_id":"4","last_reported":1746349764,"current_range_meters":7200,"station_id":"st_cvj6sg6p6f1abm77japg","pricing_plan_id":"cebpf4jnsgd1na2vs0mg"},{"bike_id":"be9042c4-716a-416e-af52-c92d47776467","system_id":"levelo_inurba_marseille","lat":43.31039,"lon":5.39931,"is_reserved":false,"is_disabled":true,"rental_uris":{"android":"levelo://app?vid=be9042c4-716a-416e-af52-c92d47776467","ios":"levelo://app?vid=be9042c4-716a-416e-af52-c92d47776467"},"vehicle_type_id":"4","last_reported":1746349764,"current_range_meters":8000,"station_id":"ce4bgvp2rcd13ifvqct0","pricing_plan_id":"cebpf4jnsgd1na2vs0mg"},{"bike_id":"d51bd1f8-5797-40a8-8b2d-1b322c3a66a4","system_id":"levelo_inurba_marseille","lat":43.30945,"lon":5.40135,"is_reserved":false,"is_disabled":false,"rental_uris":{"android":"levelo://app?vid=d51bd1f8-5797-40a8-8b2d-1b322c3a66a4","ios":"levelo://app?vid=d51bd1f8-5797-40a8-8b2d-1b322c3a66a4"},"vehicle_type_id":"4","last_reported":1746349764,"current_range_meters":8000,"station_id":"ce4bgvp2rcd13ifvqct0","pricing_plan_id":"cebpf4jnsgd1na2vs0mg"},{"bike_id":"efed8418-36b3-4a2f-8a3a-c844b0d0e3ad","system_id":"levelo_inurba_marseille","lat":43.31535,"lon":5.3804,"is_reserved":false,"is_disabled":false,"rental_uris":{"android":"levelo://app?vid=efed8418-36b3-4a2f-8a3a-c844b0d0e3ad","ios":"levelo://app?vid=efed8418-36b3-4a2f-8a3a-c844b0d0e3ad"},"vehicle_type_id":"4","last_reported":1746349764,"current_range_meters":8000,"station_id":"ce4bhsp2rcd13ifvqi50","pricing_plan_id":"cebpf4jnsgd1na2vs0mg"},{"bike_id":"f1ffd2b9-91e9-4bf5-a319-6e95940b0de6","system_id":"levelo_inurba_marseille","lat":43.29539,"lon":5.42244,"is_reserved":false,"is_disabled":false,"rental_uris":{"android":"levelo://app?vid=f1ffd2b9-91e9-4bf5-a319-6e95940b0de6","ios":"levelo://app?vid=f1ffd2b9-91e9-4bf5-a319-6e95940b0de6"},"vehicle_type_id":"4","last_reported":1746349764,"current_range_meters":8000,"station_id":"ce4bhph2rcd13ifvqhdg","pricing_plan_id":"cebpf4jnsgd1na2vs0mg"},{"bike_id":"d1b80fc2-f795-44b4-b467-b83495b681df","system_id":"levelo_inurba_marseille","lat":43.304059,"lon":5.412868,"is_reserved":false,"is_disabled":false,"rental_uris":{"android":"levelo://app?vid=d1b80fc2-f795-44b4-b467-b83495b681df","ios":"levelo://app?vid=d1b80fc2-f795-44b4-b467-b83495b681df"},"vehicle_type_id":"4","last_reported":1746349764,"current_range_meters":8000,"station_id":"ce4bhop2rcd13ifvqh8g","pricing_plan_id":"cebpf4jnsgd1na2vs0mg"},{"bike_id":"ee6fc684-f760-429d-b603-077f5f37f4bb","system_id":"levelo_inurba_marseille","lat":43.24391,"lon":5.3705,"is_reserved":false,"is_disabled":false,"rental_uris":{"android":"levelo://app?vid=ee6fc684-f760-429d-b603-077f5f37f4bb","ios":"levelo://app?vid=ee6fc684-f760-429d-b603-077f5f37f4bb"},"vehicle_type_id":"4","last_reported":1746349764,"current_range_meters":8000,"station_id":"ce4bhhh2rcd13ifvqfk0","pricing_plan_id":"cebpf4jnsgd1na2vs0mg"},{"bike_id":"5d71720c-dac7-4453-855d-5e896cb97a51","system_id":"levelo_inurba_marseille","lat":43.29851,"lon":5.36285,"is_reserved":false,"is_disabled":false,"rental_uris":{"android":"levelo://app?vid=5d71720c-dac7-4453-855d-5e896cb97a51","ios":"levelo://app?vid=5d71720c-dac7-4453-855d-5e896cb97a51"},"vehicle_type_id":"4","last_reported":1746349764,"current_range_meters":8000,"station_id":"ce4bgpp2rcd13ifvqc3g","pricing_plan_id":"cebpf4jnsgd1na2vs0mg"},{"bike_id":"17cd42e0-f3d6-4b5d-a7a7-aae4daea5f81","system_id":"levelo_inurba_marseille","lat":43.21194,"lon":5.35068,"is_reserved":false,"is_disabled":false,"rental_uris":{"android":"levelo://app?vid=17cd42e0-f3d6-4b5d-a7a7-aae4daea5f81","ios":"levelo://app?vid=17cd42e0-f3d6-4b5d-a7a7-aae4daea5f81"},"vehicle_type_id":"4","last_reported":1746349764,"current_range_meters":8000,"station_id":"","pricing_plan_id":"cebpf4jnsgd1na2vs0mg"},{"bike_id":"42b265ee-2f6e-42e6-be1a-7cd522f1be6f","system_id":"levelo_inurba_marseille","lat":43.278112,"lon":5.407132,"is_reserved":false,"is_disabled":false,"rental_uris":{"android":"levelo://app?vid=42b265ee-2f6e-42e6-be1a-7cd522f1be6f","ios":"levelo://app?vid=42b265ee-2f6e-42e6-be1a-7cd522f1be6f"},"vehicle_type_id":"4","last_reported":1746349764,"current_range_meters":8400,"station_id":"ce4bhnh2rcd13ifvqgtg","pricing_plan_id":"cebpf4jnsgd1na2vs0mg"},{"bike_id":"6ae9068b-8534-47e2-832a-cb0e5255371d","system_id":"levelo_inurba_marseille","lat":43.337444,"lon":5.374475,"is_reserved":false,"is_disabled":false,"rental_uris":{"android":"levelo://app?vid=6ae9068b-8534-47e2-832a-cb0e5255371d","ios":"levelo://app?vid=6ae9068b-8534-47e2-832a-cb0e5255371d"},"vehicle_type_id":"4","last_reported":1746349764,"current_range_meters":8400,"station_id":"ce4bgvp2rcd13ifvqct0","pricing_plan_id":"cebpf4jnsgd1na2vs0mg"},{"bike_id":"0e34a68a-1e7e-4217-99de-5fd03012d1b6","system_id":"levelo_inurba_marseille","lat":43.23953,"lon":5.36621,"is_reserved":false,"is_disabled":false,"rental_uris":{"android":"levelo://app?vid=0e34a68a-1e7e-4217-99de-5fd03012d1b6","ios":"levelo://app?vid=0e34a68a-1e7e-4217-99de-5fd03012d1b6"},"vehicle_type_id":"4","last_reported":1746349764,"current_range_meters":8400,"station_id":"ce4bhi12rcd13ifvqfp0","pricing_plan_id":"cebpf4jnsgd1na2vs0mg"},{"bike_id":"487dd831-9a36-4afc-bb67-b8dd459de8c0","system_id":"levelo_inurba_marseille","lat":43.30125,"lon":5.39867,"is_reserved":false,"is_disabled":false,"rental_uris":{"android":"levelo://app?vid=487dd831-9a36-4afc-bb67-b8dd459de8c0","ios":"levelo://app?vid=487dd831-9a36-4afc-bb67-b8dd459de8c0"},"vehicle_type_id":"4","last_reported":1746349764,"current_range_meters":8800,"station_id":"ce4bh0h2rcd13ifvqd40","pricing_plan_id":"cebpf4jnsgd1na2vs0mg"},{"bike_id":"f0259f55-382d-4317-a5a3-c63365a0d76b","system_id":"levelo_inurba_marseille","lat":43.25527,"lon":5.41802,"is_reserved":false,"is_disabled":false,"rental_uris":{"android":"levelo://app?vid=f0259f55-382d-4317-a5a3-c63365a0d76b","ios":"levelo://app?vid=f0259f55-382d-4317-a5a3-c63365a0d76b"},"vehicle_type_id":"4","last_reported":1746349764,"current_range_meters":8800,"station_id":"","pricing_plan_id":"cebpf4jnsgd1na2vs0mg"},{"bike_id":"fb582505-15b6-40c6-97cc-2feebea7d568","system_id":"levelo_inurba_marseille","lat":43.3041,"lon":5.397489,"is_reserved":false,"is_disabled":true,"rental_uris":{"android":"levelo://app?vid=fb582505-15b6-40c6-97cc-2feebea7d568","ios":"levelo://app?vid=fb582505-15b6-40c6-97cc-2feebea7d568"},"vehicle_type_id":"4","last_reported":1746349764,"current_range_meters":8800,"station_id":"ce4bh092rcd13ifvqd20","pricing_plan_id":"cebpf4jnsgd1na2vs0mg"},{"bike_id":"5d9a54ab-8ca5-45ce-9e8d-1ecc587fe2f3","system_id":"levelo_inurba_marseille","lat":43.29756,"lon":5.40613,"is_reserved":false,"is_disabled":false,"rental_uris":{"android":"levelo://app?vid=5d9a54ab-8ca5-45ce-9e8d-1ecc587fe2f3","ios":"levelo://app?vid=5d9a54ab-8ca5-45ce-9e8d-1ecc587fe2f3"},"vehicle_type_id":"4","last_reported":1746349764,"current_range_meters":8800,"station_id":"","pricing_plan_id":"cebpf4jnsgd1na2vs0mg"},{"bike_id":"59c05668-9a78-4683-b670-a7794c85b3b0","system_id":"levelo_inurba_marseille","lat":43.29368,"lon":5.37863,"is_reserved":false,"is_disabled":true,"rental_uris":{"android":"levelo://app?vid=59c05668-9a78-4683-b670-a7794c85b3b0","ios":"levelo://app?vid=59c05668-9a78-4683-b670-a7794c85b3b0"},"vehicle_type_id":"4","last_reported":1746349764,"current_range_meters":8800,"station_id":"ce4bgjh2rcd13ifvqbf0","pricing_plan_id":"cebpf4jnsgd1na2vs0mg"},{"bike_id":"7417fde9-2253-44a3-b6b5-68219b7cd072","system_id":"levelo_inurba_marseille","lat":43.31695,"lon":5.40404,"is_reserved":false,"is_disabled":false,"rental_uris":{"android":"levelo://app?vid=7417fde9-2253-44a3-b6b5-68219b7cd072","ios":"levelo://app?vid=7417fde9-2253-44a3-b6b5-68219b7cd072"},"vehicle_type_id":"4","last_reported":1746349764,"current_range_meters":8800,"station_id":"ce4bh012rcd13ifvqd00","pricing_plan_id":"cebpf4jnsgd1na2vs0mg"},{"bike_id":"b8028bbc-e0b2-47d7-951d-2ca751c3d28a","system_id":"levelo_inurba_marseille","lat":43.27825,"lon":5.40709,"is_reserved":false,"is_disabled":false,"rental_uris":{"android":"levelo://app?vid=b8028bbc-e0b2-47d7-951d-2ca751c3d28a","ios":"levelo://app?vid=b8028bbc-e0b2-47d7-951d-2ca751c3d28a"},"vehicle_type_id":"4","last_reported":1746349764,"current_range_meters":8800,"station_id":"ce4bhnh2rcd13ifvqgtg","pricing_plan_id":"cebpf4jnsgd1na2vs0mg"},{"bike_id":"1535a100-a5e3-470b-8112-05a549965b00","system_id":"levelo_inurba_marseille","lat":43.31328,"lon":5.39686,"is_reserved":false,"is_disabled":false,"rental_uris":{"android":"levelo://app?vid=1535a100-a5e3-470b-8112-05a549965b00","ios":"levelo://app?vid=1535a100-a5e3-470b-8112-05a549965b00"},"vehicle_type_id":"4","last_reported":1746349764,"current_range_meters":8800,"station_id":"ce4bgvp2rcd13ifvqcu0","pricing_plan_id":"cebpf4jnsgd1na2vs0mg"},{"bike_id":"63bca580-20c6-4152-8680-c43918ee61bc","system_id":"levelo_inurba_marseille","lat":43.29906,"lon":5.38144,"is_reserved":false,"is_disabled":true,"rental_uris":{"android":"levelo://app?vid=63bca580-20c6-4152-8680-c43918ee61bc","ios":"levelo://app?vid=63bca580-20c6-4152-8680-c43918ee61bc"},"vehicle_type_id":"4","last_reported":1746349764,"current_range_meters":9200,"station_id":"ce4bgj12rcd13ifvqbc0","pricing_plan_id":"cebpf4jnsgd1na2vs0mg"},{"bike_id":"75fa9943-cbe0-4940-a9be-f80f8dede2da","system_id":"levelo_inurba_marseille","lat":43.22515,"lon":5.34782,"is_reserved":false,"is_disabled":true,"rental_uris":{"android":"levelo://app?vid=75fa9943-cbe0-4940-a9be-f80f8dede2da","ios":"levelo://app?vid=75fa9943-cbe0-4940-a9be-f80f8dede2da"},"vehicle_type_id":"4","last_reported":1746349764,"current_range_meters":9200,"station_id":"st_cvj5dfep6f1abm77gieg","pricing_plan_id":"cebpf4jnsgd1na2vs0mg"},{"bike_id":"2f2e2422-0ca9-4635-8561-f770e540dc91","system_id":"levelo_inurba_marseille","lat":43.29781,"lon":5.36988,"is_reserved":false,"is_disabled":false,"rental_uris":{"android":"levelo://app?vid=2f2e2422-0ca9-4635-8561-f770e540dc91","ios":"levelo://app?vid=2f2e2422-0ca9-4635-8561-f770e540dc91"},"vehicle_type_id":"4","last_reported":1746349764,"current_range_meters":9200,"station_id":"","pricing_plan_id":"cebpf4jnsgd1na2vs0mg"},{"bike_id":"4d9c785a-6a14-4f60-8bcb-eb74d56c9262","system_id":"levelo_inurba_marseille","lat":43.27084,"lon":5.42297,"is_reserved":false,"is_disabled":false,"rental_uris":{"android":"levelo://app?vid=4d9c785a-6a14-4f60-8bcb-eb74d56c9262","ios":"levelo://app?vid=4d9c785a-6a14-4f60-8bcb-eb74d56c9262"},"vehicle_type_id":"4","last_reported":1746349764,"current_range_meters":9200,"station_id":"ce4bhk92rcd13ifvqgb0","pricing_plan_id":"cebpf4jnsgd1na2vs0mg"},{"bike_id":"ff85802d-0bcd-4a45-9f91-6d6fa0c2c4f0","system_id":"levelo_inurba_marseille","lat":43.30923,"lon":5.40155,"is_reserved":false,"is_disabled":false,"rental_uris":{"android":"levelo://app?vid=ff85802d-0bcd-4a45-9f91-6d6fa0c2c4f0","ios":"levelo://app?vid=ff85802d-0bcd-4a45-9f91-6d6fa0c2c4f0"},"vehicle_type_id":"4","last_reported":1746349764,"current_range_meters":9200,"station_id":"ce4bgvp2rcd13ifvqct0","pricing_plan_id":"cebpf4jnsgd1na2vs0mg"},{"bike_id":"a37779e7-3d8a-4c82-9997-3090313b05d7","system_id":"levelo_inurba_marseille","lat":43.22891,"lon":5.35396,"is_reserved":false,"is_disabled":true,"rental_uris":{"android":"levelo://app?vid=a37779e7-3d8a-4c82-9997-3090313b05d7","ios":"levelo://app?vid=a37779e7-3d8a-4c82-9997-3090313b05d7"},"vehicle_type_id":"4","last_reported":1746349764,"current_range_meters":9200,"station_id":"cpo3532slgdg3j2ikp40","pricing_plan_id":"cebpf4jnsgd1na2vs0mg"},{"bike_id":"315350e2-ee59-47a4-b027-bae11889c6a3","system_id":"levelo_inurba_marseille","lat":43.29411,"lon":5.38625,"is_reserved":false,"is_disabled":false,"rental_uris":{"android":"levelo://app?vid=315350e2-ee59-47a4-b027-bae11889c6a3","ios":"levelo://app?vid=315350e2-ee59-47a4-b027-bae11889c6a3"},"vehicle_type_id":"4","last_reported":1746349764,"current_range_meters":9200,"station_id":"ce4bh2h2rcd13ifvqdh0","pricing_plan_id":"cebpf4jnsgd1na2vs0mg"},{"bike_id":"4dd08eac-df5d-4142-8b38-1718a060526d","system_id":"levelo_inurba_marseille","lat":43.24553,"lon":5.39529,"is_reserved":false,"is_disabled":false,"rental_uris":{"android":"levelo://app?vid=4dd08eac-df5d-4142-8b38-1718a060526d","ios":"levelo://app?vid=4dd08eac-df5d-4142-8b38-1718a060526d"},"vehicle_type_id":"4","last_reported":1746349764,"current_range_meters":9200,"station_id":"ce4bhlp2rcd13ifvqgjg","pricing_plan_id":"cebpf4jnsgd1na2vs0mg"},{"bike_id":"31a93301-c3a1-4bc4-b2c4-6a455d015fd6","system_id":"levelo_inurba_marseille","lat":43.297367,"lon":5.376913,"is_reserved":false,"is_disabled":true,"rental_uris":{"android":"levelo://app?vid=31a93301-c3a1-4bc4-b2c4-6a455d015fd6","ios":"levelo://app?vid=31a93301-c3a1-4bc4-b2c4-6a455d015fd6"},"vehicle_type_id":"4","last_reported":1746349764,"current_range_meters":9200,"station_id":"ce4bgkh2rcd13ifvqbl0","pricing_plan_id":"cebpf4jnsgd1na2vs0mg"},{"bike_id":"f068dde4-d214-41bb-af4c-23542d208ad2","system_id":"levelo_inurba_marseille","lat":43.241685,"lon":5.397115,"is_reserved":false,"is_disabled":false,"rental_uris":{"android":"levelo://app?vid=f068dde4-d214-41bb-af4c-23542d208ad2","ios":"levelo://app?vid=f068dde4-d214-41bb-af4c-23542d208ad2"},"vehicle_type_id":"4","last_reported":1746349764,"current_range_meters":9200,"station_id":"ce4bhn12rcd13ifvqgpg","pricing_plan_id":"cebpf4jnsgd1na2vs0mg"},{"bike_id":"e4856e11-0139-477e-a022-4b979369719b","system_id":"levelo_inurba_marseille","lat":43.23964,"lon":5.36624,"is_reserved":false,"is_disabled":false,"rental_uris":{"android":"levelo://app?vid=e4856e11-0139-477e-a022-4b979369719b","ios":"levelo://app?vid=e4856e11-0139-477e-a022-4b979369719b"},"vehicle_type_id":"4","last_reported":1746349764,"current_range_meters":9600,"station_id":"ce4bhi12rcd13ifvqfp0","pricing_plan_id":"cebpf4jnsgd1na2vs0mg"},{"bike_id":"ea9a3cd8-bfe5-44e7-a84f-36652d0ba7f8","system_id":"levelo_inurba_marseille","lat":43.29848,"lon":5.36277,"is_reserved":false,"is_disabled":false,"rental_uris":{"android":"levelo://app?vid=ea9a3cd8-bfe5-44e7-a84f-36652d0ba7f8","ios":"levelo://app?vid=ea9a3cd8-bfe5-44e7-a84f-36652d0ba7f8"},"vehicle_type_id":"4","last_reported":1746349764,"current_range_meters":9600,"station_id":"ce4bgpp2rcd13ifvqc3g","pricing_plan_id":"cebpf4jnsgd1na2vs0mg"},{"bike_id":"0ecfd02f-f853-4362-9dcd-e959b1ad8321","system_id":"levelo_inurba_marseille","lat":43.24178,"lon":5.39729,"is_reserved":false,"is_disabled":false,"rental_uris":{"android":"levelo://app?vid=0ecfd02f-f853-4362-9dcd-e959b1ad8321","ios":"levelo://app?vid=0ecfd02f-f853-4362-9dcd-e959b1ad8321"},"vehicle_type_id":"4","last_reported":1746349764,"current_range_meters":9600,"station_id":"ce4bhn12rcd13ifvqgpg","pricing_plan_id":"cebpf4jnsgd1na2vs0mg"},{"bike_id":"f32ca024-e3f7-4855-acbc-43ebe40dfcfa","system_id":"levelo_inurba_marseille","lat":43.31274,"lon":5.40158,"is_reserved":false,"is_disabled":false,"rental_uris":{"android":"levelo://app?vid=f32ca024-e3f7-4855-acbc-43ebe40dfcfa","ios":"levelo://app?vid=f32ca024-e3f7-4855-acbc-43ebe40dfcfa"},"vehicle_type_id":"4","last_reported":1746349764,"current_range_meters":9600,"station_id":"ce4bh092rcd13ifvqd30","pricing_plan_id":"cebpf4jnsgd1na2vs0mg"},{"bike_id":"fe591222-6b27-47b5-95b7-676b1e108127","system_id":"levelo_inurba_marseille","lat":43.29264,"lon":5.409,"is_reserved":false,"is_disabled":false,"rental_uris":{"android":"levelo://app?vid=fe591222-6b27-47b5-95b7-676b1e108127","ios":"levelo://app?vid=fe591222-6b27-47b5-95b7-676b1e108127"},"vehicle_type_id":"4","last_reported":1746349764,"current_range_meters":9200,"station_id":"ce4bh192rcd13ifvqdc0","pricing_plan_id":"cebpf4jnsgd1na2vs0mg"},{"bike_id":"c80197cf-3833-4f6c-9065-4ffbbef66e9d","system_id":"levelo_inurba_marseille","lat":43.307853,"lon":5.376533,"is_reserved":false,"is_disabled":false,"rental_uris":{"android":"levelo://app?vid=c80197cf-3833-4f6c-9065-4ffbbef66e9d","ios":"levelo://app?vid=c80197cf-3833-4f6c-9065-4ffbbef66e9d"},"vehicle_type_id":"4","last_reported":1746349764,"current_range_meters":9600,"station_id":"ce4bgv92rcd13ifvqcq0","pricing_plan_id":"cebpf4jnsgd1na2vs0mg"},{"bike_id":"1f192409-3bd6-4ef0-ae18-1d604dedc99e","system_id":"levelo_inurba_marseille","lat":43.23312,"lon":5.357447,"is_reserved":false,"is_disabled":false,"rental_uris":{"android":"levelo://app?vid=1f192409-3bd6-4ef0-ae18-1d604dedc99e","ios":"levelo://app?vid=1f192409-3bd6-4ef0-ae18-1d604dedc99e"},"vehicle_type_id":"4","last_reported":1746349764,"current_range_meters":9600,"station_id":"ce4bhu92rcd13ifvqi70","pricing_plan_id":"cebpf4jnsgd1na2vs0mg"},{"bike_id":"94117f7b-43e0-4163-9bc8-140af4013e0f","system_id":"levelo_inurba_marseille","lat":43.27077,"lon":5.4227,"is_reserved":false,"is_disabled":false,"rental_uris":{"android":"levelo://app?vid=94117f7b-43e0-4163-9bc8-140af4013e0f","ios":"levelo://app?vid=94117f7b-43e0-4163-9bc8-140af4013e0f"},"vehicle_type_id":"4","last_reported":1746349764,"current_range_meters":10000,"station_id":"ce4bhk92rcd13ifvqgb0","pricing_plan_id":"cebpf4jnsgd1na2vs0mg"},{"bike_id":"f7a277eb-d388-493b-a59b-09b010af0aee","system_id":"levelo_inurba_marseille","lat":43.2847,"lon":5.38444,"is_reserved":false,"is_disabled":true,"rental_uris":{"android":"levelo://app?vid=f7a277eb-d388-493b-a59b-09b010af0aee","ios":"levelo://app?vid=f7a277eb-d388-493b-a59b-09b010af0aee"},"vehicle_type_id":"4","last_reported":1746349764,"current_range_meters":10000,"station_id":"ce4bh512rcd13ifvqe3g","pricing_plan_id":"cebpf4jnsgd1na2vs0mg"},{"bike_id":"ca7a629c-6dce-47e8-8b04-8b57930ea53a","system_id":"levelo_inurba_marseille","lat":43.241689,"lon":5.39713,"is_reserved":false,"is_disabled":false,"rental_uris":{"android":"levelo://app?vid=ca7a629c-6dce-47e8-8b04-8b57930ea53a","ios":"levelo://app?vid=ca7a629c-6dce-47e8-8b04-8b57930ea53a"},"vehicle_type_id":"4","last_reported":1746349764,"current_range_meters":10000,"station_id":"ce4bhn12rcd13ifvqgpg","pricing_plan_id":"cebpf4jnsgd1na2vs0mg"},{"bike_id":"274ad913-cb5d-44ea-8484-26eae07424ea","system_id":"levelo_inurba_marseille","lat":43.25858,"lon":5.39912,"is_reserved":false,"is_disabled":true,"rental_uris":{"android":"levelo://app?vid=274ad913-cb5d-44ea-8484-26eae07424ea","ios":"levelo://app?vid=274ad913-cb5d-44ea-8484-26eae07424ea"},"vehicle_type_id":"4","last_reported":1746349764,"current_range_meters":10000,"station_id":"ce4bhl92rcd13ifvqghg","pricing_plan_id":"cebpf4jnsgd1na2vs0mg"},{"bike_id":"c2c5beff-ec8e-48ee-825a-e3cdf2e54b49","system_id":"levelo_inurba_marseille","lat":43.29218,"lon":5.40006,"is_reserved":false,"is_disabled":false,"rental_uris":{"android":"levelo://app?vid=c2c5beff-ec8e-48ee-825a-e3cdf2e54b49","ios":"levelo://app?vid=c2c5beff-ec8e-48ee-825a-e3cdf2e54b49"},"vehicle_type_id":"4","last_reported":1746349764,"current_range_meters":10000,"station_id":"","pricing_plan_id":"cebpf4jnsgd1na2vs0mg"},{"bike_id":"fd2c3c67-23a6-4380-b7ca-8f23c8f78921","system_id":"levelo_inurba_marseille","lat":43.323549,"lon":5.367394,"is_reserved":false,"is_disabled":false,"rental_uris":{"android":"levelo://app?vid=fd2c3c67-23a6-4380-b7ca-8f23c8f78921","ios":"levelo://app?vid=fd2c3c67-23a6-4380-b7ca-8f23c8f78921"},"vehicle_type_id":"4","last_reported":1746349764,"current_range_meters":10000,"station_id":"ce4bhsh2rcd13ifvqi2g","pricing_plan_id":"cebpf4jnsgd1na2vs0mg"},{"bike_id":"6338e318-2f80-4349-ae11-615c887b4fb9","system_id":"levelo_inurba_marseille","lat":43.2593,"lon":5.40913,"is_reserved":false,"is_disabled":false,"rental_uris":{"android":"levelo://app?vid=6338e318-2f80-4349-ae11-615c887b4fb9","ios":"levelo://app?vid=6338e318-2f80-4349-ae11-615c887b4fb9"},"vehicle_type_id":"4","last_reported":1746349764,"current_range_meters":10000,"station_id":"ce4bhm92rcd13ifvqglg","pricing_plan_id":"cebpf4jnsgd1na2vs0mg"},{"bike_id":"d55c8237-2304-4efd-993e-dc727f0f1b6a","system_id":"levelo_inurba_marseille","lat":43.22503,"lon":5.34764,"is_reserved":false,"is_disabled":false,"rental_uris":{"android":"levelo://app?vid=d55c8237-2304-4efd-993e-dc727f0f1b6a","ios":"levelo://app?vid=d55c8237-2304-4efd-993e-dc727f0f1b6a"},"vehicle_type_id":"4","last_reported":1746349764,"current_range_meters":10800,"station_id":"st_cvj5dfep6f1abm77gieg","pricing_plan_id":"cebpf4jnsgd1na2vs0mg"},{"bike_id":"aedf206f-89f3-4f30-9da6-56fb7ff8915b","system_id":"levelo_inurba_marseille","lat":43.27997,"lon":5.40594,"is_reserved":false,"is_disabled":false,"rental_uris":{"android":"levelo://app?vid=aedf206f-89f3-4f30-9da6-56fb7ff8915b","ios":"levelo://app?vid=aedf206f-89f3-4f30-9da6-56fb7ff8915b"},"vehicle_type_id":"4","last_reported":1746349764,"current_range_meters":10800,"station_id":"","pricing_plan_id":"cebpf4jnsgd1na2vs0mg"},{"bike_id":"9386c0c7-d16d-4449-a186-2e4f1a5755ee","system_id":"levelo_inurba_marseille","lat":43.30793,"lon":5.37645,"is_reserved":false,"is_disabled":false,"rental_uris":{"android":"levelo://app?vid=9386c0c7-d16d-4449-a186-2e4f1a5755ee","ios":"levelo://app?vid=9386c0c7-d16d-4449-a186-2e4f1a5755ee"},"vehicle_type_id":"4","last_reported":1746349764,"current_range_meters":10800,"station_id":"ce4bgv92rcd13ifvqcq0","pricing_plan_id":"cebpf4jnsgd1na2vs0mg"},{"bike_id":"1d59b5c9-cca4-43f9-a7f4-1bb7ebcfb8ae","system_id":"levelo_inurba_marseille","lat":43.27373,"lon":5.362545,"is_reserved":false,"is_disabled":true,"rental_uris":{"android":"levelo://app?vid=1d59b5c9-cca4-43f9-a7f4-1bb7ebcfb8ae","ios":"levelo://app?vid=1d59b5c9-cca4-43f9-a7f4-1bb7ebcfb8ae"},"vehicle_type_id":"4","last_reported":1746349764,"current_range_meters":10800,"station_id":"","pricing_plan_id":"cebpf4jnsgd1na2vs0mg"},{"bike_id":"0ffa4c3e-fd07-42c8-b974-83bb6606b17e","system_id":"levelo_inurba_marseille","lat":43.30322,"lon":5.4043,"is_reserved":false,"is_disabled":false,"rental_uris":{"android":"levelo://app?vid=0ffa4c3e-fd07-42c8-b974-83bb6606b17e","ios":"levelo://app?vid=0ffa4c3e-fd07-42c8-b974-83bb6606b17e"},"vehicle_type_id":"4","last_reported":1746349764,"current_range_meters":10800,"station_id":"ce4bh012rcd13ifvqd10","pricing_plan_id":"cebpf4jnsgd1na2vs0mg"},{"bike_id":"e2b14260-8057-48c8-9cf5-1900e5ff23b3","system_id":"levelo_inurba_marseille","lat":43.30375,"lon":5.42495,"is_reserved":false,"is_disabled":false,"rental_uris":{"android":"levelo://app?vid=e2b14260-8057-48c8-9cf5-1900e5ff23b3","ios":"levelo://app?vid=e2b14260-8057-48c8-9cf5-1900e5ff23b3"},"vehicle_type_id":"4","last_reported":1746349764,"current_range_meters":11200,"station_id":"ce4bhoh2rcd13ifvqh6g","pricing_plan_id":"cebpf4jnsgd1na2vs0mg"},{"bike_id":"4cd32815-4894-41a0-9a3d-e6c837dcaeea","system_id":"levelo_inurba_marseille","lat":43.29972,"lon":5.38495,"is_reserved":false,"is_disabled":true,"rental_uris":{"android":"levelo://app?vid=4cd32815-4894-41a0-9a3d-e6c837dcaeea","ios":"levelo://app?vid=4cd32815-4894-41a0-9a3d-e6c837dcaeea"},"vehicle_type_id":"4","last_reported":1746349764,"current_range_meters":11200,"station_id":"ce4bgj92rcd13ifvqbd0","pricing_plan_id":"cebpf4jnsgd1na2vs0mg"},{"bike_id":"5508c1bb-ca97-4ee8-b2ad-09fc859bf4c1","system_id":"levelo_inurba_marseille","lat":43.29531,"lon":5.38549,"is_reserved":false,"is_disabled":false,"rental_uris":{"android":"levelo://app?vid=5508c1bb-ca97-4ee8-b2ad-09fc859bf4c1","ios":"levelo://app?vid=5508c1bb-ca97-4ee8-b2ad-09fc859bf4c1"},"vehicle_type_id":"4","last_reported":1746349764,"current_range_meters":10800,"station_id":"ce4bgih2rcd13ifvqba0","pricing_plan_id":"cebpf4jnsgd1na2vs0mg"},{"bike_id":"0397570e-b83d-4017-8742-c3d74b4e8593","system_id":"levelo_inurba_marseille","lat":43.288147,"lon":5.388327,"is_reserved":false,"is_disabled":true,"rental_uris":{"android":"levelo://app?vid=0397570e-b83d-4017-8742-c3d74b4e8593","ios":"levelo://app?vid=0397570e-b83d-4017-8742-c3d74b4e8593"},"vehicle_type_id":"4","last_reported":1746349764,"current_range_meters":11200,"station_id":"","pricing_plan_id":"cebpf4jnsgd1na2vs0mg"},{"bike_id":"77e5fc0c-8247-4eae-976e-b65c5c479c47","system_id":"levelo_inurba_marseille","lat":43.2441,"lon":5.37038,"is_reserved":false,"is_disabled":false,"rental_uris":{"android":"levelo://app?vid=77e5fc0c-8247-4eae-976e-b65c5c479c47","ios":"levelo://app?vid=77e5fc0c-8247-4eae-976e-b65c5c479c47"},"vehicle_type_id":"4","last_reported":1746349764,"current_range_meters":11600,"station_id":"ce4bhhh2rcd13ifvqfk0","pricing_plan_id":"cebpf4jnsgd1na2vs0mg"},{"bike_id":"eaf13fef-d394-46d7-897a-37d283c3f523","system_id":"levelo_inurba_marseille","lat":43.26553,"lon":5.37284,"is_reserved":false,"is_disabled":false,"rental_uris":{"android":"levelo://app?vid=eaf13fef-d394-46d7-897a-37d283c3f523","ios":"levelo://app?vid=eaf13fef-d394-46d7-897a-37d283c3f523"},"vehicle_type_id":"4","last_reported":1746349764,"current_range_meters":12000,"station_id":"ce4bhg12rcd13ifvqf70","pricing_plan_id":"cebpf4jnsgd1na2vs0mg"},{"bike_id":"d2195e66-3bad-4c15-871a-ab143e095804","system_id":"levelo_inurba_marseille","lat":43.283707,"lon":5.386331,"is_reserved":false,"is_disabled":false,"rental_uris":{"android":"levelo://app?vid=d2195e66-3bad-4c15-871a-ab143e095804","ios":"levelo://app?vid=d2195e66-3bad-4c15-871a-ab143e095804"},"vehicle_type_id":"4","last_reported":1746349764,"current_range_meters":12000,"station_id":"ce4bgip2rcd13ifvqbb0","pricing_plan_id":"cebpf4jnsgd1na2vs0mg"},{"bike_id":"aaf89e95-8797-4a30-9898-2e88954ba307","system_id":"levelo_inurba_marseille","lat":43.27997,"lon":5.41659,"is_reserved":false,"is_disabled":false,"rental_uris":{"android":"levelo://app?vid=aaf89e95-8797-4a30-9898-2e88954ba307","ios":"levelo://app?vid=aaf89e95-8797-4a30-9898-2e88954ba307"},"vehicle_type_id":"4","last_reported":1746349764,"current_range_meters":12000,"station_id":"ce4bho12rcd13ifvqh1g","pricing_plan_id":"cebpf4jnsgd1na2vs0mg"},{"bike_id":"1ec3fe58-c6ff-465c-ba55-56c2f916f76f","system_id":"levelo_inurba_marseille","lat":43.24072,"lon":5.37754,"is_reserved":false,"is_disabled":false,"rental_uris":{"android":"levelo://app?vid=1ec3fe58-c6ff-465c-ba55-56c2f916f76f","ios":"levelo://app?vid=1ec3fe58-c6ff-465c-ba55-56c2f916f76f"},"vehicle_type_id":"4","last_reported":1746349764,"current_range_meters":12000,"station_id":"ce4bhnp2rcd13ifvqgvg","pricing_plan_id":"cebpf4jnsgd1na2vs0mg"},{"bike_id":"657d5be8-d214-4f4d-a2d1-724443db4b9c","system_id":"levelo_inurba_marseille","lat":43.28462,"lon":5.359,"is_reserved":false,"is_disabled":false,"rental_uris":{"android":"levelo://app?vid=657d5be8-d214-4f4d-a2d1-724443db4b9c","ios":"levelo://app?vid=657d5be8-d214-4f4d-a2d1-724443db4b9c"},"vehicle_type_id":"4","last_reported":1746349764,"current_range_meters":12400,"station_id":"ce4bhah2rcd13ifvqei0","pricing_plan_id":"cebpf4jnsgd1na2vs0mg"},{"bike_id":"89661c15-def9-4711-90fd-17ec34ee0c83","system_id":"levelo_inurba_marseille","lat":43.29435,"lon":5.39749,"is_reserved":false,"is_disabled":false,"rental_uris":{"android":"levelo://app?vid=89661c15-def9-4711-90fd-17ec34ee0c83","ios":"levelo://app?vid=89661c15-def9-4711-90fd-17ec34ee0c83"},"vehicle_type_id":"4","last_reported":1746349764,"current_range_meters":12400,"station_id":"ce4bh3h2rcd13ifvqdo0","pricing_plan_id":"cebpf4jnsgd1na2vs0mg"},{"bike_id":"7f94af4d-81ec-4f11-8ad5-90fb2fdafca2","system_id":"levelo_inurba_marseille","lat":43.2803,"lon":5.36948,"is_reserved":false,"is_disabled":false,"rental_uris":{"android":"levelo://app?vid=7f94af4d-81ec-4f11-8ad5-90fb2fdafca2","ios":"levelo://app?vid=7f94af4d-81ec-4f11-8ad5-90fb2fdafca2"},"vehicle_type_id":"4","last_reported":1746349764,"current_range_meters":12400,"station_id":"ce4bha12rcd13ifvqef0","pricing_plan_id":"cebpf4jnsgd1na2vs0mg"},{"bike_id":"dffda755-2feb-41dd-8db8-12eafc41bdf7","system_id":"levelo_inurba_marseille","lat":43.3154,"lon":5.38025,"is_reserved":false,"is_disabled":false,"rental_uris":{"android":"levelo://app?vid=dffda755-2feb-41dd-8db8-12eafc41bdf7","ios":"levelo://app?vid=dffda755-2feb-41dd-8db8-12eafc41bdf7"},"vehicle_type_id":"4","last_reported":1746349764,"current_range_meters":12400,"station_id":"ce4bhsp2rcd13ifvqi50","pricing_plan_id":"cebpf4jnsgd1na2vs0mg"},{"bike_id":"e14f0e0b-57ce-42d5-80f6-e3d891b564d1","system_id":"levelo_inurba_marseille","lat":43.27068,"lon":5.42277,"is_reserved":false,"is_disabled":false,"rental_uris":{"android":"levelo://app?vid=e14f0e0b-57ce-42d5-80f6-e3d891b564d1","ios":"levelo://app?vid=e14f0e0b-57ce-42d5-80f6-e3d891b564d1"},"vehicle_type_id":"4","last_reported":1746349764,"current_range_meters":12400,"station_id":"ce4bhk92rcd13ifvqgb0","pricing_plan_id":"cebpf4jnsgd1na2vs0mg"},{"bike_id":"b51e8583-0fb2-49ca-9c11-9dbce28dfa5d","system_id":"levelo_inurba_marseille","lat":43.23191,"lon":5.3555,"is_reserved":false,"is_disabled":false,"rental_uris":{"android":"levelo://app?vid=b51e8583-0fb2-49ca-9c11-9dbce28dfa5d","ios":"levelo://app?vid=b51e8583-0fb2-49ca-9c11-9dbce28dfa5d"},"vehicle_type_id":"4","last_reported":1746349764,"current_range_meters":12800,"station_id":"ce4bhu92rcd13ifvqi70","pricing_plan_id":"cebpf4jnsgd1na2vs0mg"},{"bike_id":"45e8c728-e089-4ccb-a5d7-a3ec0fd9ff37","system_id":"levelo_inurba_marseille","lat":43.23188,"lon":5.35552,"is_reserved":false,"is_disabled":false,"rental_uris":{"android":"levelo://app?vid=45e8c728-e089-4ccb-a5d7-a3ec0fd9ff37","ios":"levelo://app?vid=45e8c728-e089-4ccb-a5d7-a3ec0fd9ff37"},"vehicle_type_id":"4","last_reported":1746349764,"current_range_meters":12800,"station_id":"ce4bhu92rcd13ifvqi70","pricing_plan_id":"cebpf4jnsgd1na2vs0mg"},{"bike_id":"57b577a6-05e4-403f-8e08-8a8bb593ff51","system_id":"levelo_inurba_marseille","lat":43.28945,"lon":5.36619,"is_reserved":false,"is_disabled":true,"rental_uris":{"android":"levelo://app?vid=57b577a6-05e4-403f-8e08-8a8bb593ff51","ios":"levelo://app?vid=57b577a6-05e4-403f-8e08-8a8bb593ff51"},"vehicle_type_id":"4","last_reported":1746349764,"current_range_meters":13600,"station_id":"ce4bhap2rcd13ifvqek0","pricing_plan_id":"cebpf4jnsgd1na2vs0mg"},{"bike_id":"4cc851da-e1ec-42ff-95e4-8b92ad8a1e2f","system_id":"levelo_inurba_marseille","lat":43.300387,"lon":5.40168,"is_reserved":false,"is_disabled":false,"rental_uris":{"android":"levelo://app?vid=4cc851da-e1ec-42ff-95e4-8b92ad8a1e2f","ios":"levelo://app?vid=4cc851da-e1ec-42ff-95e4-8b92ad8a1e2f"},"vehicle_type_id":"4","last_reported":1746349764,"current_range_meters":13600,"station_id":"","pricing_plan_id":"cebpf4jnsgd1na2vs0mg"},{"bike_id":"9732b7e1-1614-4bf9-9ec9-f2c1bbf4aeb4","system_id":"levelo_inurba_marseille","lat":43.30645,"lon":5.40068,"is_reserved":false,"is_disabled":false,"rental_uris":{"android":"levelo://app?vid=9732b7e1-1614-4bf9-9ec9-f2c1bbf4aeb4","ios":"levelo://app?vid=9732b7e1-1614-4bf9-9ec9-f2c1bbf4aeb4"},"vehicle_type_id":"4","last_reported":1746349764,"current_range_meters":14000,"station_id":"ce4bh112rcd13ifvqda0","pricing_plan_id":"cebpf4jnsgd1na2vs0mg"},{"bike_id":"158b0d74-2237-4570-890f-20bced4080e8","system_id":"levelo_inurba_marseille","lat":43.29313,"lon":5.37171,"is_reserved":false,"is_disabled":false,"rental_uris":{"android":"levelo://app?vid=158b0d74-2237-4570-890f-20bced4080e8","ios":"levelo://app?vid=158b0d74-2237-4570-890f-20bced4080e8"},"vehicle_type_id":"4","last_reported":1746349764,"current_range_meters":14000,"station_id":"ce4bgh92rcd13ifvqb40","pricing_plan_id":"cebpf4jnsgd1na2vs0mg"},{"bike_id":"05fb8e53-690e-4c91-83ac-d946606b1d9d","system_id":"levelo_inurba_marseille","lat":43.31244,"lon":5.40134,"is_reserved":false,"is_disabled":false,"rental_uris":{"android":"levelo://app?vid=05fb8e53-690e-4c91-83ac-d946606b1d9d","ios":"levelo://app?vid=05fb8e53-690e-4c91-83ac-d946606b1d9d"},"vehicle_type_id":"4","last_reported":1746349764,"current_range_meters":14000,"station_id":"ce4bh092rcd13ifvqd30","pricing_plan_id":"cebpf4jnsgd1na2vs0mg"},{"bike_id":"d447b317-7fe8-4b25-a86f-02fbc65ddcfa","system_id":"levelo_inurba_marseille","lat":43.23171,"lon":5.43711,"is_reserved":false,"is_disabled":false,"rental_uris":{"android":"levelo://app?vid=d447b317-7fe8-4b25-a86f-02fbc65ddcfa","ios":"levelo://app?vid=d447b317-7fe8-4b25-a86f-02fbc65ddcfa"},"vehicle_type_id":"4","last_reported":1746349764,"current_range_meters":14000,"station_id":"ce4bhmp2rcd13ifvqgog","pricing_plan_id":"cebpf4jnsgd1na2vs0mg"},{"bike_id":"4f35b2cf-4f49-4838-9706-eb62c87f37af","system_id":"levelo_inurba_marseille","lat":43.25107,"lon":5.40319,"is_reserved":false,"is_disabled":false,"rental_uris":{"android":"levelo://app?vid=4f35b2cf-4f49-4838-9706-eb62c87f37af","ios":"levelo://app?vid=4f35b2cf-4f49-4838-9706-eb62c87f37af"},"vehicle_type_id":"4","last_reported":1746349764,"current_range_meters":14400,"station_id":"ce4bhlh2rcd13ifvqgig","pricing_plan_id":"cebpf4jnsgd1na2vs0mg"},{"bike_id":"43aaa34f-2c6c-4236-855c-2d02ae332c1b","system_id":"levelo_inurba_marseille","lat":43.3079,"lon":5.37655,"is_reserved":false,"is_disabled":false,"rental_uris":{"android":"levelo://app?vid=43aaa34f-2c6c-4236-855c-2d02ae332c1b","ios":"levelo://app?vid=43aaa34f-2c6c-4236-855c-2d02ae332c1b"},"vehicle_type_id":"4","last_reported":1746349764,"current_range_meters":14400,"station_id":"ce4bgv92rcd13ifvqcq0","pricing_plan_id":"cebpf4jnsgd1na2vs0mg"},{"bike_id":"db2d4db7-2ab4-43d8-a442-89c6fd19678e","system_id":"levelo_inurba_marseille","lat":43.26957,"lon":5.386312,"is_reserved":false,"is_disabled":false,"rental_uris":{"android":"levelo://app?vid=db2d4db7-2ab4-43d8-a442-89c6fd19678e","ios":"levelo://app?vid=db2d4db7-2ab4-43d8-a442-89c6fd19678e"},"vehicle_type_id":"4","last_reported":1746349764,"current_range_meters":14400,"station_id":"ce4bhh92rcd13ifvqfh0","pricing_plan_id":"cebpf4jnsgd1na2vs0mg"},{"bike_id":"e671a938-da88-4fc2-86c4-a54006b58844","system_id":"levelo_inurba_marseille","lat":43.23134,"lon":5.43706,"is_reserved":false,"is_disabled":false,"rental_uris":{"android":"levelo://app?vid=e671a938-da88-4fc2-86c4-a54006b58844","ios":"levelo://app?vid=e671a938-da88-4fc2-86c4-a54006b58844"},"vehicle_type_id":"4","last_reported":1746349764,"current_range_meters":14000,"station_id":"ce4bhmp2rcd13ifvqgog","pricing_plan_id":"cebpf4jnsgd1na2vs0mg"},{"bike_id":"cebdafcb-65bd-42d1-aa43-4e8b777b1e60","system_id":"levelo_inurba_marseille","lat":43.29804,"lon":5.39075,"is_reserved":false,"is_disabled":false,"rental_uris":{"android":"levelo://app?vid=cebdafcb-65bd-42d1-aa43-4e8b777b1e60","ios":"levelo://app?vid=cebdafcb-65bd-42d1-aa43-4e8b777b1e60"},"vehicle_type_id":"4","last_reported":1746349764,"current_range_meters":14400,"station_id":"","pricing_plan_id":"cebpf4jnsgd1na2vs0mg"},{"bike_id":"49b2feb9-e76c-45e6-8013-60053c7684dc","system_id":"levelo_inurba_marseille","lat":43.28436,"lon":5.39189,"is_reserved":false,"is_disabled":false,"rental_uris":{"android":"levelo://app?vid=49b2feb9-e76c-45e6-8013-60053c7684dc","ios":"levelo://app?vid=49b2feb9-e76c-45e6-8013-60053c7684dc"},"vehicle_type_id":"4","last_reported":1746349764,"current_range_meters":14400,"station_id":"ce4bhoh2rcd13ifvqh5g","pricing_plan_id":"cebpf4jnsgd1na2vs0mg"},{"bike_id":"696b71f0-972e-4fa6-831c-b2001014ab23","system_id":"levelo_inurba_marseille","lat":43.25125,"lon":5.40312,"is_reserved":false,"is_disabled":false,"rental_uris":{"android":"levelo://app?vid=696b71f0-972e-4fa6-831c-b2001014ab23","ios":"levelo://app?vid=696b71f0-972e-4fa6-831c-b2001014ab23"},"vehicle_type_id":"4","last_reported":1746349764,"current_range_meters":14800,"station_id":"ce4bhlh2rcd13ifvqgig","pricing_plan_id":"cebpf4jnsgd1na2vs0mg"},{"bike_id":"52b2b11c-fa93-4c1e-a120-3fdc360b4a73","system_id":"levelo_inurba_marseille","lat":43.28034,"lon":5.3694,"is_reserved":false,"is_disabled":false,"rental_uris":{"android":"levelo://app?vid=52b2b11c-fa93-4c1e-a120-3fdc360b4a73","ios":"levelo://app?vid=52b2b11c-fa93-4c1e-a120-3fdc360b4a73"},"vehicle_type_id":"4","last_reported":1746349764,"current_range_meters":14800,"station_id":"ce4bha12rcd13ifvqef0","pricing_plan_id":"cebpf4jnsgd1na2vs0mg"},{"bike_id":"fb80c1da-d845-467b-9c3b-2f591f4d56ae","system_id":"levelo_inurba_marseille","lat":43.323406,"lon":5.37422,"is_reserved":false,"is_disabled":false,"rental_uris":{"android":"levelo://app?vid=fb80c1da-d845-467b-9c3b-2f591f4d56ae","ios":"levelo://app?vid=fb80c1da-d845-467b-9c3b-2f591f4d56ae"},"vehicle_type_id":"4","last_reported":1746349764,"current_range_meters":15200,"station_id":"","pricing_plan_id":"cebpf4jnsgd1na2vs0mg"},{"bike_id":"a9a52913-3211-4831-93c0-d5a3260c5002","system_id":"levelo_inurba_marseille","lat":43.2465,"lon":5.38144,"is_reserved":false,"is_disabled":false,"rental_uris":{"android":"levelo://app?vid=a9a52913-3211-4831-93c0-d5a3260c5002","ios":"levelo://app?vid=a9a52913-3211-4831-93c0-d5a3260c5002"},"vehicle_type_id":"4","last_reported":1746349764,"current_range_meters":15200,"station_id":"ce4bhih2rcd13ifvqfr0","pricing_plan_id":"cebpf4jnsgd1na2vs0mg"},{"bike_id":"12462135-9b53-446d-81f0-ed4b40031a03","system_id":"levelo_inurba_marseille","lat":43.2707,"lon":5.42273,"is_reserved":false,"is_disabled":false,"rental_uris":{"android":"levelo://app?vid=12462135-9b53-446d-81f0-ed4b40031a03","ios":"levelo://app?vid=12462135-9b53-446d-81f0-ed4b40031a03"},"vehicle_type_id":"4","last_reported":1746349764,"current_range_meters":15200,"station_id":"ce4bhk92rcd13ifvqgb0","pricing_plan_id":"cebpf4jnsgd1na2vs0mg"},{"bike_id":"ce7e06eb-b040-4a1c-b1b9-b8a759460472","system_id":"levelo_inurba_marseille","lat":43.251092,"lon":5.403235,"is_reserved":false,"is_disabled":false,"rental_uris":{"android":"levelo://app?vid=ce7e06eb-b040-4a1c-b1b9-b8a759460472","ios":"levelo://app?vid=ce7e06eb-b040-4a1c-b1b9-b8a759460472"},"vehicle_type_id":"4","last_reported":1746349764,"current_range_meters":15200,"station_id":"ce4bhlh2rcd13ifvqgig","pricing_plan_id":"cebpf4jnsgd1na2vs0mg"},{"bike_id":"e1fea8e4-ce01-48e8-9ccb-ed4b27d62a66","system_id":"levelo_inurba_marseille","lat":43.25566,"lon":5.38248,"is_reserved":false,"is_disabled":false,"rental_uris":{"android":"levelo://app?vid=e1fea8e4-ce01-48e8-9ccb-ed4b27d62a66","ios":"levelo://app?vid=e1fea8e4-ce01-48e8-9ccb-ed4b27d62a66"},"vehicle_type_id":"4","last_reported":1746349764,"current_range_meters":15200,"station_id":"ce4bhih2rcd13ifvqfs0","pricing_plan_id":"cebpf4jnsgd1na2vs0mg"},{"bike_id":"fdef9e55-be0f-41e0-8526-8e8fa7260880","system_id":"levelo_inurba_marseille","lat":43.31291,"lon":5.37319,"is_reserved":false,"is_disabled":false,"rental_uris":{"android":"levelo://app?vid=fdef9e55-be0f-41e0-8526-8e8fa7260880","ios":"levelo://app?vid=fdef9e55-be0f-41e0-8526-8e8fa7260880"},"vehicle_type_id":"4","last_reported":1746349764,"current_range_meters":16000,"station_id":"","pricing_plan_id":"cebpf4jnsgd1na2vs0mg"},{"bike_id":"0c86f7c5-5a71-4b5a-a769-ceb3451e1da9","system_id":"levelo_inurba_marseille","lat":43.31719,"lon":5.40413,"is_reserved":false,"is_disabled":false,"rental_uris":{"android":"levelo://app?vid=0c86f7c5-5a71-4b5a-a769-ceb3451e1da9","ios":"levelo://app?vid=0c86f7c5-5a71-4b5a-a769-ceb3451e1da9"},"vehicle_type_id":"4","last_reported":1746349764,"current_range_meters":16000,"station_id":"ce4bh012rcd13ifvqd00","pricing_plan_id":"cebpf4jnsgd1na2vs0mg"},{"bike_id":"8a1c92bd-6777-477a-9eaf-2b1631a1f0a6","system_id":"levelo_inurba_marseille","lat":43.309286,"lon":5.401528,"is_reserved":false,"is_disabled":false,"rental_uris":{"android":"levelo://app?vid=8a1c92bd-6777-477a-9eaf-2b1631a1f0a6","ios":"levelo://app?vid=8a1c92bd-6777-477a-9eaf-2b1631a1f0a6"},"vehicle_type_id":"4","last_reported":1746349764,"current_range_meters":16000,"station_id":"ce4bgvp2rcd13ifvqct0","pricing_plan_id":"cebpf4jnsgd1na2vs0mg"},{"bike_id":"cc39cdc5-0417-4f88-b75a-a7a63ab3f1d6","system_id":"levelo_inurba_marseille","lat":43.31373,"lon":5.38251,"is_reserved":false,"is_disabled":false,"rental_uris":{"android":"levelo://app?vid=cc39cdc5-0417-4f88-b75a-a7a63ab3f1d6","ios":"levelo://app?vid=cc39cdc5-0417-4f88-b75a-a7a63ab3f1d6"},"vehicle_type_id":"4","last_reported":1746349764,"current_range_meters":16000,"station_id":"","pricing_plan_id":"cebpf4jnsgd1na2vs0mg"},{"bike_id":"e84eee43-7ebe-4b56-a08b-27d6e58561fd","system_id":"levelo_inurba_marseille","lat":43.241803,"lon":5.397334,"is_reserved":false,"is_disabled":false,"rental_uris":{"android":"levelo://app?vid=e84eee43-7ebe-4b56-a08b-27d6e58561fd","ios":"levelo://app?vid=e84eee43-7ebe-4b56-a08b-27d6e58561fd"},"vehicle_type_id":"4","last_reported":1746349764,"current_range_meters":16000,"station_id":"ce4bhn12rcd13ifvqgpg","pricing_plan_id":"cebpf4jnsgd1na2vs0mg"},{"bike_id":"20e89858-6ad3-4614-90dd-b3c483147247","system_id":"levelo_inurba_marseille","lat":43.306402,"lon":5.400671,"is_reserved":false,"is_disabled":false,"rental_uris":{"android":"levelo://app?vid=20e89858-6ad3-4614-90dd-b3c483147247","ios":"levelo://app?vid=20e89858-6ad3-4614-90dd-b3c483147247"},"vehicle_type_id":"4","last_reported":1746349764,"current_range_meters":16000,"station_id":"ce4bh112rcd13ifvqda0","pricing_plan_id":"cebpf4jnsgd1na2vs0mg"},{"bike_id":"073ee896-7ffd-4eeb-ba0c-a255d4c8e537","system_id":"levelo_inurba_marseille","lat":43.25712,"lon":5.41126,"is_reserved":false,"is_disabled":false,"rental_uris":{"android":"levelo://app?vid=073ee896-7ffd-4eeb-ba0c-a255d4c8e537","ios":"levelo://app?vid=073ee896-7ffd-4eeb-ba0c-a255d4c8e537"},"vehicle_type_id":"4","last_reported":1746349764,"current_range_meters":16000,"station_id":"ce4bhkp2rcd13ifvqgd0","pricing_plan_id":"cebpf4jnsgd1na2vs0mg"},{"bike_id":"43f220ab-0408-46b3-abe5-60437ce3bc1e","system_id":"levelo_inurba_marseille","lat":43.231839,"lon":5.355645,"is_reserved":false,"is_disabled":false,"rental_uris":{"android":"levelo://app?vid=43f220ab-0408-46b3-abe5-60437ce3bc1e","ios":"levelo://app?vid=43f220ab-0408-46b3-abe5-60437ce3bc1e"},"vehicle_type_id":"4","last_reported":1746349764,"current_range_meters":16400,"station_id":"ce4bhu92rcd13ifvqi70","pricing_plan_id":"cebpf4jnsgd1na2vs0mg"},{"bike_id":"151db5fe-94d8-4f72-b6a2-5f80aed8e61e","system_id":"levelo_inurba_marseille","lat":43.31714,"lon":5.37765,"is_reserved":false,"is_disabled":false,"rental_uris":{"android":"levelo://app?vid=151db5fe-94d8-4f72-b6a2-5f80aed8e61e","ios":"levelo://app?vid=151db5fe-94d8-4f72-b6a2-5f80aed8e61e"},"vehicle_type_id":"4","last_reported":1746349764,"current_range_meters":16400,"station_id":"ce4bgth2rcd13ifvqch0","pricing_plan_id":"cebpf4jnsgd1na2vs0mg"},{"bike_id":"7ebb70cc-fd03-475b-980f-aca77de5d23a","system_id":"levelo_inurba_marseille","lat":43.309394,"lon":5.401467,"is_reserved":false,"is_disabled":false,"rental_uris":{"android":"levelo://app?vid=7ebb70cc-fd03-475b-980f-aca77de5d23a","ios":"levelo://app?vid=7ebb70cc-fd03-475b-980f-aca77de5d23a"},"vehicle_type_id":"4","last_reported":1746349764,"current_range_meters":16400,"station_id":"ce4bgvp2rcd13ifvqct0","pricing_plan_id":"cebpf4jnsgd1na2vs0mg"},{"bike_id":"44a4c1aa-e659-41ae-8ef4-e3bc1e502d2a","system_id":"levelo_inurba_marseille","lat":43.32357,"lon":5.367543,"is_reserved":false,"is_disabled":false,"rental_uris":{"android":"levelo://app?vid=44a4c1aa-e659-41ae-8ef4-e3bc1e502d2a","ios":"levelo://app?vid=44a4c1aa-e659-41ae-8ef4-e3bc1e502d2a"},"vehicle_type_id":"4","last_reported":1746349764,"current_range_meters":16800,"station_id":"ce4bhsh2rcd13ifvqi2g","pricing_plan_id":"cebpf4jnsgd1na2vs0mg"},{"bike_id":"4f86003a-4bda-480f-becc-b4f53e6e3826","system_id":"levelo_inurba_marseille","lat":43.24581,"lon":5.39483,"is_reserved":false,"is_disabled":false,"rental_uris":{"android":"levelo://app?vid=4f86003a-4bda-480f-becc-b4f53e6e3826","ios":"levelo://app?vid=4f86003a-4bda-480f-becc-b4f53e6e3826"},"vehicle_type_id":"4","last_reported":1746349764,"current_range_meters":16800,"station_id":"ce4bhlp2rcd13ifvqgjg","pricing_plan_id":"cebpf4jnsgd1na2vs0mg"},{"bike_id":"d94ace2f-a694-4d2b-9fa0-6d215239b455","system_id":"levelo_inurba_marseille","lat":43.24388,"lon":5.370655,"is_reserved":false,"is_disabled":false,"rental_uris":{"android":"levelo://app?vid=d94ace2f-a694-4d2b-9fa0-6d215239b455","ios":"levelo://app?vid=d94ace2f-a694-4d2b-9fa0-6d215239b455"},"vehicle_type_id":"4","last_reported":1746349764,"current_range_meters":16800,"station_id":"ce4bhhh2rcd13ifvqfk0","pricing_plan_id":"cebpf4jnsgd1na2vs0mg"},{"bike_id":"99caa5c9-73c6-4674-850e-ae7cd663deab","system_id":"levelo_inurba_marseille","lat":43.21193,"lon":5.35071,"is_reserved":false,"is_disabled":false,"rental_uris":{"android":"levelo://app?vid=99caa5c9-73c6-4674-850e-ae7cd663deab","ios":"levelo://app?vid=99caa5c9-73c6-4674-850e-ae7cd663deab"},"vehicle_type_id":"4","last_reported":1746349764,"current_range_meters":17200,"station_id":"st_cvj6sg6p6f1abm77japg","pricing_plan_id":"cebpf4jnsgd1na2vs0mg"},{"bike_id":"7541c456-bd96-481f-9a8f-a2abdcc322fa","system_id":"levelo_inurba_marseille","lat":43.2963,"lon":5.40604,"is_reserved":false,"is_disabled":false,"rental_uris":{"android":"levelo://app?vid=7541c456-bd96-481f-9a8f-a2abdcc322fa","ios":"levelo://app?vid=7541c456-bd96-481f-9a8f-a2abdcc322fa"},"vehicle_type_id":"4","last_reported":1746349764,"current_range_meters":17200,"station_id":"ce4bh0h2rcd13ifvqd60","pricing_plan_id":"cebpf4jnsgd1na2vs0mg"},{"bike_id":"c934a038-999c-4097-b244-e68883d621e3","system_id":"levelo_inurba_marseille","lat":43.30549,"lon":5.3653,"is_reserved":false,"is_disabled":true,"rental_uris":{"android":"levelo://app?vid=c934a038-999c-4097-b244-e68883d621e3","ios":"levelo://app?vid=c934a038-999c-4097-b244-e68883d621e3"},"vehicle_type_id":"4","last_reported":1746349764,"current_range_meters":17200,"station_id":"ce4bgs12rcd13ifvqcag","pricing_plan_id":"cebpf4jnsgd1na2vs0mg"},{"bike_id":"19c0a13c-23fd-46c9-881b-28dbf58b70a1","system_id":"levelo_inurba_marseille","lat":43.310809,"lon":5.424309,"is_reserved":false,"is_disabled":false,"rental_uris":{"android":"levelo://app?vid=19c0a13c-23fd-46c9-881b-28dbf58b70a1","ios":"levelo://app?vid=19c0a13c-23fd-46c9-881b-28dbf58b70a1"},"vehicle_type_id":"4","last_reported":1746349764,"current_range_meters":17200,"station_id":"ce4bhp92rcd13ifvqhag","pricing_plan_id":"cebpf4jnsgd1na2vs0mg"},{"bike_id":"184bab7f-cdcc-447a-8214-281a5e361adc","system_id":"levelo_inurba_marseille","lat":43.28608,"lon":5.37064,"is_reserved":false,"is_disabled":false,"rental_uris":{"android":"levelo://app?vid=184bab7f-cdcc-447a-8214-281a5e361adc","ios":"levelo://app?vid=184bab7f-cdcc-447a-8214-281a5e361adc"},"vehicle_type_id":"4","last_reported":1746349764,"current_range_meters":17600,"station_id":"","pricing_plan_id":"cebpf4jnsgd1na2vs0mg"},{"bike_id":"0abe7365-362a-4c2d-949a-e32faf9d4099","system_id":"levelo_inurba_marseille","lat":43.21196,"lon":5.35086,"is_reserved":false,"is_disabled":false,"rental_uris":{"android":"levelo://app?vid=0abe7365-362a-4c2d-949a-e32faf9d4099","ios":"levelo://app?vid=0abe7365-362a-4c2d-949a-e32faf9d4099"},"vehicle_type_id":"4","last_reported":1746349764,"current_range_meters":17600,"station_id":"st_cvj6sg6p6f1abm77japg","pricing_plan_id":"cebpf4jnsgd1na2vs0mg"},{"bike_id":"59a2dbcf-a44d-430e-976d-50f361684caf","system_id":"levelo_inurba_marseille","lat":43.2865,"lon":5.37042,"is_reserved":false,"is_disabled":false,"rental_uris":{"android":"levelo://app?vid=59a2dbcf-a44d-430e-976d-50f361684caf","ios":"levelo://app?vid=59a2dbcf-a44d-430e-976d-50f361684caf"},"vehicle_type_id":"4","last_reported":1746349764,"current_range_meters":17600,"station_id":"ce4bht12rcd13ifvqi60","pricing_plan_id":"cebpf4jnsgd1na2vs0mg"},{"bike_id":"0a0ece37-539d-4aa3-b235-deb8a4daf593","system_id":"levelo_inurba_marseille","lat":43.33079,"lon":5.40817,"is_reserved":false,"is_disabled":false,"rental_uris":{"android":"levelo://app?vid=0a0ece37-539d-4aa3-b235-deb8a4daf593","ios":"levelo://app?vid=0a0ece37-539d-4aa3-b235-deb8a4daf593"},"vehicle_type_id":"4","last_reported":1746349764,"current_range_meters":17600,"station_id":"","pricing_plan_id":"cebpf4jnsgd1na2vs0mg"},{"bike_id":"1885e4e4-787e-4399-a182-13afb5671e8f","system_id":"levelo_inurba_marseille","lat":43.31753,"lon":5.39012,"is_reserved":false,"is_disabled":false,"rental_uris":{"android":"levelo://app?vid=1885e4e4-787e-4399-a182-13afb5671e8f","ios":"levelo://app?vid=1885e4e4-787e-4399-a182-13afb5671e8f"},"vehicle_type_id":"4","last_reported":1746349764,"current_range_meters":18000,"station_id":"ce4bhqp2rcd13ifvqhng","pricing_plan_id":"cebpf4jnsgd1na2vs0mg"},{"bike_id":"1e4c8eca-44f1-4bf0-b96f-01b79f3e652f","system_id":"levelo_inurba_marseille","lat":43.279422,"lon":5.41044,"is_reserved":false,"is_disabled":false,"rental_uris":{"android":"levelo://app?vid=1e4c8eca-44f1-4bf0-b96f-01b79f3e652f","ios":"levelo://app?vid=1e4c8eca-44f1-4bf0-b96f-01b79f3e652f"},"vehicle_type_id":"4","last_reported":1746349764,"current_range_meters":18000,"station_id":"ce4bhnp2rcd13ifvqh0g","pricing_plan_id":"cebpf4jnsgd1na2vs0mg"},{"bike_id":"f6c1dcb0-1295-4680-af32-4dc24d6ef29b","system_id":"levelo_inurba_marseille","lat":43.27205,"lon":5.39192,"is_reserved":false,"is_disabled":true,"rental_uris":{"android":"levelo://app?vid=f6c1dcb0-1295-4680-af32-4dc24d6ef29b","ios":"levelo://app?vid=f6c1dcb0-1295-4680-af32-4dc24d6ef29b"},"vehicle_type_id":"4","last_reported":1746349764,"current_range_meters":18000,"station_id":"ce4bhhp2rcd13ifvqfm0","pricing_plan_id":"cebpf4jnsgd1na2vs0mg"},{"bike_id":"5df8f6ae-472c-4fee-adac-834ad90c168e","system_id":"levelo_inurba_marseille","lat":43.24393,"lon":5.37051,"is_reserved":false,"is_disabled":false,"rental_uris":{"android":"levelo://app?vid=5df8f6ae-472c-4fee-adac-834ad90c168e","ios":"levelo://app?vid=5df8f6ae-472c-4fee-adac-834ad90c168e"},"vehicle_type_id":"4","last_reported":1746349764,"current_range_meters":18000,"station_id":"ce4bhhh2rcd13ifvqfk0","pricing_plan_id":"cebpf4jnsgd1na2vs0mg"},{"bike_id":"8536704e-961e-4868-ad07-81df77fc76eb","system_id":"levelo_inurba_marseille","lat":43.28996,"lon":5.356164,"is_reserved":false,"is_disabled":true,"rental_uris":{"android":"levelo://app?vid=8536704e-961e-4868-ad07-81df77fc76eb","ios":"levelo://app?vid=8536704e-961e-4868-ad07-81df77fc76eb"},"vehicle_type_id":"4","last_reported":1746349764,"current_range_meters":18800,"station_id":"ce4bhb92rcd13ifvqen0","pricing_plan_id":"cebpf4jnsgd1na2vs0mg"},{"bike_id":"f861928d-54fe-4602-a72a-3e73aa56b797","system_id":"levelo_inurba_marseille","lat":43.27067,"lon":5.42271,"is_reserved":false,"is_disabled":false,"rental_uris":{"android":"levelo://app?vid=f861928d-54fe-4602-a72a-3e73aa56b797","ios":"levelo://app?vid=f861928d-54fe-4602-a72a-3e73aa56b797"},"vehicle_type_id":"4","last_reported":1746349764,"current_range_meters":18800,"station_id":"ce4bhk92rcd13ifvqgb0","pricing_plan_id":"cebpf4jnsgd1na2vs0mg"},{"bike_id":"b0ae2765-dd9f-4c9c-9a38-3b8f834c7b9c","system_id":"levelo_inurba_marseille","lat":43.30183,"lon":5.36614,"is_reserved":false,"is_disabled":false,"rental_uris":{"android":"levelo://app?vid=b0ae2765-dd9f-4c9c-9a38-3b8f834c7b9c","ios":"levelo://app?vid=b0ae2765-dd9f-4c9c-9a38-3b8f834c7b9c"},"vehicle_type_id":"4","last_reported":1746349764,"current_range_meters":19200,"station_id":"ce4bgrh2rcd13ifvqc8g","pricing_plan_id":"cebpf4jnsgd1na2vs0mg"},{"bike_id":"2a83f628-6bc6-4805-bbb5-042e251d7a0f","system_id":"levelo_inurba_marseille","lat":43.31527,"lon":5.38038,"is_reserved":false,"is_disabled":false,"rental_uris":{"android":"levelo://app?vid=2a83f628-6bc6-4805-bbb5-042e251d7a0f","ios":"levelo://app?vid=2a83f628-6bc6-4805-bbb5-042e251d7a0f"},"vehicle_type_id":"4","last_reported":1746349764,"current_range_meters":19200,"station_id":"ce4bhsp2rcd13ifvqi50","pricing_plan_id":"cebpf4jnsgd1na2vs0mg"},{"bike_id":"5316087d-9192-48a3-9aab-79f7210a6e18","system_id":"levelo_inurba_marseille","lat":43.313279,"lon":5.39698,"is_reserved":false,"is_disabled":false,"rental_uris":{"android":"levelo://app?vid=5316087d-9192-48a3-9aab-79f7210a6e18","ios":"levelo://app?vid=5316087d-9192-48a3-9aab-79f7210a6e18"},"vehicle_type_id":"4","last_reported":1746349764,"current_range_meters":19200,"station_id":"ce4bgvp2rcd13ifvqcu0","pricing_plan_id":"cebpf4jnsgd1na2vs0mg"},{"bike_id":"7ad04c1b-fc26-4c94-a72f-89c6e3ca5c32","system_id":"levelo_inurba_marseille","lat":43.31183,"lon":5.40762,"is_reserved":false,"is_disabled":false,"rental_uris":{"android":"levelo://app?vid=7ad04c1b-fc26-4c94-a72f-89c6e3ca5c32","ios":"levelo://app?vid=7ad04c1b-fc26-4c94-a72f-89c6e3ca5c32"},"vehicle_type_id":"4","last_reported":1746349764,"current_range_meters":19200,"station_id":"","pricing_plan_id":"cebpf4jnsgd1na2vs0mg"},{"bike_id":"670b1b9b-ffeb-4a0c-b8dc-9ad9b67db084","system_id":"levelo_inurba_marseille","lat":43.29033,"lon":5.39964,"is_reserved":false,"is_disabled":false,"rental_uris":{"android":"levelo://app?vid=670b1b9b-ffeb-4a0c-b8dc-9ad9b67db084","ios":"levelo://app?vid=670b1b9b-ffeb-4a0c-b8dc-9ad9b67db084"},"vehicle_type_id":"4","last_reported":1746349764,"current_range_meters":19200,"station_id":"ce4bh392rcd13ifvqdm0","pricing_plan_id":"cebpf4jnsgd1na2vs0mg"},{"bike_id":"3ff1331f-d2b9-4db6-9af0-17b5a04341a5","system_id":"levelo_inurba_marseille","lat":43.2433,"lon":5.38003,"is_reserved":false,"is_disabled":false,"rental_uris":{"android":"levelo://app?vid=3ff1331f-d2b9-4db6-9af0-17b5a04341a5","ios":"levelo://app?vid=3ff1331f-d2b9-4db6-9af0-17b5a04341a5"},"vehicle_type_id":"4","last_reported":1746349764,"current_range_meters":19200,"station_id":"","pricing_plan_id":"cebpf4jnsgd1na2vs0mg"},{"bike_id":"082ac56b-3d9f-4f13-bc0f-c2060386c881","system_id":"levelo_inurba_marseille","lat":43.29017,"lon":5.35575,"is_reserved":false,"is_disabled":true,"rental_uris":{"android":"levelo://app?vid=082ac56b-3d9f-4f13-bc0f-c2060386c881","ios":"levelo://app?vid=082ac56b-3d9f-4f13-bc0f-c2060386c881"},"vehicle_type_id":"4","last_reported":1746349764,"current_range_meters":19200,"station_id":"ce4bhb92rcd13ifvqen0","pricing_plan_id":"cebpf4jnsgd1na2vs0mg"},{"bike_id":"8e69649f-d5a0-4ead-b212-c5b5612beda7","system_id":"levelo_inurba_marseille","lat":43.255,"lon":5.37638,"is_reserved":false,"is_disabled":true,"rental_uris":{"android":"levelo://app?vid=8e69649f-d5a0-4ead-b212-c5b5612beda7","ios":"levelo://app?vid=8e69649f-d5a0-4ead-b212-c5b5612beda7"},"vehicle_type_id":"4","last_reported":1746349764,"current_range_meters":19200,"station_id":"ce4bhh12rcd13ifvqff0","pricing_plan_id":"cebpf4jnsgd1na2vs0mg"},{"bike_id":"d5c5a0b5-c6b3-4ba5-95ce-d7410dbe38a8","system_id":"levelo_inurba_marseille","lat":43.29613,"lon":5.37704,"is_reserved":false,"is_disabled":false,"rental_uris":{"android":"levelo://app?vid=d5c5a0b5-c6b3-4ba5-95ce-d7410dbe38a8","ios":"levelo://app?vid=d5c5a0b5-c6b3-4ba5-95ce-d7410dbe38a8"},"vehicle_type_id":"4","last_reported":1746349764,"current_range_meters":19200,"station_id":"ce4bgi92rcd13ifvqb90","pricing_plan_id":"cebpf4jnsgd1na2vs0mg"},{"bike_id":"a51afa32-2356-4cda-8f9b-6641b20add74","system_id":"levelo_inurba_marseille","lat":43.30261,"lon":5.4007,"is_reserved":false,"is_disabled":false,"rental_uris":{"android":"levelo://app?vid=a51afa32-2356-4cda-8f9b-6641b20add74","ios":"levelo://app?vid=a51afa32-2356-4cda-8f9b-6641b20add74"},"vehicle_type_id":"4","last_reported":1746349764,"current_range_meters":19200,"station_id":"ce4bgvh2rcd13ifvqcs0","pricing_plan_id":"cebpf4jnsgd1na2vs0mg"},{"bike_id":"f589fc42-057a-43b9-81ad-55c2a575aecf","system_id":"levelo_inurba_marseille","lat":43.310701,"lon":5.38344,"is_reserved":false,"is_disabled":true,"rental_uris":{"android":"levelo://app?vid=f589fc42-057a-43b9-81ad-55c2a575aecf","ios":"levelo://app?vid=f589fc42-057a-43b9-81ad-55c2a575aecf"},"vehicle_type_id":"4","last_reported":1746349764,"current_range_meters":20000,"station_id":"ce4bgv92rcd13ifvqcr0","pricing_plan_id":"cebpf4jnsgd1na2vs0mg"},{"bike_id":"a8a5d03d-9153-4179-835f-415d347401e8","system_id":"levelo_inurba_marseille","lat":43.29579,"lon":5.42287,"is_reserved":false,"is_disabled":false,"rental_uris":{"android":"levelo://app?vid=a8a5d03d-9153-4179-835f-415d347401e8","ios":"levelo://app?vid=a8a5d03d-9153-4179-835f-415d347401e8"},"vehicle_type_id":"4","last_reported":1746349764,"current_range_meters":20000,"station_id":"ce4bhph2rcd13ifvqhdg","pricing_plan_id":"cebpf4jnsgd1na2vs0mg"},{"bike_id":"dbe4256e-5378-4753-be43-1d440aeede33","system_id":"levelo_inurba_marseille","lat":43.29574,"lon":5.36737,"is_reserved":false,"is_disabled":false,"rental_uris":{"android":"levelo://app?vid=dbe4256e-5378-4753-be43-1d440aeede33","ios":"levelo://app?vid=dbe4256e-5378-4753-be43-1d440aeede33"},"vehicle_type_id":"4","last_reported":1746349764,"current_range_meters":20000,"station_id":"ce4bgph2rcd13ifvqc2g","pricing_plan_id":"cebpf4jnsgd1na2vs0mg"},{"bike_id":"d62eceed-23eb-4f3d-a6fe-a61cd2ad4365","system_id":"levelo_inurba_marseille","lat":43.28399,"lon":5.35614,"is_reserved":false,"is_disabled":false,"rental_uris":{"android":"levelo://app?vid=d62eceed-23eb-4f3d-a6fe-a61cd2ad4365","ios":"levelo://app?vid=d62eceed-23eb-4f3d-a6fe-a61cd2ad4365"},"vehicle_type_id":"4","last_reported":1746349764,"current_range_meters":20000,"station_id":"","pricing_plan_id":"cebpf4jnsgd1na2vs0mg"},{"bike_id":"c43b1397-4c89-4556-9d3f-5e63a1b69a9b","system_id":"levelo_inurba_marseille","lat":43.29555,"lon":5.42285,"is_reserved":false,"is_disabled":false,"rental_uris":{"android":"levelo://app?vid=c43b1397-4c89-4556-9d3f-5e63a1b69a9b","ios":"levelo://app?vid=c43b1397-4c89-4556-9d3f-5e63a1b69a9b"},"vehicle_type_id":"4","last_reported":1746349764,"current_range_meters":20000,"station_id":"ce4bhph2rcd13ifvqhdg","pricing_plan_id":"cebpf4jnsgd1na2vs0mg"},{"bike_id":"a3072c62-aaf1-41b6-acd7-4ea142e2ecae","system_id":"levelo_inurba_marseille","lat":43.2761,"lon":5.36103,"is_reserved":false,"is_disabled":false,"rental_uris":{"android":"levelo://app?vid=a3072c62-aaf1-41b6-acd7-4ea142e2ecae","ios":"levelo://app?vid=a3072c62-aaf1-41b6-acd7-4ea142e2ecae"},"vehicle_type_id":"4","last_reported":1746349764,"current_range_meters":19600,"station_id":"ce4bgj92rcd13ifvqbe0","pricing_plan_id":"cebpf4jnsgd1na2vs0mg"},{"bike_id":"04be6c42-3428-447b-8204-b461915ee9ff","system_id":"levelo_inurba_marseille","lat":43.30325,"lon":5.40437,"is_reserved":false,"is_disabled":false,"rental_uris":{"android":"levelo://app?vid=04be6c42-3428-447b-8204-b461915ee9ff","ios":"levelo://app?vid=04be6c42-3428-447b-8204-b461915ee9ff"},"vehicle_type_id":"4","last_reported":1746349764,"current_range_meters":20000,"station_id":"ce4bh012rcd13ifvqd10","pricing_plan_id":"cebpf4jnsgd1na2vs0mg"},{"bike_id":"bbba4a42-41f1-4d4c-a0ec-15062e1d6496","system_id":"levelo_inurba_marseille","lat":43.30801,"lon":5.43538,"is_reserved":false,"is_disabled":false,"rental_uris":{"android":"levelo://app?vid=bbba4a42-41f1-4d4c-a0ec-15062e1d6496","ios":"levelo://app?vid=bbba4a42-41f1-4d4c-a0ec-15062e1d6496"},"vehicle_type_id":"4","last_reported":1746349764,"current_range_meters":20400,"station_id":"ce4bhph2rcd13ifvqheg","pricing_plan_id":"cebpf4jnsgd1na2vs0mg"},{"bike_id":"725d8748-1f17-463a-879e-9f6908374adb","system_id":"levelo_inurba_marseille","lat":43.23129,"lon":5.35594,"is_reserved":false,"is_disabled":true,"rental_uris":{"android":"levelo://app?vid=725d8748-1f17-463a-879e-9f6908374adb","ios":"levelo://app?vid=725d8748-1f17-463a-879e-9f6908374adb"},"vehicle_type_id":"4","last_reported":1746349764,"current_range_meters":20400,"station_id":"","pricing_plan_id":"cebpf4jnsgd1na2vs0mg"},{"bike_id":"9e174534-0b7f-41f7-9bb7-f68172cda9ce","system_id":"levelo_inurba_marseille","lat":43.21189,"lon":5.350762,"is_reserved":false,"is_disabled":true,"rental_uris":{"android":"levelo://app?vid=9e174534-0b7f-41f7-9bb7-f68172cda9ce","ios":"levelo://app?vid=9e174534-0b7f-41f7-9bb7-f68172cda9ce"},"vehicle_type_id":"4","last_reported":1746349764,"current_range_meters":20400,"station_id":"","pricing_plan_id":"cebpf4jnsgd1na2vs0mg"},{"bike_id":"d160aa21-19c1-4b8d-a398-e7f60fe915dd","system_id":"levelo_inurba_marseille","lat":43.306446,"lon":5.40079,"is_reserved":false,"is_disabled":false,"rental_uris":{"android":"levelo://app?vid=d160aa21-19c1-4b8d-a398-e7f60fe915dd","ios":"levelo://app?vid=d160aa21-19c1-4b8d-a398-e7f60fe915dd"},"vehicle_type_id":"4","last_reported":1746349764,"current_range_meters":20800,"station_id":"ce4bh112rcd13ifvqda0","pricing_plan_id":"cebpf4jnsgd1na2vs0mg"},{"bike_id":"838bdfd1-c99f-4f63-99a5-549151987f4e","system_id":"levelo_inurba_marseille","lat":43.30799,"lon":5.43527,"is_reserved":false,"is_disabled":false,"rental_uris":{"android":"levelo://app?vid=838bdfd1-c99f-4f63-99a5-549151987f4e","ios":"levelo://app?vid=838bdfd1-c99f-4f63-99a5-549151987f4e"},"vehicle_type_id":"4","last_reported":1746349764,"current_range_meters":20800,"station_id":"ce4bhph2rcd13ifvqheg","pricing_plan_id":"cebpf4jnsgd1na2vs0mg"},{"bike_id":"85e507e8-6226-4bce-ae83-530c2f2a4249","system_id":"levelo_inurba_marseille","lat":43.25501,"lon":5.37647,"is_reserved":false,"is_disabled":false,"rental_uris":{"android":"levelo://app?vid=85e507e8-6226-4bce-ae83-530c2f2a4249","ios":"levelo://app?vid=85e507e8-6226-4bce-ae83-530c2f2a4249"},"vehicle_type_id":"4","last_reported":1746349764,"current_range_meters":20400,"station_id":"ce4bhh12rcd13ifvqff0","pricing_plan_id":"cebpf4jnsgd1na2vs0mg"},{"bike_id":"a4c70265-1b99-4d26-ac80-334e8c86e1b2","system_id":"levelo_inurba_marseille","lat":43.254005,"lon":5.419081,"is_reserved":false,"is_disabled":false,"rental_uris":{"android":"levelo://app?vid=a4c70265-1b99-4d26-ac80-334e8c86e1b2","ios":"levelo://app?vid=a4c70265-1b99-4d26-ac80-334e8c86e1b2"},"vehicle_type_id":"4","last_reported":1746349764,"current_range_meters":20800,"station_id":"","pricing_plan_id":"cebpf4jnsgd1na2vs0mg"},{"bike_id":"87633127-eb2c-4adc-b692-8974d6d7a235","system_id":"levelo_inurba_marseille","lat":43.30948,"lon":5.39047,"is_reserved":false,"is_disabled":true,"rental_uris":{"android":"levelo://app?vid=87633127-eb2c-4adc-b692-8974d6d7a235","ios":"levelo://app?vid=87633127-eb2c-4adc-b692-8974d6d7a235"},"vehicle_type_id":"4","last_reported":1746349764,"current_range_meters":21600,"station_id":"ce4bgup2rcd13ifvqco0","pricing_plan_id":"cebpf4jnsgd1na2vs0mg"},{"bike_id":"be08d0c5-8233-46ce-a16a-10ba0e6ee589","system_id":"levelo_inurba_marseille","lat":43.26958,"lon":5.38636,"is_reserved":false,"is_disabled":true,"rental_uris":{"android":"levelo://app?vid=be08d0c5-8233-46ce-a16a-10ba0e6ee589","ios":"levelo://app?vid=be08d0c5-8233-46ce-a16a-10ba0e6ee589"},"vehicle_type_id":"4","last_reported":1746349764,"current_range_meters":21600,"station_id":"ce4bhh92rcd13ifvqfh0","pricing_plan_id":"cebpf4jnsgd1na2vs0mg"},{"bike_id":"1ce5faab-c057-44d0-b6f7-996b2962169c","system_id":"levelo_inurba_marseille","lat":43.32364,"lon":5.3677,"is_reserved":false,"is_disabled":false,"rental_uris":{"android":"levelo://app?vid=1ce5faab-c057-44d0-b6f7-996b2962169c","ios":"levelo://app?vid=1ce5faab-c057-44d0-b6f7-996b2962169c"},"vehicle_type_id":"4","last_reported":1746349764,"current_range_meters":21600,"station_id":"ce4bhsh2rcd13ifvqi2g","pricing_plan_id":"cebpf4jnsgd1na2vs0mg"},{"bike_id":"f6a853a4-eaa9-41c0-b435-29c8c8038cd2","system_id":"levelo_inurba_marseille","lat":43.25718,"lon":5.41107,"is_reserved":false,"is_disabled":false,"rental_uris":{"android":"levelo://app?vid=f6a853a4-eaa9-41c0-b435-29c8c8038cd2","ios":"levelo://app?vid=f6a853a4-eaa9-41c0-b435-29c8c8038cd2"},"vehicle_type_id":"4","last_reported":1746349764,"current_range_meters":21600,"station_id":"ce4bhkp2rcd13ifvqgd0","pricing_plan_id":"cebpf4jnsgd1na2vs0mg"},{"bike_id":"d8a9690c-7e5f-4cbe-adfc-64142340a696","system_id":"levelo_inurba_marseille","lat":43.31545,"lon":5.38015,"is_reserved":false,"is_disabled":false,"rental_uris":{"android":"levelo://app?vid=d8a9690c-7e5f-4cbe-adfc-64142340a696","ios":"levelo://app?vid=d8a9690c-7e5f-4cbe-adfc-64142340a696"},"vehicle_type_id":"4","last_reported":1746349764,"current_range_meters":21600,"station_id":"ce4bhsp2rcd13ifvqi50","pricing_plan_id":"cebpf4jnsgd1na2vs0mg"},{"bike_id":"9ca67732-4442-49e8-9578-2f883bee7512","system_id":"levelo_inurba_marseille","lat":43.29061,"lon":5.37128,"is_reserved":false,"is_disabled":true,"rental_uris":{"android":"levelo://app?vid=9ca67732-4442-49e8-9578-2f883bee7512","ios":"levelo://app?vid=9ca67732-4442-49e8-9578-2f883bee7512"},"vehicle_type_id":"4","last_reported":1746349764,"current_range_meters":21600,"station_id":"ce4bh5p2rcd13ifvqe4g","pricing_plan_id":"cebpf4jnsgd1na2vs0mg"},{"bike_id":"36dd8787-2616-4c92-a297-4302643b2a9d","system_id":"levelo_inurba_marseille","lat":43.28679,"lon":5.38676,"is_reserved":false,"is_disabled":false,"rental_uris":{"android":"levelo://app?vid=36dd8787-2616-4c92-a297-4302643b2a9d","ios":"levelo://app?vid=36dd8787-2616-4c92-a297-4302643b2a9d"},"vehicle_type_id":"4","last_reported":1746349764,"current_range_meters":21600,"station_id":"ce4bh492rcd13ifvqdug","pricing_plan_id":"cebpf4jnsgd1na2vs0mg"},{"bike_id":"b212db87-e197-43f7-9b5a-58b33a4d1cb9","system_id":"levelo_inurba_marseille","lat":43.32007,"lon":5.38123,"is_reserved":false,"is_disabled":true,"rental_uris":{"android":"levelo://app?vid=b212db87-e197-43f7-9b5a-58b33a4d1cb9","ios":"levelo://app?vid=b212db87-e197-43f7-9b5a-58b33a4d1cb9"},"vehicle_type_id":"4","last_reported":1746349764,"current_range_meters":22000,"station_id":"ce4bhr12rcd13ifvqhpg","pricing_plan_id":"cebpf4jnsgd1na2vs0mg"},{"bike_id":"4210a781-9922-4b8c-8449-7424b7d5d740","system_id":"levelo_inurba_marseille","lat":43.25744,"lon":5.41114,"is_reserved":false,"is_disabled":false,"rental_uris":{"android":"levelo://app?vid=4210a781-9922-4b8c-8449-7424b7d5d740","ios":"levelo://app?vid=4210a781-9922-4b8c-8449-7424b7d5d740"},"vehicle_type_id":"4","last_reported":1746349764,"current_range_meters":22000,"station_id":"ce4bhkp2rcd13ifvqgd0","pricing_plan_id":"cebpf4jnsgd1na2vs0mg"},{"bike_id":"6ace0f1a-c51b-49f5-8806-7ffd8c7e5fce","system_id":"levelo_inurba_marseille","lat":43.31678,"lon":5.4037,"is_reserved":false,"is_disabled":false,"rental_uris":{"android":"levelo://app?vid=6ace0f1a-c51b-49f5-8806-7ffd8c7e5fce","ios":"levelo://app?vid=6ace0f1a-c51b-49f5-8806-7ffd8c7e5fce"},"vehicle_type_id":"4","last_reported":1746349764,"current_range_meters":22000,"station_id":"ce4bh012rcd13ifvqd00","pricing_plan_id":"cebpf4jnsgd1na2vs0mg"},{"bike_id":"a733f0fb-5f86-425e-a3f8-2a1f1d4d7389","system_id":"levelo_inurba_marseille","lat":43.29787,"lon":5.39346,"is_reserved":false,"is_disabled":false,"rental_uris":{"android":"levelo://app?vid=a733f0fb-5f86-425e-a3f8-2a1f1d4d7389","ios":"levelo://app?vid=a733f0fb-5f86-425e-a3f8-2a1f1d4d7389"},"vehicle_type_id":"4","last_reported":1746349764,"current_range_meters":22000,"station_id":"chh1huq6cuj3fo74tm60","pricing_plan_id":"cebpf4jnsgd1na2vs0mg"},{"bike_id":"07e477ea-c00e-448b-ba9f-00905c5a9425","system_id":"levelo_inurba_marseille","lat":43.243873,"lon":5.370572,"is_reserved":false,"is_disabled":false,"rental_uris":{"android":"levelo://app?vid=07e477ea-c00e-448b-ba9f-00905c5a9425","ios":"levelo://app?vid=07e477ea-c00e-448b-ba9f-00905c5a9425"},"vehicle_type_id":"4","last_reported":1746349764,"current_range_meters":22000,"station_id":"ce4bhhh2rcd13ifvqfk0","pricing_plan_id":"cebpf4jnsgd1na2vs0mg"},{"bike_id":"67228852-9364-4264-8911-ef9778c0a6b7","system_id":"levelo_inurba_marseille","lat":43.31692,"lon":5.4045,"is_reserved":false,"is_disabled":false,"rental_uris":{"android":"levelo://app?vid=67228852-9364-4264-8911-ef9778c0a6b7","ios":"levelo://app?vid=67228852-9364-4264-8911-ef9778c0a6b7"},"vehicle_type_id":"4","last_reported":1746349764,"current_range_meters":22000,"station_id":"ce4bh012rcd13ifvqd00","pricing_plan_id":"cebpf4jnsgd1na2vs0mg"},{"bike_id":"2dce38cf-a8d4-49cd-9fcf-ef494d90a125","system_id":"levelo_inurba_marseille","lat":43.2712,"lon":5.36403,"is_reserved":false,"is_disabled":false,"rental_uris":{"android":"levelo://app?vid=2dce38cf-a8d4-49cd-9fcf-ef494d90a125","ios":"levelo://app?vid=2dce38cf-a8d4-49cd-9fcf-ef494d90a125"},"vehicle_type_id":"4","last_reported":1746349764,"current_range_meters":22000,"station_id":"","pricing_plan_id":"cebpf4jnsgd1na2vs0mg"},{"bike_id":"de3f76b1-58ea-42d0-99f1-347daf91f0b4","system_id":"levelo_inurba_marseille","lat":43.21187,"lon":5.35077,"is_reserved":false,"is_disabled":false,"rental_uris":{"android":"levelo://app?vid=de3f76b1-58ea-42d0-99f1-347daf91f0b4","ios":"levelo://app?vid=de3f76b1-58ea-42d0-99f1-347daf91f0b4"},"vehicle_type_id":"4","last_reported":1746349764,"current_range_meters":22000,"station_id":"st_cvj6sg6p6f1abm77japg","pricing_plan_id":"cebpf4jnsgd1na2vs0mg"},{"bike_id":"695aaa0a-ef83-4f24-80b9-c420a3a26664","system_id":"levelo_inurba_marseille","lat":43.241727,"lon":5.39716,"is_reserved":false,"is_disabled":false,"rental_uris":{"android":"levelo://app?vid=695aaa0a-ef83-4f24-80b9-c420a3a26664","ios":"levelo://app?vid=695aaa0a-ef83-4f24-80b9-c420a3a26664"},"vehicle_type_id":"4","last_reported":1746349764,"current_range_meters":22400,"station_id":"ce4bhn12rcd13ifvqgpg","pricing_plan_id":"cebpf4jnsgd1na2vs0mg"},{"bike_id":"bc3ecd7e-46bf-4a4e-99f1-b0aefbe14811","system_id":"levelo_inurba_marseille","lat":43.28111,"lon":5.37841,"is_reserved":false,"is_disabled":false,"rental_uris":{"android":"levelo://app?vid=bc3ecd7e-46bf-4a4e-99f1-b0aefbe14811","ios":"levelo://app?vid=bc3ecd7e-46bf-4a4e-99f1-b0aefbe14811"},"vehicle_type_id":"4","last_reported":1746349764,"current_range_meters":22400,"station_id":"ce4bha12rcd13ifvqee0","pricing_plan_id":"cebpf4jnsgd1na2vs0mg"},{"bike_id":"b4d2fdc2-5140-4e14-b8a1-27b66fb70047","system_id":"levelo_inurba_marseille","lat":43.230643,"lon":5.35492,"is_reserved":false,"is_disabled":false,"rental_uris":{"android":"levelo://app?vid=b4d2fdc2-5140-4e14-b8a1-27b66fb70047","ios":"levelo://app?vid=b4d2fdc2-5140-4e14-b8a1-27b66fb70047"},"vehicle_type_id":"4","last_reported":1746349764,"current_range_meters":22400,"station_id":"cpo3342slgdg3j2ifvpg","pricing_plan_id":"cebpf4jnsgd1na2vs0mg"},{"bike_id":"b711a72e-fc28-4ebb-bd96-c55a87c9c4c6","system_id":"levelo_inurba_marseille","lat":43.2407,"lon":5.377613,"is_reserved":false,"is_disabled":false,"rental_uris":{"android":"levelo://app?vid=b711a72e-fc28-4ebb-bd96-c55a87c9c4c6","ios":"levelo://app?vid=b711a72e-fc28-4ebb-bd96-c55a87c9c4c6"},"vehicle_type_id":"4","last_reported":1746349764,"current_range_meters":22400,"station_id":"ce4bhnp2rcd13ifvqgvg","pricing_plan_id":"cebpf4jnsgd1na2vs0mg"},{"bike_id":"53365178-fafe-4641-abe2-1b6cdbb827d1","system_id":"levelo_inurba_marseille","lat":43.28144,"lon":5.42648,"is_reserved":false,"is_disabled":false,"rental_uris":{"android":"levelo://app?vid=53365178-fafe-4641-abe2-1b6cdbb827d1","ios":"levelo://app?vid=53365178-fafe-4641-abe2-1b6cdbb827d1"},"vehicle_type_id":"4","last_reported":1746349764,"current_range_meters":22400,"station_id":"ce4bhnh2rcd13ifvqgug","pricing_plan_id":"cebpf4jnsgd1na2vs0mg"},{"bike_id":"cb18f575-9c1e-4e54-ba38-fab988ce4b38","system_id":"levelo_inurba_marseille","lat":43.29258,"lon":5.40896,"is_reserved":false,"is_disabled":false,"rental_uris":{"android":"levelo://app?vid=cb18f575-9c1e-4e54-ba38-fab988ce4b38","ios":"levelo://app?vid=cb18f575-9c1e-4e54-ba38-fab988ce4b38"},"vehicle_type_id":"4","last_reported":1746349764,"current_range_meters":22800,"station_id":"ce4bh192rcd13ifvqdc0","pricing_plan_id":"cebpf4jnsgd1na2vs0mg"},{"bike_id":"d1ec814b-7128-4cb1-a05f-d59b2ec94248","system_id":"levelo_inurba_marseille","lat":43.22657,"lon":5.34805,"is_reserved":false,"is_disabled":false,"rental_uris":{"android":"levelo://app?vid=d1ec814b-7128-4cb1-a05f-d59b2ec94248","ios":"levelo://app?vid=d1ec814b-7128-4cb1-a05f-d59b2ec94248"},"vehicle_type_id":"4","last_reported":1746349764,"current_range_meters":22800,"station_id":"","pricing_plan_id":"cebpf4jnsgd1na2vs0mg"},{"bike_id":"55e2365c-b270-4dfe-a830-699a54b79cdb","system_id":"levelo_inurba_marseille","lat":43.255723,"lon":5.421024,"is_reserved":false,"is_disabled":false,"rental_uris":{"android":"levelo://app?vid=55e2365c-b270-4dfe-a830-699a54b79cdb","ios":"levelo://app?vid=55e2365c-b270-4dfe-a830-699a54b79cdb"},"vehicle_type_id":"4","last_reported":1746349764,"current_range_meters":22800,"station_id":"","pricing_plan_id":"cebpf4jnsgd1na2vs0mg"},{"bike_id":"3f9fddb3-4d57-4ad0-8fd2-61341dad0fd3","system_id":"levelo_inurba_marseille","lat":43.29597,"lon":5.38081,"is_reserved":false,"is_disabled":true,"rental_uris":{"android":"levelo://app?vid=3f9fddb3-4d57-4ad0-8fd2-61341dad0fd3","ios":"levelo://app?vid=3f9fddb3-4d57-4ad0-8fd2-61341dad0fd3"},"vehicle_type_id":"4","last_reported":1746349764,"current_range_meters":22800,"station_id":"ce4bgl12rcd13ifvqbo0","pricing_plan_id":"cebpf4jnsgd1na2vs0mg"},{"bike_id":"b28c35a7-3eb5-41fa-9708-eeeddf93c4d8","system_id":"levelo_inurba_marseille","lat":43.31333,"lon":5.397,"is_reserved":false,"is_disabled":false,"rental_uris":{"android":"levelo://app?vid=b28c35a7-3eb5-41fa-9708-eeeddf93c4d8","ios":"levelo://app?vid=b28c35a7-3eb5-41fa-9708-eeeddf93c4d8"},"vehicle_type_id":"4","last_reported":1746349764,"current_range_meters":22800,"station_id":"ce4bgvp2rcd13ifvqcu0","pricing_plan_id":"cebpf4jnsgd1na2vs0mg"},{"bike_id":"042654db-31a0-4c59-a30b-29539f46390c","system_id":"levelo_inurba_marseille","lat":43.22927,"lon":5.3538,"is_reserved":false,"is_disabled":false,"rental_uris":{"android":"levelo://app?vid=042654db-31a0-4c59-a30b-29539f46390c","ios":"levelo://app?vid=042654db-31a0-4c59-a30b-29539f46390c"},"vehicle_type_id":"4","last_reported":1746349764,"current_range_meters":22800,"station_id":"cpo3532slgdg3j2ikp40","pricing_plan_id":"cebpf4jnsgd1na2vs0mg"},{"bike_id":"c704c09e-535d-42e1-8586-e38087418a20","system_id":"levelo_inurba_marseille","lat":43.29841,"lon":5.3627,"is_reserved":false,"is_disabled":false,"rental_uris":{"android":"levelo://app?vid=c704c09e-535d-42e1-8586-e38087418a20","ios":"levelo://app?vid=c704c09e-535d-42e1-8586-e38087418a20"},"vehicle_type_id":"4","last_reported":1746349764,"current_range_meters":23200,"station_id":"ce4bgpp2rcd13ifvqc3g","pricing_plan_id":"cebpf4jnsgd1na2vs0mg"},{"bike_id":"e02dd004-549e-4245-8590-bc3a3bd0ad0b","system_id":"levelo_inurba_marseille","lat":43.32013,"lon":5.38182,"is_reserved":false,"is_disabled":false,"rental_uris":{"android":"levelo://app?vid=e02dd004-549e-4245-8590-bc3a3bd0ad0b","ios":"levelo://app?vid=e02dd004-549e-4245-8590-bc3a3bd0ad0b"},"vehicle_type_id":"4","last_reported":1746349764,"current_range_meters":23200,"station_id":"ce4bhr12rcd13ifvqhpg","pricing_plan_id":"cebpf4jnsgd1na2vs0mg"},{"bike_id":"aab7b3bc-702e-4453-8ff4-b7a166427763","system_id":"levelo_inurba_marseille","lat":43.25707,"lon":5.41131,"is_reserved":false,"is_disabled":false,"rental_uris":{"android":"levelo://app?vid=aab7b3bc-702e-4453-8ff4-b7a166427763","ios":"levelo://app?vid=aab7b3bc-702e-4453-8ff4-b7a166427763"},"vehicle_type_id":"4","last_reported":1746349764,"current_range_meters":23200,"station_id":"ce4bhkp2rcd13ifvqgd0","pricing_plan_id":"cebpf4jnsgd1na2vs0mg"},{"bike_id":"30147af6-173f-48f1-8722-164f473bbfac","system_id":"levelo_inurba_marseille","lat":43.28156,"lon":5.42651,"is_reserved":false,"is_disabled":false,"rental_uris":{"android":"levelo://app?vid=30147af6-173f-48f1-8722-164f473bbfac","ios":"levelo://app?vid=30147af6-173f-48f1-8722-164f473bbfac"},"vehicle_type_id":"4","last_reported":1746349764,"current_range_meters":22800,"station_id":"ce4bhnh2rcd13ifvqgug","pricing_plan_id":"cebpf4jnsgd1na2vs0mg"},{"bike_id":"9fc51f19-5971-4453-b750-7d33dc0b671e","system_id":"levelo_inurba_marseille","lat":43.31329,"lon":5.39688,"is_reserved":false,"is_disabled":false,"rental_uris":{"android":"levelo://app?vid=9fc51f19-5971-4453-b750-7d33dc0b671e","ios":"levelo://app?vid=9fc51f19-5971-4453-b750-7d33dc0b671e"},"vehicle_type_id":"4","last_reported":1746349764,"current_range_meters":23200,"station_id":"ce4bgvp2rcd13ifvqcu0","pricing_plan_id":"cebpf4jnsgd1na2vs0mg"},{"bike_id":"334aa277-6251-4a4c-9736-202df0952759","system_id":"levelo_inurba_marseille","lat":43.27192,"lon":5.39175,"is_reserved":false,"is_disabled":false,"rental_uris":{"android":"levelo://app?vid=334aa277-6251-4a4c-9736-202df0952759","ios":"levelo://app?vid=334aa277-6251-4a4c-9736-202df0952759"},"vehicle_type_id":"4","last_reported":1746349764,"current_range_meters":23200,"station_id":"ce4bhhp2rcd13ifvqfm0","pricing_plan_id":"cebpf4jnsgd1na2vs0mg"},{"bike_id":"ba1a37e3-2913-4048-9b8e-3f2ca883b25c","system_id":"levelo_inurba_marseille","lat":43.24389,"lon":5.3707,"is_reserved":false,"is_disabled":false,"rental_uris":{"android":"levelo://app?vid=ba1a37e3-2913-4048-9b8e-3f2ca883b25c","ios":"levelo://app?vid=ba1a37e3-2913-4048-9b8e-3f2ca883b25c"},"vehicle_type_id":"4","last_reported":1746349764,"current_range_meters":23200,"station_id":"ce4bhhh2rcd13ifvqfk0","pricing_plan_id":"cebpf4jnsgd1na2vs0mg"},{"bike_id":"35bdf934-392a-40f6-a983-d720d424bc23","system_id":"levelo_inurba_marseille","lat":43.25566,"lon":5.38231,"is_reserved":false,"is_disabled":false,"rental_uris":{"android":"levelo://app?vid=35bdf934-392a-40f6-a983-d720d424bc23","ios":"levelo://app?vid=35bdf934-392a-40f6-a983-d720d424bc23"},"vehicle_type_id":"4","last_reported":1746349764,"current_range_meters":24000,"station_id":"ce4bhih2rcd13ifvqfs0","pricing_plan_id":"cebpf4jnsgd1na2vs0mg"},{"bike_id":"07da4003-e539-45c2-9ee9-2d6b1aaa8c6a","system_id":"levelo_inurba_marseille","lat":43.28939,"lon":5.39632,"is_reserved":false,"is_disabled":false,"rental_uris":{"android":"levelo://app?vid=07da4003-e539-45c2-9ee9-2d6b1aaa8c6a","ios":"levelo://app?vid=07da4003-e539-45c2-9ee9-2d6b1aaa8c6a"},"vehicle_type_id":"4","last_reported":1746349764,"current_range_meters":24000,"station_id":"ce4bh3h2rcd13ifvqdn0","pricing_plan_id":"cebpf4jnsgd1na2vs0mg"},{"bike_id":"d0bcf1fb-cbba-4142-876b-db3b580f0e4d","system_id":"levelo_inurba_marseille","lat":43.29558,"lon":5.42294,"is_reserved":false,"is_disabled":false,"rental_uris":{"android":"levelo://app?vid=d0bcf1fb-cbba-4142-876b-db3b580f0e4d","ios":"levelo://app?vid=d0bcf1fb-cbba-4142-876b-db3b580f0e4d"},"vehicle_type_id":"4","last_reported":1746349764,"current_range_meters":24000,"station_id":"ce4bhph2rcd13ifvqhdg","pricing_plan_id":"cebpf4jnsgd1na2vs0mg"},{"bike_id":"521d3531-2dd1-4da9-9582-b2882863f64f","system_id":"levelo_inurba_marseille","lat":43.284718,"lon":5.358762,"is_reserved":false,"is_disabled":true,"rental_uris":{"android":"levelo://app?vid=521d3531-2dd1-4da9-9582-b2882863f64f","ios":"levelo://app?vid=521d3531-2dd1-4da9-9582-b2882863f64f"},"vehicle_type_id":"4","last_reported":1746349764,"current_range_meters":24000,"station_id":"ce4bhah2rcd13ifvqei0","pricing_plan_id":"cebpf4jnsgd1na2vs0mg"},{"bike_id":"febadd93-43e2-4bc6-aca9-ac265dd384a7","system_id":"levelo_inurba_marseille","lat":43.29033,"lon":5.39964,"is_reserved":false,"is_disabled":false,"rental_uris":{"android":"levelo://app?vid=febadd93-43e2-4bc6-aca9-ac265dd384a7","ios":"levelo://app?vid=febadd93-43e2-4bc6-aca9-ac265dd384a7"},"vehicle_type_id":"4","last_reported":1746349764,"current_range_meters":24400,"station_id":"ce4bh392rcd13ifvqdm0","pricing_plan_id":"cebpf4jnsgd1na2vs0mg"},{"bike_id":"798e9e09-162f-497c-b3f3-d759496c1205","system_id":"levelo_inurba_marseille","lat":43.30931,"lon":5.40143,"is_reserved":false,"is_disabled":false,"rental_uris":{"android":"levelo://app?vid=798e9e09-162f-497c-b3f3-d759496c1205","ios":"levelo://app?vid=798e9e09-162f-497c-b3f3-d759496c1205"},"vehicle_type_id":"4","last_reported":1746349764,"current_range_meters":24400,"station_id":"ce4bgvp2rcd13ifvqct0","pricing_plan_id":"cebpf4jnsgd1na2vs0mg"},{"bike_id":"6c830e74-c1d2-4006-a059-c92cc69c2b42","system_id":"levelo_inurba_marseille","lat":43.25577,"lon":5.38226,"is_reserved":false,"is_disabled":false,"rental_uris":{"android":"levelo://app?vid=6c830e74-c1d2-4006-a059-c92cc69c2b42","ios":"levelo://app?vid=6c830e74-c1d2-4006-a059-c92cc69c2b42"},"vehicle_type_id":"4","last_reported":1746349764,"current_range_meters":24400,"station_id":"ce4bhih2rcd13ifvqfs0","pricing_plan_id":"cebpf4jnsgd1na2vs0mg"},{"bike_id":"321e8ec9-5896-4299-914b-01dee7a1fc43","system_id":"levelo_inurba_marseille","lat":43.24386,"lon":5.37068,"is_reserved":false,"is_disabled":false,"rental_uris":{"android":"levelo://app?vid=321e8ec9-5896-4299-914b-01dee7a1fc43","ios":"levelo://app?vid=321e8ec9-5896-4299-914b-01dee7a1fc43"},"vehicle_type_id":"4","last_reported":1746349764,"current_range_meters":24400,"station_id":"ce4bhhh2rcd13ifvqfk0","pricing_plan_id":"cebpf4jnsgd1na2vs0mg"},{"bike_id":"9ac9a44f-6abe-4743-a6fe-974f0f86c6c4","system_id":"levelo_inurba_marseille","lat":43.23963,"lon":5.36614,"is_reserved":false,"is_disabled":true,"rental_uris":{"android":"levelo://app?vid=9ac9a44f-6abe-4743-a6fe-974f0f86c6c4","ios":"levelo://app?vid=9ac9a44f-6abe-4743-a6fe-974f0f86c6c4"},"vehicle_type_id":"4","last_reported":1746349764,"current_range_meters":24400,"station_id":"ce4bhi12rcd13ifvqfp0","pricing_plan_id":"cebpf4jnsgd1na2vs0mg"},{"bike_id":"203d91f5-6c36-4523-963d-b10eff730e29","system_id":"levelo_inurba_marseille","lat":43.30734,"lon":5.424408,"is_reserved":false,"is_disabled":false,"rental_uris":{"android":"levelo://app?vid=203d91f5-6c36-4523-963d-b10eff730e29","ios":"levelo://app?vid=203d91f5-6c36-4523-963d-b10eff730e29"},"vehicle_type_id":"4","last_reported":1746349764,"current_range_meters":24400,"station_id":"st_cvj6ca6bvosntc0bfgr0","pricing_plan_id":"cebpf4jnsgd1na2vs0mg"},{"bike_id":"edaa17a5-dec1-4aea-a38f-b258ae0891da","system_id":"levelo_inurba_marseille","lat":43.2958,"lon":5.36731,"is_reserved":false,"is_disabled":false,"rental_uris":{"android":"levelo://app?vid=edaa17a5-dec1-4aea-a38f-b258ae0891da","ios":"levelo://app?vid=edaa17a5-dec1-4aea-a38f-b258ae0891da"},"vehicle_type_id":"4","last_reported":1746349764,"current_range_meters":24000,"station_id":"ce4bgph2rcd13ifvqc2g","pricing_plan_id":"cebpf4jnsgd1na2vs0mg"},