{"last_updated":1686946020,"ttl":30,"version":"2.2","data":{"bikes":[{"bike_id":"fa449f53-17e4-4a16-813b-341c4d89b798","system_id":"levelo_inurba_marseille","lat":43.30544,"lon":5.36549,"is_reserved":false,"is_disabled":false,"rental_uris":{"android":"levelo://app?vid=fa449f53-17e4-4a16-813b-341c4d89b798","ios":"levelo://app?vid=fa449f53-17e4-4a16-813b-341c4d89b798"},"vehicle_type_id":"4","last_reported":1686946021,"current_range_meters":10400,"station_id":"ce4bgs12rcd13ifvqcag","pricing_plan_id":"free"},{"bike_id":"a3395326-95e8-4988-8f9f-ff182158b634","system_id":"levelo_inurba_marseille","lat":43.305989,"lon":5.37225,"is_reserved":false,"is_disabled":false,"rental_uris":{"android":"levelo://app?vid=a3395326-95e8-4988-8f9f-ff182158b634","ios":"levelo://app?vid=a3395326-95e8-4988-8f9f-ff182158b634"},"vehicle_type_id":"4","last_reported":1686946021,"current_range_meters":3600,"station_id":"ce4bgqh2rcd13ifvqc4g","pricing_plan_id":"free"},{"bike_id":"2424216c-0462-4ad0-b127-d0366c91b61c","system_id":"levelo_inurba_marseille","lat":43.317075,"lon":5.377367,"is_reserved":false,"is_disabled":false,"rental_uris":{"android":"levelo://app?vid=2424216c-0462-4ad0-b127-d0366c91b61c","ios":"levelo://app?vid=2424216c-0462-4ad0-b127-d0366c91b61c"},"vehicle_type_id":"4","last_reported":1686946021,"current_range_meters":29600,"station_id":"ce4bgth2rcd13ifvqch0","pricing_plan_id":"free"},{"bike_id":"d0fb5b64-bcd5-4b30-894c-cfc01ffa7fa9","system_id":"levelo_inurba_marseille","lat":43.317075,"lon":5.377367,"is_reserved":false,"is_disabled":false,"rental_uris":{"android":"levelo://app?vid=d0fb5b64-bcd5-4b30-894c-cfc01ffa7fa9","ios":"levelo://app?vid=d0fb5b64-bcd5-4b30-894c-cfc01ffa7fa9"},"vehicle_type_id":"4","last_reported":1686946021,"current_range_meters":800,"station_id":"ce4bgth2rcd13ifvqch0","pricing_plan_id":"free"},{"bike_id":"ce73f4af-8f74-45b6-a910-a10cb8e5efa6","system_id":"levelo_inurba_marseille","lat":43.303046,"lon":5.368981,"is_reserved":false,"is_disabled":false,"rental_uris":{"android":"levelo://app?vid=ce73f4af-8f74-45b6-a910-a10cb8e5efa6","ios":"levelo://app?vid=ce73f4af-8f74-45b6-a910-a10cb8e5efa6"},"vehicle_type_id":"4","last_reported":1686946021,"current_range_meters":27200,"station_id":"ce4bgqh2rcd13ifvqc5g","pricing_plan_id":"free"},{"bike_id":"46bb3f47-908b-4b9e-9d58-bbeb1fffa81a","system_id":"levelo_inurba_marseille","lat":43.315293,"lon":5.380349,"is_reserved":false,"is_disabled":false,"rental_uris":{"android":"levelo://app?vid=46bb3f47-908b-4b9e-9d58-bbeb1fffa81a","ios":"levelo://app?vid=46bb3f47-908b-4b9e-9d58-bbeb1fffa81a"},"vehicle_type_id":"4","last_reported":1686946021,"current_range_meters":15200,"station_id":"ce4bhsp2rcd13ifvqi50","pricing_plan_id":"free"},{"bike_id":"ae33307b-fcd5-479b-9ae1-9002ed226c6e","system_id":"levelo_inurba_marseille","lat":43.308012,"lon":5.381511,"is_reserved":false,"is_disabled":false,"rental_uris":{"android":"levelo://app?vid=ae33307b-fcd5-479b-9ae1-9002ed226c6e","ios":"levelo://app?vid=ae33307b-fcd5-479b-9ae1-9002ed226c6e"},"vehicle_type_id":"4","last_reported":1686946021,"current_range_meters":13600,"station_id":"ce4bgt12rcd13ifvqce0","pricing_plan_id":"free"},{"bike_id":"fc4a69da-5dee-4c68-8631-20ee11bc487b","system_id":"levelo_inurba_marseille","lat":43.304606,"lon":5.379026,"is_reserved":false,"is_disabled":false,"rental_uris":{"android":"levelo://app?vid=fc4a69da-5dee-4c68-8631-20ee11bc487b","ios":"levelo://app?vid=fc4a69da-5dee-4c68-8631-20ee11bc487b"},"vehicle_type_id":"4","last_reported":1686946021,"current_range_meters":30000,"station_id":"ce4bgup2rcd13ifvqcn0","pricing_plan_id":"free"},{"bike_id":"43fc693e-f2a9-4aec-8fd9-d094bb02cb70","system_id":"levelo_inurba_marseille","lat":43.304606,"lon":5.379026,"is_reserved":false,"is_disabled":false,"rental_uris":{"android":"levelo://app?vid=43fc693e-f2a9-4aec-8fd9-d094bb02cb70","ios":"levelo://app?vid=43fc693e-f2a9-4aec-8fd9-d094bb02cb70"},"vehicle_type_id":"4","last_reported":1686946021,"current_range_meters":24000,"station_id":"ce4bgup2rcd13ifvqcn0","pricing_plan_id":"free"},{"bike_id":"0945fff7-06bf-43c4-a671-99a9dd59bdba","system_id":"levelo_inurba_marseille","lat":43.30384,"lon":5.37804,"is_reserved":false,"is_disabled":false,"rental_uris":{"android":"levelo://app?vid=0945fff7-06bf-43c4-a671-99a9dd59bdba","ios":"levelo://app?vid=0945fff7-06bf-43c4-a671-99a9dd59bdba"},"vehicle_type_id":"4","last_reported":1686946021,"current_range_meters":800,"station_id":"ce4bgup2rcd13ifvqcn0","pricing_plan_id":"free"},{"bike_id":"32827146-2d6b-4fb1-b00e-6b2f535ca544","system_id":"levelo_inurba_marseille","lat":43.30486,"lon":5.37977,"is_reserved":false,"is_disabled":false,"rental_uris":{"android":"levelo://app?vid=32827146-2d6b-4fb1-b00e-6b2f535ca544","ios":"levelo://app?vid=32827146-2d6b-4fb1-b00e-6b2f535ca544"},"vehicle_type_id":"4","last_reported":1686946021,"current_range_meters":31200,"station_id":"","pricing_plan_id":"free"},{"bike_id":"35c2b480-e69a-4543-9412-895f27c2a34e","system_id":"levelo_inurba_marseille","lat":43.319935,"lon":5.381699,"is_reserved":false,"is_disabled":false,"rental_uris":{"android":"levelo://app?vid=35c2b480-e69a-4543-9412-895f27c2a34e","ios":"levelo://app?vid=35c2b480-e69a-4543-9412-895f27c2a34e"},"vehicle_type_id":"4","last_reported":1686946021,"current_range_meters":5600,"station_id":"ce4bhr12rcd13ifvqhpg","pricing_plan_id":"free"},{"bike_id":"4be3dee9-0a87-4edc-9ee6-a8fa4f420efa","system_id":"levelo_inurba_marseille","lat":43.299389,"lon":5.365534,"is_reserved":false,"is_disabled":false,"rental_uris":{"android":"levelo://app?vid=4be3dee9-0a87-4edc-9ee6-a8fa4f420efa","ios":"levelo://app?vid=4be3dee9-0a87-4edc-9ee6-a8fa4f420efa"},"vehicle_type_id":"4","last_reported":1686946021,"current_range_meters":24800,"station_id":"","pricing_plan_id":"free"},{"bike_id":"330412da-b9eb-49fa-9ba0-9288ee9ddd31","system_id":"levelo_inurba_marseille","lat":43.30047,"lon":5.37516,"is_reserved":false,"is_disabled":false,"rental_uris":{"android":"levelo://app?vid=330412da-b9eb-49fa-9ba0-9288ee9ddd31","ios":"levelo://app?vid=330412da-b9eb-49fa-9ba0-9288ee9ddd31"},"vehicle_type_id":"4","last_reported":1686946021,"current_range_meters":22000,"station_id":"","pricing_plan_id":"free"},{"bike_id":"3e9ce5de-c845-41f8-9664-04e375536793","system_id":"levelo_inurba_marseille","lat":43.298433,"lon":5.362774,"is_reserved":false,"is_disabled":false,"rental_uris":{"android":"levelo://app?vid=3e9ce5de-c845-41f8-9664-04e375536793","ios":"levelo://app?vid=3e9ce5de-c845-41f8-9664-04e375536793"},"vehicle_type_id":"4","last_reported":1686946021,"current_range_meters":29200,"station_id":"ce4bgpp2rcd13ifvqc3g","pricing_plan_id":"free"},{"bike_id":"1f83f694-2c24-4302-880e-db71034b12f5","system_id":"levelo_inurba_marseille","lat":43.298433,"lon":5.362774,"is_reserved":false,"is_disabled":false,"rental_uris":{"android":"levelo://app?vid=1f83f694-2c24-4302-880e-db71034b12f5","ios":"levelo://app?vid=1f83f694-2c24-4302-880e-db71034b12f5"},"vehicle_type_id":"4","last_reported":1686946021,"current_range_meters":0,"station_id":"ce4bgpp2rcd13ifvqc3g","pricing_plan_id":"free"},{"bike_id":"b8d1053a-9d34-4d2b-8799-8c2c4984e7fa","system_id":"levelo_inurba_marseille","lat":43.299243,"lon":5.37481,"is_reserved":false,"is_disabled":false,"rental_uris":{"android":"levelo://app?vid=b8d1053a-9d34-4d2b-8799-8c2c4984e7fa","ios":"levelo://app?vid=b8d1053a-9d34-4d2b-8799-8c2c4984e7fa"},"vehicle_type_id":"4","last_reported":1686946021,"current_range_meters":21600,"station_id":"ce4bgjh2rcd13ifvqbg0","pricing_plan_id":"free"},{"bike_id":"1a44f1f6-7b96-4474-a514-ffc4bc4ef8b5","system_id":"levelo_inurba_marseille","lat":43.311722,"lon":5.387247,"is_reserved":false,"is_disabled":false,"rental_uris":{"android":"levelo://app?vid=1a44f1f6-7b96-4474-a514-ffc4bc4ef8b5","ios":"levelo://app?vid=1a44f1f6-7b96-4474-a514-ffc4bc4ef8b5"},"vehicle_type_id":"4","last_reported":1686946021,"current_range_meters":23200,"station_id":"ce4bgv12rcd13ifvqcp0","pricing_plan_id":"free"},{"bike_id":"176f4894-d7fc-460e-aa5d-7c8c1e206dc3","system_id":"levelo_inurba_marseille","lat":43.297163,"lon":5.365866,"is_reserved":false,"is_disabled":false,"rental_uris":{"android":"levelo://app?vid=176f4894-d7fc-460e-aa5d-7c8c1e206dc3","ios":"levelo://app?vid=176f4894-d7fc-460e-aa5d-7c8c1e206dc3"},"vehicle_type_id":"4","last_reported":1686946021,"current_range_meters":19200,"station_id":"ce4bgn12rcd13ifvqbt0","pricing_plan_id":"free"},{"bike_id":"88d0330c-5bb0-4a19-9b65-d4683b42e015","system_id":"levelo_inurba_marseille","lat":43.29683,"lon":5.36046,"is_reserved":false,"is_disabled":false,"rental_uris":{"android":"levelo://app?vid=88d0330c-5bb0-4a19-9b65-d4683b42e015","ios":"levelo://app?vid=88d0330c-5bb0-4a19-9b65-d4683b42e015"},"vehicle_type_id":"4","last_reported":1686946021,"current_range_meters":9200,"station_id":"ce4bgpp2rcd13ifvqc3g","pricing_plan_id":"free"},{"bike_id":"24f41ca5-b432-4feb-a0c8-a15026b97306","system_id":"levelo_inurba_marseille","lat":43.296131,"lon":5.370773,"is_reserved":false,"is_disabled":false,"rental_uris":{"android":"levelo://app?vid=24f41ca5-b432-4feb-a0c8-a15026b97306","ios":"levelo://app?vid=24f41ca5-b432-4feb-a0c8-a15026b97306"},"vehicle_type_id":"4","last_reported":1686946021,"current_range_meters":18800,"station_id":"ce4bgnh2rcd13ifvqc0g","pricing_plan_id":"free"},{"bike_id":"7eb7ead3-4e2c-43ee-9bd2-ab3e43da3ee5","system_id":"levelo_inurba_marseille","lat":43.296921,"lon":5.376579,"is_reserved":false,"is_disabled":false,"rental_uris":{"android":"levelo://app?vid=7eb7ead3-4e2c-43ee-9bd2-ab3e43da3ee5","ios":"levelo://app?vid=7eb7ead3-4e2c-43ee-9bd2-ab3e43da3ee5"},"vehicle_type_id":"4","last_reported":1686946021,"current_range_meters":23600,"station_id":"ce4bgkh2rcd13ifvqbl0","pricing_plan_id":"free"},{"bike_id":"1b925875-479f-4107-863f-848332c149e0","system_id":"levelo_inurba_marseille","lat":43.30957,"lon":5.39031,"is_reserved":false,"is_disabled":false,"rental_uris":{"android":"levelo://app?vid=1b925875-479f-4107-863f-848332c149e0","ios":"levelo://app?vid=1b925875-479f-4107-863f-848332c149e0"},"vehicle_type_id":"4","last_reported":1686946021,"current_range_meters":2000,"station_id":"ce4bgup2rcd13ifvqco0","pricing_plan_id":"free"},{"bike_id":"f298148b-982a-4b93-867a-8e98f9a6be37","system_id":"levelo_inurba_marseille","lat":43.309589,"lon":5.390258,"is_reserved":false,"is_disabled":false,"rental_uris":{"android":"levelo://app?vid=f298148b-982a-4b93-867a-8e98f9a6be37","ios":"levelo://app?vid=f298148b-982a-4b93-867a-8e98f9a6be37"},"vehicle_type_id":"4","last_reported":1686946021,"current_range_meters":17600,"station_id":"ce4bgup2rcd13ifvqco0","pricing_plan_id":"free"},{"bike_id":"3a4a4500-6b0d-46ab-9fd9-993e9d0e666e","system_id":"levelo_inurba_marseille","lat":43.309589,"lon":5.390258,"is_reserved":false,"is_disabled":false,"rental_uris":{"android":"levelo://app?vid=3a4a4500-6b0d-46ab-9fd9-993e9d0e666e","ios":"levelo://app?vid=3a4a4500-6b0d-46ab-9fd9-993e9d0e666e"},"vehicle_type_id":"4","last_reported":1686946021,"current_range_meters":18400,"station_id":"ce4bgup2rcd13ifvqco0","pricing_plan_id":"free"},{"bike_id":"f0d398ba-5fbd-40a2-8eb4-3daf2a765a19","system_id":"levelo_inurba_marseille","lat":43.317557,"lon":5.390173,"is_reserved":false,"is_disabled":false,"rental_uris":{"android":"levelo://app?vid=f0d398ba-5fbd-40a2-8eb4-3daf2a765a19","ios":"levelo://app?vid=f0d398ba-5fbd-40a2-8eb4-3daf2a765a19"},"vehicle_type_id":"4","last_reported":1686946021,"current_range_meters":28800,"station_id":"ce4bhqp2rcd13ifvqhng","pricing_plan_id":"free"},{"bike_id":"ee53049d-3784-4eb6-a3c7-46083f600076","system_id":"levelo_inurba_marseille","lat":43.298037,"lon":5.381066,"is_reserved":false,"is_disabled":false,"rental_uris":{"android":"levelo://app?vid=ee53049d-3784-4eb6-a3c7-46083f600076","ios":"levelo://app?vid=ee53049d-3784-4eb6-a3c7-46083f600076"},"vehicle_type_id":"4","last_reported":1686946021,"current_range_meters":20400,"station_id":"ce4bgip2rcd13ifvqbb0","pricing_plan_id":"free"},{"bike_id":"250c8a96-8498-4211-b8f3-1b00a8d1fbaf","system_id":"levelo_inurba_marseille","lat":43.296477,"lon":5.37768,"is_reserved":false,"is_disabled":false,"rental_uris":{"android":"levelo://app?vid=250c8a96-8498-4211-b8f3-1b00a8d1fbaf","ios":"levelo://app?vid=250c8a96-8498-4211-b8f3-1b00a8d1fbaf"},"vehicle_type_id":"4","last_reported":1686946021,"current_range_meters":19200,"station_id":"","pricing_plan_id":"free"},{"bike_id":"9ced9088-05a8-467e-b9db-fa3f96e5362f","system_id":"levelo_inurba_marseille","lat":43.299724,"lon":5.384848,"is_reserved":false,"is_disabled":false,"rental_uris":{"android":"levelo://app?vid=9ced9088-05a8-467e-b9db-fa3f96e5362f","ios":"levelo://app?vid=9ced9088-05a8-467e-b9db-fa3f96e5362f"},"vehicle_type_id":"4","last_reported":1686946021,"current_range_meters":6000,"station_id":"ce4bgj92rcd13ifvqbd0","pricing_plan_id":"free"},{"bike_id":"2c9ad911-25e0-4222-8751-d809dfadd582","system_id":"levelo_inurba_marseille","lat":43.32367,"lon":5.38859,"is_reserved":false,"is_disabled":false,"rental_uris":{"android":"levelo://app?vid=2c9ad911-25e0-4222-8751-d809dfadd582","ios":"levelo://app?vid=2c9ad911-25e0-4222-8751-d809dfadd582"},"vehicle_type_id":"4","last_reported":1686946021,"current_range_meters":29200,"station_id":"ce4bhqp2rcd13ifvqhog","pricing_plan_id":"free"},{"bike_id":"5a2be942-eb74-4d02-b446-be02a784316f","system_id":"levelo_inurba_marseille","lat":43.32367,"lon":5.388836,"is_reserved":false,"is_disabled":false,"rental_uris":{"android":"levelo://app?vid=5a2be942-eb74-4d02-b446-be02a784316f","ios":"levelo://app?vid=5a2be942-eb74-4d02-b446-be02a784316f"},"vehicle_type_id":"4","last_reported":1686946021,"current_range_meters":5600,"station_id":"ce4bhqp2rcd13ifvqhog","pricing_plan_id":"free"},{"bike_id":"6a262f0e-f14a-4b8c-a27e-1f19206efa3b","system_id":"levelo_inurba_marseille","lat":43.31421,"lon":5.39372,"is_reserved":false,"is_disabled":false,"rental_uris":{"android":"levelo://app?vid=6a262f0e-f14a-4b8c-a27e-1f19206efa3b","ios":"levelo://app?vid=6a262f0e-f14a-4b8c-a27e-1f19206efa3b"},"vehicle_type_id":"4","last_reported":1686946021,"current_range_meters":27600,"station_id":"","pricing_plan_id":"free"},{"bike_id":"43dc0590-726f-488c-9bf2-13b1cd87d660","system_id":"levelo_inurba_marseille","lat":43.292749,"lon":5.368402,"is_reserved":false,"is_disabled":false,"rental_uris":{"android":"levelo://app?vid=43dc0590-726f-488c-9bf2-13b1cd87d660","ios":"levelo://app?vid=43dc0590-726f-488c-9bf2-13b1cd87d660"},"vehicle_type_id":"4","last_reported":1686946021,"current_range_meters":24400,"station_id":"ce4bhbp2rcd13ifvqesg","pricing_plan_id":"free"},{"bike_id":"8b008e9c-20e6-4e43-bfbb-aa5c0f7bfc4b","system_id":"levelo_inurba_marseille","lat":43.29252,"lon":5.35967,"is_reserved":false,"is_disabled":false,"rental_uris":{"android":"levelo://app?vid=8b008e9c-20e6-4e43-bfbb-aa5c0f7bfc4b","ios":"levelo://app?vid=8b008e9c-20e6-4e43-bfbb-aa5c0f7bfc4b"},"vehicle_type_id":"4","last_reported":1686946021,"current_range_meters":12000,"station_id":"","pricing_plan_id":"free"},{"bike_id":"edd27ecf-5e8a-44a0-82e6-021137b2b9de","system_id":"levelo_inurba_marseille","lat":43.29291,"lon":5.35677,"is_reserved":false,"is_disabled":false,"rental_uris":{"android":"levelo://app?vid=edd27ecf-5e8a-44a0-82e6-021137b2b9de","ios":"levelo://app?vid=edd27ecf-5e8a-44a0-82e6-021137b2b9de"},"vehicle_type_id":"4","last_reported":1686946021,"current_range_meters":4800,"station_id":"","pricing_plan_id":"free"},{"bike_id":"4abc1578-19b1-4341-8904-00d3a10b426e","system_id":"levelo_inurba_marseille","lat":43.3132,"lon":5.39697,"is_reserved":false,"is_disabled":false,"rental_uris":{"android":"levelo://app?vid=4abc1578-19b1-4341-8904-00d3a10b426e","ios":"levelo://app?vid=4abc1578-19b1-4341-8904-00d3a10b426e"},"vehicle_type_id":"4","last_reported":1686946021,"current_range_meters":4800,"station_id":"ce4bgvp2rcd13ifvqcu0","pricing_plan_id":"free"},{"bike_id":"353b1ac2-b3d9-473e-98a9-abda4dd8999c","system_id":"levelo_inurba_marseille","lat":43.309038,"lon":5.396546,"is_reserved":false,"is_disabled":false,"rental_uris":{"android":"levelo://app?vid=353b1ac2-b3d9-473e-98a9-abda4dd8999c","ios":"levelo://app?vid=353b1ac2-b3d9-473e-98a9-abda4dd8999c"},"vehicle_type_id":"4","last_reported":1686946021,"current_range_meters":24800,"station_id":"ce4bh012rcd13ifvqcv0","pricing_plan_id":"free"},{"bike_id":"20aa7420-47da-4c1f-b33c-bc7db81cac11","system_id":"levelo_inurba_marseille","lat":43.290779,"lon":5.371482,"is_reserved":false,"is_disabled":false,"rental_uris":{"android":"levelo://app?vid=20aa7420-47da-4c1f-b33c-bc7db81cac11","ios":"levelo://app?vid=20aa7420-47da-4c1f-b33c-bc7db81cac11"},"vehicle_type_id":"4","last_reported":1686946021,"current_range_meters":24800,"station_id":"ce4bh5p2rcd13ifvqe4g","pricing_plan_id":"free"},{"bike_id":"a6b26bcb-42f8-4144-81cf-33d1474ef99e","system_id":"levelo_inurba_marseille","lat":43.29071,"lon":5.37178,"is_reserved":false,"is_disabled":false,"rental_uris":{"android":"levelo://app?vid=a6b26bcb-42f8-4144-81cf-33d1474ef99e","ios":"levelo://app?vid=a6b26bcb-42f8-4144-81cf-33d1474ef99e"},"vehicle_type_id":"4","last_reported":1686946021,"current_range_meters":2800,"station_id":"ce4bh5p2rcd13ifvqe4g","pricing_plan_id":"free"},{"bike_id":"38eb09af-7166-42b9-865e-84246929498f","system_id":"levelo_inurba_marseille","lat":43.294153,"lon":5.386305,"is_reserved":false,"is_disabled":false,"rental_uris":{"android":"levelo://app?vid=38eb09af-7166-42b9-865e-84246929498f","ios":"levelo://app?vid=38eb09af-7166-42b9-865e-84246929498f"},"vehicle_type_id":"4","last_reported":1686946021,"current_range_meters":31200,"station_id":"ce4bh2h2rcd13ifvqdh0","pricing_plan_id":"free"},{"bike_id":"a0648216-fa96-455c-a53b-13339ab4b987","system_id":"levelo_inurba_marseille","lat":43.289184,"lon":5.366408,"is_reserved":false,"is_disabled":false,"rental_uris":{"android":"levelo://app?vid=a0648216-fa96-455c-a53b-13339ab4b987","ios":"levelo://app?vid=a0648216-fa96-455c-a53b-13339ab4b987"},"vehicle_type_id":"4","last_reported":1686946021,"current_range_meters":13600,"station_id":"ce4bhap2rcd13ifvqek0","pricing_plan_id":"free"},{"bike_id":"93945ce9-0d07-4d02-a1d4-4edf8eb9fbaa","system_id":"levelo_inurba_marseille","lat":43.289184,"lon":5.366408,"is_reserved":false,"is_disabled":false,"rental_uris":{"android":"levelo://app?vid=93945ce9-0d07-4d02-a1d4-4edf8eb9fbaa","ios":"levelo://app?vid=93945ce9-0d07-4d02-a1d4-4edf8eb9fbaa"},"vehicle_type_id":"4","last_reported":1686946021,"current_range_meters":18400,"station_id":"ce4bhap2rcd13ifvqek0","pricing_plan_id":"free"},{"bike_id":"d06fe33b-12fe-4b52-a83b-4cc65503c8c1","system_id":"levelo_inurba_marseille","lat":43.292644,"lon":5.384257,"is_reserved":false,"is_disabled":false,"rental_uris":{"android":"levelo://app?vid=d06fe33b-12fe-4b52-a83b-4cc65503c8c1","ios":"levelo://app?vid=d06fe33b-12fe-4b52-a83b-4cc65503c8c1"},"vehicle_type_id":"4","last_reported":1686946021,"current_range_meters":12800,"station_id":"ce4bh692rcd13ifvqea0","pricing_plan_id":"free"},{"bike_id":"ef1efc2f-9a93-46d0-b437-395a7d00a319","system_id":"levelo_inurba_marseille","lat":43.292644,"lon":5.384257,"is_reserved":false,"is_disabled":false,"rental_uris":{"android":"levelo://app?vid=ef1efc2f-9a93-46d0-b437-395a7d00a319","ios":"levelo://app?vid=ef1efc2f-9a93-46d0-b437-395a7d00a319"},"vehicle_type_id":"4","last_reported":1686946021,"current_range_meters":3600,"station_id":"ce4bh692rcd13ifvqea0","pricing_plan_id":"free"},{"bike_id":"a6b56773-2cf5-40a9-886a-188a766f2e63","system_id":"levelo_inurba_marseille","lat":43.292642,"lon":5.384254,"is_reserved":false,"is_disabled":false,"rental_uris":{"android":"levelo://app?vid=a6b56773-2cf5-40a9-886a-188a766f2e63","ios":"levelo://app?vid=a6b56773-2cf5-40a9-886a-188a766f2e63"},"vehicle_type_id":"4","last_reported":1686946021,"current_range_meters":19200,"station_id":"ce4bh692rcd13ifvqea0","pricing_plan_id":"free"},{"bike_id":"73556bf3-3293-4a54-b997-8b7843faf75f","system_id":"levelo_inurba_marseille","lat":43.292642,"lon":5.384254,"is_reserved":false,"is_disabled":false,"rental_uris":{"android":"levelo://app?vid=73556bf3-3293-4a54-b997-8b7843faf75f","ios":"levelo://app?vid=73556bf3-3293-4a54-b997-8b7843faf75f"},"vehicle_type_id":"4","last_reported":1686946021,"current_range_meters":0,"station_id":"ce4bh692rcd13ifvqea0","pricing_plan_id":"free"},{"bike_id":"660cbd92-db3c-4adc-8652-6d549fa80f5f","system_id":"levelo_inurba_marseille","lat":43.292644,"lon":5.384257,"is_reserved":false,"is_disabled":false,"rental_uris":{"android":"levelo://app?vid=660cbd92-db3c-4adc-8652-6d549fa80f5f","ios":"levelo://app?vid=660cbd92-db3c-4adc-8652-6d549fa80f5f"},"vehicle_type_id":"4","last_reported":1686946021,"current_range_meters":8000,"station_id":"ce4bh692rcd13ifvqea0","pricing_plan_id":"free"},{"bike_id":"8d10f8d0-4016-4f84-86b3-ef014269d173","system_id":"levelo_inurba_marseille","lat":43.292644,"lon":5.384257,"is_reserved":false,"is_disabled":false,"rental_uris":{"android":"levelo://app?vid=8d10f8d0-4016-4f84-86b3-ef014269d173","ios":"levelo://app?vid=8d10f8d0-4016-4f84-86b3-ef014269d173"},"vehicle_type_id":"4","last_reported":1686946021,"current_range_meters":25200,"station_id":"ce4bh692rcd13ifvqea0","pricing_plan_id":"free"},{"bike_id":"efd9ad73-20e4-48a8-9273-d79e81729f94","system_id":"levelo_inurba_marseille","lat":43.33044,"lon":5.3892,"is_reserved":false,"is_disabled":false,"rental_uris":{"android":"levelo://app?vid=efd9ad73-20e4-48a8-9273-d79e81729f94","ios":"levelo://app?vid=efd9ad73-20e4-48a8-9273-d79e81729f94"},"vehicle_type_id":"4","last_reported":1686946021,"current_range_meters":3600,"station_id":"ce4bhr92rcd13ifvqhrg","pricing_plan_id":"free"},{"bike_id":"c0fb8083-e02d-4dec-b1b9-fa095e6c5b75","system_id":"levelo_inurba_marseille","lat":43.337396,"lon":5.374526,"is_reserved":false,"is_disabled":false,"rental_uris":{"android":"levelo://app?vid=c0fb8083-e02d-4dec-b1b9-fa095e6c5b75","ios":"levelo://app?vid=c0fb8083-e02d-4dec-b1b9-fa095e6c5b75"},"vehicle_type_id":"4","last_reported":1686946021,"current_range_meters":0,"station_id":"ce4bhp92rcd13ifvqhag","pricing_plan_id":"free"},{"bike_id":"62749a95-ae91-4859-b3d2-e5c29e19f079","system_id":"levelo_inurba_marseille","lat":43.286039,"lon":5.370681,"is_reserved":false,"is_disabled":false,"rental_uris":{"android":"levelo://app?vid=62749a95-ae91-4859-b3d2-e5c29e19f079","ios":"levelo://app?vid=62749a95-ae91-4859-b3d2-e5c29e19f079"},"vehicle_type_id":"4","last_reported":1686946021,"current_range_meters":0,"station_id":"ce4bht12rcd13ifvqi60","pricing_plan_id":"free"},{"bike_id":"afafe5f4-6466-469f-a843-218fc42a44d5","system_id":"levelo_inurba_marseille","lat":43.28707,"lon":5.37393,"is_reserved":false,"is_disabled":false,"rental_uris":{"android":"levelo://app?vid=afafe5f4-6466-469f-a843-218fc42a44d5","ios":"levelo://app?vid=afafe5f4-6466-469f-a843-218fc42a44d5"},"vehicle_type_id":"4","last_reported":1686946021,"current_range_meters":0,"station_id":"ce4bh3p2rcd13ifvqdq0","pricing_plan_id":"free"},{"bike_id":"965fc52e-44f1-489a-aa6a-a1c521ae458c","system_id":"levelo_inurba_marseille","lat":43.286591,"lon":5.363346,"is_reserved":false,"is_disabled":false,"rental_uris":{"android":"levelo://app?vid=965fc52e-44f1-489a-aa6a-a1c521ae458c","ios":"levelo://app?vid=965fc52e-44f1-489a-aa6a-a1c521ae458c"},"vehicle_type_id":"4","last_reported":1686946021,"current_range_meters":26400,"station_id":"ce4bhah2rcd13ifvqej0","pricing_plan_id":"free"},{"bike_id":"85a6c7a1-354e-4a5e-8a8f-9e60cda6aaae","system_id":"levelo_inurba_marseille","lat":43.28699,"lon":5.37398,"is_reserved":false,"is_disabled":false,"rental_uris":{"android":"levelo://app?vid=85a6c7a1-354e-4a5e-8a8f-9e60cda6aaae","ios":"levelo://app?vid=85a6c7a1-354e-4a5e-8a8f-9e60cda6aaae"},"vehicle_type_id":"4","last_reported":1686946021,"current_range_meters":7200,"station_id":"ce4bh3p2rcd13ifvqdq0","pricing_plan_id":"free"},{"bike_id":"b5e704ee-ea0d-4102-9419-838d388cad39","system_id":"levelo_inurba_marseille","lat":43.29537,"lon":5.39409,"is_reserved":false,"is_disabled":false,"rental_uris":{"android":"levelo://app?vid=b5e704ee-ea0d-4102-9419-838d388cad39","ios":"levelo://app?vid=b5e704ee-ea0d-4102-9419-838d388cad39"},"vehicle_type_id":"4","last_reported":1686946021,"current_range_meters":18000,"station_id":"ce4bh292rcd13ifvqdf0","pricing_plan_id":"free"},{"bike_id":"1996a1ee-b27c-487c-bed1-a3e25d5535e3","system_id":"levelo_inurba_marseille","lat":43.29028,"lon":5.38632,"is_reserved":false,"is_disabled":false,"rental_uris":{"android":"levelo://app?vid=1996a1ee-b27c-487c-bed1-a3e25d5535e3","ios":"levelo://app?vid=1996a1ee-b27c-487c-bed1-a3e25d5535e3"},"vehicle_type_id":"4","last_reported":1686946021,"current_range_meters":24400,"station_id":"ce4bh4p2rcd13ifvqe0g","pricing_plan_id":"free"},{"bike_id":"9efad113-fc10-410e-8208-51c92e9cf867","system_id":"levelo_inurba_marseille","lat":43.290345,"lon":5.38646,"is_reserved":false,"is_disabled":false,"rental_uris":{"android":"levelo://app?vid=9efad113-fc10-410e-8208-51c92e9cf867","ios":"levelo://app?vid=9efad113-fc10-410e-8208-51c92e9cf867"},"vehicle_type_id":"4","last_reported":1686946021,"current_range_meters":18800,"station_id":"ce4bh4p2rcd13ifvqe0g","pricing_plan_id":"free"},{"bike_id":"ea841d64-f631-4fe1-a810-b6ee0bdeabc6","system_id":"levelo_inurba_marseille","lat":43.302759,"lon":5.400793,"is_reserved":false,"is_disabled":false,"rental_uris":{"android":"levelo://app?vid=ea841d64-f631-4fe1-a810-b6ee0bdeabc6","ios":"levelo://app?vid=ea841d64-f631-4fe1-a810-b6ee0bdeabc6"},"vehicle_type_id":"4","last_reported":1686946021,"current_range_meters":8400,"station_id":"ce4bgvh2rcd13ifvqcs0","pricing_plan_id":"free"},{"bike_id":"80ef62d5-89e0-4e18-8f88-0f9c97d89cb6","system_id":"levelo_inurba_marseille","lat":43.294695,"lon":5.394057,"is_reserved":false,"is_disabled":false,"rental_uris":{"android":"levelo://app?vid=80ef62d5-89e0-4e18-8f88-0f9c97d89cb6","ios":"levelo://app?vid=80ef62d5-89e0-4e18-8f88-0f9c97d89cb6"},"vehicle_type_id":"4","last_reported":1686946021,"current_range_meters":13600,"station_id":"","pricing_plan_id":"free"},{"bike_id":"2796dbaf-0c9b-41e1-8c1c-43e32866c96a","system_id":"levelo_inurba_marseille","lat":43.287184,"lon":5.37937,"is_reserved":false,"is_disabled":false,"rental_uris":{"android":"levelo://app?vid=2796dbaf-0c9b-41e1-8c1c-43e32866c96a","ios":"levelo://app?vid=2796dbaf-0c9b-41e1-8c1c-43e32866c96a"},"vehicle_type_id":"4","last_reported":1686946021,"current_range_meters":3200,"station_id":"ce4bh9p2rcd13ifvqec0","pricing_plan_id":"free"},{"bike_id":"1934315b-8f51-45cc-9818-72e6f8f5b37c","system_id":"levelo_inurba_marseille","lat":43.287185,"lon":5.379373,"is_reserved":false,"is_disabled":false,"rental_uris":{"android":"levelo://app?vid=1934315b-8f51-45cc-9818-72e6f8f5b37c","ios":"levelo://app?vid=1934315b-8f51-45cc-9818-72e6f8f5b37c"},"vehicle_type_id":"4","last_reported":1686946021,"current_range_meters":22800,"station_id":"ce4bh9p2rcd13ifvqec0","pricing_plan_id":"free"},{"bike_id":"3c449d4d-1ac9-44b2-8fed-4d7aa04bf693","system_id":"levelo_inurba_marseille","lat":43.31646,"lon":5.40434,"is_reserved":false,"is_disabled":false,"rental_uris":{"android":"levelo://app?vid=3c449d4d-1ac9-44b2-8fed-4d7aa04bf693","ios":"levelo://app?vid=3c449d4d-1ac9-44b2-8fed-4d7aa04bf693"},"vehicle_type_id":"4","last_reported":1686946021,"current_range_meters":2000,"station_id":"","pricing_plan_id":"free"},{"bike_id":"5dea59d8-f8b9-4aad-a7ca-289bc157a034","system_id":"levelo_inurba_marseille","lat":43.316517,"lon":5.404375,"is_reserved":false,"is_disabled":false,"rental_uris":{"android":"levelo://app?vid=5dea59d8-f8b9-4aad-a7ca-289bc157a034","ios":"levelo://app?vid=5dea59d8-f8b9-4aad-a7ca-289bc157a034"},"vehicle_type_id":"4","last_reported":1686946021,"current_range_meters":13600,"station_id":"ce4bh012rcd13ifvqd00","pricing_plan_id":"free"},{"bike_id":"33234b68-9eaa-4d4b-9453-b8196546c7cb","system_id":"levelo_inurba_marseille","lat":43.284534,"lon":5.358662,"is_reserved":false,"is_disabled":false,"rental_uris":{"android":"levelo://app?vid=33234b68-9eaa-4d4b-9453-b8196546c7cb","ios":"levelo://app?vid=33234b68-9eaa-4d4b-9453-b8196546c7cb"},"vehicle_type_id":"4","last_reported":1686946021,"current_range_meters":0,"station_id":"ce4bhah2rcd13ifvqei0","pricing_plan_id":"free"},{"bike_id":"4e55863f-aa14-4f29-ac85-43c22a3d51f0","system_id":"levelo_inurba_marseille","lat":43.28613,"lon":5.351,"is_reserved":false,"is_disabled":false,"rental_uris":{"android":"levelo://app?vid=4e55863f-aa14-4f29-ac85-43c22a3d51f0","ios":"levelo://app?vid=4e55863f-aa14-4f29-ac85-43c22a3d51f0"},"vehicle_type_id":"4","last_reported":1686946021,"current_range_meters":11600,"station_id":"ce4bhch2rcd13ifvqeug","pricing_plan_id":"free"},{"bike_id":"d23ea2f4-b5e2-48d5-963b-591b2e758b83","system_id":"levelo_inurba_marseille","lat":43.285848,"lon":5.350787,"is_reserved":false,"is_disabled":false,"rental_uris":{"android":"levelo://app?vid=d23ea2f4-b5e2-48d5-963b-591b2e758b83","ios":"levelo://app?vid=d23ea2f4-b5e2-48d5-963b-591b2e758b83"},"vehicle_type_id":"4","last_reported":1686946021,"current_range_meters":0,"station_id":"ce4bhch2rcd13ifvqeug","pricing_plan_id":"free"},{"bike_id":"881cce5a-f957-433d-b040-4e6f7ef207b0","system_id":"levelo_inurba_marseille","lat":43.28407,"lon":5.37517,"is_reserved":false,"is_disabled":false,"rental_uris":{"android":"levelo://app?vid=881cce5a-f957-433d-b040-4e6f7ef207b0","ios":"levelo://app?vid=881cce5a-f957-433d-b040-4e6f7ef207b0"},"vehicle_type_id":"4","last_reported":1686946021,"current_range_meters":0,"station_id":"","pricing_plan_id":"free"},{"bike_id":"16e5fedd-6e86-436a-a0a2-72c7cd60a6ea","system_id":"levelo_inurba_marseille","lat":43.32342,"lon":5.40624,"is_reserved":false,"is_disabled":false,"rental_uris":{"android":"levelo://app?vid=16e5fedd-6e86-436a-a0a2-72c7cd60a6ea","ios":"levelo://app?vid=16e5fedd-6e86-436a-a0a2-72c7cd60a6ea"},"vehicle_type_id":"4","last_reported":1686946021,"current_range_meters":31200,"station_id":"ce4bhq92rcd13ifvqhjg","pricing_plan_id":"free"},{"bike_id":"00b4d942-d645-4a17-a320-9c02b5ecca68","system_id":"levelo_inurba_marseille","lat":43.288497,"lon":5.393089,"is_reserved":false,"is_disabled":false,"rental_uris":{"android":"levelo://app?vid=00b4d942-d645-4a17-a320-9c02b5ecca68","ios":"levelo://app?vid=00b4d942-d645-4a17-a320-9c02b5ecca68"},"vehicle_type_id":"4","last_reported":1686946021,"current_range_meters":28400,"station_id":"ce4bh2p2rcd13ifvqdi0","pricing_plan_id":"free"},{"bike_id":"be092f6c-75b5-41b8-b47b-cd937759592e","system_id":"levelo_inurba_marseille","lat":43.28349,"lon":5.38112,"is_reserved":false,"is_disabled":false,"rental_uris":{"android":"levelo://app?vid=be092f6c-75b5-41b8-b47b-cd937759592e","ios":"levelo://app?vid=be092f6c-75b5-41b8-b47b-cd937759592e"},"vehicle_type_id":"4","last_reported":1686946021,"current_range_meters":9200,"station_id":"ce4bh412rcd13ifvqdr0","pricing_plan_id":"free"},{"bike_id":"e2c3a0aa-7f22-492a-a04d-15e355466059","system_id":"levelo_inurba_marseille","lat":43.32879,"lon":5.40534,"is_reserved":false,"is_disabled":false,"rental_uris":{"android":"levelo://app?vid=e2c3a0aa-7f22-492a-a04d-15e355466059","ios":"levelo://app?vid=e2c3a0aa-7f22-492a-a04d-15e355466059"},"vehicle_type_id":"4","last_reported":1686946021,"current_range_meters":12000,"station_id":"","pricing_plan_id":"free"},{"bike_id":"25c7467d-752e-46d1-994e-7f39eeb104f3","system_id":"levelo_inurba_marseille","lat":43.28365,"lon":5.38634,"is_reserved":false,"is_disabled":false,"rental_uris":{"android":"levelo://app?vid=25c7467d-752e-46d1-994e-7f39eeb104f3","ios":"levelo://app?vid=25c7467d-752e-46d1-994e-7f39eeb104f3"},"vehicle_type_id":"4","last_reported":1686946021,"current_range_meters":4800,"station_id":"ce4bh492rcd13ifvqdvg","pricing_plan_id":"free"},{"bike_id":"2dbe743e-3163-4368-a89a-9c881530de66","system_id":"levelo_inurba_marseille","lat":43.282744,"lon":5.350533,"is_reserved":false,"is_disabled":false,"rental_uris":{"android":"levelo://app?vid=2dbe743e-3163-4368-a89a-9c881530de66","ios":"levelo://app?vid=2dbe743e-3163-4368-a89a-9c881530de66"},"vehicle_type_id":"4","last_reported":1686946021,"current_range_meters":14400,"station_id":"ce4bhbp2rcd13ifvqerg","pricing_plan_id":"free"},{"bike_id":"cb7ea436-5840-49af-870a-783c3cc80b38","system_id":"levelo_inurba_marseille","lat":43.28039,"lon":5.369297,"is_reserved":false,"is_disabled":false,"rental_uris":{"android":"levelo://app?vid=cb7ea436-5840-49af-870a-783c3cc80b38","ios":"levelo://app?vid=cb7ea436-5840-49af-870a-783c3cc80b38"},"vehicle_type_id":"4","last_reported":1686946021,"current_range_meters":16800,"station_id":"ce4bha12rcd13ifvqef0","pricing_plan_id":"free"},{"bike_id":"aaad89c4-9a1c-46bf-a6c3-5ab3b0a331f0","system_id":"levelo_inurba_marseille","lat":43.283583,"lon":5.386407,"is_reserved":false,"is_disabled":false,"rental_uris":{"android":"levelo://app?vid=aaad89c4-9a1c-46bf-a6c3-5ab3b0a331f0","ios":"levelo://app?vid=aaad89c4-9a1c-46bf-a6c3-5ab3b0a331f0"},"vehicle_type_id":"4","last_reported":1686946021,"current_range_meters":29200,"station_id":"ce4bh492rcd13ifvqdvg","pricing_plan_id":"free"},{"bike_id":"15a5f027-1958-463c-8306-72e6060eec58","system_id":"levelo_inurba_marseille","lat":43.29038,"lon":5.39974,"is_reserved":false,"is_disabled":false,"rental_uris":{"android":"levelo://app?vid=15a5f027-1958-463c-8306-72e6060eec58","ios":"levelo://app?vid=15a5f027-1958-463c-8306-72e6060eec58"},"vehicle_type_id":"4","last_reported":1686946021,"current_range_meters":0,"station_id":"ce4bh392rcd13ifvqdm0","pricing_plan_id":"free"},{"bike_id":"f2cc7047-b9a7-46b8-a7ab-7405466122ec","system_id":"levelo_inurba_marseille","lat":43.28104,"lon":5.37836,"is_reserved":false,"is_disabled":false,"rental_uris":{"android":"levelo://app?vid=f2cc7047-b9a7-46b8-a7ab-7405466122ec","ios":"levelo://app?vid=f2cc7047-b9a7-46b8-a7ab-7405466122ec"},"vehicle_type_id":"4","last_reported":1686946021,"current_range_meters":6800,"station_id":"ce4bha12rcd13ifvqee0","pricing_plan_id":"free"},{"bike_id":"8648750d-8cd6-4975-a2db-7ed3156d5afb","system_id":"levelo_inurba_marseille","lat":43.296263,"lon":5.40601,"is_reserved":false,"is_disabled":false,"rental_uris":{"android":"levelo://app?vid=8648750d-8cd6-4975-a2db-7ed3156d5afb","ios":"levelo://app?vid=8648750d-8cd6-4975-a2db-7ed3156d5afb"},"vehicle_type_id":"4","last_reported":1686946021,"current_range_meters":8000,"station_id":"ce4bh0h2rcd13ifvqd60","pricing_plan_id":"free"},{"bike_id":"9dbae541-f064-488b-a98b-fd7ceb77cc79","system_id":"levelo_inurba_marseille","lat":43.281044,"lon":5.378308,"is_reserved":false,"is_disabled":false,"rental_uris":{"android":"levelo://app?vid=9dbae541-f064-488b-a98b-fd7ceb77cc79","ios":"levelo://app?vid=9dbae541-f064-488b-a98b-fd7ceb77cc79"},"vehicle_type_id":"4","last_reported":1686946021,"current_range_meters":16400,"station_id":"ce4bha12rcd13ifvqee0","pricing_plan_id":"free"},{"bike_id":"09235fce-2cb2-4f5f-8bca-26f557bd52d0","system_id":"levelo_inurba_marseille","lat":43.28118,"lon":5.38201,"is_reserved":false,"is_disabled":false,"rental_uris":{"android":"levelo://app?vid=09235fce-2cb2-4f5f-8bca-26f557bd52d0","ios":"levelo://app?vid=09235fce-2cb2-4f5f-8bca-26f557bd52d0"},"vehicle_type_id":"4","last_reported":1686946021,"current_range_meters":0,"station_id":"ce4bh412rcd13ifvqdr0","pricing_plan_id":"free"},{"bike_id":"440c76dd-40b3-481d-a45f-e9f18c03db91","system_id":"levelo_inurba_marseille","lat":43.287154,"lon":5.399979,"is_reserved":false,"is_disabled":false,"rental_uris":{"android":"levelo://app?vid=440c76dd-40b3-481d-a45f-e9f18c03db91","ios":"levelo://app?vid=440c76dd-40b3-481d-a45f-e9f18c03db91"},"vehicle_type_id":"4","last_reported":1686946021,"current_range_meters":29600,"station_id":"ce4bho92rcd13ifvqh3g","pricing_plan_id":"free"},{"bike_id":"e80cbbba-d7f8-4fb4-a69c-7c0d3f6ffad3","system_id":"levelo_inurba_marseille","lat":43.292569,"lon":5.409107,"is_reserved":false,"is_disabled":false,"rental_uris":{"android":"levelo://app?vid=e80cbbba-d7f8-4fb4-a69c-7c0d3f6ffad3","ios":"levelo://app?vid=e80cbbba-d7f8-4fb4-a69c-7c0d3f6ffad3"},"vehicle_type_id":"4","last_reported":1686946021,"current_range_meters":10000,"station_id":"ce4bh192rcd13ifvqdc0","pricing_plan_id":"free"},{"bike_id":"db88f36f-bfce-455b-bb75-191403b0ff9b","system_id":"levelo_inurba_marseille","lat":43.292569,"lon":5.409107,"is_reserved":false,"is_disabled":false,"rental_uris":{"android":"levelo://app?vid=db88f36f-bfce-455b-bb75-191403b0ff9b","ios":"levelo://app?vid=db88f36f-bfce-455b-bb75-191403b0ff9b"},"vehicle_type_id":"4","last_reported":1686946021,"current_range_meters":16800,"station_id":"ce4bh192rcd13ifvqdc0","pricing_plan_id":"free"},{"bike_id":"a0a1ea6f-9510-45ca-a5a6-583d5a6d5d6c","system_id":"levelo_inurba_marseille","lat":43.27621,"lon":5.36113,"is_reserved":false,"is_disabled":false,"rental_uris":{"android":"levelo://app?vid=a0a1ea6f-9510-45ca-a5a6-583d5a6d5d6c","ios":"levelo://app?vid=a0a1ea6f-9510-45ca-a5a6-583d5a6d5d6c"},"vehicle_type_id":"4","last_reported":1686946021,"current_range_meters":26800,"station_id":"ce4bgj92rcd13ifvqbe0","pricing_plan_id":"free"},{"bike_id":"ff645af7-8761-44d6-9eb0-aba80eed23b5","system_id":"levelo_inurba_marseille","lat":43.325233,"lon":5.414318,"is_reserved":false,"is_disabled":false,"rental_uris":{"android":"levelo://app?vid=ff645af7-8761-44d6-9eb0-aba80eed23b5","ios":"levelo://app?vid=ff645af7-8761-44d6-9eb0-aba80eed23b5"},"vehicle_type_id":"4","last_reported":1686946021,"current_range_meters":12800,"station_id":"ce4bhq12rcd13ifvqhhg","pricing_plan_id":"free"},{"bike_id":"c363b0d2-a311-4858-838c-1a8518571fc1","system_id":"levelo_inurba_marseille","lat":43.27618,"lon":5.3611,"is_reserved":false,"is_disabled":false,"rental_uris":{"android":"levelo://app?vid=c363b0d2-a311-4858-838c-1a8518571fc1","ios":"levelo://app?vid=c363b0d2-a311-4858-838c-1a8518571fc1"},"vehicle_type_id":"4","last_reported":1686946021,"current_range_meters":1200,"station_id":"ce4bgj92rcd13ifvqbe0","pricing_plan_id":"free"},{"bike_id":"05611bd1-a7eb-4f5e-a060-6d2ad3d41ed2","system_id":"levelo_inurba_marseille","lat":43.27614,"lon":5.36111,"is_reserved":false,"is_disabled":false,"rental_uris":{"android":"levelo://app?vid=05611bd1-a7eb-4f5e-a060-6d2ad3d41ed2","ios":"levelo://app?vid=05611bd1-a7eb-4f5e-a060-6d2ad3d41ed2"},"vehicle_type_id":"4","last_reported":1686946021,"current_range_meters":18400,"station_id":"ce4bgj92rcd13ifvqbe0","pricing_plan_id":"free"},{"bike_id":"fd506b23-b2c4-4412-bb6f-025b6794e343","system_id":"levelo_inurba_marseille","lat":43.280784,"lon":5.396622,"is_reserved":false,"is_disabled":false,"rental_uris":{"android":"levelo://app?vid=fd506b23-b2c4-4412-bb6f-025b6794e343","ios":"levelo://app?vid=fd506b23-b2c4-4412-bb6f-025b6794e343"},"vehicle_type_id":"4","last_reported":1686946021,"current_range_meters":11200,"station_id":"ce4bho12rcd13ifvqh2g","pricing_plan_id":"free"},{"bike_id":"f7d9f712-bbd9-495f-a8cd-04412595407a","system_id":"levelo_inurba_marseille","lat":43.3035,"lon":5.41879,"is_reserved":false,"is_disabled":false,"rental_uris":{"android":"levelo://app?vid=f7d9f712-bbd9-495f-a8cd-04412595407a","ios":"levelo://app?vid=f7d9f712-bbd9-495f-a8cd-04412595407a"},"vehicle_type_id":"4","last_reported":1686946021,"current_range_meters":26400,"station_id":"","pricing_plan_id":"free"},{"bike_id":"83fd3fb8-c3ef-495e-b850-53b9dac0f1d3","system_id":"levelo_inurba_marseille","lat":43.278399,"lon":5.392139,"is_reserved":false,"is_disabled":false,"rental_uris":{"android":"levelo://app?vid=83fd3fb8-c3ef-495e-b850-53b9dac0f1d3","ios":"levelo://app?vid=83fd3fb8-c3ef-495e-b850-53b9dac0f1d3"},"vehicle_type_id":"4","last_reported":1686946021,"current_range_meters":27200,"station_id":"ce4bhjp2rcd13ifvqga0","pricing_plan_id":"free"},{"bike_id":"2253f2d3-425c-46b1-a560-0b821b62e0b0","system_id":"levelo_inurba_marseille","lat":43.278401,"lon":5.392152,"is_reserved":false,"is_disabled":false,"rental_uris":{"android":"levelo://app?vid=2253f2d3-425c-46b1-a560-0b821b62e0b0","ios":"levelo://app?vid=2253f2d3-425c-46b1-a560-0b821b62e0b0"},"vehicle_type_id":"4","last_reported":1686946021,"current_range_meters":9200,"station_id":"ce4bhjp2rcd13ifvqga0","pricing_plan_id":"free"},{"bike_id":"381c6f25-c7b9-447c-aec6-a5592aac017e","system_id":"levelo_inurba_marseille","lat":43.278399,"lon":5.392139,"is_reserved":false,"is_disabled":false,"rental_uris":{"android":"levelo://app?vid=381c6f25-c7b9-447c-aec6-a5592aac017e","ios":"levelo://app?vid=381c6f25-c7b9-447c-aec6-a5592aac017e"},"vehicle_type_id":"4","last_reported":1686946021,"current_range_meters":30400,"station_id":"ce4bhjp2rcd13ifvqga0","pricing_plan_id":"free"},{"bike_id":"8053fe6a-893c-43a2-a961-687f372fa40a","system_id":"levelo_inurba_marseille","lat":43.278401,"lon":5.392152,"is_reserved":false,"is_disabled":false,"rental_uris":{"android":"levelo://app?vid=8053fe6a-893c-43a2-a961-687f372fa40a","ios":"levelo://app?vid=8053fe6a-893c-43a2-a961-687f372fa40a"},"vehicle_type_id":"4","last_reported":1686946021,"current_range_meters":30400,"station_id":"ce4bhjp2rcd13ifvqga0","pricing_plan_id":"free"},{"bike_id":"13a33466-6d74-4250-91ee-2aed8cedf27c","system_id":"levelo_inurba_marseille","lat":43.273613,"lon":5.362705,"is_reserved":false,"is_disabled":false,"rental_uris":{"android":"levelo://app?vid=13a33466-6d74-4250-91ee-2aed8cedf27c","ios":"levelo://app?vid=13a33466-6d74-4250-91ee-2aed8cedf27c"},"vehicle_type_id":"4","last_reported":1686946021,"current_range_meters":800,"station_id":"ce4bhbh2rcd13ifvqeo0","pricing_plan_id":"free"},{"bike_id":"2414fc79-b191-4872-b84b-5f27051218a6","system_id":"levelo_inurba_marseille","lat":43.33612,"lon":5.410321,"is_reserved":false,"is_disabled":false,"rental_uris":{"android":"levelo://app?vid=2414fc79-b191-4872-b84b-5f27051218a6","ios":"levelo://app?vid=2414fc79-b191-4872-b84b-5f27051218a6"},"vehicle_type_id":"4","last_reported":1686946021,"current_range_meters":6000,"station_id":"ce4bhqh2rcd13ifvqhmg","pricing_plan_id":"free"},{"bike_id":"c9a58cb1-73dd-4294-8881-af8c21e92dd4","system_id":"levelo_inurba_marseille","lat":43.275625,"lon":5.384392,"is_reserved":false,"is_disabled":false,"rental_uris":{"android":"levelo://app?vid=c9a58cb1-73dd-4294-8881-af8c21e92dd4","ios":"levelo://app?vid=c9a58cb1-73dd-4294-8881-af8c21e92dd4"},"vehicle_type_id":"4","last_reported":1686946021,"current_range_meters":22400,"station_id":"ce4bhh92rcd13ifvqfi0","pricing_plan_id":"free"},{"bike_id":"20079715-981a-4a0e-8069-04f904ce0f73","system_id":"levelo_inurba_marseille","lat":43.317121,"lon":5.423936,"is_reserved":false,"is_disabled":false,"rental_uris":{"android":"levelo://app?vid=20079715-981a-4a0e-8069-04f904ce0f73","ios":"levelo://app?vid=20079715-981a-4a0e-8069-04f904ce0f73"},"vehicle_type_id":"4","last_reported":1686946021,"current_range_meters":17200,"station_id":"ce4bhp92rcd13ifvqhbg","pricing_plan_id":"free"},{"bike_id":"f82c4e0b-ce86-4de4-962b-f266d6ba506e","system_id":"levelo_inurba_marseille","lat":43.273125,"lon":5.390731,"is_reserved":false,"is_disabled":false,"rental_uris":{"android":"levelo://app?vid=f82c4e0b-ce86-4de4-962b-f266d6ba506e","ios":"levelo://app?vid=f82c4e0b-ce86-4de4-962b-f266d6ba506e"},"vehicle_type_id":"4","last_reported":1686946021,"current_range_meters":26800,"station_id":"ce4bhgp2rcd13ifvqfe0","pricing_plan_id":"free"},{"bike_id":"489ad442-b8a0-4584-9246-967d2a85f3ba","system_id":"levelo_inurba_marseille","lat":43.272116,"lon":5.391747,"is_reserved":false,"is_disabled":false,"rental_uris":{"android":"levelo://app?vid=489ad442-b8a0-4584-9246-967d2a85f3ba","ios":"levelo://app?vid=489ad442-b8a0-4584-9246-967d2a85f3ba"},"vehicle_type_id":"4","last_reported":1686946021,"current_range_meters":24800,"station_id":"ce4bhhp2rcd13ifvqfm0","pricing_plan_id":"free"},{"bike_id":"76b6101a-ca2d-4cf1-a3fe-2e7aecb843f2","system_id":"levelo_inurba_marseille","lat":43.26691,"lon":5.38276,"is_reserved":false,"is_disabled":false,"rental_uris":{"android":"levelo://app?vid=76b6101a-ca2d-4cf1-a3fe-2e7aecb843f2","ios":"levelo://app?vid=76b6101a-ca2d-4cf1-a3fe-2e7aecb843f2"},"vehicle_type_id":"4","last_reported":1686946021,"current_range_meters":0,"station_id":"ce4bhg92rcd13ifvqf90","pricing_plan_id":"free"},{"bike_id":"67799e50-92fe-438a-a60f-083622f35ac7","system_id":"levelo_inurba_marseille","lat":43.2669,"lon":5.38278,"is_reserved":false,"is_disabled":false,"rental_uris":{"android":"levelo://app?vid=67799e50-92fe-438a-a60f-083622f35ac7","ios":"levelo://app?vid=67799e50-92fe-438a-a60f-083622f35ac7"},"vehicle_type_id":"4","last_reported":1686946021,"current_range_meters":21600,"station_id":"ce4bhg92rcd13ifvqf90","pricing_plan_id":"free"},{"bike_id":"bac8311f-df6e-4238-a48d-8802458ec24b","system_id":"levelo_inurba_marseille","lat":43.26687,"lon":5.38272,"is_reserved":false,"is_disabled":false,"rental_uris":{"android":"levelo://app?vid=bac8311f-df6e-4238-a48d-8802458ec24b","ios":"levelo://app?vid=bac8311f-df6e-4238-a48d-8802458ec24b"},"vehicle_type_id":"4","last_reported":1686946021,"current_range_meters":3600,"station_id":"ce4bhg92rcd13ifvqf90","pricing_plan_id":"free"},{"bike_id":"f99fd54c-4e12-4eee-8394-00b6c5a087ff","system_id":"levelo_inurba_marseille","lat":43.26681,"lon":5.382694,"is_reserved":false,"is_disabled":false,"rental_uris":{"android":"levelo://app?vid=f99fd54c-4e12-4eee-8394-00b6c5a087ff","ios":"levelo://app?vid=f99fd54c-4e12-4eee-8394-00b6c5a087ff"},"vehicle_type_id":"4","last_reported":1686946021,"current_range_meters":0,"station_id":"ce4bhg92rcd13ifvqf90","pricing_plan_id":"free"},{"bike_id":"f9faa961-245b-46e7-90ec-88b1e3973349","system_id":"levelo_inurba_marseille","lat":43.26684,"lon":5.3827,"is_reserved":false,"is_disabled":false,"rental_uris":{"android":"levelo://app?vid=f9faa961-245b-46e7-90ec-88b1e3973349","ios":"levelo://app?vid=f9faa961-245b-46e7-90ec-88b1e3973349"},"vehicle_type_id":"4","last_reported":1686946021,"current_range_meters":24400,"station_id":"ce4bhg92rcd13ifvqf90","pricing_plan_id":"free"},{"bike_id":"08ef1fb7-7b5e-4fd7-84db-b6da78b62b54","system_id":"levelo_inurba_marseille","lat":43.26681,"lon":5.382694,"is_reserved":false,"is_disabled":false,"rental_uris":{"android":"levelo://app?vid=08ef1fb7-7b5e-4fd7-84db-b6da78b62b54","ios":"levelo://app?vid=08ef1fb7-7b5e-4fd7-84db-b6da78b62b54"},"vehicle_type_id":"4","last_reported":1686946021,"current_range_meters":0,"station_id":"ce4bhg92rcd13ifvqf90","pricing_plan_id":"free"},{"bike_id":"cfba2fbe-9ed5-423f-b411-8d6c38451715","system_id":"levelo_inurba_marseille","lat":43.26681,"lon":5.382694,"is_reserved":false,"is_disabled":false,"rental_uris":{"android":"levelo://app?vid=cfba2fbe-9ed5-423f-b411-8d6c38451715","ios":"levelo://app?vid=cfba2fbe-9ed5-423f-b411-8d6c38451715"},"vehicle_type_id":"4","last_reported":1686946021,"current_range_meters":31200,"station_id":"ce4bhg92rcd13ifvqf90","pricing_plan_id":"free"},{"bike_id":"5f2b60e1-8e88-4a55-9684-630740a8d90e","system_id":"levelo_inurba_marseille","lat":43.26681,"lon":5.382694,"is_reserved":false,"is_disabled":false,"rental_uris":{"android":"levelo://app?vid=5f2b60e1-8e88-4a55-9684-630740a8d90e","ios":"levelo://app?vid=5f2b60e1-8e88-4a55-9684-630740a8d90e"},"vehicle_type_id":"4","last_reported":1686946021,"current_range_meters":31200,"station_id":"ce4bhg92rcd13ifvqf90","pricing_plan_id":"free"},{"bike_id":"38445e64-e141-45e6-b7ea-82173400ddd5","system_id":"levelo_inurba_marseille","lat":43.26681,"lon":5.382694,"is_reserved":false,"is_disabled":false,"rental_uris":{"android":"levelo://app?vid=38445e64-e141-45e6-b7ea-82173400ddd5","ios":"levelo://app?vid=38445e64-e141-45e6-b7ea-82173400ddd5"},"vehicle_type_id":"4","last_reported":1686946021,"current_range_meters":16400,"station_id":"ce4bhg92rcd13ifvqf90","pricing_plan_id":"free"},{"bike_id":"3c36f439-1a24-48f8-ab55-e1c693333192","system_id":"levelo_inurba_marseille","lat":43.26681,"lon":5.38268,"is_reserved":false,"is_disabled":false,"rental_uris":{"android":"levelo://app?vid=3c36f439-1a24-48f8-ab55-e1c693333192","ios":"levelo://app?vid=3c36f439-1a24-48f8-ab55-e1c693333192"},"vehicle_type_id":"4","last_reported":1686946021,"current_range_meters":1200,"station_id":"ce4bhg92rcd13ifvqf90","pricing_plan_id":"free"},{"bike_id":"74b870d7-dd65-49b2-af31-ed98dfb18a73","system_id":"levelo_inurba_marseille","lat":43.26681,"lon":5.382694,"is_reserved":false,"is_disabled":false,"rental_uris":{"android":"levelo://app?vid=74b870d7-dd65-49b2-af31-ed98dfb18a73","ios":"levelo://app?vid=74b870d7-dd65-49b2-af31-ed98dfb18a73"},"vehicle_type_id":"4","last_reported":1686946021,"current_range_meters":11600,"station_id":"ce4bhg92rcd13ifvqf90","pricing_plan_id":"free"},{"bike_id":"6275aaca-a354-407f-be44-df40f2969d44","system_id":"levelo_inurba_marseille","lat":43.26681,"lon":5.382694,"is_reserved":false,"is_disabled":false,"rental_uris":{"android":"levelo://app?vid=6275aaca-a354-407f-be44-df40f2969d44","ios":"levelo://app?vid=6275aaca-a354-407f-be44-df40f2969d44"},"vehicle_type_id":"4","last_reported":1686946021,"current_range_meters":31600,"station_id":"ce4bhg92rcd13ifvqf90","pricing_plan_id":"free"},{"bike_id":"4a168805-7483-42c5-897a-cf9790560101","system_id":"levelo_inurba_marseille","lat":43.26681,"lon":5.382694,"is_reserved":false,"is_disabled":false,"rental_uris":{"android":"levelo://app?vid=4a168805-7483-42c5-897a-cf9790560101","ios":"levelo://app?vid=4a168805-7483-42c5-897a-cf9790560101"},"vehicle_type_id":"4","last_reported":1686946021,"current_range_meters":4800,"station_id":"ce4bhg92rcd13ifvqf90","pricing_plan_id":"free"},{"bike_id":"0ffac27f-ccb5-4966-a6f4-845b0efa243e","system_id":"levelo_inurba_marseille","lat":43.2668,"lon":5.38274,"is_reserved":false,"is_disabled":false,"rental_uris":{"android":"levelo://app?vid=0ffac27f-ccb5-4966-a6f4-845b0efa243e","ios":"levelo://app?vid=0ffac27f-ccb5-4966-a6f4-845b0efa243e"},"vehicle_type_id":"4","last_reported":1686946021,"current_range_meters":10800,"station_id":"ce4bhg92rcd13ifvqf90","pricing_plan_id":"free"},{"bike_id":"7a68e153-9dde-4036-89e2-a88db74712b1","system_id":"levelo_inurba_marseille","lat":43.26679,"lon":5.3827,"is_reserved":false,"is_disabled":false,"rental_uris":{"android":"levelo://app?vid=7a68e153-9dde-4036-89e2-a88db74712b1","ios":"levelo://app?vid=7a68e153-9dde-4036-89e2-a88db74712b1"},"vehicle_type_id":"4","last_reported":1686946021,"current_range_meters":8800,"station_id":"ce4bhg92rcd13ifvqf90","pricing_plan_id":"free"},{"bike_id":"45fd3b3e-60cc-485d-9e79-70c5523b4573","system_id":"levelo_inurba_marseille","lat":43.26681,"lon":5.382694,"is_reserved":false,"is_disabled":false,"rental_uris":{"android":"levelo://app?vid=45fd3b3e-60cc-485d-9e79-70c5523b4573","ios":"levelo://app?vid=45fd3b3e-60cc-485d-9e79-70c5523b4573"},"vehicle_type_id":"4","last_reported":1686946021,"current_range_meters":18800,"station_id":"ce4bhg92rcd13ifvqf90","pricing_plan_id":"free"},{"bike_id":"131412c0-90cc-45ab-bdac-a4f2b3a3bc1e","system_id":"levelo_inurba_marseille","lat":43.26681,"lon":5.382694,"is_reserved":false,"is_disabled":false,"rental_uris":{"android":"levelo://app?vid=131412c0-90cc-45ab-bdac-a4f2b3a3bc1e","ios":"levelo://app?vid=131412c0-90cc-45ab-bdac-a4f2b3a3bc1e"},"vehicle_type_id":"4","last_reported":1686946021,"current_range_meters":30800,"station_id":"ce4bhg92rcd13ifvqf90","pricing_plan_id":"free"},{"bike_id":"9446e479-e5d9-464d-8d21-baad008609e7","system_id":"levelo_inurba_marseille","lat":43.26681,"lon":5.382694,"is_reserved":false,"is_disabled":false,"rental_uris":{"android":"levelo://app?vid=9446e479-e5d9-464d-8d21-baad008609e7","ios":"levelo://app?vid=9446e479-e5d9-464d-8d21-baad008609e7"},"vehicle_type_id":"4","last_reported":1686946021,"current_range_meters":3200,"station_id":"ce4bhg92rcd13ifvqf90","pricing_plan_id":"free"},{"bike_id":"79fd8285-dfe7-42ba-8765-1cae2e9cbee7","system_id":"levelo_inurba_marseille","lat":43.27996,"lon":5.416624,"is_reserved":false,"is_disabled":false,"rental_uris":{"android":"levelo://app?vid=79fd8285-dfe7-42ba-8765-1cae2e9cbee7","ios":"levelo://app?vid=79fd8285-dfe7-42ba-8765-1cae2e9cbee7"},"vehicle_type_id":"4","last_reported":1686946021,"current_range_meters":23600,"station_id":"ce4bho12rcd13ifvqh1g","pricing_plan_id":"free"},{"bike_id":"4b3dce55-38a8-4a43-b75a-ca766cb0737d","system_id":"levelo_inurba_marseille","lat":43.27996,"lon":5.416624,"is_reserved":false,"is_disabled":false,"rental_uris":{"android":"levelo://app?vid=4b3dce55-38a8-4a43-b75a-ca766cb0737d","ios":"levelo://app?vid=4b3dce55-38a8-4a43-b75a-ca766cb0737d"},"vehicle_type_id":"4","last_reported":1686946021,"current_range_meters":3600,"station_id":"ce4bho12rcd13ifvqh1g","pricing_plan_id":"free"},{"bike_id":"3987290e-fd4b-4f2b-81c0-57fca98f9cde","system_id":"levelo_inurba_marseille","lat":43.267966,"lon":5.393976,"is_reserved":false,"is_disabled":false,"rental_uris":{"android":"levelo://app?vid=3987290e-fd4b-4f2b-81c0-57fca98f9cde","ios":"levelo://app?vid=3987290e-fd4b-4f2b-81c0-57fca98f9cde"},"vehicle_type_id":"4","last_reported":1686946021,"current_range_meters":30400,"station_id":"ce4bhh12rcd13ifvqfg0","pricing_plan_id":"free"},{"bike_id":"ea3d545c-5c93-4cfc-8baa-0fcbd4bedd4f","system_id":"levelo_inurba_marseille","lat":43.26329,"lon":5.37828,"is_reserved":false,"is_disabled":false,"rental_uris":{"android":"levelo://app?vid=ea3d545c-5c93-4cfc-8baa-0fcbd4bedd4f","ios":"levelo://app?vid=ea3d545c-5c93-4cfc-8baa-0fcbd4bedd4f"},"vehicle_type_id":"4","last_reported":1686946021,"current_range_meters":2400,"station_id":"","pricing_plan_id":"free"},{"bike_id":"da435ee8-620d-461d-a1c6-31933af99e41","system_id":"levelo_inurba_marseille","lat":43.26194,"lon":5.37439,"is_reserved":false,"is_disabled":false,"rental_uris":{"android":"levelo://app?vid=da435ee8-620d-461d-a1c6-31933af99e41","ios":"levelo://app?vid=da435ee8-620d-461d-a1c6-31933af99e41"},"vehicle_type_id":"4","last_reported":1686946021,"current_range_meters":31200,"station_id":"ce4bhgp2rcd13ifvqfc0","pricing_plan_id":"free"},{"bike_id":"17a2b9e3-31a2-4e3c-a536-85cc0d488cb9","system_id":"levelo_inurba_marseille","lat":43.261782,"lon":5.374515,"is_reserved":false,"is_disabled":false,"rental_uris":{"android":"levelo://app?vid=17a2b9e3-31a2-4e3c-a536-85cc0d488cb9","ios":"levelo://app?vid=17a2b9e3-31a2-4e3c-a536-85cc0d488cb9"},"vehicle_type_id":"4","last_reported":1686946021,"current_range_meters":21600,"station_id":"ce4bhgp2rcd13ifvqfc0","pricing_plan_id":"free"},{"bike_id":"f1eac7d1-ea64-454f-9832-b3545f392542","system_id":"levelo_inurba_marseille","lat":43.261782,"lon":5.374515,"is_reserved":false,"is_disabled":false,"rental_uris":{"android":"levelo://app?vid=f1eac7d1-ea64-454f-9832-b3545f392542","ios":"levelo://app?vid=f1eac7d1-ea64-454f-9832-b3545f392542"},"vehicle_type_id":"4","last_reported":1686946021,"current_range_meters":1600,"station_id":"ce4bhgp2rcd13ifvqfc0","pricing_plan_id":"free"},{"bike_id":"ab2676ce-d711-43c0-97fd-c681e837a8c9","system_id":"levelo_inurba_marseille","lat":43.26191,"lon":5.3744,"is_reserved":false,"is_disabled":false,"rental_uris":{"android":"levelo://app?vid=ab2676ce-d711-43c0-97fd-c681e837a8c9","ios":"levelo://app?vid=ab2676ce-d711-43c0-97fd-c681e837a8c9"},"vehicle_type_id":"4","last_reported":1686946021,"current_range_meters":31200,"station_id":"ce4bhgp2rcd13ifvqfc0","pricing_plan_id":"free"},{"bike_id":"ca221fa1-2749-4c7c-b3ea-9efcb97c6bb0","system_id":"levelo_inurba_marseille","lat":43.261782,"lon":5.374515,"is_reserved":false,"is_disabled":false,"rental_uris":{"android":"levelo://app?vid=ca221fa1-2749-4c7c-b3ea-9efcb97c6bb0","ios":"levelo://app?vid=ca221fa1-2749-4c7c-b3ea-9efcb97c6bb0"},"vehicle_type_id":"4","last_reported":1686946021,"current_range_meters":17600,"station_id":"ce4bhgp2rcd13ifvqfc0","pricing_plan_id":"free"},{"bike_id":"5d020109-d82e-46c7-833d-91efcc493f2b","system_id":"levelo_inurba_marseille","lat":43.261782,"lon":5.374515,"is_reserved":false,"is_disabled":false,"rental_uris":{"android":"levelo://app?vid=5d020109-d82e-46c7-833d-91efcc493f2b","ios":"levelo://app?vid=5d020109-d82e-46c7-833d-91efcc493f2b"},"vehicle_type_id":"4","last_reported":1686946021,"current_range_meters":12000,"station_id":"ce4bhgp2rcd13ifvqfc0","pricing_plan_id":"free"},{"bike_id":"973e2679-d5b8-41f4-8b25-a2cd79a9df94","system_id":"levelo_inurba_marseille","lat":43.261782,"lon":5.374515,"is_reserved":false,"is_disabled":false,"rental_uris":{"android":"levelo://app?vid=973e2679-d5b8-41f4-8b25-a2cd79a9df94","ios":"levelo://app?vid=973e2679-d5b8-41f4-8b25-a2cd79a9df94"},"vehicle_type_id":"4","last_reported":1686946021,"current_range_meters":31200,"station_id":"ce4bhgp2rcd13ifvqfc0","pricing_plan_id":"free"},{"bike_id":"27e523ce-495a-4d97-bec0-aa141b9904ab","system_id":"levelo_inurba_marseille","lat":43.2619,"lon":5.37443,"is_reserved":false,"is_disabled":false,"rental_uris":{"android":"levelo://app?vid=27e523ce-495a-4d97-bec0-aa141b9904ab","ios":"levelo://app?vid=27e523ce-495a-4d97-bec0-aa141b9904ab"},"vehicle_type_id":"4","last_reported":1686946021,"current_range_meters":2000,"station_id":"ce4bhgp2rcd13ifvqfc0","pricing_plan_id":"free"},{"bike_id":"32ae8ee1-44a5-4693-a912-f9e1881222c7","system_id":"levelo_inurba_marseille","lat":43.26189,"lon":5.37437,"is_reserved":false,"is_disabled":false,"rental_uris":{"android":"levelo://app?vid=32ae8ee1-44a5-4693-a912-f9e1881222c7","ios":"levelo://app?vid=32ae8ee1-44a5-4693-a912-f9e1881222c7"},"vehicle_type_id":"4","last_reported":1686946021,"current_range_meters":30800,"station_id":"ce4bhgp2rcd13ifvqfc0","pricing_plan_id":"free"},{"bike_id":"5261a6d9-be5b-435a-a1e3-465f082f3151","system_id":"levelo_inurba_marseille","lat":43.26189,"lon":5.37441,"is_reserved":false,"is_disabled":false,"rental_uris":{"android":"levelo://app?vid=5261a6d9-be5b-435a-a1e3-465f082f3151","ios":"levelo://app?vid=5261a6d9-be5b-435a-a1e3-465f082f3151"},"vehicle_type_id":"4","last_reported":1686946021,"current_range_meters":20800,"station_id":"ce4bhgp2rcd13ifvqfc0","pricing_plan_id":"free"},{"bike_id":"ffde5c0a-63a5-49a3-a1e7-2ade6ce3d4bf","system_id":"levelo_inurba_marseille","lat":43.261782,"lon":5.374515,"is_reserved":false,"is_disabled":false,"rental_uris":{"android":"levelo://app?vid=ffde5c0a-63a5-49a3-a1e7-2ade6ce3d4bf","ios":"levelo://app?vid=ffde5c0a-63a5-49a3-a1e7-2ade6ce3d4bf"},"vehicle_type_id":"4","last_reported":1686946021,"current_range_meters":31200,"station_id":"ce4bhgp2rcd13ifvqfc0","pricing_plan_id":"free"},{"bike_id":"eab7a7ce-bf81-4aad-b8b2-b745f15df780","system_id":"levelo_inurba_marseille","lat":43.261889,"lon":5.374438,"is_reserved":false,"is_disabled":false,"rental_uris":{"android":"levelo://app?vid=eab7a7ce-bf81-4aad-b8b2-b745f15df780","ios":"levelo://app?vid=eab7a7ce-bf81-4aad-b8b2-b745f15df780"},"vehicle_type_id":"4","last_reported":1686946021,"current_range_meters":11600,"station_id":"ce4bhgp2rcd13ifvqfc0","pricing_plan_id":"free"},{"bike_id":"0011c012-5f08-4eff-8733-a240351feb84","system_id":"levelo_inurba_marseille","lat":43.26188,"lon":5.37432,"is_reserved":false,"is_disabled":false,"rental_uris":{"android":"levelo://app?vid=0011c012-5f08-4eff-8733-a240351feb84","ios":"levelo://app?vid=0011c012-5f08-4eff-8733-a240351feb84"},"vehicle_type_id":"4","last_reported":1686946021,"current_range_meters":19600,"station_id":"ce4bhgp2rcd13ifvqfc0","pricing_plan_id":"free"},{"bike_id":"81919206-172d-41f5-a9b4-53b5a3a57082","system_id":"levelo_inurba_marseille","lat":43.317104,"lon":5.436818,"is_reserved":false,"is_disabled":false,"rental_uris":{"android":"levelo://app?vid=81919206-172d-41f5-a9b4-53b5a3a57082","ios":"levelo://app?vid=81919206-172d-41f5-a9b4-53b5a3a57082"},"vehicle_type_id":"4","last_reported":1686946021,"current_range_meters":10000,"station_id":"ce4bhp92rcd13ifvqhcg","pricing_plan_id":"free"},{"bike_id":"cb2a0740-cc82-47d5-869b-902ad3c5b135","system_id":"levelo_inurba_marseille","lat":43.261782,"lon":5.374515,"is_reserved":false,"is_disabled":false,"rental_uris":{"android":"levelo://app?vid=cb2a0740-cc82-47d5-869b-902ad3c5b135","ios":"levelo://app?vid=cb2a0740-cc82-47d5-869b-902ad3c5b135"},"vehicle_type_id":"4","last_reported":1686946021,"current_range_meters":30800,"station_id":"ce4bhgp2rcd13ifvqfc0","pricing_plan_id":"free"},{"bike_id":"6f1b7a8e-a953-4b5d-8157-4a99f6086432","system_id":"levelo_inurba_marseille","lat":43.261782,"lon":5.374515,"is_reserved":false,"is_disabled":false,"rental_uris":{"android":"levelo://app?vid=6f1b7a8e-a953-4b5d-8157-4a99f6086432","ios":"levelo://app?vid=6f1b7a8e-a953-4b5d-8157-4a99f6086432"},"vehicle_type_id":"4","last_reported":1686946021,"current_range_meters":10400,"station_id":"ce4bhgp2rcd13ifvqfc0","pricing_plan_id":"free"},{"bike_id":"d4dd31c7-0ed8-48db-9484-218012c5c450","system_id":"levelo_inurba_marseille","lat":43.26187,"lon":5.37441,"is_reserved":false,"is_disabled":false,"rental_uris":{"android":"levelo://app?vid=d4dd31c7-0ed8-48db-9484-218012c5c450","ios":"levelo://app?vid=d4dd31c7-0ed8-48db-9484-218012c5c450"},"vehicle_type_id":"4","last_reported":1686946021,"current_range_meters":30800,"station_id":"ce4bhgp2rcd13ifvqfc0","pricing_plan_id":"free"},{"bike_id":"b21ec7e1-6d92-4379-91af-6972286152f7","system_id":"levelo_inurba_marseille","lat":43.261782,"lon":5.374515,"is_reserved":false,"is_disabled":false,"rental_uris":{"android":"levelo://app?vid=b21ec7e1-6d92-4379-91af-6972286152f7","ios":"levelo://app?vid=b21ec7e1-6d92-4379-91af-6972286152f7"},"vehicle_type_id":"4","last_reported":1686946021,"current_range_meters":14400,"station_id":"ce4bhgp2rcd13ifvqfc0","pricing_plan_id":"free"},{"bike_id":"efa31768-8978-4b83-a43c-a2064bef4549","system_id":"levelo_inurba_marseille","lat":43.26187,"lon":5.37442,"is_reserved":false,"is_disabled":false,"rental_uris":{"android":"levelo://app?vid=efa31768-8978-4b83-a43c-a2064bef4549","ios":"levelo://app?vid=efa31768-8978-4b83-a43c-a2064bef4549"},"vehicle_type_id":"4","last_reported":1686946021,"current_range_meters":31200,"station_id":"ce4bhgp2rcd13ifvqfc0","pricing_plan_id":"free"},{"bike_id":"258da0bb-74e0-42b1-876f-2d95b65da231","system_id":"levelo_inurba_marseille","lat":43.26187,"lon":5.37444,"is_reserved":false,"is_disabled":false,"rental_uris":{"android":"levelo://app?vid=258da0bb-74e0-42b1-876f-2d95b65da231","ios":"levelo://app?vid=258da0bb-74e0-42b1-876f-2d95b65da231"},"vehicle_type_id":"4","last_reported":1686946021,"current_range_meters":18000,"station_id":"ce4bhgp2rcd13ifvqfc0","pricing_plan_id":"free"},{"bike_id":"d8f0ac81-3597-4bb0-8c48-b36cb9978646","system_id":"levelo_inurba_marseille","lat":43.26186,"lon":5.37444,"is_reserved":false,"is_disabled":false,"rental_uris":{"android":"levelo://app?vid=d8f0ac81-3597-4bb0-8c48-b36cb9978646","ios":"levelo://app?vid=d8f0ac81-3597-4bb0-8c48-b36cb9978646"},"vehicle_type_id":"4","last_reported":1686946021,"current_range_meters":31200,"station_id":"ce4bhgp2rcd13ifvqfc0","pricing_plan_id":"free"},{"bike_id":"010e5509-af87-4434-8d70-109f255c2cf7","system_id":"levelo_inurba_marseille","lat":43.26186,"lon":5.37448,"is_reserved":false,"is_disabled":false,"rental_uris":{"android":"levelo://app?vid=010e5509-af87-4434-8d70-109f255c2cf7","ios":"levelo://app?vid=010e5509-af87-4434-8d70-109f255c2cf7"},"vehicle_type_id":"4","last_reported":1686946021,"current_range_meters":31200,"station_id":"ce4bhgp2rcd13ifvqfc0","pricing_plan_id":"free"},{"bike_id":"1c8733a1-ad21-4284-a65b-6f6b8dda187d","system_id":"levelo_inurba_marseille","lat":43.26185,"lon":5.37444,"is_reserved":false,"is_disabled":false,"rental_uris":{"android":"levelo://app?vid=1c8733a1-ad21-4284-a65b-6f6b8dda187d","ios":"levelo://app?vid=1c8733a1-ad21-4284-a65b-6f6b8dda187d"},"vehicle_type_id":"4","last_reported":1686946021,"current_range_meters":16000,"station_id":"ce4bhgp2rcd13ifvqfc0","pricing_plan_id":"free"},{"bike_id":"4a955f4b-a30e-4a3c-a05b-1f4d96370364","system_id":"levelo_inurba_marseille","lat":43.26184,"lon":5.37434,"is_reserved":false,"is_disabled":false,"rental_uris":{"android":"levelo://app?vid=4a955f4b-a30e-4a3c-a05b-1f4d96370364","ios":"levelo://app?vid=4a955f4b-a30e-4a3c-a05b-1f4d96370364"},"vehicle_type_id":"4","last_reported":1686946021,"current_range_meters":29200,"station_id":"ce4bhgp2rcd13ifvqfc0","pricing_plan_id":"free"},{"bike_id":"2b57445f-58fd-4b38-a842-6a5af8b134c7","system_id":"levelo_inurba_marseille","lat":43.26184,"lon":5.37441,"is_reserved":false,"is_disabled":false,"rental_uris":{"android":"levelo://app?vid=2b57445f-58fd-4b38-a842-6a5af8b134c7","ios":"levelo://app?vid=2b57445f-58fd-4b38-a842-6a5af8b134c7"},"vehicle_type_id":"4","last_reported":1686946021,"current_range_meters":31200,"station_id":"ce4bhgp2rcd13ifvqfc0","pricing_plan_id":"free"},{"bike_id":"46b5cd46-4134-4e98-ab68-506440339d37","system_id":"levelo_inurba_marseille","lat":43.26184,"lon":5.37446,"is_reserved":false,"is_disabled":false,"rental_uris":{"android":"levelo://app?vid=46b5cd46-4134-4e98-ab68-506440339d37","ios":"levelo://app?vid=46b5cd46-4134-4e98-ab68-506440339d37"},"vehicle_type_id":"4","last_reported":1686946021,"current_range_meters":28800,"station_id":"ce4bhgp2rcd13ifvqfc0","pricing_plan_id":"free"},{"bike_id":"8d5645b9-b578-4edb-ad06-2fd072378ef9","system_id":"levelo_inurba_marseille","lat":43.26183,"lon":5.37442,"is_reserved":false,"is_disabled":false,"rental_uris":{"android":"levelo://app?vid=8d5645b9-b578-4edb-ad06-2fd072378ef9","ios":"levelo://app?vid=8d5645b9-b578-4edb-ad06-2fd072378ef9"},"vehicle_type_id":"4","last_reported":1686946021,"current_range_meters":19600,"station_id":"","pricing_plan_id":"free"},{"bike_id":"f174c36b-b46d-4b4d-8e53-ea50f482a700","system_id":"levelo_inurba_marseille","lat":43.26183,"lon":5.37444,"is_reserved":false,"is_disabled":false,"rental_uris":{"android":"levelo://app?vid=f174c36b-b46d-4b4d-8e53-ea50f482a700","ios":"levelo://app?vid=f174c36b-b46d-4b4d-8e53-ea50f482a700"},"vehicle_type_id":"4","last_reported":1686946021,"current_range_meters":22400,"station_id":"ce4bhgp2rcd13ifvqfc0","pricing_plan_id":"free"},{"bike_id":"fb1cadf6-e78a-4918-9615-6fe5f91c7c9b","system_id":"levelo_inurba_marseille","lat":43.261782,"lon":5.374515,"is_reserved":false,"is_disabled":false,"rental_uris":{"android":"levelo://app?vid=fb1cadf6-e78a-4918-9615-6fe5f91c7c9b","ios":"levelo://app?vid=fb1cadf6-e78a-4918-9615-6fe5f91c7c9b"},"vehicle_type_id":"4","last_reported":1686946021,"current_range_meters":31200,"station_id":"ce4bhgp2rcd13ifvqfc0","pricing_plan_id":"free"},{"bike_id":"41ee0ba9-04c1-453c-bd70-60e266360227","system_id":"levelo_inurba_marseille","lat":43.26182,"lon":5.37445,"is_reserved":false,"is_disabled":false,"rental_uris":{"android":"levelo://app?vid=41ee0ba9-04c1-453c-bd70-60e266360227","ios":"levelo://app?vid=41ee0ba9-04c1-453c-bd70-60e266360227"},"vehicle_type_id":"4","last_reported":1686946021,"current_range_meters":0,"station_id":"ce4bhgp2rcd13ifvqfc0","pricing_plan_id":"free"},{"bike_id":"6d1534cd-8426-4f59-8814-affd2b327db3","system_id":"levelo_inurba_marseille","lat":43.26215,"lon":5.37934,"is_reserved":false,"is_disabled":false,"rental_uris":{"android":"levelo://app?vid=6d1534cd-8426-4f59-8814-affd2b327db3","ios":"levelo://app?vid=6d1534cd-8426-4f59-8814-affd2b327db3"},"vehicle_type_id":"4","last_reported":1686946021,"current_range_meters":19200,"station_id":"ce4bhjp2rcd13ifvqg90","pricing_plan_id":"free"},{"bike_id":"52aff03d-fd8d-409e-a466-e02f52a3179d","system_id":"levelo_inurba_marseille","lat":43.26212,"lon":5.37923,"is_reserved":false,"is_disabled":false,"rental_uris":{"android":"levelo://app?vid=52aff03d-fd8d-409e-a466-e02f52a3179d","ios":"levelo://app?vid=52aff03d-fd8d-409e-a466-e02f52a3179d"},"vehicle_type_id":"4","last_reported":1686946021,"current_range_meters":29600,"station_id":"ce4bhjp2rcd13ifvqg90","pricing_plan_id":"free"},{"bike_id":"de736fe5-a26a-49f8-9b10-7db3ba026eab","system_id":"levelo_inurba_marseille","lat":43.26212,"lon":5.37929,"is_reserved":false,"is_disabled":false,"rental_uris":{"android":"levelo://app?vid=de736fe5-a26a-49f8-9b10-7db3ba026eab","ios":"levelo://app?vid=de736fe5-a26a-49f8-9b10-7db3ba026eab"},"vehicle_type_id":"4","last_reported":1686946021,"current_range_meters":16800,"station_id":"ce4bhjp2rcd13ifvqg90","pricing_plan_id":"free"},{"bike_id":"e46ab0ec-88c0-43db-8bd4-4a4e071aa25d","system_id":"levelo_inurba_marseille","lat":43.2621,"lon":5.37923,"is_reserved":false,"is_disabled":false,"rental_uris":{"android":"levelo://app?vid=e46ab0ec-88c0-43db-8bd4-4a4e071aa25d","ios":"levelo://app?vid=e46ab0ec-88c0-43db-8bd4-4a4e071aa25d"},"vehicle_type_id":"4","last_reported":1686946021,"current_range_meters":16800,"station_id":"ce4bhjp2rcd13ifvqg90","pricing_plan_id":"free"},{"bike_id":"a96c582b-35b2-4d08-9a57-27767101d206","system_id":"levelo_inurba_marseille","lat":43.2621,"lon":5.37923,"is_reserved":false,"is_disabled":false,"rental_uris":{"android":"levelo://app?vid=a96c582b-35b2-4d08-9a57-27767101d206","ios":"levelo://app?vid=a96c582b-35b2-4d08-9a57-27767101d206"},"vehicle_type_id":"4","last_reported":1686946021,"current_range_meters":13600,"station_id":"ce4bhjp2rcd13ifvqg90","pricing_plan_id":"free"},{"bike_id":"c622a3d2-c0d0-4fed-a4ef-52de91303c57","system_id":"levelo_inurba_marseille","lat":43.2621,"lon":5.37926,"is_reserved":false,"is_disabled":false,"rental_uris":{"android":"levelo://app?vid=c622a3d2-c0d0-4fed-a4ef-52de91303c57","ios":"levelo://app?vid=c622a3d2-c0d0-4fed-a4ef-52de91303c57"},"vehicle_type_id":"4","last_reported":1686946021,"current_range_meters":6400,"station_id":"ce4bhjp2rcd13ifvqg90","pricing_plan_id":"free"},{"bike_id":"e49348f7-246e-4940-b3cf-2e0103a058dd","system_id":"levelo_inurba_marseille","lat":43.26209,"lon":5.37923,"is_reserved":false,"is_disabled":false,"rental_uris":{"android":"levelo://app?vid=e49348f7-246e-4940-b3cf-2e0103a058dd","ios":"levelo://app?vid=e49348f7-246e-4940-b3cf-2e0103a058dd"},"vehicle_type_id":"4","last_reported":1686946021,"current_range_meters":26800,"station_id":"ce4bhjp2rcd13ifvqg90","pricing_plan_id":"free"},{"bike_id":"cd6b46fc-36aa-450c-9866-15273c092f71","system_id":"levelo_inurba_marseille","lat":43.26202,"lon":5.379299,"is_reserved":false,"is_disabled":false,"rental_uris":{"android":"levelo://app?vid=cd6b46fc-36aa-450c-9866-15273c092f71","ios":"levelo://app?vid=cd6b46fc-36aa-450c-9866-15273c092f71"},"vehicle_type_id":"4","last_reported":1686946021,"current_range_meters":31200,"station_id":"ce4bhjp2rcd13ifvqg90","pricing_plan_id":"free"},{"bike_id":"b15816cc-e74c-4248-afc4-52d13181d055","system_id":"levelo_inurba_marseille","lat":43.26208,"lon":5.37929,"is_reserved":false,"is_disabled":false,"rental_uris":{"android":"levelo://app?vid=b15816cc-e74c-4248-afc4-52d13181d055","ios":"levelo://app?vid=b15816cc-e74c-4248-afc4-52d13181d055"},"vehicle_type_id":"4","last_reported":1686946021,"current_range_meters":1200,"station_id":"ce4bhjp2rcd13ifvqg90","pricing_plan_id":"free"},{"bike_id":"b4438a96-040d-4da3-8190-6e8427d21e32","system_id":"levelo_inurba_marseille","lat":43.26207,"lon":5.37929,"is_reserved":false,"is_disabled":false,"rental_uris":{"android":"levelo://app?vid=b4438a96-040d-4da3-8190-6e8427d21e32","ios":"levelo://app?vid=b4438a96-040d-4da3-8190-6e8427d21e32"},"vehicle_type_id":"4","last_reported":1686946021,"current_range_meters":9200,"station_id":"ce4bhjp2rcd13ifvqg90","pricing_plan_id":"free"},{"bike_id":"45d2bc06-0e14-48ef-af8a-2f65edf72e83","system_id":"levelo_inurba_marseille","lat":43.26206,"lon":5.37924,"is_reserved":false,"is_disabled":false,"rental_uris":{"android":"levelo://app?vid=45d2bc06-0e14-48ef-af8a-2f65edf72e83","ios":"levelo://app?vid=45d2bc06-0e14-48ef-af8a-2f65edf72e83"},"vehicle_type_id":"4","last_reported":1686946021,"current_range_meters":25600,"station_id":"ce4bhjp2rcd13ifvqg90","pricing_plan_id":"free"},{"bike_id":"9c45573d-7e2a-4e16-a7ba-cfe7257710aa","system_id":"levelo_inurba_marseille","lat":43.26206,"lon":5.37924,"is_reserved":false,"is_disabled":false,"rental_uris":{"android":"levelo://app?vid=9c45573d-7e2a-4e16-a7ba-cfe7257710aa","ios":"levelo://app?vid=9c45573d-7e2a-4e16-a7ba-cfe7257710aa"},"vehicle_type_id":"4","last_reported":1686946021,"current_range_meters":16800,"station_id":"ce4bhjp2rcd13ifvqg90","pricing_plan_id":"free"},{"bike_id":"bc611118-a5ff-447c-b17d-7f25d1124891","system_id":"levelo_inurba_marseille","lat":43.26202,"lon":5.379299,"is_reserved":false,"is_disabled":false,"rental_uris":{"android":"levelo://app?vid=bc611118-a5ff-447c-b17d-7f25d1124891","ios":"levelo://app?vid=bc611118-a5ff-447c-b17d-7f25d1124891"},"vehicle_type_id":"4","last_reported":1686946021,"current_range_meters":31200,"station_id":"ce4bhjp2rcd13ifvqg90","pricing_plan_id":"free"},{"bike_id":"eb1cfb6f-cd31-42bf-9e67-cb5eb5ecd102","system_id":"levelo_inurba_marseille","lat":43.26202,"lon":5.379299,"is_reserved":false,"is_disabled":false,"rental_uris":{"android":"levelo://app?vid=eb1cfb6f-cd31-42bf-9e67-cb5eb5ecd102","ios":"levelo://app?vid=eb1cfb6f-cd31-42bf-9e67-cb5eb5ecd102"},"vehicle_type_id":"4","last_reported":1686946021,"current_range_meters":18000,"station_id":"ce4bhjp2rcd13ifvqg90","pricing_plan_id":"free"},{"bike_id":"b52e203b-a3cd-44f4-97b3-a664966960fe","system_id":"levelo_inurba_marseille","lat":43.26202,"lon":5.379299,"is_reserved":false,"is_disabled":false,"rental_uris":{"android":"levelo://app?vid=b52e203b-a3cd-44f4-97b3-a664966960fe","ios":"levelo://app?vid=b52e203b-a3cd-44f4-97b3-a664966960fe"},"vehicle_type_id":"4","last_reported":1686946021,"current_range_meters":12000,"station_id":"ce4bhjp2rcd13ifvqg90","pricing_plan_id":"free"},{"bike_id":"2ed7b7c2-8a07-4615-90fa-91057de4c68c","system_id":"levelo_inurba_marseille","lat":43.26202,"lon":5.379299,"is_reserved":false,"is_disabled":false,"rental_uris":{"android":"levelo://app?vid=2ed7b7c2-8a07-4615-90fa-91057de4c68c","ios":"levelo://app?vid=2ed7b7c2-8a07-4615-90fa-91057de4c68c"},"vehicle_type_id":"4","last_reported":1686946021,"current_range_meters":31200,"station_id":"ce4bhjp2rcd13ifvqg90","pricing_plan_id":"free"},{"bike_id":"c8eb0559-fc74-4432-89ca-60edd849ba8a","system_id":"levelo_inurba_marseille","lat":43.26206,"lon":5.37933,"is_reserved":false,"is_disabled":false,"rental_uris":{"android":"levelo://app?vid=c8eb0559-fc74-4432-89ca-60edd849ba8a","ios":"levelo://app?vid=c8eb0559-fc74-4432-89ca-60edd849ba8a"},"vehicle_type_id":"4","last_reported":1686946021,"current_range_meters":16000,"station_id":"ce4bhjp2rcd13ifvqg90","pricing_plan_id":"free"},{"bike_id":"996200f4-0a4a-48d9-a4d2-3ebe89756dc9","system_id":"levelo_inurba_marseille","lat":43.26205,"lon":5.37926,"is_reserved":false,"is_disabled":false,"rental_uris":{"android":"levelo://app?vid=996200f4-0a4a-48d9-a4d2-3ebe89756dc9","ios":"levelo://app?vid=996200f4-0a4a-48d9-a4d2-3ebe89756dc9"},"vehicle_type_id":"4","last_reported":1686946021,"current_range_meters":9600,"station_id":"ce4bhjp2rcd13ifvqg90","pricing_plan_id":"free"},{"bike_id":"6c9b2446-e41d-4f27-86ef-6b3d46ce64d4","system_id":"levelo_inurba_marseille","lat":43.26205,"lon":5.37926,"is_reserved":false,"is_disabled":false,"rental_uris":{"android":"levelo://app?vid=6c9b2446-e41d-4f27-86ef-6b3d46ce64d4","ios":"levelo://app?vid=6c9b2446-e41d-4f27-86ef-6b3d46ce64d4"},"vehicle_type_id":"4","last_reported":1686946021,"current_range_meters":31200,"station_id":"ce4bhjp2rcd13ifvqg90","pricing_plan_id":"free"},{"bike_id":"9675edd2-e071-4555-8d25-6570bf35413c","system_id":"levelo_inurba_marseille","lat":43.26204,"lon":5.37923,"is_reserved":false,"is_disabled":false,"rental_uris":{"android":"levelo://app?vid=9675edd2-e071-4555-8d25-6570bf35413c","ios":"levelo://app?vid=9675edd2-e071-4555-8d25-6570bf35413c"},"vehicle_type_id":"4","last_reported":1686946021,"current_range_meters":11600,"station_id":"ce4bhjp2rcd13ifvqg90","pricing_plan_id":"free"},{"bike_id":"af87371b-abc9-4142-abfc-17410517b812","system_id":"levelo_inurba_marseille","lat":43.26204,"lon":5.37923,"is_reserved":false,"is_disabled":false,"rental_uris":{"android":"levelo://app?vid=af87371b-abc9-4142-abfc-17410517b812","ios":"levelo://app?vid=af87371b-abc9-4142-abfc-17410517b812"},"vehicle_type_id":"4","last_reported":1686946021,"current_range_meters":30000,"station_id":"ce4bhjp2rcd13ifvqg90","pricing_plan_id":"free"},{"bike_id":"78e411fd-aa0d-4f13-9a32-490d6825736e","system_id":"levelo_inurba_marseille","lat":43.26204,"lon":5.37924,"is_reserved":false,"is_disabled":false,"rental_uris":{"android":"levelo://app?vid=78e411fd-aa0d-4f13-9a32-490d6825736e","ios":"levelo://app?vid=78e411fd-aa0d-4f13-9a32-490d6825736e"},"vehicle_type_id":"4","last_reported":1686946021,"current_range_meters":27200,"station_id":"ce4bhjp2rcd13ifvqg90","pricing_plan_id":"free"},{"bike_id":"8769e94a-eea4-4902-8a5d-5c7daf170bd9","system_id":"levelo_inurba_marseille","lat":43.26204,"lon":5.37927,"is_reserved":false,"is_disabled":false,"rental_uris":{"android":"levelo://app?vid=8769e94a-eea4-4902-8a5d-5c7daf170bd9","ios":"levelo://app?vid=8769e94a-eea4-4902-8a5d-5c7daf170bd9"},"vehicle_type_id":"4","last_reported":1686946021,"current_range_meters":8000,"station_id":"ce4bhjp2rcd13ifvqg90","pricing_plan_id":"free"},{"bike_id":"022b8a81-e07e-4f94-bdf1-f40e4a6d68a6","system_id":"levelo_inurba_marseille","lat":43.26204,"lon":5.37927,"is_reserved":false,"is_disabled":false,"rental_uris":{"android":"levelo://app?vid=022b8a81-e07e-4f94-bdf1-f40e4a6d68a6","ios":"levelo://app?vid=022b8a81-e07e-4f94-bdf1-f40e4a6d68a6"},"vehicle_type_id":"4","last_reported":1686946021,"current_range_meters":4000,"station_id":"ce4bhjp2rcd13ifvqg90","pricing_plan_id":"free"},{"bike_id":"6e8d19a1-1e6b-44ed-ab7a-3d47883a6e8f","system_id":"levelo_inurba_marseille","lat":43.26204,"lon":5.37927,"is_reserved":false,"is_disabled":false,"rental_uris":{"android":"levelo://app?vid=6e8d19a1-1e6b-44ed-ab7a-3d47883a6e8f","ios":"levelo://app?vid=6e8d19a1-1e6b-44ed-ab7a-3d47883a6e8f"},"vehicle_type_id":"4","last_reported":1686946021,"current_range_meters":4800,"station_id":"ce4bhjp2rcd13ifvqg90","pricing_plan_id":"free"},{"bike_id":"daac0333-dbfc-48a5-8160-31833bb5fd7c","system_id":"levelo_inurba_marseille","lat":43.26204,"lon":5.37928,"is_reserved":false,"is_disabled":false,"rental_uris":{"android":"levelo://app?vid=daac0333-dbfc-48a5-8160-31833bb5fd7c","ios":"levelo://app?vid=daac0333-dbfc-48a5-8160-31833bb5fd7c"},"vehicle_type_id":"4","last_reported":1686946021,"current_range_meters":26800,"station_id":"ce4bhjp2rcd13ifvqg90","pricing_plan_id":"free"},{"bike_id":"ccec55c2-5e25-4a0d-ba89-4f1b42bdd650","system_id":"levelo_inurba_marseille","lat":43.26204,"lon":5.37929,"is_reserved":false,"is_disabled":false,"rental_uris":{"android":"levelo://app?vid=ccec55c2-5e25-4a0d-ba89-4f1b42bdd650","ios":"levelo://app?vid=ccec55c2-5e25-4a0d-ba89-4f1b42bdd650"},"vehicle_type_id":"4","last_reported":1686946021,"current_range_meters":2400,"station_id":"ce4bhjp2rcd13ifvqg90","pricing_plan_id":"free"},{"bike_id":"7cb31352-5dd2-4392-86bc-b23964a6b79a","system_id":"levelo_inurba_marseille","lat":43.26202,"lon":5.379299,"is_reserved":false,"is_disabled":false,"rental_uris":{"android":"levelo://app?vid=7cb31352-5dd2-4392-86bc-b23964a6b79a","ios":"levelo://app?vid=7cb31352-5dd2-4392-86bc-b23964a6b79a"},"vehicle_type_id":"4","last_reported":1686946021,"current_range_meters":31200,"station_id":"ce4bhjp2rcd13ifvqg90","pricing_plan_id":"free"},{"bike_id":"6fcd2756-ea57-4564-b4a6-a7b5b66c16b1","system_id":"levelo_inurba_marseille","lat":43.26204,"lon":5.3793,"is_reserved":false,"is_disabled":false,"rental_uris":{"android":"levelo://app?vid=6fcd2756-ea57-4564-b4a6-a7b5b66c16b1","ios":"levelo://app?vid=6fcd2756-ea57-4564-b4a6-a7b5b66c16b1"},"vehicle_type_id":"4","last_reported":1686946021,"current_range_meters":5600,"station_id":"ce4bhjp2rcd13ifvqg90","pricing_plan_id":"free"},{"bike_id":"1c50530b-b2e4-4b41-ae0c-282e246b3ee9","system_id":"levelo_inurba_marseille","lat":43.26203,"lon":5.37925,"is_reserved":false,"is_disabled":false,"rental_uris":{"android":"levelo://app?vid=1c50530b-b2e4-4b41-ae0c-282e246b3ee9","ios":"levelo://app?vid=1c50530b-b2e4-4b41-ae0c-282e246b3ee9"},"vehicle_type_id":"4","last_reported":1686946021,"current_range_meters":26000,"station_id":"ce4bhjp2rcd13ifvqg90","pricing_plan_id":"free"},{"bike_id":"0e60e233-b07f-48cd-a83e-99e3950ea7ae","system_id":"levelo_inurba_marseille","lat":43.26202,"lon":5.379299,"is_reserved":false,"is_disabled":false,"rental_uris":{"android":"levelo://app?vid=0e60e233-b07f-48cd-a83e-99e3950ea7ae","ios":"levelo://app?vid=0e60e233-b07f-48cd-a83e-99e3950ea7ae"},"vehicle_type_id":"4","last_reported":1686946021,"current_range_meters":21200,"station_id":"ce4bhjp2rcd13ifvqg90","pricing_plan_id":"free"},{"bike_id":"1314fd1f-e069-4617-a027-826e7dc8f158","system_id":"levelo_inurba_marseille","lat":43.26202,"lon":5.379299,"is_reserved":false,"is_disabled":false,"rental_uris":{"android":"levelo://app?vid=1314fd1f-e069-4617-a027-826e7dc8f158","ios":"levelo://app?vid=1314fd1f-e069-4617-a027-826e7dc8f158"},"vehicle_type_id":"4","last_reported":1686946021,"current_range_meters":17200,"station_id":"ce4bhjp2rcd13ifvqg90","pricing_plan_id":"free"},{"bike_id":"e1894fdf-472f-4f37-9d84-c3c5b6bf4554","system_id":"levelo_inurba_marseille","lat":43.26203,"lon":5.37935,"is_reserved":false,"is_disabled":false,"rental_uris":{"android":"levelo://app?vid=e1894fdf-472f-4f37-9d84-c3c5b6bf4554","ios":"levelo://app?vid=e1894fdf-472f-4f37-9d84-c3c5b6bf4554"},"vehicle_type_id":"4","last_reported":1686946021,"current_range_meters":16000,"station_id":"ce4bhjp2rcd13ifvqg90","pricing_plan_id":"free"},{"bike_id":"135bfdc9-da53-4544-b54c-560caf8e77d1","system_id":"levelo_inurba_marseille","lat":43.26201,"lon":5.37924,"is_reserved":false,"is_disabled":false,"rental_uris":{"android":"levelo://app?vid=135bfdc9-da53-4544-b54c-560caf8e77d1","ios":"levelo://app?vid=135bfdc9-da53-4544-b54c-560caf8e77d1"},"vehicle_type_id":"4","last_reported":1686946021,"current_range_meters":18400,"station_id":"ce4bhjp2rcd13ifvqg90","pricing_plan_id":"free"},{"bike_id":"b9765a6f-f3d2-4480-a13b-28e90420ca3e","system_id":"levelo_inurba_marseille","lat":43.26202,"lon":5.37933,"is_reserved":false,"is_disabled":false,"rental_uris":{"android":"levelo://app?vid=b9765a6f-f3d2-4480-a13b-28e90420ca3e","ios":"levelo://app?vid=b9765a6f-f3d2-4480-a13b-28e90420ca3e"},"vehicle_type_id":"4","last_reported":1686946021,"current_range_meters":31200,"station_id":"ce4bhjp2rcd13ifvqg90","pricing_plan_id":"free"},{"bike_id":"2a1b23f2-dabb-4511-ba16-c075d2484d5d","system_id":"levelo_inurba_marseille","lat":43.26202,"lon":5.379299,"is_reserved":false,"is_disabled":false,"rental_uris":{"android":"levelo://app?vid=2a1b23f2-dabb-4511-ba16-c075d2484d5d","ios":"levelo://app?vid=2a1b23f2-dabb-4511-ba16-c075d2484d5d"},"vehicle_type_id":"4","last_reported":1686946021,"current_range_meters":31200,"station_id":"ce4bhjp2rcd13ifvqg90","pricing_plan_id":"free"},{"bike_id":"02a89742-31a3-4ee4-a871-dc9c8ec9400b","system_id":"levelo_inurba_marseille","lat":43.26202,"lon":5.37935,"is_reserved":false,"is_disabled":false,"rental_uris":{"android":"levelo://app?vid=02a89742-31a3-4ee4-a871-dc9c8ec9400b","ios":"levelo://app?vid=02a89742-31a3-4ee4-a871-dc9c8ec9400b"},"vehicle_type_id":"4","last_reported":1686946021,"current_range_meters":9200,"station_id":"ce4bhjp2rcd13ifvqg90","pricing_plan_id":"free"},{"bike_id":"ef5be7a3-ecb1-4133-940e-31397df5ec24","system_id":"levelo_inurba_marseille","lat":43.26201,"lon":5.37931,"is_reserved":false,"is_disabled":false,"rental_uris":{"android":"levelo://app?vid=ef5be7a3-ecb1-4133-940e-31397df5ec24","ios":"levelo://app?vid=ef5be7a3-ecb1-4133-940e-31397df5ec24"},"vehicle_type_id":"4","last_reported":1686946021,"current_range_meters":5200,"station_id":"ce4bhjp2rcd13ifvqg90","pricing_plan_id":"free"},{"bike_id":"5ddb55f6-3e92-4f9a-8e95-4d5880813dc9","system_id":"levelo_inurba_marseille","lat":43.26201,"lon":5.37933,"is_reserved":false,"is_disabled":false,"rental_uris":{"android":"levelo://app?vid=5ddb55f6-3e92-4f9a-8e95-4d5880813dc9","ios":"levelo://app?vid=5ddb55f6-3e92-4f9a-8e95-4d5880813dc9"},"vehicle_type_id":"4","last_reported":1686946021,"current_range_meters":31200,"station_id":"ce4bhjp2rcd13ifvqg90","pricing_plan_id":"free"},{"bike_id":"fea41673-a085-442a-92a0-90fd61618e6f","system_id":"levelo_inurba_marseille","lat":43.26201,"lon":5.37933,"is_reserved":false,"is_disabled":false,"rental_uris":{"android":"levelo://app?vid=fea41673-a085-442a-92a0-90fd61618e6f","ios":"levelo://app?vid=fea41673-a085-442a-92a0-90fd61618e6f"},"vehicle_type_id":"4","last_reported":1686946021,"current_range_meters":31200,"station_id":"ce4bhjp2rcd13ifvqg90","pricing_plan_id":"free"},{"bike_id":"d968640c-41ff-48e7-b790-82f7b592cd6f","system_id":"levelo_inurba_marseille","lat":43.26202,"lon":5.379299,"is_reserved":false,"is_disabled":false,"rental_uris":{"android":"levelo://app?vid=d968640c-41ff-48e7-b790-82f7b592cd6f","ios":"levelo://app?vid=d968640c-41ff-48e7-b790-82f7b592cd6f"},"vehicle_type_id":"4","last_reported":1686946021,"current_range_meters":14800,"station_id":"ce4bhjp2rcd13ifvqg90","pricing_plan_id":"free"},{"bike_id":"c1852bfd-6840-44ca-b507-a10564223d89","system_id":"levelo_inurba_marseille","lat":43.26201,"lon":5.37936,"is_reserved":false,"is_disabled":false,"rental_uris":{"android":"levelo://app?vid=c1852bfd-6840-44ca-b507-a10564223d89","ios":"levelo://app?vid=c1852bfd-6840-44ca-b507-a10564223d89"},"vehicle_type_id":"4","last_reported":1686946021,"current_range_meters":31200,"station_id":"ce4bhjp2rcd13ifvqg90","pricing_plan_id":"free"},{"bike_id":"6867bdb6-91aa-49c3-b63c-816c0b897b04","system_id":"levelo_inurba_marseille","lat":43.262,"lon":5.3793,"is_reserved":false,"is_disabled":false,"rental_uris":{"android":"levelo://app?vid=6867bdb6-91aa-49c3-b63c-816c0b897b04","ios":"levelo://app?vid=6867bdb6-91aa-49c3-b63c-816c0b897b04"},"vehicle_type_id":"4","last_reported":1686946021,"current_range_meters":30800,"station_id":"ce4bhjp2rcd13ifvqg90","pricing_plan_id":"free"},{"bike_id":"d11b2b8a-fc3f-4a6e-a031-fca57f2a6dbe","system_id":"levelo_inurba_marseille","lat":43.26202,"lon":5.379299,"is_reserved":false,"is_disabled":false,"rental_uris":{"android":"levelo://app?vid=d11b2b8a-fc3f-4a6e-a031-fca57f2a6dbe","ios":"levelo://app?vid=d11b2b8a-fc3f-4a6e-a031-fca57f2a6dbe"},"vehicle_type_id":"4","last_reported":1686946021,"current_range_meters":26000,"station_id":"ce4bhjp2rcd13ifvqg90","pricing_plan_id":"free"},{"bike_id":"ab612d6f-c5bd-41f7-af93-6b463582f745","system_id":"levelo_inurba_marseille","lat":43.262,"lon":5.37932,"is_reserved":false,"is_disabled":false,"rental_uris":{"android":"levelo://app?vid=ab612d6f-c5bd-41f7-af93-6b463582f745","ios":"levelo://app?vid=ab612d6f-c5bd-41f7-af93-6b463582f745"},"vehicle_type_id":"4","last_reported":1686946021,"current_range_meters":13200,"station_id":"ce4bhjp2rcd13ifvqg90","pricing_plan_id":"free"},{"bike_id":"22bd9b3c-c84a-4ecb-9d3f-88b997ed2715","system_id":"levelo_inurba_marseille","lat":43.262,"lon":5.37932,"is_reserved":false,"is_disabled":false,"rental_uris":{"android":"levelo://app?vid=22bd9b3c-c84a-4ecb-9d3f-88b997ed2715","ios":"levelo://app?vid=22bd9b3c-c84a-4ecb-9d3f-88b997ed2715"},"vehicle_type_id":"4","last_reported":1686946021,"current_range_meters":22000,"station_id":"ce4bhjp2rcd13ifvqg90","pricing_plan_id":"free"},{"bike_id":"ffb9e2cd-e096-4cde-b0ee-feb81ef79d74","system_id":"levelo_inurba_marseille","lat":43.262,"lon":5.37933,"is_reserved":false,"is_disabled":false,"rental_uris":{"android":"levelo://app?vid=ffb9e2cd-e096-4cde-b0ee-feb81ef79d74","ios":"levelo://app?vid=ffb9e2cd-e096-4cde-b0ee-feb81ef79d74"},"vehicle_type_id":"4","last_reported":1686946021,"current_range_meters":9600,"station_id":"ce4bhjp2rcd13ifvqg90","pricing_plan_id":"free"},{"bike_id":"a43604cf-6338-465e-b30a-55c742f1264b","system_id":"levelo_inurba_marseille","lat":43.26202,"lon":5.379299,"is_reserved":false,"is_disabled":false,"rental_uris":{"android":"levelo://app?vid=a43604cf-6338-465e-b30a-55c742f1264b","ios":"levelo://app?vid=a43604cf-6338-465e-b30a-55c742f1264b"},"vehicle_type_id":"4","last_reported":1686946021,"current_range_meters":22000,"station_id":"ce4bhjp2rcd13ifvqg90","pricing_plan_id":"free"},{"bike_id":"e7c7d2ee-29f7-469c-bcea-af1164a0c4f4","system_id":"levelo_inurba_marseille","lat":43.26202,"lon":5.379299,"is_reserved":false,"is_disabled":false,"rental_uris":{"android":"levelo://app?vid=e7c7d2ee-29f7-469c-bcea-af1164a0c4f4","ios":"levelo://app?vid=e7c7d2ee-29f7-469c-bcea-af1164a0c4f4"},"vehicle_type_id":"4","last_reported":1686946021,"current_range_meters":29200,"station_id":"ce4bhjp2rcd13ifvqg90","pricing_plan_id":"free"},{"bike_id":"0dd31d74-bc15-450b-a75c-4e20bc6576f8","system_id":"levelo_inurba_marseille","lat":43.26199,"lon":5.37929,"is_reserved":false,"is_disabled":false,"rental_uris":{"android":"levelo://app?vid=0dd31d74-bc15-450b-a75c-4e20bc6576f8","ios":"levelo://app?vid=0dd31d74-bc15-450b-a75c-4e20bc6576f8"},"vehicle_type_id":"4","last_reported":1686946021,"current_range_meters":22400,"station_id":"ce4bhjp2rcd13ifvqg90","pricing_plan_id":"free"},{"bike_id":"e572aed1-71e6-49ea-a174-5691c7cd1da6","system_id":"levelo_inurba_marseille","lat":43.26202,"lon":5.379299,"is_reserved":false,"is_disabled":false,"rental_uris":{"android":"levelo://app?vid=e572aed1-71e6-49ea-a174-5691c7cd1da6","ios":"levelo://app?vid=e572aed1-71e6-49ea-a174-5691c7cd1da6"},"vehicle_type_id":"4","last_reported":1686946021,"current_range_meters":30800,"station_id":"ce4bhjp2rcd13ifvqg90","pricing_plan_id":"free"},{"bike_id":"6345dde2-8be5-4b14-b554-75b467131e9d","system_id":"levelo_inurba_marseille","lat":43.26202,"lon":5.379299,"is_reserved":false,"is_disabled":false,"rental_uris":{"android":"levelo://app?vid=6345dde2-8be5-4b14-b554-75b467131e9d","ios":"levelo://app?vid=6345dde2-8be5-4b14-b554-75b467131e9d"},"vehicle_type_id":"4","last_reported":1686946021,"current_range_meters":22400,"station_id":"ce4bhjp2rcd13ifvqg90","pricing_plan_id":"free"},{"bike_id":"31c5b254-f297-42e9-b3a2-5d9950d6898f","system_id":"levelo_inurba_marseille","lat":43.26197,"lon":5.37927,"is_reserved":false,"is_disabled":false,"rental_uris":{"android":"levelo://app?vid=31c5b254-f297-42e9-b3a2-5d9950d6898f","ios":"levelo://app?vid=31c5b254-f297-42e9-b3a2-5d9950d6898f"},"vehicle_type_id":"4","last_reported":1686946021,"current_range_meters":5600,"station_id":"ce4bhjp2rcd13ifvqg90","pricing_plan_id":"free"},{"bike_id":"1d6ad414-f440-435b-925f-80dabaa65f3a","system_id":"levelo_inurba_marseille","lat":43.271388,"lon":5.409269,"is_reserved":false,"is_disabled":false,"rental_uris":{"android":"levelo://app?vid=1d6ad414-f440-435b-925f-80dabaa65f3a","ios":"levelo://app?vid=1d6ad414-f440-435b-925f-80dabaa65f3a"},"vehicle_type_id":"4","last_reported":1686946021,"current_range_meters":2000,"station_id":"ce4bhl12rcd13ifvqgf0","pricing_plan_id":"free"},{"bike_id":"fcc791b7-d7d6-431e-9e36-c8438d7a6101","system_id":"levelo_inurba_marseille","lat":43.26202,"lon":5.379299,"is_reserved":false,"is_disabled":false,"rental_uris":{"android":"levelo://app?vid=fcc791b7-d7d6-431e-9e36-c8438d7a6101","ios":"levelo://app?vid=fcc791b7-d7d6-431e-9e36-c8438d7a6101"},"vehicle_type_id":"4","last_reported":1686946021,"current_range_meters":27200,"station_id":"ce4bhjp2rcd13ifvqg90","pricing_plan_id":"free"},{"bike_id":"5ac085d7-8649-4990-8085-b600b60eb0d3","system_id":"levelo_inurba_marseille","lat":43.26197,"lon":5.37929,"is_reserved":false,"is_disabled":false,"rental_uris":{"android":"levelo://app?vid=5ac085d7-8649-4990-8085-b600b60eb0d3","ios":"levelo://app?vid=5ac085d7-8649-4990-8085-b600b60eb0d3"},"vehicle_type_id":"4","last_reported":1686946021,"current_range_meters":19600,"station_id":"ce4bhjp2rcd13ifvqg90","pricing_plan_id":"free"},{"bike_id":"40a30b95-5688-45be-ac3d-11a6e4cadaac","system_id":"levelo_inurba_marseille","lat":43.26197,"lon":5.3793,"is_reserved":false,"is_disabled":false,"rental_uris":{"android":"levelo://app?vid=40a30b95-5688-45be-ac3d-11a6e4cadaac","ios":"levelo://app?vid=40a30b95-5688-45be-ac3d-11a6e4cadaac"},"vehicle_type_id":"4","last_reported":1686946021,"current_range_meters":31200,"station_id":"ce4bhjp2rcd13ifvqg90","pricing_plan_id":"free"},{"bike_id":"68339086-9a1e-40e3-b666-8b288940409f","system_id":"levelo_inurba_marseille","lat":43.26197,"lon":5.37933,"is_reserved":false,"is_disabled":false,"rental_uris":{"android":"levelo://app?vid=68339086-9a1e-40e3-b666-8b288940409f","ios":"levelo://app?vid=68339086-9a1e-40e3-b666-8b288940409f"},"vehicle_type_id":"4","last_reported":1686946021,"current_range_meters":19200,"station_id":"ce4bhjp2rcd13ifvqg90","pricing_plan_id":"free"},{"bike_id":"02704997-86cc-46e2-8fe6-b9c9aa5373ce","system_id":"levelo_inurba_marseille","lat":43.26194,"lon":5.37931,"is_reserved":false,"is_disabled":false,"rental_uris":{"android":"levelo://app?vid=02704997-86cc-46e2-8fe6-b9c9aa5373ce","ios":"levelo://app?vid=02704997-86cc-46e2-8fe6-b9c9aa5373ce"},"vehicle_type_id":"4","last_reported":1686946021,"current_range_meters":16000,"station_id":"ce4bhjp2rcd13ifvqg90","pricing_plan_id":"free"},{"bike_id":"a198524d-5d0a-4964-8c83-d650548fb399","system_id":"levelo_inurba_marseille","lat":43.267959,"lon":5.402685,"is_reserved":false,"is_disabled":false,"rental_uris":{"android":"levelo://app?vid=a198524d-5d0a-4964-8c83-d650548fb399","ios":"levelo://app?vid=a198524d-5d0a-4964-8c83-d650548fb399"},"vehicle_type_id":"4","last_reported":1686946021,"current_range_meters":10000,"station_id":"ce501612rcd8frsf0b60","pricing_plan_id":"free"},{"bike_id":"4aaf331a-85d7-4520-a615-51b37d2e24b9","system_id":"levelo_inurba_marseille","lat":43.267959,"lon":5.402687,"is_reserved":false,"is_disabled":false,"rental_uris":{"android":"levelo://app?vid=4aaf331a-85d7-4520-a615-51b37d2e24b9","ios":"levelo://app?vid=4aaf331a-85d7-4520-a615-51b37d2e24b9"},"vehicle_type_id":"4","last_reported":1686946021,"current_range_meters":4000,"station_id":"ce501612rcd8frsf0b60","pricing_plan_id":"free"},{"bike_id":"dfadc15f-38de-4781-b05c-e2fdb5882c11","system_id":"levelo_inurba_marseille","lat":43.267959,"lon":5.402687,"is_reserved":false,"is_disabled":false,"rental_uris":{"android":"levelo://app?vid=dfadc15f-38de-4781-b05c-e2fdb5882c11","ios":"levelo://app?vid=dfadc15f-38de-4781-b05c-e2fdb5882c11"},"vehicle_type_id":"4","last_reported":1686946021,"current_range_meters":26000,"station_id":"ce501612rcd8frsf0b60","pricing_plan_id":"free"},{"bike_id":"71fea6fb-52fc-48a5-a2d7-29dc72612712","system_id":"levelo_inurba_marseille","lat":43.267959,"lon":5.402687,"is_reserved":false,"is_disabled":false,"rental_uris":{"android":"levelo://app?vid=71fea6fb-52fc-48a5-a2d7-29dc72612712","ios":"levelo://app?vid=71fea6fb-52fc-48a5-a2d7-29dc72612712"},"vehicle_type_id":"4","last_reported":1686946021,"current_range_meters":2800,"station_id":"ce501612rcd8frsf0b60","pricing_plan_id":"free"},{"bike_id":"10444ba3-7f1f-4a97-868b-8addc5c9778d","system_id":"levelo_inurba_marseille","lat":43.243884,"lon":5.370737,"is_reserved":false,"is_disabled":false,"rental_uris":{"android":"levelo://app?vid=10444ba3-7f1f-4a97-868b-8addc5c9778d","ios":"levelo://app?vid=10444ba3-7f1f-4a97-868b-8addc5c9778d"},"vehicle_type_id":"4","last_reported":1686946021,"current_range_meters":14000,"station_id":"ce4bhhh2rcd13ifvqfk0","pricing_plan_id":"free"},{"bike_id":"93959831-27e0-41d6-b07c-4d9485ab4d93","system_id":"levelo_inurba_marseille","lat":43.298768,"lon":5.43643,"is_reserved":false,"is_disabled":false,"rental_uris":{"android":"levelo://app?vid=93959831-27e0-41d6-b07c-4d9485ab4d93","ios":"levelo://app?vid=93959831-27e0-41d6-b07c-4d9485ab4d93"},"vehicle_type_id":"4","last_reported":1686946021,"current_range_meters":24800,"station_id":"ce4bhpp2rcd13ifvqhfg","pricing_plan_id":"free"},{"bike_id":"66751729-f5ef-47d3-9dbd-baa1aa63ef8c","system_id":"levelo_inurba_marseille","lat":43.298768,"lon":5.43643,"is_reserved":false,"is_disabled":false,"rental_uris":{"android":"levelo://app?vid=66751729-f5ef-47d3-9dbd-baa1aa63ef8c","ios":"levelo://app?vid=66751729-f5ef-47d3-9dbd-baa1aa63ef8c"},"vehicle_type_id":"4","last_reported":1686946021,"current_range_meters":9200,"station_id":"ce4bhpp2rcd13ifvqhfg","pricing_plan_id":"free"},{"bike_id":"eff7ee77-40a3-49a2-a7bc-69cfb645b9b4","system_id":"levelo_inurba_marseille","lat":43.298768,"lon":5.43643,"is_reserved":false,"is_disabled":false,"rental_uris":{"android":"levelo://app?vid=eff7ee77-40a3-49a2-a7bc-69cfb645b9b4","ios":"levelo://app?vid=eff7ee77-40a3-49a2-a7bc-69cfb645b9b4"},"vehicle_type_id":"4","last_reported":1686946021,"current_range_meters":0,"station_id":"ce4bhpp2rcd13ifvqhfg","pricing_plan_id":"free"},{"bike_id":"ebb308d9-2dfe-4604-a00b-a7b23fe1cfad","system_id":"levelo_inurba_marseille","lat":43.260225,"lon":5.375455,"is_reserved":false,"is_disabled":false,"rental_uris":{"android":"levelo://app?vid=ebb308d9-2dfe-4604-a00b-a7b23fe1cfad","ios":"levelo://app?vid=ebb308d9-2dfe-4604-a00b-a7b23fe1cfad"},"vehicle_type_id":"4","last_reported":1686946021,"current_range_meters":25600,"station_id":"ce4bhgh2rcd13ifvqfa0","pricing_plan_id":"free"},{"bike_id":"432e6780-521e-4aef-821c-52a41e36791b","system_id":"levelo_inurba_marseille","lat":43.26037,"lon":5.37555,"is_reserved":false,"is_disabled":false,"rental_uris":{"android":"levelo://app?vid=432e6780-521e-4aef-821c-52a41e36791b","ios":"levelo://app?vid=432e6780-521e-4aef-821c-52a41e36791b"},"vehicle_type_id":"4","last_reported":1686946021,"current_range_meters":31200,"station_id":"ce4bhgh2rcd13ifvqfa0","pricing_plan_id":"free"},{"bike_id":"a1d2bb86-1603-4271-8da0-0d18461887c5","system_id":"levelo_inurba_marseille","lat":43.26035,"lon":5.3755,"is_reserved":false,"is_disabled":false,"rental_uris":{"android":"levelo://app?vid=a1d2bb86-1603-4271-8da0-0d18461887c5","ios":"levelo://app?vid=a1d2bb86-1603-4271-8da0-0d18461887c5"},"vehicle_type_id":"4","last_reported":1686946021,"current_range_meters":5200,"station_id":"ce4bhgh2rcd13ifvqfa0","pricing_plan_id":"free"},{"bike_id":"fc6f6dd1-5daa-490a-b3ad-4f064d9c1cfe","system_id":"levelo_inurba_marseille","lat":43.260225,"lon":5.375455,"is_reserved":false,"is_disabled":false,"rental_uris":{"android":"levelo://app?vid=fc6f6dd1-5daa-490a-b3ad-4f064d9c1cfe","ios":"levelo://app?vid=fc6f6dd1-5daa-490a-b3ad-4f064d9c1cfe"},"vehicle_type_id":"4","last_reported":1686946021,"current_range_meters":31200,"station_id":"ce4bhgh2rcd13ifvqfa0","pricing_plan_id":"free"},{"bike_id":"4df57491-8958-4e80-8bd4-9018284dee07","system_id":"levelo_inurba_marseille","lat":43.260325,"lon":5.375472,"is_reserved":false,"is_disabled":false,"rental_uris":{"android":"levelo://app?vid=4df57491-8958-4e80-8bd4-9018284dee07","ios":"levelo://app?vid=4df57491-8958-4e80-8bd4-9018284dee07"},"vehicle_type_id":"4","last_reported":1686946021,"current_range_meters":31200,"station_id":"ce4bhgh2rcd13ifvqfa0","pricing_plan_id":"free"},{"bike_id":"61c90903-f473-40c2-9527-2f7fc5497beb","system_id":"levelo_inurba_marseille","lat":43.26031,"lon":5.37546,"is_reserved":false,"is_disabled":false,"rental_uris":{"android":"levelo://app?vid=61c90903-f473-40c2-9527-2f7fc5497beb","ios":"levelo://app?vid=61c90903-f473-40c2-9527-2f7fc5497beb"},"vehicle_type_id":"4","last_reported":1686946021,"current_range_meters":0,"station_id":"ce4bhgh2rcd13ifvqfa0","pricing_plan_id":"free"},{"bike_id":"1dd85006-d1ab-4212-92a6-b74e4a195bbe","system_id":"levelo_inurba_marseille","lat":43.26031,"lon":5.37548,"is_reserved":false,"is_disabled":false,"rental_uris":{"android":"levelo://app?vid=1dd85006-d1ab-4212-92a6-b74e4a195bbe","ios":"levelo://app?vid=1dd85006-d1ab-4212-92a6-b74e4a195bbe"},"vehicle_type_id":"4","last_reported":1686946021,"current_range_meters":20000,"station_id":"ce4bhgh2rcd13ifvqfa0","pricing_plan_id":"free"},{"bike_id":"5e548f9c-38cb-44b7-a781-7c0ec4c97953","system_id":"levelo_inurba_marseille","lat":43.260225,"lon":5.375455,"is_reserved":false,"is_disabled":false,"rental_uris":{"android":"levelo://app?vid=5e548f9c-38cb-44b7-a781-7c0ec4c97953","ios":"levelo://app?vid=5e548f9c-38cb-44b7-a781-7c0ec4c97953"},"vehicle_type_id":"4","last_reported":1686946021,"current_range_meters":16800,"station_id":"ce4bhgh2rcd13ifvqfa0","pricing_plan_id":"free"},{"bike_id":"189b2466-8c1b-4c67-b840-24c1115e693d","system_id":"levelo_inurba_marseille","lat":43.260225,"lon":5.375455,"is_reserved":false,"is_disabled":false,"rental_uris":{"android":"levelo://app?vid=189b2466-8c1b-4c67-b840-24c1115e693d","ios":"levelo://app?vid=189b2466-8c1b-4c67-b840-24c1115e693d"},"vehicle_type_id":"4","last_reported":1686946021,"current_range_meters":31200,"station_id":"ce4bhgh2rcd13ifvqfa0","pricing_plan_id":"free"},