{"last_updated":1756314548,"ttl":60,"version":"2.2","data":{"bikes":[{"bike_id":"bc240479-409b-4d09-af0e-76795bfd1d7a","system_id":"levelo_inurba_marseille","lat":43.30254,"lon":5.40076,"is_reserved":false,"is_disabled":false,"rental_uris":{"android":"levelo://app?vid=bc240479-409b-4d09-af0e-76795bfd1d7a","ios":"levelo://app?vid=bc240479-409b-4d09-af0e-76795bfd1d7a"},"vehicle_type_id":"4","last_reported":1756314548,"current_range_meters":2800,"station_id":"ce4bgvh2rcd13ifvqcs0","pricing_plan_id":"cebpf4jnsgd1na2vs0mg"},{"bike_id":"c4c954b1-70fe-4237-b9f5-93a2010c8085","system_id":"levelo_inurba_marseille","lat":43.25003,"lon":5.38934,"is_reserved":false,"is_disabled":false,"rental_uris":{"android":"levelo://app?vid=c4c954b1-70fe-4237-b9f5-93a2010c8085","ios":"levelo://app?vid=c4c954b1-70fe-4237-b9f5-93a2010c8085"},"vehicle_type_id":"4","last_reported":1756314548,"current_range_meters":2800,"station_id":"ce4bhgp2rcd13ifvqfd0","pricing_plan_id":"cebpf4jnsgd1na2vs0mg"},{"bike_id":"2ed28f9d-5b7f-4eed-b00e-1cb5bb854f50","system_id":"levelo_inurba_marseille","lat":43.26022,"lon":5.3755,"is_reserved":false,"is_disabled":false,"rental_uris":{"android":"levelo://app?vid=2ed28f9d-5b7f-4eed-b00e-1cb5bb854f50","ios":"levelo://app?vid=2ed28f9d-5b7f-4eed-b00e-1cb5bb854f50"},"vehicle_type_id":"4","last_reported":1756314548,"current_range_meters":2800,"station_id":"ce4bhgh2rcd13ifvqfa0","pricing_plan_id":"cebpf4jnsgd1na2vs0mg"},{"bike_id":"469a35ea-0f70-40f9-ae21-7f8d16459773","system_id":"levelo_inurba_marseille","lat":43.26201,"lon":5.37399,"is_reserved":false,"is_disabled":false,"rental_uris":{"android":"levelo://app?vid=469a35ea-0f70-40f9-ae21-7f8d16459773","ios":"levelo://app?vid=469a35ea-0f70-40f9-ae21-7f8d16459773"},"vehicle_type_id":"4","last_reported":1756314548,"current_range_meters":2800,"station_id":"ce4bhgp2rcd13ifvqfc0","pricing_plan_id":"cebpf4jnsgd1na2vs0mg"},{"bike_id":"03be758f-3e6d-4c72-8876-95a4359600d6","system_id":"levelo_inurba_marseille","lat":43.33769,"lon":5.37491,"is_reserved":false,"is_disabled":false,"rental_uris":{"android":"levelo://app?vid=03be758f-3e6d-4c72-8876-95a4359600d6","ios":"levelo://app?vid=03be758f-3e6d-4c72-8876-95a4359600d6"},"vehicle_type_id":"4","last_reported":1756314548,"current_range_meters":2800,"station_id":"","pricing_plan_id":"cebpf4jnsgd1na2vs0mg"},{"bike_id":"236f1a17-bd84-4b8e-977f-7df7d8cf402c","system_id":"levelo_inurba_marseille","lat":43.307944,"lon":5.435226,"is_reserved":false,"is_disabled":true,"rental_uris":{"android":"levelo://app?vid=236f1a17-bd84-4b8e-977f-7df7d8cf402c","ios":"levelo://app?vid=236f1a17-bd84-4b8e-977f-7df7d8cf402c"},"vehicle_type_id":"4","last_reported":1756314548,"current_range_meters":2800,"station_id":"ce4bhph2rcd13ifvqheg","pricing_plan_id":"cebpf4jnsgd1na2vs0mg"},{"bike_id":"3403cb28-df6c-4d49-95e3-dee669a5cf10","system_id":"levelo_inurba_marseille","lat":43.29633,"lon":5.40594,"is_reserved":false,"is_disabled":false,"rental_uris":{"android":"levelo://app?vid=3403cb28-df6c-4d49-95e3-dee669a5cf10","ios":"levelo://app?vid=3403cb28-df6c-4d49-95e3-dee669a5cf10"},"vehicle_type_id":"4","last_reported":1756314548,"current_range_meters":2800,"station_id":"ce4bh0h2rcd13ifvqd60","pricing_plan_id":"cebpf4jnsgd1na2vs0mg"},{"bike_id":"4b8805b3-cd39-4b4f-8f05-e4409c5782e7","system_id":"levelo_inurba_marseille","lat":43.3108,"lon":5.38356,"is_reserved":false,"is_disabled":false,"rental_uris":{"android":"levelo://app?vid=4b8805b3-cd39-4b4f-8f05-e4409c5782e7","ios":"levelo://app?vid=4b8805b3-cd39-4b4f-8f05-e4409c5782e7"},"vehicle_type_id":"4","last_reported":1756314548,"current_range_meters":2800,"station_id":"ce4bgv92rcd13ifvqcr0","pricing_plan_id":"cebpf4jnsgd1na2vs0mg"},{"bike_id":"16be216b-6622-446d-bf19-76f24c6060b4","system_id":"levelo_inurba_marseille","lat":43.29614,"lon":5.39587,"is_reserved":false,"is_disabled":false,"rental_uris":{"android":"levelo://app?vid=16be216b-6622-446d-bf19-76f24c6060b4","ios":"levelo://app?vid=16be216b-6622-446d-bf19-76f24c6060b4"},"vehicle_type_id":"4","last_reported":1756314548,"current_range_meters":2800,"station_id":"","pricing_plan_id":"cebpf4jnsgd1na2vs0mg"},{"bike_id":"ffbdde49-fce4-4c04-a815-63d51596a604","system_id":"levelo_inurba_marseille","lat":43.3093,"lon":5.401413,"is_reserved":false,"is_disabled":false,"rental_uris":{"android":"levelo://app?vid=ffbdde49-fce4-4c04-a815-63d51596a604","ios":"levelo://app?vid=ffbdde49-fce4-4c04-a815-63d51596a604"},"vehicle_type_id":"4","last_reported":1756314548,"current_range_meters":2800,"station_id":"ce4bgvp2rcd13ifvqct0","pricing_plan_id":"cebpf4jnsgd1na2vs0mg"},{"bike_id":"cc5e06c3-217c-461e-83aa-4ef375c6f91a","system_id":"levelo_inurba_marseille","lat":43.291095,"lon":5.381389,"is_reserved":false,"is_disabled":false,"rental_uris":{"android":"levelo://app?vid=cc5e06c3-217c-461e-83aa-4ef375c6f91a","ios":"levelo://app?vid=cc5e06c3-217c-461e-83aa-4ef375c6f91a"},"vehicle_type_id":"4","last_reported":1756314548,"current_range_meters":3200,"station_id":"ce4bh512rcd13ifvqe2g","pricing_plan_id":"cebpf4jnsgd1na2vs0mg"},{"bike_id":"f6bd5b86-eb54-487c-8a4e-3da908b177ef","system_id":"levelo_inurba_marseille","lat":43.29743,"lon":5.37123,"is_reserved":false,"is_disabled":false,"rental_uris":{"android":"levelo://app?vid=f6bd5b86-eb54-487c-8a4e-3da908b177ef","ios":"levelo://app?vid=f6bd5b86-eb54-487c-8a4e-3da908b177ef"},"vehicle_type_id":"4","last_reported":1756314548,"current_range_meters":3200,"station_id":"ce4bgop2rcd13ifvqc1g","pricing_plan_id":"cebpf4jnsgd1na2vs0mg"},{"bike_id":"22574ee2-d41e-487c-94b1-fca27c25b2b0","system_id":"levelo_inurba_marseille","lat":43.29039,"lon":5.39948,"is_reserved":false,"is_disabled":false,"rental_uris":{"android":"levelo://app?vid=22574ee2-d41e-487c-94b1-fca27c25b2b0","ios":"levelo://app?vid=22574ee2-d41e-487c-94b1-fca27c25b2b0"},"vehicle_type_id":"4","last_reported":1756314548,"current_range_meters":3200,"station_id":"ce4bh392rcd13ifvqdm0","pricing_plan_id":"cebpf4jnsgd1na2vs0mg"},{"bike_id":"763816dd-7169-4063-b3a2-3cbe235f56e7","system_id":"levelo_inurba_marseille","lat":43.2901,"lon":5.35605,"is_reserved":false,"is_disabled":false,"rental_uris":{"android":"levelo://app?vid=763816dd-7169-4063-b3a2-3cbe235f56e7","ios":"levelo://app?vid=763816dd-7169-4063-b3a2-3cbe235f56e7"},"vehicle_type_id":"4","last_reported":1756314548,"current_range_meters":2800,"station_id":"ce4bhb92rcd13ifvqen0","pricing_plan_id":"cebpf4jnsgd1na2vs0mg"},{"bike_id":"ca9f3450-5a1b-490b-9846-57814bbeb39f","system_id":"levelo_inurba_marseille","lat":43.298169,"lon":5.38113,"is_reserved":false,"is_disabled":false,"rental_uris":{"android":"levelo://app?vid=ca9f3450-5a1b-490b-9846-57814bbeb39f","ios":"levelo://app?vid=ca9f3450-5a1b-490b-9846-57814bbeb39f"},"vehicle_type_id":"4","last_reported":1756314548,"current_range_meters":2800,"station_id":"ce4bgip2rcd13ifvqbb0","pricing_plan_id":"cebpf4jnsgd1na2vs0mg"},{"bike_id":"ba5c85d6-3027-4927-a152-3e4cfff5d0ba","system_id":"levelo_inurba_marseille","lat":43.2981,"lon":5.38098,"is_reserved":false,"is_disabled":false,"rental_uris":{"android":"levelo://app?vid=ba5c85d6-3027-4927-a152-3e4cfff5d0ba","ios":"levelo://app?vid=ba5c85d6-3027-4927-a152-3e4cfff5d0ba"},"vehicle_type_id":"4","last_reported":1756314548,"current_range_meters":3200,"station_id":"ce4bgip2rcd13ifvqbb0","pricing_plan_id":"cebpf4jnsgd1na2vs0mg"},{"bike_id":"f6ca0241-6c92-4355-8ac1-e26910c509f8","system_id":"levelo_inurba_marseille","lat":43.29042,"lon":5.39956,"is_reserved":false,"is_disabled":false,"rental_uris":{"android":"levelo://app?vid=f6ca0241-6c92-4355-8ac1-e26910c509f8","ios":"levelo://app?vid=f6ca0241-6c92-4355-8ac1-e26910c509f8"},"vehicle_type_id":"4","last_reported":1756314548,"current_range_meters":3600,"station_id":"ce4bh392rcd13ifvqdm0","pricing_plan_id":"cebpf4jnsgd1na2vs0mg"},{"bike_id":"adb835cd-fd61-4049-b86b-cf3f2c411c04","system_id":"levelo_inurba_marseille","lat":43.29883,"lon":5.38896,"is_reserved":false,"is_disabled":false,"rental_uris":{"android":"levelo://app?vid=adb835cd-fd61-4049-b86b-cf3f2c411c04","ios":"levelo://app?vid=adb835cd-fd61-4049-b86b-cf3f2c411c04"},"vehicle_type_id":"4","last_reported":1756314548,"current_range_meters":3600,"station_id":"ce4bh392rcd13ifvqdl0","pricing_plan_id":"cebpf4jnsgd1na2vs0mg"},{"bike_id":"623e440b-8f41-4de5-bb4c-a1494cd2d781","system_id":"levelo_inurba_marseille","lat":43.27364,"lon":5.36266,"is_reserved":false,"is_disabled":true,"rental_uris":{"android":"levelo://app?vid=623e440b-8f41-4de5-bb4c-a1494cd2d781","ios":"levelo://app?vid=623e440b-8f41-4de5-bb4c-a1494cd2d781"},"vehicle_type_id":"4","last_reported":1756314548,"current_range_meters":3600,"station_id":"ce4bhbh2rcd13ifvqeo0","pricing_plan_id":"cebpf4jnsgd1na2vs0mg"},{"bike_id":"3739e3f4-a1a9-467e-986c-e8f802ae1ce8","system_id":"levelo_inurba_marseille","lat":43.28151,"lon":5.42642,"is_reserved":false,"is_disabled":false,"rental_uris":{"android":"levelo://app?vid=3739e3f4-a1a9-467e-986c-e8f802ae1ce8","ios":"levelo://app?vid=3739e3f4-a1a9-467e-986c-e8f802ae1ce8"},"vehicle_type_id":"4","last_reported":1756314548,"current_range_meters":4000,"station_id":"ce4bhnh2rcd13ifvqgug","pricing_plan_id":"cebpf4jnsgd1na2vs0mg"},{"bike_id":"35af4b6b-5243-4808-9c9e-df0b1266b750","system_id":"levelo_inurba_marseille","lat":43.25726,"lon":5.41104,"is_reserved":false,"is_disabled":false,"rental_uris":{"android":"levelo://app?vid=35af4b6b-5243-4808-9c9e-df0b1266b750","ios":"levelo://app?vid=35af4b6b-5243-4808-9c9e-df0b1266b750"},"vehicle_type_id":"4","last_reported":1756314548,"current_range_meters":4000,"station_id":"ce4bhkp2rcd13ifvqgd0","pricing_plan_id":"cebpf4jnsgd1na2vs0mg"},{"bike_id":"b46639d3-0e19-46be-a590-754abfdbb7c9","system_id":"levelo_inurba_marseille","lat":43.295337,"lon":5.38546,"is_reserved":false,"is_disabled":true,"rental_uris":{"android":"levelo://app?vid=b46639d3-0e19-46be-a590-754abfdbb7c9","ios":"levelo://app?vid=b46639d3-0e19-46be-a590-754abfdbb7c9"},"vehicle_type_id":"4","last_reported":1756314548,"current_range_meters":4000,"station_id":"ce4bgih2rcd13ifvqba0","pricing_plan_id":"cebpf4jnsgd1na2vs0mg"},{"bike_id":"3c0c0037-868e-422d-acb2-62e70dd9c337","system_id":"levelo_inurba_marseille","lat":43.29514,"lon":5.39393,"is_reserved":false,"is_disabled":false,"rental_uris":{"android":"levelo://app?vid=3c0c0037-868e-422d-acb2-62e70dd9c337","ios":"levelo://app?vid=3c0c0037-868e-422d-acb2-62e70dd9c337"},"vehicle_type_id":"4","last_reported":1756314548,"current_range_meters":4000,"station_id":"ce4bh292rcd13ifvqdf0","pricing_plan_id":"cebpf4jnsgd1na2vs0mg"},{"bike_id":"30f4194e-4e59-4788-b268-df03cc4f5cbe","system_id":"levelo_inurba_marseille","lat":43.26214,"lon":5.37447,"is_reserved":false,"is_disabled":false,"rental_uris":{"android":"levelo://app?vid=30f4194e-4e59-4788-b268-df03cc4f5cbe","ios":"levelo://app?vid=30f4194e-4e59-4788-b268-df03cc4f5cbe"},"vehicle_type_id":"4","last_reported":1756314548,"current_range_meters":4000,"station_id":"ce4bhgp2rcd13ifvqfc0","pricing_plan_id":"cebpf4jnsgd1na2vs0mg"},{"bike_id":"e2522d30-3977-40e7-9add-2c4fc20fbe6f","system_id":"levelo_inurba_marseille","lat":43.28947,"lon":5.36629,"is_reserved":false,"is_disabled":false,"rental_uris":{"android":"levelo://app?vid=e2522d30-3977-40e7-9add-2c4fc20fbe6f","ios":"levelo://app?vid=e2522d30-3977-40e7-9add-2c4fc20fbe6f"},"vehicle_type_id":"4","last_reported":1756314548,"current_range_meters":4800,"station_id":"ce4bhap2rcd13ifvqek0","pricing_plan_id":"cebpf4jnsgd1na2vs0mg"},{"bike_id":"5640fb0e-5501-4d16-80d0-12579bfd070b","system_id":"levelo_inurba_marseille","lat":43.27378,"lon":5.36256,"is_reserved":false,"is_disabled":false,"rental_uris":{"android":"levelo://app?vid=5640fb0e-5501-4d16-80d0-12579bfd070b","ios":"levelo://app?vid=5640fb0e-5501-4d16-80d0-12579bfd070b"},"vehicle_type_id":"4","last_reported":1756314548,"current_range_meters":4800,"station_id":"ce4bhbh2rcd13ifvqeo0","pricing_plan_id":"cebpf4jnsgd1na2vs0mg"},{"bike_id":"6617a6a1-dce1-4a24-a59a-6a4def82f390","system_id":"levelo_inurba_marseille","lat":43.31684,"lon":5.40478,"is_reserved":false,"is_disabled":false,"rental_uris":{"android":"levelo://app?vid=6617a6a1-dce1-4a24-a59a-6a4def82f390","ios":"levelo://app?vid=6617a6a1-dce1-4a24-a59a-6a4def82f390"},"vehicle_type_id":"4","last_reported":1756314548,"current_range_meters":4800,"station_id":"ce4bh012rcd13ifvqd00","pricing_plan_id":"cebpf4jnsgd1na2vs0mg"},{"bike_id":"3add44d8-49b4-46c3-a778-11b696c2bd26","system_id":"levelo_inurba_marseille","lat":43.21184,"lon":5.35073,"is_reserved":false,"is_disabled":false,"rental_uris":{"android":"levelo://app?vid=3add44d8-49b4-46c3-a778-11b696c2bd26","ios":"levelo://app?vid=3add44d8-49b4-46c3-a778-11b696c2bd26"},"vehicle_type_id":"4","last_reported":1756314548,"current_range_meters":4800,"station_id":"st_cvj6sg6p6f1abm77japg","pricing_plan_id":"cebpf4jnsgd1na2vs0mg"},{"bike_id":"9990cc84-5000-4d79-a319-a98385435e05","system_id":"levelo_inurba_marseille","lat":43.281593,"lon":5.426393,"is_reserved":false,"is_disabled":false,"rental_uris":{"android":"levelo://app?vid=9990cc84-5000-4d79-a319-a98385435e05","ios":"levelo://app?vid=9990cc84-5000-4d79-a319-a98385435e05"},"vehicle_type_id":"4","last_reported":1756314548,"current_range_meters":5600,"station_id":"ce4bhnh2rcd13ifvqgug","pricing_plan_id":"cebpf4jnsgd1na2vs0mg"},{"bike_id":"6641a108-77c0-432e-b44f-0e9cc4e08ed0","system_id":"levelo_inurba_marseille","lat":43.27082,"lon":5.42259,"is_reserved":false,"is_disabled":false,"rental_uris":{"android":"levelo://app?vid=6641a108-77c0-432e-b44f-0e9cc4e08ed0","ios":"levelo://app?vid=6641a108-77c0-432e-b44f-0e9cc4e08ed0"},"vehicle_type_id":"4","last_reported":1756314548,"current_range_meters":6000,"station_id":"ce4bhk92rcd13ifvqgb0","pricing_plan_id":"cebpf4jnsgd1na2vs0mg"},{"bike_id":"edc4c588-4db1-4b48-bddb-0eba1d72ba9f","system_id":"levelo_inurba_marseille","lat":43.21202,"lon":5.35056,"is_reserved":false,"is_disabled":false,"rental_uris":{"android":"levelo://app?vid=edc4c588-4db1-4b48-bddb-0eba1d72ba9f","ios":"levelo://app?vid=edc4c588-4db1-4b48-bddb-0eba1d72ba9f"},"vehicle_type_id":"4","last_reported":1756314548,"current_range_meters":6000,"station_id":"st_cvj6sg6p6f1abm77japg","pricing_plan_id":"cebpf4jnsgd1na2vs0mg"},{"bike_id":"dacaf6af-6e4f-4b37-95a4-c418c7ba28be","system_id":"levelo_inurba_marseille","lat":43.24177,"lon":5.3973,"is_reserved":false,"is_disabled":false,"rental_uris":{"android":"levelo://app?vid=dacaf6af-6e4f-4b37-95a4-c418c7ba28be","ios":"levelo://app?vid=dacaf6af-6e4f-4b37-95a4-c418c7ba28be"},"vehicle_type_id":"4","last_reported":1756314548,"current_range_meters":6000,"station_id":"ce4bhn12rcd13ifvqgpg","pricing_plan_id":"cebpf4jnsgd1na2vs0mg"},{"bike_id":"9eddc19c-4d66-4671-81a8-5ffa7a68db07","system_id":"levelo_inurba_marseille","lat":43.211914,"lon":5.350721,"is_reserved":false,"is_disabled":false,"rental_uris":{"android":"levelo://app?vid=9eddc19c-4d66-4671-81a8-5ffa7a68db07","ios":"levelo://app?vid=9eddc19c-4d66-4671-81a8-5ffa7a68db07"},"vehicle_type_id":"4","last_reported":1756314548,"current_range_meters":6000,"station_id":"st_cvj6sg6p6f1abm77japg","pricing_plan_id":"cebpf4jnsgd1na2vs0mg"},{"bike_id":"8005181e-a4eb-491e-8400-56217ae58775","system_id":"levelo_inurba_marseille","lat":43.29042,"lon":5.39953,"is_reserved":false,"is_disabled":false,"rental_uris":{"android":"levelo://app?vid=8005181e-a4eb-491e-8400-56217ae58775","ios":"levelo://app?vid=8005181e-a4eb-491e-8400-56217ae58775"},"vehicle_type_id":"4","last_reported":1756314548,"current_range_meters":6400,"station_id":"ce4bh392rcd13ifvqdm0","pricing_plan_id":"cebpf4jnsgd1na2vs0mg"},{"bike_id":"50d76241-5f7a-47dd-a439-df7b36dd51d7","system_id":"levelo_inurba_marseille","lat":43.262406,"lon":5.3746,"is_reserved":false,"is_disabled":false,"rental_uris":{"android":"levelo://app?vid=50d76241-5f7a-47dd-a439-df7b36dd51d7","ios":"levelo://app?vid=50d76241-5f7a-47dd-a439-df7b36dd51d7"},"vehicle_type_id":"4","last_reported":1756314548,"current_range_meters":6800,"station_id":"ce4bhgp2rcd13ifvqfc0","pricing_plan_id":"cebpf4jnsgd1na2vs0mg"},{"bike_id":"594eb3c1-83ae-4d98-b251-25dae58acfe3","system_id":"levelo_inurba_marseille","lat":43.30419,"lon":5.41278,"is_reserved":false,"is_disabled":true,"rental_uris":{"android":"levelo://app?vid=594eb3c1-83ae-4d98-b251-25dae58acfe3","ios":"levelo://app?vid=594eb3c1-83ae-4d98-b251-25dae58acfe3"},"vehicle_type_id":"4","last_reported":1756314548,"current_range_meters":6800,"station_id":"ce4bhop2rcd13ifvqh8g","pricing_plan_id":"cebpf4jnsgd1na2vs0mg"},{"bike_id":"d91c4b99-da47-46d7-942f-0a21869587cc","system_id":"levelo_inurba_marseille","lat":43.26034,"lon":5.3756,"is_reserved":false,"is_disabled":false,"rental_uris":{"android":"levelo://app?vid=d91c4b99-da47-46d7-942f-0a21869587cc","ios":"levelo://app?vid=d91c4b99-da47-46d7-942f-0a21869587cc"},"vehicle_type_id":"4","last_reported":1756314548,"current_range_meters":6800,"station_id":"ce4bhgh2rcd13ifvqfa0","pricing_plan_id":"cebpf4jnsgd1na2vs0mg"},{"bike_id":"eeb42e78-373a-42a8-ad92-d1dc5831d4c3","system_id":"levelo_inurba_marseille","lat":43.24805,"lon":5.37456,"is_reserved":false,"is_disabled":true,"rental_uris":{"android":"levelo://app?vid=eeb42e78-373a-42a8-ad92-d1dc5831d4c3","ios":"levelo://app?vid=eeb42e78-373a-42a8-ad92-d1dc5831d4c3"},"vehicle_type_id":"4","last_reported":1756314548,"current_range_meters":6800,"station_id":"ce4bhgh2rcd13ifvqfb0","pricing_plan_id":"cebpf4jnsgd1na2vs0mg"},{"bike_id":"2732b203-8d34-41ae-80bd-b4f151d77aad","system_id":"levelo_inurba_marseille","lat":43.3025,"lon":5.4055,"is_reserved":false,"is_disabled":false,"rental_uris":{"android":"levelo://app?vid=2732b203-8d34-41ae-80bd-b4f151d77aad","ios":"levelo://app?vid=2732b203-8d34-41ae-80bd-b4f151d77aad"},"vehicle_type_id":"4","last_reported":1756314548,"current_range_meters":6800,"station_id":"","pricing_plan_id":"cebpf4jnsgd1na2vs0mg"},{"bike_id":"f3267b78-0af1-4748-a75a-6b4e3d5e35e6","system_id":"levelo_inurba_marseille","lat":43.3171,"lon":5.43707,"is_reserved":false,"is_disabled":false,"rental_uris":{"android":"levelo://app?vid=f3267b78-0af1-4748-a75a-6b4e3d5e35e6","ios":"levelo://app?vid=f3267b78-0af1-4748-a75a-6b4e3d5e35e6"},"vehicle_type_id":"4","last_reported":1756314548,"current_range_meters":6400,"station_id":"ce4bhp92rcd13ifvqhcg","pricing_plan_id":"cebpf4jnsgd1na2vs0mg"},{"bike_id":"ce6b0739-0790-4419-8ae0-0c0c07b40460","system_id":"levelo_inurba_marseille","lat":43.27496,"lon":5.42446,"is_reserved":false,"is_disabled":false,"rental_uris":{"android":"levelo://app?vid=ce6b0739-0790-4419-8ae0-0c0c07b40460","ios":"levelo://app?vid=ce6b0739-0790-4419-8ae0-0c0c07b40460"},"vehicle_type_id":"4","last_reported":1756314548,"current_range_meters":7200,"station_id":"ce4bhn92rcd13ifvqgrg","pricing_plan_id":"cebpf4jnsgd1na2vs0mg"},{"bike_id":"00fd3908-aaf5-4284-afc0-6bd6bbaf576d","system_id":"levelo_inurba_marseille","lat":43.25857,"lon":5.39894,"is_reserved":false,"is_disabled":false,"rental_uris":{"android":"levelo://app?vid=00fd3908-aaf5-4284-afc0-6bd6bbaf576d","ios":"levelo://app?vid=00fd3908-aaf5-4284-afc0-6bd6bbaf576d"},"vehicle_type_id":"4","last_reported":1756314548,"current_range_meters":7200,"station_id":"ce4bhl92rcd13ifvqghg","pricing_plan_id":"cebpf4jnsgd1na2vs0mg"},{"bike_id":"0d502687-08ef-4491-8893-8a03d8688be8","system_id":"levelo_inurba_marseille","lat":43.29652,"lon":5.36099,"is_reserved":false,"is_disabled":false,"rental_uris":{"android":"levelo://app?vid=0d502687-08ef-4491-8893-8a03d8688be8","ios":"levelo://app?vid=0d502687-08ef-4491-8893-8a03d8688be8"},"vehicle_type_id":"4","last_reported":1756314548,"current_range_meters":7200,"station_id":"","pricing_plan_id":"cebpf4jnsgd1na2vs0mg"},{"bike_id":"adf2858a-f6b9-45fb-b2e7-8d1012726fd7","system_id":"levelo_inurba_marseille","lat":43.21743,"lon":5.34601,"is_reserved":false,"is_disabled":false,"rental_uris":{"android":"levelo://app?vid=adf2858a-f6b9-45fb-b2e7-8d1012726fd7","ios":"levelo://app?vid=adf2858a-f6b9-45fb-b2e7-8d1012726fd7"},"vehicle_type_id":"4","last_reported":1756314548,"current_range_meters":7200,"station_id":"","pricing_plan_id":"cebpf4jnsgd1na2vs0mg"},{"bike_id":"b4355a8b-6620-41c5-aaa4-2b969fb59e8f","system_id":"levelo_inurba_marseille","lat":43.26126,"lon":5.37483,"is_reserved":false,"is_disabled":true,"rental_uris":{"android":"levelo://app?vid=b4355a8b-6620-41c5-aaa4-2b969fb59e8f","ios":"levelo://app?vid=b4355a8b-6620-41c5-aaa4-2b969fb59e8f"},"vehicle_type_id":"4","last_reported":1756314548,"current_range_meters":7200,"station_id":"","pricing_plan_id":"cebpf4jnsgd1na2vs0mg"},{"bike_id":"cf104117-03af-4657-b706-2c736051293c","system_id":"levelo_inurba_marseille","lat":43.26579,"lon":5.39007,"is_reserved":false,"is_disabled":false,"rental_uris":{"android":"levelo://app?vid=cf104117-03af-4657-b706-2c736051293c","ios":"levelo://app?vid=cf104117-03af-4657-b706-2c736051293c"},"vehicle_type_id":"4","last_reported":1756314548,"current_range_meters":7200,"station_id":"ce4bhe12rcd13ifvqf30","pricing_plan_id":"cebpf4jnsgd1na2vs0mg"},{"bike_id":"aeccd059-8521-4b6c-ab2e-a3512d366a32","system_id":"levelo_inurba_marseille","lat":43.28936,"lon":5.38408,"is_reserved":false,"is_disabled":false,"rental_uris":{"android":"levelo://app?vid=aeccd059-8521-4b6c-ab2e-a3512d366a32","ios":"levelo://app?vid=aeccd059-8521-4b6c-ab2e-a3512d366a32"},"vehicle_type_id":"4","last_reported":1756314548,"current_range_meters":7200,"station_id":"ce4bh612rcd13ifvqe6g","pricing_plan_id":"cebpf4jnsgd1na2vs0mg"},{"bike_id":"d3463bfd-7ee8-4b33-8d5a-96c07c73e2e6","system_id":"levelo_inurba_marseille","lat":43.27921,"lon":5.38032,"is_reserved":false,"is_disabled":false,"rental_uris":{"android":"levelo://app?vid=d3463bfd-7ee8-4b33-8d5a-96c07c73e2e6","ios":"levelo://app?vid=d3463bfd-7ee8-4b33-8d5a-96c07c73e2e6"},"vehicle_type_id":"4","last_reported":1756314548,"current_range_meters":7200,"station_id":"ce4bhf92rcd13ifvqf50","pricing_plan_id":"cebpf4jnsgd1na2vs0mg"},{"bike_id":"f24a31d5-d8ff-4def-b0e8-f81c1e5876f8","system_id":"levelo_inurba_marseille","lat":43.2602,"lon":5.37552,"is_reserved":false,"is_disabled":false,"rental_uris":{"android":"levelo://app?vid=f24a31d5-d8ff-4def-b0e8-f81c1e5876f8","ios":"levelo://app?vid=f24a31d5-d8ff-4def-b0e8-f81c1e5876f8"},"vehicle_type_id":"4","last_reported":1756314548,"current_range_meters":8000,"station_id":"ce4bhgh2rcd13ifvqfa0","pricing_plan_id":"cebpf4jnsgd1na2vs0mg"},{"bike_id":"919403d1-9d41-4322-8f42-253c1dba9d3b","system_id":"levelo_inurba_marseille","lat":43.217509,"lon":5.345942,"is_reserved":false,"is_disabled":false,"rental_uris":{"android":"levelo://app?vid=919403d1-9d41-4322-8f42-253c1dba9d3b","ios":"levelo://app?vid=919403d1-9d41-4322-8f42-253c1dba9d3b"},"vehicle_type_id":"4","last_reported":1756314548,"current_range_meters":8000,"station_id":"st_cvj6r9ubvosntc0bgbag","pricing_plan_id":"cebpf4jnsgd1na2vs0mg"},{"bike_id":"da89ddc8-c01d-44e2-8eb8-15329ee4ee23","system_id":"levelo_inurba_marseille","lat":43.29033,"lon":5.38127,"is_reserved":false,"is_disabled":false,"rental_uris":{"android":"levelo://app?vid=da89ddc8-c01d-44e2-8eb8-15329ee4ee23","ios":"levelo://app?vid=da89ddc8-c01d-44e2-8eb8-15329ee4ee23"},"vehicle_type_id":"4","last_reported":1756314548,"current_range_meters":8000,"station_id":"ce4bh4p2rcd13ifvqe1g","pricing_plan_id":"cebpf4jnsgd1na2vs0mg"},{"bike_id":"b9adeff4-d1ac-4177-a409-9b57c61c25f8","system_id":"levelo_inurba_marseille","lat":43.26213,"lon":5.37443,"is_reserved":false,"is_disabled":false,"rental_uris":{"android":"levelo://app?vid=b9adeff4-d1ac-4177-a409-9b57c61c25f8","ios":"levelo://app?vid=b9adeff4-d1ac-4177-a409-9b57c61c25f8"},"vehicle_type_id":"4","last_reported":1756314548,"current_range_meters":8000,"station_id":"ce4bhgp2rcd13ifvqfc0","pricing_plan_id":"cebpf4jnsgd1na2vs0mg"},{"bike_id":"b70678e7-8078-4bc7-b563-6ff92f59e289","system_id":"levelo_inurba_marseille","lat":43.31439,"lon":5.37337,"is_reserved":false,"is_disabled":false,"rental_uris":{"android":"levelo://app?vid=b70678e7-8078-4bc7-b563-6ff92f59e289","ios":"levelo://app?vid=b70678e7-8078-4bc7-b563-6ff92f59e289"},"vehicle_type_id":"4","last_reported":1756314548,"current_range_meters":8400,"station_id":"","pricing_plan_id":"cebpf4jnsgd1na2vs0mg"},{"bike_id":"5852a401-5867-41b3-846e-9ae278faa601","system_id":"levelo_inurba_marseille","lat":43.23181,"lon":5.399869,"is_reserved":false,"is_disabled":false,"rental_uris":{"android":"levelo://app?vid=5852a401-5867-41b3-846e-9ae278faa601","ios":"levelo://app?vid=5852a401-5867-41b3-846e-9ae278faa601"},"vehicle_type_id":"4","last_reported":1756314548,"current_range_meters":8000,"station_id":"ce4bhn12rcd13ifvqgqg","pricing_plan_id":"cebpf4jnsgd1na2vs0mg"},{"bike_id":"2b956558-8fdd-4acc-8d5a-63840e707321","system_id":"levelo_inurba_marseille","lat":43.31274,"lon":5.40176,"is_reserved":false,"is_disabled":false,"rental_uris":{"android":"levelo://app?vid=2b956558-8fdd-4acc-8d5a-63840e707321","ios":"levelo://app?vid=2b956558-8fdd-4acc-8d5a-63840e707321"},"vehicle_type_id":"4","last_reported":1756314548,"current_range_meters":8400,"station_id":"ce4bh092rcd13ifvqd30","pricing_plan_id":"cebpf4jnsgd1na2vs0mg"},{"bike_id":"1f865916-94c2-4eb6-9ab9-6b42ea1a26b8","system_id":"levelo_inurba_marseille","lat":43.29044,"lon":5.39949,"is_reserved":false,"is_disabled":false,"rental_uris":{"android":"levelo://app?vid=1f865916-94c2-4eb6-9ab9-6b42ea1a26b8","ios":"levelo://app?vid=1f865916-94c2-4eb6-9ab9-6b42ea1a26b8"},"vehicle_type_id":"4","last_reported":1756314548,"current_range_meters":8400,"station_id":"ce4bh392rcd13ifvqdm0","pricing_plan_id":"cebpf4jnsgd1na2vs0mg"},{"bike_id":"51842e17-ef10-4624-a23e-c8a182427991","system_id":"levelo_inurba_marseille","lat":43.316274,"lon":5.381728,"is_reserved":false,"is_disabled":false,"rental_uris":{"android":"levelo://app?vid=51842e17-ef10-4624-a23e-c8a182427991","ios":"levelo://app?vid=51842e17-ef10-4624-a23e-c8a182427991"},"vehicle_type_id":"4","last_reported":1756314548,"current_range_meters":8400,"station_id":"","pricing_plan_id":"cebpf4jnsgd1na2vs0mg"},{"bike_id":"d3e5e266-d875-48b1-afa9-96b4a30436af","system_id":"levelo_inurba_marseille","lat":43.26552,"lon":5.37276,"is_reserved":false,"is_disabled":false,"rental_uris":{"android":"levelo://app?vid=d3e5e266-d875-48b1-afa9-96b4a30436af","ios":"levelo://app?vid=d3e5e266-d875-48b1-afa9-96b4a30436af"},"vehicle_type_id":"4","last_reported":1756314548,"current_range_meters":8400,"station_id":"ce4bhg12rcd13ifvqf70","pricing_plan_id":"cebpf4jnsgd1na2vs0mg"},{"bike_id":"69a01144-4cb0-4f43-b8a7-d8bba1210d75","system_id":"levelo_inurba_marseille","lat":43.31595,"lon":5.37435,"is_reserved":false,"is_disabled":false,"rental_uris":{"android":"levelo://app?vid=69a01144-4cb0-4f43-b8a7-d8bba1210d75","ios":"levelo://app?vid=69a01144-4cb0-4f43-b8a7-d8bba1210d75"},"vehicle_type_id":"4","last_reported":1756314548,"current_range_meters":8400,"station_id":"","pricing_plan_id":"cebpf4jnsgd1na2vs0mg"},{"bike_id":"b525679c-2b4c-4216-960c-8c76417c485a","system_id":"levelo_inurba_marseille","lat":43.298454,"lon":5.362916,"is_reserved":false,"is_disabled":false,"rental_uris":{"android":"levelo://app?vid=b525679c-2b4c-4216-960c-8c76417c485a","ios":"levelo://app?vid=b525679c-2b4c-4216-960c-8c76417c485a"},"vehicle_type_id":"4","last_reported":1756314548,"current_range_meters":8400,"station_id":"ce4bgpp2rcd13ifvqc3g","pricing_plan_id":"cebpf4jnsgd1na2vs0mg"},{"bike_id":"660b71ca-817a-4ea1-9633-cc13b868b20c","system_id":"levelo_inurba_marseille","lat":43.29576,"lon":5.3997,"is_reserved":false,"is_disabled":false,"rental_uris":{"android":"levelo://app?vid=660b71ca-817a-4ea1-9633-cc13b868b20c","ios":"levelo://app?vid=660b71ca-817a-4ea1-9633-cc13b868b20c"},"vehicle_type_id":"4","last_reported":1756314548,"current_range_meters":8000,"station_id":"ce4bh312rcd13ifvqdj0","pricing_plan_id":"cebpf4jnsgd1na2vs0mg"},{"bike_id":"c383f2a8-de56-4119-bb02-b7d09bcaed76","system_id":"levelo_inurba_marseille","lat":43.29287,"lon":5.40902,"is_reserved":false,"is_disabled":false,"rental_uris":{"android":"levelo://app?vid=c383f2a8-de56-4119-bb02-b7d09bcaed76","ios":"levelo://app?vid=c383f2a8-de56-4119-bb02-b7d09bcaed76"},"vehicle_type_id":"4","last_reported":1756314548,"current_range_meters":8800,"station_id":"ce4bh192rcd13ifvqdc0","pricing_plan_id":"cebpf4jnsgd1na2vs0mg"},{"bike_id":"0f2017f4-e5c1-46a2-a7d8-e957ce265a72","system_id":"levelo_inurba_marseille","lat":43.3024,"lon":5.37434,"is_reserved":false,"is_disabled":false,"rental_uris":{"android":"levelo://app?vid=0f2017f4-e5c1-46a2-a7d8-e957ce265a72","ios":"levelo://app?vid=0f2017f4-e5c1-46a2-a7d8-e957ce265a72"},"vehicle_type_id":"4","last_reported":1756314548,"current_range_meters":8800,"station_id":"","pricing_plan_id":"cebpf4jnsgd1na2vs0mg"},{"bike_id":"20c07154-16d0-4b8a-bf51-2ad532ff8371","system_id":"levelo_inurba_marseille","lat":43.26067,"lon":5.39382,"is_reserved":false,"is_disabled":false,"rental_uris":{"android":"levelo://app?vid=20c07154-16d0-4b8a-bf51-2ad532ff8371","ios":"levelo://app?vid=20c07154-16d0-4b8a-bf51-2ad532ff8371"},"vehicle_type_id":"4","last_reported":1756314548,"current_range_meters":8800,"station_id":"ce4bhh92rcd13ifvqfj0","pricing_plan_id":"cebpf4jnsgd1na2vs0mg"},{"bike_id":"24df2c59-c2ae-4cf6-8d73-b821e9ca9612","system_id":"levelo_inurba_marseille","lat":43.27991,"lon":5.40001,"is_reserved":false,"is_disabled":true,"rental_uris":{"android":"levelo://app?vid=24df2c59-c2ae-4cf6-8d73-b821e9ca9612","ios":"levelo://app?vid=24df2c59-c2ae-4cf6-8d73-b821e9ca9612"},"vehicle_type_id":"4","last_reported":1756314548,"current_range_meters":8800,"station_id":"ce4bho92rcd13ifvqh4g","pricing_plan_id":"cebpf4jnsgd1na2vs0mg"},{"bike_id":"cbf068f2-4c9d-4b40-9711-0112ca6228c7","system_id":"levelo_inurba_marseille","lat":43.29255,"lon":5.40911,"is_reserved":false,"is_disabled":false,"rental_uris":{"android":"levelo://app?vid=cbf068f2-4c9d-4b40-9711-0112ca6228c7","ios":"levelo://app?vid=cbf068f2-4c9d-4b40-9711-0112ca6228c7"},"vehicle_type_id":"4","last_reported":1756314548,"current_range_meters":8800,"station_id":"ce4bh192rcd13ifvqdc0","pricing_plan_id":"cebpf4jnsgd1na2vs0mg"},{"bike_id":"a79b6166-93d1-40ff-986d-a995e819e2c5","system_id":"levelo_inurba_marseille","lat":43.323671,"lon":5.388874,"is_reserved":false,"is_disabled":false,"rental_uris":{"android":"levelo://app?vid=a79b6166-93d1-40ff-986d-a995e819e2c5","ios":"levelo://app?vid=a79b6166-93d1-40ff-986d-a995e819e2c5"},"vehicle_type_id":"4","last_reported":1756314548,"current_range_meters":9200,"station_id":"ce4bhqp2rcd13ifvqhog","pricing_plan_id":"cebpf4jnsgd1na2vs0mg"},{"bike_id":"bd6b0212-6a8d-4845-8e60-756a33d3b64c","system_id":"levelo_inurba_marseille","lat":43.32335,"lon":5.40612,"is_reserved":false,"is_disabled":false,"rental_uris":{"android":"levelo://app?vid=bd6b0212-6a8d-4845-8e60-756a33d3b64c","ios":"levelo://app?vid=bd6b0212-6a8d-4845-8e60-756a33d3b64c"},"vehicle_type_id":"4","last_reported":1756314548,"current_range_meters":9200,"station_id":"ce4bhq92rcd13ifvqhjg","pricing_plan_id":"cebpf4jnsgd1na2vs0mg"},{"bike_id":"a6ef8657-5b8a-423b-993f-c3df43dec0a0","system_id":"levelo_inurba_marseille","lat":43.326998,"lon":5.392208,"is_reserved":false,"is_disabled":false,"rental_uris":{"android":"levelo://app?vid=a6ef8657-5b8a-423b-993f-c3df43dec0a0","ios":"levelo://app?vid=a6ef8657-5b8a-423b-993f-c3df43dec0a0"},"vehicle_type_id":"4","last_reported":1756314548,"current_range_meters":9200,"station_id":"","pricing_plan_id":"cebpf4jnsgd1na2vs0mg"},{"bike_id":"23c09b6a-8163-465b-b420-f35a21f356ca","system_id":"levelo_inurba_marseille","lat":43.2885,"lon":5.39297,"is_reserved":false,"is_disabled":true,"rental_uris":{"android":"levelo://app?vid=23c09b6a-8163-465b-b420-f35a21f356ca","ios":"levelo://app?vid=23c09b6a-8163-465b-b420-f35a21f356ca"},"vehicle_type_id":"4","last_reported":1756314548,"current_range_meters":9200,"station_id":"ce4bh2p2rcd13ifvqdi0","pricing_plan_id":"cebpf4jnsgd1na2vs0mg"},{"bike_id":"39002f5b-a23e-4630-90a0-e2481b8443c4","system_id":"levelo_inurba_marseille","lat":43.25006,"lon":5.389113,"is_reserved":false,"is_disabled":false,"rental_uris":{"android":"levelo://app?vid=39002f5b-a23e-4630-90a0-e2481b8443c4","ios":"levelo://app?vid=39002f5b-a23e-4630-90a0-e2481b8443c4"},"vehicle_type_id":"4","last_reported":1756314548,"current_range_meters":9200,"station_id":"","pricing_plan_id":"cebpf4jnsgd1na2vs0mg"},{"bike_id":"759d948a-980f-4eab-bc69-876f1ff95eb8","system_id":"levelo_inurba_marseille","lat":43.28862,"lon":5.39311,"is_reserved":false,"is_disabled":true,"rental_uris":{"android":"levelo://app?vid=759d948a-980f-4eab-bc69-876f1ff95eb8","ios":"levelo://app?vid=759d948a-980f-4eab-bc69-876f1ff95eb8"},"vehicle_type_id":"4","last_reported":1756314548,"current_range_meters":9200,"station_id":"ce4bh2p2rcd13ifvqdi0","pricing_plan_id":"cebpf4jnsgd1na2vs0mg"},{"bike_id":"4d82672a-a022-40de-a79d-ac00814ab505","system_id":"levelo_inurba_marseille","lat":43.28945,"lon":5.3664,"is_reserved":false,"is_disabled":false,"rental_uris":{"android":"levelo://app?vid=4d82672a-a022-40de-a79d-ac00814ab505","ios":"levelo://app?vid=4d82672a-a022-40de-a79d-ac00814ab505"},"vehicle_type_id":"4","last_reported":1756314548,"current_range_meters":9200,"station_id":"ce4bhap2rcd13ifvqek0","pricing_plan_id":"cebpf4jnsgd1na2vs0mg"},{"bike_id":"3a6b221f-1056-4165-be85-5eca537fdfda","system_id":"levelo_inurba_marseille","lat":43.24177,"lon":5.39729,"is_reserved":false,"is_disabled":false,"rental_uris":{"android":"levelo://app?vid=3a6b221f-1056-4165-be85-5eca537fdfda","ios":"levelo://app?vid=3a6b221f-1056-4165-be85-5eca537fdfda"},"vehicle_type_id":"4","last_reported":1756314548,"current_range_meters":9200,"station_id":"ce4bhn12rcd13ifvqgpg","pricing_plan_id":"cebpf4jnsgd1na2vs0mg"},{"bike_id":"1d7023ef-959e-48df-b075-0a4bd90cc9ae","system_id":"levelo_inurba_marseille","lat":43.27365,"lon":5.36253,"is_reserved":false,"is_disabled":true,"rental_uris":{"android":"levelo://app?vid=1d7023ef-959e-48df-b075-0a4bd90cc9ae","ios":"levelo://app?vid=1d7023ef-959e-48df-b075-0a4bd90cc9ae"},"vehicle_type_id":"4","last_reported":1756314548,"current_range_meters":9600,"station_id":"ce4bhbh2rcd13ifvqeo0","pricing_plan_id":"cebpf4jnsgd1na2vs0mg"},{"bike_id":"00f7766a-a965-4911-b058-9fa3a24c1018","system_id":"levelo_inurba_marseille","lat":43.299,"lon":5.436626,"is_reserved":false,"is_disabled":false,"rental_uris":{"android":"levelo://app?vid=00f7766a-a965-4911-b058-9fa3a24c1018","ios":"levelo://app?vid=00f7766a-a965-4911-b058-9fa3a24c1018"},"vehicle_type_id":"4","last_reported":1756314548,"current_range_meters":9600,"station_id":"ce4bhpp2rcd13ifvqhfg","pricing_plan_id":"cebpf4jnsgd1na2vs0mg"},{"bike_id":"5c10688f-510d-4194-8c75-59bcea83b395","system_id":"levelo_inurba_marseille","lat":43.27898,"lon":5.37996,"is_reserved":false,"is_disabled":false,"rental_uris":{"android":"levelo://app?vid=5c10688f-510d-4194-8c75-59bcea83b395","ios":"levelo://app?vid=5c10688f-510d-4194-8c75-59bcea83b395"},"vehicle_type_id":"4","last_reported":1756314548,"current_range_meters":9200,"station_id":"ce4bhf92rcd13ifvqf50","pricing_plan_id":"cebpf4jnsgd1na2vs0mg"},{"bike_id":"27aa367e-9d9b-4812-ab56-8970ae54d600","system_id":"levelo_inurba_marseille","lat":43.29277,"lon":5.36838,"is_reserved":false,"is_disabled":false,"rental_uris":{"android":"levelo://app?vid=27aa367e-9d9b-4812-ab56-8970ae54d600","ios":"levelo://app?vid=27aa367e-9d9b-4812-ab56-8970ae54d600"},"vehicle_type_id":"4","last_reported":1756314548,"current_range_meters":9600,"station_id":"ce4bhbp2rcd13ifvqesg","pricing_plan_id":"cebpf4jnsgd1na2vs0mg"},{"bike_id":"133175e5-33ec-4902-b116-5b2224ea4cdf","system_id":"levelo_inurba_marseille","lat":43.30189,"lon":5.36584,"is_reserved":false,"is_disabled":false,"rental_uris":{"android":"levelo://app?vid=133175e5-33ec-4902-b116-5b2224ea4cdf","ios":"levelo://app?vid=133175e5-33ec-4902-b116-5b2224ea4cdf"},"vehicle_type_id":"4","last_reported":1756314548,"current_range_meters":9600,"station_id":"ce4bgrh2rcd13ifvqc8g","pricing_plan_id":"cebpf4jnsgd1na2vs0mg"},{"bike_id":"eb22dec0-bfff-46be-ac9e-3150673df06e","system_id":"levelo_inurba_marseille","lat":43.26194,"lon":5.37441,"is_reserved":false,"is_disabled":false,"rental_uris":{"android":"levelo://app?vid=eb22dec0-bfff-46be-ac9e-3150673df06e","ios":"levelo://app?vid=eb22dec0-bfff-46be-ac9e-3150673df06e"},"vehicle_type_id":"4","last_reported":1756314548,"current_range_meters":9600,"station_id":"ce4bhgp2rcd13ifvqfc0","pricing_plan_id":"cebpf4jnsgd1na2vs0mg"},{"bike_id":"d1dd2e05-68b7-4195-8b9c-46287e61c97e","system_id":"levelo_inurba_marseille","lat":43.3108,"lon":5.38354,"is_reserved":false,"is_disabled":false,"rental_uris":{"android":"levelo://app?vid=d1dd2e05-68b7-4195-8b9c-46287e61c97e","ios":"levelo://app?vid=d1dd2e05-68b7-4195-8b9c-46287e61c97e"},"vehicle_type_id":"4","last_reported":1756314548,"current_range_meters":9600,"station_id":"ce4bgv92rcd13ifvqcr0","pricing_plan_id":"cebpf4jnsgd1na2vs0mg"},{"bike_id":"38d8ef3e-e8d7-4990-bcc0-c58cc350dc96","system_id":"levelo_inurba_marseille","lat":43.26026,"lon":5.37547,"is_reserved":false,"is_disabled":false,"rental_uris":{"android":"levelo://app?vid=38d8ef3e-e8d7-4990-bcc0-c58cc350dc96","ios":"levelo://app?vid=38d8ef3e-e8d7-4990-bcc0-c58cc350dc96"},"vehicle_type_id":"4","last_reported":1756314548,"current_range_meters":9600,"station_id":"ce4bhgh2rcd13ifvqfa0","pricing_plan_id":"cebpf4jnsgd1na2vs0mg"},{"bike_id":"311e67bd-9632-4e1a-a328-4f86867f512c","system_id":"levelo_inurba_marseille","lat":43.2418,"lon":5.39728,"is_reserved":false,"is_disabled":false,"rental_uris":{"android":"levelo://app?vid=311e67bd-9632-4e1a-a328-4f86867f512c","ios":"levelo://app?vid=311e67bd-9632-4e1a-a328-4f86867f512c"},"vehicle_type_id":"4","last_reported":1756314548,"current_range_meters":10000,"station_id":"ce4bhn12rcd13ifvqgpg","pricing_plan_id":"cebpf4jnsgd1na2vs0mg"},{"bike_id":"2d0e77b8-c9d8-4e57-b6d3-0a222f73256a","system_id":"levelo_inurba_marseille","lat":43.26183,"lon":5.37457,"is_reserved":false,"is_disabled":true,"rental_uris":{"android":"levelo://app?vid=2d0e77b8-c9d8-4e57-b6d3-0a222f73256a","ios":"levelo://app?vid=2d0e77b8-c9d8-4e57-b6d3-0a222f73256a"},"vehicle_type_id":"4","last_reported":1756314548,"current_range_meters":10000,"station_id":"ce4bhgp2rcd13ifvqfc0","pricing_plan_id":"cebpf4jnsgd1na2vs0mg"},{"bike_id":"28d7acb4-6aab-4c9b-bca5-1996801041b6","system_id":"levelo_inurba_marseille","lat":43.28984,"lon":5.37831,"is_reserved":false,"is_disabled":false,"rental_uris":{"android":"levelo://app?vid=28d7acb4-6aab-4c9b-bca5-1996801041b6","ios":"levelo://app?vid=28d7acb4-6aab-4c9b-bca5-1996801041b6"},"vehicle_type_id":"4","last_reported":1756314548,"current_range_meters":10000,"station_id":"ce4bh9p2rcd13ifvqed0","pricing_plan_id":"cebpf4jnsgd1na2vs0mg"},{"bike_id":"059b9b56-b03e-44b1-bafc-eeeb07f1c350","system_id":"levelo_inurba_marseille","lat":43.29559,"lon":5.42296,"is_reserved":false,"is_disabled":false,"rental_uris":{"android":"levelo://app?vid=059b9b56-b03e-44b1-bafc-eeeb07f1c350","ios":"levelo://app?vid=059b9b56-b03e-44b1-bafc-eeeb07f1c350"},"vehicle_type_id":"4","last_reported":1756314548,"current_range_meters":10000,"station_id":"ce4bhph2rcd13ifvqhdg","pricing_plan_id":"cebpf4jnsgd1na2vs0mg"},{"bike_id":"1546df9e-d1cb-482b-8d1f-d121540fd829","system_id":"levelo_inurba_marseille","lat":43.21187,"lon":5.35075,"is_reserved":false,"is_disabled":false,"rental_uris":{"android":"levelo://app?vid=1546df9e-d1cb-482b-8d1f-d121540fd829","ios":"levelo://app?vid=1546df9e-d1cb-482b-8d1f-d121540fd829"},"vehicle_type_id":"4","last_reported":1756314548,"current_range_meters":10000,"station_id":"st_cvj6sg6p6f1abm77japg","pricing_plan_id":"cebpf4jnsgd1na2vs0mg"},{"bike_id":"00863c37-803e-410f-9551-b589f422954b","system_id":"levelo_inurba_marseille","lat":43.30145,"lon":5.37415,"is_reserved":false,"is_disabled":false,"rental_uris":{"android":"levelo://app?vid=00863c37-803e-410f-9551-b589f422954b","ios":"levelo://app?vid=00863c37-803e-410f-9551-b589f422954b"},"vehicle_type_id":"4","last_reported":1756314548,"current_range_meters":9600,"station_id":"ce4bgs92rcd13ifvqcc0","pricing_plan_id":"cebpf4jnsgd1na2vs0mg"},{"bike_id":"5bce688b-fc81-4596-8277-b66f54be87c1","system_id":"levelo_inurba_marseille","lat":43.33768,"lon":5.37438,"is_reserved":false,"is_disabled":false,"rental_uris":{"android":"levelo://app?vid=5bce688b-fc81-4596-8277-b66f54be87c1","ios":"levelo://app?vid=5bce688b-fc81-4596-8277-b66f54be87c1"},"vehicle_type_id":"4","last_reported":1756314548,"current_range_meters":11200,"station_id":"","pricing_plan_id":"cebpf4jnsgd1na2vs0mg"},{"bike_id":"69b73498-bc2b-4268-84bf-00fabd5ba3f7","system_id":"levelo_inurba_marseille","lat":43.29973,"lon":5.37178,"is_reserved":false,"is_disabled":false,"rental_uris":{"android":"levelo://app?vid=69b73498-bc2b-4268-84bf-00fabd5ba3f7","ios":"levelo://app?vid=69b73498-bc2b-4268-84bf-00fabd5ba3f7"},"vehicle_type_id":"4","last_reported":1756314548,"current_range_meters":10800,"station_id":"ce4bgr92rcd13ifvqc7g","pricing_plan_id":"cebpf4jnsgd1na2vs0mg"},{"bike_id":"e337d582-364a-4312-af91-67d0c81052aa","system_id":"levelo_inurba_marseille","lat":43.32533,"lon":5.36461,"is_reserved":false,"is_disabled":false,"rental_uris":{"android":"levelo://app?vid=e337d582-364a-4312-af91-67d0c81052aa","ios":"levelo://app?vid=e337d582-364a-4312-af91-67d0c81052aa"},"vehicle_type_id":"4","last_reported":1756314548,"current_range_meters":10800,"station_id":"","pricing_plan_id":"cebpf4jnsgd1na2vs0mg"},{"bike_id":"b0110861-cfc4-46d0-b119-f25711481fcc","system_id":"levelo_inurba_marseille","lat":43.26557,"lon":5.37288,"is_reserved":false,"is_disabled":false,"rental_uris":{"android":"levelo://app?vid=b0110861-cfc4-46d0-b119-f25711481fcc","ios":"levelo://app?vid=b0110861-cfc4-46d0-b119-f25711481fcc"},"vehicle_type_id":"4","last_reported":1756314548,"current_range_meters":11200,"station_id":"ce4bhg12rcd13ifvqf70","pricing_plan_id":"cebpf4jnsgd1na2vs0mg"},{"bike_id":"0642bcc6-ab32-40e8-b05c-7462558adc8a","system_id":"levelo_inurba_marseille","lat":43.29022,"lon":5.35592,"is_reserved":false,"is_disabled":false,"rental_uris":{"android":"levelo://app?vid=0642bcc6-ab32-40e8-b05c-7462558adc8a","ios":"levelo://app?vid=0642bcc6-ab32-40e8-b05c-7462558adc8a"},"vehicle_type_id":"4","last_reported":1756314548,"current_range_meters":11200,"station_id":"ce4bhb92rcd13ifvqen0","pricing_plan_id":"cebpf4jnsgd1na2vs0mg"},{"bike_id":"2a93253d-ada4-45a7-a3e4-d408551e0a33","system_id":"levelo_inurba_marseille","lat":43.26206,"lon":5.37433,"is_reserved":false,"is_disabled":false,"rental_uris":{"android":"levelo://app?vid=2a93253d-ada4-45a7-a3e4-d408551e0a33","ios":"levelo://app?vid=2a93253d-ada4-45a7-a3e4-d408551e0a33"},"vehicle_type_id":"4","last_reported":1756314548,"current_range_meters":11200,"station_id":"ce4bhgp2rcd13ifvqfc0","pricing_plan_id":"cebpf4jnsgd1na2vs0mg"},{"bike_id":"e648a047-961d-4d82-a8ac-7d907da57214","system_id":"levelo_inurba_marseille","lat":43.29845,"lon":5.36273,"is_reserved":false,"is_disabled":false,"rental_uris":{"android":"levelo://app?vid=e648a047-961d-4d82-a8ac-7d907da57214","ios":"levelo://app?vid=e648a047-961d-4d82-a8ac-7d907da57214"},"vehicle_type_id":"4","last_reported":1756314548,"current_range_meters":11200,"station_id":"ce4bgpp2rcd13ifvqc3g","pricing_plan_id":"cebpf4jnsgd1na2vs0mg"},{"bike_id":"ad1aa29f-22b0-4c8d-b963-5343cab8b6c8","system_id":"levelo_inurba_marseille","lat":43.26208,"lon":5.37446,"is_reserved":false,"is_disabled":false,"rental_uris":{"android":"levelo://app?vid=ad1aa29f-22b0-4c8d-b963-5343cab8b6c8","ios":"levelo://app?vid=ad1aa29f-22b0-4c8d-b963-5343cab8b6c8"},"vehicle_type_id":"4","last_reported":1756314548,"current_range_meters":11200,"station_id":"ce4bhgp2rcd13ifvqfc0","pricing_plan_id":"cebpf4jnsgd1na2vs0mg"},{"bike_id":"900573f6-c63d-408e-b858-11a6ab5a1d2c","system_id":"levelo_inurba_marseille","lat":43.26199,"lon":5.37434,"is_reserved":false,"is_disabled":false,"rental_uris":{"android":"levelo://app?vid=900573f6-c63d-408e-b858-11a6ab5a1d2c","ios":"levelo://app?vid=900573f6-c63d-408e-b858-11a6ab5a1d2c"},"vehicle_type_id":"4","last_reported":1756314548,"current_range_meters":11200,"station_id":"ce4bhgp2rcd13ifvqfc0","pricing_plan_id":"cebpf4jnsgd1na2vs0mg"},{"bike_id":"6381200c-c53f-42f7-9294-7371882486ec","system_id":"levelo_inurba_marseille","lat":43.31168,"lon":5.38711,"is_reserved":false,"is_disabled":false,"rental_uris":{"android":"levelo://app?vid=6381200c-c53f-42f7-9294-7371882486ec","ios":"levelo://app?vid=6381200c-c53f-42f7-9294-7371882486ec"},"vehicle_type_id":"4","last_reported":1756314548,"current_range_meters":11200,"station_id":"ce4bgv12rcd13ifvqcp0","pricing_plan_id":"cebpf4jnsgd1na2vs0mg"},{"bike_id":"6f749c57-b543-496b-92bc-20835304abde","system_id":"levelo_inurba_marseille","lat":43.28951,"lon":5.36394,"is_reserved":false,"is_disabled":false,"rental_uris":{"android":"levelo://app?vid=6f749c57-b543-496b-92bc-20835304abde","ios":"levelo://app?vid=6f749c57-b543-496b-92bc-20835304abde"},"vehicle_type_id":"4","last_reported":1756314548,"current_range_meters":11200,"station_id":"ce4bhc92rcd13ifvqetg","pricing_plan_id":"cebpf4jnsgd1na2vs0mg"},{"bike_id":"5bd97bf2-681a-44b8-9da4-6a386f7ab9cc","system_id":"levelo_inurba_marseille","lat":43.29043,"lon":5.3995,"is_reserved":false,"is_disabled":false,"rental_uris":{"android":"levelo://app?vid=5bd97bf2-681a-44b8-9da4-6a386f7ab9cc","ios":"levelo://app?vid=5bd97bf2-681a-44b8-9da4-6a386f7ab9cc"},"vehicle_type_id":"4","last_reported":1756314548,"current_range_meters":11200,"station_id":"ce4bh392rcd13ifvqdm0","pricing_plan_id":"cebpf4jnsgd1na2vs0mg"},{"bike_id":"64c06664-1c5d-4f3e-9408-ac6396da34e2","system_id":"levelo_inurba_marseille","lat":43.26126,"lon":5.37438,"is_reserved":false,"is_disabled":false,"rental_uris":{"android":"levelo://app?vid=64c06664-1c5d-4f3e-9408-ac6396da34e2","ios":"levelo://app?vid=64c06664-1c5d-4f3e-9408-ac6396da34e2"},"vehicle_type_id":"4","last_reported":1756314548,"current_range_meters":11600,"station_id":"","pricing_plan_id":"cebpf4jnsgd1na2vs0mg"},{"bike_id":"2b4bae31-5cef-4aa0-aaea-a21e5b9827da","system_id":"levelo_inurba_marseille","lat":43.246619,"lon":5.381571,"is_reserved":false,"is_disabled":false,"rental_uris":{"android":"levelo://app?vid=2b4bae31-5cef-4aa0-aaea-a21e5b9827da","ios":"levelo://app?vid=2b4bae31-5cef-4aa0-aaea-a21e5b9827da"},"vehicle_type_id":"4","last_reported":1756314548,"current_range_meters":11600,"station_id":"ce4bhih2rcd13ifvqfr0","pricing_plan_id":"cebpf4jnsgd1na2vs0mg"},{"bike_id":"f424a7ac-10b2-4401-a13c-9d9e5b0dc70b","system_id":"levelo_inurba_marseille","lat":43.26549,"lon":5.37286,"is_reserved":false,"is_disabled":false,"rental_uris":{"android":"levelo://app?vid=f424a7ac-10b2-4401-a13c-9d9e5b0dc70b","ios":"levelo://app?vid=f424a7ac-10b2-4401-a13c-9d9e5b0dc70b"},"vehicle_type_id":"4","last_reported":1756314548,"current_range_meters":11600,"station_id":"ce4bhg12rcd13ifvqf70","pricing_plan_id":"cebpf4jnsgd1na2vs0mg"},{"bike_id":"b79f626f-4cce-45e0-9b7e-79f3f3a6033f","system_id":"levelo_inurba_marseille","lat":43.24545,"lon":5.43141,"is_reserved":false,"is_disabled":false,"rental_uris":{"android":"levelo://app?vid=b79f626f-4cce-45e0-9b7e-79f3f3a6033f","ios":"levelo://app?vid=b79f626f-4cce-45e0-9b7e-79f3f3a6033f"},"vehicle_type_id":"4","last_reported":1756314548,"current_range_meters":11600,"station_id":"st_d2m6c4gdas8pm72e190g","pricing_plan_id":"cebpf4jnsgd1na2vs0mg"},{"bike_id":"316863a5-1da2-4bfc-b1f8-acc55e28872b","system_id":"levelo_inurba_marseille","lat":43.27685,"lon":5.38872,"is_reserved":false,"is_disabled":false,"rental_uris":{"android":"levelo://app?vid=316863a5-1da2-4bfc-b1f8-acc55e28872b","ios":"levelo://app?vid=316863a5-1da2-4bfc-b1f8-acc55e28872b"},"vehicle_type_id":"4","last_reported":1756314548,"current_range_meters":11600,"station_id":"ce4bhi12rcd13ifvqfo0","pricing_plan_id":"cebpf4jnsgd1na2vs0mg"},{"bike_id":"4aa04cf0-c98a-4b86-9c20-0afc960e7cd0","system_id":"levelo_inurba_marseille","lat":43.26189,"lon":5.37469,"is_reserved":false,"is_disabled":false,"rental_uris":{"android":"levelo://app?vid=4aa04cf0-c98a-4b86-9c20-0afc960e7cd0","ios":"levelo://app?vid=4aa04cf0-c98a-4b86-9c20-0afc960e7cd0"},"vehicle_type_id":"4","last_reported":1756314548,"current_range_meters":11600,"station_id":"ce4bhgp2rcd13ifvqfc0","pricing_plan_id":"cebpf4jnsgd1na2vs0mg"},{"bike_id":"439c02fa-7edf-42d8-8f05-0b90f0d6d525","system_id":"levelo_inurba_marseille","lat":43.26203,"lon":5.37439,"is_reserved":false,"is_disabled":false,"rental_uris":{"android":"levelo://app?vid=439c02fa-7edf-42d8-8f05-0b90f0d6d525","ios":"levelo://app?vid=439c02fa-7edf-42d8-8f05-0b90f0d6d525"},"vehicle_type_id":"4","last_reported":1756314548,"current_range_meters":11600,"station_id":"ce4bhgp2rcd13ifvqfc0","pricing_plan_id":"cebpf4jnsgd1na2vs0mg"},{"bike_id":"e5dbdcb4-0bc7-474f-a811-ad50b99c4015","system_id":"levelo_inurba_marseille","lat":43.28154,"lon":5.42646,"is_reserved":false,"is_disabled":false,"rental_uris":{"android":"levelo://app?vid=e5dbdcb4-0bc7-474f-a811-ad50b99c4015","ios":"levelo://app?vid=e5dbdcb4-0bc7-474f-a811-ad50b99c4015"},"vehicle_type_id":"4","last_reported":1756314548,"current_range_meters":12000,"station_id":"ce4bhnh2rcd13ifvqgug","pricing_plan_id":"cebpf4jnsgd1na2vs0mg"},{"bike_id":"b935f9e3-0be1-47b7-9f41-bf1665bfbcc6","system_id":"levelo_inurba_marseille","lat":43.31372,"lon":5.38496,"is_reserved":false,"is_disabled":false,"rental_uris":{"android":"levelo://app?vid=b935f9e3-0be1-47b7-9f41-bf1665bfbcc6","ios":"levelo://app?vid=b935f9e3-0be1-47b7-9f41-bf1665bfbcc6"},"vehicle_type_id":"4","last_reported":1756314548,"current_range_meters":12000,"station_id":"ce4bgt92rcd13ifvqcf0","pricing_plan_id":"cebpf4jnsgd1na2vs0mg"},{"bike_id":"d75ce8b4-aabc-49d5-9ad0-349506f15e71","system_id":"levelo_inurba_marseille","lat":43.24809,"lon":5.3746,"is_reserved":false,"is_disabled":false,"rental_uris":{"android":"levelo://app?vid=d75ce8b4-aabc-49d5-9ad0-349506f15e71","ios":"levelo://app?vid=d75ce8b4-aabc-49d5-9ad0-349506f15e71"},"vehicle_type_id":"4","last_reported":1756314548,"current_range_meters":12000,"station_id":"ce4bhgh2rcd13ifvqfb0","pricing_plan_id":"cebpf4jnsgd1na2vs0mg"},{"bike_id":"eb19396f-06ab-4d24-95cc-913d5887f3b2","system_id":"levelo_inurba_marseille","lat":43.32543,"lon":5.41429,"is_reserved":false,"is_disabled":false,"rental_uris":{"android":"levelo://app?vid=eb19396f-06ab-4d24-95cc-913d5887f3b2","ios":"levelo://app?vid=eb19396f-06ab-4d24-95cc-913d5887f3b2"},"vehicle_type_id":"4","last_reported":1756314548,"current_range_meters":12000,"station_id":"ce4bhq12rcd13ifvqhhg","pricing_plan_id":"cebpf4jnsgd1na2vs0mg"},{"bike_id":"874376d5-cc40-4ea0-afe6-94d890db36e7","system_id":"levelo_inurba_marseille","lat":43.28414,"lon":5.34988,"is_reserved":false,"is_disabled":false,"rental_uris":{"android":"levelo://app?vid=874376d5-cc40-4ea0-afe6-94d890db36e7","ios":"levelo://app?vid=874376d5-cc40-4ea0-afe6-94d890db36e7"},"vehicle_type_id":"4","last_reported":1756314548,"current_range_meters":12000,"station_id":"ce4bhbh2rcd13ifvqepg","pricing_plan_id":"cebpf4jnsgd1na2vs0mg"},{"bike_id":"98f1d048-07f0-40fe-94ab-46a14776ff05","system_id":"levelo_inurba_marseille","lat":43.30146,"lon":5.37401,"is_reserved":false,"is_disabled":false,"rental_uris":{"android":"levelo://app?vid=98f1d048-07f0-40fe-94ab-46a14776ff05","ios":"levelo://app?vid=98f1d048-07f0-40fe-94ab-46a14776ff05"},"vehicle_type_id":"4","last_reported":1756314548,"current_range_meters":12000,"station_id":"ce4bgs92rcd13ifvqcc0","pricing_plan_id":"cebpf4jnsgd1na2vs0mg"},{"bike_id":"64cb5a62-4871-4ae3-9dc3-31ad60f839c8","system_id":"levelo_inurba_marseille","lat":43.26019,"lon":5.37552,"is_reserved":false,"is_disabled":false,"rental_uris":{"android":"levelo://app?vid=64cb5a62-4871-4ae3-9dc3-31ad60f839c8","ios":"levelo://app?vid=64cb5a62-4871-4ae3-9dc3-31ad60f839c8"},"vehicle_type_id":"4","last_reported":1756314548,"current_range_meters":12000,"station_id":"ce4bhgh2rcd13ifvqfa0","pricing_plan_id":"cebpf4jnsgd1na2vs0mg"},{"bike_id":"483d27ff-3c8e-4e50-bea0-76e0d68759db","system_id":"levelo_inurba_marseille","lat":43.29844,"lon":5.3627,"is_reserved":false,"is_disabled":false,"rental_uris":{"android":"levelo://app?vid=483d27ff-3c8e-4e50-bea0-76e0d68759db","ios":"levelo://app?vid=483d27ff-3c8e-4e50-bea0-76e0d68759db"},"vehicle_type_id":"4","last_reported":1756314548,"current_range_meters":12000,"station_id":"ce4bgpp2rcd13ifvqc3g","pricing_plan_id":"cebpf4jnsgd1na2vs0mg"},{"bike_id":"6327418d-7a53-4b12-87d6-79bf378934ee","system_id":"levelo_inurba_marseille","lat":43.23188,"lon":5.35547,"is_reserved":false,"is_disabled":false,"rental_uris":{"android":"levelo://app?vid=6327418d-7a53-4b12-87d6-79bf378934ee","ios":"levelo://app?vid=6327418d-7a53-4b12-87d6-79bf378934ee"},"vehicle_type_id":"4","last_reported":1756314548,"current_range_meters":12000,"station_id":"ce4bhu92rcd13ifvqi70","pricing_plan_id":"cebpf4jnsgd1na2vs0mg"},{"bike_id":"4dbe2178-87c0-4cac-846c-9d5c316fc215","system_id":"levelo_inurba_marseille","lat":43.26217,"lon":5.37928,"is_reserved":false,"is_disabled":false,"rental_uris":{"android":"levelo://app?vid=4dbe2178-87c0-4cac-846c-9d5c316fc215","ios":"levelo://app?vid=4dbe2178-87c0-4cac-846c-9d5c316fc215"},"vehicle_type_id":"4","last_reported":1756314548,"current_range_meters":12400,"station_id":"ce4bhjp2rcd13ifvqg90","pricing_plan_id":"cebpf4jnsgd1na2vs0mg"},{"bike_id":"e5eabf25-4e1c-476e-b130-9f83cdcfc80c","system_id":"levelo_inurba_marseille","lat":43.29812,"lon":5.41715,"is_reserved":false,"is_disabled":false,"rental_uris":{"android":"levelo://app?vid=e5eabf25-4e1c-476e-b130-9f83cdcfc80c","ios":"levelo://app?vid=e5eabf25-4e1c-476e-b130-9f83cdcfc80c"},"vehicle_type_id":"4","last_reported":1756314548,"current_range_meters":12400,"station_id":"","pricing_plan_id":"cebpf4jnsgd1na2vs0mg"},{"bike_id":"1e852faa-0778-4e8a-a9c8-6c774f7c3cf4","system_id":"levelo_inurba_marseille","lat":43.26033,"lon":5.37549,"is_reserved":false,"is_disabled":false,"rental_uris":{"android":"levelo://app?vid=1e852faa-0778-4e8a-a9c8-6c774f7c3cf4","ios":"levelo://app?vid=1e852faa-0778-4e8a-a9c8-6c774f7c3cf4"},"vehicle_type_id":"4","last_reported":1756314548,"current_range_meters":12400,"station_id":"ce4bhgh2rcd13ifvqfa0","pricing_plan_id":"cebpf4jnsgd1na2vs0mg"},{"bike_id":"3448e159-471f-45cf-b0bc-dcb672574311","system_id":"levelo_inurba_marseille","lat":43.26195,"lon":5.374521,"is_reserved":false,"is_disabled":true,"rental_uris":{"android":"levelo://app?vid=3448e159-471f-45cf-b0bc-dcb672574311","ios":"levelo://app?vid=3448e159-471f-45cf-b0bc-dcb672574311"},"vehicle_type_id":"4","last_reported":1756314548,"current_range_meters":12400,"station_id":"ce4bhgp2rcd13ifvqfc0","pricing_plan_id":"cebpf4jnsgd1na2vs0mg"},{"bike_id":"817e579b-feaa-4b6d-82e8-fdc55889acb4","system_id":"levelo_inurba_marseille","lat":43.257197,"lon":5.410743,"is_reserved":false,"is_disabled":false,"rental_uris":{"android":"levelo://app?vid=817e579b-feaa-4b6d-82e8-fdc55889acb4","ios":"levelo://app?vid=817e579b-feaa-4b6d-82e8-fdc55889acb4"},"vehicle_type_id":"4","last_reported":1756314548,"current_range_meters":12400,"station_id":"ce4bhkp2rcd13ifvqgd0","pricing_plan_id":"cebpf4jnsgd1na2vs0mg"},{"bike_id":"9308f021-ec84-4fe8-8c25-145b6405b7e0","system_id":"levelo_inurba_marseille","lat":43.30544,"lon":5.36699,"is_reserved":false,"is_disabled":true,"rental_uris":{"android":"levelo://app?vid=9308f021-ec84-4fe8-8c25-145b6405b7e0","ios":"levelo://app?vid=9308f021-ec84-4fe8-8c25-145b6405b7e0"},"vehicle_type_id":"4","last_reported":1756314548,"current_range_meters":12400,"station_id":"ce4bgrp2rcd13ifvqc9g","pricing_plan_id":"cebpf4jnsgd1na2vs0mg"},{"bike_id":"851053e8-d3be-4f09-af43-d2598eb82f5e","system_id":"levelo_inurba_marseille","lat":43.2656,"lon":5.372844,"is_reserved":false,"is_disabled":false,"rental_uris":{"android":"levelo://app?vid=851053e8-d3be-4f09-af43-d2598eb82f5e","ios":"levelo://app?vid=851053e8-d3be-4f09-af43-d2598eb82f5e"},"vehicle_type_id":"4","last_reported":1756314548,"current_range_meters":12400,"station_id":"ce4bhg12rcd13ifvqf70","pricing_plan_id":"cebpf4jnsgd1na2vs0mg"},{"bike_id":"a8a5f834-b2c0-4417-9230-fbeefed5d598","system_id":"levelo_inurba_marseille","lat":43.29036,"lon":5.3995,"is_reserved":false,"is_disabled":false,"rental_uris":{"android":"levelo://app?vid=a8a5f834-b2c0-4417-9230-fbeefed5d598","ios":"levelo://app?vid=a8a5f834-b2c0-4417-9230-fbeefed5d598"},"vehicle_type_id":"4","last_reported":1756314548,"current_range_meters":12800,"station_id":"ce4bh392rcd13ifvqdm0","pricing_plan_id":"cebpf4jnsgd1na2vs0mg"},{"bike_id":"b5ae0016-67e1-4c37-91cb-4d986fbc09a4","system_id":"levelo_inurba_marseille","lat":43.24629,"lon":5.43144,"is_reserved":false,"is_disabled":false,"rental_uris":{"android":"levelo://app?vid=b5ae0016-67e1-4c37-91cb-4d986fbc09a4","ios":"levelo://app?vid=b5ae0016-67e1-4c37-91cb-4d986fbc09a4"},"vehicle_type_id":"4","last_reported":1756314548,"current_range_meters":12800,"station_id":"st_d2m6c4gdas8pm72e190g","pricing_plan_id":"cebpf4jnsgd1na2vs0mg"},{"bike_id":"e6418390-149c-4507-ac50-81b0060b9060","system_id":"levelo_inurba_marseille","lat":43.28673,"lon":5.38667,"is_reserved":false,"is_disabled":false,"rental_uris":{"android":"levelo://app?vid=e6418390-149c-4507-ac50-81b0060b9060","ios":"levelo://app?vid=e6418390-149c-4507-ac50-81b0060b9060"},"vehicle_type_id":"4","last_reported":1756314548,"current_range_meters":12400,"station_id":"ce4bh492rcd13ifvqdug","pricing_plan_id":"cebpf4jnsgd1na2vs0mg"},{"bike_id":"d9d572f7-d811-4b4d-9ec5-cb85e6210f42","system_id":"levelo_inurba_marseille","lat":43.321165,"lon":5.367703,"is_reserved":false,"is_disabled":false,"rental_uris":{"android":"levelo://app?vid=d9d572f7-d811-4b4d-9ec5-cb85e6210f42","ios":"levelo://app?vid=d9d572f7-d811-4b4d-9ec5-cb85e6210f42"},"vehicle_type_id":"4","last_reported":1756314548,"current_range_meters":12800,"station_id":"ce4bhrh2rcd13ifvqhug","pricing_plan_id":"cebpf4jnsgd1na2vs0mg"},{"bike_id":"14c3f658-478f-4297-aa49-ea7d54ad0f15","system_id":"levelo_inurba_marseille","lat":43.23201,"lon":5.35546,"is_reserved":false,"is_disabled":false,"rental_uris":{"android":"levelo://app?vid=14c3f658-478f-4297-aa49-ea7d54ad0f15","ios":"levelo://app?vid=14c3f658-478f-4297-aa49-ea7d54ad0f15"},"vehicle_type_id":"4","last_reported":1756314548,"current_range_meters":12800,"station_id":"ce4bhu92rcd13ifvqi70","pricing_plan_id":"cebpf4jnsgd1na2vs0mg"},{"bike_id":"deea2183-4297-45dc-b252-5e5dabf475d9","system_id":"levelo_inurba_marseille","lat":43.26201,"lon":5.37445,"is_reserved":false,"is_disabled":false,"rental_uris":{"android":"levelo://app?vid=deea2183-4297-45dc-b252-5e5dabf475d9","ios":"levelo://app?vid=deea2183-4297-45dc-b252-5e5dabf475d9"},"vehicle_type_id":"4","last_reported":1756314548,"current_range_meters":13600,"station_id":"ce4bhgp2rcd13ifvqfc0","pricing_plan_id":"cebpf4jnsgd1na2vs0mg"},{"bike_id":"289d577a-cef8-40ea-a18b-c2fef868e0ba","system_id":"levelo_inurba_marseille","lat":43.28411,"lon":5.34994,"is_reserved":false,"is_disabled":false,"rental_uris":{"android":"levelo://app?vid=289d577a-cef8-40ea-a18b-c2fef868e0ba","ios":"levelo://app?vid=289d577a-cef8-40ea-a18b-c2fef868e0ba"},"vehicle_type_id":"4","last_reported":1756314548,"current_range_meters":13600,"station_id":"ce4bhbh2rcd13ifvqepg","pricing_plan_id":"cebpf4jnsgd1na2vs0mg"},{"bike_id":"4344dc6d-f6ab-428d-b6c0-8f72f8b177de","system_id":"levelo_inurba_marseille","lat":43.29009,"lon":5.35606,"is_reserved":false,"is_disabled":false,"rental_uris":{"android":"levelo://app?vid=4344dc6d-f6ab-428d-b6c0-8f72f8b177de","ios":"levelo://app?vid=4344dc6d-f6ab-428d-b6c0-8f72f8b177de"},"vehicle_type_id":"4","last_reported":1756314548,"current_range_meters":13600,"station_id":"ce4bhb92rcd13ifvqen0","pricing_plan_id":"cebpf4jnsgd1na2vs0mg"},{"bike_id":"0f969274-ed3a-4d5e-b4e6-7a3984afd615","system_id":"levelo_inurba_marseille","lat":43.2602,"lon":5.37552,"is_reserved":false,"is_disabled":false,"rental_uris":{"android":"levelo://app?vid=0f969274-ed3a-4d5e-b4e6-7a3984afd615","ios":"levelo://app?vid=0f969274-ed3a-4d5e-b4e6-7a3984afd615"},"vehicle_type_id":"4","last_reported":1756314548,"current_range_meters":13600,"station_id":"ce4bhgh2rcd13ifvqfa0","pricing_plan_id":"cebpf4jnsgd1na2vs0mg"},{"bike_id":"3ce18fbc-ec38-4f9e-9dd9-9a3dee5c503d","system_id":"levelo_inurba_marseille","lat":43.2602,"lon":5.37557,"is_reserved":false,"is_disabled":true,"rental_uris":{"android":"levelo://app?vid=3ce18fbc-ec38-4f9e-9dd9-9a3dee5c503d","ios":"levelo://app?vid=3ce18fbc-ec38-4f9e-9dd9-9a3dee5c503d"},"vehicle_type_id":"4","last_reported":1756314548,"current_range_meters":13600,"station_id":"ce4bhgh2rcd13ifvqfa0","pricing_plan_id":"cebpf4jnsgd1na2vs0mg"},{"bike_id":"da56be69-d1d8-4e58-9211-9f80a01d3f01","system_id":"levelo_inurba_marseille","lat":43.26548,"lon":5.37293,"is_reserved":false,"is_disabled":false,"rental_uris":{"android":"levelo://app?vid=da56be69-d1d8-4e58-9211-9f80a01d3f01","ios":"levelo://app?vid=da56be69-d1d8-4e58-9211-9f80a01d3f01"},"vehicle_type_id":"4","last_reported":1756314548,"current_range_meters":13600,"station_id":"","pricing_plan_id":"cebpf4jnsgd1na2vs0mg"},{"bike_id":"3dff11d5-3872-4ffe-8cce-b5631d6c6058","system_id":"levelo_inurba_marseille","lat":43.33023,"lon":5.39028,"is_reserved":false,"is_disabled":false,"rental_uris":{"android":"levelo://app?vid=3dff11d5-3872-4ffe-8cce-b5631d6c6058","ios":"levelo://app?vid=3dff11d5-3872-4ffe-8cce-b5631d6c6058"},"vehicle_type_id":"4","last_reported":1756314548,"current_range_meters":13600,"station_id":"ce4bhr92rcd13ifvqhrg","pricing_plan_id":"cebpf4jnsgd1na2vs0mg"},{"bike_id":"685105d1-bcda-4899-9d64-d94adf158a64","system_id":"levelo_inurba_marseille","lat":43.314676,"lon":5.373608,"is_reserved":false,"is_disabled":true,"rental_uris":{"android":"levelo://app?vid=685105d1-bcda-4899-9d64-d94adf158a64","ios":"levelo://app?vid=685105d1-bcda-4899-9d64-d94adf158a64"},"vehicle_type_id":"4","last_reported":1756314548,"current_range_meters":14000,"station_id":"","pricing_plan_id":"cebpf4jnsgd1na2vs0mg"},{"bike_id":"2d35c570-724e-42d6-9b57-babd6cb61039","system_id":"levelo_inurba_marseille","lat":43.26025,"lon":5.37538,"is_reserved":false,"is_disabled":false,"rental_uris":{"android":"levelo://app?vid=2d35c570-724e-42d6-9b57-babd6cb61039","ios":"levelo://app?vid=2d35c570-724e-42d6-9b57-babd6cb61039"},"vehicle_type_id":"4","last_reported":1756314548,"current_range_meters":14000,"station_id":"ce4bhgh2rcd13ifvqfa0","pricing_plan_id":"cebpf4jnsgd1na2vs0mg"},{"bike_id":"7d72ad7e-cdc8-4b9f-a249-c351de525fd6","system_id":"levelo_inurba_marseille","lat":43.2823,"lon":5.3907,"is_reserved":false,"is_disabled":false,"rental_uris":{"android":"levelo://app?vid=7d72ad7e-cdc8-4b9f-a249-c351de525fd6","ios":"levelo://app?vid=7d72ad7e-cdc8-4b9f-a249-c351de525fd6"},"vehicle_type_id":"4","last_reported":1756314548,"current_range_meters":14000,"station_id":"ce4bhn92rcd13ifvqgsg","pricing_plan_id":"cebpf4jnsgd1na2vs0mg"},{"bike_id":"96207dea-7bbf-4883-ab9a-820d9c447ab3","system_id":"levelo_inurba_marseille","lat":43.28434,"lon":5.34978,"is_reserved":false,"is_disabled":false,"rental_uris":{"android":"levelo://app?vid=96207dea-7bbf-4883-ab9a-820d9c447ab3","ios":"levelo://app?vid=96207dea-7bbf-4883-ab9a-820d9c447ab3"},"vehicle_type_id":"4","last_reported":1756314548,"current_range_meters":14000,"station_id":"ce4bhbh2rcd13ifvqepg","pricing_plan_id":"cebpf4jnsgd1na2vs0mg"},{"bike_id":"64886e52-3fd4-4126-8f1c-9e7c8d3942eb","system_id":"levelo_inurba_marseille","lat":43.27496,"lon":5.4245,"is_reserved":false,"is_disabled":false,"rental_uris":{"android":"levelo://app?vid=64886e52-3fd4-4126-8f1c-9e7c8d3942eb","ios":"levelo://app?vid=64886e52-3fd4-4126-8f1c-9e7c8d3942eb"},"vehicle_type_id":"4","last_reported":1756314548,"current_range_meters":13600,"station_id":"ce4bhn92rcd13ifvqgrg","pricing_plan_id":"cebpf4jnsgd1na2vs0mg"},{"bike_id":"0e979985-4bba-4b2d-9419-827cff4838ac","system_id":"levelo_inurba_marseille","lat":43.30308,"lon":5.45373,"is_reserved":false,"is_disabled":false,"rental_uris":{"android":"levelo://app?vid=0e979985-4bba-4b2d-9419-827cff4838ac","ios":"levelo://app?vid=0e979985-4bba-4b2d-9419-827cff4838ac"},"vehicle_type_id":"4","last_reported":1756314548,"current_range_meters":14000,"station_id":"","pricing_plan_id":"cebpf4jnsgd1na2vs0mg"},{"bike_id":"db526668-1205-422f-99f2-dc09210cda94","system_id":"levelo_inurba_marseille","lat":43.29268,"lon":5.3684,"is_reserved":false,"is_disabled":false,"rental_uris":{"android":"levelo://app?vid=db526668-1205-422f-99f2-dc09210cda94","ios":"levelo://app?vid=db526668-1205-422f-99f2-dc09210cda94"},"vehicle_type_id":"4","last_reported":1756314548,"current_range_meters":14400,"station_id":"ce4bhbp2rcd13ifvqesg","pricing_plan_id":"cebpf4jnsgd1na2vs0mg"},{"bike_id":"e015e10e-5150-4191-bd77-9a9eb049d191","system_id":"levelo_inurba_marseille","lat":43.29271,"lon":5.37637,"is_reserved":false,"is_disabled":false,"rental_uris":{"android":"levelo://app?vid=e015e10e-5150-4191-bd77-9a9eb049d191","ios":"levelo://app?vid=e015e10e-5150-4191-bd77-9a9eb049d191"},"vehicle_type_id":"4","last_reported":1756314548,"current_range_meters":14400,"station_id":"ce4bgi12rcd13ifvqb80","pricing_plan_id":"cebpf4jnsgd1na2vs0mg"},{"bike_id":"19eabc24-80d3-4327-b947-9ec7f85cd494","system_id":"levelo_inurba_marseille","lat":43.27326,"lon":5.39075,"is_reserved":false,"is_disabled":true,"rental_uris":{"android":"levelo://app?vid=19eabc24-80d3-4327-b947-9ec7f85cd494","ios":"levelo://app?vid=19eabc24-80d3-4327-b947-9ec7f85cd494"},"vehicle_type_id":"4","last_reported":1756314548,"current_range_meters":14400,"station_id":"ce4bhgp2rcd13ifvqfe0","pricing_plan_id":"cebpf4jnsgd1na2vs0mg"},{"bike_id":"b7ee4414-f1f6-4748-b2c7-6f690de92d81","system_id":"levelo_inurba_marseille","lat":43.21164,"lon":5.35107,"is_reserved":false,"is_disabled":false,"rental_uris":{"android":"levelo://app?vid=b7ee4414-f1f6-4748-b2c7-6f690de92d81","ios":"levelo://app?vid=b7ee4414-f1f6-4748-b2c7-6f690de92d81"},"vehicle_type_id":"4","last_reported":1756314548,"current_range_meters":14400,"station_id":"st_cvj6sg6p6f1abm77japg","pricing_plan_id":"cebpf4jnsgd1na2vs0mg"},{"bike_id":"2e55c538-508e-4fef-8f5f-62b4ad8b5b85","system_id":"levelo_inurba_marseille","lat":43.21744,"lon":5.34596,"is_reserved":false,"is_disabled":false,"rental_uris":{"android":"levelo://app?vid=2e55c538-508e-4fef-8f5f-62b4ad8b5b85","ios":"levelo://app?vid=2e55c538-508e-4fef-8f5f-62b4ad8b5b85"},"vehicle_type_id":"4","last_reported":1756314548,"current_range_meters":14400,"station_id":"st_cvj6r9ubvosntc0bgbag","pricing_plan_id":"cebpf4jnsgd1na2vs0mg"},{"bike_id":"b544be72-e517-4e78-baea-097b0c331889","system_id":"levelo_inurba_marseille","lat":43.24819,"lon":5.37479,"is_reserved":false,"is_disabled":false,"rental_uris":{"android":"levelo://app?vid=b544be72-e517-4e78-baea-097b0c331889","ios":"levelo://app?vid=b544be72-e517-4e78-baea-097b0c331889"},"vehicle_type_id":"4","last_reported":1756314548,"current_range_meters":14800,"station_id":"ce4bhgh2rcd13ifvqfb0","pricing_plan_id":"cebpf4jnsgd1na2vs0mg"},{"bike_id":"5c26a54e-1e97-4ad3-a16d-614ad930b130","system_id":"levelo_inurba_marseille","lat":43.32112,"lon":5.36763,"is_reserved":false,"is_disabled":false,"rental_uris":{"android":"levelo://app?vid=5c26a54e-1e97-4ad3-a16d-614ad930b130","ios":"levelo://app?vid=5c26a54e-1e97-4ad3-a16d-614ad930b130"},"vehicle_type_id":"4","last_reported":1756314548,"current_range_meters":14800,"station_id":"ce4bhrh2rcd13ifvqhug","pricing_plan_id":"cebpf4jnsgd1na2vs0mg"},{"bike_id":"064887b2-9e63-44f9-8778-ad23a8de1c69","system_id":"levelo_inurba_marseille","lat":43.26029,"lon":5.37559,"is_reserved":false,"is_disabled":false,"rental_uris":{"android":"levelo://app?vid=064887b2-9e63-44f9-8778-ad23a8de1c69","ios":"levelo://app?vid=064887b2-9e63-44f9-8778-ad23a8de1c69"},"vehicle_type_id":"4","last_reported":1756314548,"current_range_meters":14800,"station_id":"ce4bhgh2rcd13ifvqfa0","pricing_plan_id":"cebpf4jnsgd1na2vs0mg"},{"bike_id":"d1b764f1-e3f7-4da4-b6da-a4ca3e5c2374","system_id":"levelo_inurba_marseille","lat":43.258951,"lon":5.385072,"is_reserved":false,"is_disabled":false,"rental_uris":{"android":"levelo://app?vid=d1b764f1-e3f7-4da4-b6da-a4ca3e5c2374","ios":"levelo://app?vid=d1b764f1-e3f7-4da4-b6da-a4ca3e5c2374"},"vehicle_type_id":"4","last_reported":1756314548,"current_range_meters":14800,"station_id":"ce4bhe12rcd13ifvqf30","pricing_plan_id":"cebpf4jnsgd1na2vs0mg"},{"bike_id":"f67c8e5e-7af8-4847-a4ce-1e12088b4291","system_id":"levelo_inurba_marseille","lat":43.33026,"lon":5.39247,"is_reserved":false,"is_disabled":false,"rental_uris":{"android":"levelo://app?vid=f67c8e5e-7af8-4847-a4ce-1e12088b4291","ios":"levelo://app?vid=f67c8e5e-7af8-4847-a4ce-1e12088b4291"},"vehicle_type_id":"4","last_reported":1756314548,"current_range_meters":14800,"station_id":"","pricing_plan_id":"cebpf4jnsgd1na2vs0mg"},{"bike_id":"52f4f38b-4c90-49e9-b7c6-6f29d5adcdf6","system_id":"levelo_inurba_marseille","lat":43.21199,"lon":5.35055,"is_reserved":false,"is_disabled":false,"rental_uris":{"android":"levelo://app?vid=52f4f38b-4c90-49e9-b7c6-6f29d5adcdf6","ios":"levelo://app?vid=52f4f38b-4c90-49e9-b7c6-6f29d5adcdf6"},"vehicle_type_id":"4","last_reported":1756314548,"current_range_meters":14800,"station_id":"st_cvj6sg6p6f1abm77japg","pricing_plan_id":"cebpf4jnsgd1na2vs0mg"},{"bike_id":"cb3a9350-7199-4d4e-9ca3-16eeb7368712","system_id":"levelo_inurba_marseille","lat":43.28279,"lon":5.3508,"is_reserved":false,"is_disabled":false,"rental_uris":{"android":"levelo://app?vid=cb3a9350-7199-4d4e-9ca3-16eeb7368712","ios":"levelo://app?vid=cb3a9350-7199-4d4e-9ca3-16eeb7368712"},"vehicle_type_id":"4","last_reported":1756314548,"current_range_meters":14800,"station_id":"ce4bhbp2rcd13ifvqerg","pricing_plan_id":"cebpf4jnsgd1na2vs0mg"},{"bike_id":"57ef6066-5ce7-46a2-952f-2d31c9041ea3","system_id":"levelo_inurba_marseille","lat":43.29979,"lon":5.38486,"is_reserved":false,"is_disabled":false,"rental_uris":{"android":"levelo://app?vid=57ef6066-5ce7-46a2-952f-2d31c9041ea3","ios":"levelo://app?vid=57ef6066-5ce7-46a2-952f-2d31c9041ea3"},"vehicle_type_id":"4","last_reported":1756314548,"current_range_meters":14800,"station_id":"ce4bgj92rcd13ifvqbd0","pricing_plan_id":"cebpf4jnsgd1na2vs0mg"},{"bike_id":"9ecea004-2157-4137-8b5b-4193f3514c10","system_id":"levelo_inurba_marseille","lat":43.29542,"lon":5.38542,"is_reserved":false,"is_disabled":false,"rental_uris":{"android":"levelo://app?vid=9ecea004-2157-4137-8b5b-4193f3514c10","ios":"levelo://app?vid=9ecea004-2157-4137-8b5b-4193f3514c10"},"vehicle_type_id":"4","last_reported":1756314548,"current_range_meters":14800,"station_id":"ce4bgih2rcd13ifvqba0","pricing_plan_id":"cebpf4jnsgd1na2vs0mg"},{"bike_id":"11a38367-deb6-4141-b3c1-0cba6ea43c8d","system_id":"levelo_inurba_marseille","lat":43.29014,"lon":5.3563,"is_reserved":false,"is_disabled":true,"rental_uris":{"android":"levelo://app?vid=11a38367-deb6-4141-b3c1-0cba6ea43c8d","ios":"levelo://app?vid=11a38367-deb6-4141-b3c1-0cba6ea43c8d"},"vehicle_type_id":"4","last_reported":1756314548,"current_range_meters":15200,"station_id":"ce4bhb92rcd13ifvqen0","pricing_plan_id":"cebpf4jnsgd1na2vs0mg"},{"bike_id":"862e13cb-09b2-4541-8632-889f6f3c8cd2","system_id":"levelo_inurba_marseille","lat":43.32539,"lon":5.41428,"is_reserved":false,"is_disabled":false,"rental_uris":{"android":"levelo://app?vid=862e13cb-09b2-4541-8632-889f6f3c8cd2","ios":"levelo://app?vid=862e13cb-09b2-4541-8632-889f6f3c8cd2"},"vehicle_type_id":"4","last_reported":1756314548,"current_range_meters":15200,"station_id":"ce4bhq12rcd13ifvqhhg","pricing_plan_id":"cebpf4jnsgd1na2vs0mg"},{"bike_id":"efecb79e-0f05-4467-801d-aa94c2967929","system_id":"levelo_inurba_marseille","lat":43.292292,"lon":5.360475,"is_reserved":false,"is_disabled":false,"rental_uris":{"android":"levelo://app?vid=efecb79e-0f05-4467-801d-aa94c2967929","ios":"levelo://app?vid=efecb79e-0f05-4467-801d-aa94c2967929"},"vehicle_type_id":"4","last_reported":1756314548,"current_range_meters":15200,"station_id":"ce4bhbh2rcd13ifvqeqg","pricing_plan_id":"cebpf4jnsgd1na2vs0mg"},{"bike_id":"fe3153c3-8e84-48d7-99ec-b5509fa87539","system_id":"levelo_inurba_marseille","lat":43.261627,"lon":5.374758,"is_reserved":false,"is_disabled":false,"rental_uris":{"android":"levelo://app?vid=fe3153c3-8e84-48d7-99ec-b5509fa87539","ios":"levelo://app?vid=fe3153c3-8e84-48d7-99ec-b5509fa87539"},"vehicle_type_id":"4","last_reported":1756314548,"current_range_meters":15200,"station_id":"ce4bhgp2rcd13ifvqfc0","pricing_plan_id":"cebpf4jnsgd1na2vs0mg"},{"bike_id":"cebad23e-ae11-4c97-a677-9b13391b2ee6","system_id":"levelo_inurba_marseille","lat":43.28147,"lon":5.42644,"is_reserved":false,"is_disabled":false,"rental_uris":{"android":"levelo://app?vid=cebad23e-ae11-4c97-a677-9b13391b2ee6","ios":"levelo://app?vid=cebad23e-ae11-4c97-a677-9b13391b2ee6"},"vehicle_type_id":"4","last_reported":1756314548,"current_range_meters":15200,"station_id":"ce4bhnh2rcd13ifvqgug","pricing_plan_id":"cebpf4jnsgd1na2vs0mg"},{"bike_id":"a449fb2f-f1b0-4299-81dc-23d84745d332","system_id":"levelo_inurba_marseille","lat":43.26204,"lon":5.37933,"is_reserved":false,"is_disabled":false,"rental_uris":{"android":"levelo://app?vid=a449fb2f-f1b0-4299-81dc-23d84745d332","ios":"levelo://app?vid=a449fb2f-f1b0-4299-81dc-23d84745d332"},"vehicle_type_id":"4","last_reported":1756314548,"current_range_meters":15200,"station_id":"ce4bhjp2rcd13ifvqg90","pricing_plan_id":"cebpf4jnsgd1na2vs0mg"},{"bike_id":"901693be-e0fd-48c6-abfc-fe8f5561b51a","system_id":"levelo_inurba_marseille","lat":43.26021,"lon":5.37554,"is_reserved":false,"is_disabled":false,"rental_uris":{"android":"levelo://app?vid=901693be-e0fd-48c6-abfc-fe8f5561b51a","ios":"levelo://app?vid=901693be-e0fd-48c6-abfc-fe8f5561b51a"},"vehicle_type_id":"4","last_reported":1756314548,"current_range_meters":15200,"station_id":"ce4bhgh2rcd13ifvqfa0","pricing_plan_id":"cebpf4jnsgd1na2vs0mg"},{"bike_id":"814645c9-7af5-4408-879c-1836489b0342","system_id":"levelo_inurba_marseille","lat":43.2654,"lon":5.37286,"is_reserved":false,"is_disabled":false,"rental_uris":{"android":"levelo://app?vid=814645c9-7af5-4408-879c-1836489b0342","ios":"levelo://app?vid=814645c9-7af5-4408-879c-1836489b0342"},"vehicle_type_id":"4","last_reported":1756314548,"current_range_meters":15200,"station_id":"ce4bhg12rcd13ifvqf70","pricing_plan_id":"cebpf4jnsgd1na2vs0mg"},{"bike_id":"c561b3be-23f4-46ed-8d38-1fc2450f503d","system_id":"levelo_inurba_marseille","lat":43.23641,"lon":5.36236,"is_reserved":false,"is_disabled":false,"rental_uris":{"android":"levelo://app?vid=c561b3be-23f4-46ed-8d38-1fc2450f503d","ios":"levelo://app?vid=c561b3be-23f4-46ed-8d38-1fc2450f503d"},"vehicle_type_id":"4","last_reported":1756314548,"current_range_meters":15200,"station_id":"","pricing_plan_id":"cebpf4jnsgd1na2vs0mg"},{"bike_id":"5d9c1772-5662-46f9-abf3-0ae381b76d6e","system_id":"levelo_inurba_marseille","lat":43.292737,"lon":5.368447,"is_reserved":false,"is_disabled":false,"rental_uris":{"android":"levelo://app?vid=5d9c1772-5662-46f9-abf3-0ae381b76d6e","ios":"levelo://app?vid=5d9c1772-5662-46f9-abf3-0ae381b76d6e"},"vehicle_type_id":"4","last_reported":1756314548,"current_range_meters":15200,"station_id":"ce4bhbp2rcd13ifvqesg","pricing_plan_id":"cebpf4jnsgd1na2vs0mg"},{"bike_id":"d4a1c419-c333-431b-a3bc-3aa17f334726","system_id":"levelo_inurba_marseille","lat":43.26196,"lon":5.37451,"is_reserved":false,"is_disabled":false,"rental_uris":{"android":"levelo://app?vid=d4a1c419-c333-431b-a3bc-3aa17f334726","ios":"levelo://app?vid=d4a1c419-c333-431b-a3bc-3aa17f334726"},"vehicle_type_id":"4","last_reported":1756314548,"current_range_meters":15200,"station_id":"ce4bhgp2rcd13ifvqfc0","pricing_plan_id":"cebpf4jnsgd1na2vs0mg"},{"bike_id":"dd7083cc-5aa5-45e8-aa01-f809713272d1","system_id":"levelo_inurba_marseille","lat":43.211976,"lon":5.350672,"is_reserved":false,"is_disabled":false,"rental_uris":{"android":"levelo://app?vid=dd7083cc-5aa5-45e8-aa01-f809713272d1","ios":"levelo://app?vid=dd7083cc-5aa5-45e8-aa01-f809713272d1"},"vehicle_type_id":"4","last_reported":1756314548,"current_range_meters":15200,"station_id":"st_cvj6sg6p6f1abm77japg","pricing_plan_id":"cebpf4jnsgd1na2vs0mg"},{"bike_id":"d810acf0-5bd2-4bf1-848d-31cd30d105e6","system_id":"levelo_inurba_marseille","lat":43.269831,"lon":5.392782,"is_reserved":false,"is_disabled":false,"rental_uris":{"android":"levelo://app?vid=d810acf0-5bd2-4bf1-848d-31cd30d105e6","ios":"levelo://app?vid=d810acf0-5bd2-4bf1-848d-31cd30d105e6"},"vehicle_type_id":"4","last_reported":1756314548,"current_range_meters":16000,"station_id":"","pricing_plan_id":"cebpf4jnsgd1na2vs0mg"},{"bike_id":"6b6bb05e-c556-489b-a1ff-b158bef77ddd","system_id":"levelo_inurba_marseille","lat":43.292016,"lon":5.360076,"is_reserved":false,"is_disabled":false,"rental_uris":{"android":"levelo://app?vid=6b6bb05e-c556-489b-a1ff-b158bef77ddd","ios":"levelo://app?vid=6b6bb05e-c556-489b-a1ff-b158bef77ddd"},"vehicle_type_id":"4","last_reported":1756314548,"current_range_meters":16000,"station_id":"ce4bhch2rcd13ifvqeug","pricing_plan_id":"cebpf4jnsgd1na2vs0mg"},{"bike_id":"44adb56b-2795-4a78-8c61-bb6fb6b6eb62","system_id":"levelo_inurba_marseille","lat":43.29006,"lon":5.35611,"is_reserved":false,"is_disabled":false,"rental_uris":{"android":"levelo://app?vid=44adb56b-2795-4a78-8c61-bb6fb6b6eb62","ios":"levelo://app?vid=44adb56b-2795-4a78-8c61-bb6fb6b6eb62"},"vehicle_type_id":"4","last_reported":1756314548,"current_range_meters":16000,"station_id":"ce4bhb92rcd13ifvqen0","pricing_plan_id":"cebpf4jnsgd1na2vs0mg"},{"bike_id":"ffd21136-ae47-45ee-8fc5-e7f85ea84802","system_id":"levelo_inurba_marseille","lat":43.29843,"lon":5.38249,"is_reserved":false,"is_disabled":false,"rental_uris":{"android":"levelo://app?vid=ffd21136-ae47-45ee-8fc5-e7f85ea84802","ios":"levelo://app?vid=ffd21136-ae47-45ee-8fc5-e7f85ea84802"},"vehicle_type_id":"4","last_reported":1756314548,"current_range_meters":16000,"station_id":"","pricing_plan_id":"cebpf4jnsgd1na2vs0mg"},{"bike_id":"4390fec5-e5b7-4b30-b7e4-8bd8c36aab99","system_id":"levelo_inurba_marseille","lat":43.26022,"lon":5.37554,"is_reserved":false,"is_disabled":false,"rental_uris":{"android":"levelo://app?vid=4390fec5-e5b7-4b30-b7e4-8bd8c36aab99","ios":"levelo://app?vid=4390fec5-e5b7-4b30-b7e4-8bd8c36aab99"},"vehicle_type_id":"4","last_reported":1756314548,"current_range_meters":16000,"station_id":"ce4bhgh2rcd13ifvqfa0","pricing_plan_id":"cebpf4jnsgd1na2vs0mg"},{"bike_id":"2ce95c7b-db31-44be-9f62-566ab4f27a28","system_id":"levelo_inurba_marseille","lat":43.23197,"lon":5.35551,"is_reserved":false,"is_disabled":false,"rental_uris":{"android":"levelo://app?vid=2ce95c7b-db31-44be-9f62-566ab4f27a28","ios":"levelo://app?vid=2ce95c7b-db31-44be-9f62-566ab4f27a28"},"vehicle_type_id":"4","last_reported":1756314548,"current_range_meters":16000,"station_id":"ce4bhu92rcd13ifvqi70","pricing_plan_id":"cebpf4jnsgd1na2vs0mg"},{"bike_id":"4e9e705b-7667-42c6-adf5-4a09a858987f","system_id":"levelo_inurba_marseille","lat":43.21199,"lon":5.35065,"is_reserved":false,"is_disabled":false,"rental_uris":{"android":"levelo://app?vid=4e9e705b-7667-42c6-adf5-4a09a858987f","ios":"levelo://app?vid=4e9e705b-7667-42c6-adf5-4a09a858987f"},"vehicle_type_id":"4","last_reported":1756314548,"current_range_meters":16000,"station_id":"st_cvj6sg6p6f1abm77japg","pricing_plan_id":"cebpf4jnsgd1na2vs0mg"},{"bike_id":"94c44f36-d45b-48d8-9eb0-02cde482dcfd","system_id":"levelo_inurba_marseille","lat":43.26025,"lon":5.37543,"is_reserved":false,"is_disabled":false,"rental_uris":{"android":"levelo://app?vid=94c44f36-d45b-48d8-9eb0-02cde482dcfd","ios":"levelo://app?vid=94c44f36-d45b-48d8-9eb0-02cde482dcfd"},"vehicle_type_id":"4","last_reported":1756314548,"current_range_meters":16000,"station_id":"ce4bhgh2rcd13ifvqfa0","pricing_plan_id":"cebpf4jnsgd1na2vs0mg"},{"bike_id":"50b449b1-0f95-432c-968e-a87000f82be7","system_id":"levelo_inurba_marseille","lat":43.26549,"lon":5.37283,"is_reserved":false,"is_disabled":false,"rental_uris":{"android":"levelo://app?vid=50b449b1-0f95-432c-968e-a87000f82be7","ios":"levelo://app?vid=50b449b1-0f95-432c-968e-a87000f82be7"},"vehicle_type_id":"4","last_reported":1756314548,"current_range_meters":16000,"station_id":"ce4bhg12rcd13ifvqf70","pricing_plan_id":"cebpf4jnsgd1na2vs0mg"},{"bike_id":"373decc7-6d5f-444a-bd84-6f7db9035c12","system_id":"levelo_inurba_marseille","lat":43.23955,"lon":5.36611,"is_reserved":false,"is_disabled":false,"rental_uris":{"android":"levelo://app?vid=373decc7-6d5f-444a-bd84-6f7db9035c12","ios":"levelo://app?vid=373decc7-6d5f-444a-bd84-6f7db9035c12"},"vehicle_type_id":"4","last_reported":1756314548,"current_range_meters":16000,"station_id":"ce4bhi12rcd13ifvqfp0","pricing_plan_id":"cebpf4jnsgd1na2vs0mg"},{"bike_id":"2069bb10-8fc4-46cb-b293-68ee5a76feb7","system_id":"levelo_inurba_marseille","lat":43.26186,"lon":5.37447,"is_reserved":false,"is_disabled":false,"rental_uris":{"android":"levelo://app?vid=2069bb10-8fc4-46cb-b293-68ee5a76feb7","ios":"levelo://app?vid=2069bb10-8fc4-46cb-b293-68ee5a76feb7"},"vehicle_type_id":"4","last_reported":1756314548,"current_range_meters":16000,"station_id":"ce4bhgp2rcd13ifvqfc0","pricing_plan_id":"cebpf4jnsgd1na2vs0mg"},{"bike_id":"5b19170b-6647-47e7-9400-083403f74292","system_id":"levelo_inurba_marseille","lat":43.3237,"lon":5.3888,"is_reserved":false,"is_disabled":false,"rental_uris":{"android":"levelo://app?vid=5b19170b-6647-47e7-9400-083403f74292","ios":"levelo://app?vid=5b19170b-6647-47e7-9400-083403f74292"},"vehicle_type_id":"4","last_reported":1756314548,"current_range_meters":16000,"station_id":"ce4bhqp2rcd13ifvqhog","pricing_plan_id":"cebpf4jnsgd1na2vs0mg"},{"bike_id":"ea341be7-92e8-4597-8f5d-72ecaf4e2b76","system_id":"levelo_inurba_marseille","lat":43.29288,"lon":5.36849,"is_reserved":false,"is_disabled":false,"rental_uris":{"android":"levelo://app?vid=ea341be7-92e8-4597-8f5d-72ecaf4e2b76","ios":"levelo://app?vid=ea341be7-92e8-4597-8f5d-72ecaf4e2b76"},"vehicle_type_id":"4","last_reported":1756314548,"current_range_meters":16400,"station_id":"ce4bhbp2rcd13ifvqesg","pricing_plan_id":"cebpf4jnsgd1na2vs0mg"},{"bike_id":"1ead3eee-c052-4307-9f25-b0a932f0b7f7","system_id":"levelo_inurba_marseille","lat":43.26222,"lon":5.37431,"is_reserved":false,"is_disabled":false,"rental_uris":{"android":"levelo://app?vid=1ead3eee-c052-4307-9f25-b0a932f0b7f7","ios":"levelo://app?vid=1ead3eee-c052-4307-9f25-b0a932f0b7f7"},"vehicle_type_id":"4","last_reported":1756314548,"current_range_meters":16400,"station_id":"","pricing_plan_id":"cebpf4jnsgd1na2vs0mg"},{"bike_id":"c67682e4-ad86-4b65-b4ef-e774963b7e60","system_id":"levelo_inurba_marseille","lat":43.232007,"lon":5.355427,"is_reserved":false,"is_disabled":false,"rental_uris":{"android":"levelo://app?vid=c67682e4-ad86-4b65-b4ef-e774963b7e60","ios":"levelo://app?vid=c67682e4-ad86-4b65-b4ef-e774963b7e60"},"vehicle_type_id":"4","last_reported":1756314548,"current_range_meters":16400,"station_id":"ce4bhu92rcd13ifvqi70","pricing_plan_id":"cebpf4jnsgd1na2vs0mg"},{"bike_id":"1690bbb5-074b-45cb-992c-aff8c4519bf4","system_id":"levelo_inurba_marseille","lat":43.2656,"lon":5.37276,"is_reserved":false,"is_disabled":false,"rental_uris":{"android":"levelo://app?vid=1690bbb5-074b-45cb-992c-aff8c4519bf4","ios":"levelo://app?vid=1690bbb5-074b-45cb-992c-aff8c4519bf4"},"vehicle_type_id":"4","last_reported":1756314548,"current_range_meters":16400,"station_id":"ce4bhg12rcd13ifvqf70","pricing_plan_id":"cebpf4jnsgd1na2vs0mg"},{"bike_id":"1c9abe89-f2fc-4f9d-a83c-a9b9c920a988","system_id":"levelo_inurba_marseille","lat":43.30426,"lon":5.39739,"is_reserved":false,"is_disabled":false,"rental_uris":{"android":"levelo://app?vid=1c9abe89-f2fc-4f9d-a83c-a9b9c920a988","ios":"levelo://app?vid=1c9abe89-f2fc-4f9d-a83c-a9b9c920a988"},"vehicle_type_id":"4","last_reported":1756314548,"current_range_meters":16400,"station_id":"ce4bh092rcd13ifvqd20","pricing_plan_id":"cebpf4jnsgd1na2vs0mg"},{"bike_id":"5dd83fad-2449-4d56-be74-c8599abb9a5e","system_id":"levelo_inurba_marseille","lat":43.26175,"lon":5.3746,"is_reserved":false,"is_disabled":false,"rental_uris":{"android":"levelo://app?vid=5dd83fad-2449-4d56-be74-c8599abb9a5e","ios":"levelo://app?vid=5dd83fad-2449-4d56-be74-c8599abb9a5e"},"vehicle_type_id":"4","last_reported":1756314548,"current_range_meters":16400,"station_id":"ce4bhgp2rcd13ifvqfc0","pricing_plan_id":"cebpf4jnsgd1na2vs0mg"},{"bike_id":"9992d37f-6ee0-4431-98ca-cfe77929f704","system_id":"levelo_inurba_marseille","lat":43.2841,"lon":5.34969,"is_reserved":false,"is_disabled":false,"rental_uris":{"android":"levelo://app?vid=9992d37f-6ee0-4431-98ca-cfe77929f704","ios":"levelo://app?vid=9992d37f-6ee0-4431-98ca-cfe77929f704"},"vehicle_type_id":"4","last_reported":1756314548,"current_range_meters":16400,"station_id":"ce4bhbh2rcd13ifvqepg","pricing_plan_id":"cebpf4jnsgd1na2vs0mg"},{"bike_id":"59d6deaa-8469-4acf-b8b3-cd575b2e0c6f","system_id":"levelo_inurba_marseille","lat":43.29267,"lon":5.36831,"is_reserved":false,"is_disabled":false,"rental_uris":{"android":"levelo://app?vid=59d6deaa-8469-4acf-b8b3-cd575b2e0c6f","ios":"levelo://app?vid=59d6deaa-8469-4acf-b8b3-cd575b2e0c6f"},"vehicle_type_id":"4","last_reported":1756314548,"current_range_meters":16400,"station_id":"ce4bhbp2rcd13ifvqesg","pricing_plan_id":"cebpf4jnsgd1na2vs0mg"},{"bike_id":"e6c593a6-25b4-4483-b874-06f613c8942f","system_id":"levelo_inurba_marseille","lat":43.21712,"lon":5.34591,"is_reserved":false,"is_disabled":false,"rental_uris":{"android":"levelo://app?vid=e6c593a6-25b4-4483-b874-06f613c8942f","ios":"levelo://app?vid=e6c593a6-25b4-4483-b874-06f613c8942f"},"vehicle_type_id":"4","last_reported":1756314548,"current_range_meters":16400,"station_id":"st_cvj6r9ubvosntc0bgbag","pricing_plan_id":"cebpf4jnsgd1na2vs0mg"},{"bike_id":"7e8dca62-4c7a-423b-be70-e3968491278d","system_id":"levelo_inurba_marseille","lat":43.272972,"lon":5.382809,"is_reserved":false,"is_disabled":false,"rental_uris":{"android":"levelo://app?vid=7e8dca62-4c7a-423b-be70-e3968491278d","ios":"levelo://app?vid=7e8dca62-4c7a-423b-be70-e3968491278d"},"vehicle_type_id":"4","last_reported":1756314548,"current_range_meters":16400,"station_id":"","pricing_plan_id":"cebpf4jnsgd1na2vs0mg"},{"bike_id":"a029d878-b479-4ed1-b5e6-f040cdc84263","system_id":"levelo_inurba_marseille","lat":43.26561,"lon":5.37257,"is_reserved":false,"is_disabled":false,"rental_uris":{"android":"levelo://app?vid=a029d878-b479-4ed1-b5e6-f040cdc84263","ios":"levelo://app?vid=a029d878-b479-4ed1-b5e6-f040cdc84263"},"vehicle_type_id":"4","last_reported":1756314548,"current_range_meters":16800,"station_id":"ce4bhg12rcd13ifvqf70","pricing_plan_id":"cebpf4jnsgd1na2vs0mg"},{"bike_id":"125ccba7-59f4-4b4c-871d-96793028bf9f","system_id":"levelo_inurba_marseille","lat":43.29044,"lon":5.39949,"is_reserved":false,"is_disabled":false,"rental_uris":{"android":"levelo://app?vid=125ccba7-59f4-4b4c-871d-96793028bf9f","ios":"levelo://app?vid=125ccba7-59f4-4b4c-871d-96793028bf9f"},"vehicle_type_id":"4","last_reported":1756314548,"current_range_meters":16800,"station_id":"ce4bh392rcd13ifvqdm0","pricing_plan_id":"cebpf4jnsgd1na2vs0mg"},{"bike_id":"3e1b7de2-dcbe-4860-be16-6397d00e898c","system_id":"levelo_inurba_marseille","lat":43.265594,"lon":5.3727,"is_reserved":false,"is_disabled":false,"rental_uris":{"android":"levelo://app?vid=3e1b7de2-dcbe-4860-be16-6397d00e898c","ios":"levelo://app?vid=3e1b7de2-dcbe-4860-be16-6397d00e898c"},"vehicle_type_id":"4","last_reported":1756314548,"current_range_meters":16800,"station_id":"ce4bhg12rcd13ifvqf70","pricing_plan_id":"cebpf4jnsgd1na2vs0mg"},{"bike_id":"ffe6df59-3fc1-4d81-9326-f6f6418e7718","system_id":"levelo_inurba_marseille","lat":43.29784,"lon":5.37332,"is_reserved":false,"is_disabled":false,"rental_uris":{"android":"levelo://app?vid=ffe6df59-3fc1-4d81-9326-f6f6418e7718","ios":"levelo://app?vid=ffe6df59-3fc1-4d81-9326-f6f6418e7718"},"vehicle_type_id":"4","last_reported":1756314548,"current_range_meters":16800,"station_id":"","pricing_plan_id":"cebpf4jnsgd1na2vs0mg"},{"bike_id":"19bf8938-c3ac-477a-9c27-edd856e98aab","system_id":"levelo_inurba_marseille","lat":43.2794,"lon":5.379,"is_reserved":false,"is_disabled":false,"rental_uris":{"android":"levelo://app?vid=19bf8938-c3ac-477a-9c27-edd856e98aab","ios":"levelo://app?vid=19bf8938-c3ac-477a-9c27-edd856e98aab"},"vehicle_type_id":"4","last_reported":1756314548,"current_range_meters":16800,"station_id":"","pricing_plan_id":"cebpf4jnsgd1na2vs0mg"},{"bike_id":"223f875d-34c8-46e4-87db-26be51ba8cd7","system_id":"levelo_inurba_marseille","lat":43.30629,"lon":5.40081,"is_reserved":false,"is_disabled":false,"rental_uris":{"android":"levelo://app?vid=223f875d-34c8-46e4-87db-26be51ba8cd7","ios":"levelo://app?vid=223f875d-34c8-46e4-87db-26be51ba8cd7"},"vehicle_type_id":"4","last_reported":1756314548,"current_range_meters":16800,"station_id":"ce4bh112rcd13ifvqda0","pricing_plan_id":"cebpf4jnsgd1na2vs0mg"},{"bike_id":"bbc2f2d0-50fa-47d4-911c-da354faeb5dd","system_id":"levelo_inurba_marseille","lat":43.25119,"lon":5.40318,"is_reserved":false,"is_disabled":false,"rental_uris":{"android":"levelo://app?vid=bbc2f2d0-50fa-47d4-911c-da354faeb5dd","ios":"levelo://app?vid=bbc2f2d0-50fa-47d4-911c-da354faeb5dd"},"vehicle_type_id":"4","last_reported":1756314548,"current_range_meters":16800,"station_id":"ce4bhlh2rcd13ifvqgig","pricing_plan_id":"cebpf4jnsgd1na2vs0mg"},{"bike_id":"e6f3611c-dae5-4647-a5d7-c76c51bc13da","system_id":"levelo_inurba_marseille","lat":43.24548,"lon":5.39523,"is_reserved":false,"is_disabled":false,"rental_uris":{"android":"levelo://app?vid=e6f3611c-dae5-4647-a5d7-c76c51bc13da","ios":"levelo://app?vid=e6f3611c-dae5-4647-a5d7-c76c51bc13da"},"vehicle_type_id":"4","last_reported":1756314548,"current_range_meters":16800,"station_id":"ce4bhlp2rcd13ifvqgjg","pricing_plan_id":"cebpf4jnsgd1na2vs0mg"},{"bike_id":"651c04c7-c2f3-4258-98c4-2abdeb471500","system_id":"levelo_inurba_marseille","lat":43.26558,"lon":5.37265,"is_reserved":false,"is_disabled":false,"rental_uris":{"android":"levelo://app?vid=651c04c7-c2f3-4258-98c4-2abdeb471500","ios":"levelo://app?vid=651c04c7-c2f3-4258-98c4-2abdeb471500"},"vehicle_type_id":"4","last_reported":1756314548,"current_range_meters":16800,"station_id":"ce4bhg12rcd13ifvqf70","pricing_plan_id":"cebpf4jnsgd1na2vs0mg"},{"bike_id":"0fe05a97-b910-4a18-8611-457c834aeaa5","system_id":"levelo_inurba_marseille","lat":43.28859,"lon":5.39301,"is_reserved":false,"is_disabled":false,"rental_uris":{"android":"levelo://app?vid=0fe05a97-b910-4a18-8611-457c834aeaa5","ios":"levelo://app?vid=0fe05a97-b910-4a18-8611-457c834aeaa5"},"vehicle_type_id":"4","last_reported":1756314548,"current_range_meters":16800,"station_id":"ce4bh2p2rcd13ifvqdi0","pricing_plan_id":"cebpf4jnsgd1na2vs0mg"},{"bike_id":"b0c4d4b7-347e-4592-864b-26ec92913061","system_id":"levelo_inurba_marseille","lat":43.27999,"lon":5.41662,"is_reserved":false,"is_disabled":false,"rental_uris":{"android":"levelo://app?vid=b0c4d4b7-347e-4592-864b-26ec92913061","ios":"levelo://app?vid=b0c4d4b7-347e-4592-864b-26ec92913061"},"vehicle_type_id":"4","last_reported":1756314548,"current_range_meters":17200,"station_id":"ce4bho12rcd13ifvqh1g","pricing_plan_id":"cebpf4jnsgd1na2vs0mg"},{"bike_id":"23ae6fed-deff-411b-8b6e-f95e32ccd4d0","system_id":"levelo_inurba_marseille","lat":43.32126,"lon":5.36776,"is_reserved":false,"is_disabled":false,"rental_uris":{"android":"levelo://app?vid=23ae6fed-deff-411b-8b6e-f95e32ccd4d0","ios":"levelo://app?vid=23ae6fed-deff-411b-8b6e-f95e32ccd4d0"},"vehicle_type_id":"4","last_reported":1756314548,"current_range_meters":17200,"station_id":"ce4bhrh2rcd13ifvqhug","pricing_plan_id":"cebpf4jnsgd1na2vs0mg"},{"bike_id":"05d97e45-19dc-4128-88fe-ffa6fa61464f","system_id":"levelo_inurba_marseille","lat":43.262214,"lon":5.374414,"is_reserved":false,"is_disabled":false,"rental_uris":{"android":"levelo://app?vid=05d97e45-19dc-4128-88fe-ffa6fa61464f","ios":"levelo://app?vid=05d97e45-19dc-4128-88fe-ffa6fa61464f"},"vehicle_type_id":"4","last_reported":1756314548,"current_range_meters":17200,"station_id":"ce4bhgp2rcd13ifvqfc0","pricing_plan_id":"cebpf4jnsgd1na2vs0mg"},{"bike_id":"c6458107-2056-4bae-bfc5-f303bfdbcd8a","system_id":"levelo_inurba_marseille","lat":43.24809,"lon":5.37456,"is_reserved":false,"is_disabled":false,"rental_uris":{"android":"levelo://app?vid=c6458107-2056-4bae-bfc5-f303bfdbcd8a","ios":"levelo://app?vid=c6458107-2056-4bae-bfc5-f303bfdbcd8a"},"vehicle_type_id":"4","last_reported":1756314548,"current_range_meters":17200,"station_id":"ce4bhgh2rcd13ifvqfb0","pricing_plan_id":"cebpf4jnsgd1na2vs0mg"},{"bike_id":"8a308c58-8fca-45b9-95d1-3d3ffbfac419","system_id":"levelo_inurba_marseille","lat":43.25111,"lon":5.40323,"is_reserved":false,"is_disabled":false,"rental_uris":{"android":"levelo://app?vid=8a308c58-8fca-45b9-95d1-3d3ffbfac419","ios":"levelo://app?vid=8a308c58-8fca-45b9-95d1-3d3ffbfac419"},"vehicle_type_id":"4","last_reported":1756314548,"current_range_meters":17200,"station_id":"ce4bhlh2rcd13ifvqgig","pricing_plan_id":"cebpf4jnsgd1na2vs0mg"},{"bike_id":"a5111d90-7a2c-4331-ac7f-caad20168099","system_id":"levelo_inurba_marseille","lat":43.26192,"lon":5.3744,"is_reserved":false,"is_disabled":false,"rental_uris":{"android":"levelo://app?vid=a5111d90-7a2c-4331-ac7f-caad20168099","ios":"levelo://app?vid=a5111d90-7a2c-4331-ac7f-caad20168099"},"vehicle_type_id":"4","last_reported":1756314548,"current_range_meters":17200,"station_id":"ce4bhgp2rcd13ifvqfc0","pricing_plan_id":"cebpf4jnsgd1na2vs0mg"},{"bike_id":"6c6efca6-cf0f-41b6-983d-18e2409ffebf","system_id":"levelo_inurba_marseille","lat":43.24795,"lon":5.37444,"is_reserved":false,"is_disabled":false,"rental_uris":{"android":"levelo://app?vid=6c6efca6-cf0f-41b6-983d-18e2409ffebf","ios":"levelo://app?vid=6c6efca6-cf0f-41b6-983d-18e2409ffebf"},"vehicle_type_id":"4","last_reported":1756314548,"current_range_meters":17200,"station_id":"ce4bhgh2rcd13ifvqfb0","pricing_plan_id":"cebpf4jnsgd1na2vs0mg"},{"bike_id":"0793473c-7c91-4d1f-8ffb-c00486129b1d","system_id":"levelo_inurba_marseille","lat":43.30101,"lon":5.39083,"is_reserved":false,"is_disabled":true,"rental_uris":{"android":"levelo://app?vid=0793473c-7c91-4d1f-8ffb-c00486129b1d","ios":"levelo://app?vid=0793473c-7c91-4d1f-8ffb-c00486129b1d"},"vehicle_type_id":"4","last_reported":1756314548,"current_range_meters":17200,"station_id":"ce4bh192rcd13ifvqdb0","pricing_plan_id":"cebpf4jnsgd1na2vs0mg"},{"bike_id":"827b5920-ba59-43a6-930c-a1ec9d366878","system_id":"levelo_inurba_marseille","lat":43.301088,"lon":5.38783,"is_reserved":false,"is_disabled":false,"rental_uris":{"android":"levelo://app?vid=827b5920-ba59-43a6-930c-a1ec9d366878","ios":"levelo://app?vid=827b5920-ba59-43a6-930c-a1ec9d366878"},"vehicle_type_id":"4","last_reported":1756314548,"current_range_meters":17200,"station_id":"ce4bghh2rcd13ifvqb60","pricing_plan_id":"cebpf4jnsgd1na2vs0mg"},{"bike_id":"1a82f12b-f4de-4b5c-8828-157b3be43a71","system_id":"levelo_inurba_marseille","lat":43.293096,"lon":5.371704,"is_reserved":false,"is_disabled":false,"rental_uris":{"android":"levelo://app?vid=1a82f12b-f4de-4b5c-8828-157b3be43a71","ios":"levelo://app?vid=1a82f12b-f4de-4b5c-8828-157b3be43a71"},"vehicle_type_id":"4","last_reported":1756314548,"current_range_meters":17200,"station_id":"ce4bgh92rcd13ifvqb40","pricing_plan_id":"cebpf4jnsgd1na2vs0mg"},{"bike_id":"8df4d72a-2534-4225-b0d0-5b48bd4c7385","system_id":"levelo_inurba_marseille","lat":43.29443,"lon":5.39763,"is_reserved":false,"is_disabled":false,"rental_uris":{"android":"levelo://app?vid=8df4d72a-2534-4225-b0d0-5b48bd4c7385","ios":"levelo://app?vid=8df4d72a-2534-4225-b0d0-5b48bd4c7385"},"vehicle_type_id":"4","last_reported":1756314548,"current_range_meters":17600,"station_id":"ce4bh3h2rcd13ifvqdo0","pricing_plan_id":"cebpf4jnsgd1na2vs0mg"},{"bike_id":"b2f6fe48-4344-4fb3-bd3b-a6fad5a05416","system_id":"levelo_inurba_marseille","lat":43.249076,"lon":5.374938,"is_reserved":false,"is_disabled":false,"rental_uris":{"android":"levelo://app?vid=b2f6fe48-4344-4fb3-bd3b-a6fad5a05416","ios":"levelo://app?vid=b2f6fe48-4344-4fb3-bd3b-a6fad5a05416"},"vehicle_type_id":"4","last_reported":1756314548,"current_range_meters":17600,"station_id":"ce4bhgh2rcd13ifvqfb0","pricing_plan_id":"cebpf4jnsgd1na2vs0mg"},{"bike_id":"e1a43927-87d5-46ea-a77e-4a61db905a2b","system_id":"levelo_inurba_marseille","lat":43.23199,"lon":5.35546,"is_reserved":false,"is_disabled":false,"rental_uris":{"android":"levelo://app?vid=e1a43927-87d5-46ea-a77e-4a61db905a2b","ios":"levelo://app?vid=e1a43927-87d5-46ea-a77e-4a61db905a2b"},"vehicle_type_id":"4","last_reported":1756314548,"current_range_meters":17600,"station_id":"ce4bhu92rcd13ifvqi70","pricing_plan_id":"cebpf4jnsgd1na2vs0mg"},{"bike_id":"1091f287-02ee-4a66-888b-59c35fd65791","system_id":"levelo_inurba_marseille","lat":43.23198,"lon":5.35547,"is_reserved":false,"is_disabled":false,"rental_uris":{"android":"levelo://app?vid=1091f287-02ee-4a66-888b-59c35fd65791","ios":"levelo://app?vid=1091f287-02ee-4a66-888b-59c35fd65791"},"vehicle_type_id":"4","last_reported":1756314548,"current_range_meters":17600,"station_id":"ce4bhu92rcd13ifvqi70","pricing_plan_id":"cebpf4jnsgd1na2vs0mg"},{"bike_id":"ec0f9f0d-0796-42ac-9cf5-bb8596cdf342","system_id":"levelo_inurba_marseille","lat":43.21191,"lon":5.35073,"is_reserved":false,"is_disabled":false,"rental_uris":{"android":"levelo://app?vid=ec0f9f0d-0796-42ac-9cf5-bb8596cdf342","ios":"levelo://app?vid=ec0f9f0d-0796-42ac-9cf5-bb8596cdf342"},"vehicle_type_id":"4","last_reported":1756314548,"current_range_meters":17600,"station_id":"","pricing_plan_id":"cebpf4jnsgd1na2vs0mg"},{"bike_id":"2ec2d97f-a126-4b2b-83fc-94a1b629fcd2","system_id":"levelo_inurba_marseille","lat":43.26024,"lon":5.37551,"is_reserved":false,"is_disabled":false,"rental_uris":{"android":"levelo://app?vid=2ec2d97f-a126-4b2b-83fc-94a1b629fcd2","ios":"levelo://app?vid=2ec2d97f-a126-4b2b-83fc-94a1b629fcd2"},"vehicle_type_id":"4","last_reported":1756314548,"current_range_meters":17600,"station_id":"ce4bhgh2rcd13ifvqfa0","pricing_plan_id":"cebpf4jnsgd1na2vs0mg"},{"bike_id":"217a5ffd-1098-4e3f-bca4-afdeffff4bab","system_id":"levelo_inurba_marseille","lat":43.29262,"lon":5.40914,"is_reserved":false,"is_disabled":false,"rental_uris":{"android":"levelo://app?vid=217a5ffd-1098-4e3f-bca4-afdeffff4bab","ios":"levelo://app?vid=217a5ffd-1098-4e3f-bca4-afdeffff4bab"},"vehicle_type_id":"4","last_reported":1756314548,"current_range_meters":17600,"station_id":"ce4bh192rcd13ifvqdc0","pricing_plan_id":"cebpf4jnsgd1na2vs0mg"},{"bike_id":"bb3757ae-2b71-47f8-95c3-9e6ca5ea34d6","system_id":"levelo_inurba_marseille","lat":43.254998,"lon":5.37641,"is_reserved":false,"is_disabled":false,"rental_uris":{"android":"levelo://app?vid=bb3757ae-2b71-47f8-95c3-9e6ca5ea34d6","ios":"levelo://app?vid=bb3757ae-2b71-47f8-95c3-9e6ca5ea34d6"},"vehicle_type_id":"4","last_reported":1756314548,"current_range_meters":17600,"station_id":"ce4bhh12rcd13ifvqff0","pricing_plan_id":"cebpf4jnsgd1na2vs0mg"},{"bike_id":"d4d1b3ec-7d29-4762-b132-23ac53b77c22","system_id":"levelo_inurba_marseille","lat":43.23152,"lon":5.43715,"is_reserved":false,"is_disabled":false,"rental_uris":{"android":"levelo://app?vid=d4d1b3ec-7d29-4762-b132-23ac53b77c22","ios":"levelo://app?vid=d4d1b3ec-7d29-4762-b132-23ac53b77c22"},"vehicle_type_id":"4","last_reported":1756314548,"current_range_meters":17600,"station_id":"ce4bhmp2rcd13ifvqgog","pricing_plan_id":"cebpf4jnsgd1na2vs0mg"},{"bike_id":"2ddde0e2-2088-418b-9262-4b0d6e96e416","system_id":"levelo_inurba_marseille","lat":43.26034,"lon":5.37549,"is_reserved":false,"is_disabled":false,"rental_uris":{"android":"levelo://app?vid=2ddde0e2-2088-418b-9262-4b0d6e96e416","ios":"levelo://app?vid=2ddde0e2-2088-418b-9262-4b0d6e96e416"},"vehicle_type_id":"4","last_reported":1756314548,"current_range_meters":18000,"station_id":"ce4bhgh2rcd13ifvqfa0","pricing_plan_id":"cebpf4jnsgd1na2vs0mg"},{"bike_id":"71b3dc07-398b-4682-a256-48d053e480a3","system_id":"levelo_inurba_marseille","lat":43.31696,"lon":5.43694,"is_reserved":false,"is_disabled":false,"rental_uris":{"android":"levelo://app?vid=71b3dc07-398b-4682-a256-48d053e480a3","ios":"levelo://app?vid=71b3dc07-398b-4682-a256-48d053e480a3"},