{"last_updated":1749741123,"ttl":60,"version":"2.2","data":{"bikes":[{"bike_id":"b31f0139-170f-4194-984f-4386218a1e9d","system_id":"levelo_inurba_marseille","lat":43.33771,"lon":5.37424,"is_reserved":false,"is_disabled":true,"rental_uris":{"android":"levelo://app?vid=b31f0139-170f-4194-984f-4386218a1e9d","ios":"levelo://app?vid=b31f0139-170f-4194-984f-4386218a1e9d"},"vehicle_type_id":"4","last_reported":1749741123,"current_range_meters":0,"station_id":"","pricing_plan_id":"cebpf4jnsgd1na2vs0mg"},{"bike_id":"1acfb620-cad7-48c0-8901-d7a5b74a5b65","system_id":"levelo_inurba_marseille","lat":43.33751,"lon":5.37456,"is_reserved":false,"is_disabled":false,"rental_uris":{"android":"levelo://app?vid=1acfb620-cad7-48c0-8901-d7a5b74a5b65","ios":"levelo://app?vid=1acfb620-cad7-48c0-8901-d7a5b74a5b65"},"vehicle_type_id":"4","last_reported":1749741123,"current_range_meters":8000,"station_id":"","pricing_plan_id":"cebpf4jnsgd1na2vs0mg"},{"bike_id":"15642284-38bf-46a3-8429-b976f7e075a1","system_id":"levelo_inurba_marseille","lat":43.27919,"lon":5.38285,"is_reserved":false,"is_disabled":true,"rental_uris":{"android":"levelo://app?vid=15642284-38bf-46a3-8429-b976f7e075a1","ios":"levelo://app?vid=15642284-38bf-46a3-8429-b976f7e075a1"},"vehicle_type_id":"4","last_reported":1749741123,"current_range_meters":0,"station_id":"","pricing_plan_id":"cebpf4jnsgd1na2vs0mg"},{"bike_id":"bf89d78c-eb96-40d5-beb0-f402ef102cc1","system_id":"levelo_inurba_marseille","lat":43.337444,"lon":5.374475,"is_reserved":false,"is_disabled":true,"rental_uris":{"android":"levelo://app?vid=bf89d78c-eb96-40d5-beb0-f402ef102cc1","ios":"levelo://app?vid=bf89d78c-eb96-40d5-beb0-f402ef102cc1"},"vehicle_type_id":"4","last_reported":1749741123,"current_range_meters":0,"station_id":"","pricing_plan_id":"cebpf4jnsgd1na2vs0mg"},{"bike_id":"7c6a9c32-3bbe-4d4c-8294-1969d0688a87","system_id":"levelo_inurba_marseille","lat":43.28481,"lon":5.42325,"is_reserved":false,"is_disabled":true,"rental_uris":{"android":"levelo://app?vid=7c6a9c32-3bbe-4d4c-8294-1969d0688a87","ios":"levelo://app?vid=7c6a9c32-3bbe-4d4c-8294-1969d0688a87"},"vehicle_type_id":"4","last_reported":1749741123,"current_range_meters":0,"station_id":"","pricing_plan_id":"cebpf4jnsgd1na2vs0mg"},{"bike_id":"9e55e93e-42c5-4c2c-9154-2d3c316cb5d9","system_id":"levelo_inurba_marseille","lat":43.31904,"lon":5.39366,"is_reserved":false,"is_disabled":true,"rental_uris":{"android":"levelo://app?vid=9e55e93e-42c5-4c2c-9154-2d3c316cb5d9","ios":"levelo://app?vid=9e55e93e-42c5-4c2c-9154-2d3c316cb5d9"},"vehicle_type_id":"4","last_reported":1749741123,"current_range_meters":0,"station_id":"","pricing_plan_id":"cebpf4jnsgd1na2vs0mg"},{"bike_id":"78778bea-ee8d-4617-9940-e8d532761b1d","system_id":"levelo_inurba_marseille","lat":43.32415,"lon":5.42694,"is_reserved":false,"is_disabled":true,"rental_uris":{"android":"levelo://app?vid=78778bea-ee8d-4617-9940-e8d532761b1d","ios":"levelo://app?vid=78778bea-ee8d-4617-9940-e8d532761b1d"},"vehicle_type_id":"4","last_reported":1749741123,"current_range_meters":0,"station_id":"","pricing_plan_id":"cebpf4jnsgd1na2vs0mg"},{"bike_id":"492f4bbd-1190-4ef2-b66a-479ffe91b09b","system_id":"levelo_inurba_marseille","lat":43.337444,"lon":5.374475,"is_reserved":false,"is_disabled":true,"rental_uris":{"android":"levelo://app?vid=492f4bbd-1190-4ef2-b66a-479ffe91b09b","ios":"levelo://app?vid=492f4bbd-1190-4ef2-b66a-479ffe91b09b"},"vehicle_type_id":"4","last_reported":1749741123,"current_range_meters":0,"station_id":"","pricing_plan_id":"cebpf4jnsgd1na2vs0mg"},{"bike_id":"a76bfa59-b731-46b4-a462-7fdbb44a5154","system_id":"levelo_inurba_marseille","lat":43.29789,"lon":5.42201,"is_reserved":false,"is_disabled":true,"rental_uris":{"android":"levelo://app?vid=a76bfa59-b731-46b4-a462-7fdbb44a5154","ios":"levelo://app?vid=a76bfa59-b731-46b4-a462-7fdbb44a5154"},"vehicle_type_id":"4","last_reported":1749741123,"current_range_meters":0,"station_id":"","pricing_plan_id":"cebpf4jnsgd1na2vs0mg"},{"bike_id":"ce526313-e4c7-47eb-856f-183916936663","system_id":"levelo_inurba_marseille","lat":43.262245,"lon":5.395814,"is_reserved":false,"is_disabled":true,"rental_uris":{"android":"levelo://app?vid=ce526313-e4c7-47eb-856f-183916936663","ios":"levelo://app?vid=ce526313-e4c7-47eb-856f-183916936663"},"vehicle_type_id":"4","last_reported":1749741123,"current_range_meters":0,"station_id":"","pricing_plan_id":"cebpf4jnsgd1na2vs0mg"},{"bike_id":"93b8eda3-7436-4073-a886-5f4afda39122","system_id":"levelo_inurba_marseille","lat":43.30593,"lon":5.37241,"is_reserved":false,"is_disabled":true,"rental_uris":{"android":"levelo://app?vid=93b8eda3-7436-4073-a886-5f4afda39122","ios":"levelo://app?vid=93b8eda3-7436-4073-a886-5f4afda39122"},"vehicle_type_id":"4","last_reported":1749741123,"current_range_meters":0,"station_id":"ce4bgqh2rcd13ifvqc4g","pricing_plan_id":"cebpf4jnsgd1na2vs0mg"},{"bike_id":"db6b3fa3-6cc0-48d3-885a-d91615cbd272","system_id":"levelo_inurba_marseille","lat":43.30936,"lon":5.40146,"is_reserved":false,"is_disabled":true,"rental_uris":{"android":"levelo://app?vid=db6b3fa3-6cc0-48d3-885a-d91615cbd272","ios":"levelo://app?vid=db6b3fa3-6cc0-48d3-885a-d91615cbd272"},"vehicle_type_id":"4","last_reported":1749741123,"current_range_meters":0,"station_id":"ce4bgvp2rcd13ifvqct0","pricing_plan_id":"cebpf4jnsgd1na2vs0mg"},{"bike_id":"23c7b159-24c6-4632-8a8a-aedbaf2ba727","system_id":"levelo_inurba_marseille","lat":43.28453,"lon":5.35908,"is_reserved":false,"is_disabled":true,"rental_uris":{"android":"levelo://app?vid=23c7b159-24c6-4632-8a8a-aedbaf2ba727","ios":"levelo://app?vid=23c7b159-24c6-4632-8a8a-aedbaf2ba727"},"vehicle_type_id":"4","last_reported":1749741123,"current_range_meters":0,"station_id":"ce4bhah2rcd13ifvqei0","pricing_plan_id":"cebpf4jnsgd1na2vs0mg"},{"bike_id":"0957761d-fa71-4312-9901-7b1b9a8b8955","system_id":"levelo_inurba_marseille","lat":43.23133,"lon":5.43698,"is_reserved":false,"is_disabled":true,"rental_uris":{"android":"levelo://app?vid=0957761d-fa71-4312-9901-7b1b9a8b8955","ios":"levelo://app?vid=0957761d-fa71-4312-9901-7b1b9a8b8955"},"vehicle_type_id":"4","last_reported":1749741123,"current_range_meters":0,"station_id":"ce4bhmp2rcd13ifvqgog","pricing_plan_id":"cebpf4jnsgd1na2vs0mg"},{"bike_id":"f4a529c2-e076-4853-9434-aa931ab59680","system_id":"levelo_inurba_marseille","lat":43.31698,"lon":5.43706,"is_reserved":false,"is_disabled":true,"rental_uris":{"android":"levelo://app?vid=f4a529c2-e076-4853-9434-aa931ab59680","ios":"levelo://app?vid=f4a529c2-e076-4853-9434-aa931ab59680"},"vehicle_type_id":"4","last_reported":1749741123,"current_range_meters":0,"station_id":"ce4bhp92rcd13ifvqhcg","pricing_plan_id":"cebpf4jnsgd1na2vs0mg"},{"bike_id":"342eb6a6-996c-4828-a28d-8840b15cc184","system_id":"levelo_inurba_marseille","lat":43.30806,"lon":5.43522,"is_reserved":false,"is_disabled":true,"rental_uris":{"android":"levelo://app?vid=342eb6a6-996c-4828-a28d-8840b15cc184","ios":"levelo://app?vid=342eb6a6-996c-4828-a28d-8840b15cc184"},"vehicle_type_id":"4","last_reported":1749741123,"current_range_meters":400,"station_id":"ce4bhph2rcd13ifvqheg","pricing_plan_id":"cebpf4jnsgd1na2vs0mg"},{"bike_id":"87ad60d3-a8be-4537-b606-cf205dd555df","system_id":"levelo_inurba_marseille","lat":43.309777,"lon":5.405653,"is_reserved":false,"is_disabled":true,"rental_uris":{"android":"levelo://app?vid=87ad60d3-a8be-4537-b606-cf205dd555df","ios":"levelo://app?vid=87ad60d3-a8be-4537-b606-cf205dd555df"},"vehicle_type_id":"4","last_reported":1749741123,"current_range_meters":800,"station_id":"","pricing_plan_id":"cebpf4jnsgd1na2vs0mg"},{"bike_id":"da0dc9d8-433a-4d43-aa66-3d89232d6864","system_id":"levelo_inurba_marseille","lat":43.284133,"lon":5.375103,"is_reserved":false,"is_disabled":true,"rental_uris":{"android":"levelo://app?vid=da0dc9d8-433a-4d43-aa66-3d89232d6864","ios":"levelo://app?vid=da0dc9d8-433a-4d43-aa66-3d89232d6864"},"vehicle_type_id":"4","last_reported":1749741123,"current_range_meters":800,"station_id":"ce4bh412rcd13ifvqds0","pricing_plan_id":"cebpf4jnsgd1na2vs0mg"},{"bike_id":"db7fbfe8-f3aa-458d-b554-d8f51d48cecf","system_id":"levelo_inurba_marseille","lat":43.262,"lon":5.37446,"is_reserved":false,"is_disabled":true,"rental_uris":{"android":"levelo://app?vid=db7fbfe8-f3aa-458d-b554-d8f51d48cecf","ios":"levelo://app?vid=db7fbfe8-f3aa-458d-b554-d8f51d48cecf"},"vehicle_type_id":"4","last_reported":1749741123,"current_range_meters":800,"station_id":"ce4bhgp2rcd13ifvqfc0","pricing_plan_id":"cebpf4jnsgd1na2vs0mg"},{"bike_id":"a9b6bf99-4070-4437-bb20-72962ae30b90","system_id":"levelo_inurba_marseille","lat":43.274664,"lon":5.363865,"is_reserved":false,"is_disabled":true,"rental_uris":{"android":"levelo://app?vid=a9b6bf99-4070-4437-bb20-72962ae30b90","ios":"levelo://app?vid=a9b6bf99-4070-4437-bb20-72962ae30b90"},"vehicle_type_id":"4","last_reported":1749741123,"current_range_meters":1200,"station_id":"","pricing_plan_id":"cebpf4jnsgd1na2vs0mg"},{"bike_id":"c175729a-3241-41cf-83ae-acd581ba4eeb","system_id":"levelo_inurba_marseille","lat":43.29697,"lon":5.36603,"is_reserved":false,"is_disabled":true,"rental_uris":{"android":"levelo://app?vid=c175729a-3241-41cf-83ae-acd581ba4eeb","ios":"levelo://app?vid=c175729a-3241-41cf-83ae-acd581ba4eeb"},"vehicle_type_id":"4","last_reported":1749741123,"current_range_meters":1200,"station_id":"ce4bgn12rcd13ifvqbt0","pricing_plan_id":"cebpf4jnsgd1na2vs0mg"},{"bike_id":"c2dbfd3f-6cc9-4d13-8538-d9657f0eabb9","system_id":"levelo_inurba_marseille","lat":43.306,"lon":5.37227,"is_reserved":false,"is_disabled":true,"rental_uris":{"android":"levelo://app?vid=c2dbfd3f-6cc9-4d13-8538-d9657f0eabb9","ios":"levelo://app?vid=c2dbfd3f-6cc9-4d13-8538-d9657f0eabb9"},"vehicle_type_id":"4","last_reported":1749741123,"current_range_meters":1200,"station_id":"ce4bgqh2rcd13ifvqc4g","pricing_plan_id":"cebpf4jnsgd1na2vs0mg"},{"bike_id":"bce5aa89-dab2-4d65-bdd9-97f07ddaeae1","system_id":"levelo_inurba_marseille","lat":43.29574,"lon":5.36736,"is_reserved":false,"is_disabled":true,"rental_uris":{"android":"levelo://app?vid=bce5aa89-dab2-4d65-bdd9-97f07ddaeae1","ios":"levelo://app?vid=bce5aa89-dab2-4d65-bdd9-97f07ddaeae1"},"vehicle_type_id":"4","last_reported":1749741123,"current_range_meters":1600,"station_id":"ce4bgph2rcd13ifvqc2g","pricing_plan_id":"cebpf4jnsgd1na2vs0mg"},{"bike_id":"1aab95db-13c5-40a5-946e-95e63ca17576","system_id":"levelo_inurba_marseille","lat":43.26931,"lon":5.38909,"is_reserved":false,"is_disabled":true,"rental_uris":{"android":"levelo://app?vid=1aab95db-13c5-40a5-946e-95e63ca17576","ios":"levelo://app?vid=1aab95db-13c5-40a5-946e-95e63ca17576"},"vehicle_type_id":"4","last_reported":1749741123,"current_range_meters":1600,"station_id":"ce4bhhh2rcd13ifvqfl0","pricing_plan_id":"cebpf4jnsgd1na2vs0mg"},{"bike_id":"75fa4c1d-f244-4361-8261-4b2a50ea02a0","system_id":"levelo_inurba_marseille","lat":43.27064,"lon":5.40239,"is_reserved":false,"is_disabled":true,"rental_uris":{"android":"levelo://app?vid=75fa4c1d-f244-4361-8261-4b2a50ea02a0","ios":"levelo://app?vid=75fa4c1d-f244-4361-8261-4b2a50ea02a0"},"vehicle_type_id":"4","last_reported":1749741123,"current_range_meters":1600,"station_id":"ce4bhk92rcd13ifvqgc0","pricing_plan_id":"cebpf4jnsgd1na2vs0mg"},{"bike_id":"2442a726-c7e2-453a-ab69-ce5808292ecc","system_id":"levelo_inurba_marseille","lat":43.29258,"lon":5.38449,"is_reserved":false,"is_disabled":true,"rental_uris":{"android":"levelo://app?vid=2442a726-c7e2-453a-ab69-ce5808292ecc","ios":"levelo://app?vid=2442a726-c7e2-453a-ab69-ce5808292ecc"},"vehicle_type_id":"4","last_reported":1749741123,"current_range_meters":2000,"station_id":"ce4bh692rcd13ifvqea0","pricing_plan_id":"cebpf4jnsgd1na2vs0mg"},{"bike_id":"e1f6e26f-5d56-45ff-a5cd-e6edf33d1b6a","system_id":"levelo_inurba_marseille","lat":43.289891,"lon":5.356377,"is_reserved":false,"is_disabled":true,"rental_uris":{"android":"levelo://app?vid=e1f6e26f-5d56-45ff-a5cd-e6edf33d1b6a","ios":"levelo://app?vid=e1f6e26f-5d56-45ff-a5cd-e6edf33d1b6a"},"vehicle_type_id":"4","last_reported":1749741123,"current_range_meters":2000,"station_id":"ce4bhb92rcd13ifvqen0","pricing_plan_id":"cebpf4jnsgd1na2vs0mg"},{"bike_id":"2ed6095f-9ad7-4377-8789-9bced5d0422f","system_id":"levelo_inurba_marseille","lat":43.30924,"lon":5.40142,"is_reserved":false,"is_disabled":false,"rental_uris":{"android":"levelo://app?vid=2ed6095f-9ad7-4377-8789-9bced5d0422f","ios":"levelo://app?vid=2ed6095f-9ad7-4377-8789-9bced5d0422f"},"vehicle_type_id":"4","last_reported":1749741123,"current_range_meters":2800,"station_id":"ce4bgvp2rcd13ifvqct0","pricing_plan_id":"cebpf4jnsgd1na2vs0mg"},{"bike_id":"e5949964-c220-4857-9164-d032112290b0","system_id":"levelo_inurba_marseille","lat":43.306555,"lon":5.40105,"is_reserved":false,"is_disabled":false,"rental_uris":{"android":"levelo://app?vid=e5949964-c220-4857-9164-d032112290b0","ios":"levelo://app?vid=e5949964-c220-4857-9164-d032112290b0"},"vehicle_type_id":"4","last_reported":1749741123,"current_range_meters":2800,"station_id":"ce4bh112rcd13ifvqda0","pricing_plan_id":"cebpf4jnsgd1na2vs0mg"},{"bike_id":"196da146-208e-4591-8a79-524ae3eada26","system_id":"levelo_inurba_marseille","lat":43.295223,"lon":5.38612,"is_reserved":false,"is_disabled":false,"rental_uris":{"android":"levelo://app?vid=196da146-208e-4591-8a79-524ae3eada26","ios":"levelo://app?vid=196da146-208e-4591-8a79-524ae3eada26"},"vehicle_type_id":"4","last_reported":1749741123,"current_range_meters":2800,"station_id":"ce4bh3p2rcd13ifvqdp0","pricing_plan_id":"cebpf4jnsgd1na2vs0mg"},{"bike_id":"061ca5ab-eb07-4718-812b-c156403a12a4","system_id":"levelo_inurba_marseille","lat":43.28938,"lon":5.36637,"is_reserved":false,"is_disabled":false,"rental_uris":{"android":"levelo://app?vid=061ca5ab-eb07-4718-812b-c156403a12a4","ios":"levelo://app?vid=061ca5ab-eb07-4718-812b-c156403a12a4"},"vehicle_type_id":"4","last_reported":1749741123,"current_range_meters":2800,"station_id":"ce4bhap2rcd13ifvqek0","pricing_plan_id":"cebpf4jnsgd1na2vs0mg"},{"bike_id":"66b1cbfb-c132-4ef4-922c-0beab9b5a350","system_id":"levelo_inurba_marseille","lat":43.29759,"lon":5.45996,"is_reserved":false,"is_disabled":false,"rental_uris":{"android":"levelo://app?vid=66b1cbfb-c132-4ef4-922c-0beab9b5a350","ios":"levelo://app?vid=66b1cbfb-c132-4ef4-922c-0beab9b5a350"},"vehicle_type_id":"4","last_reported":1749741123,"current_range_meters":3200,"station_id":"","pricing_plan_id":"cebpf4jnsgd1na2vs0mg"},{"bike_id":"7e605087-b667-4d76-b93d-70333cde5254","system_id":"levelo_inurba_marseille","lat":43.28647,"lon":5.38665,"is_reserved":false,"is_disabled":false,"rental_uris":{"android":"levelo://app?vid=7e605087-b667-4d76-b93d-70333cde5254","ios":"levelo://app?vid=7e605087-b667-4d76-b93d-70333cde5254"},"vehicle_type_id":"4","last_reported":1749741123,"current_range_meters":3200,"station_id":"ce4bh492rcd13ifvqdug","pricing_plan_id":"cebpf4jnsgd1na2vs0mg"},{"bike_id":"75a2bc5e-70c8-4233-83ca-1261ef6a8593","system_id":"levelo_inurba_marseille","lat":43.30378,"lon":5.42489,"is_reserved":false,"is_disabled":false,"rental_uris":{"android":"levelo://app?vid=75a2bc5e-70c8-4233-83ca-1261ef6a8593","ios":"levelo://app?vid=75a2bc5e-70c8-4233-83ca-1261ef6a8593"},"vehicle_type_id":"4","last_reported":1749741123,"current_range_meters":3200,"station_id":"ce4bhoh2rcd13ifvqh6g","pricing_plan_id":"cebpf4jnsgd1na2vs0mg"},{"bike_id":"5077581b-cebb-46fc-ba69-4fa8272d4810","system_id":"levelo_inurba_marseille","lat":43.21353,"lon":5.35535,"is_reserved":false,"is_disabled":false,"rental_uris":{"android":"levelo://app?vid=5077581b-cebb-46fc-ba69-4fa8272d4810","ios":"levelo://app?vid=5077581b-cebb-46fc-ba69-4fa8272d4810"},"vehicle_type_id":"4","last_reported":1749741123,"current_range_meters":3600,"station_id":"","pricing_plan_id":"cebpf4jnsgd1na2vs0mg"},{"bike_id":"4b46de49-fc9e-423b-b68b-7bdf05a00e45","system_id":"levelo_inurba_marseille","lat":43.25306,"lon":5.39362,"is_reserved":false,"is_disabled":false,"rental_uris":{"android":"levelo://app?vid=4b46de49-fc9e-423b-b68b-7bdf05a00e45","ios":"levelo://app?vid=4b46de49-fc9e-423b-b68b-7bdf05a00e45"},"vehicle_type_id":"4","last_reported":1749741123,"current_range_meters":3600,"station_id":"","pricing_plan_id":"cebpf4jnsgd1na2vs0mg"},{"bike_id":"853e9d90-8fb4-4c17-a762-9923b9fb02f0","system_id":"levelo_inurba_marseille","lat":43.25407,"lon":5.38112,"is_reserved":false,"is_disabled":false,"rental_uris":{"android":"levelo://app?vid=853e9d90-8fb4-4c17-a762-9923b9fb02f0","ios":"levelo://app?vid=853e9d90-8fb4-4c17-a762-9923b9fb02f0"},"vehicle_type_id":"4","last_reported":1749741123,"current_range_meters":3600,"station_id":"","pricing_plan_id":"cebpf4jnsgd1na2vs0mg"},{"bike_id":"075dc2a2-078d-4111-a99a-cddc268c6383","system_id":"levelo_inurba_marseille","lat":43.28566,"lon":5.39497,"is_reserved":false,"is_disabled":false,"rental_uris":{"android":"levelo://app?vid=075dc2a2-078d-4111-a99a-cddc268c6383","ios":"levelo://app?vid=075dc2a2-078d-4111-a99a-cddc268c6383"},"vehicle_type_id":"4","last_reported":1749741123,"current_range_meters":3600,"station_id":"ce4bh292rcd13ifvqdg0","pricing_plan_id":"cebpf4jnsgd1na2vs0mg"},{"bike_id":"a69ad0cb-bf5f-4f5e-b13f-3a08e3b21d05","system_id":"levelo_inurba_marseille","lat":43.286965,"lon":5.37389,"is_reserved":false,"is_disabled":false,"rental_uris":{"android":"levelo://app?vid=a69ad0cb-bf5f-4f5e-b13f-3a08e3b21d05","ios":"levelo://app?vid=a69ad0cb-bf5f-4f5e-b13f-3a08e3b21d05"},"vehicle_type_id":"4","last_reported":1749741123,"current_range_meters":3600,"station_id":"ce4bh3p2rcd13ifvqdq0","pricing_plan_id":"cebpf4jnsgd1na2vs0mg"},{"bike_id":"a6d9c4ff-ecaa-46e4-a7ba-d3960e38019d","system_id":"levelo_inurba_marseille","lat":43.28265,"lon":5.35095,"is_reserved":false,"is_disabled":false,"rental_uris":{"android":"levelo://app?vid=a6d9c4ff-ecaa-46e4-a7ba-d3960e38019d","ios":"levelo://app?vid=a6d9c4ff-ecaa-46e4-a7ba-d3960e38019d"},"vehicle_type_id":"4","last_reported":1749741123,"current_range_meters":3600,"station_id":"ce4bhbp2rcd13ifvqerg","pricing_plan_id":"cebpf4jnsgd1na2vs0mg"},{"bike_id":"ae6d2ea8-bb74-43ed-bbb1-4414ab879b1d","system_id":"levelo_inurba_marseille","lat":43.30212,"lon":5.39461,"is_reserved":false,"is_disabled":false,"rental_uris":{"android":"levelo://app?vid=ae6d2ea8-bb74-43ed-bbb1-4414ab879b1d","ios":"levelo://app?vid=ae6d2ea8-bb74-43ed-bbb1-4414ab879b1d"},"vehicle_type_id":"4","last_reported":1749741123,"current_range_meters":4000,"station_id":"ce4bh0p2rcd13ifvqd70","pricing_plan_id":"cebpf4jnsgd1na2vs0mg"},{"bike_id":"1e20f032-0f6a-40b2-ad29-e4d2225496fa","system_id":"levelo_inurba_marseille","lat":43.30276,"lon":5.37064,"is_reserved":false,"is_disabled":false,"rental_uris":{"android":"levelo://app?vid=1e20f032-0f6a-40b2-ad29-e4d2225496fa","ios":"levelo://app?vid=1e20f032-0f6a-40b2-ad29-e4d2225496fa"},"vehicle_type_id":"4","last_reported":1749741123,"current_range_meters":4400,"station_id":"","pricing_plan_id":"cebpf4jnsgd1na2vs0mg"},{"bike_id":"165a6ce2-f806-45b2-bf82-39d7bdd011fc","system_id":"levelo_inurba_marseille","lat":43.29384,"lon":5.38526,"is_reserved":false,"is_disabled":false,"rental_uris":{"android":"levelo://app?vid=165a6ce2-f806-45b2-bf82-39d7bdd011fc","ios":"levelo://app?vid=165a6ce2-f806-45b2-bf82-39d7bdd011fc"},"vehicle_type_id":"4","last_reported":1749741123,"current_range_meters":4400,"station_id":"","pricing_plan_id":"cebpf4jnsgd1na2vs0mg"},{"bike_id":"8069e909-16de-4a82-90bb-289ca818c404","system_id":"levelo_inurba_marseille","lat":43.26061,"lon":5.39394,"is_reserved":false,"is_disabled":false,"rental_uris":{"android":"levelo://app?vid=8069e909-16de-4a82-90bb-289ca818c404","ios":"levelo://app?vid=8069e909-16de-4a82-90bb-289ca818c404"},"vehicle_type_id":"4","last_reported":1749741123,"current_range_meters":4400,"station_id":"ce4bhh92rcd13ifvqfj0","pricing_plan_id":"cebpf4jnsgd1na2vs0mg"},{"bike_id":"20b3a4b6-a114-42a8-a032-0205f84ff98f","system_id":"levelo_inurba_marseille","lat":43.2979,"lon":5.371,"is_reserved":false,"is_disabled":false,"rental_uris":{"android":"levelo://app?vid=20b3a4b6-a114-42a8-a032-0205f84ff98f","ios":"levelo://app?vid=20b3a4b6-a114-42a8-a032-0205f84ff98f"},"vehicle_type_id":"4","last_reported":1749741123,"current_range_meters":4800,"station_id":"ce4bgop2rcd13ifvqc1g","pricing_plan_id":"cebpf4jnsgd1na2vs0mg"},{"bike_id":"b519e197-dc97-4af3-a6a4-f1ae45b4ac20","system_id":"levelo_inurba_marseille","lat":43.29436,"lon":5.39749,"is_reserved":false,"is_disabled":false,"rental_uris":{"android":"levelo://app?vid=b519e197-dc97-4af3-a6a4-f1ae45b4ac20","ios":"levelo://app?vid=b519e197-dc97-4af3-a6a4-f1ae45b4ac20"},"vehicle_type_id":"4","last_reported":1749741123,"current_range_meters":4800,"station_id":"ce4bh3h2rcd13ifvqdo0","pricing_plan_id":"cebpf4jnsgd1na2vs0mg"},{"bike_id":"baa39371-d9f7-4c96-99d3-9b4743380698","system_id":"levelo_inurba_marseille","lat":43.28862,"lon":5.35867,"is_reserved":false,"is_disabled":false,"rental_uris":{"android":"levelo://app?vid=baa39371-d9f7-4c96-99d3-9b4743380698","ios":"levelo://app?vid=baa39371-d9f7-4c96-99d3-9b4743380698"},"vehicle_type_id":"4","last_reported":1749741123,"current_range_meters":5600,"station_id":"ce4bhb12rcd13ifvqem0","pricing_plan_id":"cebpf4jnsgd1na2vs0mg"},{"bike_id":"22c08658-f874-4797-91c2-e72a9e89724b","system_id":"levelo_inurba_marseille","lat":43.29007,"lon":5.35601,"is_reserved":false,"is_disabled":false,"rental_uris":{"android":"levelo://app?vid=22c08658-f874-4797-91c2-e72a9e89724b","ios":"levelo://app?vid=22c08658-f874-4797-91c2-e72a9e89724b"},"vehicle_type_id":"4","last_reported":1749741123,"current_range_meters":5600,"station_id":"ce4bhb92rcd13ifvqen0","pricing_plan_id":"cebpf4jnsgd1na2vs0mg"},{"bike_id":"57330525-5a31-48b2-8f10-905f00656558","system_id":"levelo_inurba_marseille","lat":43.29563,"lon":5.37524,"is_reserved":false,"is_disabled":false,"rental_uris":{"android":"levelo://app?vid=57330525-5a31-48b2-8f10-905f00656558","ios":"levelo://app?vid=57330525-5a31-48b2-8f10-905f00656558"},"vehicle_type_id":"4","last_reported":1749741123,"current_range_meters":6000,"station_id":"ce4bgh92rcd13ifvqb50","pricing_plan_id":"cebpf4jnsgd1na2vs0mg"},{"bike_id":"e4280d0f-de3d-440a-ad3d-b14c83ad5bc7","system_id":"levelo_inurba_marseille","lat":43.2953,"lon":5.37528,"is_reserved":false,"is_disabled":false,"rental_uris":{"android":"levelo://app?vid=e4280d0f-de3d-440a-ad3d-b14c83ad5bc7","ios":"levelo://app?vid=e4280d0f-de3d-440a-ad3d-b14c83ad5bc7"},"vehicle_type_id":"4","last_reported":1749741123,"current_range_meters":6000,"station_id":"ce4bgkp2rcd13ifvqbmg","pricing_plan_id":"cebpf4jnsgd1na2vs0mg"},{"bike_id":"bfb0e17b-ccf4-4d9a-982f-53fd7db63e64","system_id":"levelo_inurba_marseille","lat":43.30137,"lon":5.39863,"is_reserved":false,"is_disabled":false,"rental_uris":{"android":"levelo://app?vid=bfb0e17b-ccf4-4d9a-982f-53fd7db63e64","ios":"levelo://app?vid=bfb0e17b-ccf4-4d9a-982f-53fd7db63e64"},"vehicle_type_id":"4","last_reported":1749741123,"current_range_meters":6000,"station_id":"ce4bh0h2rcd13ifvqd40","pricing_plan_id":"cebpf4jnsgd1na2vs0mg"},{"bike_id":"84d2cf41-7a52-4251-9c14-f982f718d3b9","system_id":"levelo_inurba_marseille","lat":43.28096,"lon":5.37835,"is_reserved":false,"is_disabled":false,"rental_uris":{"android":"levelo://app?vid=84d2cf41-7a52-4251-9c14-f982f718d3b9","ios":"levelo://app?vid=84d2cf41-7a52-4251-9c14-f982f718d3b9"},"vehicle_type_id":"4","last_reported":1749741123,"current_range_meters":6000,"station_id":"ce4bha12rcd13ifvqee0","pricing_plan_id":"cebpf4jnsgd1na2vs0mg"},{"bike_id":"989f1d0a-e87f-4782-a544-a85ab62fbec9","system_id":"levelo_inurba_marseille","lat":43.284528,"lon":5.358894,"is_reserved":false,"is_disabled":false,"rental_uris":{"android":"levelo://app?vid=989f1d0a-e87f-4782-a544-a85ab62fbec9","ios":"levelo://app?vid=989f1d0a-e87f-4782-a544-a85ab62fbec9"},"vehicle_type_id":"4","last_reported":1749741123,"current_range_meters":6000,"station_id":"ce4bhah2rcd13ifvqei0","pricing_plan_id":"cebpf4jnsgd1na2vs0mg"},{"bike_id":"66314ca9-30a7-4c0a-8507-6f89f4c9b4e1","system_id":"levelo_inurba_marseille","lat":43.26178,"lon":5.37051,"is_reserved":false,"is_disabled":false,"rental_uris":{"android":"levelo://app?vid=66314ca9-30a7-4c0a-8507-6f89f4c9b4e1","ios":"levelo://app?vid=66314ca9-30a7-4c0a-8507-6f89f4c9b4e1"},"vehicle_type_id":"4","last_reported":1749741123,"current_range_meters":6400,"station_id":"","pricing_plan_id":"cebpf4jnsgd1na2vs0mg"},{"bike_id":"3110fc6d-f003-44ce-97ab-62fdc96eadca","system_id":"levelo_inurba_marseille","lat":43.3113,"lon":5.36892,"is_reserved":false,"is_disabled":false,"rental_uris":{"android":"levelo://app?vid=3110fc6d-f003-44ce-97ab-62fdc96eadca","ios":"levelo://app?vid=3110fc6d-f003-44ce-97ab-62fdc96eadca"},"vehicle_type_id":"4","last_reported":1749741123,"current_range_meters":6400,"station_id":"","pricing_plan_id":"cebpf4jnsgd1na2vs0mg"},{"bike_id":"f8b985fd-2804-413b-bd39-7a5d7af53143","system_id":"levelo_inurba_marseille","lat":43.28933,"lon":5.36638,"is_reserved":false,"is_disabled":false,"rental_uris":{"android":"levelo://app?vid=f8b985fd-2804-413b-bd39-7a5d7af53143","ios":"levelo://app?vid=f8b985fd-2804-413b-bd39-7a5d7af53143"},"vehicle_type_id":"4","last_reported":1749741123,"current_range_meters":6400,"station_id":"ce4bhap2rcd13ifvqek0","pricing_plan_id":"cebpf4jnsgd1na2vs0mg"},{"bike_id":"36440180-3dbe-485b-9ac8-412977db3c47","system_id":"levelo_inurba_marseille","lat":43.27916,"lon":5.3958,"is_reserved":false,"is_disabled":false,"rental_uris":{"android":"levelo://app?vid=36440180-3dbe-485b-9ac8-412977db3c47","ios":"levelo://app?vid=36440180-3dbe-485b-9ac8-412977db3c47"},"vehicle_type_id":"4","last_reported":1749741123,"current_range_meters":6400,"station_id":"ce4bhf92rcd13ifvqf40","pricing_plan_id":"cebpf4jnsgd1na2vs0mg"},{"bike_id":"65a4c733-1786-472b-b46a-af3837f6b176","system_id":"levelo_inurba_marseille","lat":43.31801,"lon":5.37634,"is_reserved":false,"is_disabled":false,"rental_uris":{"android":"levelo://app?vid=65a4c733-1786-472b-b46a-af3837f6b176","ios":"levelo://app?vid=65a4c733-1786-472b-b46a-af3837f6b176"},"vehicle_type_id":"4","last_reported":1749741123,"current_range_meters":6800,"station_id":"","pricing_plan_id":"cebpf4jnsgd1na2vs0mg"},{"bike_id":"6135b652-2ad5-48b6-9d07-5531f6c0267b","system_id":"levelo_inurba_marseille","lat":43.3033,"lon":5.36876,"is_reserved":false,"is_disabled":false,"rental_uris":{"android":"levelo://app?vid=6135b652-2ad5-48b6-9d07-5531f6c0267b","ios":"levelo://app?vid=6135b652-2ad5-48b6-9d07-5531f6c0267b"},"vehicle_type_id":"4","last_reported":1749741123,"current_range_meters":6800,"station_id":"ce4bgqh2rcd13ifvqc5g","pricing_plan_id":"cebpf4jnsgd1na2vs0mg"},{"bike_id":"90dc7174-e5f5-45c7-9da5-620eaf7e2d08","system_id":"levelo_inurba_marseille","lat":43.231457,"lon":5.437227,"is_reserved":false,"is_disabled":false,"rental_uris":{"android":"levelo://app?vid=90dc7174-e5f5-45c7-9da5-620eaf7e2d08","ios":"levelo://app?vid=90dc7174-e5f5-45c7-9da5-620eaf7e2d08"},"vehicle_type_id":"4","last_reported":1749741123,"current_range_meters":6800,"station_id":"ce4bhmp2rcd13ifvqgog","pricing_plan_id":"cebpf4jnsgd1na2vs0mg"},{"bike_id":"0b36d1cf-1c25-4184-baf2-a26b8bfaa05f","system_id":"levelo_inurba_marseille","lat":43.2795,"lon":5.41043,"is_reserved":false,"is_disabled":false,"rental_uris":{"android":"levelo://app?vid=0b36d1cf-1c25-4184-baf2-a26b8bfaa05f","ios":"levelo://app?vid=0b36d1cf-1c25-4184-baf2-a26b8bfaa05f"},"vehicle_type_id":"4","last_reported":1749741123,"current_range_meters":6800,"station_id":"ce4bhnp2rcd13ifvqh0g","pricing_plan_id":"cebpf4jnsgd1na2vs0mg"},{"bike_id":"2fb5d76a-a09b-4529-8f1a-5cbd2328fb2d","system_id":"levelo_inurba_marseille","lat":43.29561,"lon":5.37513,"is_reserved":false,"is_disabled":false,"rental_uris":{"android":"levelo://app?vid=2fb5d76a-a09b-4529-8f1a-5cbd2328fb2d","ios":"levelo://app?vid=2fb5d76a-a09b-4529-8f1a-5cbd2328fb2d"},"vehicle_type_id":"4","last_reported":1749741123,"current_range_meters":7200,"station_id":"ce4bgh92rcd13ifvqb50","pricing_plan_id":"cebpf4jnsgd1na2vs0mg"},{"bike_id":"49f6b468-23c5-48d2-b551-36d0aafb91ed","system_id":"levelo_inurba_marseille","lat":43.30135,"lon":5.38786,"is_reserved":false,"is_disabled":false,"rental_uris":{"android":"levelo://app?vid=49f6b468-23c5-48d2-b551-36d0aafb91ed","ios":"levelo://app?vid=49f6b468-23c5-48d2-b551-36d0aafb91ed"},"vehicle_type_id":"4","last_reported":1749741123,"current_range_meters":7200,"station_id":"ce4bghh2rcd13ifvqb60","pricing_plan_id":"cebpf4jnsgd1na2vs0mg"},{"bike_id":"aacafa35-3f5f-4ce2-bdc8-74b3f1508c09","system_id":"levelo_inurba_marseille","lat":43.28258,"lon":5.35053,"is_reserved":false,"is_disabled":false,"rental_uris":{"android":"levelo://app?vid=aacafa35-3f5f-4ce2-bdc8-74b3f1508c09","ios":"levelo://app?vid=aacafa35-3f5f-4ce2-bdc8-74b3f1508c09"},"vehicle_type_id":"4","last_reported":1749741123,"current_range_meters":7200,"station_id":"ce4bhbp2rcd13ifvqerg","pricing_plan_id":"cebpf4jnsgd1na2vs0mg"},{"bike_id":"2c382c8d-26be-429b-8672-118c8c680909","system_id":"levelo_inurba_marseille","lat":43.27828,"lon":5.40709,"is_reserved":false,"is_disabled":false,"rental_uris":{"android":"levelo://app?vid=2c382c8d-26be-429b-8672-118c8c680909","ios":"levelo://app?vid=2c382c8d-26be-429b-8672-118c8c680909"},"vehicle_type_id":"4","last_reported":1749741123,"current_range_meters":7200,"station_id":"ce4bhnh2rcd13ifvqgtg","pricing_plan_id":"cebpf4jnsgd1na2vs0mg"},{"bike_id":"f6523def-b5ff-460c-9c1f-1e769c0a91c1","system_id":"levelo_inurba_marseille","lat":43.284581,"lon":5.358863,"is_reserved":false,"is_disabled":false,"rental_uris":{"android":"levelo://app?vid=f6523def-b5ff-460c-9c1f-1e769c0a91c1","ios":"levelo://app?vid=f6523def-b5ff-460c-9c1f-1e769c0a91c1"},"vehicle_type_id":"4","last_reported":1749741123,"current_range_meters":8000,"station_id":"ce4bhah2rcd13ifvqei0","pricing_plan_id":"cebpf4jnsgd1na2vs0mg"},{"bike_id":"fdf1e88a-7c80-4805-b5e7-5e32a5da1b90","system_id":"levelo_inurba_marseille","lat":43.23163,"lon":5.43739,"is_reserved":false,"is_disabled":false,"rental_uris":{"android":"levelo://app?vid=fdf1e88a-7c80-4805-b5e7-5e32a5da1b90","ios":"levelo://app?vid=fdf1e88a-7c80-4805-b5e7-5e32a5da1b90"},"vehicle_type_id":"4","last_reported":1749741123,"current_range_meters":8000,"station_id":"ce4bhmp2rcd13ifvqgog","pricing_plan_id":"cebpf4jnsgd1na2vs0mg"},{"bike_id":"84f5a926-1dd6-4535-b647-2764ce0ca103","system_id":"levelo_inurba_marseille","lat":43.3212,"lon":5.36769,"is_reserved":false,"is_disabled":false,"rental_uris":{"android":"levelo://app?vid=84f5a926-1dd6-4535-b647-2764ce0ca103","ios":"levelo://app?vid=84f5a926-1dd6-4535-b647-2764ce0ca103"},"vehicle_type_id":"4","last_reported":1749741123,"current_range_meters":8000,"station_id":"ce4bhrh2rcd13ifvqhug","pricing_plan_id":"cebpf4jnsgd1na2vs0mg"},{"bike_id":"9ad58048-4483-449f-888d-802c6a7b4c46","system_id":"levelo_inurba_marseille","lat":43.292524,"lon":5.383737,"is_reserved":false,"is_disabled":false,"rental_uris":{"android":"levelo://app?vid=9ad58048-4483-449f-888d-802c6a7b4c46","ios":"levelo://app?vid=9ad58048-4483-449f-888d-802c6a7b4c46"},"vehicle_type_id":"4","last_reported":1749741123,"current_range_meters":8400,"station_id":"","pricing_plan_id":"cebpf4jnsgd1na2vs0mg"},{"bike_id":"f31d15af-89e8-4051-85da-b185e888397e","system_id":"levelo_inurba_marseille","lat":43.305395,"lon":5.365537,"is_reserved":false,"is_disabled":false,"rental_uris":{"android":"levelo://app?vid=f31d15af-89e8-4051-85da-b185e888397e","ios":"levelo://app?vid=f31d15af-89e8-4051-85da-b185e888397e"},"vehicle_type_id":"4","last_reported":1749741123,"current_range_meters":8400,"station_id":"ce4bgs12rcd13ifvqcag","pricing_plan_id":"cebpf4jnsgd1na2vs0mg"},{"bike_id":"b4220abe-5397-45d2-a2b0-4845540f08d6","system_id":"levelo_inurba_marseille","lat":43.28939,"lon":5.36639,"is_reserved":false,"is_disabled":false,"rental_uris":{"android":"levelo://app?vid=b4220abe-5397-45d2-a2b0-4845540f08d6","ios":"levelo://app?vid=b4220abe-5397-45d2-a2b0-4845540f08d6"},"vehicle_type_id":"4","last_reported":1749741123,"current_range_meters":8400,"station_id":"ce4bhap2rcd13ifvqek0","pricing_plan_id":"cebpf4jnsgd1na2vs0mg"},{"bike_id":"085e2238-921f-4401-9436-1a08c6265374","system_id":"levelo_inurba_marseille","lat":43.27174,"lon":5.40997,"is_reserved":false,"is_disabled":false,"rental_uris":{"android":"levelo://app?vid=085e2238-921f-4401-9436-1a08c6265374","ios":"levelo://app?vid=085e2238-921f-4401-9436-1a08c6265374"},"vehicle_type_id":"4","last_reported":1749741123,"current_range_meters":8400,"station_id":"ce4bhl12rcd13ifvqgf0","pricing_plan_id":"cebpf4jnsgd1na2vs0mg"},{"bike_id":"8105426e-eb6c-4b79-bfaa-254c1b037d55","system_id":"levelo_inurba_marseille","lat":43.32371,"lon":5.36699,"is_reserved":false,"is_disabled":false,"rental_uris":{"android":"levelo://app?vid=8105426e-eb6c-4b79-bfaa-254c1b037d55","ios":"levelo://app?vid=8105426e-eb6c-4b79-bfaa-254c1b037d55"},"vehicle_type_id":"4","last_reported":1749741123,"current_range_meters":8400,"station_id":"ce4bhsh2rcd13ifvqi2g","pricing_plan_id":"cebpf4jnsgd1na2vs0mg"},{"bike_id":"987d513e-d184-4d2b-85c3-eaa83235f672","system_id":"levelo_inurba_marseille","lat":43.30885,"lon":5.39645,"is_reserved":false,"is_disabled":false,"rental_uris":{"android":"levelo://app?vid=987d513e-d184-4d2b-85c3-eaa83235f672","ios":"levelo://app?vid=987d513e-d184-4d2b-85c3-eaa83235f672"},"vehicle_type_id":"4","last_reported":1749741123,"current_range_meters":8800,"station_id":"ce4bh012rcd13ifvqcv0","pricing_plan_id":"cebpf4jnsgd1na2vs0mg"},{"bike_id":"090ded6d-18cb-4111-b8b9-bb9dd44cc28e","system_id":"levelo_inurba_marseille","lat":43.2827,"lon":5.35083,"is_reserved":false,"is_disabled":false,"rental_uris":{"android":"levelo://app?vid=090ded6d-18cb-4111-b8b9-bb9dd44cc28e","ios":"levelo://app?vid=090ded6d-18cb-4111-b8b9-bb9dd44cc28e"},"vehicle_type_id":"4","last_reported":1749741123,"current_range_meters":8800,"station_id":"ce4bhbp2rcd13ifvqerg","pricing_plan_id":"cebpf4jnsgd1na2vs0mg"},{"bike_id":"58cce171-1d89-4d46-96c2-263499754ae8","system_id":"levelo_inurba_marseille","lat":43.265571,"lon":5.372899,"is_reserved":false,"is_disabled":false,"rental_uris":{"android":"levelo://app?vid=58cce171-1d89-4d46-96c2-263499754ae8","ios":"levelo://app?vid=58cce171-1d89-4d46-96c2-263499754ae8"},"vehicle_type_id":"4","last_reported":1749741123,"current_range_meters":8800,"station_id":"ce4bhbp2rcd13ifvqerg","pricing_plan_id":"cebpf4jnsgd1na2vs0mg"},{"bike_id":"608d53ee-19f5-42f0-939c-2e4a27a553b6","system_id":"levelo_inurba_marseille","lat":43.28611,"lon":5.35105,"is_reserved":false,"is_disabled":false,"rental_uris":{"android":"levelo://app?vid=608d53ee-19f5-42f0-939c-2e4a27a553b6","ios":"levelo://app?vid=608d53ee-19f5-42f0-939c-2e4a27a553b6"},"vehicle_type_id":"4","last_reported":1749741123,"current_range_meters":8800,"station_id":"ce4bhch2rcd13ifvqeug","pricing_plan_id":"cebpf4jnsgd1na2vs0mg"},{"bike_id":"308cbf69-b866-4a48-b377-e4f7d5e7c70b","system_id":"levelo_inurba_marseille","lat":43.32926,"lon":5.39078,"is_reserved":false,"is_disabled":false,"rental_uris":{"android":"levelo://app?vid=308cbf69-b866-4a48-b377-e4f7d5e7c70b","ios":"levelo://app?vid=308cbf69-b866-4a48-b377-e4f7d5e7c70b"},"vehicle_type_id":"4","last_reported":1749741123,"current_range_meters":9200,"station_id":"","pricing_plan_id":"cebpf4jnsgd1na2vs0mg"},{"bike_id":"f4cba4cd-0e8c-4fdc-a060-f768e4071a93","system_id":"levelo_inurba_marseille","lat":43.29916,"lon":5.38138,"is_reserved":false,"is_disabled":false,"rental_uris":{"android":"levelo://app?vid=f4cba4cd-0e8c-4fdc-a060-f768e4071a93","ios":"levelo://app?vid=f4cba4cd-0e8c-4fdc-a060-f768e4071a93"},"vehicle_type_id":"4","last_reported":1749741123,"current_range_meters":9200,"station_id":"ce4bgj12rcd13ifvqbc0","pricing_plan_id":"cebpf4jnsgd1na2vs0mg"},{"bike_id":"a23fae3d-da2b-41e3-a67c-f90bf04aca04","system_id":"levelo_inurba_marseille","lat":43.28414,"lon":5.34984,"is_reserved":false,"is_disabled":false,"rental_uris":{"android":"levelo://app?vid=a23fae3d-da2b-41e3-a67c-f90bf04aca04","ios":"levelo://app?vid=a23fae3d-da2b-41e3-a67c-f90bf04aca04"},"vehicle_type_id":"4","last_reported":1749741123,"current_range_meters":9200,"station_id":"ce4bhbh2rcd13ifvqepg","pricing_plan_id":"cebpf4jnsgd1na2vs0mg"},{"bike_id":"7092b53c-7951-4494-93da-670d932aebff","system_id":"levelo_inurba_marseille","lat":43.25719,"lon":5.41115,"is_reserved":false,"is_disabled":false,"rental_uris":{"android":"levelo://app?vid=7092b53c-7951-4494-93da-670d932aebff","ios":"levelo://app?vid=7092b53c-7951-4494-93da-670d932aebff"},"vehicle_type_id":"4","last_reported":1749741123,"current_range_meters":9200,"station_id":"ce4bhkp2rcd13ifvqgd0","pricing_plan_id":"cebpf4jnsgd1na2vs0mg"},{"bike_id":"d7c33aab-ee7c-404d-a2ac-8cbb81953f56","system_id":"levelo_inurba_marseille","lat":43.27941,"lon":5.41048,"is_reserved":false,"is_disabled":false,"rental_uris":{"android":"levelo://app?vid=d7c33aab-ee7c-404d-a2ac-8cbb81953f56","ios":"levelo://app?vid=d7c33aab-ee7c-404d-a2ac-8cbb81953f56"},"vehicle_type_id":"4","last_reported":1749741123,"current_range_meters":9200,"station_id":"ce4bhnp2rcd13ifvqh0g","pricing_plan_id":"cebpf4jnsgd1na2vs0mg"},{"bike_id":"e5ff82fd-cc37-4e1f-aade-050998fb0f61","system_id":"levelo_inurba_marseille","lat":43.262606,"lon":5.37071,"is_reserved":false,"is_disabled":false,"rental_uris":{"android":"levelo://app?vid=e5ff82fd-cc37-4e1f-aade-050998fb0f61","ios":"levelo://app?vid=e5ff82fd-cc37-4e1f-aade-050998fb0f61"},"vehicle_type_id":"4","last_reported":1749741123,"current_range_meters":9600,"station_id":"","pricing_plan_id":"cebpf4jnsgd1na2vs0mg"},{"bike_id":"b90ed52f-aa6e-4fa7-908e-d816340f7e20","system_id":"levelo_inurba_marseille","lat":43.305476,"lon":5.365391,"is_reserved":false,"is_disabled":false,"rental_uris":{"android":"levelo://app?vid=b90ed52f-aa6e-4fa7-908e-d816340f7e20","ios":"levelo://app?vid=b90ed52f-aa6e-4fa7-908e-d816340f7e20"},"vehicle_type_id":"4","last_reported":1749741123,"current_range_meters":9600,"station_id":"ce4bgs12rcd13ifvqcag","pricing_plan_id":"cebpf4jnsgd1na2vs0mg"},{"bike_id":"622006b0-9607-462a-9d7e-3713ebf6b525","system_id":"levelo_inurba_marseille","lat":43.25004,"lon":5.38913,"is_reserved":false,"is_disabled":false,"rental_uris":{"android":"levelo://app?vid=622006b0-9607-462a-9d7e-3713ebf6b525","ios":"levelo://app?vid=622006b0-9607-462a-9d7e-3713ebf6b525"},"vehicle_type_id":"4","last_reported":1749741123,"current_range_meters":9600,"station_id":"ce4bhgp2rcd13ifvqfd0","pricing_plan_id":"cebpf4jnsgd1na2vs0mg"},{"bike_id":"a0915d5e-eb7f-4045-98f2-60d91beb9fd7","system_id":"levelo_inurba_marseille","lat":43.34131,"lon":5.40898,"is_reserved":false,"is_disabled":false,"rental_uris":{"android":"levelo://app?vid=a0915d5e-eb7f-4045-98f2-60d91beb9fd7","ios":"levelo://app?vid=a0915d5e-eb7f-4045-98f2-60d91beb9fd7"},"vehicle_type_id":"4","last_reported":1749741123,"current_range_meters":9600,"station_id":"ce4bhqh2rcd13ifvqhlg","pricing_plan_id":"cebpf4jnsgd1na2vs0mg"},{"bike_id":"6dfd5595-654e-42ee-8e58-2a5c3df13ff8","system_id":"levelo_inurba_marseille","lat":43.30941,"lon":5.37274,"is_reserved":false,"is_disabled":false,"rental_uris":{"android":"levelo://app?vid=6dfd5595-654e-42ee-8e58-2a5c3df13ff8","ios":"levelo://app?vid=6dfd5595-654e-42ee-8e58-2a5c3df13ff8"},"vehicle_type_id":"4","last_reported":1749741123,"current_range_meters":10000,"station_id":"","pricing_plan_id":"cebpf4jnsgd1na2vs0mg"},{"bike_id":"01633cd6-802b-48f8-84ce-77a87d295117","system_id":"levelo_inurba_marseille","lat":43.29283,"lon":5.37472,"is_reserved":false,"is_disabled":false,"rental_uris":{"android":"levelo://app?vid=01633cd6-802b-48f8-84ce-77a87d295117","ios":"levelo://app?vid=01633cd6-802b-48f8-84ce-77a87d295117"},"vehicle_type_id":"4","last_reported":1749741123,"current_range_meters":10000,"station_id":"ce4bgi12rcd13ifvqb70","pricing_plan_id":"cebpf4jnsgd1na2vs0mg"},{"bike_id":"9d6b83fc-44a1-4fb0-841c-35e87bc3a2db","system_id":"levelo_inurba_marseille","lat":43.284202,"lon":5.349699,"is_reserved":false,"is_disabled":false,"rental_uris":{"android":"levelo://app?vid=9d6b83fc-44a1-4fb0-841c-35e87bc3a2db","ios":"levelo://app?vid=9d6b83fc-44a1-4fb0-841c-35e87bc3a2db"},"vehicle_type_id":"4","last_reported":1749741123,"current_range_meters":10000,"station_id":"ce4bgvh2rcd13ifvqcs0","pricing_plan_id":"cebpf4jnsgd1na2vs0mg"},{"bike_id":"c8da1dd4-822c-4705-a2c3-fe9b92c6a67e","system_id":"levelo_inurba_marseille","lat":43.29196,"lon":5.3932,"is_reserved":false,"is_disabled":false,"rental_uris":{"android":"levelo://app?vid=c8da1dd4-822c-4705-a2c3-fe9b92c6a67e","ios":"levelo://app?vid=c8da1dd4-822c-4705-a2c3-fe9b92c6a67e"},"vehicle_type_id":"4","last_reported":1749741123,"current_range_meters":10000,"station_id":"ce4bh192rcd13ifvqdd0","pricing_plan_id":"cebpf4jnsgd1na2vs0mg"},{"bike_id":"3b7b7898-fc8a-45dc-a665-09c06a79d9bc","system_id":"levelo_inurba_marseille","lat":43.28405,"lon":5.34978,"is_reserved":false,"is_disabled":false,"rental_uris":{"android":"levelo://app?vid=3b7b7898-fc8a-45dc-a665-09c06a79d9bc","ios":"levelo://app?vid=3b7b7898-fc8a-45dc-a665-09c06a79d9bc"},"vehicle_type_id":"4","last_reported":1749741123,"current_range_meters":10000,"station_id":"ce4bhbh2rcd13ifvqepg","pricing_plan_id":"cebpf4jnsgd1na2vs0mg"},{"bike_id":"2d05fd9a-2175-4699-a103-655b9e8178be","system_id":"levelo_inurba_marseille","lat":43.26957,"lon":5.38627,"is_reserved":false,"is_disabled":false,"rental_uris":{"android":"levelo://app?vid=2d05fd9a-2175-4699-a103-655b9e8178be","ios":"levelo://app?vid=2d05fd9a-2175-4699-a103-655b9e8178be"},"vehicle_type_id":"4","last_reported":1749741123,"current_range_meters":10000,"station_id":"ce4bhh92rcd13ifvqfh0","pricing_plan_id":"cebpf4jnsgd1na2vs0mg"},{"bike_id":"db1fb8e3-e820-4dfc-8a80-81806048c981","system_id":"levelo_inurba_marseille","lat":43.33022,"lon":5.39044,"is_reserved":false,"is_disabled":false,"rental_uris":{"android":"levelo://app?vid=db1fb8e3-e820-4dfc-8a80-81806048c981","ios":"levelo://app?vid=db1fb8e3-e820-4dfc-8a80-81806048c981"},"vehicle_type_id":"4","last_reported":1749741123,"current_range_meters":10000,"station_id":"ce4bhr92rcd13ifvqhrg","pricing_plan_id":"cebpf4jnsgd1na2vs0mg"},{"bike_id":"a2421370-e442-436f-a98a-844d44299694","system_id":"levelo_inurba_marseille","lat":43.32363,"lon":5.36758,"is_reserved":false,"is_disabled":false,"rental_uris":{"android":"levelo://app?vid=a2421370-e442-436f-a98a-844d44299694","ios":"levelo://app?vid=a2421370-e442-436f-a98a-844d44299694"},"vehicle_type_id":"4","last_reported":1749741123,"current_range_meters":10000,"station_id":"ce4bhsh2rcd13ifvqi2g","pricing_plan_id":"cebpf4jnsgd1na2vs0mg"},{"bike_id":"9ef8e05c-3e47-4cc9-ac32-6c62481c06d6","system_id":"levelo_inurba_marseille","lat":43.28612,"lon":5.35101,"is_reserved":false,"is_disabled":false,"rental_uris":{"android":"levelo://app?vid=9ef8e05c-3e47-4cc9-ac32-6c62481c06d6","ios":"levelo://app?vid=9ef8e05c-3e47-4cc9-ac32-6c62481c06d6"},"vehicle_type_id":"4","last_reported":1749741123,"current_range_meters":10800,"station_id":"ce4bhch2rcd13ifvqeug","pricing_plan_id":"cebpf4jnsgd1na2vs0mg"},{"bike_id":"d8f0cdb8-bf14-4a1d-9b3a-d06f78398521","system_id":"levelo_inurba_marseille","lat":43.23182,"lon":5.39986,"is_reserved":false,"is_disabled":true,"rental_uris":{"android":"levelo://app?vid=d8f0cdb8-bf14-4a1d-9b3a-d06f78398521","ios":"levelo://app?vid=d8f0cdb8-bf14-4a1d-9b3a-d06f78398521"},"vehicle_type_id":"4","last_reported":1749741123,"current_range_meters":10800,"station_id":"ce4bhn12rcd13ifvqgqg","pricing_plan_id":"cebpf4jnsgd1na2vs0mg"},{"bike_id":"b72ded49-711c-49ed-9b26-27d4f9bf278e","system_id":"levelo_inurba_marseille","lat":43.309119,"lon":5.368449,"is_reserved":false,"is_disabled":false,"rental_uris":{"android":"levelo://app?vid=b72ded49-711c-49ed-9b26-27d4f9bf278e","ios":"levelo://app?vid=b72ded49-711c-49ed-9b26-27d4f9bf278e"},"vehicle_type_id":"4","last_reported":1749741123,"current_range_meters":11200,"station_id":"ce4bgn92rcd13ifvqbvg","pricing_plan_id":"cebpf4jnsgd1na2vs0mg"},{"bike_id":"73d9f2f3-5bb6-4cee-ac3c-33760ced52d6","system_id":"levelo_inurba_marseille","lat":43.28478,"lon":5.359307,"is_reserved":false,"is_disabled":false,"rental_uris":{"android":"levelo://app?vid=73d9f2f3-5bb6-4cee-ac3c-33760ced52d6","ios":"levelo://app?vid=73d9f2f3-5bb6-4cee-ac3c-33760ced52d6"},"vehicle_type_id":"4","last_reported":1749741123,"current_range_meters":11200,"station_id":"ce4bhah2rcd13ifvqei0","pricing_plan_id":"cebpf4jnsgd1na2vs0mg"},{"bike_id":"608dbf53-4bd7-4842-92d3-6444e235738b","system_id":"levelo_inurba_marseille","lat":43.26684,"lon":5.3826,"is_reserved":false,"is_disabled":false,"rental_uris":{"android":"levelo://app?vid=608dbf53-4bd7-4842-92d3-6444e235738b","ios":"levelo://app?vid=608dbf53-4bd7-4842-92d3-6444e235738b"},"vehicle_type_id":"4","last_reported":1749741123,"current_range_meters":11200,"station_id":"ce4bhg92rcd13ifvqf90","pricing_plan_id":"cebpf4jnsgd1na2vs0mg"},{"bike_id":"500320f2-e4bb-4906-a414-ca67470055ab","system_id":"levelo_inurba_marseille","lat":43.256454,"lon":5.385863,"is_reserved":false,"is_disabled":false,"rental_uris":{"android":"levelo://app?vid=500320f2-e4bb-4906-a414-ca67470055ab","ios":"levelo://app?vid=500320f2-e4bb-4906-a414-ca67470055ab"},"vehicle_type_id":"4","last_reported":1749741123,"current_range_meters":11600,"station_id":"","pricing_plan_id":"cebpf4jnsgd1na2vs0mg"},{"bike_id":"699c1ae2-8ccc-498c-872f-872f1571f9e3","system_id":"levelo_inurba_marseille","lat":43.26569,"lon":5.380731,"is_reserved":false,"is_disabled":false,"rental_uris":{"android":"levelo://app?vid=699c1ae2-8ccc-498c-872f-872f1571f9e3","ios":"levelo://app?vid=699c1ae2-8ccc-498c-872f-872f1571f9e3"},"vehicle_type_id":"4","last_reported":1749741123,"current_range_meters":11600,"station_id":"","pricing_plan_id":"cebpf4jnsgd1na2vs0mg"},{"bike_id":"51c9c3d1-050f-47d1-8726-c1814cd19d79","system_id":"levelo_inurba_marseille","lat":43.31317,"lon":5.38922,"is_reserved":false,"is_disabled":false,"rental_uris":{"android":"levelo://app?vid=51c9c3d1-050f-47d1-8726-c1814cd19d79","ios":"levelo://app?vid=51c9c3d1-050f-47d1-8726-c1814cd19d79"},"vehicle_type_id":"4","last_reported":1749741123,"current_range_meters":11600,"station_id":"","pricing_plan_id":"cebpf4jnsgd1na2vs0mg"},{"bike_id":"1f0401a1-c89f-4d8f-a887-cd89fac74c31","system_id":"levelo_inurba_marseille","lat":43.295232,"lon":5.37499,"is_reserved":false,"is_disabled":false,"rental_uris":{"android":"levelo://app?vid=1f0401a1-c89f-4d8f-a887-cd89fac74c31","ios":"levelo://app?vid=1f0401a1-c89f-4d8f-a887-cd89fac74c31"},"vehicle_type_id":"4","last_reported":1749741123,"current_range_meters":11600,"station_id":"ce4bgkp2rcd13ifvqbmg","pricing_plan_id":"cebpf4jnsgd1na2vs0mg"},{"bike_id":"60455dca-06c0-4407-802c-37a09e02c63c","system_id":"levelo_inurba_marseille","lat":43.28999,"lon":5.35608,"is_reserved":false,"is_disabled":false,"rental_uris":{"android":"levelo://app?vid=60455dca-06c0-4407-802c-37a09e02c63c","ios":"levelo://app?vid=60455dca-06c0-4407-802c-37a09e02c63c"},"vehicle_type_id":"4","last_reported":1749741123,"current_range_meters":11600,"station_id":"ce4bhb92rcd13ifvqen0","pricing_plan_id":"cebpf4jnsgd1na2vs0mg"},{"bike_id":"684cca66-1b7f-4d56-97db-a6fb36692f06","system_id":"levelo_inurba_marseille","lat":43.28612,"lon":5.35101,"is_reserved":false,"is_disabled":false,"rental_uris":{"android":"levelo://app?vid=684cca66-1b7f-4d56-97db-a6fb36692f06","ios":"levelo://app?vid=684cca66-1b7f-4d56-97db-a6fb36692f06"},"vehicle_type_id":"4","last_reported":1749741123,"current_range_meters":11600,"station_id":"ce4bhch2rcd13ifvqeug","pricing_plan_id":"cebpf4jnsgd1na2vs0mg"},{"bike_id":"d1e2ce33-e7b9-4759-95fa-a9e6cb03c71e","system_id":"levelo_inurba_marseille","lat":43.26556,"lon":5.38996,"is_reserved":false,"is_disabled":false,"rental_uris":{"android":"levelo://app?vid=d1e2ce33-e7b9-4759-95fa-a9e6cb03c71e","ios":"levelo://app?vid=d1e2ce33-e7b9-4759-95fa-a9e6cb03c71e"},"vehicle_type_id":"4","last_reported":1749741123,"current_range_meters":11600,"station_id":"ce4bhe12rcd13ifvqf30","pricing_plan_id":"cebpf4jnsgd1na2vs0mg"},{"bike_id":"743245d4-5457-49b9-9efc-d95c90d69b8e","system_id":"levelo_inurba_marseille","lat":43.314873,"lon":5.373081,"is_reserved":false,"is_disabled":false,"rental_uris":{"android":"levelo://app?vid=743245d4-5457-49b9-9efc-d95c90d69b8e","ios":"levelo://app?vid=743245d4-5457-49b9-9efc-d95c90d69b8e"},"vehicle_type_id":"4","last_reported":1749741123,"current_range_meters":11600,"station_id":"ce4bhip2rcd13ifvqft0","pricing_plan_id":"cebpf4jnsgd1na2vs0mg"},{"bike_id":"ab5bb3e9-46f2-4c71-9d5e-e076edd0d228","system_id":"levelo_inurba_marseille","lat":43.26199,"lon":5.37932,"is_reserved":false,"is_disabled":false,"rental_uris":{"android":"levelo://app?vid=ab5bb3e9-46f2-4c71-9d5e-e076edd0d228","ios":"levelo://app?vid=ab5bb3e9-46f2-4c71-9d5e-e076edd0d228"},"vehicle_type_id":"4","last_reported":1749741123,"current_range_meters":11600,"station_id":"ce4bhjp2rcd13ifvqg90","pricing_plan_id":"cebpf4jnsgd1na2vs0mg"},{"bike_id":"501fe5cc-ec9f-4031-8e12-9c9a87dfd25d","system_id":"levelo_inurba_marseille","lat":43.31801,"lon":5.40608,"is_reserved":false,"is_disabled":false,"rental_uris":{"android":"levelo://app?vid=501fe5cc-ec9f-4031-8e12-9c9a87dfd25d","ios":"levelo://app?vid=501fe5cc-ec9f-4031-8e12-9c9a87dfd25d"},"vehicle_type_id":"4","last_reported":1749741123,"current_range_meters":12000,"station_id":"","pricing_plan_id":"cebpf4jnsgd1na2vs0mg"},{"bike_id":"28eb00b2-df84-44d7-9621-6c92d765f72a","system_id":"levelo_inurba_marseille","lat":43.30137,"lon":5.38783,"is_reserved":false,"is_disabled":false,"rental_uris":{"android":"levelo://app?vid=28eb00b2-df84-44d7-9621-6c92d765f72a","ios":"levelo://app?vid=28eb00b2-df84-44d7-9621-6c92d765f72a"},"vehicle_type_id":"4","last_reported":1749741123,"current_range_meters":12000,"station_id":"ce4bghh2rcd13ifvqb60","pricing_plan_id":"cebpf4jnsgd1na2vs0mg"},{"bike_id":"64ffadd6-4366-4dc1-8925-2ce800420e8e","system_id":"levelo_inurba_marseille","lat":43.28154,"lon":5.42641,"is_reserved":false,"is_disabled":false,"rental_uris":{"android":"levelo://app?vid=64ffadd6-4366-4dc1-8925-2ce800420e8e","ios":"levelo://app?vid=64ffadd6-4366-4dc1-8925-2ce800420e8e"},"vehicle_type_id":"4","last_reported":1749741123,"current_range_meters":12000,"station_id":"ce4bhnh2rcd13ifvqgug","pricing_plan_id":"cebpf4jnsgd1na2vs0mg"},{"bike_id":"45cb9171-bb7e-418e-bf45-5916b7d21e5e","system_id":"levelo_inurba_marseille","lat":43.32115,"lon":5.36771,"is_reserved":false,"is_disabled":false,"rental_uris":{"android":"levelo://app?vid=45cb9171-bb7e-418e-bf45-5916b7d21e5e","ios":"levelo://app?vid=45cb9171-bb7e-418e-bf45-5916b7d21e5e"},"vehicle_type_id":"4","last_reported":1749741123,"current_range_meters":12000,"station_id":"ce4bhrh2rcd13ifvqhug","pricing_plan_id":"cebpf4jnsgd1na2vs0mg"},{"bike_id":"97421c04-2630-4fc1-9da9-b17d88602c5f","system_id":"levelo_inurba_marseille","lat":43.337687,"lon":5.37437,"is_reserved":false,"is_disabled":false,"rental_uris":{"android":"levelo://app?vid=97421c04-2630-4fc1-9da9-b17d88602c5f","ios":"levelo://app?vid=97421c04-2630-4fc1-9da9-b17d88602c5f"},"vehicle_type_id":"4","last_reported":1749741123,"current_range_meters":12400,"station_id":"","pricing_plan_id":"cebpf4jnsgd1na2vs0mg"},{"bike_id":"4984f2e9-b11c-4a97-9577-bc5aa495ad9d","system_id":"levelo_inurba_marseille","lat":43.301531,"lon":5.374262,"is_reserved":false,"is_disabled":false,"rental_uris":{"android":"levelo://app?vid=4984f2e9-b11c-4a97-9577-bc5aa495ad9d","ios":"levelo://app?vid=4984f2e9-b11c-4a97-9577-bc5aa495ad9d"},"vehicle_type_id":"4","last_reported":1749741123,"current_range_meters":12400,"station_id":"ce4bgs92rcd13ifvqcc0","pricing_plan_id":"cebpf4jnsgd1na2vs0mg"},{"bike_id":"67467270-d946-408f-a2ad-8456688a9b5f","system_id":"levelo_inurba_marseille","lat":43.29192,"lon":5.39338,"is_reserved":false,"is_disabled":false,"rental_uris":{"android":"levelo://app?vid=67467270-d946-408f-a2ad-8456688a9b5f","ios":"levelo://app?vid=67467270-d946-408f-a2ad-8456688a9b5f"},"vehicle_type_id":"4","last_reported":1749741123,"current_range_meters":12800,"station_id":"ce4bh192rcd13ifvqdd0","pricing_plan_id":"cebpf4jnsgd1na2vs0mg"},{"bike_id":"2676e0f2-8978-4433-8c2e-f7f8580a07b8","system_id":"levelo_inurba_marseille","lat":43.286067,"lon":5.350945,"is_reserved":false,"is_disabled":false,"rental_uris":{"android":"levelo://app?vid=2676e0f2-8978-4433-8c2e-f7f8580a07b8","ios":"levelo://app?vid=2676e0f2-8978-4433-8c2e-f7f8580a07b8"},"vehicle_type_id":"4","last_reported":1749741123,"current_range_meters":12800,"station_id":"ce4bhch2rcd13ifvqeug","pricing_plan_id":"cebpf4jnsgd1na2vs0mg"},{"bike_id":"724deea0-feed-44bc-8a27-25e8430247cb","system_id":"levelo_inurba_marseille","lat":43.29003,"lon":5.35604,"is_reserved":false,"is_disabled":false,"rental_uris":{"android":"levelo://app?vid=724deea0-feed-44bc-8a27-25e8430247cb","ios":"levelo://app?vid=724deea0-feed-44bc-8a27-25e8430247cb"},"vehicle_type_id":"4","last_reported":1749741123,"current_range_meters":13600,"station_id":"ce4bhb92rcd13ifvqen0","pricing_plan_id":"cebpf4jnsgd1na2vs0mg"},{"bike_id":"46186c23-1d81-4d78-83f7-1cfbc90e845c","system_id":"levelo_inurba_marseille","lat":43.31228,"lon":5.36899,"is_reserved":false,"is_disabled":false,"rental_uris":{"android":"levelo://app?vid=46186c23-1d81-4d78-83f7-1cfbc90e845c","ios":"levelo://app?vid=46186c23-1d81-4d78-83f7-1cfbc90e845c"},"vehicle_type_id":"4","last_reported":1749741123,"current_range_meters":14000,"station_id":"ce4bgl92rcd13ifvqbq0","pricing_plan_id":"cebpf4jnsgd1na2vs0mg"},{"bike_id":"c8446c6b-b0c7-4c52-bb72-de9ec52c8f43","system_id":"levelo_inurba_marseille","lat":43.286677,"lon":5.36353,"is_reserved":false,"is_disabled":false,"rental_uris":{"android":"levelo://app?vid=c8446c6b-b0c7-4c52-bb72-de9ec52c8f43","ios":"levelo://app?vid=c8446c6b-b0c7-4c52-bb72-de9ec52c8f43"},"vehicle_type_id":"4","last_reported":1749741123,"current_range_meters":14000,"station_id":"ce4bhah2rcd13ifvqej0","pricing_plan_id":"cebpf4jnsgd1na2vs0mg"},{"bike_id":"9cfb5991-2280-4230-b550-97760b380a10","system_id":"levelo_inurba_marseille","lat":43.24161,"lon":5.36444,"is_reserved":false,"is_disabled":false,"rental_uris":{"android":"levelo://app?vid=9cfb5991-2280-4230-b550-97760b380a10","ios":"levelo://app?vid=9cfb5991-2280-4230-b550-97760b380a10"},"vehicle_type_id":"4","last_reported":1749741123,"current_range_meters":14000,"station_id":"cpo36qri1sfpv3e86is0","pricing_plan_id":"cebpf4jnsgd1na2vs0mg"},{"bike_id":"860edfa2-854c-44db-b33f-7bfcb486de60","system_id":"levelo_inurba_marseille","lat":43.30141,"lon":5.38785,"is_reserved":false,"is_disabled":false,"rental_uris":{"android":"levelo://app?vid=860edfa2-854c-44db-b33f-7bfcb486de60","ios":"levelo://app?vid=860edfa2-854c-44db-b33f-7bfcb486de60"},"vehicle_type_id":"4","last_reported":1749741123,"current_range_meters":14400,"station_id":"ce4bghh2rcd13ifvqb60","pricing_plan_id":"cebpf4jnsgd1na2vs0mg"},{"bike_id":"61b73a43-eae2-476e-9828-748c72091ac2","system_id":"levelo_inurba_marseille","lat":43.30924,"lon":5.40149,"is_reserved":false,"is_disabled":false,"rental_uris":{"android":"levelo://app?vid=61b73a43-eae2-476e-9828-748c72091ac2","ios":"levelo://app?vid=61b73a43-eae2-476e-9828-748c72091ac2"},"vehicle_type_id":"4","last_reported":1749741123,"current_range_meters":14400,"station_id":"ce4bgvp2rcd13ifvqct0","pricing_plan_id":"cebpf4jnsgd1na2vs0mg"},{"bike_id":"0bf3a72c-5aa4-4eac-a676-b654d7bb6d84","system_id":"levelo_inurba_marseille","lat":43.26677,"lon":5.38267,"is_reserved":false,"is_disabled":false,"rental_uris":{"android":"levelo://app?vid=0bf3a72c-5aa4-4eac-a676-b654d7bb6d84","ios":"levelo://app?vid=0bf3a72c-5aa4-4eac-a676-b654d7bb6d84"},"vehicle_type_id":"4","last_reported":1749741123,"current_range_meters":14400,"station_id":"ce4bhg92rcd13ifvqf90","pricing_plan_id":"cebpf4jnsgd1na2vs0mg"},{"bike_id":"1268e070-f02d-4537-93df-0bfd5c4daa05","system_id":"levelo_inurba_marseille","lat":43.32692,"lon":5.37666,"is_reserved":false,"is_disabled":false,"rental_uris":{"android":"levelo://app?vid=1268e070-f02d-4537-93df-0bfd5c4daa05","ios":"levelo://app?vid=1268e070-f02d-4537-93df-0bfd5c4daa05"},"vehicle_type_id":"4","last_reported":1749741123,"current_range_meters":14800,"station_id":"","pricing_plan_id":"cebpf4jnsgd1na2vs0mg"},{"bike_id":"83ad8241-60c4-42de-b76a-fbfc2eb5a88b","system_id":"levelo_inurba_marseille","lat":43.29894,"lon":5.36418,"is_reserved":false,"is_disabled":false,"rental_uris":{"android":"levelo://app?vid=83ad8241-60c4-42de-b76a-fbfc2eb5a88b","ios":"levelo://app?vid=83ad8241-60c4-42de-b76a-fbfc2eb5a88b"},"vehicle_type_id":"4","last_reported":1749741123,"current_range_meters":14800,"station_id":"","pricing_plan_id":"cebpf4jnsgd1na2vs0mg"},{"bike_id":"6e464720-93b0-4699-80fe-881649eb71cd","system_id":"levelo_inurba_marseille","lat":43.23238,"lon":5.35621,"is_reserved":false,"is_disabled":false,"rental_uris":{"android":"levelo://app?vid=6e464720-93b0-4699-80fe-881649eb71cd","ios":"levelo://app?vid=6e464720-93b0-4699-80fe-881649eb71cd"},"vehicle_type_id":"4","last_reported":1749741123,"current_range_meters":14800,"station_id":"","pricing_plan_id":"cebpf4jnsgd1na2vs0mg"},{"bike_id":"e5ef7447-82af-477b-846f-d44631249354","system_id":"levelo_inurba_marseille","lat":43.32474,"lon":5.38822,"is_reserved":false,"is_disabled":false,"rental_uris":{"android":"levelo://app?vid=e5ef7447-82af-477b-846f-d44631249354","ios":"levelo://app?vid=e5ef7447-82af-477b-846f-d44631249354"},"vehicle_type_id":"4","last_reported":1749741123,"current_range_meters":14800,"station_id":"","pricing_plan_id":"cebpf4jnsgd1na2vs0mg"},{"bike_id":"9b2181ef-6141-4c9b-b1fd-6e956cf8647e","system_id":"levelo_inurba_marseille","lat":43.28937,"lon":5.36634,"is_reserved":false,"is_disabled":false,"rental_uris":{"android":"levelo://app?vid=9b2181ef-6141-4c9b-b1fd-6e956cf8647e","ios":"levelo://app?vid=9b2181ef-6141-4c9b-b1fd-6e956cf8647e"},"vehicle_type_id":"4","last_reported":1749741123,"current_range_meters":14800,"station_id":"ce4bhap2rcd13ifvqek0","pricing_plan_id":"cebpf4jnsgd1na2vs0mg"},{"bike_id":"e1259bdc-2fca-4f0a-8c39-8cf9d1a28f2e","system_id":"levelo_inurba_marseille","lat":43.26679,"lon":5.38262,"is_reserved":false,"is_disabled":false,"rental_uris":{"android":"levelo://app?vid=e1259bdc-2fca-4f0a-8c39-8cf9d1a28f2e","ios":"levelo://app?vid=e1259bdc-2fca-4f0a-8c39-8cf9d1a28f2e"},"vehicle_type_id":"4","last_reported":1749741123,"current_range_meters":14800,"station_id":"ce4bhg92rcd13ifvqf90","pricing_plan_id":"cebpf4jnsgd1na2vs0mg"},{"bike_id":"4ce710a8-849c-4e2c-b292-cbb73c680388","system_id":"levelo_inurba_marseille","lat":43.2481,"lon":5.37461,"is_reserved":false,"is_disabled":false,"rental_uris":{"android":"levelo://app?vid=4ce710a8-849c-4e2c-b292-cbb73c680388","ios":"levelo://app?vid=4ce710a8-849c-4e2c-b292-cbb73c680388"},"vehicle_type_id":"4","last_reported":1749741123,"current_range_meters":14800,"station_id":"ce4bhgh2rcd13ifvqfb0","pricing_plan_id":"cebpf4jnsgd1na2vs0mg"},{"bike_id":"79a4829c-b18f-4755-97a7-6c0f2b00676b","system_id":"levelo_inurba_marseille","lat":43.239742,"lon":5.366229,"is_reserved":false,"is_disabled":false,"rental_uris":{"android":"levelo://app?vid=79a4829c-b18f-4755-97a7-6c0f2b00676b","ios":"levelo://app?vid=79a4829c-b18f-4755-97a7-6c0f2b00676b"},"vehicle_type_id":"4","last_reported":1749741123,"current_range_meters":14800,"station_id":"ce4bhi12rcd13ifvqfp0","pricing_plan_id":"cebpf4jnsgd1na2vs0mg"},{"bike_id":"4a81d68c-9a7d-4adb-af16-71d1ee6cb301","system_id":"levelo_inurba_marseille","lat":43.28095,"lon":5.39647,"is_reserved":false,"is_disabled":false,"rental_uris":{"android":"levelo://app?vid=4a81d68c-9a7d-4adb-af16-71d1ee6cb301","ios":"levelo://app?vid=4a81d68c-9a7d-4adb-af16-71d1ee6cb301"},"vehicle_type_id":"4","last_reported":1749741123,"current_range_meters":14800,"station_id":"ce4bho12rcd13ifvqh2g","pricing_plan_id":"cebpf4jnsgd1na2vs0mg"},{"bike_id":"fc4179b1-c688-45dd-8493-070334520477","system_id":"levelo_inurba_marseille","lat":43.27897,"lon":5.35357,"is_reserved":false,"is_disabled":false,"rental_uris":{"android":"levelo://app?vid=fc4179b1-c688-45dd-8493-070334520477","ios":"levelo://app?vid=fc4179b1-c688-45dd-8493-070334520477"},"vehicle_type_id":"4","last_reported":1749741123,"current_range_meters":15200,"station_id":"","pricing_plan_id":"cebpf4jnsgd1na2vs0mg"},{"bike_id":"7d7170dd-d55e-43db-a9c2-1ed74c433fd7","system_id":"levelo_inurba_marseille","lat":43.309974,"lon":5.420071,"is_reserved":false,"is_disabled":false,"rental_uris":{"android":"levelo://app?vid=7d7170dd-d55e-43db-a9c2-1ed74c433fd7","ios":"levelo://app?vid=7d7170dd-d55e-43db-a9c2-1ed74c433fd7"},"vehicle_type_id":"4","last_reported":1749741123,"current_range_meters":15200,"station_id":"","pricing_plan_id":"cebpf4jnsgd1na2vs0mg"},{"bike_id":"c803d43a-f049-4804-9ff9-f3ae2397c961","system_id":"levelo_inurba_marseille","lat":43.28831,"lon":5.39296,"is_reserved":false,"is_disabled":false,"rental_uris":{"android":"levelo://app?vid=c803d43a-f049-4804-9ff9-f3ae2397c961","ios":"levelo://app?vid=c803d43a-f049-4804-9ff9-f3ae2397c961"},"vehicle_type_id":"4","last_reported":1749741123,"current_range_meters":15200,"station_id":"ce4bh2p2rcd13ifvqdi0","pricing_plan_id":"cebpf4jnsgd1na2vs0mg"},{"bike_id":"6cd880f8-e5de-42fc-8807-0c427d2a2e24","system_id":"levelo_inurba_marseille","lat":43.266829,"lon":5.382588,"is_reserved":false,"is_disabled":false,"rental_uris":{"android":"levelo://app?vid=6cd880f8-e5de-42fc-8807-0c427d2a2e24","ios":"levelo://app?vid=6cd880f8-e5de-42fc-8807-0c427d2a2e24"},"vehicle_type_id":"4","last_reported":1749741123,"current_range_meters":15200,"station_id":"ce4bhg92rcd13ifvqf90","pricing_plan_id":"cebpf4jnsgd1na2vs0mg"},{"bike_id":"f66eae9c-5c94-49a9-8006-c182909f14b1","system_id":"levelo_inurba_marseille","lat":43.26477,"lon":5.39556,"is_reserved":false,"is_disabled":false,"rental_uris":{"android":"levelo://app?vid=f66eae9c-5c94-49a9-8006-c182909f14b1","ios":"levelo://app?vid=f66eae9c-5c94-49a9-8006-c182909f14b1"},"vehicle_type_id":"4","last_reported":1749741123,"current_range_meters":15200,"station_id":"ce4bhi12rcd13ifvqfq0","pricing_plan_id":"cebpf4jnsgd1na2vs0mg"},{"bike_id":"19a9b791-fd3d-4740-aeff-039fc7b5221d","system_id":"levelo_inurba_marseille","lat":43.29689,"lon":5.37277,"is_reserved":false,"is_disabled":false,"rental_uris":{"android":"levelo://app?vid=19a9b791-fd3d-4740-aeff-039fc7b5221d","ios":"levelo://app?vid=19a9b791-fd3d-4740-aeff-039fc7b5221d"},"vehicle_type_id":"4","last_reported":1749741123,"current_range_meters":16000,"station_id":"ce4bgk12rcd13ifvqbj0","pricing_plan_id":"cebpf4jnsgd1na2vs0mg"},{"bike_id":"ba7c1660-cc5f-4d60-9613-c7a8446b4f56","system_id":"levelo_inurba_marseille","lat":43.28415,"lon":5.34988,"is_reserved":false,"is_disabled":false,"rental_uris":{"android":"levelo://app?vid=ba7c1660-cc5f-4d60-9613-c7a8446b4f56","ios":"levelo://app?vid=ba7c1660-cc5f-4d60-9613-c7a8446b4f56"},"vehicle_type_id":"4","last_reported":1749741123,"current_range_meters":16000,"station_id":"ce4bhbh2rcd13ifvqepg","pricing_plan_id":"cebpf4jnsgd1na2vs0mg"},{"bike_id":"2b3487c0-6d03-4c54-801f-a27aa1820b7e","system_id":"levelo_inurba_marseille","lat":43.2657,"lon":5.37302,"is_reserved":false,"is_disabled":false,"rental_uris":{"android":"levelo://app?vid=2b3487c0-6d03-4c54-801f-a27aa1820b7e","ios":"levelo://app?vid=2b3487c0-6d03-4c54-801f-a27aa1820b7e"},"vehicle_type_id":"4","last_reported":1749741123,"current_range_meters":16000,"station_id":"ce4bhg12rcd13ifvqf70","pricing_plan_id":"cebpf4jnsgd1na2vs0mg"},{"bike_id":"b82f1659-756e-4f79-b428-8e50f92e01d1","system_id":"levelo_inurba_marseille","lat":43.255,"lon":5.37652,"is_reserved":false,"is_disabled":false,"rental_uris":{"android":"levelo://app?vid=b82f1659-756e-4f79-b428-8e50f92e01d1","ios":"levelo://app?vid=b82f1659-756e-4f79-b428-8e50f92e01d1"},"vehicle_type_id":"4","last_reported":1749741123,"current_range_meters":16000,"station_id":"ce4bhh12rcd13ifvqff0","pricing_plan_id":"cebpf4jnsgd1na2vs0mg"},{"bike_id":"85bbd0bd-4fa7-4b76-a13e-9890f4846da8","system_id":"levelo_inurba_marseille","lat":43.23151,"lon":5.43709,"is_reserved":false,"is_disabled":false,"rental_uris":{"android":"levelo://app?vid=85bbd0bd-4fa7-4b76-a13e-9890f4846da8","ios":"levelo://app?vid=85bbd0bd-4fa7-4b76-a13e-9890f4846da8"},"vehicle_type_id":"4","last_reported":1749741123,"current_range_meters":16000,"station_id":"ce4bhmp2rcd13ifvqgog","pricing_plan_id":"cebpf4jnsgd1na2vs0mg"},{"bike_id":"99e60434-491e-4f85-b8a2-3f97de608991","system_id":"levelo_inurba_marseille","lat":43.32359,"lon":5.38893,"is_reserved":false,"is_disabled":false,"rental_uris":{"android":"levelo://app?vid=99e60434-491e-4f85-b8a2-3f97de608991","ios":"levelo://app?vid=99e60434-491e-4f85-b8a2-3f97de608991"},"vehicle_type_id":"4","last_reported":1749741123,"current_range_meters":16000,"station_id":"ce4bhqp2rcd13ifvqhog","pricing_plan_id":"cebpf4jnsgd1na2vs0mg"},{"bike_id":"78e4331f-c67f-4812-a1cf-4af0acc5e2d6","system_id":"levelo_inurba_marseille","lat":43.32399,"lon":5.36727,"is_reserved":false,"is_disabled":false,"rental_uris":{"android":"levelo://app?vid=78e4331f-c67f-4812-a1cf-4af0acc5e2d6","ios":"levelo://app?vid=78e4331f-c67f-4812-a1cf-4af0acc5e2d6"},"vehicle_type_id":"4","last_reported":1749741123,"current_range_meters":16000,"station_id":"ce4bhsh2rcd13ifvqi2g","pricing_plan_id":"cebpf4jnsgd1na2vs0mg"},{"bike_id":"c0bd4251-d527-48a7-9378-e4e80c1c274f","system_id":"levelo_inurba_marseille","lat":43.31819,"lon":5.37413,"is_reserved":false,"is_disabled":false,"rental_uris":{"android":"levelo://app?vid=c0bd4251-d527-48a7-9378-e4e80c1c274f","ios":"levelo://app?vid=c0bd4251-d527-48a7-9378-e4e80c1c274f"},"vehicle_type_id":"4","last_reported":1749741123,"current_range_meters":16400,"station_id":"","pricing_plan_id":"cebpf4jnsgd1na2vs0mg"},{"bike_id":"c67ef85d-1aaa-4737-a385-65fdb7b24c9b","system_id":"levelo_inurba_marseille","lat":43.28411,"lon":5.3499,"is_reserved":false,"is_disabled":false,"rental_uris":{"android":"levelo://app?vid=c67ef85d-1aaa-4737-a385-65fdb7b24c9b","ios":"levelo://app?vid=c67ef85d-1aaa-4737-a385-65fdb7b24c9b"},"vehicle_type_id":"4","last_reported":1749741123,"current_range_meters":16400,"station_id":"ce4bhbh2rcd13ifvqepg","pricing_plan_id":"cebpf4jnsgd1na2vs0mg"},{"bike_id":"e3b550f1-e820-4efa-a0d2-52b63df0b622","system_id":"levelo_inurba_marseille","lat":43.2841,"lon":5.34981,"is_reserved":false,"is_disabled":false,"rental_uris":{"android":"levelo://app?vid=e3b550f1-e820-4efa-a0d2-52b63df0b622","ios":"levelo://app?vid=e3b550f1-e820-4efa-a0d2-52b63df0b622"},"vehicle_type_id":"4","last_reported":1749741123,"current_range_meters":16400,"station_id":"ce4bhbh2rcd13ifvqepg","pricing_plan_id":"cebpf4jnsgd1na2vs0mg"},{"bike_id":"1b121849-935e-47b6-bbe2-c73ccc346feb","system_id":"levelo_inurba_marseille","lat":43.26211,"lon":5.37434,"is_reserved":false,"is_disabled":false,"rental_uris":{"android":"levelo://app?vid=1b121849-935e-47b6-bbe2-c73ccc346feb","ios":"levelo://app?vid=1b121849-935e-47b6-bbe2-c73ccc346feb"},"vehicle_type_id":"4","last_reported":1749741123,"current_range_meters":16400,"station_id":"ce4bhgp2rcd13ifvqfc0","pricing_plan_id":"cebpf4jnsgd1na2vs0mg"},{"bike_id":"7652416f-a3b6-42fe-aba2-583c0c742755","system_id":"levelo_inurba_marseille","lat":43.27996,"lon":5.41663,"is_reserved":false,"is_disabled":false,"rental_uris":{"android":"levelo://app?vid=7652416f-a3b6-42fe-aba2-583c0c742755","ios":"levelo://app?vid=7652416f-a3b6-42fe-aba2-583c0c742755"},"vehicle_type_id":"4","last_reported":1749741123,"current_range_meters":16400,"station_id":"ce4bho12rcd13ifvqh1g","pricing_plan_id":"cebpf4jnsgd1na2vs0mg"},{"bike_id":"b2798195-4fce-46b6-9218-5d7d2f4fa6a6","system_id":"levelo_inurba_marseille","lat":43.29553,"lon":5.42286,"is_reserved":false,"is_disabled":false,"rental_uris":{"android":"levelo://app?vid=b2798195-4fce-46b6-9218-5d7d2f4fa6a6","ios":"levelo://app?vid=b2798195-4fce-46b6-9218-5d7d2f4fa6a6"},"vehicle_type_id":"4","last_reported":1749741123,"current_range_meters":16400,"station_id":"ce4bhph2rcd13ifvqhdg","pricing_plan_id":"cebpf4jnsgd1na2vs0mg"},{"bike_id":"41902e46-3363-402b-89a9-77321257c96b","system_id":"levelo_inurba_marseille","lat":43.32374,"lon":5.3669,"is_reserved":false,"is_disabled":false,"rental_uris":{"android":"levelo://app?vid=41902e46-3363-402b-89a9-77321257c96b","ios":"levelo://app?vid=41902e46-3363-402b-89a9-77321257c96b"},"vehicle_type_id":"4","last_reported":1749741123,"current_range_meters":16400,"station_id":"ce4bhsh2rcd13ifvqi2g","pricing_plan_id":"cebpf4jnsgd1na2vs0mg"},{"bike_id":"346f3f80-6b15-4406-b905-bb78596f5bac","system_id":"levelo_inurba_marseille","lat":43.323661,"lon":5.36758,"is_reserved":false,"is_disabled":false,"rental_uris":{"android":"levelo://app?vid=346f3f80-6b15-4406-b905-bb78596f5bac","ios":"levelo://app?vid=346f3f80-6b15-4406-b905-bb78596f5bac"},"vehicle_type_id":"4","last_reported":1749741123,"current_range_meters":16400,"station_id":"ce4bhsh2rcd13ifvqi2g","pricing_plan_id":"cebpf4jnsgd1na2vs0mg"},{"bike_id":"13c243cd-9cd7-41ad-a6fc-cb8f0f4eabf6","system_id":"levelo_inurba_marseille","lat":43.21744,"lon":5.34627,"is_reserved":false,"is_disabled":false,"rental_uris":{"android":"levelo://app?vid=13c243cd-9cd7-41ad-a6fc-cb8f0f4eabf6","ios":"levelo://app?vid=13c243cd-9cd7-41ad-a6fc-cb8f0f4eabf6"},"vehicle_type_id":"4","last_reported":1749741123,"current_range_meters":16400,"station_id":"st_cvj6r9ubvosntc0bgbag","pricing_plan_id":"cebpf4jnsgd1na2vs0mg"},{"bike_id":"f3e01765-ad14-46e6-a30a-aa6d0ad9c06e","system_id":"levelo_inurba_marseille","lat":43.29518,"lon":5.3904,"is_reserved":false,"is_disabled":false,"rental_uris":{"android":"levelo://app?vid=f3e01765-ad14-46e6-a30a-aa6d0ad9c06e","ios":"levelo://app?vid=f3e01765-ad14-46e6-a30a-aa6d0ad9c06e"},"vehicle_type_id":"4","last_reported":1749741123,"current_range_meters":16800,"station_id":"ce4bh3p2rcd13ifvqdp0","pricing_plan_id":"cebpf4jnsgd1na2vs0mg"},{"bike_id":"17cc4974-9f41-42cb-a868-b39c23fa56cd","system_id":"levelo_inurba_marseille","lat":43.28613,"lon":5.35103,"is_reserved":false,"is_disabled":false,"rental_uris":{"android":"levelo://app?vid=17cc4974-9f41-42cb-a868-b39c23fa56cd","ios":"levelo://app?vid=17cc4974-9f41-42cb-a868-b39c23fa56cd"},"vehicle_type_id":"4","last_reported":1749741123,"current_range_meters":16800,"station_id":"ce4bhch2rcd13ifvqeug","pricing_plan_id":"cebpf4jnsgd1na2vs0mg"},{"bike_id":"fa2ca940-2ef4-42c3-88d8-76169aa9efd4","system_id":"levelo_inurba_marseille","lat":43.295684,"lon":5.375232,"is_reserved":false,"is_disabled":false,"rental_uris":{"android":"levelo://app?vid=fa2ca940-2ef4-42c3-88d8-76169aa9efd4","ios":"levelo://app?vid=fa2ca940-2ef4-42c3-88d8-76169aa9efd4"},"vehicle_type_id":"4","last_reported":1749741123,"current_range_meters":17200,"station_id":"ce4bgh92rcd13ifvqb50","pricing_plan_id":"cebpf4jnsgd1na2vs0mg"},{"bike_id":"41ce87af-bd3a-457b-96b6-41ca14b2d7b5","system_id":"levelo_inurba_marseille","lat":43.28266,"lon":5.35079,"is_reserved":false,"is_disabled":false,"rental_uris":{"android":"levelo://app?vid=41ce87af-bd3a-457b-96b6-41ca14b2d7b5","ios":"levelo://app?vid=41ce87af-bd3a-457b-96b6-41ca14b2d7b5"},"vehicle_type_id":"4","last_reported":1749741123,"current_range_meters":17200,"station_id":"ce4bhbp2rcd13ifvqerg","pricing_plan_id":"cebpf4jnsgd1na2vs0mg"},{"bike_id":"4a1ebb57-de4c-466d-8a5a-f3907adc6246","system_id":"levelo_inurba_marseille","lat":43.27944,"lon":5.41045,"is_reserved":false,"is_disabled":false,"rental_uris":{"android":"levelo://app?vid=4a1ebb57-de4c-466d-8a5a-f3907adc6246","ios":"levelo://app?vid=4a1ebb57-de4c-466d-8a5a-f3907adc6246"},"vehicle_type_id":"4","last_reported":1749741123,"current_range_meters":17200,"station_id":"ce4bhnp2rcd13ifvqh0g","pricing_plan_id":"cebpf4jnsgd1na2vs0mg"},{"bike_id":"5cdc677d-7be2-4709-87fc-1213956154df","system_id":"levelo_inurba_marseille","lat":43.21195,"lon":5.3508,"is_reserved":false,"is_disabled":false,"rental_uris":{"android":"levelo://app?vid=5cdc677d-7be2-4709-87fc-1213956154df","ios":"levelo://app?vid=5cdc677d-7be2-4709-87fc-1213956154df"},"vehicle_type_id":"4","last_reported":1749741123,"current_range_meters":17200,"station_id":"st_cvj6sg6p6f1abm77japg","pricing_plan_id":"cebpf4jnsgd1na2vs0mg"},{"bike_id":"62c0da7f-aff9-4ffa-86b8-6966d8f0e555","system_id":"levelo_inurba_marseille","lat":43.21196,"lon":5.35066,"is_reserved":false,"is_disabled":false,"rental_uris":{"android":"levelo://app?vid=62c0da7f-aff9-4ffa-86b8-6966d8f0e555","ios":"levelo://app?vid=62c0da7f-aff9-4ffa-86b8-6966d8f0e555"},"vehicle_type_id":"4","last_reported":1749741123,"current_range_meters":17200,"station_id":"st_cvj6sg6p6f1abm77japg","pricing_plan_id":"cebpf4jnsgd1na2vs0mg"},{"bike_id":"600da287-0374-4ee0-bea4-ba6902340b5e","system_id":"levelo_inurba_marseille","lat":43.2749,"lon":5.35993,"is_reserved":false,"is_disabled":false,"rental_uris":{"android":"levelo://app?vid=600da287-0374-4ee0-bea4-ba6902340b5e","ios":"levelo://app?vid=600da287-0374-4ee0-bea4-ba6902340b5e"},"vehicle_type_id":"4","last_reported":1749741123,"current_range_meters":17600,"station_id":"","pricing_plan_id":"cebpf4jnsgd1na2vs0mg"},{"bike_id":"11a7710f-084d-413d-abc1-c587a947a05e","system_id":"levelo_inurba_marseille","lat":43.26732,"lon":5.39071,"is_reserved":false,"is_disabled":false,"rental_uris":{"android":"levelo://app?vid=11a7710f-084d-413d-abc1-c587a947a05e","ios":"levelo://app?vid=11a7710f-084d-413d-abc1-c587a947a05e"},"vehicle_type_id":"4","last_reported":1749741123,"current_range_meters":17600,"station_id":"","pricing_plan_id":"cebpf4jnsgd1na2vs0mg"},{"bike_id":"f0c3ebb5-357a-4467-baff-3aac50e6fd1c","system_id":"levelo_inurba_marseille","lat":43.298767,"lon":5.397273,"is_reserved":false,"is_disabled":false,"rental_uris":{"android":"levelo://app?vid=f0c3ebb5-357a-4467-baff-3aac50e6fd1c","ios":"levelo://app?vid=f0c3ebb5-357a-4467-baff-3aac50e6fd1c"},"vehicle_type_id":"4","last_reported":1749741123,"current_range_meters":17600,"station_id":"ce4bh0h2rcd13ifvqd50","pricing_plan_id":"cebpf4jnsgd1na2vs0mg"},{"bike_id":"fbab353d-c351-4809-8f41-9640905d5e1e","system_id":"levelo_inurba_marseille","lat":43.26716,"lon":5.3824,"is_reserved":false,"is_disabled":false,"rental_uris":{"android":"levelo://app?vid=fbab353d-c351-4809-8f41-9640905d5e1e","ios":"levelo://app?vid=fbab353d-c351-4809-8f41-9640905d5e1e"},"vehicle_type_id":"4","last_reported":1749741123,"current_range_meters":17600,"station_id":"ce4bhg92rcd13ifvqf90","pricing_plan_id":"cebpf4jnsgd1na2vs0mg"},{"bike_id":"2f51679a-0557-40c6-a0e5-0edea234bf3e","system_id":"levelo_inurba_marseille","lat":43.29952,"lon":5.41321,"is_reserved":false,"is_disabled":false,"rental_uris":{"android":"levelo://app?vid=2f51679a-0557-40c6-a0e5-0edea234bf3e","ios":"levelo://app?vid=2f51679a-0557-40c6-a0e5-0edea234bf3e"},"vehicle_type_id":"4","last_reported":1749741123,"current_range_meters":17600,"station_id":"ce4bhp12rcd13ifvqh9g","pricing_plan_id":"cebpf4jnsgd1na2vs0mg"},{"bike_id":"3d243e1c-a883-4bc3-9c15-b8da6e60785b","system_id":"levelo_inurba_marseille","lat":43.26878,"lon":5.42855,"is_reserved":false,"is_disabled":false,"rental_uris":{"android":"levelo://app?vid=3d243e1c-a883-4bc3-9c15-b8da6e60785b","ios":"levelo://app?vid=3d243e1c-a883-4bc3-9c15-b8da6e60785b"},"vehicle_type_id":"4","last_reported":1749741123,"current_range_meters":18000,"station_id":"","pricing_plan_id":"cebpf4jnsgd1na2vs0mg"},{"bike_id":"2bae304d-06f7-450f-9c20-63d800e700e2","system_id":"levelo_inurba_marseille","lat":43.317587,"lon":5.37482,"is_reserved":false,"is_disabled":false,"rental_uris":{"android":"levelo://app?vid=2bae304d-06f7-450f-9c20-63d800e700e2","ios":"levelo://app?vid=2bae304d-06f7-450f-9c20-63d800e700e2"},"vehicle_type_id":"4","last_reported":1749741123,"current_range_meters":18000,"station_id":"","pricing_plan_id":"cebpf4jnsgd1na2vs0mg"},{"bike_id":"e8639d85-2d2a-429d-bcfe-f3a304f2fccb","system_id":"levelo_inurba_marseille","lat":43.33732,"lon":5.37482,"is_reserved":false,"is_disabled":false,"rental_uris":{"android":"levelo://app?vid=e8639d85-2d2a-429d-bcfe-f3a304f2fccb","ios":"levelo://app?vid=e8639d85-2d2a-429d-bcfe-f3a304f2fccb"},"vehicle_type_id":"4","last_reported":1749741123,"current_range_meters":18000,"station_id":"","pricing_plan_id":"cebpf4jnsgd1na2vs0mg"},{"bike_id":"6facbc0d-f1b5-4dc3-86d4-5c1204834925","system_id":"levelo_inurba_marseille","lat":43.28054,"lon":5.34821,"is_reserved":false,"is_disabled":false,"rental_uris":{"android":"levelo://app?vid=6facbc0d-f1b5-4dc3-86d4-5c1204834925","ios":"levelo://app?vid=6facbc0d-f1b5-4dc3-86d4-5c1204834925"},"vehicle_type_id":"4","last_reported":1749741123,"current_range_meters":18000,"station_id":"","pricing_plan_id":"cebpf4jnsgd1na2vs0mg"},{"bike_id":"7b968eec-1e16-4105-8823-f5c18b855ff0","system_id":"levelo_inurba_marseille","lat":43.2987,"lon":5.39729,"is_reserved":false,"is_disabled":false,"rental_uris":{"android":"levelo://app?vid=7b968eec-1e16-4105-8823-f5c18b855ff0","ios":"levelo://app?vid=7b968eec-1e16-4105-8823-f5c18b855ff0"},"vehicle_type_id":"4","last_reported":1749741123,"current_range_meters":18000,"station_id":"ce4bh0h2rcd13ifvqd50","pricing_plan_id":"cebpf4jnsgd1na2vs0mg"},{"bike_id":"85700a56-6125-4c52-b1f5-8ebb2a83bfe9","system_id":"levelo_inurba_marseille","lat":43.29095,"lon":5.38129,"is_reserved":false,"is_disabled":false,"rental_uris":{"android":"levelo://app?vid=85700a56-6125-4c52-b1f5-8ebb2a83bfe9","ios":"levelo://app?vid=85700a56-6125-4c52-b1f5-8ebb2a83bfe9"},"vehicle_type_id":"4","last_reported":1749741123,"current_range_meters":18000,"station_id":"ce4bh512rcd13ifvqe2g","pricing_plan_id":"cebpf4jnsgd1na2vs0mg"},{"bike_id":"7306e823-a355-4fb6-bf5c-79569bc621bd","system_id":"levelo_inurba_marseille","lat":43.28932,"lon":5.36637,"is_reserved":false,"is_disabled":false,"rental_uris":{"android":"levelo://app?vid=7306e823-a355-4fb6-bf5c-79569bc621bd","ios":"levelo://app?vid=7306e823-a355-4fb6-bf5c-79569bc621bd"},"vehicle_type_id":"4","last_reported":1749741123,"current_range_meters":18000,"station_id":"ce4bhap2rcd13ifvqek0","pricing_plan_id":"cebpf4jnsgd1na2vs0mg"},{"bike_id":"eb033ce6-a585-4e6e-b61e-8ddb3c04724d","system_id":"levelo_inurba_marseille","lat":43.28614,"lon":5.35094,"is_reserved":false,"is_disabled":false,"rental_uris":{"android":"levelo://app?vid=eb033ce6-a585-4e6e-b61e-8ddb3c04724d","ios":"levelo://app?vid=eb033ce6-a585-4e6e-b61e-8ddb3c04724d"},"vehicle_type_id":"4","last_reported":1749741123,"current_range_meters":18000,"station_id":"ce4bhch2rcd13ifvqeug","pricing_plan_id":"cebpf4jnsgd1na2vs0mg"},{"bike_id":"089c24c3-cb58-4187-8550-255ac1f9c631","system_id":"levelo_inurba_marseille","lat":43.248,"lon":5.37455,"is_reserved":false,"is_disabled":false,"rental_uris":{"android":"levelo://app?vid=089c24c3-cb58-4187-8550-255ac1f9c631","ios":"levelo://app?vid=089c24c3-cb58-4187-8550-255ac1f9c631"},"vehicle_type_id":"4","last_reported":1749741123,"current_range_meters":18000,"station_id":"ce4bhgh2rcd13ifvqfb0","pricing_plan_id":"cebpf4jnsgd1na2vs0mg"},{"bike_id":"f681a46f-d7e1-40e1-81c2-247a703a27f3","system_id":"levelo_inurba_marseille","lat":43.28697,"lon":5.39979,"is_reserved":false,"is_disabled":false,"rental_uris":{"android":"levelo://app?vid=f681a46f-d7e1-40e1-81c2-247a703a27f3","ios":"levelo://app?vid=f681a46f-d7e1-40e1-81c2-247a703a27f3"},"vehicle_type_id":"4","last_reported":1749741123,"current_range_meters":18000,"station_id":"ce4bho92rcd13ifvqh3g","pricing_plan_id":"cebpf4jnsgd1na2vs0mg"},{"bike_id":"326cc913-bdbc-48c2-9a88-414846f09512","system_id":"levelo_inurba_marseille","lat":43.3236,"lon":5.36739,"is_reserved":false,"is_disabled":false,"rental_uris":{"android":"levelo://app?vid=326cc913-bdbc-48c2-9a88-414846f09512","ios":"levelo://app?vid=326cc913-bdbc-48c2-9a88-414846f09512"},"vehicle_type_id":"4","last_reported":1749741123,"current_range_meters":18000,"station_id":"ce4bhsh2rcd13ifvqi2g","pricing_plan_id":"cebpf4jnsgd1na2vs0mg"},{"bike_id":"075c05ec-b3c9-44c3-b57f-1083abf2ca61","system_id":"levelo_inurba_marseille","lat":43.27137,"lon":5.42613,"is_reserved":false,"is_disabled":false,"rental_uris":{"android":"levelo://app?vid=075c05ec-b3c9-44c3-b57f-1083abf2ca61","ios":"levelo://app?vid=075c05ec-b3c9-44c3-b57f-1083abf2ca61"},"vehicle_type_id":"4","last_reported":1749741123,"current_range_meters":18800,"station_id":"","pricing_plan_id":"cebpf4jnsgd1na2vs0mg"},{"bike_id":"713f94e3-c67e-4836-bdd5-cfe7bb1b1281","system_id":"levelo_inurba_marseille","lat":43.22511,"lon":5.34771,"is_reserved":false,"is_disabled":false,"rental_uris":{"android":"levelo://app?vid=713f94e3-c67e-4836-bdd5-cfe7bb1b1281","ios":"levelo://app?vid=713f94e3-c67e-4836-bdd5-cfe7bb1b1281"},"vehicle_type_id":"4","last_reported":1749741123,"current_range_meters":18800,"station_id":"","pricing_plan_id":"cebpf4jnsgd1na2vs0mg"},{"bike_id":"6673fca5-e6ff-4ae0-9c35-025cb43f411a","system_id":"levelo_inurba_marseille","lat":43.30531,"lon":5.3842,"is_reserved":false,"is_disabled":false,"rental_uris":{"android":"levelo://app?vid=6673fca5-e6ff-4ae0-9c35-025cb43f411a","ios":"levelo://app?vid=6673fca5-e6ff-4ae0-9c35-025cb43f411a"},"vehicle_type_id":"4","last_reported":1749741123,"current_range_meters":18800,"station_id":"ce4bgg92rcd13ifvqb30","pricing_plan_id":"cebpf4jnsgd1na2vs0mg"},{"bike_id":"2b23a122-cb3d-4ba1-a214-06d619ec8509","system_id":"levelo_inurba_marseille","lat":43.28258,"lon":5.3506,"is_reserved":false,"is_disabled":false,"rental_uris":{"android":"levelo://app?vid=2b23a122-cb3d-4ba1-a214-06d619ec8509","ios":"levelo://app?vid=2b23a122-cb3d-4ba1-a214-06d619ec8509"},"vehicle_type_id":"4","last_reported":1749741123,"current_range_meters":18800,"station_id":"ce4bhbp2rcd13ifvqerg","pricing_plan_id":"cebpf4jnsgd1na2vs0mg"},{"bike_id":"34595850-f982-42b7-a8fa-5129353459d0","system_id":"levelo_inurba_marseille","lat":43.24183,"lon":5.3643,"is_reserved":false,"is_disabled":false,"rental_uris":{"android":"levelo://app?vid=34595850-f982-42b7-a8fa-5129353459d0","ios":"levelo://app?vid=34595850-f982-42b7-a8fa-5129353459d0"},"vehicle_type_id":"4","last_reported":1749741123,"current_range_meters":18800,"station_id":"cpo36qri1sfpv3e86is0","pricing_plan_id":"cebpf4jnsgd1na2vs0mg"},{"bike_id":"c82e2617-a31b-4584-bc0b-981931ea11b9","system_id":"levelo_inurba_marseille","lat":43.301384,"lon":5.398554,"is_reserved":false,"is_disabled":false,"rental_uris":{"android":"levelo://app?vid=c82e2617-a31b-4584-bc0b-981931ea11b9","ios":"levelo://app?vid=c82e2617-a31b-4584-bc0b-981931ea11b9"},"vehicle_type_id":"4","last_reported":1749741123,"current_range_meters":19200,"station_id":"ce4bh0h2rcd13ifvqd40","pricing_plan_id":"cebpf4jnsgd1na2vs0mg"},{"bike_id":"a23f8e28-1e7a-4f06-a800-8fc3e2274a8d","system_id":"levelo_inurba_marseille","lat":43.30135,"lon":5.39848,"is_reserved":false,"is_disabled":false,"rental_uris":{"android":"levelo://app?vid=a23f8e28-1e7a-4f06-a800-8fc3e2274a8d","ios":"levelo://app?vid=a23f8e28-1e7a-4f06-a800-8fc3e2274a8d"},"vehicle_type_id":"4","last_reported":1749741123,"current_range_meters":19200,"station_id":"ce4bh0h2rcd13ifvqd40","pricing_plan_id":"cebpf4jnsgd1na2vs0mg"},{"bike_id":"c8d39aad-10f2-49f0-b132-259630728ead","system_id":"levelo_inurba_marseille","lat":43.289335,"lon":5.366302,"is_reserved":false,"is_disabled":false,"rental_uris":{"android":"levelo://app?vid=c8d39aad-10f2-49f0-b132-259630728ead","ios":"levelo://app?vid=c8d39aad-10f2-49f0-b132-259630728ead"},"vehicle_type_id":"4","last_reported":1749741123,"current_range_meters":19200,"station_id":"ce4bhap2rcd13ifvqek0","pricing_plan_id":"cebpf4jnsgd1na2vs0mg"},{"bike_id":"53ed7bca-5bf0-49b1-9179-a5275873190f","system_id":"levelo_inurba_marseille","lat":43.24647,"lon":5.38889,"is_reserved":false,"is_disabled":false,"rental_uris":{"android":"levelo://app?vid=53ed7bca-5bf0-49b1-9179-a5275873190f","ios":"levelo://app?vid=53ed7bca-5bf0-49b1-9179-a5275873190f"},"vehicle_type_id":"4","last_reported":1749741123,"current_range_meters":19200,"station_id":"ce4bhg12rcd13ifvqf60","pricing_plan_id":"cebpf4jnsgd1na2vs0mg"},{"bike_id":"ded02d5a-fbb0-4bda-977e-bd0795c2591d","system_id":"levelo_inurba_marseille","lat":43.32338,"lon":5.40623,"is_reserved":false,"is_disabled":false,"rental_uris":{"android":"levelo://app?vid=ded02d5a-fbb0-4bda-977e-bd0795c2591d","ios":"levelo://app?vid=ded02d5a-fbb0-4bda-977e-bd0795c2591d"},"vehicle_type_id":"4","last_reported":1749741123,"current_range_meters":19200,"station_id":"ce4bhq92rcd13ifvqhjg","pricing_plan_id":"cebpf4jnsgd1na2vs0mg"},{"bike_id":"ebde0757-a94a-4915-8c86-60ad7ee049c4","system_id":"levelo_inurba_marseille","lat":43.23196,"lon":5.35548,"is_reserved":false,"is_disabled":false,"rental_uris":{"android":"levelo://app?vid=ebde0757-a94a-4915-8c86-60ad7ee049c4","ios":"levelo://app?vid=ebde0757-a94a-4915-8c86-60ad7ee049c4"},"vehicle_type_id":"4","last_reported":1749741123,"current_range_meters":19200,"station_id":"ce4bhu92rcd13ifvqi70","pricing_plan_id":"cebpf4jnsgd1na2vs0mg"},{"bike_id":"161c543a-70a2-482c-9957-3cf42792a472","system_id":"levelo_inurba_marseille","lat":43.29781,"lon":5.39335,"is_reserved":false,"is_disabled":false,"rental_uris":{"android":"levelo://app?vid=161c543a-70a2-482c-9957-3cf42792a472","ios":"levelo://app?vid=161c543a-70a2-482c-9957-3cf42792a472"},"vehicle_type_id":"4","last_reported":1749741123,"current_range_meters":19200,"station_id":"chh1huq6cuj3fo74tm60","pricing_plan_id":"cebpf4jnsgd1na2vs0mg"},{"bike_id":"f18a0601-1dad-46f4-a79d-606dc3308886","system_id":"levelo_inurba_marseille","lat":43.21725,"lon":5.346,"is_reserved":false,"is_disabled":false,"rental_uris":{"android":"levelo://app?vid=f18a0601-1dad-46f4-a79d-606dc3308886","ios":"levelo://app?vid=f18a0601-1dad-46f4-a79d-606dc3308886"},"vehicle_type_id":"4","last_reported":1749741123,"current_range_meters":19200,"station_id":"st_cvj6r9ubvosntc0bgbag","pricing_plan_id":"cebpf4jnsgd1na2vs0mg"},{"bike_id":"3b2851dc-cdc3-4c74-bb7a-6b50ea5674bc","system_id":"levelo_inurba_marseille","lat":43.31644,"lon":5.38401,"is_reserved":false,"is_disabled":false,"rental_uris":{"android":"levelo://app?vid=3b2851dc-cdc3-4c74-bb7a-6b50ea5674bc","ios":"levelo://app?vid=3b2851dc-cdc3-4c74-bb7a-6b50ea5674bc"},"vehicle_type_id":"4","last_reported":1749741123,"current_range_meters":19600,"station_id":"","pricing_plan_id":"cebpf4jnsgd1na2vs0mg"},{"bike_id":"de47a251-37cc-4652-97bd-9622e750d643","system_id":"levelo_inurba_marseille","lat":43.29939,"lon":5.36555,"is_reserved":false,"is_disabled":false,"rental_uris":{"android":"levelo://app?vid=de47a251-37cc-4652-97bd-9622e750d643","ios":"levelo://app?vid=de47a251-37cc-4652-97bd-9622e750d643"},"vehicle_type_id":"4","last_reported":1749741123,"current_range_meters":19600,"station_id":"ce4bgm92rcd13ifvqbr0","pricing_plan_id":"cebpf4jnsgd1na2vs0mg"},{"bike_id":"8979febd-27bb-4260-9774-a774e38d8583","system_id":"levelo_inurba_marseille","lat":43.28938,"lon":5.36626,"is_reserved":false,"is_disabled":false,"rental_uris":{"android":"levelo://app?vid=8979febd-27bb-4260-9774-a774e38d8583","ios":"levelo://app?vid=8979febd-27bb-4260-9774-a774e38d8583"},"vehicle_type_id":"4","last_reported":1749741123,"current_range_meters":19600,"station_id":"ce4bhap2rcd13ifvqek0","pricing_plan_id":"cebpf4jnsgd1na2vs0mg"},{"bike_id":"2d94d84a-9027-4ed6-949f-11d42e2b6602","system_id":"levelo_inurba_marseille","lat":43.28418,"lon":5.34975,"is_reserved":false,"is_disabled":false,"rental_uris":{"android":"levelo://app?vid=2d94d84a-9027-4ed6-949f-11d42e2b6602","ios":"levelo://app?vid=2d94d84a-9027-4ed6-949f-11d42e2b6602"},"vehicle_type_id":"4","last_reported":1749741123,"current_range_meters":19600,"station_id":"ce4bhbh2rcd13ifvqepg","pricing_plan_id":"cebpf4jnsgd1na2vs0mg"},{"bike_id":"25c46408-a352-47a0-8827-b707b4a6c5d2","system_id":"levelo_inurba_marseille","lat":43.28609,"lon":5.35114,"is_reserved":false,"is_disabled":false,"rental_uris":{"android":"levelo://app?vid=25c46408-a352-47a0-8827-b707b4a6c5d2","ios":"levelo://app?vid=25c46408-a352-47a0-8827-b707b4a6c5d2"},"vehicle_type_id":"4","last_reported":1749741123,"current_range_meters":19600,"station_id":"ce4bhch2rcd13ifvqeug","pricing_plan_id":"cebpf4jnsgd1na2vs0mg"},{"bike_id":"ab8aa9a4-a29a-400d-a2f0-90ad57dfc5b1","system_id":"levelo_inurba_marseille","lat":43.21755,"lon":5.34616,"is_reserved":false,"is_disabled":false,"rental_uris":{"android":"levelo://app?vid=ab8aa9a4-a29a-400d-a2f0-90ad57dfc5b1","ios":"levelo://app?vid=ab8aa9a4-a29a-400d-a2f0-90ad57dfc5b1"},"vehicle_type_id":"4","last_reported":1749741123,"current_range_meters":19600,"station_id":"st_cvj6r9ubvosntc0bgbag","pricing_plan_id":"cebpf4jnsgd1na2vs0mg"},{"bike_id":"e0806586-bd10-43e8-af77-c0a205908295","system_id":"levelo_inurba_marseille","lat":43.21747,"lon":5.34599,"is_reserved":false,"is_disabled":false,"rental_uris":{"android":"levelo://app?vid=e0806586-bd10-43e8-af77-c0a205908295","ios":"levelo://app?vid=e0806586-bd10-43e8-af77-c0a205908295"},"vehicle_type_id":"4","last_reported":1749741123,"current_range_meters":19600,"station_id":"st_cvj6r9ubvosntc0bgbag","pricing_plan_id":"cebpf4jnsgd1na2vs0mg"},{"bike_id":"2d9eb491-ef60-4c87-8fa5-c0a977f848da","system_id":"levelo_inurba_marseille","lat":43.21193,"lon":5.35075,"is_reserved":false,"is_disabled":false,"rental_uris":{"android":"levelo://app?vid=2d9eb491-ef60-4c87-8fa5-c0a977f848da","ios":"levelo://app?vid=2d9eb491-ef60-4c87-8fa5-c0a977f848da"},"vehicle_type_id":"4","last_reported":1749741123,"current_range_meters":19600,"station_id":"st_cvj6sg6p6f1abm77japg","pricing_plan_id":"cebpf4jnsgd1na2vs0mg"},{"bike_id":"1a76c404-ff6e-4c7b-8e41-cf01370798ee","system_id":"levelo_inurba_marseille","lat":43.26204,"lon":5.37451,"is_reserved":false,"is_disabled":false,"rental_uris":{"android":"levelo://app?vid=1a76c404-ff6e-4c7b-8e41-cf01370798ee","ios":"levelo://app?vid=1a76c404-ff6e-4c7b-8e41-cf01370798ee"},"vehicle_type_id":"4","last_reported":1749741123,"current_range_meters":20000,"station_id":"ce4bhgp2rcd13ifvqfc0","pricing_plan_id":"cebpf4jnsgd1na2vs0mg"},{"bike_id":"62527226-09fe-4b2d-b3c2-78ab6697fe6f","system_id":"levelo_inurba_marseille","lat":43.25496,"lon":5.37648,"is_reserved":false,"is_disabled":false,"rental_uris":{"android":"levelo://app?vid=62527226-09fe-4b2d-b3c2-78ab6697fe6f","ios":"levelo://app?vid=62527226-09fe-4b2d-b3c2-78ab6697fe6f"},"vehicle_type_id":"4","last_reported":1749741123,"current_range_meters":20000,"station_id":"ce4bhh12rcd13ifvqff0","pricing_plan_id":"cebpf4jnsgd1na2vs0mg"},{"bike_id":"fe9676f9-7811-4692-91ce-31b5e598f986","system_id":"levelo_inurba_marseille","lat":43.27172,"lon":5.40996,"is_reserved":false,"is_disabled":false,"rental_uris":{"android":"levelo://app?vid=fe9676f9-7811-4692-91ce-31b5e598f986","ios":"levelo://app?vid=fe9676f9-7811-4692-91ce-31b5e598f986"},"vehicle_type_id":"4","last_reported":1749741123,"current_range_meters":20000,"station_id":"ce4bhl12rcd13ifvqgf0","pricing_plan_id":"cebpf4jnsgd1na2vs0mg"},{"bike_id":"2959bdcd-6d03-483e-960c-4797ed198cf4","system_id":"levelo_inurba_marseille","lat":43.25116,"lon":5.40326,"is_reserved":false,"is_disabled":false,"rental_uris":{"android":"levelo://app?vid=2959bdcd-6d03-483e-960c-4797ed198cf4","ios":"levelo://app?vid=2959bdcd-6d03-483e-960c-4797ed198cf4"},"vehicle_type_id":"4","last_reported":1749741123,"current_range_meters":20000,"station_id":"ce4bhlh2rcd13ifvqgig","pricing_plan_id":"cebpf4jnsgd1na2vs0mg"},{"bike_id":"037d7197-b0d0-4879-8a59-ce3cea0b8597","system_id":"levelo_inurba_marseille","lat":43.21756,"lon":5.34602,"is_reserved":false,"is_disabled":false,"rental_uris":{"android":"levelo://app?vid=037d7197-b0d0-4879-8a59-ce3cea0b8597","ios":"levelo://app?vid=037d7197-b0d0-4879-8a59-ce3cea0b8597"},"vehicle_type_id":"4","last_reported":1749741123,"current_range_meters":20000,"station_id":"st_cvj6r9ubvosntc0bgbag","pricing_plan_id":"cebpf4jnsgd1na2vs0mg"},{"bike_id":"3d263d19-7646-4502-8745-7141de1c5d61","system_id":"levelo_inurba_marseille","lat":43.29673,"lon":5.37298,"is_reserved":false,"is_disabled":false,"rental_uris":{"android":"levelo://app?vid=3d263d19-7646-4502-8745-7141de1c5d61","ios":"levelo://app?vid=3d263d19-7646-4502-8745-7141de1c5d61"},"vehicle_type_id":"4","last_reported":1749741123,"current_range_meters":20400,"station_id":"ce4bgk12rcd13ifvqbj0","pricing_plan_id":"cebpf4jnsgd1na2vs0mg"},{"bike_id":"e2389e1c-9e91-4d19-bd9e-5a05b6d01efa","system_id":"levelo_inurba_marseille","lat":43.29862,"lon":5.39748,"is_reserved":false,"is_disabled":false,"rental_uris":{"android":"levelo://app?vid=e2389e1c-9e91-4d19-bd9e-5a05b6d01efa","ios":"levelo://app?vid=e2389e1c-9e91-4d19-bd9e-5a05b6d01efa"},"vehicle_type_id":"4","last_reported":1749741123,"current_range_meters":20400,"station_id":"ce4bh0h2rcd13ifvqd50","pricing_plan_id":"cebpf4jnsgd1na2vs0mg"},{"bike_id":"61d45eab-8801-47a9-a776-dab49007dd46","system_id":"levelo_inurba_marseille","lat":43.29567,"lon":5.39981,"is_reserved":false,"is_disabled":false,"rental_uris":{"android":"levelo://app?vid=61d45eab-8801-47a9-a776-dab49007dd46","ios":"levelo://app?vid=61d45eab-8801-47a9-a776-dab49007dd46"},"vehicle_type_id":"4","last_reported":1749741123,"current_range_meters":20400,"station_id":"ce4bh312rcd13ifvqdj0","pricing_plan_id":"cebpf4jnsgd1na2vs0mg"},{"bike_id":"f9f47215-86fb-4f8c-928b-df15d71f184e","system_id":"levelo_inurba_marseille","lat":43.29001,"lon":5.35614,"is_reserved":false,"is_disabled":false,"rental_uris":{"android":"levelo://app?vid=f9f47215-86fb-4f8c-928b-df15d71f184e","ios":"levelo://app?vid=f9f47215-86fb-4f8c-928b-df15d71f184e"},"vehicle_type_id":"4","last_reported":1749741123,"current_range_meters":20400,"station_id":"ce4bhb92rcd13ifvqen0","pricing_plan_id":"cebpf4jnsgd1na2vs0mg"},{"bike_id":"bf9e5ee1-44fe-4ff9-8f5c-e5ac08390a86","system_id":"levelo_inurba_marseille","lat":43.28263,"lon":5.35068,"is_reserved":false,"is_disabled":false,"rental_uris":{"android":"levelo://app?vid=bf9e5ee1-44fe-4ff9-8f5c-e5ac08390a86","ios":"levelo://app?vid=bf9e5ee1-44fe-4ff9-8f5c-e5ac08390a86"},"vehicle_type_id":"4","last_reported":1749741123,"current_range_meters":20400,"station_id":"ce4bhbp2rcd13ifvqerg","pricing_plan_id":"cebpf4jnsgd1na2vs0mg"},{"bike_id":"90338aae-4a2b-4b77-bdbb-68f62b85f33c","system_id":"levelo_inurba_marseille","lat":43.28599,"lon":5.35117,"is_reserved":false,"is_disabled":false,"rental_uris":{"android":"levelo://app?vid=90338aae-4a2b-4b77-bdbb-68f62b85f33c","ios":"levelo://app?vid=90338aae-4a2b-4b77-bdbb-68f62b85f33c"},"vehicle_type_id":"4","last_reported":1749741123,"current_range_meters":20400,"station_id":"ce4bhch2rcd13ifvqeug","pricing_plan_id":"cebpf4jnsgd1na2vs0mg"},{"bike_id":"1cf11cec-c14d-40c5-b135-19c55ed3ceb1","system_id":"levelo_inurba_marseille","lat":43.29893,"lon":5.43667,"is_reserved":false,"is_disabled":false,"rental_uris":{"android":"levelo://app?vid=1cf11cec-c14d-40c5-b135-19c55ed3ceb1","ios":"levelo://app?vid=1cf11cec-c14d-40c5-b135-19c55ed3ceb1"},"vehicle_type_id":"4","last_reported":1749741123,"current_range_meters":20400,"station_id":"ce4bhpp2rcd13ifvqhfg","pricing_plan_id":"cebpf4jnsgd1na2vs0mg"},{"bike_id":"a172b0cf-62c4-4c52-a818-ce564350df02","system_id":"levelo_inurba_marseille","lat":43.211912,"lon":5.350782,"is_reserved":false,"is_disabled":false,"rental_uris":{"android":"levelo://app?vid=a172b0cf-62c4-4c52-a818-ce564350df02","ios":"levelo://app?vid=a172b0cf-62c4-4c52-a818-ce564350df02"},"vehicle_type_id":"4","last_reported":1749741123,"current_range_meters":20400,"station_id":"st_cvj6sg6p6f1abm77japg","pricing_plan_id":"cebpf4jnsgd1na2vs0mg"},{"bike_id":"557a6442-5bb0-46d3-a83f-fcce3d13de40","system_id":"levelo_inurba_marseille","lat":43.30133,"lon":5.3879,"is_reserved":false,"is_disabled":false,"rental_uris":{"android":"levelo://app?vid=557a6442-5bb0-46d3-a83f-fcce3d13de40","ios":"levelo://app?vid=557a6442-5bb0-46d3-a83f-fcce3d13de40"},"vehicle_type_id":"4","last_reported":1749741123,"current_range_meters":20800,"station_id":"ce4bghh2rcd13ifvqb60","pricing_plan_id":"cebpf4jnsgd1na2vs0mg"},{"bike_id":"1895dcb0-e948-4a4e-b253-258c1bcfb124","system_id":"levelo_inurba_marseille","lat":43.29591,"lon":5.36728,"is_reserved":false,"is_disabled":false,"rental_uris":{"android":"levelo://app?vid=1895dcb0-e948-4a4e-b253-258c1bcfb124","ios":"levelo://app?vid=1895dcb0-e948-4a4e-b253-258c1bcfb124"},"vehicle_type_id":"4","last_reported":1749741123,"current_range_meters":20800,"station_id":"ce4bgph2rcd13ifvqc2g","pricing_plan_id":"cebpf4jnsgd1na2vs0mg"},{"bike_id":"123cf436-dc9f-4033-95c0-8023af69cd69","system_id":"levelo_inurba_marseille","lat":43.30138,"lon":5.39853,"is_reserved":false,"is_disabled":false,"rental_uris":{"android":"levelo://app?vid=123cf436-dc9f-4033-95c0-8023af69cd69","ios":"levelo://app?vid=123cf436-dc9f-4033-95c0-8023af69cd69"},"vehicle_type_id":"4","last_reported":1749741123,"current_range_meters":20800,"station_id":"ce4bh0h2rcd13ifvqd40","pricing_plan_id":"cebpf4jnsgd1na2vs0mg"},{"bike_id":"77344697-85ae-44fb-987d-94c06af039f5","system_id":"levelo_inurba_marseille","lat":43.2925,"lon":5.409,"is_reserved":false,"is_disabled":false,"rental_uris":{"android":"levelo://app?vid=77344697-85ae-44fb-987d-94c06af039f5","ios":"levelo://app?vid=77344697-85ae-44fb-987d-94c06af039f5"},"vehicle_type_id":"4","last_reported":1749741123,"current_range_meters":20800,"station_id":"ce4bh192rcd13ifvqdc0","pricing_plan_id":"cebpf4jnsgd1na2vs0mg"},{"bike_id":"925dc373-c97f-496e-bb14-48ab93150b82","system_id":"levelo_inurba_marseille","lat":43.28661,"lon":5.36345,"is_reserved":false,"is_disabled":false,"rental_uris":{"android":"levelo://app?vid=925dc373-c97f-496e-bb14-48ab93150b82","ios":"levelo://app?vid=925dc373-c97f-496e-bb14-48ab93150b82"},"vehicle_type_id":"4","last_reported":1749741123,"current_range_meters":20800,"station_id":"ce4bhah2rcd13ifvqej0","pricing_plan_id":"cebpf4jnsgd1na2vs0mg"},{"bike_id":"f3ec16b2-8afd-4ecb-8d58-15a6a90ff603","system_id":"levelo_inurba_marseille","lat":43.3236,"lon":5.36761,"is_reserved":false,"is_disabled":false,"rental_uris":{"android":"levelo://app?vid=f3ec16b2-8afd-4ecb-8d58-15a6a90ff603","ios":"levelo://app?vid=f3ec16b2-8afd-4ecb-8d58-15a6a90ff603"},"vehicle_type_id":"4","last_reported":1749741123,"current_range_meters":20800,"station_id":"ce4bhsh2rcd13ifvqi2g","pricing_plan_id":"cebpf4jnsgd1na2vs0mg"},{"bike_id":"4c89b471-1d86-4d44-8b28-2acfb01d1aa6","system_id":"levelo_inurba_marseille","lat":43.26936,"lon":5.40252,"is_reserved":false,"is_disabled":false,"rental_uris":{"android":"levelo://app?vid=4c89b471-1d86-4d44-8b28-2acfb01d1aa6","ios":"levelo://app?vid=4c89b471-1d86-4d44-8b28-2acfb01d1aa6"},"vehicle_type_id":"4","last_reported":1749741123,"current_range_meters":20800,"station_id":"cjm6bp8fraef2m0cb0m0","pricing_plan_id":"cebpf4jnsgd1na2vs0mg"},{"bike_id":"abd0d78f-a5d4-4339-93f7-6b3fc51d77c5","system_id":"levelo_inurba_marseille","lat":43.36372,"lon":5.35098,"is_reserved":false,"is_disabled":false,"rental_uris":{"android":"levelo://app?vid=abd0d78f-a5d4-4339-93f7-6b3fc51d77c5","ios":"levelo://app?vid=abd0d78f-a5d4-4339-93f7-6b3fc51d77c5"},"vehicle_type_id":"4","last_reported":1749741123,"current_range_meters":21600,"station_id":"","pricing_plan_id":"cebpf4jnsgd1na2vs0mg"},{"bike_id":"2465ca7d-6854-4ba3-9542-793094707cab","system_id":"levelo_inurba_marseille","lat":43.28938,"lon":5.36634,"is_reserved":false,"is_disabled":false,"rental_uris":{"android":"levelo://app?vid=2465ca7d-6854-4ba3-9542-793094707cab","ios":"levelo://app?vid=2465ca7d-6854-4ba3-9542-793094707cab"},"vehicle_type_id":"4","last_reported":1749741123,"current_range_meters":21600,"station_id":"ce4bhap2rcd13ifvqek0","pricing_plan_id":"cebpf4jnsgd1na2vs0mg"},{"bike_id":"fd5a5266-582c-45bf-ba92-2c8a1dacd188","system_id":"levelo_inurba_marseille","lat":43.28941,"lon":5.36637,"is_reserved":false,"is_disabled":false,"rental_uris":{"android":"levelo://app?vid=fd5a5266-582c-45bf-ba92-2c8a1dacd188","ios":"levelo://app?vid=fd5a5266-582c-45bf-ba92-2c8a1dacd188"},"vehicle_type_id":"4","last_reported":1749741123,"current_range_meters":21600,"station_id":"ce4bhap2rcd13ifvqek0","pricing_plan_id":"cebpf4jnsgd1na2vs0mg"},{"bike_id":"e113c141-bc22-4696-8da3-bd0570c28c93","system_id":"levelo_inurba_marseille","lat":43.29001,"lon":5.35609,"is_reserved":false,"is_disabled":false,"rental_uris":{"android":"levelo://app?vid=e113c141-bc22-4696-8da3-bd0570c28c93","ios":"levelo://app?vid=e113c141-bc22-4696-8da3-bd0570c28c93"},