{"last_updated":1746850280,"ttl":60,"version":"2.2","data":{"bikes":[{"bike_id":"3c6d0c37-471a-4ce7-b166-52edc6a87b8b","system_id":"levelo_inurba_marseille","lat":43.262243,"lon":5.40456,"is_reserved":false,"is_disabled":true,"rental_uris":{"android":"levelo://app?vid=3c6d0c37-471a-4ce7-b166-52edc6a87b8b","ios":"levelo://app?vid=3c6d0c37-471a-4ce7-b166-52edc6a87b8b"},"vehicle_type_id":"4","last_reported":1746850280,"current_range_meters":2800,"station_id":"ce4bhmh2rcd13ifvqgmg","pricing_plan_id":"cebpf4jnsgd1na2vs0mg"},{"bike_id":"1e3c7f59-fcfc-433c-8689-9dfe9bf305d6","system_id":"levelo_inurba_marseille","lat":43.295186,"lon":5.405529,"is_reserved":false,"is_disabled":false,"rental_uris":{"android":"levelo://app?vid=1e3c7f59-fcfc-433c-8689-9dfe9bf305d6","ios":"levelo://app?vid=1e3c7f59-fcfc-433c-8689-9dfe9bf305d6"},"vehicle_type_id":"4","last_reported":1746850280,"current_range_meters":3200,"station_id":"","pricing_plan_id":"cebpf4jnsgd1na2vs0mg"},{"bike_id":"1e13d40b-c890-4fb7-9a04-cbbc62436197","system_id":"levelo_inurba_marseille","lat":43.295958,"lon":5.381116,"is_reserved":false,"is_disabled":false,"rental_uris":{"android":"levelo://app?vid=1e13d40b-c890-4fb7-9a04-cbbc62436197","ios":"levelo://app?vid=1e13d40b-c890-4fb7-9a04-cbbc62436197"},"vehicle_type_id":"4","last_reported":1746850280,"current_range_meters":3200,"station_id":"ce4bgl12rcd13ifvqbo0","pricing_plan_id":"cebpf4jnsgd1na2vs0mg"},{"bike_id":"928bed07-e827-40ef-897c-7ba52991ba55","system_id":"levelo_inurba_marseille","lat":43.2866,"lon":5.36359,"is_reserved":false,"is_disabled":false,"rental_uris":{"android":"levelo://app?vid=928bed07-e827-40ef-897c-7ba52991ba55","ios":"levelo://app?vid=928bed07-e827-40ef-897c-7ba52991ba55"},"vehicle_type_id":"4","last_reported":1746850280,"current_range_meters":3600,"station_id":"ce4bhah2rcd13ifvqej0","pricing_plan_id":"cebpf4jnsgd1na2vs0mg"},{"bike_id":"8a0eb219-0825-4873-8042-7ddafae48f5b","system_id":"levelo_inurba_marseille","lat":43.25849,"lon":5.39896,"is_reserved":false,"is_disabled":false,"rental_uris":{"android":"levelo://app?vid=8a0eb219-0825-4873-8042-7ddafae48f5b","ios":"levelo://app?vid=8a0eb219-0825-4873-8042-7ddafae48f5b"},"vehicle_type_id":"4","last_reported":1746850280,"current_range_meters":4000,"station_id":"ce4bhl92rcd13ifvqghg","pricing_plan_id":"cebpf4jnsgd1na2vs0mg"},{"bike_id":"dce24418-2aec-47dd-9bc8-5d7f1d3bf6af","system_id":"levelo_inurba_marseille","lat":43.245479,"lon":5.395226,"is_reserved":false,"is_disabled":false,"rental_uris":{"android":"levelo://app?vid=dce24418-2aec-47dd-9bc8-5d7f1d3bf6af","ios":"levelo://app?vid=dce24418-2aec-47dd-9bc8-5d7f1d3bf6af"},"vehicle_type_id":"4","last_reported":1746850280,"current_range_meters":4000,"station_id":"ce4bhlp2rcd13ifvqgjg","pricing_plan_id":"cebpf4jnsgd1na2vs0mg"},{"bike_id":"51f6f0a0-c583-4863-8aa8-b01fe2bf21ad","system_id":"levelo_inurba_marseille","lat":43.305753,"lon":5.367277,"is_reserved":false,"is_disabled":true,"rental_uris":{"android":"levelo://app?vid=51f6f0a0-c583-4863-8aa8-b01fe2bf21ad","ios":"levelo://app?vid=51f6f0a0-c583-4863-8aa8-b01fe2bf21ad"},"vehicle_type_id":"4","last_reported":1746850280,"current_range_meters":4000,"station_id":"ce4bgrp2rcd13ifvqc9g","pricing_plan_id":"cebpf4jnsgd1na2vs0mg"},{"bike_id":"6d44031e-4a55-4691-9d20-b83b653f138a","system_id":"levelo_inurba_marseille","lat":43.26958,"lon":5.38641,"is_reserved":false,"is_disabled":false,"rental_uris":{"android":"levelo://app?vid=6d44031e-4a55-4691-9d20-b83b653f138a","ios":"levelo://app?vid=6d44031e-4a55-4691-9d20-b83b653f138a"},"vehicle_type_id":"4","last_reported":1746850280,"current_range_meters":4800,"station_id":"ce4bhh92rcd13ifvqfh0","pricing_plan_id":"cebpf4jnsgd1na2vs0mg"},{"bike_id":"078071de-0978-4f13-bd6e-a3e0bc30f4a2","system_id":"levelo_inurba_marseille","lat":43.25003,"lon":5.38924,"is_reserved":false,"is_disabled":false,"rental_uris":{"android":"levelo://app?vid=078071de-0978-4f13-bd6e-a3e0bc30f4a2","ios":"levelo://app?vid=078071de-0978-4f13-bd6e-a3e0bc30f4a2"},"vehicle_type_id":"4","last_reported":1746850280,"current_range_meters":5600,"station_id":"ce4bhgp2rcd13ifvqfd0","pricing_plan_id":"cebpf4jnsgd1na2vs0mg"},{"bike_id":"f673a50d-776a-4d4f-8bc2-0f75017ffb52","system_id":"levelo_inurba_marseille","lat":43.284499,"lon":5.358347,"is_reserved":false,"is_disabled":false,"rental_uris":{"android":"levelo://app?vid=f673a50d-776a-4d4f-8bc2-0f75017ffb52","ios":"levelo://app?vid=f673a50d-776a-4d4f-8bc2-0f75017ffb52"},"vehicle_type_id":"4","last_reported":1746850280,"current_range_meters":5600,"station_id":"ce4bhah2rcd13ifvqei0","pricing_plan_id":"cebpf4jnsgd1na2vs0mg"},{"bike_id":"6af985b2-9ee0-4c28-a9d8-b238a0c7330e","system_id":"levelo_inurba_marseille","lat":43.25129,"lon":5.40335,"is_reserved":false,"is_disabled":false,"rental_uris":{"android":"levelo://app?vid=6af985b2-9ee0-4c28-a9d8-b238a0c7330e","ios":"levelo://app?vid=6af985b2-9ee0-4c28-a9d8-b238a0c7330e"},"vehicle_type_id":"4","last_reported":1746850280,"current_range_meters":5600,"station_id":"ce4bhlh2rcd13ifvqgig","pricing_plan_id":"cebpf4jnsgd1na2vs0mg"},{"bike_id":"f76d0e06-a922-41bb-9df5-d0a5c7d3f9fc","system_id":"levelo_inurba_marseille","lat":43.289,"lon":5.384183,"is_reserved":false,"is_disabled":true,"rental_uris":{"android":"levelo://app?vid=f76d0e06-a922-41bb-9df5-d0a5c7d3f9fc","ios":"levelo://app?vid=f76d0e06-a922-41bb-9df5-d0a5c7d3f9fc"},"vehicle_type_id":"4","last_reported":1746850280,"current_range_meters":6000,"station_id":"ce4bh612rcd13ifvqe6g","pricing_plan_id":"cebpf4jnsgd1na2vs0mg"},{"bike_id":"ba32ee3a-6a49-437c-90fb-7756461a61f4","system_id":"levelo_inurba_marseille","lat":43.241701,"lon":5.364029,"is_reserved":false,"is_disabled":false,"rental_uris":{"android":"levelo://app?vid=ba32ee3a-6a49-437c-90fb-7756461a61f4","ios":"levelo://app?vid=ba32ee3a-6a49-437c-90fb-7756461a61f4"},"vehicle_type_id":"4","last_reported":1746850280,"current_range_meters":6400,"station_id":"cpo36qri1sfpv3e86is0","pricing_plan_id":"cebpf4jnsgd1na2vs0mg"},{"bike_id":"283c096d-9775-40df-9ef5-3ff56b9146cb","system_id":"levelo_inurba_marseille","lat":43.22924,"lon":5.35371,"is_reserved":false,"is_disabled":true,"rental_uris":{"android":"levelo://app?vid=283c096d-9775-40df-9ef5-3ff56b9146cb","ios":"levelo://app?vid=283c096d-9775-40df-9ef5-3ff56b9146cb"},"vehicle_type_id":"4","last_reported":1746850280,"current_range_meters":6400,"station_id":"cpo3532slgdg3j2ikp40","pricing_plan_id":"cebpf4jnsgd1na2vs0mg"},{"bike_id":"33d77f94-822a-4b96-be68-071337f0e7ad","system_id":"levelo_inurba_marseille","lat":43.30592,"lon":5.37229,"is_reserved":false,"is_disabled":false,"rental_uris":{"android":"levelo://app?vid=33d77f94-822a-4b96-be68-071337f0e7ad","ios":"levelo://app?vid=33d77f94-822a-4b96-be68-071337f0e7ad"},"vehicle_type_id":"4","last_reported":1746850280,"current_range_meters":6400,"station_id":"ce4bgqh2rcd13ifvqc4g","pricing_plan_id":"cebpf4jnsgd1na2vs0mg"},{"bike_id":"18c8fa99-b086-4e1d-a1b0-301f523c38e6","system_id":"levelo_inurba_marseille","lat":43.30479,"lon":5.37902,"is_reserved":false,"is_disabled":false,"rental_uris":{"android":"levelo://app?vid=18c8fa99-b086-4e1d-a1b0-301f523c38e6","ios":"levelo://app?vid=18c8fa99-b086-4e1d-a1b0-301f523c38e6"},"vehicle_type_id":"4","last_reported":1746850280,"current_range_meters":6800,"station_id":"ce4bgup2rcd13ifvqcn0","pricing_plan_id":"cebpf4jnsgd1na2vs0mg"},{"bike_id":"d264c0b4-5571-4ec4-9c89-3a128be4e59f","system_id":"levelo_inurba_marseille","lat":43.258635,"lon":5.399105,"is_reserved":false,"is_disabled":false,"rental_uris":{"android":"levelo://app?vid=d264c0b4-5571-4ec4-9c89-3a128be4e59f","ios":"levelo://app?vid=d264c0b4-5571-4ec4-9c89-3a128be4e59f"},"vehicle_type_id":"4","last_reported":1746850280,"current_range_meters":6800,"station_id":"ce4bhl92rcd13ifvqghg","pricing_plan_id":"cebpf4jnsgd1na2vs0mg"},{"bike_id":"caf9033d-5f00-49c3-b1ee-1328b62008dc","system_id":"levelo_inurba_marseille","lat":43.335863,"lon":5.428192,"is_reserved":false,"is_disabled":false,"rental_uris":{"android":"levelo://app?vid=caf9033d-5f00-49c3-b1ee-1328b62008dc","ios":"levelo://app?vid=caf9033d-5f00-49c3-b1ee-1328b62008dc"},"vehicle_type_id":"4","last_reported":1746850280,"current_range_meters":6800,"station_id":"","pricing_plan_id":"cebpf4jnsgd1na2vs0mg"},{"bike_id":"9e4ccf65-2c18-41d7-93f6-003c2cda1d6c","system_id":"levelo_inurba_marseille","lat":43.27852,"lon":5.40727,"is_reserved":false,"is_disabled":false,"rental_uris":{"android":"levelo://app?vid=9e4ccf65-2c18-41d7-93f6-003c2cda1d6c","ios":"levelo://app?vid=9e4ccf65-2c18-41d7-93f6-003c2cda1d6c"},"vehicle_type_id":"4","last_reported":1746850280,"current_range_meters":6800,"station_id":"ce4bhnh2rcd13ifvqgtg","pricing_plan_id":"cebpf4jnsgd1na2vs0mg"},{"bike_id":"41b1a32b-2cab-4ffc-b477-33d19a4dd033","system_id":"levelo_inurba_marseille","lat":43.24538,"lon":5.39526,"is_reserved":false,"is_disabled":false,"rental_uris":{"android":"levelo://app?vid=41b1a32b-2cab-4ffc-b477-33d19a4dd033","ios":"levelo://app?vid=41b1a32b-2cab-4ffc-b477-33d19a4dd033"},"vehicle_type_id":"4","last_reported":1746850280,"current_range_meters":7200,"station_id":"ce4bhlp2rcd13ifvqgjg","pricing_plan_id":"cebpf4jnsgd1na2vs0mg"},{"bike_id":"6c0bdbfd-6b23-41da-944b-ac98633dca52","system_id":"levelo_inurba_marseille","lat":43.251161,"lon":5.40334,"is_reserved":false,"is_disabled":false,"rental_uris":{"android":"levelo://app?vid=6c0bdbfd-6b23-41da-944b-ac98633dca52","ios":"levelo://app?vid=6c0bdbfd-6b23-41da-944b-ac98633dca52"},"vehicle_type_id":"4","last_reported":1746850280,"current_range_meters":7200,"station_id":"ce4bhlh2rcd13ifvqgig","pricing_plan_id":"cebpf4jnsgd1na2vs0mg"},{"bike_id":"fd27781f-04ea-4638-b934-8ec205a016dd","system_id":"levelo_inurba_marseille","lat":43.29031,"lon":5.35908,"is_reserved":false,"is_disabled":false,"rental_uris":{"android":"levelo://app?vid=fd27781f-04ea-4638-b934-8ec205a016dd","ios":"levelo://app?vid=fd27781f-04ea-4638-b934-8ec205a016dd"},"vehicle_type_id":"4","last_reported":1746850280,"current_range_meters":7200,"station_id":"ce4bha92rcd13ifvqeg0","pricing_plan_id":"cebpf4jnsgd1na2vs0mg"},{"bike_id":"b82963c6-7115-421c-ac2c-c76730ff375e","system_id":"levelo_inurba_marseille","lat":43.237609,"lon":5.361823,"is_reserved":false,"is_disabled":false,"rental_uris":{"android":"levelo://app?vid=b82963c6-7115-421c-ac2c-c76730ff375e","ios":"levelo://app?vid=b82963c6-7115-421c-ac2c-c76730ff375e"},"vehicle_type_id":"4","last_reported":1746850280,"current_range_meters":7200,"station_id":"","pricing_plan_id":"cebpf4jnsgd1na2vs0mg"},{"bike_id":"730113d7-e72b-4423-a22e-1832e56b04d0","system_id":"levelo_inurba_marseille","lat":43.29416,"lon":5.387213,"is_reserved":false,"is_disabled":true,"rental_uris":{"android":"levelo://app?vid=730113d7-e72b-4423-a22e-1832e56b04d0","ios":"levelo://app?vid=730113d7-e72b-4423-a22e-1832e56b04d0"},"vehicle_type_id":"4","last_reported":1746850280,"current_range_meters":8000,"station_id":"","pricing_plan_id":"cebpf4jnsgd1na2vs0mg"},{"bike_id":"dd1b1ff0-ba6c-4744-a9f2-7be34f5a933e","system_id":"levelo_inurba_marseille","lat":43.27946,"lon":5.41042,"is_reserved":false,"is_disabled":false,"rental_uris":{"android":"levelo://app?vid=dd1b1ff0-ba6c-4744-a9f2-7be34f5a933e","ios":"levelo://app?vid=dd1b1ff0-ba6c-4744-a9f2-7be34f5a933e"},"vehicle_type_id":"4","last_reported":1746850280,"current_range_meters":8000,"station_id":"ce4bhnp2rcd13ifvqh0g","pricing_plan_id":"cebpf4jnsgd1na2vs0mg"},{"bike_id":"5ef9c87e-d345-4f11-b0b5-68191ebd1ab6","system_id":"levelo_inurba_marseille","lat":43.24519,"lon":5.39531,"is_reserved":false,"is_disabled":false,"rental_uris":{"android":"levelo://app?vid=5ef9c87e-d345-4f11-b0b5-68191ebd1ab6","ios":"levelo://app?vid=5ef9c87e-d345-4f11-b0b5-68191ebd1ab6"},"vehicle_type_id":"4","last_reported":1746850280,"current_range_meters":8000,"station_id":"ce4bhlp2rcd13ifvqgjg","pricing_plan_id":"cebpf4jnsgd1na2vs0mg"},{"bike_id":"a5035683-e922-4659-b77f-9b07031bc84e","system_id":"levelo_inurba_marseille","lat":43.21756,"lon":5.34604,"is_reserved":false,"is_disabled":true,"rental_uris":{"android":"levelo://app?vid=a5035683-e922-4659-b77f-9b07031bc84e","ios":"levelo://app?vid=a5035683-e922-4659-b77f-9b07031bc84e"},"vehicle_type_id":"4","last_reported":1746850280,"current_range_meters":8000,"station_id":"st_cvj6r9ubvosntc0bgbag","pricing_plan_id":"cebpf4jnsgd1na2vs0mg"},{"bike_id":"404bdf06-19a0-42dd-8b2a-4b557457ac84","system_id":"levelo_inurba_marseille","lat":43.25161,"lon":5.4038,"is_reserved":false,"is_disabled":false,"rental_uris":{"android":"levelo://app?vid=404bdf06-19a0-42dd-8b2a-4b557457ac84","ios":"levelo://app?vid=404bdf06-19a0-42dd-8b2a-4b557457ac84"},"vehicle_type_id":"4","last_reported":1746850280,"current_range_meters":8000,"station_id":"ce4bhlh2rcd13ifvqgig","pricing_plan_id":"cebpf4jnsgd1na2vs0mg"},{"bike_id":"a69bf4b4-8717-4a1f-8e67-26cd7acf32eb","system_id":"levelo_inurba_marseille","lat":43.24193,"lon":5.3972,"is_reserved":false,"is_disabled":false,"rental_uris":{"android":"levelo://app?vid=a69bf4b4-8717-4a1f-8e67-26cd7acf32eb","ios":"levelo://app?vid=a69bf4b4-8717-4a1f-8e67-26cd7acf32eb"},"vehicle_type_id":"4","last_reported":1746850280,"current_range_meters":8000,"station_id":"ce4bhn12rcd13ifvqgpg","pricing_plan_id":"cebpf4jnsgd1na2vs0mg"},{"bike_id":"ce972654-4647-4640-9be3-f6d267f881ec","system_id":"levelo_inurba_marseille","lat":43.27613,"lon":5.36127,"is_reserved":false,"is_disabled":false,"rental_uris":{"android":"levelo://app?vid=ce972654-4647-4640-9be3-f6d267f881ec","ios":"levelo://app?vid=ce972654-4647-4640-9be3-f6d267f881ec"},"vehicle_type_id":"4","last_reported":1746850280,"current_range_meters":8000,"station_id":"ce4bgj92rcd13ifvqbe0","pricing_plan_id":"cebpf4jnsgd1na2vs0mg"},{"bike_id":"b0c54ead-2c9a-4d45-904a-5e1b9abf7338","system_id":"levelo_inurba_marseille","lat":43.279122,"lon":5.440896,"is_reserved":false,"is_disabled":false,"rental_uris":{"android":"levelo://app?vid=b0c54ead-2c9a-4d45-904a-5e1b9abf7338","ios":"levelo://app?vid=b0c54ead-2c9a-4d45-904a-5e1b9abf7338"},"vehicle_type_id":"4","last_reported":1746850280,"current_range_meters":8400,"station_id":"","pricing_plan_id":"cebpf4jnsgd1na2vs0mg"},{"bike_id":"6af774d7-2c64-48a1-ae08-54f823e2517c","system_id":"levelo_inurba_marseille","lat":43.314934,"lon":5.373242,"is_reserved":false,"is_disabled":false,"rental_uris":{"android":"levelo://app?vid=6af774d7-2c64-48a1-ae08-54f823e2517c","ios":"levelo://app?vid=6af774d7-2c64-48a1-ae08-54f823e2517c"},"vehicle_type_id":"4","last_reported":1746850280,"current_range_meters":8400,"station_id":"ce4bgt12rcd13ifvqcd0","pricing_plan_id":"cebpf4jnsgd1na2vs0mg"},{"bike_id":"791cf852-cc2a-4381-a46c-d7afe4ceb6de","system_id":"levelo_inurba_marseille","lat":43.289953,"lon":5.356171,"is_reserved":false,"is_disabled":true,"rental_uris":{"android":"levelo://app?vid=791cf852-cc2a-4381-a46c-d7afe4ceb6de","ios":"levelo://app?vid=791cf852-cc2a-4381-a46c-d7afe4ceb6de"},"vehicle_type_id":"4","last_reported":1746850280,"current_range_meters":8400,"station_id":"ce4bhb92rcd13ifvqen0","pricing_plan_id":"cebpf4jnsgd1na2vs0mg"},{"bike_id":"3ee8e499-f845-4c6b-aa75-107b3891d613","system_id":"levelo_inurba_marseille","lat":43.280345,"lon":5.369398,"is_reserved":false,"is_disabled":false,"rental_uris":{"android":"levelo://app?vid=3ee8e499-f845-4c6b-aa75-107b3891d613","ios":"levelo://app?vid=3ee8e499-f845-4c6b-aa75-107b3891d613"},"vehicle_type_id":"4","last_reported":1746850280,"current_range_meters":8800,"station_id":"ce4bha12rcd13ifvqef0","pricing_plan_id":"cebpf4jnsgd1na2vs0mg"},{"bike_id":"f8bd5ba1-0844-4c6d-9b78-f958f1313745","system_id":"levelo_inurba_marseille","lat":43.29349,"lon":5.42855,"is_reserved":false,"is_disabled":false,"rental_uris":{"android":"levelo://app?vid=f8bd5ba1-0844-4c6d-9b78-f958f1313745","ios":"levelo://app?vid=f8bd5ba1-0844-4c6d-9b78-f958f1313745"},"vehicle_type_id":"4","last_reported":1746850280,"current_range_meters":8800,"station_id":"","pricing_plan_id":"cebpf4jnsgd1na2vs0mg"},{"bike_id":"3c7670ff-3628-42b4-8ea8-664d4fa357dd","system_id":"levelo_inurba_marseille","lat":43.279903,"lon":5.416714,"is_reserved":false,"is_disabled":false,"rental_uris":{"android":"levelo://app?vid=3c7670ff-3628-42b4-8ea8-664d4fa357dd","ios":"levelo://app?vid=3c7670ff-3628-42b4-8ea8-664d4fa357dd"},"vehicle_type_id":"4","last_reported":1746850280,"current_range_meters":8800,"station_id":"ce4bho12rcd13ifvqh1g","pricing_plan_id":"cebpf4jnsgd1na2vs0mg"},{"bike_id":"88e65bbf-8be6-4c3d-aa2e-445c3d526d08","system_id":"levelo_inurba_marseille","lat":43.27179,"lon":5.40999,"is_reserved":false,"is_disabled":true,"rental_uris":{"android":"levelo://app?vid=88e65bbf-8be6-4c3d-aa2e-445c3d526d08","ios":"levelo://app?vid=88e65bbf-8be6-4c3d-aa2e-445c3d526d08"},"vehicle_type_id":"4","last_reported":1746850280,"current_range_meters":8800,"station_id":"ce4bhl12rcd13ifvqgf0","pricing_plan_id":"cebpf4jnsgd1na2vs0mg"},{"bike_id":"750853c3-5c7a-41ac-b4b9-21d83e878f6f","system_id":"levelo_inurba_marseille","lat":43.277,"lon":5.41975,"is_reserved":false,"is_disabled":false,"rental_uris":{"android":"levelo://app?vid=750853c3-5c7a-41ac-b4b9-21d83e878f6f","ios":"levelo://app?vid=750853c3-5c7a-41ac-b4b9-21d83e878f6f"},"vehicle_type_id":"4","last_reported":1746850280,"current_range_meters":9200,"station_id":"","pricing_plan_id":"cebpf4jnsgd1na2vs0mg"},{"bike_id":"bdca530c-bd0d-472f-a06b-e690e9f2d295","system_id":"levelo_inurba_marseille","lat":43.308027,"lon":5.381613,"is_reserved":false,"is_disabled":false,"rental_uris":{"android":"levelo://app?vid=bdca530c-bd0d-472f-a06b-e690e9f2d295","ios":"levelo://app?vid=bdca530c-bd0d-472f-a06b-e690e9f2d295"},"vehicle_type_id":"4","last_reported":1746850280,"current_range_meters":9200,"station_id":"ce4bgt12rcd13ifvqce0","pricing_plan_id":"cebpf4jnsgd1na2vs0mg"},{"bike_id":"8cb987f9-049d-46ae-9b26-cc9ab0572bed","system_id":"levelo_inurba_marseille","lat":43.27809,"lon":5.40721,"is_reserved":false,"is_disabled":true,"rental_uris":{"android":"levelo://app?vid=8cb987f9-049d-46ae-9b26-cc9ab0572bed","ios":"levelo://app?vid=8cb987f9-049d-46ae-9b26-cc9ab0572bed"},"vehicle_type_id":"4","last_reported":1746850280,"current_range_meters":9200,"station_id":"ce4bhnh2rcd13ifvqgtg","pricing_plan_id":"cebpf4jnsgd1na2vs0mg"},{"bike_id":"22dfbe01-9157-43ce-a9ac-7077e5980f60","system_id":"levelo_inurba_marseille","lat":43.234679,"lon":5.360447,"is_reserved":false,"is_disabled":false,"rental_uris":{"android":"levelo://app?vid=22dfbe01-9157-43ce-a9ac-7077e5980f60","ios":"levelo://app?vid=22dfbe01-9157-43ce-a9ac-7077e5980f60"},"vehicle_type_id":"4","last_reported":1746850280,"current_range_meters":9200,"station_id":"","pricing_plan_id":"cebpf4jnsgd1na2vs0mg"},{"bike_id":"a7779870-18dc-41d2-9b64-b409e8e7e6c3","system_id":"levelo_inurba_marseille","lat":43.28476,"lon":5.38559,"is_reserved":false,"is_disabled":false,"rental_uris":{"android":"levelo://app?vid=a7779870-18dc-41d2-9b64-b409e8e7e6c3","ios":"levelo://app?vid=a7779870-18dc-41d2-9b64-b409e8e7e6c3"},"vehicle_type_id":"4","last_reported":1746850280,"current_range_meters":10000,"station_id":"ce4bh8p2rcd13ifvqeb0","pricing_plan_id":"cebpf4jnsgd1na2vs0mg"},{"bike_id":"1771c0e2-1fe6-49ff-8a23-2166fe76f883","system_id":"levelo_inurba_marseille","lat":43.231881,"lon":5.399787,"is_reserved":false,"is_disabled":false,"rental_uris":{"android":"levelo://app?vid=1771c0e2-1fe6-49ff-8a23-2166fe76f883","ios":"levelo://app?vid=1771c0e2-1fe6-49ff-8a23-2166fe76f883"},"vehicle_type_id":"4","last_reported":1746850280,"current_range_meters":10000,"station_id":"ce4bhn12rcd13ifvqgqg","pricing_plan_id":"cebpf4jnsgd1na2vs0mg"},{"bike_id":"0eae1664-e62c-4400-8041-d7f3bc1da788","system_id":"levelo_inurba_marseille","lat":43.287704,"lon":5.359189,"is_reserved":false,"is_disabled":false,"rental_uris":{"android":"levelo://app?vid=0eae1664-e62c-4400-8041-d7f3bc1da788","ios":"levelo://app?vid=0eae1664-e62c-4400-8041-d7f3bc1da788"},"vehicle_type_id":"4","last_reported":1746850280,"current_range_meters":10000,"station_id":"","pricing_plan_id":"cebpf4jnsgd1na2vs0mg"},{"bike_id":"42091268-e1c5-49fa-92ef-af1096d6f585","system_id":"levelo_inurba_marseille","lat":43.309328,"lon":5.401731,"is_reserved":false,"is_disabled":false,"rental_uris":{"android":"levelo://app?vid=42091268-e1c5-49fa-92ef-af1096d6f585","ios":"levelo://app?vid=42091268-e1c5-49fa-92ef-af1096d6f585"},"vehicle_type_id":"4","last_reported":1746850280,"current_range_meters":10000,"station_id":"ce4bgvp2rcd13ifvqct0","pricing_plan_id":"cebpf4jnsgd1na2vs0mg"},{"bike_id":"02b78847-8c19-4c59-93ac-0179dd6fb8a4","system_id":"levelo_inurba_marseille","lat":43.2867,"lon":5.363531,"is_reserved":false,"is_disabled":false,"rental_uris":{"android":"levelo://app?vid=02b78847-8c19-4c59-93ac-0179dd6fb8a4","ios":"levelo://app?vid=02b78847-8c19-4c59-93ac-0179dd6fb8a4"},"vehicle_type_id":"4","last_reported":1746850280,"current_range_meters":10000,"station_id":"ce4bhah2rcd13ifvqej0","pricing_plan_id":"cebpf4jnsgd1na2vs0mg"},{"bike_id":"c23795ea-7683-4dec-afd8-7fe5848041e3","system_id":"levelo_inurba_marseille","lat":43.241745,"lon":5.397436,"is_reserved":false,"is_disabled":false,"rental_uris":{"android":"levelo://app?vid=c23795ea-7683-4dec-afd8-7fe5848041e3","ios":"levelo://app?vid=c23795ea-7683-4dec-afd8-7fe5848041e3"},"vehicle_type_id":"4","last_reported":1746850280,"current_range_meters":10000,"station_id":"ce4bhn12rcd13ifvqgpg","pricing_plan_id":"cebpf4jnsgd1na2vs0mg"},{"bike_id":"2d9cf84f-80e6-4273-bdb7-a817d129565a","system_id":"levelo_inurba_marseille","lat":43.28078,"lon":5.39666,"is_reserved":false,"is_disabled":false,"rental_uris":{"android":"levelo://app?vid=2d9cf84f-80e6-4273-bdb7-a817d129565a","ios":"levelo://app?vid=2d9cf84f-80e6-4273-bdb7-a817d129565a"},"vehicle_type_id":"4","last_reported":1746850280,"current_range_meters":10800,"station_id":"ce4bho12rcd13ifvqh2g","pricing_plan_id":"cebpf4jnsgd1na2vs0mg"},{"bike_id":"044478cb-8194-4092-b984-4fc9c042ef68","system_id":"levelo_inurba_marseille","lat":43.28764,"lon":5.46496,"is_reserved":false,"is_disabled":false,"rental_uris":{"android":"levelo://app?vid=044478cb-8194-4092-b984-4fc9c042ef68","ios":"levelo://app?vid=044478cb-8194-4092-b984-4fc9c042ef68"},"vehicle_type_id":"4","last_reported":1746850280,"current_range_meters":10800,"station_id":"","pricing_plan_id":"cebpf4jnsgd1na2vs0mg"},{"bike_id":"4a1f9f14-d8a9-4728-9a31-d3a49c3c6d70","system_id":"levelo_inurba_marseille","lat":43.314907,"lon":5.373008,"is_reserved":false,"is_disabled":false,"rental_uris":{"android":"levelo://app?vid=4a1f9f14-d8a9-4728-9a31-d3a49c3c6d70","ios":"levelo://app?vid=4a1f9f14-d8a9-4728-9a31-d3a49c3c6d70"},"vehicle_type_id":"4","last_reported":1746850280,"current_range_meters":10800,"station_id":"ce4bgt12rcd13ifvqcd0","pricing_plan_id":"cebpf4jnsgd1na2vs0mg"},{"bike_id":"a50985a0-3f26-48e5-b65a-c25bac0f8023","system_id":"levelo_inurba_marseille","lat":43.286156,"lon":5.351065,"is_reserved":false,"is_disabled":false,"rental_uris":{"android":"levelo://app?vid=a50985a0-3f26-48e5-b65a-c25bac0f8023","ios":"levelo://app?vid=a50985a0-3f26-48e5-b65a-c25bac0f8023"},"vehicle_type_id":"4","last_reported":1746850280,"current_range_meters":11200,"station_id":"ce4bhch2rcd13ifvqeug","pricing_plan_id":"cebpf4jnsgd1na2vs0mg"},{"bike_id":"9d3c3033-0568-4845-ae5b-950933ebd1fc","system_id":"levelo_inurba_marseille","lat":43.30309,"lon":5.39207,"is_reserved":false,"is_disabled":false,"rental_uris":{"android":"levelo://app?vid=9d3c3033-0568-4845-ae5b-950933ebd1fc","ios":"levelo://app?vid=9d3c3033-0568-4845-ae5b-950933ebd1fc"},"vehicle_type_id":"4","last_reported":1746850280,"current_range_meters":11200,"station_id":"ce4bgkh2rcd13ifvqbk0","pricing_plan_id":"cebpf4jnsgd1na2vs0mg"},{"bike_id":"86b478b2-1cf2-4e07-8a5c-76710e912a41","system_id":"levelo_inurba_marseille","lat":43.291245,"lon":5.366892,"is_reserved":false,"is_disabled":false,"rental_uris":{"android":"levelo://app?vid=86b478b2-1cf2-4e07-8a5c-76710e912a41","ios":"levelo://app?vid=86b478b2-1cf2-4e07-8a5c-76710e912a41"},"vehicle_type_id":"4","last_reported":1746850280,"current_range_meters":11200,"station_id":"","pricing_plan_id":"cebpf4jnsgd1na2vs0mg"},{"bike_id":"9319b99d-2325-4f39-8ac2-f7bd744620e2","system_id":"levelo_inurba_marseille","lat":43.27609,"lon":5.36097,"is_reserved":false,"is_disabled":false,"rental_uris":{"android":"levelo://app?vid=9319b99d-2325-4f39-8ac2-f7bd744620e2","ios":"levelo://app?vid=9319b99d-2325-4f39-8ac2-f7bd744620e2"},"vehicle_type_id":"4","last_reported":1746850280,"current_range_meters":11200,"station_id":"ce4bgj92rcd13ifvqbe0","pricing_plan_id":"cebpf4jnsgd1na2vs0mg"},{"bike_id":"597beefa-8311-4d68-b0f3-88cd0a14dd08","system_id":"levelo_inurba_marseille","lat":43.27548,"lon":5.39497,"is_reserved":false,"is_disabled":false,"rental_uris":{"android":"levelo://app?vid=597beefa-8311-4d68-b0f3-88cd0a14dd08","ios":"levelo://app?vid=597beefa-8311-4d68-b0f3-88cd0a14dd08"},"vehicle_type_id":"4","last_reported":1746850280,"current_range_meters":11200,"station_id":"","pricing_plan_id":"cebpf4jnsgd1na2vs0mg"},{"bike_id":"5070bbf2-ec6f-43e9-a0b5-d1e484a904f0","system_id":"levelo_inurba_marseille","lat":43.265491,"lon":5.373101,"is_reserved":false,"is_disabled":true,"rental_uris":{"android":"levelo://app?vid=5070bbf2-ec6f-43e9-a0b5-d1e484a904f0","ios":"levelo://app?vid=5070bbf2-ec6f-43e9-a0b5-d1e484a904f0"},"vehicle_type_id":"4","last_reported":1746850280,"current_range_meters":11200,"station_id":"ce4bhg12rcd13ifvqf70","pricing_plan_id":"cebpf4jnsgd1na2vs0mg"},{"bike_id":"dabc5299-686c-437f-b1fe-4c4dcec4a3bc","system_id":"levelo_inurba_marseille","lat":43.24084,"lon":5.37732,"is_reserved":false,"is_disabled":false,"rental_uris":{"android":"levelo://app?vid=dabc5299-686c-437f-b1fe-4c4dcec4a3bc","ios":"levelo://app?vid=dabc5299-686c-437f-b1fe-4c4dcec4a3bc"},"vehicle_type_id":"4","last_reported":1746850280,"current_range_meters":11600,"station_id":"ce4bhnp2rcd13ifvqgvg","pricing_plan_id":"cebpf4jnsgd1na2vs0mg"},{"bike_id":"d388abd5-c0e6-48dd-a7fc-1d6206199050","system_id":"levelo_inurba_marseille","lat":43.34131,"lon":5.36058,"is_reserved":false,"is_disabled":false,"rental_uris":{"android":"levelo://app?vid=d388abd5-c0e6-48dd-a7fc-1d6206199050","ios":"levelo://app?vid=d388abd5-c0e6-48dd-a7fc-1d6206199050"},"vehicle_type_id":"4","last_reported":1746850280,"current_range_meters":11600,"station_id":"","pricing_plan_id":"cebpf4jnsgd1na2vs0mg"},{"bike_id":"cfb33b76-ff38-465f-96b4-8908aeb6f4a0","system_id":"levelo_inurba_marseille","lat":43.273739,"lon":5.362545,"is_reserved":false,"is_disabled":false,"rental_uris":{"android":"levelo://app?vid=cfb33b76-ff38-465f-96b4-8908aeb6f4a0","ios":"levelo://app?vid=cfb33b76-ff38-465f-96b4-8908aeb6f4a0"},"vehicle_type_id":"4","last_reported":1746850280,"current_range_meters":11600,"station_id":"ce4bhbh2rcd13ifvqeo0","pricing_plan_id":"cebpf4jnsgd1na2vs0mg"},{"bike_id":"5936f16c-b2a3-47d9-a067-399829148751","system_id":"levelo_inurba_marseille","lat":43.2794,"lon":5.41046,"is_reserved":false,"is_disabled":false,"rental_uris":{"android":"levelo://app?vid=5936f16c-b2a3-47d9-a067-399829148751","ios":"levelo://app?vid=5936f16c-b2a3-47d9-a067-399829148751"},"vehicle_type_id":"4","last_reported":1746850280,"current_range_meters":12000,"station_id":"ce4bhnp2rcd13ifvqh0g","pricing_plan_id":"cebpf4jnsgd1na2vs0mg"},{"bike_id":"2bcd659a-611c-43e2-89ef-f7e699246180","system_id":"levelo_inurba_marseille","lat":43.302345,"lon":5.400637,"is_reserved":false,"is_disabled":true,"rental_uris":{"android":"levelo://app?vid=2bcd659a-611c-43e2-89ef-f7e699246180","ios":"levelo://app?vid=2bcd659a-611c-43e2-89ef-f7e699246180"},"vehicle_type_id":"4","last_reported":1746850280,"current_range_meters":12000,"station_id":"ce4bgvh2rcd13ifvqcs0","pricing_plan_id":"cebpf4jnsgd1na2vs0mg"},{"bike_id":"425a71c2-3497-48ea-abb4-541b2f2a7c98","system_id":"levelo_inurba_marseille","lat":43.24674,"lon":5.38156,"is_reserved":false,"is_disabled":false,"rental_uris":{"android":"levelo://app?vid=425a71c2-3497-48ea-abb4-541b2f2a7c98","ios":"levelo://app?vid=425a71c2-3497-48ea-abb4-541b2f2a7c98"},"vehicle_type_id":"4","last_reported":1746850280,"current_range_meters":12000,"station_id":"ce4bhih2rcd13ifvqfr0","pricing_plan_id":"cebpf4jnsgd1na2vs0mg"},{"bike_id":"09e1dc14-26ac-446e-add0-27edb09cfb56","system_id":"levelo_inurba_marseille","lat":43.29277,"lon":5.36848,"is_reserved":false,"is_disabled":false,"rental_uris":{"android":"levelo://app?vid=09e1dc14-26ac-446e-add0-27edb09cfb56","ios":"levelo://app?vid=09e1dc14-26ac-446e-add0-27edb09cfb56"},"vehicle_type_id":"4","last_reported":1746850280,"current_range_meters":12000,"station_id":"","pricing_plan_id":"cebpf4jnsgd1na2vs0mg"},{"bike_id":"5a2b9265-1c21-4240-ae2e-6b025866f1b4","system_id":"levelo_inurba_marseille","lat":43.30924,"lon":5.40143,"is_reserved":false,"is_disabled":false,"rental_uris":{"android":"levelo://app?vid=5a2b9265-1c21-4240-ae2e-6b025866f1b4","ios":"levelo://app?vid=5a2b9265-1c21-4240-ae2e-6b025866f1b4"},"vehicle_type_id":"4","last_reported":1746850280,"current_range_meters":12000,"station_id":"ce4bgvp2rcd13ifvqct0","pricing_plan_id":"cebpf4jnsgd1na2vs0mg"},{"bike_id":"29b99ee3-82b0-4cb0-a9d6-8993ba8fcb2f","system_id":"levelo_inurba_marseille","lat":43.24653,"lon":5.38904,"is_reserved":false,"is_disabled":false,"rental_uris":{"android":"levelo://app?vid=29b99ee3-82b0-4cb0-a9d6-8993ba8fcb2f","ios":"levelo://app?vid=29b99ee3-82b0-4cb0-a9d6-8993ba8fcb2f"},"vehicle_type_id":"4","last_reported":1746850280,"current_range_meters":12400,"station_id":"ce4bhg12rcd13ifvqf60","pricing_plan_id":"cebpf4jnsgd1na2vs0mg"},{"bike_id":"42431477-9690-4b36-a307-58fe6c5ceb7b","system_id":"levelo_inurba_marseille","lat":43.31347,"lon":5.3672,"is_reserved":false,"is_disabled":false,"rental_uris":{"android":"levelo://app?vid=42431477-9690-4b36-a307-58fe6c5ceb7b","ios":"levelo://app?vid=42431477-9690-4b36-a307-58fe6c5ceb7b"},"vehicle_type_id":"4","last_reported":1746850280,"current_range_meters":12400,"station_id":"ce4bgr92rcd13ifvqc6g","pricing_plan_id":"cebpf4jnsgd1na2vs0mg"},{"bike_id":"c5bf6457-7a00-4d62-9165-cd5ce63d9661","system_id":"levelo_inurba_marseille","lat":43.24379,"lon":5.37076,"is_reserved":false,"is_disabled":false,"rental_uris":{"android":"levelo://app?vid=c5bf6457-7a00-4d62-9165-cd5ce63d9661","ios":"levelo://app?vid=c5bf6457-7a00-4d62-9165-cd5ce63d9661"},"vehicle_type_id":"4","last_reported":1746850280,"current_range_meters":12800,"station_id":"ce4bhhh2rcd13ifvqfk0","pricing_plan_id":"cebpf4jnsgd1na2vs0mg"},{"bike_id":"35a8516b-240a-4df8-a3a1-35d4da354b60","system_id":"levelo_inurba_marseille","lat":43.23964,"lon":5.36642,"is_reserved":false,"is_disabled":false,"rental_uris":{"android":"levelo://app?vid=35a8516b-240a-4df8-a3a1-35d4da354b60","ios":"levelo://app?vid=35a8516b-240a-4df8-a3a1-35d4da354b60"},"vehicle_type_id":"4","last_reported":1746850280,"current_range_meters":12800,"station_id":"ce4bhi12rcd13ifvqfp0","pricing_plan_id":"cebpf4jnsgd1na2vs0mg"},{"bike_id":"df56ef2d-718a-45a6-8a7e-282a60e1aaaf","system_id":"levelo_inurba_marseille","lat":43.31729,"lon":5.42403,"is_reserved":false,"is_disabled":false,"rental_uris":{"android":"levelo://app?vid=df56ef2d-718a-45a6-8a7e-282a60e1aaaf","ios":"levelo://app?vid=df56ef2d-718a-45a6-8a7e-282a60e1aaaf"},"vehicle_type_id":"4","last_reported":1746850280,"current_range_meters":12800,"station_id":"ce4bhp92rcd13ifvqhbg","pricing_plan_id":"cebpf4jnsgd1na2vs0mg"},{"bike_id":"f1c7a456-d705-477a-b1e6-88d53834d2f1","system_id":"levelo_inurba_marseille","lat":43.31724,"lon":5.43683,"is_reserved":false,"is_disabled":true,"rental_uris":{"android":"levelo://app?vid=f1c7a456-d705-477a-b1e6-88d53834d2f1","ios":"levelo://app?vid=f1c7a456-d705-477a-b1e6-88d53834d2f1"},"vehicle_type_id":"4","last_reported":1746850280,"current_range_meters":13600,"station_id":"ce4bhp92rcd13ifvqhcg","pricing_plan_id":"cebpf4jnsgd1na2vs0mg"},{"bike_id":"6a592c79-90d3-4c3a-8d32-667e71e7b710","system_id":"levelo_inurba_marseille","lat":43.31684,"lon":5.40472,"is_reserved":false,"is_disabled":false,"rental_uris":{"android":"levelo://app?vid=6a592c79-90d3-4c3a-8d32-667e71e7b710","ios":"levelo://app?vid=6a592c79-90d3-4c3a-8d32-667e71e7b710"},"vehicle_type_id":"4","last_reported":1746850280,"current_range_meters":13600,"station_id":"ce4bh012rcd13ifvqd00","pricing_plan_id":"cebpf4jnsgd1na2vs0mg"},{"bike_id":"a34bfce8-44ea-45a5-887b-d15f36896976","system_id":"levelo_inurba_marseille","lat":43.292556,"lon":5.409025,"is_reserved":false,"is_disabled":false,"rental_uris":{"android":"levelo://app?vid=a34bfce8-44ea-45a5-887b-d15f36896976","ios":"levelo://app?vid=a34bfce8-44ea-45a5-887b-d15f36896976"},"vehicle_type_id":"4","last_reported":1746850280,"current_range_meters":13600,"station_id":"ce4bh192rcd13ifvqdc0","pricing_plan_id":"cebpf4jnsgd1na2vs0mg"},{"bike_id":"08c04ff9-e615-4d87-ba3e-6b0e2342cce5","system_id":"levelo_inurba_marseille","lat":43.29595,"lon":5.36751,"is_reserved":false,"is_disabled":true,"rental_uris":{"android":"levelo://app?vid=08c04ff9-e615-4d87-ba3e-6b0e2342cce5","ios":"levelo://app?vid=08c04ff9-e615-4d87-ba3e-6b0e2342cce5"},"vehicle_type_id":"4","last_reported":1746850280,"current_range_meters":13600,"station_id":"ce4bgph2rcd13ifvqc2g","pricing_plan_id":"cebpf4jnsgd1na2vs0mg"},{"bike_id":"6a955a4d-cdb0-49af-a16f-adc9a5d0f466","system_id":"levelo_inurba_marseille","lat":43.278115,"lon":5.407154,"is_reserved":false,"is_disabled":false,"rental_uris":{"android":"levelo://app?vid=6a955a4d-cdb0-49af-a16f-adc9a5d0f466","ios":"levelo://app?vid=6a955a4d-cdb0-49af-a16f-adc9a5d0f466"},"vehicle_type_id":"4","last_reported":1746850280,"current_range_meters":14000,"station_id":"ce4bhnh2rcd13ifvqgtg","pricing_plan_id":"cebpf4jnsgd1na2vs0mg"},{"bike_id":"d58e2bca-9cc6-4497-82e6-997f2f8b2940","system_id":"levelo_inurba_marseille","lat":43.24672,"lon":5.38147,"is_reserved":false,"is_disabled":false,"rental_uris":{"android":"levelo://app?vid=d58e2bca-9cc6-4497-82e6-997f2f8b2940","ios":"levelo://app?vid=d58e2bca-9cc6-4497-82e6-997f2f8b2940"},"vehicle_type_id":"4","last_reported":1746850280,"current_range_meters":14000,"station_id":"ce4bhih2rcd13ifvqfr0","pricing_plan_id":"cebpf4jnsgd1na2vs0mg"},{"bike_id":"575346d1-8dea-4228-8b9c-4d5ea0a89925","system_id":"levelo_inurba_marseille","lat":43.251094,"lon":5.403249,"is_reserved":false,"is_disabled":false,"rental_uris":{"android":"levelo://app?vid=575346d1-8dea-4228-8b9c-4d5ea0a89925","ios":"levelo://app?vid=575346d1-8dea-4228-8b9c-4d5ea0a89925"},"vehicle_type_id":"4","last_reported":1746850280,"current_range_meters":14000,"station_id":"ce4bhlh2rcd13ifvqgig","pricing_plan_id":"cebpf4jnsgd1na2vs0mg"},{"bike_id":"f087208c-1026-4b85-8c2b-4c82342845d2","system_id":"levelo_inurba_marseille","lat":43.23181,"lon":5.39995,"is_reserved":false,"is_disabled":false,"rental_uris":{"android":"levelo://app?vid=f087208c-1026-4b85-8c2b-4c82342845d2","ios":"levelo://app?vid=f087208c-1026-4b85-8c2b-4c82342845d2"},"vehicle_type_id":"4","last_reported":1746850280,"current_range_meters":14400,"station_id":"ce4bhn12rcd13ifvqgqg","pricing_plan_id":"cebpf4jnsgd1na2vs0mg"},{"bike_id":"889ae0cf-748a-49b3-be2b-756570fe5f09","system_id":"levelo_inurba_marseille","lat":43.30811,"lon":5.38151,"is_reserved":false,"is_disabled":true,"rental_uris":{"android":"levelo://app?vid=889ae0cf-748a-49b3-be2b-756570fe5f09","ios":"levelo://app?vid=889ae0cf-748a-49b3-be2b-756570fe5f09"},"vehicle_type_id":"4","last_reported":1746850280,"current_range_meters":14400,"station_id":"ce4bgt12rcd13ifvqce0","pricing_plan_id":"cebpf4jnsgd1na2vs0mg"},{"bike_id":"8dda88d1-7a9c-41fc-b75d-6bf65256282a","system_id":"levelo_inurba_marseille","lat":43.28406,"lon":5.37507,"is_reserved":false,"is_disabled":false,"rental_uris":{"android":"levelo://app?vid=8dda88d1-7a9c-41fc-b75d-6bf65256282a","ios":"levelo://app?vid=8dda88d1-7a9c-41fc-b75d-6bf65256282a"},"vehicle_type_id":"4","last_reported":1746850280,"current_range_meters":14400,"station_id":"ce4bh412rcd13ifvqds0","pricing_plan_id":"cebpf4jnsgd1na2vs0mg"},{"bike_id":"d987c076-db95-4f00-8d47-72f71159d59e","system_id":"levelo_inurba_marseille","lat":43.23149,"lon":5.43711,"is_reserved":false,"is_disabled":false,"rental_uris":{"android":"levelo://app?vid=d987c076-db95-4f00-8d47-72f71159d59e","ios":"levelo://app?vid=d987c076-db95-4f00-8d47-72f71159d59e"},"vehicle_type_id":"4","last_reported":1746850280,"current_range_meters":14400,"station_id":"ce4bhmp2rcd13ifvqgog","pricing_plan_id":"cebpf4jnsgd1na2vs0mg"},{"bike_id":"bb9dd4d9-ef7c-411c-9ce2-6f0d8890189a","system_id":"levelo_inurba_marseille","lat":43.2418,"lon":5.36393,"is_reserved":false,"is_disabled":false,"rental_uris":{"android":"levelo://app?vid=bb9dd4d9-ef7c-411c-9ce2-6f0d8890189a","ios":"levelo://app?vid=bb9dd4d9-ef7c-411c-9ce2-6f0d8890189a"},"vehicle_type_id":"4","last_reported":1746850280,"current_range_meters":14800,"station_id":"cpo36qri1sfpv3e86is0","pricing_plan_id":"cebpf4jnsgd1na2vs0mg"},{"bike_id":"26c4cd85-b375-4132-8f53-93656adb5365","system_id":"levelo_inurba_marseille","lat":43.29304,"lon":5.38499,"is_reserved":false,"is_disabled":true,"rental_uris":{"android":"levelo://app?vid=26c4cd85-b375-4132-8f53-93656adb5365","ios":"levelo://app?vid=26c4cd85-b375-4132-8f53-93656adb5365"},"vehicle_type_id":"4","last_reported":1746850280,"current_range_meters":14800,"station_id":"","pricing_plan_id":"cebpf4jnsgd1na2vs0mg"},{"bike_id":"9a919805-a5a4-497f-a929-c9e08814771d","system_id":"levelo_inurba_marseille","lat":43.28008,"lon":5.41678,"is_reserved":false,"is_disabled":true,"rental_uris":{"android":"levelo://app?vid=9a919805-a5a4-497f-a929-c9e08814771d","ios":"levelo://app?vid=9a919805-a5a4-497f-a929-c9e08814771d"},"vehicle_type_id":"4","last_reported":1746850280,"current_range_meters":14800,"station_id":"ce4bho12rcd13ifvqh1g","pricing_plan_id":"cebpf4jnsgd1na2vs0mg"},{"bike_id":"168f826e-1c62-47a9-a8b5-8c2228dbddb8","system_id":"levelo_inurba_marseille","lat":43.3026,"lon":5.38951,"is_reserved":false,"is_disabled":true,"rental_uris":{"android":"levelo://app?vid=168f826e-1c62-47a9-a8b5-8c2228dbddb8","ios":"levelo://app?vid=168f826e-1c62-47a9-a8b5-8c2228dbddb8"},"vehicle_type_id":"4","last_reported":1746850280,"current_range_meters":14800,"station_id":"","pricing_plan_id":"cebpf4jnsgd1na2vs0mg"},{"bike_id":"3cd77577-8cb3-4614-a6d8-4f08f07e2c60","system_id":"levelo_inurba_marseille","lat":43.25137,"lon":5.40339,"is_reserved":false,"is_disabled":false,"rental_uris":{"android":"levelo://app?vid=3cd77577-8cb3-4614-a6d8-4f08f07e2c60","ios":"levelo://app?vid=3cd77577-8cb3-4614-a6d8-4f08f07e2c60"},"vehicle_type_id":"4","last_reported":1746850280,"current_range_meters":14800,"station_id":"ce4bhlh2rcd13ifvqgig","pricing_plan_id":"cebpf4jnsgd1na2vs0mg"},{"bike_id":"b1d4e23e-9ea7-4797-9e3c-e5c521c0db1f","system_id":"levelo_inurba_marseille","lat":43.290233,"lon":5.381282,"is_reserved":false,"is_disabled":false,"rental_uris":{"android":"levelo://app?vid=b1d4e23e-9ea7-4797-9e3c-e5c521c0db1f","ios":"levelo://app?vid=b1d4e23e-9ea7-4797-9e3c-e5c521c0db1f"},"vehicle_type_id":"4","last_reported":1746850280,"current_range_meters":14800,"station_id":"ce4bh4p2rcd13ifvqe1g","pricing_plan_id":"cebpf4jnsgd1na2vs0mg"},{"bike_id":"cb6e829e-08a2-4265-8b55-6bb7beaff204","system_id":"levelo_inurba_marseille","lat":43.22929,"lon":5.35381,"is_reserved":false,"is_disabled":false,"rental_uris":{"android":"levelo://app?vid=cb6e829e-08a2-4265-8b55-6bb7beaff204","ios":"levelo://app?vid=cb6e829e-08a2-4265-8b55-6bb7beaff204"},"vehicle_type_id":"4","last_reported":1746850280,"current_range_meters":15200,"station_id":"cpo3532slgdg3j2ikp40","pricing_plan_id":"cebpf4jnsgd1na2vs0mg"},{"bike_id":"55fada9f-9015-4dd1-bfb4-be767a27b242","system_id":"levelo_inurba_marseille","lat":43.2793,"lon":5.39573,"is_reserved":false,"is_disabled":true,"rental_uris":{"android":"levelo://app?vid=55fada9f-9015-4dd1-bfb4-be767a27b242","ios":"levelo://app?vid=55fada9f-9015-4dd1-bfb4-be767a27b242"},"vehicle_type_id":"4","last_reported":1746850280,"current_range_meters":15200,"station_id":"ce4bhf92rcd13ifvqf40","pricing_plan_id":"cebpf4jnsgd1na2vs0mg"},{"bike_id":"db8e9453-3d9e-43c6-9459-be7e83be27dd","system_id":"levelo_inurba_marseille","lat":43.258676,"lon":5.399001,"is_reserved":false,"is_disabled":false,"rental_uris":{"android":"levelo://app?vid=db8e9453-3d9e-43c6-9459-be7e83be27dd","ios":"levelo://app?vid=db8e9453-3d9e-43c6-9459-be7e83be27dd"},"vehicle_type_id":"4","last_reported":1746850280,"current_range_meters":15200,"station_id":"ce4bhl92rcd13ifvqghg","pricing_plan_id":"cebpf4jnsgd1na2vs0mg"},{"bike_id":"8f9d4669-d074-4efa-8694-8228e9cdc03b","system_id":"levelo_inurba_marseille","lat":43.30183,"lon":5.36642,"is_reserved":false,"is_disabled":false,"rental_uris":{"android":"levelo://app?vid=8f9d4669-d074-4efa-8694-8228e9cdc03b","ios":"levelo://app?vid=8f9d4669-d074-4efa-8694-8228e9cdc03b"},"vehicle_type_id":"4","last_reported":1746850280,"current_range_meters":15200,"station_id":"ce4bgrh2rcd13ifvqc8g","pricing_plan_id":"cebpf4jnsgd1na2vs0mg"},{"bike_id":"6f5054d8-0d2f-4e30-abf2-f4d9a3bf9f6a","system_id":"levelo_inurba_marseille","lat":43.30422,"lon":5.39754,"is_reserved":false,"is_disabled":false,"rental_uris":{"android":"levelo://app?vid=6f5054d8-0d2f-4e30-abf2-f4d9a3bf9f6a","ios":"levelo://app?vid=6f5054d8-0d2f-4e30-abf2-f4d9a3bf9f6a"},"vehicle_type_id":"4","last_reported":1746850280,"current_range_meters":15200,"station_id":"ce4bh092rcd13ifvqd20","pricing_plan_id":"cebpf4jnsgd1na2vs0mg"},{"bike_id":"98cfe22b-40e2-47d9-9417-af992af33c88","system_id":"levelo_inurba_marseille","lat":43.2846,"lon":5.35875,"is_reserved":false,"is_disabled":true,"rental_uris":{"android":"levelo://app?vid=98cfe22b-40e2-47d9-9417-af992af33c88","ios":"levelo://app?vid=98cfe22b-40e2-47d9-9417-af992af33c88"},"vehicle_type_id":"4","last_reported":1746850280,"current_range_meters":16000,"station_id":"ce4bhah2rcd13ifvqei0","pricing_plan_id":"cebpf4jnsgd1na2vs0mg"},{"bike_id":"5bee1775-528f-49e6-9c3e-19f7744c053e","system_id":"levelo_inurba_marseille","lat":43.279955,"lon":5.416667,"is_reserved":false,"is_disabled":false,"rental_uris":{"android":"levelo://app?vid=5bee1775-528f-49e6-9c3e-19f7744c053e","ios":"levelo://app?vid=5bee1775-528f-49e6-9c3e-19f7744c053e"},"vehicle_type_id":"4","last_reported":1746850280,"current_range_meters":16000,"station_id":"ce4bho12rcd13ifvqh1g","pricing_plan_id":"cebpf4jnsgd1na2vs0mg"},{"bike_id":"8c47b513-4733-46b0-8673-fa4cd8f10394","system_id":"levelo_inurba_marseille","lat":43.292464,"lon":5.384527,"is_reserved":false,"is_disabled":true,"rental_uris":{"android":"levelo://app?vid=8c47b513-4733-46b0-8673-fa4cd8f10394","ios":"levelo://app?vid=8c47b513-4733-46b0-8673-fa4cd8f10394"},"vehicle_type_id":"4","last_reported":1746850280,"current_range_meters":16000,"station_id":"ce4bh692rcd13ifvqea0","pricing_plan_id":"cebpf4jnsgd1na2vs0mg"},{"bike_id":"7ecc12d3-6f37-4307-a7ab-aee9bdf517f5","system_id":"levelo_inurba_marseille","lat":43.26674,"lon":5.382756,"is_reserved":false,"is_disabled":false,"rental_uris":{"android":"levelo://app?vid=7ecc12d3-6f37-4307-a7ab-aee9bdf517f5","ios":"levelo://app?vid=7ecc12d3-6f37-4307-a7ab-aee9bdf517f5"},"vehicle_type_id":"4","last_reported":1746850280,"current_range_meters":16000,"station_id":"ce4bhg92rcd13ifvqf90","pricing_plan_id":"cebpf4jnsgd1na2vs0mg"},{"bike_id":"8dfe763f-2b56-4348-b766-788076babf15","system_id":"levelo_inurba_marseille","lat":43.30789,"lon":5.376505,"is_reserved":false,"is_disabled":false,"rental_uris":{"android":"levelo://app?vid=8dfe763f-2b56-4348-b766-788076babf15","ios":"levelo://app?vid=8dfe763f-2b56-4348-b766-788076babf15"},"vehicle_type_id":"4","last_reported":1746850280,"current_range_meters":16400,"station_id":"ce4bgv92rcd13ifvqcq0","pricing_plan_id":"cebpf4jnsgd1na2vs0mg"},{"bike_id":"fc2577e7-1497-425b-9d4f-ab8d7dc843c6","system_id":"levelo_inurba_marseille","lat":43.33771,"lon":5.37485,"is_reserved":false,"is_disabled":false,"rental_uris":{"android":"levelo://app?vid=fc2577e7-1497-425b-9d4f-ab8d7dc843c6","ios":"levelo://app?vid=fc2577e7-1497-425b-9d4f-ab8d7dc843c6"},"vehicle_type_id":"4","last_reported":1746850280,"current_range_meters":16400,"station_id":"","pricing_plan_id":"cebpf4jnsgd1na2vs0mg"},{"bike_id":"988217a7-40cc-4175-99a8-3abc98dd942c","system_id":"levelo_inurba_marseille","lat":43.240754,"lon":5.377606,"is_reserved":false,"is_disabled":false,"rental_uris":{"android":"levelo://app?vid=988217a7-40cc-4175-99a8-3abc98dd942c","ios":"levelo://app?vid=988217a7-40cc-4175-99a8-3abc98dd942c"},"vehicle_type_id":"4","last_reported":1746850280,"current_range_meters":16400,"station_id":"ce4bhnp2rcd13ifvqgvg","pricing_plan_id":"cebpf4jnsgd1na2vs0mg"},{"bike_id":"38e610a7-656d-4ba9-b1f2-edbf5644bb20","system_id":"levelo_inurba_marseille","lat":43.2465,"lon":5.38891,"is_reserved":false,"is_disabled":false,"rental_uris":{"android":"levelo://app?vid=38e610a7-656d-4ba9-b1f2-edbf5644bb20","ios":"levelo://app?vid=38e610a7-656d-4ba9-b1f2-edbf5644bb20"},"vehicle_type_id":"4","last_reported":1746850280,"current_range_meters":16400,"station_id":"ce4bhg12rcd13ifvqf60","pricing_plan_id":"cebpf4jnsgd1na2vs0mg"},{"bike_id":"2f8e0164-5503-45bb-aa74-76a2b798881d","system_id":"levelo_inurba_marseille","lat":43.279789,"lon":5.416562,"is_reserved":false,"is_disabled":false,"rental_uris":{"android":"levelo://app?vid=2f8e0164-5503-45bb-aa74-76a2b798881d","ios":"levelo://app?vid=2f8e0164-5503-45bb-aa74-76a2b798881d"},"vehicle_type_id":"4","last_reported":1746850280,"current_range_meters":16400,"station_id":"ce4bho12rcd13ifvqh1g","pricing_plan_id":"cebpf4jnsgd1na2vs0mg"},{"bike_id":"ece07e30-e520-4b99-bf83-e9b15b3a6b3f","system_id":"levelo_inurba_marseille","lat":43.28726,"lon":5.36081,"is_reserved":false,"is_disabled":false,"rental_uris":{"android":"levelo://app?vid=ece07e30-e520-4b99-bf83-e9b15b3a6b3f","ios":"levelo://app?vid=ece07e30-e520-4b99-bf83-e9b15b3a6b3f"},"vehicle_type_id":"4","last_reported":1746850280,"current_range_meters":16400,"station_id":"cki0cbj6b192h4jlfktg","pricing_plan_id":"cebpf4jnsgd1na2vs0mg"},{"bike_id":"8b922ca6-4c4c-4cce-b120-dfd10f864eda","system_id":"levelo_inurba_marseille","lat":43.296064,"lon":5.381008,"is_reserved":false,"is_disabled":true,"rental_uris":{"android":"levelo://app?vid=8b922ca6-4c4c-4cce-b120-dfd10f864eda","ios":"levelo://app?vid=8b922ca6-4c4c-4cce-b120-dfd10f864eda"},"vehicle_type_id":"4","last_reported":1746850280,"current_range_meters":16400,"station_id":"ce4bgl12rcd13ifvqbo0","pricing_plan_id":"cebpf4jnsgd1na2vs0mg"},{"bike_id":"545e5687-b7df-4883-81be-75a8925d5f91","system_id":"levelo_inurba_marseille","lat":43.337444,"lon":5.374475,"is_reserved":false,"is_disabled":false,"rental_uris":{"android":"levelo://app?vid=545e5687-b7df-4883-81be-75a8925d5f91","ios":"levelo://app?vid=545e5687-b7df-4883-81be-75a8925d5f91"},"vehicle_type_id":"4","last_reported":1746850280,"current_range_meters":16400,"station_id":"","pricing_plan_id":"cebpf4jnsgd1na2vs0mg"},{"bike_id":"94cd8564-a06e-4cc5-88d9-996fbf8639fe","system_id":"levelo_inurba_marseille","lat":43.217494,"lon":5.346099,"is_reserved":false,"is_disabled":true,"rental_uris":{"android":"levelo://app?vid=94cd8564-a06e-4cc5-88d9-996fbf8639fe","ios":"levelo://app?vid=94cd8564-a06e-4cc5-88d9-996fbf8639fe"},"vehicle_type_id":"4","last_reported":1746850280,"current_range_meters":16800,"station_id":"st_cvj6r9ubvosntc0bgbag","pricing_plan_id":"cebpf4jnsgd1na2vs0mg"},{"bike_id":"fce1d58d-c8c5-4965-9df0-f61c625d348f","system_id":"levelo_inurba_marseille","lat":43.30399,"lon":5.3978,"is_reserved":false,"is_disabled":false,"rental_uris":{"android":"levelo://app?vid=fce1d58d-c8c5-4965-9df0-f61c625d348f","ios":"levelo://app?vid=fce1d58d-c8c5-4965-9df0-f61c625d348f"},"vehicle_type_id":"4","last_reported":1746850280,"current_range_meters":16800,"station_id":"ce4bh092rcd13ifvqd20","pricing_plan_id":"cebpf4jnsgd1na2vs0mg"},{"bike_id":"11806c3e-8031-4fac-a6fb-0aa38e290417","system_id":"levelo_inurba_marseille","lat":43.25718,"lon":5.41115,"is_reserved":false,"is_disabled":false,"rental_uris":{"android":"levelo://app?vid=11806c3e-8031-4fac-a6fb-0aa38e290417","ios":"levelo://app?vid=11806c3e-8031-4fac-a6fb-0aa38e290417"},"vehicle_type_id":"4","last_reported":1746850280,"current_range_meters":16800,"station_id":"ce4bhkp2rcd13ifvqgd0","pricing_plan_id":"cebpf4jnsgd1na2vs0mg"},{"bike_id":"66d39f5f-1aac-423b-9ea7-bf9c1b0e5079","system_id":"levelo_inurba_marseille","lat":43.27503,"lon":5.41124,"is_reserved":false,"is_disabled":false,"rental_uris":{"android":"levelo://app?vid=66d39f5f-1aac-423b-9ea7-bf9c1b0e5079","ios":"levelo://app?vid=66d39f5f-1aac-423b-9ea7-bf9c1b0e5079"},"vehicle_type_id":"4","last_reported":1746850280,"current_range_meters":16800,"station_id":"","pricing_plan_id":"cebpf4jnsgd1na2vs0mg"},{"bike_id":"32b96bd4-7617-4aa8-a6cf-1b9e247a6ce6","system_id":"levelo_inurba_marseille","lat":43.310724,"lon":5.424416,"is_reserved":false,"is_disabled":false,"rental_uris":{"android":"levelo://app?vid=32b96bd4-7617-4aa8-a6cf-1b9e247a6ce6","ios":"levelo://app?vid=32b96bd4-7617-4aa8-a6cf-1b9e247a6ce6"},"vehicle_type_id":"4","last_reported":1746850280,"current_range_meters":17200,"station_id":"ce4bhp92rcd13ifvqhag","pricing_plan_id":"cebpf4jnsgd1na2vs0mg"},{"bike_id":"88b4ef2c-f4ed-48f7-a133-cbb2044cda79","system_id":"levelo_inurba_marseille","lat":43.27911,"lon":5.39581,"is_reserved":false,"is_disabled":false,"rental_uris":{"android":"levelo://app?vid=88b4ef2c-f4ed-48f7-a133-cbb2044cda79","ios":"levelo://app?vid=88b4ef2c-f4ed-48f7-a133-cbb2044cda79"},"vehicle_type_id":"4","last_reported":1746850280,"current_range_meters":17200,"station_id":"ce4bhf92rcd13ifvqf40","pricing_plan_id":"cebpf4jnsgd1na2vs0mg"},{"bike_id":"25bd9db4-b151-496c-ba5d-8dcff47fadbf","system_id":"levelo_inurba_marseille","lat":43.319661,"lon":5.370881,"is_reserved":false,"is_disabled":false,"rental_uris":{"android":"levelo://app?vid=25bd9db4-b151-496c-ba5d-8dcff47fadbf","ios":"levelo://app?vid=25bd9db4-b151-496c-ba5d-8dcff47fadbf"},"vehicle_type_id":"4","last_reported":1746850280,"current_range_meters":17200,"station_id":"","pricing_plan_id":"cebpf4jnsgd1na2vs0mg"},{"bike_id":"796ef36e-55a7-4cb9-844d-596a7e2f3fa6","system_id":"levelo_inurba_marseille","lat":43.28394,"lon":5.36465,"is_reserved":false,"is_disabled":false,"rental_uris":{"android":"levelo://app?vid=796ef36e-55a7-4cb9-844d-596a7e2f3fa6","ios":"levelo://app?vid=796ef36e-55a7-4cb9-844d-596a7e2f3fa6"},"vehicle_type_id":"4","last_reported":1746850280,"current_range_meters":17200,"station_id":"","pricing_plan_id":"cebpf4jnsgd1na2vs0mg"},{"bike_id":"8af4b88d-091f-4883-a950-3e14de86d879","system_id":"levelo_inurba_marseille","lat":43.3172,"lon":5.4043,"is_reserved":false,"is_disabled":false,"rental_uris":{"android":"levelo://app?vid=8af4b88d-091f-4883-a950-3e14de86d879","ios":"levelo://app?vid=8af4b88d-091f-4883-a950-3e14de86d879"},"vehicle_type_id":"4","last_reported":1746850280,"current_range_meters":17200,"station_id":"ce4bh012rcd13ifvqd00","pricing_plan_id":"cebpf4jnsgd1na2vs0mg"},{"bike_id":"efde3cce-1ef5-4c96-ba49-a9ebb87ea882","system_id":"levelo_inurba_marseille","lat":43.292808,"lon":5.40134,"is_reserved":false,"is_disabled":false,"rental_uris":{"android":"levelo://app?vid=efde3cce-1ef5-4c96-ba49-a9ebb87ea882","ios":"levelo://app?vid=efde3cce-1ef5-4c96-ba49-a9ebb87ea882"},"vehicle_type_id":"4","last_reported":1746850280,"current_range_meters":17200,"station_id":"ce4bh312rcd13ifvqdk0","pricing_plan_id":"cebpf4jnsgd1na2vs0mg"},{"bike_id":"611984cb-882a-46b7-8fab-e6350303c611","system_id":"levelo_inurba_marseille","lat":43.24163,"lon":5.36393,"is_reserved":false,"is_disabled":false,"rental_uris":{"android":"levelo://app?vid=611984cb-882a-46b7-8fab-e6350303c611","ios":"levelo://app?vid=611984cb-882a-46b7-8fab-e6350303c611"},"vehicle_type_id":"4","last_reported":1746850280,"current_range_meters":17600,"station_id":"cpo36qri1sfpv3e86is0","pricing_plan_id":"cebpf4jnsgd1na2vs0mg"},{"bike_id":"34fb3a5b-cc5c-48bc-9ccd-5e13c4a43395","system_id":"levelo_inurba_marseille","lat":43.325677,"lon":5.391101,"is_reserved":false,"is_disabled":false,"rental_uris":{"android":"levelo://app?vid=34fb3a5b-cc5c-48bc-9ccd-5e13c4a43395","ios":"levelo://app?vid=34fb3a5b-cc5c-48bc-9ccd-5e13c4a43395"},"vehicle_type_id":"4","last_reported":1746850280,"current_range_meters":17600,"station_id":"","pricing_plan_id":"cebpf4jnsgd1na2vs0mg"},{"bike_id":"5cab8d09-0439-4dcf-8b6c-b4bfbff12d0b","system_id":"levelo_inurba_marseille","lat":43.319971,"lon":5.381514,"is_reserved":false,"is_disabled":true,"rental_uris":{"android":"levelo://app?vid=5cab8d09-0439-4dcf-8b6c-b4bfbff12d0b","ios":"levelo://app?vid=5cab8d09-0439-4dcf-8b6c-b4bfbff12d0b"},"vehicle_type_id":"4","last_reported":1746850280,"current_range_meters":18000,"station_id":"ce4bhr12rcd13ifvqhpg","pricing_plan_id":"cebpf4jnsgd1na2vs0mg"},{"bike_id":"a1121b36-b5cd-4dda-96ef-13a3dfaa55e1","system_id":"levelo_inurba_marseille","lat":43.301401,"lon":5.387791,"is_reserved":false,"is_disabled":false,"rental_uris":{"android":"levelo://app?vid=a1121b36-b5cd-4dda-96ef-13a3dfaa55e1","ios":"levelo://app?vid=a1121b36-b5cd-4dda-96ef-13a3dfaa55e1"},"vehicle_type_id":"4","last_reported":1746850280,"current_range_meters":18000,"station_id":"","pricing_plan_id":"cebpf4jnsgd1na2vs0mg"},{"bike_id":"462336e2-a4e8-4882-be35-4ed6969a7cd6","system_id":"levelo_inurba_marseille","lat":43.29927,"lon":5.38647,"is_reserved":false,"is_disabled":false,"rental_uris":{"android":"levelo://app?vid=462336e2-a4e8-4882-be35-4ed6969a7cd6","ios":"levelo://app?vid=462336e2-a4e8-4882-be35-4ed6969a7cd6"},"vehicle_type_id":"4","last_reported":1746850280,"current_range_meters":18000,"station_id":"","pricing_plan_id":"cebpf4jnsgd1na2vs0mg"},{"bike_id":"50f5e02d-7e3d-4bd6-8a5e-360e84f51370","system_id":"levelo_inurba_marseille","lat":43.251291,"lon":5.40325,"is_reserved":false,"is_disabled":false,"rental_uris":{"android":"levelo://app?vid=50f5e02d-7e3d-4bd6-8a5e-360e84f51370","ios":"levelo://app?vid=50f5e02d-7e3d-4bd6-8a5e-360e84f51370"},"vehicle_type_id":"4","last_reported":1746850280,"current_range_meters":18000,"station_id":"ce4bhlh2rcd13ifvqgig","pricing_plan_id":"cebpf4jnsgd1na2vs0mg"},{"bike_id":"971e8964-f5fa-4560-932b-c14bfa11569b","system_id":"levelo_inurba_marseille","lat":43.241833,"lon":5.397604,"is_reserved":false,"is_disabled":false,"rental_uris":{"android":"levelo://app?vid=971e8964-f5fa-4560-932b-c14bfa11569b","ios":"levelo://app?vid=971e8964-f5fa-4560-932b-c14bfa11569b"},"vehicle_type_id":"4","last_reported":1746850280,"current_range_meters":18000,"station_id":"ce4bhlp2rcd13ifvqgjg","pricing_plan_id":"cebpf4jnsgd1na2vs0mg"},{"bike_id":"f34a79fb-9a2a-4d46-9bae-b3621d640434","system_id":"levelo_inurba_marseille","lat":43.310776,"lon":5.424319,"is_reserved":false,"is_disabled":true,"rental_uris":{"android":"levelo://app?vid=f34a79fb-9a2a-4d46-9bae-b3621d640434","ios":"levelo://app?vid=f34a79fb-9a2a-4d46-9bae-b3621d640434"},"vehicle_type_id":"4","last_reported":1746850280,"current_range_meters":18000,"station_id":"ce4bhp92rcd13ifvqhag","pricing_plan_id":"cebpf4jnsgd1na2vs0mg"},{"bike_id":"e5f9e08b-c7e4-484f-8cb5-f829be2d4c56","system_id":"levelo_inurba_marseille","lat":43.297284,"lon":5.383585,"is_reserved":false,"is_disabled":false,"rental_uris":{"android":"levelo://app?vid=e5f9e08b-c7e4-484f-8cb5-f829be2d4c56","ios":"levelo://app?vid=e5f9e08b-c7e4-484f-8cb5-f829be2d4c56"},"vehicle_type_id":"4","last_reported":1746850280,"current_range_meters":18000,"station_id":"","pricing_plan_id":"cebpf4jnsgd1na2vs0mg"},{"bike_id":"6add2d36-61c6-46c1-a56e-696306c1bd19","system_id":"levelo_inurba_marseille","lat":43.233657,"lon":5.36066,"is_reserved":false,"is_disabled":false,"rental_uris":{"android":"levelo://app?vid=6add2d36-61c6-46c1-a56e-696306c1bd19","ios":"levelo://app?vid=6add2d36-61c6-46c1-a56e-696306c1bd19"},"vehicle_type_id":"4","last_reported":1746850280,"current_range_meters":18000,"station_id":"","pricing_plan_id":"cebpf4jnsgd1na2vs0mg"},{"bike_id":"11bac9a6-0e04-4c68-9615-f13539342864","system_id":"levelo_inurba_marseille","lat":43.21214,"lon":5.35083,"is_reserved":false,"is_disabled":false,"rental_uris":{"android":"levelo://app?vid=11bac9a6-0e04-4c68-9615-f13539342864","ios":"levelo://app?vid=11bac9a6-0e04-4c68-9615-f13539342864"},"vehicle_type_id":"4","last_reported":1746850280,"current_range_meters":18800,"station_id":"st_cvj6sg6p6f1abm77japg","pricing_plan_id":"cebpf4jnsgd1na2vs0mg"},{"bike_id":"ba4e9974-425a-44fd-a865-c9aa7b778e1c","system_id":"levelo_inurba_marseille","lat":43.31763,"lon":5.39014,"is_reserved":false,"is_disabled":false,"rental_uris":{"android":"levelo://app?vid=ba4e9974-425a-44fd-a865-c9aa7b778e1c","ios":"levelo://app?vid=ba4e9974-425a-44fd-a865-c9aa7b778e1c"},"vehicle_type_id":"4","last_reported":1746850280,"current_range_meters":18800,"station_id":"ce4bhqp2rcd13ifvqhng","pricing_plan_id":"cebpf4jnsgd1na2vs0mg"},{"bike_id":"0c27b168-2cea-4587-9946-d868040ddb30","system_id":"levelo_inurba_marseille","lat":43.307881,"lon":5.376477,"is_reserved":false,"is_disabled":false,"rental_uris":{"android":"levelo://app?vid=0c27b168-2cea-4587-9946-d868040ddb30","ios":"levelo://app?vid=0c27b168-2cea-4587-9946-d868040ddb30"},"vehicle_type_id":"4","last_reported":1746850280,"current_range_meters":18800,"station_id":"ce4bgv92rcd13ifvqcq0","pricing_plan_id":"cebpf4jnsgd1na2vs0mg"},{"bike_id":"0fb6b147-e9a8-4345-a220-93d47a47a517","system_id":"levelo_inurba_marseille","lat":43.22932,"lon":5.353861,"is_reserved":false,"is_disabled":false,"rental_uris":{"android":"levelo://app?vid=0fb6b147-e9a8-4345-a220-93d47a47a517","ios":"levelo://app?vid=0fb6b147-e9a8-4345-a220-93d47a47a517"},"vehicle_type_id":"4","last_reported":1746850280,"current_range_meters":18800,"station_id":"cpo3532slgdg3j2ikp40","pricing_plan_id":"cebpf4jnsgd1na2vs0mg"},{"bike_id":"adad1c39-0cfd-4e36-9a00-8017416df03c","system_id":"levelo_inurba_marseille","lat":43.34028,"lon":5.37511,"is_reserved":false,"is_disabled":false,"rental_uris":{"android":"levelo://app?vid=adad1c39-0cfd-4e36-9a00-8017416df03c","ios":"levelo://app?vid=adad1c39-0cfd-4e36-9a00-8017416df03c"},"vehicle_type_id":"4","last_reported":1746850280,"current_range_meters":18800,"station_id":"","pricing_plan_id":"cebpf4jnsgd1na2vs0mg"},{"bike_id":"7b0b7ba7-66fa-4536-8d2a-ed7181614079","system_id":"levelo_inurba_marseille","lat":43.30404,"lon":5.42508,"is_reserved":false,"is_disabled":false,"rental_uris":{"android":"levelo://app?vid=7b0b7ba7-66fa-4536-8d2a-ed7181614079","ios":"levelo://app?vid=7b0b7ba7-66fa-4536-8d2a-ed7181614079"},"vehicle_type_id":"4","last_reported":1746850280,"current_range_meters":18800,"station_id":"ce4bhoh2rcd13ifvqh6g","pricing_plan_id":"cebpf4jnsgd1na2vs0mg"},{"bike_id":"f44042ec-2f55-46a8-ac37-47677a64d341","system_id":"levelo_inurba_marseille","lat":43.30025,"lon":5.38494,"is_reserved":false,"is_disabled":false,"rental_uris":{"android":"levelo://app?vid=f44042ec-2f55-46a8-ac37-47677a64d341","ios":"levelo://app?vid=f44042ec-2f55-46a8-ac37-47677a64d341"},"vehicle_type_id":"4","last_reported":1746850280,"current_range_meters":19200,"station_id":"","pricing_plan_id":"cebpf4jnsgd1na2vs0mg"},{"bike_id":"d415e7e2-f909-4c4f-94d7-56d33e682e41","system_id":"levelo_inurba_marseille","lat":43.243886,"lon":5.370658,"is_reserved":false,"is_disabled":true,"rental_uris":{"android":"levelo://app?vid=d415e7e2-f909-4c4f-94d7-56d33e682e41","ios":"levelo://app?vid=d415e7e2-f909-4c4f-94d7-56d33e682e41"},"vehicle_type_id":"4","last_reported":1746850280,"current_range_meters":19200,"station_id":"ce4bhhh2rcd13ifvqfk0","pricing_plan_id":"cebpf4jnsgd1na2vs0mg"},{"bike_id":"75883efe-5868-4bdc-9fcc-13fa3c2bf947","system_id":"levelo_inurba_marseille","lat":43.29262,"lon":5.40911,"is_reserved":false,"is_disabled":false,"rental_uris":{"android":"levelo://app?vid=75883efe-5868-4bdc-9fcc-13fa3c2bf947","ios":"levelo://app?vid=75883efe-5868-4bdc-9fcc-13fa3c2bf947"},"vehicle_type_id":"4","last_reported":1746850280,"current_range_meters":19600,"station_id":"ce4bh192rcd13ifvqdc0","pricing_plan_id":"cebpf4jnsgd1na2vs0mg"},{"bike_id":"1fc00dbb-fc6e-4e8f-a09d-16a53b350d47","system_id":"levelo_inurba_marseille","lat":43.286686,"lon":5.363428,"is_reserved":false,"is_disabled":false,"rental_uris":{"android":"levelo://app?vid=1fc00dbb-fc6e-4e8f-a09d-16a53b350d47","ios":"levelo://app?vid=1fc00dbb-fc6e-4e8f-a09d-16a53b350d47"},"vehicle_type_id":"4","last_reported":1746850280,"current_range_meters":19600,"station_id":"ce4bhah2rcd13ifvqej0","pricing_plan_id":"cebpf4jnsgd1na2vs0mg"},{"bike_id":"81230072-1366-4a6c-a593-e76d887facbc","system_id":"levelo_inurba_marseille","lat":43.22931,"lon":5.35376,"is_reserved":false,"is_disabled":false,"rental_uris":{"android":"levelo://app?vid=81230072-1366-4a6c-a593-e76d887facbc","ios":"levelo://app?vid=81230072-1366-4a6c-a593-e76d887facbc"},"vehicle_type_id":"4","last_reported":1746850280,"current_range_meters":19600,"station_id":"cpo3532slgdg3j2ikp40","pricing_plan_id":"cebpf4jnsgd1na2vs0mg"},{"bike_id":"f58eec52-5dd6-4be6-a958-c75365514b5d","system_id":"levelo_inurba_marseille","lat":43.3127,"lon":5.4017,"is_reserved":false,"is_disabled":false,"rental_uris":{"android":"levelo://app?vid=f58eec52-5dd6-4be6-a958-c75365514b5d","ios":"levelo://app?vid=f58eec52-5dd6-4be6-a958-c75365514b5d"},"vehicle_type_id":"4","last_reported":1746850280,"current_range_meters":19600,"station_id":"ce4bh092rcd13ifvqd30","pricing_plan_id":"cebpf4jnsgd1na2vs0mg"},{"bike_id":"e9fdf985-c0fd-4c0d-8a74-98cbf170e607","system_id":"levelo_inurba_marseille","lat":43.24674,"lon":5.38169,"is_reserved":false,"is_disabled":false,"rental_uris":{"android":"levelo://app?vid=e9fdf985-c0fd-4c0d-8a74-98cbf170e607","ios":"levelo://app?vid=e9fdf985-c0fd-4c0d-8a74-98cbf170e607"},"vehicle_type_id":"4","last_reported":1746850280,"current_range_meters":19600,"station_id":"ce4bhih2rcd13ifvqfr0","pricing_plan_id":"cebpf4jnsgd1na2vs0mg"},{"bike_id":"3c26790a-9be3-4895-82e4-70cc0f28ea60","system_id":"levelo_inurba_marseille","lat":43.24176,"lon":5.39742,"is_reserved":false,"is_disabled":false,"rental_uris":{"android":"levelo://app?vid=3c26790a-9be3-4895-82e4-70cc0f28ea60","ios":"levelo://app?vid=3c26790a-9be3-4895-82e4-70cc0f28ea60"},"vehicle_type_id":"4","last_reported":1746850280,"current_range_meters":20000,"station_id":"ce4bhn12rcd13ifvqgpg","pricing_plan_id":"cebpf4jnsgd1na2vs0mg"},{"bike_id":"01bb24e5-e3bb-4c0f-94bb-9f03c61dae9a","system_id":"levelo_inurba_marseille","lat":43.24072,"lon":5.37765,"is_reserved":false,"is_disabled":false,"rental_uris":{"android":"levelo://app?vid=01bb24e5-e3bb-4c0f-94bb-9f03c61dae9a","ios":"levelo://app?vid=01bb24e5-e3bb-4c0f-94bb-9f03c61dae9a"},"vehicle_type_id":"4","last_reported":1746850280,"current_range_meters":20000,"station_id":"ce4bhnp2rcd13ifvqgvg","pricing_plan_id":"cebpf4jnsgd1na2vs0mg"},{"bike_id":"bb1c07e6-4866-4bad-a06f-306ce6882d9f","system_id":"levelo_inurba_marseille","lat":43.307829,"lon":5.376514,"is_reserved":false,"is_disabled":false,"rental_uris":{"android":"levelo://app?vid=bb1c07e6-4866-4bad-a06f-306ce6882d9f","ios":"levelo://app?vid=bb1c07e6-4866-4bad-a06f-306ce6882d9f"},"vehicle_type_id":"4","last_reported":1746850280,"current_range_meters":20000,"station_id":"ce4bgv92rcd13ifvqcq0","pricing_plan_id":"cebpf4jnsgd1na2vs0mg"},{"bike_id":"eeae9a2f-bc9a-4394-bca2-cff4e58e46b3","system_id":"levelo_inurba_marseille","lat":43.295925,"lon":5.381036,"is_reserved":false,"is_disabled":true,"rental_uris":{"android":"levelo://app?vid=eeae9a2f-bc9a-4394-bca2-cff4e58e46b3","ios":"levelo://app?vid=eeae9a2f-bc9a-4394-bca2-cff4e58e46b3"},"vehicle_type_id":"4","last_reported":1746850280,"current_range_meters":20000,"station_id":"ce4bgl12rcd13ifvqbo0","pricing_plan_id":"cebpf4jnsgd1na2vs0mg"},{"bike_id":"f0c1a107-9442-4216-902f-1e51cc714f9f","system_id":"levelo_inurba_marseille","lat":43.251152,"lon":5.403108,"is_reserved":false,"is_disabled":false,"rental_uris":{"android":"levelo://app?vid=f0c1a107-9442-4216-902f-1e51cc714f9f","ios":"levelo://app?vid=f0c1a107-9442-4216-902f-1e51cc714f9f"},"vehicle_type_id":"4","last_reported":1746850280,"current_range_meters":20400,"station_id":"ce4bhlh2rcd13ifvqgig","pricing_plan_id":"cebpf4jnsgd1na2vs0mg"},{"bike_id":"bec06455-6dee-416c-b480-532d3476f6f8","system_id":"levelo_inurba_marseille","lat":43.30602,"lon":5.37212,"is_reserved":false,"is_disabled":false,"rental_uris":{"android":"levelo://app?vid=bec06455-6dee-416c-b480-532d3476f6f8","ios":"levelo://app?vid=bec06455-6dee-416c-b480-532d3476f6f8"},"vehicle_type_id":"4","last_reported":1746850280,"current_range_meters":20400,"station_id":"ce4bgqh2rcd13ifvqc4g","pricing_plan_id":"cebpf4jnsgd1na2vs0mg"},{"bike_id":"515bc5ff-f271-40b1-9012-e36973989db0","system_id":"levelo_inurba_marseille","lat":43.31535,"lon":5.38032,"is_reserved":false,"is_disabled":false,"rental_uris":{"android":"levelo://app?vid=515bc5ff-f271-40b1-9012-e36973989db0","ios":"levelo://app?vid=515bc5ff-f271-40b1-9012-e36973989db0"},"vehicle_type_id":"4","last_reported":1746850280,"current_range_meters":20800,"station_id":"ce4bhsp2rcd13ifvqi50","pricing_plan_id":"cebpf4jnsgd1na2vs0mg"},{"bike_id":"5d3c2dcf-f5b4-447b-a1c0-575a964ec8c5","system_id":"levelo_inurba_marseille","lat":43.23151,"lon":5.43706,"is_reserved":false,"is_disabled":false,"rental_uris":{"android":"levelo://app?vid=5d3c2dcf-f5b4-447b-a1c0-575a964ec8c5","ios":"levelo://app?vid=5d3c2dcf-f5b4-447b-a1c0-575a964ec8c5"},"vehicle_type_id":"4","last_reported":1746850280,"current_range_meters":20800,"station_id":"ce4bhmp2rcd13ifvqgog","pricing_plan_id":"cebpf4jnsgd1na2vs0mg"},{"bike_id":"8739a945-c04c-4fe3-9291-0e5954d52ff6","system_id":"levelo_inurba_marseille","lat":43.32321,"lon":5.38294,"is_reserved":false,"is_disabled":false,"rental_uris":{"android":"levelo://app?vid=8739a945-c04c-4fe3-9291-0e5954d52ff6","ios":"levelo://app?vid=8739a945-c04c-4fe3-9291-0e5954d52ff6"},"vehicle_type_id":"4","last_reported":1746850280,"current_range_meters":21600,"station_id":"ce4bhr12rcd13ifvqhqg","pricing_plan_id":"cebpf4jnsgd1na2vs0mg"},{"bike_id":"f52c819d-ca4b-4640-b458-b877db1bf990","system_id":"levelo_inurba_marseille","lat":43.29874,"lon":5.41034,"is_reserved":false,"is_disabled":false,"rental_uris":{"android":"levelo://app?vid=f52c819d-ca4b-4640-b458-b877db1bf990","ios":"levelo://app?vid=f52c819d-ca4b-4640-b458-b877db1bf990"},"vehicle_type_id":"4","last_reported":1746850280,"current_range_meters":22000,"station_id":"","pricing_plan_id":"cebpf4jnsgd1na2vs0mg"},{"bike_id":"fdc83f31-3c68-47e3-81c2-8e2befc46029","system_id":"levelo_inurba_marseille","lat":43.28262,"lon":5.350723,"is_reserved":false,"is_disabled":false,"rental_uris":{"android":"levelo://app?vid=fdc83f31-3c68-47e3-81c2-8e2befc46029","ios":"levelo://app?vid=fdc83f31-3c68-47e3-81c2-8e2befc46029"},"vehicle_type_id":"4","last_reported":1746850280,"current_range_meters":22000,"station_id":"ce4bhbp2rcd13ifvqerg","pricing_plan_id":"cebpf4jnsgd1na2vs0mg"},{"bike_id":"e45369ab-7966-474b-b1bd-31fe9872728e","system_id":"levelo_inurba_marseille","lat":43.3057,"lon":5.36536,"is_reserved":false,"is_disabled":true,"rental_uris":{"android":"levelo://app?vid=e45369ab-7966-474b-b1bd-31fe9872728e","ios":"levelo://app?vid=e45369ab-7966-474b-b1bd-31fe9872728e"},"vehicle_type_id":"4","last_reported":1746850280,"current_range_meters":22000,"station_id":"ce4bgs12rcd13ifvqcag","pricing_plan_id":"cebpf4jnsgd1na2vs0mg"},{"bike_id":"a1fd51ca-b321-49a1-823c-2b1617c9714f","system_id":"levelo_inurba_marseille","lat":43.26221,"lon":5.40463,"is_reserved":false,"is_disabled":false,"rental_uris":{"android":"levelo://app?vid=a1fd51ca-b321-49a1-823c-2b1617c9714f","ios":"levelo://app?vid=a1fd51ca-b321-49a1-823c-2b1617c9714f"},"vehicle_type_id":"4","last_reported":1746850280,"current_range_meters":22000,"station_id":"ce4bhmh2rcd13ifvqgmg","pricing_plan_id":"cebpf4jnsgd1na2vs0mg"},{"bike_id":"73ded412-1ade-4c78-acbe-a9afd038932d","system_id":"levelo_inurba_marseille","lat":43.241718,"lon":5.363888,"is_reserved":false,"is_disabled":false,"rental_uris":{"android":"levelo://app?vid=73ded412-1ade-4c78-acbe-a9afd038932d","ios":"levelo://app?vid=73ded412-1ade-4c78-acbe-a9afd038932d"},"vehicle_type_id":"4","last_reported":1746850280,"current_range_meters":22000,"station_id":"cpo36qri1sfpv3e86is0","pricing_plan_id":"cebpf4jnsgd1na2vs0mg"},{"bike_id":"e1b5311f-cf22-4cc5-b4f8-5ad6b6de273b","system_id":"levelo_inurba_marseille","lat":43.321108,"lon":5.367845,"is_reserved":false,"is_disabled":false,"rental_uris":{"android":"levelo://app?vid=e1b5311f-cf22-4cc5-b4f8-5ad6b6de273b","ios":"levelo://app?vid=e1b5311f-cf22-4cc5-b4f8-5ad6b6de273b"},"vehicle_type_id":"4","last_reported":1746850280,"current_range_meters":22000,"station_id":"ce4bhrh2rcd13ifvqhug","pricing_plan_id":"cebpf4jnsgd1na2vs0mg"},{"bike_id":"acc9e613-f3ab-462c-94c6-a13f35416d65","system_id":"levelo_inurba_marseille","lat":43.287301,"lon":5.360831,"is_reserved":false,"is_disabled":false,"rental_uris":{"android":"levelo://app?vid=acc9e613-f3ab-462c-94c6-a13f35416d65","ios":"levelo://app?vid=acc9e613-f3ab-462c-94c6-a13f35416d65"},"vehicle_type_id":"4","last_reported":1746850280,"current_range_meters":22400,"station_id":"cki0cbj6b192h4jlfktg","pricing_plan_id":"cebpf4jnsgd1na2vs0mg"},{"bike_id":"7ef9c380-74be-455d-a6e8-d8f5bf01ceee","system_id":"levelo_inurba_marseille","lat":43.310682,"lon":5.383479,"is_reserved":false,"is_disabled":false,"rental_uris":{"android":"levelo://app?vid=7ef9c380-74be-455d-a6e8-d8f5bf01ceee","ios":"levelo://app?vid=7ef9c380-74be-455d-a6e8-d8f5bf01ceee"},"vehicle_type_id":"4","last_reported":1746850280,"current_range_meters":22400,"station_id":"ce4bgv92rcd13ifvqcr0","pricing_plan_id":"cebpf4jnsgd1na2vs0mg"},{"bike_id":"d0e9f8ed-c3a9-4714-b1d2-2975a2c24140","system_id":"levelo_inurba_marseille","lat":43.302088,"lon":5.394724,"is_reserved":false,"is_disabled":false,"rental_uris":{"android":"levelo://app?vid=d0e9f8ed-c3a9-4714-b1d2-2975a2c24140","ios":"levelo://app?vid=d0e9f8ed-c3a9-4714-b1d2-2975a2c24140"},"vehicle_type_id":"4","last_reported":1746850280,"current_range_meters":22400,"station_id":"ce4bh0p2rcd13ifvqd70","pricing_plan_id":"cebpf4jnsgd1na2vs0mg"},{"bike_id":"48ed43fb-4ad0-4001-acee-f6ea4523cfc5","system_id":"levelo_inurba_marseille","lat":43.28623,"lon":5.476878,"is_reserved":false,"is_disabled":false,"rental_uris":{"android":"levelo://app?vid=48ed43fb-4ad0-4001-acee-f6ea4523cfc5","ios":"levelo://app?vid=48ed43fb-4ad0-4001-acee-f6ea4523cfc5"},"vehicle_type_id":"4","last_reported":1746850280,"current_range_meters":22800,"station_id":"","pricing_plan_id":"cebpf4jnsgd1na2vs0mg"},{"bike_id":"c11f40f8-d4e2-4484-ad32-dee96c4d6e16","system_id":"levelo_inurba_marseille","lat":43.30378,"lon":5.42489,"is_reserved":false,"is_disabled":false,"rental_uris":{"android":"levelo://app?vid=c11f40f8-d4e2-4484-ad32-dee96c4d6e16","ios":"levelo://app?vid=c11f40f8-d4e2-4484-ad32-dee96c4d6e16"},"vehicle_type_id":"4","last_reported":1746850280,"current_range_meters":22800,"station_id":"ce4bhoh2rcd13ifvqh6g","pricing_plan_id":"cebpf4jnsgd1na2vs0mg"},{"bike_id":"61928b70-e592-46f6-aa86-e6130fbaa2cc","system_id":"levelo_inurba_marseille","lat":43.26769,"lon":5.39425,"is_reserved":false,"is_disabled":false,"rental_uris":{"android":"levelo://app?vid=61928b70-e592-46f6-aa86-e6130fbaa2cc","ios":"levelo://app?vid=61928b70-e592-46f6-aa86-e6130fbaa2cc"},"vehicle_type_id":"4","last_reported":1746850280,"current_range_meters":22800,"station_id":"ce4bhh12rcd13ifvqfg0","pricing_plan_id":"cebpf4jnsgd1na2vs0mg"},{"bike_id":"612e447e-8642-4d08-9eed-865a2c20ffe1","system_id":"levelo_inurba_marseille","lat":43.257203,"lon":5.411154,"is_reserved":false,"is_disabled":false,"rental_uris":{"android":"levelo://app?vid=612e447e-8642-4d08-9eed-865a2c20ffe1","ios":"levelo://app?vid=612e447e-8642-4d08-9eed-865a2c20ffe1"},"vehicle_type_id":"4","last_reported":1746850280,"current_range_meters":22800,"station_id":"ce4bhkp2rcd13ifvqgd0","pricing_plan_id":"cebpf4jnsgd1na2vs0mg"},{"bike_id":"a472cb2c-8563-493f-920e-c1c554fe1c25","system_id":"levelo_inurba_marseille","lat":43.29294,"lon":5.37445,"is_reserved":false,"is_disabled":true,"rental_uris":{"android":"levelo://app?vid=a472cb2c-8563-493f-920e-c1c554fe1c25","ios":"levelo://app?vid=a472cb2c-8563-493f-920e-c1c554fe1c25"},"vehicle_type_id":"4","last_reported":1746850280,"current_range_meters":22800,"station_id":"ce4bgi12rcd13ifvqb70","pricing_plan_id":"cebpf4jnsgd1na2vs0mg"},{"bike_id":"5ea6bced-8df0-4364-8dd2-3d1fdcc8c821","system_id":"levelo_inurba_marseille","lat":43.30291,"lon":5.37696,"is_reserved":false,"is_disabled":true,"rental_uris":{"android":"levelo://app?vid=5ea6bced-8df0-4364-8dd2-3d1fdcc8c821","ios":"levelo://app?vid=5ea6bced-8df0-4364-8dd2-3d1fdcc8c821"},"vehicle_type_id":"4","last_reported":1746850280,"current_range_meters":22800,"station_id":"ce4bguh2rcd13ifvqcj0","pricing_plan_id":"cebpf4jnsgd1na2vs0mg"},{"bike_id":"8fda7305-5141-4f84-92bd-428484e39574","system_id":"levelo_inurba_marseille","lat":43.24376,"lon":5.370788,"is_reserved":false,"is_disabled":false,"rental_uris":{"android":"levelo://app?vid=8fda7305-5141-4f84-92bd-428484e39574","ios":"levelo://app?vid=8fda7305-5141-4f84-92bd-428484e39574"},"vehicle_type_id":"4","last_reported":1746850280,"current_range_meters":22800,"station_id":"ce4bhhh2rcd13ifvqfk0","pricing_plan_id":"cebpf4jnsgd1na2vs0mg"},{"bike_id":"830ca2f3-14a2-40d4-b14d-f14634d8ac66","system_id":"levelo_inurba_marseille","lat":43.31691,"lon":5.43696,"is_reserved":false,"is_disabled":true,"rental_uris":{"android":"levelo://app?vid=830ca2f3-14a2-40d4-b14d-f14634d8ac66","ios":"levelo://app?vid=830ca2f3-14a2-40d4-b14d-f14634d8ac66"},"vehicle_type_id":"4","last_reported":1746850280,"current_range_meters":23200,"station_id":"ce4bhp92rcd13ifvqhcg","pricing_plan_id":"cebpf4jnsgd1na2vs0mg"},{"bike_id":"02bac07a-9186-49eb-a666-f70d86d99978","system_id":"levelo_inurba_marseille","lat":43.211955,"lon":5.350827,"is_reserved":false,"is_disabled":false,"rental_uris":{"android":"levelo://app?vid=02bac07a-9186-49eb-a666-f70d86d99978","ios":"levelo://app?vid=02bac07a-9186-49eb-a666-f70d86d99978"},"vehicle_type_id":"4","last_reported":1746850280,"current_range_meters":23200,"station_id":"st_cvj6sg6p6f1abm77japg","pricing_plan_id":"cebpf4jnsgd1na2vs0mg"},{"bike_id":"ce808109-3a33-42b9-94bd-9d2185c0cbf5","system_id":"levelo_inurba_marseille","lat":43.284176,"lon":5.375089,"is_reserved":false,"is_disabled":false,"rental_uris":{"android":"levelo://app?vid=ce808109-3a33-42b9-94bd-9d2185c0cbf5","ios":"levelo://app?vid=ce808109-3a33-42b9-94bd-9d2185c0cbf5"},"vehicle_type_id":"4","last_reported":1746850280,"current_range_meters":24000,"station_id":"ce4bh412rcd13ifvqds0","pricing_plan_id":"cebpf4jnsgd1na2vs0mg"},{"bike_id":"628c9361-3d68-4678-b48b-1aeec419f7df","system_id":"levelo_inurba_marseille","lat":43.31336,"lon":5.38494,"is_reserved":false,"is_disabled":false,"rental_uris":{"android":"levelo://app?vid=628c9361-3d68-4678-b48b-1aeec419f7df","ios":"levelo://app?vid=628c9361-3d68-4678-b48b-1aeec419f7df"},"vehicle_type_id":"4","last_reported":1746850280,"current_range_meters":24000,"station_id":"ce4bgt92rcd13ifvqcf0","pricing_plan_id":"cebpf4jnsgd1na2vs0mg"},{"bike_id":"55056822-625c-40fe-9622-9b2e0a22798a","system_id":"levelo_inurba_marseille","lat":43.30761,"lon":5.3815,"is_reserved":false,"is_disabled":false,"rental_uris":{"android":"levelo://app?vid=55056822-625c-40fe-9622-9b2e0a22798a","ios":"levelo://app?vid=55056822-625c-40fe-9622-9b2e0a22798a"},"vehicle_type_id":"4","last_reported":1746850280,"current_range_meters":24000,"station_id":"ce4bgt12rcd13ifvqce0","pricing_plan_id":"cebpf4jnsgd1na2vs0mg"},{"bike_id":"e0455d18-2803-4267-ad75-873503d2c977","system_id":"levelo_inurba_marseille","lat":43.27832,"lon":5.37458,"is_reserved":false,"is_disabled":false,"rental_uris":{"android":"levelo://app?vid=e0455d18-2803-4267-ad75-873503d2c977","ios":"levelo://app?vid=e0455d18-2803-4267-ad75-873503d2c977"},"vehicle_type_id":"4","last_reported":1746850280,"current_range_meters":24000,"station_id":"","pricing_plan_id":"cebpf4jnsgd1na2vs0mg"},{"bike_id":"4847d81f-d50e-4609-8983-6082c307ddc0","system_id":"levelo_inurba_marseille","lat":43.31668,"lon":5.43697,"is_reserved":false,"is_disabled":false,"rental_uris":{"android":"levelo://app?vid=4847d81f-d50e-4609-8983-6082c307ddc0","ios":"levelo://app?vid=4847d81f-d50e-4609-8983-6082c307ddc0"},"vehicle_type_id":"4","last_reported":1746850280,"current_range_meters":24000,"station_id":"ce4bhp92rcd13ifvqhcg","pricing_plan_id":"cebpf4jnsgd1na2vs0mg"},{"bike_id":"0d9f0c04-ae76-490a-a3a5-9f7568314dc4","system_id":"levelo_inurba_marseille","lat":43.2721,"lon":5.39185,"is_reserved":false,"is_disabled":false,"rental_uris":{"android":"levelo://app?vid=0d9f0c04-ae76-490a-a3a5-9f7568314dc4","ios":"levelo://app?vid=0d9f0c04-ae76-490a-a3a5-9f7568314dc4"},"vehicle_type_id":"4","last_reported":1746850280,"current_range_meters":24000,"station_id":"","pricing_plan_id":"cebpf4jnsgd1na2vs0mg"},{"bike_id":"fafc54e7-80d4-4bec-ab8a-c43ff95a1fa5","system_id":"levelo_inurba_marseille","lat":43.31476,"lon":5.37201,"is_reserved":false,"is_disabled":false,"rental_uris":{"android":"levelo://app?vid=fafc54e7-80d4-4bec-ab8a-c43ff95a1fa5","ios":"levelo://app?vid=fafc54e7-80d4-4bec-ab8a-c43ff95a1fa5"},"vehicle_type_id":"4","last_reported":1746850280,"current_range_meters":24000,"station_id":"ce4bgt12rcd13ifvqcd0","pricing_plan_id":"cebpf4jnsgd1na2vs0mg"},{"bike_id":"d747c0f2-a1c0-480b-bdc4-4cda643364df","system_id":"levelo_inurba_marseille","lat":43.287255,"lon":5.360865,"is_reserved":false,"is_disabled":false,"rental_uris":{"android":"levelo://app?vid=d747c0f2-a1c0-480b-bdc4-4cda643364df","ios":"levelo://app?vid=d747c0f2-a1c0-480b-bdc4-4cda643364df"},"vehicle_type_id":"4","last_reported":1746850280,"current_range_meters":24000,"station_id":"cki0cbj6b192h4jlfktg","pricing_plan_id":"cebpf4jnsgd1na2vs0mg"},{"bike_id":"37733380-909a-4cd2-9eb0-0b16569a89f4","system_id":"levelo_inurba_marseille","lat":43.294416,"lon":5.397559,"is_reserved":false,"is_disabled":true,"rental_uris":{"android":"levelo://app?vid=37733380-909a-4cd2-9eb0-0b16569a89f4","ios":"levelo://app?vid=37733380-909a-4cd2-9eb0-0b16569a89f4"},"vehicle_type_id":"4","last_reported":1746850280,"current_range_meters":24000,"station_id":"ce4bh3h2rcd13ifvqdo0","pricing_plan_id":"cebpf4jnsgd1na2vs0mg"},{"bike_id":"e26005ab-6c21-4c09-9eea-86ba07a41d85","system_id":"levelo_inurba_marseille","lat":43.24685,"lon":5.38137,"is_reserved":false,"is_disabled":false,"rental_uris":{"android":"levelo://app?vid=e26005ab-6c21-4c09-9eea-86ba07a41d85","ios":"levelo://app?vid=e26005ab-6c21-4c09-9eea-86ba07a41d85"},"vehicle_type_id":"4","last_reported":1746850280,"current_range_meters":24000,"station_id":"ce4bhih2rcd13ifvqfr0","pricing_plan_id":"cebpf4jnsgd1na2vs0mg"},{"bike_id":"da1c5ec3-22aa-41b9-908c-4d323560536d","system_id":"levelo_inurba_marseille","lat":43.31081,"lon":5.38358,"is_reserved":false,"is_disabled":false,"rental_uris":{"android":"levelo://app?vid=da1c5ec3-22aa-41b9-908c-4d323560536d","ios":"levelo://app?vid=da1c5ec3-22aa-41b9-908c-4d323560536d"},"vehicle_type_id":"4","last_reported":1746850280,"current_range_meters":24000,"station_id":"ce4bgv92rcd13ifvqcr0","pricing_plan_id":"cebpf4jnsgd1na2vs0mg"},{"bike_id":"66114e87-3102-4b6e-b735-c1b9abde13c5","system_id":"levelo_inurba_marseille","lat":43.30939,"lon":5.4015,"is_reserved":false,"is_disabled":false,"rental_uris":{"android":"levelo://app?vid=66114e87-3102-4b6e-b735-c1b9abde13c5","ios":"levelo://app?vid=66114e87-3102-4b6e-b735-c1b9abde13c5"},"vehicle_type_id":"4","last_reported":1746850280,"current_range_meters":24000,"station_id":"ce4bgvp2rcd13ifvqct0","pricing_plan_id":"cebpf4jnsgd1na2vs0mg"},{"bike_id":"5ee6c3e3-5c35-4884-80c1-71cd7d0fa4fd","system_id":"levelo_inurba_marseille","lat":43.330558,"lon":5.406717,"is_reserved":false,"is_disabled":false,"rental_uris":{"android":"levelo://app?vid=5ee6c3e3-5c35-4884-80c1-71cd7d0fa4fd","ios":"levelo://app?vid=5ee6c3e3-5c35-4884-80c1-71cd7d0fa4fd"},"vehicle_type_id":"4","last_reported":1746850280,"current_range_meters":24000,"station_id":"","pricing_plan_id":"cebpf4jnsgd1na2vs0mg"},{"bike_id":"1eee94a5-e10d-4f9f-8262-b514c57aa896","system_id":"levelo_inurba_marseille","lat":43.28076,"lon":5.39644,"is_reserved":false,"is_disabled":false,"rental_uris":{"android":"levelo://app?vid=1eee94a5-e10d-4f9f-8262-b514c57aa896","ios":"levelo://app?vid=1eee94a5-e10d-4f9f-8262-b514c57aa896"},"vehicle_type_id":"4","last_reported":1746850280,"current_range_meters":24400,"station_id":"ce4bho12rcd13ifvqh2g","pricing_plan_id":"cebpf4jnsgd1na2vs0mg"},{"bike_id":"7fc85542-413b-47cb-90f3-fc9a0d501d7e","system_id":"levelo_inurba_marseille","lat":43.2467,"lon":5.38158,"is_reserved":false,"is_disabled":false,"rental_uris":{"android":"levelo://app?vid=7fc85542-413b-47cb-90f3-fc9a0d501d7e","ios":"levelo://app?vid=7fc85542-413b-47cb-90f3-fc9a0d501d7e"},"vehicle_type_id":"4","last_reported":1746850280,"current_range_meters":24400,"station_id":"ce4bhih2rcd13ifvqfr0","pricing_plan_id":"cebpf4jnsgd1na2vs0mg"},{"bike_id":"7714198e-3829-4f40-bc45-13d5ca323b6e","system_id":"levelo_inurba_marseille","lat":43.309305,"lon":5.401492,"is_reserved":false,"is_disabled":false,"rental_uris":{"android":"levelo://app?vid=7714198e-3829-4f40-bc45-13d5ca323b6e","ios":"levelo://app?vid=7714198e-3829-4f40-bc45-13d5ca323b6e"},"vehicle_type_id":"4","last_reported":1746850280,"current_range_meters":24400,"station_id":"ce4bgvp2rcd13ifvqct0","pricing_plan_id":"cebpf4jnsgd1na2vs0mg"},{"bike_id":"351ef218-24e5-4670-825d-fc1ac5cd3c19","system_id":"levelo_inurba_marseille","lat":43.314853,"lon":5.372924,"is_reserved":false,"is_disabled":false,"rental_uris":{"android":"levelo://app?vid=351ef218-24e5-4670-825d-fc1ac5cd3c19","ios":"levelo://app?vid=351ef218-24e5-4670-825d-fc1ac5cd3c19"},"vehicle_type_id":"4","last_reported":1746850280,"current_range_meters":24400,"station_id":"ce4bgt12rcd13ifvqcd0","pricing_plan_id":"cebpf4jnsgd1na2vs0mg"},{"bike_id":"19ffa04c-eeb1-4e63-b56e-4bddacfacf7c","system_id":"levelo_inurba_marseille","lat":43.284602,"lon":5.358998,"is_reserved":false,"is_disabled":false,"rental_uris":{"android":"levelo://app?vid=19ffa04c-eeb1-4e63-b56e-4bddacfacf7c","ios":"levelo://app?vid=19ffa04c-eeb1-4e63-b56e-4bddacfacf7c"},"vehicle_type_id":"4","last_reported":1746850280,"current_range_meters":24400,"station_id":"ce4bhah2rcd13ifvqei0","pricing_plan_id":"cebpf4jnsgd1na2vs0mg"},{"bike_id":"5a0c3b4c-491c-446d-bb75-c17d5dcb9ca3","system_id":"levelo_inurba_marseille","lat":43.28355,"lon":5.38101,"is_reserved":false,"is_disabled":false,"rental_uris":{"android":"levelo://app?vid=5a0c3b4c-491c-446d-bb75-c17d5dcb9ca3","ios":"levelo://app?vid=5a0c3b4c-491c-446d-bb75-c17d5dcb9ca3"},"vehicle_type_id":"4","last_reported":1746850280,"current_range_meters":24400,"station_id":"ce4bh412rcd13ifvqdr0","pricing_plan_id":"cebpf4jnsgd1na2vs0mg"},{"bike_id":"30f161e5-1563-4277-b384-7c3a05224630","system_id":"levelo_inurba_marseille","lat":43.30781,"lon":5.37643,"is_reserved":false,"is_disabled":false,"rental_uris":{"android":"levelo://app?vid=30f161e5-1563-4277-b384-7c3a05224630","ios":"levelo://app?vid=30f161e5-1563-4277-b384-7c3a05224630"},"vehicle_type_id":"4","last_reported":1746850280,"current_range_meters":24400,"station_id":"ce4bgv92rcd13ifvqcq0","pricing_plan_id":"cebpf4jnsgd1na2vs0mg"},{"bike_id":"d2a54d7d-c445-447d-a111-494494199d1e","system_id":"levelo_inurba_marseille","lat":43.28837,"lon":5.39326,"is_reserved":false,"is_disabled":false,"rental_uris":{"android":"levelo://app?vid=d2a54d7d-c445-447d-a111-494494199d1e","ios":"levelo://app?vid=d2a54d7d-c445-447d-a111-494494199d1e"},"vehicle_type_id":"4","last_reported":1746850280,"current_range_meters":24800,"station_id":"ce4bh2p2rcd13ifvqdi0","pricing_plan_id":"cebpf4jnsgd1na2vs0mg"},{"bike_id":"76641dd9-c233-4b12-9f62-bc33d48bec5c","system_id":"levelo_inurba_marseille","lat":43.307818,"lon":5.37656,"is_reserved":false,"is_disabled":false,"rental_uris":{"android":"levelo://app?vid=76641dd9-c233-4b12-9f62-bc33d48bec5c","ios":"levelo://app?vid=76641dd9-c233-4b12-9f62-bc33d48bec5c"},"vehicle_type_id":"4","last_reported":1746850280,"current_range_meters":24800,"station_id":"ce4bgv92rcd13ifvqcq0","pricing_plan_id":"cebpf4jnsgd1na2vs0mg"},{"bike_id":"40b29dc7-38e1-4f66-85b2-7a146d1d8e20","system_id":"levelo_inurba_marseille","lat":43.30613,"lon":5.40091,"is_reserved":false,"is_disabled":false,"rental_uris":{"android":"levelo://app?vid=40b29dc7-38e1-4f66-85b2-7a146d1d8e20","ios":"levelo://app?vid=40b29dc7-38e1-4f66-85b2-7a146d1d8e20"},"vehicle_type_id":"4","last_reported":1746850280,"current_range_meters":24800,"station_id":"ce4bh112rcd13ifvqda0","pricing_plan_id":"cebpf4jnsgd1na2vs0mg"},{"bike_id":"28cdeca5-6903-4c91-bce2-491f70daf2d0","system_id":"levelo_inurba_marseille","lat":43.22944,"lon":5.35381,"is_reserved":false,"is_disabled":false,"rental_uris":{"android":"levelo://app?vid=28cdeca5-6903-4c91-bce2-491f70daf2d0","ios":"levelo://app?vid=28cdeca5-6903-4c91-bce2-491f70daf2d0"},"vehicle_type_id":"4","last_reported":1746850280,"current_range_meters":24800,"station_id":"cpo3532slgdg3j2ikp40","pricing_plan_id":"cebpf4jnsgd1na2vs0mg"},{"bike_id":"648fb792-696b-48d4-8bf9-ef3e06c468d1","system_id":"levelo_inurba_marseille","lat":43.27054,"lon":5.42279,"is_reserved":false,"is_disabled":false,"rental_uris":{"android":"levelo://app?vid=648fb792-696b-48d4-8bf9-ef3e06c468d1","ios":"levelo://app?vid=648fb792-696b-48d4-8bf9-ef3e06c468d1"},"vehicle_type_id":"4","last_reported":1746850280,"current_range_meters":24800,"station_id":"ce4bhk92rcd13ifvqgb0","pricing_plan_id":"cebpf4jnsgd1na2vs0mg"},{"bike_id":"078f48ff-9089-4cdf-9bf8-e6c38e6f2a52","system_id":"levelo_inurba_marseille","lat":43.24075,"lon":5.37763,"is_reserved":false,"is_disabled":false,"rental_uris":{"android":"levelo://app?vid=078f48ff-9089-4cdf-9bf8-e6c38e6f2a52","ios":"levelo://app?vid=078f48ff-9089-4cdf-9bf8-e6c38e6f2a52"},"vehicle_type_id":"4","last_reported":1746850280,"current_range_meters":25200,"station_id":"ce4bhnp2rcd13ifvqgvg","pricing_plan_id":"cebpf4jnsgd1na2vs0mg"},{"bike_id":"3be46743-fbf4-486d-8a10-8265a7e6a6f1","system_id":"levelo_inurba_marseille","lat":43.30786,"lon":5.37652,"is_reserved":false,"is_disabled":false,"rental_uris":{"android":"levelo://app?vid=3be46743-fbf4-486d-8a10-8265a7e6a6f1","ios":"levelo://app?vid=3be46743-fbf4-486d-8a10-8265a7e6a6f1"},"vehicle_type_id":"4","last_reported":1746850280,"current_range_meters":25200,"station_id":"ce4bgv92rcd13ifvqcq0","pricing_plan_id":"cebpf4jnsgd1na2vs0mg"},{"bike_id":"f7b17b6c-c8fc-4cba-b0db-8cb329d922d1","system_id":"levelo_inurba_marseille","lat":43.24545,"lon":5.395173,"is_reserved":false,"is_disabled":false,"rental_uris":{"android":"levelo://app?vid=f7b17b6c-c8fc-4cba-b0db-8cb329d922d1","ios":"levelo://app?vid=f7b17b6c-c8fc-4cba-b0db-8cb329d922d1"},"vehicle_type_id":"4","last_reported":1746850280,"current_range_meters":25200,"station_id":"ce4bhlp2rcd13ifvqgjg","pricing_plan_id":"cebpf4jnsgd1na2vs0mg"},{"bike_id":"ec2b92c5-71f9-4182-9122-e616fb7594ad","system_id":"levelo_inurba_marseille","lat":43.31068,"lon":5.38359,"is_reserved":false,"is_disabled":false,"rental_uris":{"android":"levelo://app?vid=ec2b92c5-71f9-4182-9122-e616fb7594ad","ios":"levelo://app?vid=ec2b92c5-71f9-4182-9122-e616fb7594ad"},"vehicle_type_id":"4","last_reported":1746850280,"current_range_meters":25200,"station_id":"ce4bgv92rcd13ifvqcr0","pricing_plan_id":"cebpf4jnsgd1na2vs0mg"},{"bike_id":"a8c3e555-d0a1-4687-9add-b2f9678be02e","system_id":"levelo_inurba_marseille","lat":43.311829,"lon":5.407621,"is_reserved":false,"is_disabled":false,"rental_uris":{"android":"levelo://app?vid=a8c3e555-d0a1-4687-9add-b2f9678be02e","ios":"levelo://app?vid=a8c3e555-d0a1-4687-9add-b2f9678be02e"},"vehicle_type_id":"4","last_reported":1746850280,"current_range_meters":25200,"station_id":"","pricing_plan_id":"cebpf4jnsgd1na2vs0mg"},{"bike_id":"5c255a92-12e7-40dc-8e68-3872ef25e50b","system_id":"levelo_inurba_marseille","lat":43.27608,"lon":5.36115,"is_reserved":false,"is_disabled":false,"rental_uris":{"android":"levelo://app?vid=5c255a92-12e7-40dc-8e68-3872ef25e50b","ios":"levelo://app?vid=5c255a92-12e7-40dc-8e68-3872ef25e50b"},"vehicle_type_id":"4","last_reported":1746850280,"current_range_meters":25200,"station_id":"ce4bgj92rcd13ifvqbe0","pricing_plan_id":"cebpf4jnsgd1na2vs0mg"},{"bike_id":"e8d87c3a-8e63-4494-879e-6d10d56c9c58","system_id":"levelo_inurba_marseille","lat":43.306398,"lon":5.400759,"is_reserved":false,"is_disabled":false,"rental_uris":{"android":"levelo://app?vid=e8d87c3a-8e63-4494-879e-6d10d56c9c58","ios":"levelo://app?vid=e8d87c3a-8e63-4494-879e-6d10d56c9c58"},"vehicle_type_id":"4","last_reported":1746850280,"current_range_meters":25600,"station_id":"ce4bh112rcd13ifvqda0","pricing_plan_id":"cebpf4jnsgd1na2vs0mg"},{"bike_id":"dfc0af20-7a08-4167-843b-e9a0f9c0b51b","system_id":"levelo_inurba_marseille","lat":43.309293,"lon":5.401485,"is_reserved":false,"is_disabled":false,"rental_uris":{"android":"levelo://app?vid=dfc0af20-7a08-4167-843b-e9a0f9c0b51b","ios":"levelo://app?vid=dfc0af20-7a08-4167-843b-e9a0f9c0b51b"},"vehicle_type_id":"4","last_reported":1746850280,"current_range_meters":25600,"station_id":"ce4bgvp2rcd13ifvqct0","pricing_plan_id":"cebpf4jnsgd1na2vs0mg"},{"bike_id":"c6efb2ff-2b2d-4def-8cd5-8e8b6ecb4d0d","system_id":"levelo_inurba_marseille","lat":43.29509,"lon":5.39036,"is_reserved":false,"is_disabled":false,"rental_uris":{"android":"levelo://app?vid=c6efb2ff-2b2d-4def-8cd5-8e8b6ecb4d0d","ios":"levelo://app?vid=c6efb2ff-2b2d-4def-8cd5-8e8b6ecb4d0d"},"vehicle_type_id":"4","last_reported":1746850280,"current_range_meters":25600,"station_id":"ce4bh3p2rcd13ifvqdp0","pricing_plan_id":"cebpf4jnsgd1na2vs0mg"},{"bike_id":"a45ee51e-44d8-438b-9671-f759bb105218","system_id":"levelo_inurba_marseille","lat":43.28207,"lon":5.368304,"is_reserved":false,"is_disabled":false,"rental_uris":{"android":"levelo://app?vid=a45ee51e-44d8-438b-9671-f759bb105218","ios":"levelo://app?vid=a45ee51e-44d8-438b-9671-f759bb105218"},"vehicle_type_id":"4","last_reported":1746850280,"current_range_meters":25600,"station_id":"","pricing_plan_id":"cebpf4jnsgd1na2vs0mg"},{"bike_id":"f835d937-e097-4501-bae6-2b07a10ead71","system_id":"levelo_inurba_marseille","lat":43.2827,"lon":5.36152,"is_reserved":false,"is_disabled":false,"rental_uris":{"android":"levelo://app?vid=f835d937-e097-4501-bae6-2b07a10ead71","ios":"levelo://app?vid=f835d937-e097-4501-bae6-2b07a10ead71"},"vehicle_type_id":"4","last_reported":1746850280,"current_range_meters":25600,"station_id":"","pricing_plan_id":"cebpf4jnsgd1na2vs0mg"},{"bike_id":"38394442-2887-4763-8a9c-8c4481b5ef67","system_id":"levelo_inurba_marseille","lat":43.286588,"lon":5.36347,"is_reserved":false,"is_disabled":true,"rental_uris":{"android":"levelo://app?vid=38394442-2887-4763-8a9c-8c4481b5ef67","ios":"levelo://app?vid=38394442-2887-4763-8a9c-8c4481b5ef67"},"vehicle_type_id":"4","last_reported":1746850280,"current_range_meters":26000,"station_id":"ce4bhah2rcd13ifvqej0","pricing_plan_id":"cebpf4jnsgd1na2vs0mg"},{"bike_id":"ed269f08-24c0-40fa-95b0-29c6d4701fde","system_id":"levelo_inurba_marseille","lat":43.270846,"lon":5.42286,"is_reserved":false,"is_disabled":false,"rental_uris":{"android":"levelo://app?vid=ed269f08-24c0-40fa-95b0-29c6d4701fde","ios":"levelo://app?vid=ed269f08-24c0-40fa-95b0-29c6d4701fde"},"vehicle_type_id":"4","last_reported":1746850280,"current_range_meters":26000,"station_id":"ce4bhk92rcd13ifvqgb0","pricing_plan_id":"cebpf4jnsgd1na2vs0mg"},{"bike_id":"6755debe-282d-4034-9706-e4e2d4660e30","system_id":"levelo_inurba_marseille","lat":43.313285,"lon":5.396998,"is_reserved":false,"is_disabled":false,"rental_uris":{"android":"levelo://app?vid=6755debe-282d-4034-9706-e4e2d4660e30","ios":"levelo://app?vid=6755debe-282d-4034-9706-e4e2d4660e30"},"vehicle_type_id":"4","last_reported":1746850280,"current_range_meters":26000,"station_id":"ce4bgvp2rcd13ifvqcu0","pricing_plan_id":"cebpf4jnsgd1na2vs0mg"},{"bike_id":"0a3b5554-5a08-4507-af14-6bdaaace9118","system_id":"levelo_inurba_marseille","lat":43.28654,"lon":5.36336,"is_reserved":false,"is_disabled":false,"rental_uris":{"android":"levelo://app?vid=0a3b5554-5a08-4507-af14-6bdaaace9118","ios":"levelo://app?vid=0a3b5554-5a08-4507-af14-6bdaaace9118"},"vehicle_type_id":"4","last_reported":1746850280,"current_range_meters":26000,"station_id":"ce4bhah2rcd13ifvqej0","pricing_plan_id":"cebpf4jnsgd1na2vs0mg"},{"bike_id":"25d5fb39-c033-45fa-86d9-8d5306ba3326","system_id":"levelo_inurba_marseille","lat":43.31276,"lon":5.40167,"is_reserved":false,"is_disabled":false,"rental_uris":{"android":"levelo://app?vid=25d5fb39-c033-45fa-86d9-8d5306ba3326","ios":"levelo://app?vid=25d5fb39-c033-45fa-86d9-8d5306ba3326"},"vehicle_type_id":"4","last_reported":1746850280,"current_range_meters":26800,"station_id":"ce4bh092rcd13ifvqd30","pricing_plan_id":"cebpf4jnsgd1na2vs0mg"},{"bike_id":"ab90e9a9-2105-46d9-ad7c-f0b4aa67724b","system_id":"levelo_inurba_marseille","lat":43.235908,"lon":5.403421,"is_reserved":false,"is_disabled":false,"rental_uris":{"android":"levelo://app?vid=ab90e9a9-2105-46d9-ad7c-f0b4aa67724b","ios":"levelo://app?vid=ab90e9a9-2105-46d9-ad7c-f0b4aa67724b"},"vehicle_type_id":"4","last_reported":1746850280,"current_range_meters":26800,"station_id":"","pricing_plan_id":"cebpf4jnsgd1na2vs0mg"},{"bike_id":"ff8ceca6-3dc7-42be-b344-87c1bff339e9","system_id":"levelo_inurba_marseille","lat":43.30932,"lon":5.40134,"is_reserved":false,"is_disabled":false,"rental_uris":{"android":"levelo://app?vid=ff8ceca6-3dc7-42be-b344-87c1bff339e9","ios":"levelo://app?vid=ff8ceca6-3dc7-42be-b344-87c1bff339e9"},"vehicle_type_id":"4","last_reported":1746850280,"current_range_meters":26800,"station_id":"ce4bgvp2rcd13ifvqct0","pricing_plan_id":"cebpf4jnsgd1na2vs0mg"},{"bike_id":"259da1a6-5dc3-4e2e-9dd8-09fbbd8e4f6c","system_id":"levelo_inurba_marseille","lat":43.28725,"lon":5.3608,"is_reserved":false,"is_disabled":false,"rental_uris":{"android":"levelo://app?vid=259da1a6-5dc3-4e2e-9dd8-09fbbd8e4f6c","ios":"levelo://app?vid=259da1a6-5dc3-4e2e-9dd8-09fbbd8e4f6c"},"vehicle_type_id":"4","last_reported":1746850280,"current_range_meters":26800,"station_id":"cki0cbj6b192h4jlfktg","pricing_plan_id":"cebpf4jnsgd1na2vs0mg"},{"bike_id":"95f848e3-d504-4d1b-abef-6eaf3646d1c4","system_id":"levelo_inurba_marseille","lat":43.31222,"lon":5.36864,"is_reserved":false,"is_disabled":false,"rental_uris":{"android":"levelo://app?vid=95f848e3-d504-4d1b-abef-6eaf3646d1c4","ios":"levelo://app?vid=95f848e3-d504-4d1b-abef-6eaf3646d1c4"},"vehicle_type_id":"4","last_reported":1746850280,"current_range_meters":26800,"station_id":"ce4bgl92rcd13ifvqbq0","pricing_plan_id":"cebpf4jnsgd1na2vs0mg"},{"bike_id":"5013b049-5182-4d34-b6d0-b1000aea3248","system_id":"levelo_inurba_marseille","lat":43.30907,"lon":5.40143,"is_reserved":false,"is_disabled":false,"rental_uris":{"android":"levelo://app?vid=5013b049-5182-4d34-b6d0-b1000aea3248","ios":"levelo://app?vid=5013b049-5182-4d34-b6d0-b1000aea3248"},"vehicle_type_id":"4","last_reported":1746850280,"current_range_meters":26800,"station_id":"ce4bgvp2rcd13ifvqct0","pricing_plan_id":"cebpf4jnsgd1na2vs0mg"},{"bike_id":"249bee7e-ac80-4952-8bc8-4457e79d9025","system_id":"levelo_inurba_marseille","lat":43.297858,"lon":5.393683,"is_reserved":false,"is_disabled":false,"rental_uris":{"android":"levelo://app?vid=249bee7e-ac80-4952-8bc8-4457e79d9025","ios":"levelo://app?vid=249bee7e-ac80-4952-8bc8-4457e79d9025"},"vehicle_type_id":"4","last_reported":1746850280,"current_range_meters":26800,"station_id":"chh1huq6cuj3fo74tm60","pricing_plan_id":"cebpf4jnsgd1na2vs0mg"},{"bike_id":"68ad7e24-2dce-4d73-b037-12418412c991","system_id":"levelo_inurba_marseille","lat":43.31062,"lon":5.38347,"is_reserved":false,"is_disabled":false,"rental_uris":{"android":"levelo://app?vid=68ad7e24-2dce-4d73-b037-12418412c991","ios":"levelo://app?vid=68ad7e24-2dce-4d73-b037-12418412c991"},"vehicle_type_id":"4","last_reported":1746850280,"current_range_meters":27200,"station_id":"ce4bgv92rcd13ifvqcr0","pricing_plan_id":"cebpf4jnsgd1na2vs0mg"},{"bike_id":"dbac192b-fd44-4557-b589-e5ef52aa4ca4","system_id":"levelo_inurba_marseille","lat":43.28374,"lon":5.38642,"is_reserved":false,"is_disabled":false,"rental_uris":{"android":"levelo://app?vid=dbac192b-fd44-4557-b589-e5ef52aa4ca4","ios":"levelo://app?vid=dbac192b-fd44-4557-b589-e5ef52aa4ca4"},"vehicle_type_id":"4","last_reported":1746850280,"current_range_meters":27200,"station_id":"ce4bh492rcd13ifvqdvg","pricing_plan_id":"cebpf4jnsgd1na2vs0mg"},{"bike_id":"fcd0943d-4a8a-4752-8116-0e407745ced0","system_id":"levelo_inurba_marseille","lat":43.324682,"lon":5.365742,"is_reserved":false,"is_disabled":false,"rental_uris":{"android":"levelo://app?vid=fcd0943d-4a8a-4752-8116-0e407745ced0","ios":"levelo://app?vid=fcd0943d-4a8a-4752-8116-0e407745ced0"},"vehicle_type_id":"4","last_reported":1746850280,"current_range_meters":27200,"station_id":"ce4bhs12rcd13ifvqhvg","pricing_plan_id":"cebpf4jnsgd1na2vs0mg"},{"bike_id":"f28a5201-154f-4754-90da-7e4883b2b04b","system_id":"levelo_inurba_marseille","lat":43.330338,"lon":5.390406,"is_reserved":false,"is_disabled":false,"rental_uris":{"android":"levelo://app?vid=f28a5201-154f-4754-90da-7e4883b2b04b","ios":"levelo://app?vid=f28a5201-154f-4754-90da-7e4883b2b04b"},"vehicle_type_id":"4","last_reported":1746850280,"current_range_meters":27200,"station_id":"ce4bhr92rcd13ifvqhrg","pricing_plan_id":"cebpf4jnsgd1na2vs0mg"},{"bike_id":"b98c1bb6-4d0b-4831-8419-09aa97d0c1bd","system_id":"levelo_inurba_marseille","lat":43.309569,"lon":5.390379,"is_reserved":false,"is_disabled":true,"rental_uris":{"android":"levelo://app?vid=b98c1bb6-4d0b-4831-8419-09aa97d0c1bd","ios":"levelo://app?vid=b98c1bb6-4d0b-4831-8419-09aa97d0c1bd"},"vehicle_type_id":"4","last_reported":1746850280,"current_range_meters":27200,"station_id":"ce4bgup2rcd13ifvqco0","pricing_plan_id":"cebpf4jnsgd1na2vs0mg"},{"bike_id":"44c66f1b-95f5-476c-be0d-9482ec862b16","system_id":"levelo_inurba_marseille","lat":43.297916,"lon":5.393583,"is_reserved":false,"is_disabled":true,"rental_uris":{"android":"levelo://app?vid=44c66f1b-95f5-476c-be0d-9482ec862b16","ios":"levelo://app?vid=44c66f1b-95f5-476c-be0d-9482ec862b16"},"vehicle_type_id":"4","last_reported":1746850280,"current_range_meters":27200,"station_id":"chh1huq6cuj3fo74tm60","pricing_plan_id":"cebpf4jnsgd1na2vs0mg"},{"bike_id":"a35129c7-ae16-4589-b300-131c23bde060","system_id":"levelo_inurba_marseille","lat":43.28718,"lon":5.36086,"is_reserved":false,"is_disabled":false,"rental_uris":{"android":"levelo://app?vid=a35129c7-ae16-4589-b300-131c23bde060","ios":"levelo://app?vid=a35129c7-ae16-4589-b300-131c23bde060"},"vehicle_type_id":"4","last_reported":1746850280,"current_range_meters":27200,"station_id":"cki0cbj6b192h4jlfktg","pricing_plan_id":"cebpf4jnsgd1na2vs0mg"},{"bike_id":"f90bbcc1-5cc4-4a91-8956-4d0dfca0f1ff","system_id":"levelo_inurba_marseille","lat":43.283606,"lon":5.38636,"is_reserved":false,"is_disabled":false,"rental_uris":{"android":"levelo://app?vid=f90bbcc1-5cc4-4a91-8956-4d0dfca0f1ff","ios":"levelo://app?vid=f90bbcc1-5cc4-4a91-8956-4d0dfca0f1ff"},"vehicle_type_id":"4","last_reported":1746850280,"current_range_meters":27200,"station_id":"ce4bh492rcd13ifvqdvg","pricing_plan_id":"cebpf4jnsgd1na2vs0mg"},{"bike_id":"c2c543dc-0c90-4c40-a845-301b22538b43","system_id":"levelo_inurba_marseille","lat":43.25123,"lon":5.40322,"is_reserved":false,"is_disabled":false,"rental_uris":{"android":"levelo://app?vid=c2c543dc-0c90-4c40-a845-301b22538b43","ios":"levelo://app?vid=c2c543dc-0c90-4c40-a845-301b22538b43"},"vehicle_type_id":"4","last_reported":1746850280,"current_range_meters":27200,"station_id":"ce4bhlh2rcd13ifvqgig","pricing_plan_id":"cebpf4jnsgd1na2vs0mg"},{"bike_id":"9ee94416-a859-4e35-a4ba-39831e5ddf82","system_id":"levelo_inurba_marseille","lat":43.30548,"lon":5.384284,"is_reserved":false,"is_disabled":true,"rental_uris":{"android":"levelo://app?vid=9ee94416-a859-4e35-a4ba-39831e5ddf82","ios":"levelo://app?vid=9ee94416-a859-4e35-a4ba-39831e5ddf82"},"vehicle_type_id":"4","last_reported":1746850280,"current_range_meters":27200,"station_id":"ce4bgg92rcd13ifvqb30","pricing_plan_id":"cebpf4jnsgd1na2vs0mg"},