{"last_updated":1732623539,"ttl":60,"version":"2.2","data":{"bikes":[{"bike_id":"d9c28aa4-81a4-4d13-8fc9-100bb4e3d7e2","system_id":"levelo_inurba_marseille","lat":43.27412,"lon":5.38954,"is_reserved":false,"is_disabled":true,"rental_uris":{"android":"levelo://app?vid=d9c28aa4-81a4-4d13-8fc9-100bb4e3d7e2","ios":"levelo://app?vid=d9c28aa4-81a4-4d13-8fc9-100bb4e3d7e2"},"vehicle_type_id":"4","last_reported":1732623539,"current_range_meters":0,"station_id":"","pricing_plan_id":"cebpf4jnsgd1na2vs0mg"},{"bike_id":"b856c8b4-412d-4c25-bdd4-e6b29aed04cb","system_id":"levelo_inurba_marseille","lat":43.337444,"lon":5.374475,"is_reserved":false,"is_disabled":false,"rental_uris":{"android":"levelo://app?vid=b856c8b4-412d-4c25-bdd4-e6b29aed04cb","ios":"levelo://app?vid=b856c8b4-412d-4c25-bdd4-e6b29aed04cb"},"vehicle_type_id":"4","last_reported":1732623539,"current_range_meters":38800,"station_id":"cpo3532slgdg3j2ikp40","pricing_plan_id":"cebpf4jnsgd1na2vs0mg"},{"bike_id":"107cfec5-41b8-4711-b1b8-653f97993ad5","system_id":"levelo_inurba_marseille","lat":43.32663,"lon":5.40989,"is_reserved":false,"is_disabled":false,"rental_uris":{"android":"levelo://app?vid=107cfec5-41b8-4711-b1b8-653f97993ad5","ios":"levelo://app?vid=107cfec5-41b8-4711-b1b8-653f97993ad5"},"vehicle_type_id":"4","last_reported":1732623539,"current_range_meters":24400,"station_id":"ce4bhpp2rcd13ifvqhgg","pricing_plan_id":"cebpf4jnsgd1na2vs0mg"},{"bike_id":"d16a049f-49d5-418c-96de-062a44483b9e","system_id":"levelo_inurba_marseille","lat":43.32541,"lon":5.41427,"is_reserved":false,"is_disabled":false,"rental_uris":{"android":"levelo://app?vid=d16a049f-49d5-418c-96de-062a44483b9e","ios":"levelo://app?vid=d16a049f-49d5-418c-96de-062a44483b9e"},"vehicle_type_id":"4","last_reported":1732623539,"current_range_meters":8800,"station_id":"ce4bhq12rcd13ifvqhhg","pricing_plan_id":"cebpf4jnsgd1na2vs0mg"},{"bike_id":"9b2f2534-351e-4a5f-b497-044a86abce26","system_id":"levelo_inurba_marseille","lat":43.33606,"lon":5.41039,"is_reserved":false,"is_disabled":false,"rental_uris":{"android":"levelo://app?vid=9b2f2534-351e-4a5f-b497-044a86abce26","ios":"levelo://app?vid=9b2f2534-351e-4a5f-b497-044a86abce26"},"vehicle_type_id":"4","last_reported":1732623539,"current_range_meters":38800,"station_id":"ce4bhqh2rcd13ifvqhmg","pricing_plan_id":"cebpf4jnsgd1na2vs0mg"},{"bike_id":"f0347ef3-0bf2-4904-8134-c34ce91c6bae","system_id":"levelo_inurba_marseille","lat":43.30528,"lon":5.36702,"is_reserved":false,"is_disabled":true,"rental_uris":{"android":"levelo://app?vid=f0347ef3-0bf2-4904-8134-c34ce91c6bae","ios":"levelo://app?vid=f0347ef3-0bf2-4904-8134-c34ce91c6bae"},"vehicle_type_id":"4","last_reported":1732623539,"current_range_meters":13600,"station_id":"ce4bgrp2rcd13ifvqc9g","pricing_plan_id":"cebpf4jnsgd1na2vs0mg"},{"bike_id":"2b48f9a1-245c-4b52-a2eb-7174d2d85e5e","system_id":"levelo_inurba_marseille","lat":43.30947,"lon":5.39035,"is_reserved":false,"is_disabled":false,"rental_uris":{"android":"levelo://app?vid=2b48f9a1-245c-4b52-a2eb-7174d2d85e5e","ios":"levelo://app?vid=2b48f9a1-245c-4b52-a2eb-7174d2d85e5e"},"vehicle_type_id":"4","last_reported":1732623539,"current_range_meters":38800,"station_id":"ce4bgup2rcd13ifvqco0","pricing_plan_id":"cebpf4jnsgd1na2vs0mg"},{"bike_id":"7111b8c2-4574-438c-98d6-138c15c66b32","system_id":"levelo_inurba_marseille","lat":43.3176,"lon":5.39013,"is_reserved":false,"is_disabled":false,"rental_uris":{"android":"levelo://app?vid=7111b8c2-4574-438c-98d6-138c15c66b32","ios":"levelo://app?vid=7111b8c2-4574-438c-98d6-138c15c66b32"},"vehicle_type_id":"4","last_reported":1732623539,"current_range_meters":20000,"station_id":"ce4bhqp2rcd13ifvqhng","pricing_plan_id":"cebpf4jnsgd1na2vs0mg"},{"bike_id":"91e51b70-8d2b-4964-af34-910821589190","system_id":"levelo_inurba_marseille","lat":43.28092,"lon":5.3785,"is_reserved":false,"is_disabled":false,"rental_uris":{"android":"levelo://app?vid=91e51b70-8d2b-4964-af34-910821589190","ios":"levelo://app?vid=91e51b70-8d2b-4964-af34-910821589190"},"vehicle_type_id":"4","last_reported":1732623539,"current_range_meters":4000,"station_id":"ce4bha12rcd13ifvqee0","pricing_plan_id":"cebpf4jnsgd1na2vs0mg"},{"bike_id":"44adab6c-48b6-4b8a-ac19-57e4ac0f7e9c","system_id":"levelo_inurba_marseille","lat":43.27369,"lon":5.36256,"is_reserved":false,"is_disabled":false,"rental_uris":{"android":"levelo://app?vid=44adab6c-48b6-4b8a-ac19-57e4ac0f7e9c","ios":"levelo://app?vid=44adab6c-48b6-4b8a-ac19-57e4ac0f7e9c"},"vehicle_type_id":"4","last_reported":1732623539,"current_range_meters":38800,"station_id":"ce4bhbh2rcd13ifvqeo0","pricing_plan_id":"cebpf4jnsgd1na2vs0mg"},{"bike_id":"24be7068-a66e-46bc-9f96-e0cdbfd135fc","system_id":"levelo_inurba_marseille","lat":43.265,"lon":5.39535,"is_reserved":false,"is_disabled":false,"rental_uris":{"android":"levelo://app?vid=24be7068-a66e-46bc-9f96-e0cdbfd135fc","ios":"levelo://app?vid=24be7068-a66e-46bc-9f96-e0cdbfd135fc"},"vehicle_type_id":"4","last_reported":1732623539,"current_range_meters":5600,"station_id":"ce4bhi12rcd13ifvqfq0","pricing_plan_id":"cebpf4jnsgd1na2vs0mg"},{"bike_id":"fa1dfd22-a507-4ec4-a5d0-effbb2f06530","system_id":"levelo_inurba_marseille","lat":43.28949,"lon":5.36642,"is_reserved":false,"is_disabled":false,"rental_uris":{"android":"levelo://app?vid=fa1dfd22-a507-4ec4-a5d0-effbb2f06530","ios":"levelo://app?vid=fa1dfd22-a507-4ec4-a5d0-effbb2f06530"},"vehicle_type_id":"4","last_reported":1732623539,"current_range_meters":17600,"station_id":"ce4bhap2rcd13ifvqek0","pricing_plan_id":"cebpf4jnsgd1na2vs0mg"},{"bike_id":"f04824cb-3df1-426e-9df0-6ea22b35ffb7","system_id":"levelo_inurba_marseille","lat":43.23187,"lon":5.39978,"is_reserved":false,"is_disabled":false,"rental_uris":{"android":"levelo://app?vid=f04824cb-3df1-426e-9df0-6ea22b35ffb7","ios":"levelo://app?vid=f04824cb-3df1-426e-9df0-6ea22b35ffb7"},"vehicle_type_id":"4","last_reported":1732623539,"current_range_meters":38800,"station_id":"ce4bhn12rcd13ifvqgqg","pricing_plan_id":"cebpf4jnsgd1na2vs0mg"},{"bike_id":"117a2e50-51a9-48b6-ab8e-6d947c0452b8","system_id":"levelo_inurba_marseille","lat":43.27071,"lon":5.42278,"is_reserved":false,"is_disabled":false,"rental_uris":{"android":"levelo://app?vid=117a2e50-51a9-48b6-ab8e-6d947c0452b8","ios":"levelo://app?vid=117a2e50-51a9-48b6-ab8e-6d947c0452b8"},"vehicle_type_id":"4","last_reported":1732623539,"current_range_meters":38800,"station_id":"ce4bhk92rcd13ifvqgb0","pricing_plan_id":"cebpf4jnsgd1na2vs0mg"},{"bike_id":"38e5dd59-c780-4856-8550-b20273f4e496","system_id":"levelo_inurba_marseille","lat":43.30434,"lon":5.389,"is_reserved":false,"is_disabled":true,"rental_uris":{"android":"levelo://app?vid=38e5dd59-c780-4856-8550-b20273f4e496","ios":"levelo://app?vid=38e5dd59-c780-4856-8550-b20273f4e496"},"vehicle_type_id":"4","last_reported":1732623539,"current_range_meters":25600,"station_id":"ce4bgk12rcd13ifvqbi0","pricing_plan_id":"cebpf4jnsgd1na2vs0mg"},{"bike_id":"2231c890-82b1-4fb4-b0d7-5edbe090c957","system_id":"levelo_inurba_marseille","lat":43.25,"lon":5.38929,"is_reserved":false,"is_disabled":true,"rental_uris":{"android":"levelo://app?vid=2231c890-82b1-4fb4-b0d7-5edbe090c957","ios":"levelo://app?vid=2231c890-82b1-4fb4-b0d7-5edbe090c957"},"vehicle_type_id":"4","last_reported":1732623539,"current_range_meters":23200,"station_id":"","pricing_plan_id":"cebpf4jnsgd1na2vs0mg"},{"bike_id":"8e4102e6-10c2-43db-a19b-b0f7a36515a3","system_id":"levelo_inurba_marseille","lat":43.26567,"lon":5.39007,"is_reserved":false,"is_disabled":false,"rental_uris":{"android":"levelo://app?vid=8e4102e6-10c2-43db-a19b-b0f7a36515a3","ios":"levelo://app?vid=8e4102e6-10c2-43db-a19b-b0f7a36515a3"},"vehicle_type_id":"4","last_reported":1732623539,"current_range_meters":9200,"station_id":"ce4bhe12rcd13ifvqf30","pricing_plan_id":"cebpf4jnsgd1na2vs0mg"},{"bike_id":"4c7a58df-9482-4e48-913a-bee78becd678","system_id":"levelo_inurba_marseille","lat":43.24387,"lon":5.37058,"is_reserved":false,"is_disabled":false,"rental_uris":{"android":"levelo://app?vid=4c7a58df-9482-4e48-913a-bee78becd678","ios":"levelo://app?vid=4c7a58df-9482-4e48-913a-bee78becd678"},"vehicle_type_id":"4","last_reported":1732623539,"current_range_meters":24400,"station_id":"ce4bhhh2rcd13ifvqfk0","pricing_plan_id":"cebpf4jnsgd1na2vs0mg"},{"bike_id":"f98cf346-2f95-41c1-a190-288b7ed6e557","system_id":"levelo_inurba_marseille","lat":43.24076,"lon":5.37758,"is_reserved":false,"is_disabled":true,"rental_uris":{"android":"levelo://app?vid=f98cf346-2f95-41c1-a190-288b7ed6e557","ios":"levelo://app?vid=f98cf346-2f95-41c1-a190-288b7ed6e557"},"vehicle_type_id":"4","last_reported":1732623539,"current_range_meters":0,"station_id":"ce4bhnp2rcd13ifvqgvg","pricing_plan_id":"cebpf4jnsgd1na2vs0mg"},{"bike_id":"15431eb2-b4a6-4f69-8b25-8b9cba8b0604","system_id":"levelo_inurba_marseille","lat":43.2808,"lon":5.39679,"is_reserved":false,"is_disabled":false,"rental_uris":{"android":"levelo://app?vid=15431eb2-b4a6-4f69-8b25-8b9cba8b0604","ios":"levelo://app?vid=15431eb2-b4a6-4f69-8b25-8b9cba8b0604"},"vehicle_type_id":"4","last_reported":1732623539,"current_range_meters":36400,"station_id":"ce4bho12rcd13ifvqh2g","pricing_plan_id":"cebpf4jnsgd1na2vs0mg"},{"bike_id":"494a7f9f-d683-431b-8ab2-182876a66db2","system_id":"levelo_inurba_marseille","lat":43.30548,"lon":5.36653,"is_reserved":false,"is_disabled":false,"rental_uris":{"android":"levelo://app?vid=494a7f9f-d683-431b-8ab2-182876a66db2","ios":"levelo://app?vid=494a7f9f-d683-431b-8ab2-182876a66db2"},"vehicle_type_id":"4","last_reported":1732623539,"current_range_meters":18800,"station_id":"","pricing_plan_id":"cebpf4jnsgd1na2vs0mg"},{"bike_id":"26ec1a22-5020-45e4-ab45-512c7f67d5dd","system_id":"levelo_inurba_marseille","lat":43.32055,"lon":5.41554,"is_reserved":false,"is_disabled":true,"rental_uris":{"android":"levelo://app?vid=26ec1a22-5020-45e4-ab45-512c7f67d5dd","ios":"levelo://app?vid=26ec1a22-5020-45e4-ab45-512c7f67d5dd"},"vehicle_type_id":"4","last_reported":1732623539,"current_range_meters":38400,"station_id":"ce4bhq92rcd13ifvqhkg","pricing_plan_id":"cebpf4jnsgd1na2vs0mg"},{"bike_id":"00a6e2f3-c4d5-4f3c-aab7-38298cc96778","system_id":"levelo_inurba_marseille","lat":43.29035,"lon":5.37571,"is_reserved":false,"is_disabled":false,"rental_uris":{"android":"levelo://app?vid=00a6e2f3-c4d5-4f3c-aab7-38298cc96778","ios":"levelo://app?vid=00a6e2f3-c4d5-4f3c-aab7-38298cc96778"},"vehicle_type_id":"4","last_reported":1732623539,"current_range_meters":30800,"station_id":"ce4bh692rcd13ifvqe90","pricing_plan_id":"cebpf4jnsgd1na2vs0mg"},{"bike_id":"5d95998b-17b9-491d-af92-448605152fe8","system_id":"levelo_inurba_marseille","lat":43.27936,"lon":5.4105,"is_reserved":false,"is_disabled":false,"rental_uris":{"android":"levelo://app?vid=5d95998b-17b9-491d-af92-448605152fe8","ios":"levelo://app?vid=5d95998b-17b9-491d-af92-448605152fe8"},"vehicle_type_id":"4","last_reported":1732623539,"current_range_meters":13600,"station_id":"ce4bhnp2rcd13ifvqh0g","pricing_plan_id":"cebpf4jnsgd1na2vs0mg"},{"bike_id":"008df394-a4fc-4070-833b-4b8ca3581b96","system_id":"levelo_inurba_marseille","lat":43.3123,"lon":5.36844,"is_reserved":false,"is_disabled":false,"rental_uris":{"android":"levelo://app?vid=008df394-a4fc-4070-833b-4b8ca3581b96","ios":"levelo://app?vid=008df394-a4fc-4070-833b-4b8ca3581b96"},"vehicle_type_id":"4","last_reported":1732623539,"current_range_meters":8800,"station_id":"ce4bgl92rcd13ifvqbq0","pricing_plan_id":"cebpf4jnsgd1na2vs0mg"},{"bike_id":"9f8aea45-6317-46b2-bfdf-12486e5e39e0","system_id":"levelo_inurba_marseille","lat":43.31267,"lon":5.36756,"is_reserved":false,"is_disabled":true,"rental_uris":{"android":"levelo://app?vid=9f8aea45-6317-46b2-bfdf-12486e5e39e0","ios":"levelo://app?vid=9f8aea45-6317-46b2-bfdf-12486e5e39e0"},"vehicle_type_id":"4","last_reported":1732623539,"current_range_meters":0,"station_id":"","pricing_plan_id":"cebpf4jnsgd1na2vs0mg"},{"bike_id":"c0c086a9-22d2-40a0-b629-75d711f67e11","system_id":"levelo_inurba_marseille","lat":43.24666,"lon":5.38181,"is_reserved":false,"is_disabled":false,"rental_uris":{"android":"levelo://app?vid=c0c086a9-22d2-40a0-b629-75d711f67e11","ios":"levelo://app?vid=c0c086a9-22d2-40a0-b629-75d711f67e11"},"vehicle_type_id":"4","last_reported":1732623539,"current_range_meters":30800,"station_id":"ce4bhih2rcd13ifvqfr0","pricing_plan_id":"cebpf4jnsgd1na2vs0mg"},{"bike_id":"e50e67ce-a8f2-4bb3-90dc-2aa7c4c02d95","system_id":"levelo_inurba_marseille","lat":43.2835,"lon":5.38109,"is_reserved":false,"is_disabled":false,"rental_uris":{"android":"levelo://app?vid=e50e67ce-a8f2-4bb3-90dc-2aa7c4c02d95","ios":"levelo://app?vid=e50e67ce-a8f2-4bb3-90dc-2aa7c4c02d95"},"vehicle_type_id":"4","last_reported":1732623539,"current_range_meters":36400,"station_id":"ce4bh412rcd13ifvqdr0","pricing_plan_id":"cebpf4jnsgd1na2vs0mg"},{"bike_id":"b325fdfe-2140-41f0-b1c7-50e944b036b6","system_id":"levelo_inurba_marseille","lat":43.24809,"lon":5.37456,"is_reserved":false,"is_disabled":false,"rental_uris":{"android":"levelo://app?vid=b325fdfe-2140-41f0-b1c7-50e944b036b6","ios":"levelo://app?vid=b325fdfe-2140-41f0-b1c7-50e944b036b6"},"vehicle_type_id":"4","last_reported":1732623539,"current_range_meters":18000,"station_id":"ce4bhgh2rcd13ifvqfb0","pricing_plan_id":"cebpf4jnsgd1na2vs0mg"},{"bike_id":"44b1f4db-9263-4061-91b2-f4965ec817dd","system_id":"levelo_inurba_marseille","lat":43.295197,"lon":5.393983,"is_reserved":false,"is_disabled":false,"rental_uris":{"android":"levelo://app?vid=44b1f4db-9263-4061-91b2-f4965ec817dd","ios":"levelo://app?vid=44b1f4db-9263-4061-91b2-f4965ec817dd"},"vehicle_type_id":"4","last_reported":1732623539,"current_range_meters":23200,"station_id":"ce4bh292rcd13ifvqdf0","pricing_plan_id":"cebpf4jnsgd1na2vs0mg"},{"bike_id":"8bfd2db3-9c30-4ac4-82ab-dc0a88c4e9a9","system_id":"levelo_inurba_marseille","lat":43.23153,"lon":5.43715,"is_reserved":false,"is_disabled":false,"rental_uris":{"android":"levelo://app?vid=8bfd2db3-9c30-4ac4-82ab-dc0a88c4e9a9","ios":"levelo://app?vid=8bfd2db3-9c30-4ac4-82ab-dc0a88c4e9a9"},"vehicle_type_id":"4","last_reported":1732623539,"current_range_meters":22800,"station_id":"ce4bhmp2rcd13ifvqgog","pricing_plan_id":"cebpf4jnsgd1na2vs0mg"},{"bike_id":"d6646c8d-84f8-4373-bf6b-09d335a9fdf0","system_id":"levelo_inurba_marseille","lat":43.28413,"lon":5.34983,"is_reserved":false,"is_disabled":false,"rental_uris":{"android":"levelo://app?vid=d6646c8d-84f8-4373-bf6b-09d335a9fdf0","ios":"levelo://app?vid=d6646c8d-84f8-4373-bf6b-09d335a9fdf0"},"vehicle_type_id":"4","last_reported":1732623539,"current_range_meters":20400,"station_id":"ce4bhbh2rcd13ifvqepg","pricing_plan_id":"cebpf4jnsgd1na2vs0mg"},{"bike_id":"caf4734a-4cec-4f34-a39a-93be4dc22192","system_id":"levelo_inurba_marseille","lat":43.2921,"lon":5.37915,"is_reserved":false,"is_disabled":false,"rental_uris":{"android":"levelo://app?vid=caf4734a-4cec-4f34-a39a-93be4dc22192","ios":"levelo://app?vid=caf4734a-4cec-4f34-a39a-93be4dc22192"},"vehicle_type_id":"4","last_reported":1732623539,"current_range_meters":6400,"station_id":"","pricing_plan_id":"cebpf4jnsgd1na2vs0mg"},{"bike_id":"6a7bd4b2-9a99-4a71-9fff-b231d0e512ab","system_id":"levelo_inurba_marseille","lat":43.28467,"lon":5.38421,"is_reserved":false,"is_disabled":false,"rental_uris":{"android":"levelo://app?vid=6a7bd4b2-9a99-4a71-9fff-b231d0e512ab","ios":"levelo://app?vid=6a7bd4b2-9a99-4a71-9fff-b231d0e512ab"},"vehicle_type_id":"4","last_reported":1732623539,"current_range_meters":38000,"station_id":"ce4bh512rcd13ifvqe3g","pricing_plan_id":"cebpf4jnsgd1na2vs0mg"},{"bike_id":"83f442cf-579e-46be-91e9-63bdc8bc05b6","system_id":"levelo_inurba_marseille","lat":43.25929,"lon":5.40901,"is_reserved":false,"is_disabled":false,"rental_uris":{"android":"levelo://app?vid=83f442cf-579e-46be-91e9-63bdc8bc05b6","ios":"levelo://app?vid=83f442cf-579e-46be-91e9-63bdc8bc05b6"},"vehicle_type_id":"4","last_reported":1732623539,"current_range_meters":36800,"station_id":"ce4bhm92rcd13ifvqglg","pricing_plan_id":"cebpf4jnsgd1na2vs0mg"},{"bike_id":"0a2d70bc-b761-4725-9e3d-6717bfcaa6cc","system_id":"levelo_inurba_marseille","lat":43.337444,"lon":5.374475,"is_reserved":false,"is_disabled":false,"rental_uris":{"android":"levelo://app?vid=0a2d70bc-b761-4725-9e3d-6717bfcaa6cc","ios":"levelo://app?vid=0a2d70bc-b761-4725-9e3d-6717bfcaa6cc"},"vehicle_type_id":"4","last_reported":1732623539,"current_range_meters":38000,"station_id":"","pricing_plan_id":"cebpf4jnsgd1na2vs0mg"},{"bike_id":"1e3d2aed-a3f4-4aef-8605-9a4732190938","system_id":"levelo_inurba_marseille","lat":43.26042,"lon":5.39404,"is_reserved":false,"is_disabled":false,"rental_uris":{"android":"levelo://app?vid=1e3d2aed-a3f4-4aef-8605-9a4732190938","ios":"levelo://app?vid=1e3d2aed-a3f4-4aef-8605-9a4732190938"},"vehicle_type_id":"4","last_reported":1732623539,"current_range_meters":34800,"station_id":"ce4bhh92rcd13ifvqfj0","pricing_plan_id":"cebpf4jnsgd1na2vs0mg"},{"bike_id":"c29462b2-6f03-4354-a0a3-f395b21c5128","system_id":"levelo_inurba_marseille","lat":43.2749,"lon":5.42453,"is_reserved":false,"is_disabled":true,"rental_uris":{"android":"levelo://app?vid=c29462b2-6f03-4354-a0a3-f395b21c5128","ios":"levelo://app?vid=c29462b2-6f03-4354-a0a3-f395b21c5128"},"vehicle_type_id":"4","last_reported":1732623539,"current_range_meters":0,"station_id":"ce4bhn92rcd13ifvqgrg","pricing_plan_id":"cebpf4jnsgd1na2vs0mg"},{"bike_id":"820f12a0-cf28-488c-8a74-3f1b9d2e4db5","system_id":"levelo_inurba_marseille","lat":43.23056,"lon":5.35491,"is_reserved":false,"is_disabled":false,"rental_uris":{"android":"levelo://app?vid=820f12a0-cf28-488c-8a74-3f1b9d2e4db5","ios":"levelo://app?vid=820f12a0-cf28-488c-8a74-3f1b9d2e4db5"},"vehicle_type_id":"4","last_reported":1732623539,"current_range_meters":24400,"station_id":"cpo3342slgdg3j2ifvpg","pricing_plan_id":"cebpf4jnsgd1na2vs0mg"},{"bike_id":"c3135127-279d-4533-b44c-e209455f2961","system_id":"levelo_inurba_marseille","lat":43.2315,"lon":5.4372,"is_reserved":false,"is_disabled":false,"rental_uris":{"android":"levelo://app?vid=c3135127-279d-4533-b44c-e209455f2961","ios":"levelo://app?vid=c3135127-279d-4533-b44c-e209455f2961"},"vehicle_type_id":"4","last_reported":1732623539,"current_range_meters":38800,"station_id":"ce4bhmp2rcd13ifvqgog","pricing_plan_id":"cebpf4jnsgd1na2vs0mg"},{"bike_id":"7cfc7d24-05ea-4d3c-86fb-767d1bef412c","system_id":"levelo_inurba_marseille","lat":43.25124,"lon":5.40325,"is_reserved":false,"is_disabled":false,"rental_uris":{"android":"levelo://app?vid=7cfc7d24-05ea-4d3c-86fb-767d1bef412c","ios":"levelo://app?vid=7cfc7d24-05ea-4d3c-86fb-767d1bef412c"},"vehicle_type_id":"4","last_reported":1732623539,"current_range_meters":15200,"station_id":"ce4bhlh2rcd13ifvqgig","pricing_plan_id":"cebpf4jnsgd1na2vs0mg"},{"bike_id":"bb047e28-c44c-4872-b369-77c0bb0cc6d3","system_id":"levelo_inurba_marseille","lat":43.28108,"lon":5.37837,"is_reserved":false,"is_disabled":false,"rental_uris":{"android":"levelo://app?vid=bb047e28-c44c-4872-b369-77c0bb0cc6d3","ios":"levelo://app?vid=bb047e28-c44c-4872-b369-77c0bb0cc6d3"},"vehicle_type_id":"4","last_reported":1732623539,"current_range_meters":14000,"station_id":"ce4bha12rcd13ifvqee0","pricing_plan_id":"cebpf4jnsgd1na2vs0mg"},{"bike_id":"67b6a3fa-1eec-4286-b804-6481a690c11d","system_id":"levelo_inurba_marseille","lat":43.30884,"lon":5.39655,"is_reserved":false,"is_disabled":false,"rental_uris":{"android":"levelo://app?vid=67b6a3fa-1eec-4286-b804-6481a690c11d","ios":"levelo://app?vid=67b6a3fa-1eec-4286-b804-6481a690c11d"},"vehicle_type_id":"4","last_reported":1732623539,"current_range_meters":33200,"station_id":"ce4bh012rcd13ifvqcv0","pricing_plan_id":"cebpf4jnsgd1na2vs0mg"},{"bike_id":"da5cabba-cc2b-42b7-8459-1ef9bf8923d7","system_id":"levelo_inurba_marseille","lat":43.30594,"lon":5.39363,"is_reserved":false,"is_disabled":false,"rental_uris":{"android":"levelo://app?vid=da5cabba-cc2b-42b7-8459-1ef9bf8923d7","ios":"levelo://app?vid=da5cabba-cc2b-42b7-8459-1ef9bf8923d7"},"vehicle_type_id":"4","last_reported":1732623539,"current_range_meters":37600,"station_id":"ce4bh0p2rcd13ifvqd80","pricing_plan_id":"cebpf4jnsgd1na2vs0mg"},{"bike_id":"986e000a-f47d-4549-9bc5-1b5ac3fd1fab","system_id":"levelo_inurba_marseille","lat":43.31172,"lon":5.38708,"is_reserved":false,"is_disabled":true,"rental_uris":{"android":"levelo://app?vid=986e000a-f47d-4549-9bc5-1b5ac3fd1fab","ios":"levelo://app?vid=986e000a-f47d-4549-9bc5-1b5ac3fd1fab"},"vehicle_type_id":"4","last_reported":1732623539,"current_range_meters":0,"station_id":"ce4bgv12rcd13ifvqcp0","pricing_plan_id":"cebpf4jnsgd1na2vs0mg"},{"bike_id":"62965e1e-ade4-47c8-a5ff-f8c8cd07ca98","system_id":"levelo_inurba_marseille","lat":43.27617,"lon":5.36109,"is_reserved":false,"is_disabled":true,"rental_uris":{"android":"levelo://app?vid=62965e1e-ade4-47c8-a5ff-f8c8cd07ca98","ios":"levelo://app?vid=62965e1e-ade4-47c8-a5ff-f8c8cd07ca98"},"vehicle_type_id":"4","last_reported":1732623539,"current_range_meters":37600,"station_id":"ce4bgj92rcd13ifvqbe0","pricing_plan_id":"cebpf4jnsgd1na2vs0mg"},{"bike_id":"992566fb-d5c4-4736-9640-136ff0a2a344","system_id":"levelo_inurba_marseille","lat":43.2926,"lon":5.40913,"is_reserved":false,"is_disabled":true,"rental_uris":{"android":"levelo://app?vid=992566fb-d5c4-4736-9640-136ff0a2a344","ios":"levelo://app?vid=992566fb-d5c4-4736-9640-136ff0a2a344"},"vehicle_type_id":"4","last_reported":1732623539,"current_range_meters":0,"station_id":"ce4bh192rcd13ifvqdc0","pricing_plan_id":"cebpf4jnsgd1na2vs0mg"},{"bike_id":"54fcdae9-3ee8-419a-ada6-cc85ac90e046","system_id":"levelo_inurba_marseille","lat":43.30908,"lon":5.36849,"is_reserved":false,"is_disabled":false,"rental_uris":{"android":"levelo://app?vid=54fcdae9-3ee8-419a-ada6-cc85ac90e046","ios":"levelo://app?vid=54fcdae9-3ee8-419a-ada6-cc85ac90e046"},"vehicle_type_id":"4","last_reported":1732623539,"current_range_meters":38800,"station_id":"ce4bgn92rcd13ifvqbvg","pricing_plan_id":"cebpf4jnsgd1na2vs0mg"},{"bike_id":"ec2c977a-ebf7-49a7-8260-e79df0d73670","system_id":"levelo_inurba_marseille","lat":43.25,"lon":5.38934,"is_reserved":false,"is_disabled":false,"rental_uris":{"android":"levelo://app?vid=ec2c977a-ebf7-49a7-8260-e79df0d73670","ios":"levelo://app?vid=ec2c977a-ebf7-49a7-8260-e79df0d73670"},"vehicle_type_id":"4","last_reported":1732623539,"current_range_meters":37600,"station_id":"ce4bhgp2rcd13ifvqfd0","pricing_plan_id":"cebpf4jnsgd1na2vs0mg"},{"bike_id":"280bd61b-c07e-4a8c-afef-ff2772f4aa09","system_id":"levelo_inurba_marseille","lat":43.29031,"lon":5.38642,"is_reserved":false,"is_disabled":false,"rental_uris":{"android":"levelo://app?vid=280bd61b-c07e-4a8c-afef-ff2772f4aa09","ios":"levelo://app?vid=280bd61b-c07e-4a8c-afef-ff2772f4aa09"},"vehicle_type_id":"4","last_reported":1732623539,"current_range_meters":18800,"station_id":"ce4bh4p2rcd13ifvqe0g","pricing_plan_id":"cebpf4jnsgd1na2vs0mg"},{"bike_id":"7a528987-9c62-4282-ae57-31b94412b3b2","system_id":"levelo_inurba_marseille","lat":43.25004,"lon":5.3893,"is_reserved":false,"is_disabled":false,"rental_uris":{"android":"levelo://app?vid=7a528987-9c62-4282-ae57-31b94412b3b2","ios":"levelo://app?vid=7a528987-9c62-4282-ae57-31b94412b3b2"},"vehicle_type_id":"4","last_reported":1732623539,"current_range_meters":4000,"station_id":"ce4bhgp2rcd13ifvqfd0","pricing_plan_id":"cebpf4jnsgd1na2vs0mg"},{"bike_id":"da1785e5-5692-4e2a-952e-54a97b99f110","system_id":"levelo_inurba_marseille","lat":43.30514,"lon":5.3669,"is_reserved":false,"is_disabled":false,"rental_uris":{"android":"levelo://app?vid=da1785e5-5692-4e2a-952e-54a97b99f110","ios":"levelo://app?vid=da1785e5-5692-4e2a-952e-54a97b99f110"},"vehicle_type_id":"4","last_reported":1732623539,"current_range_meters":37600,"station_id":"ce4bgrp2rcd13ifvqc9g","pricing_plan_id":"cebpf4jnsgd1na2vs0mg"},{"bike_id":"cf7c9153-0dc8-430f-83bc-b3f293869575","system_id":"levelo_inurba_marseille","lat":43.33726,"lon":5.39185,"is_reserved":false,"is_disabled":false,"rental_uris":{"android":"levelo://app?vid=cf7c9153-0dc8-430f-83bc-b3f293869575","ios":"levelo://app?vid=cf7c9153-0dc8-430f-83bc-b3f293869575"},"vehicle_type_id":"4","last_reported":1732623539,"current_range_meters":9600,"station_id":"ce4bhr92rcd13ifvqhsg","pricing_plan_id":"cebpf4jnsgd1na2vs0mg"},{"bike_id":"f33e0bad-6e6c-454b-804a-89938956fe09","system_id":"levelo_inurba_marseille","lat":43.30597,"lon":5.3723,"is_reserved":false,"is_disabled":false,"rental_uris":{"android":"levelo://app?vid=f33e0bad-6e6c-454b-804a-89938956fe09","ios":"levelo://app?vid=f33e0bad-6e6c-454b-804a-89938956fe09"},"vehicle_type_id":"4","last_reported":1732623539,"current_range_meters":19200,"station_id":"ce4bgqh2rcd13ifvqc4g","pricing_plan_id":"cebpf4jnsgd1na2vs0mg"},{"bike_id":"7c102a5c-4df8-43db-ac19-bdcc2b78ddf0","system_id":"levelo_inurba_marseille","lat":43.29283,"lon":5.40118,"is_reserved":false,"is_disabled":false,"rental_uris":{"android":"levelo://app?vid=7c102a5c-4df8-43db-ac19-bdcc2b78ddf0","ios":"levelo://app?vid=7c102a5c-4df8-43db-ac19-bdcc2b78ddf0"},"vehicle_type_id":"4","last_reported":1732623539,"current_range_meters":37600,"station_id":"ce4bh312rcd13ifvqdk0","pricing_plan_id":"cebpf4jnsgd1na2vs0mg"},{"bike_id":"1997cc20-6bd0-43f5-85fc-0754c9a8b2e4","system_id":"levelo_inurba_marseille","lat":43.28619,"lon":5.35103,"is_reserved":false,"is_disabled":false,"rental_uris":{"android":"levelo://app?vid=1997cc20-6bd0-43f5-85fc-0754c9a8b2e4","ios":"levelo://app?vid=1997cc20-6bd0-43f5-85fc-0754c9a8b2e4"},"vehicle_type_id":"4","last_reported":1732623539,"current_range_meters":37600,"station_id":"ce4bhch2rcd13ifvqeug","pricing_plan_id":"cebpf4jnsgd1na2vs0mg"},{"bike_id":"2d2ab43c-3c03-42ed-b7b6-3033a6a6f2a9","system_id":"levelo_inurba_marseille","lat":43.27942,"lon":5.41053,"is_reserved":false,"is_disabled":false,"rental_uris":{"android":"levelo://app?vid=2d2ab43c-3c03-42ed-b7b6-3033a6a6f2a9","ios":"levelo://app?vid=2d2ab43c-3c03-42ed-b7b6-3033a6a6f2a9"},"vehicle_type_id":"4","last_reported":1732623539,"current_range_meters":28400,"station_id":"ce4bhnp2rcd13ifvqh0g","pricing_plan_id":"cebpf4jnsgd1na2vs0mg"},{"bike_id":"4d809776-4d2b-4bf5-8aa6-666b5b1fd18f","system_id":"levelo_inurba_marseille","lat":43.337308,"lon":5.391805,"is_reserved":false,"is_disabled":false,"rental_uris":{"android":"levelo://app?vid=4d809776-4d2b-4bf5-8aa6-666b5b1fd18f","ios":"levelo://app?vid=4d809776-4d2b-4bf5-8aa6-666b5b1fd18f"},"vehicle_type_id":"4","last_reported":1732623539,"current_range_meters":38800,"station_id":"ce4bhr92rcd13ifvqhsg","pricing_plan_id":"cebpf4jnsgd1na2vs0mg"},{"bike_id":"769d594f-a56c-4522-8e62-ee910990c478","system_id":"levelo_inurba_marseille","lat":43.27818,"lon":5.407,"is_reserved":false,"is_disabled":false,"rental_uris":{"android":"levelo://app?vid=769d594f-a56c-4522-8e62-ee910990c478","ios":"levelo://app?vid=769d594f-a56c-4522-8e62-ee910990c478"},"vehicle_type_id":"4","last_reported":1732623539,"current_range_meters":25200,"station_id":"ce4bhnh2rcd13ifvqgtg","pricing_plan_id":"cebpf4jnsgd1na2vs0mg"},{"bike_id":"8f4584df-ae6c-4964-805e-56dff65eba9b","system_id":"levelo_inurba_marseille","lat":43.27437,"lon":5.39412,"is_reserved":false,"is_disabled":false,"rental_uris":{"android":"levelo://app?vid=8f4584df-ae6c-4964-805e-56dff65eba9b","ios":"levelo://app?vid=8f4584df-ae6c-4964-805e-56dff65eba9b"},"vehicle_type_id":"4","last_reported":1732623539,"current_range_meters":38400,"station_id":"ce4bhdp2rcd13ifvqf20","pricing_plan_id":"cebpf4jnsgd1na2vs0mg"},{"bike_id":"d3e3b3e3-f2f4-421d-a1c4-7ac293fc4bbc","system_id":"levelo_inurba_marseille","lat":43.311865,"lon":5.38712,"is_reserved":false,"is_disabled":false,"rental_uris":{"android":"levelo://app?vid=d3e3b3e3-f2f4-421d-a1c4-7ac293fc4bbc","ios":"levelo://app?vid=d3e3b3e3-f2f4-421d-a1c4-7ac293fc4bbc"},"vehicle_type_id":"4","last_reported":1732623539,"current_range_meters":38800,"station_id":"ce4bgv12rcd13ifvqcp0","pricing_plan_id":"cebpf4jnsgd1na2vs0mg"},{"bike_id":"cb76c380-cd3c-4aea-8200-3a4a78dc6d7e","system_id":"levelo_inurba_marseille","lat":43.23185,"lon":5.35541,"is_reserved":false,"is_disabled":false,"rental_uris":{"android":"levelo://app?vid=cb76c380-cd3c-4aea-8200-3a4a78dc6d7e","ios":"levelo://app?vid=cb76c380-cd3c-4aea-8200-3a4a78dc6d7e"},"vehicle_type_id":"4","last_reported":1732623539,"current_range_meters":14800,"station_id":"ce4bhu92rcd13ifvqi70","pricing_plan_id":"cebpf4jnsgd1na2vs0mg"},{"bike_id":"16d1da16-0006-471b-bea0-d468322d1893","system_id":"levelo_inurba_marseille","lat":43.29027,"lon":5.38139,"is_reserved":false,"is_disabled":true,"rental_uris":{"android":"levelo://app?vid=16d1da16-0006-471b-bea0-d468322d1893","ios":"levelo://app?vid=16d1da16-0006-471b-bea0-d468322d1893"},"vehicle_type_id":"4","last_reported":1732623539,"current_range_meters":23200,"station_id":"ce4bh4p2rcd13ifvqe1g","pricing_plan_id":"cebpf4jnsgd1na2vs0mg"},{"bike_id":"eeaeca6d-408c-48d6-8938-752af021fc2a","system_id":"levelo_inurba_marseille","lat":43.29053,"lon":5.3591,"is_reserved":false,"is_disabled":false,"rental_uris":{"android":"levelo://app?vid=eeaeca6d-408c-48d6-8938-752af021fc2a","ios":"levelo://app?vid=eeaeca6d-408c-48d6-8938-752af021fc2a"},"vehicle_type_id":"4","last_reported":1732623539,"current_range_meters":38000,"station_id":"ce4bha92rcd13ifvqeg0","pricing_plan_id":"cebpf4jnsgd1na2vs0mg"},{"bike_id":"5cb4018c-f8f5-4014-a22c-f830fa0c931d","system_id":"levelo_inurba_marseille","lat":43.28381,"lon":5.38639,"is_reserved":false,"is_disabled":false,"rental_uris":{"android":"levelo://app?vid=5cb4018c-f8f5-4014-a22c-f830fa0c931d","ios":"levelo://app?vid=5cb4018c-f8f5-4014-a22c-f830fa0c931d"},"vehicle_type_id":"4","last_reported":1732623539,"current_range_meters":38800,"station_id":"ce4bh492rcd13ifvqdvg","pricing_plan_id":"cebpf4jnsgd1na2vs0mg"},{"bike_id":"dc02ff55-e281-4b5a-9dd0-4b0ab438b8c6","system_id":"levelo_inurba_marseille","lat":43.24082,"lon":5.37751,"is_reserved":false,"is_disabled":false,"rental_uris":{"android":"levelo://app?vid=dc02ff55-e281-4b5a-9dd0-4b0ab438b8c6","ios":"levelo://app?vid=dc02ff55-e281-4b5a-9dd0-4b0ab438b8c6"},"vehicle_type_id":"4","last_reported":1732623539,"current_range_meters":9600,"station_id":"ce4bhnp2rcd13ifvqgvg","pricing_plan_id":"cebpf4jnsgd1na2vs0mg"},{"bike_id":"b1e95f10-7828-40ac-9693-6439853ddb8e","system_id":"levelo_inurba_marseille","lat":43.30302,"lon":5.39225,"is_reserved":false,"is_disabled":false,"rental_uris":{"android":"levelo://app?vid=b1e95f10-7828-40ac-9693-6439853ddb8e","ios":"levelo://app?vid=b1e95f10-7828-40ac-9693-6439853ddb8e"},"vehicle_type_id":"4","last_reported":1732623539,"current_range_meters":9200,"station_id":"ce4bgkh2rcd13ifvqbk0","pricing_plan_id":"cebpf4jnsgd1na2vs0mg"},{"bike_id":"58ca5355-9311-424e-96a0-4baec20bc928","system_id":"levelo_inurba_marseille","lat":43.29034,"lon":5.3865,"is_reserved":false,"is_disabled":false,"rental_uris":{"android":"levelo://app?vid=58ca5355-9311-424e-96a0-4baec20bc928","ios":"levelo://app?vid=58ca5355-9311-424e-96a0-4baec20bc928"},"vehicle_type_id":"4","last_reported":1732623539,"current_range_meters":33600,"station_id":"ce4bh4p2rcd13ifvqe0g","pricing_plan_id":"cebpf4jnsgd1na2vs0mg"},{"bike_id":"2a09209b-9e53-4e93-a4c9-9ab475d29893","system_id":"levelo_inurba_marseille","lat":43.30232,"lon":5.37421,"is_reserved":false,"is_disabled":false,"rental_uris":{"android":"levelo://app?vid=2a09209b-9e53-4e93-a4c9-9ab475d29893","ios":"levelo://app?vid=2a09209b-9e53-4e93-a4c9-9ab475d29893"},"vehicle_type_id":"4","last_reported":1732623539,"current_range_meters":17200,"station_id":"","pricing_plan_id":"cebpf4jnsgd1na2vs0mg"},{"bike_id":"d5802be7-7954-459e-ba5d-a7765db50d02","system_id":"levelo_inurba_marseille","lat":43.30195,"lon":5.38694,"is_reserved":false,"is_disabled":false,"rental_uris":{"android":"levelo://app?vid=d5802be7-7954-459e-ba5d-a7765db50d02","ios":"levelo://app?vid=d5802be7-7954-459e-ba5d-a7765db50d02"},"vehicle_type_id":"4","last_reported":1732623539,"current_range_meters":7200,"station_id":"","pricing_plan_id":"cebpf4jnsgd1na2vs0mg"},{"bike_id":"c57e29f4-df13-453d-9f8d-db2dbdec559d","system_id":"levelo_inurba_marseille","lat":43.29264,"lon":5.38446,"is_reserved":false,"is_disabled":false,"rental_uris":{"android":"levelo://app?vid=c57e29f4-df13-453d-9f8d-db2dbdec559d","ios":"levelo://app?vid=c57e29f4-df13-453d-9f8d-db2dbdec559d"},"vehicle_type_id":"4","last_reported":1732623539,"current_range_meters":38800,"station_id":"ce4bh692rcd13ifvqea0","pricing_plan_id":"cebpf4jnsgd1na2vs0mg"},{"bike_id":"145542e8-c4f2-4c57-acd0-2e754476b5e3","system_id":"levelo_inurba_marseille","lat":43.30193,"lon":5.36595,"is_reserved":false,"is_disabled":false,"rental_uris":{"android":"levelo://app?vid=145542e8-c4f2-4c57-acd0-2e754476b5e3","ios":"levelo://app?vid=145542e8-c4f2-4c57-acd0-2e754476b5e3"},"vehicle_type_id":"4","last_reported":1732623539,"current_range_meters":24400,"station_id":"ce4bgrh2rcd13ifvqc8g","pricing_plan_id":"cebpf4jnsgd1na2vs0mg"},{"bike_id":"0cd7fb1f-f090-4e80-a2fb-03510d2b2219","system_id":"levelo_inurba_marseille","lat":43.29579,"lon":5.37504,"is_reserved":false,"is_disabled":true,"rental_uris":{"android":"levelo://app?vid=0cd7fb1f-f090-4e80-a2fb-03510d2b2219","ios":"levelo://app?vid=0cd7fb1f-f090-4e80-a2fb-03510d2b2219"},"vehicle_type_id":"4","last_reported":1732623539,"current_range_meters":35600,"station_id":"ce4bgh92rcd13ifvqb50","pricing_plan_id":"cebpf4jnsgd1na2vs0mg"},{"bike_id":"a484c580-30a2-4809-a3a2-46d14f84821f","system_id":"levelo_inurba_marseille","lat":43.26029,"lon":5.3755,"is_reserved":false,"is_disabled":false,"rental_uris":{"android":"levelo://app?vid=a484c580-30a2-4809-a3a2-46d14f84821f","ios":"levelo://app?vid=a484c580-30a2-4809-a3a2-46d14f84821f"},"vehicle_type_id":"4","last_reported":1732623539,"current_range_meters":36400,"station_id":"ce4bhgh2rcd13ifvqfa0","pricing_plan_id":"cebpf4jnsgd1na2vs0mg"},{"bike_id":"d33a5273-2943-4fa7-881b-94fa64c3bbe9","system_id":"levelo_inurba_marseille","lat":43.23959,"lon":5.36642,"is_reserved":false,"is_disabled":false,"rental_uris":{"android":"levelo://app?vid=d33a5273-2943-4fa7-881b-94fa64c3bbe9","ios":"levelo://app?vid=d33a5273-2943-4fa7-881b-94fa64c3bbe9"},"vehicle_type_id":"4","last_reported":1732623539,"current_range_meters":32400,"station_id":"ce4bhi12rcd13ifvqfp0","pricing_plan_id":"cebpf4jnsgd1na2vs0mg"},{"bike_id":"b2d37cd2-9c87-4ae7-8b53-b1b309f112c6","system_id":"levelo_inurba_marseille","lat":43.29066,"lon":5.37166,"is_reserved":false,"is_disabled":false,"rental_uris":{"android":"levelo://app?vid=b2d37cd2-9c87-4ae7-8b53-b1b309f112c6","ios":"levelo://app?vid=b2d37cd2-9c87-4ae7-8b53-b1b309f112c6"},"vehicle_type_id":"4","last_reported":1732623539,"current_range_meters":38800,"station_id":"ce4bh5p2rcd13ifvqe4g","pricing_plan_id":"cebpf4jnsgd1na2vs0mg"},{"bike_id":"6a243988-d267-4e1e-bafc-c091870de6a8","system_id":"levelo_inurba_marseille","lat":43.24173,"lon":5.36394,"is_reserved":false,"is_disabled":false,"rental_uris":{"android":"levelo://app?vid=6a243988-d267-4e1e-bafc-c091870de6a8","ios":"levelo://app?vid=6a243988-d267-4e1e-bafc-c091870de6a8"},"vehicle_type_id":"4","last_reported":1732623539,"current_range_meters":38800,"station_id":"cpo36qri1sfpv3e86is0","pricing_plan_id":"cebpf4jnsgd1na2vs0mg"},{"bike_id":"3db4b64e-031f-4e38-8286-7ddd9062cfc2","system_id":"levelo_inurba_marseille","lat":43.29963,"lon":5.38504,"is_reserved":false,"is_disabled":false,"rental_uris":{"android":"levelo://app?vid=3db4b64e-031f-4e38-8286-7ddd9062cfc2","ios":"levelo://app?vid=3db4b64e-031f-4e38-8286-7ddd9062cfc2"},"vehicle_type_id":"4","last_reported":1732623539,"current_range_meters":25200,"station_id":"ce4bgj92rcd13ifvqbd0","pricing_plan_id":"cebpf4jnsgd1na2vs0mg"},{"bike_id":"d536be80-3156-4112-919c-5e8f304f5407","system_id":"levelo_inurba_marseille","lat":43.30458,"lon":5.379,"is_reserved":false,"is_disabled":false,"rental_uris":{"android":"levelo://app?vid=d536be80-3156-4112-919c-5e8f304f5407","ios":"levelo://app?vid=d536be80-3156-4112-919c-5e8f304f5407"},"vehicle_type_id":"4","last_reported":1732623539,"current_range_meters":32400,"station_id":"ce4bgup2rcd13ifvqcn0","pricing_plan_id":"cebpf4jnsgd1na2vs0mg"},{"bike_id":"b82e57e9-adb0-4f2b-8dac-bda9128616c9","system_id":"levelo_inurba_marseille","lat":43.25586,"lon":5.38236,"is_reserved":false,"is_disabled":false,"rental_uris":{"android":"levelo://app?vid=b82e57e9-adb0-4f2b-8dac-bda9128616c9","ios":"levelo://app?vid=b82e57e9-adb0-4f2b-8dac-bda9128616c9"},"vehicle_type_id":"4","last_reported":1732623539,"current_range_meters":37600,"station_id":"ce4bhih2rcd13ifvqfs0","pricing_plan_id":"cebpf4jnsgd1na2vs0mg"},{"bike_id":"4bfa066c-2538-4a5a-bb65-e5e266d5f790","system_id":"levelo_inurba_marseille","lat":43.31498,"lon":5.37305,"is_reserved":false,"is_disabled":false,"rental_uris":{"android":"levelo://app?vid=4bfa066c-2538-4a5a-bb65-e5e266d5f790","ios":"levelo://app?vid=4bfa066c-2538-4a5a-bb65-e5e266d5f790"},"vehicle_type_id":"4","last_reported":1732623539,"current_range_meters":9200,"station_id":"ce4bgt12rcd13ifvqcd0","pricing_plan_id":"cebpf4jnsgd1na2vs0mg"},{"bike_id":"39b04c21-6a6a-40a7-a489-741c2b67c9bd","system_id":"levelo_inurba_marseille","lat":43.33725,"lon":5.39193,"is_reserved":false,"is_disabled":false,"rental_uris":{"android":"levelo://app?vid=39b04c21-6a6a-40a7-a489-741c2b67c9bd","ios":"levelo://app?vid=39b04c21-6a6a-40a7-a489-741c2b67c9bd"},"vehicle_type_id":"4","last_reported":1732623539,"current_range_meters":16800,"station_id":"ce4bhr92rcd13ifvqhsg","pricing_plan_id":"cebpf4jnsgd1na2vs0mg"},{"bike_id":"67812c23-202b-4e61-a21a-a3dc5dfe4f65","system_id":"levelo_inurba_marseille","lat":43.30556,"lon":5.36539,"is_reserved":false,"is_disabled":false,"rental_uris":{"android":"levelo://app?vid=67812c23-202b-4e61-a21a-a3dc5dfe4f65","ios":"levelo://app?vid=67812c23-202b-4e61-a21a-a3dc5dfe4f65"},"vehicle_type_id":"4","last_reported":1732623539,"current_range_meters":38000,"station_id":"ce4bgs12rcd13ifvqcag","pricing_plan_id":"cebpf4jnsgd1na2vs0mg"},{"bike_id":"10add33f-4195-400b-a925-26d7fb4aa689","system_id":"levelo_inurba_marseille","lat":43.26921,"lon":5.40249,"is_reserved":false,"is_disabled":true,"rental_uris":{"android":"levelo://app?vid=10add33f-4195-400b-a925-26d7fb4aa689","ios":"levelo://app?vid=10add33f-4195-400b-a925-26d7fb4aa689"},"vehicle_type_id":"4","last_reported":1732623539,"current_range_meters":34800,"station_id":"cjm6bp8fraef2m0cb0m0","pricing_plan_id":"cebpf4jnsgd1na2vs0mg"},{"bike_id":"f1aff64e-ac8b-4f9c-92f4-c492f8766ee6","system_id":"levelo_inurba_marseille","lat":43.30928,"lon":5.40149,"is_reserved":false,"is_disabled":false,"rental_uris":{"android":"levelo://app?vid=f1aff64e-ac8b-4f9c-92f4-c492f8766ee6","ios":"levelo://app?vid=f1aff64e-ac8b-4f9c-92f4-c492f8766ee6"},"vehicle_type_id":"4","last_reported":1732623539,"current_range_meters":38000,"station_id":"ce4bgvp2rcd13ifvqct0","pricing_plan_id":"cebpf4jnsgd1na2vs0mg"},{"bike_id":"23ec9d24-6bca-46d6-a978-35ea7a325474","system_id":"levelo_inurba_marseille","lat":43.30463,"lon":5.37916,"is_reserved":false,"is_disabled":false,"rental_uris":{"android":"levelo://app?vid=23ec9d24-6bca-46d6-a978-35ea7a325474","ios":"levelo://app?vid=23ec9d24-6bca-46d6-a978-35ea7a325474"},"vehicle_type_id":"4","last_reported":1732623539,"current_range_meters":38800,"station_id":"ce4bgup2rcd13ifvqcn0","pricing_plan_id":"cebpf4jnsgd1na2vs0mg"},{"bike_id":"df6dfede-364c-4a0e-8f22-cb21db50a29f","system_id":"levelo_inurba_marseille","lat":43.23179,"lon":5.39989,"is_reserved":false,"is_disabled":false,"rental_uris":{"android":"levelo://app?vid=df6dfede-364c-4a0e-8f22-cb21db50a29f","ios":"levelo://app?vid=df6dfede-364c-4a0e-8f22-cb21db50a29f"},"vehicle_type_id":"4","last_reported":1732623539,"current_range_meters":39200,"station_id":"ce4bhn12rcd13ifvqgqg","pricing_plan_id":"cebpf4jnsgd1na2vs0mg"},{"bike_id":"f322df79-0242-4db0-ac2e-452d61c9528e","system_id":"levelo_inurba_marseille","lat":43.25576,"lon":5.38244,"is_reserved":false,"is_disabled":true,"rental_uris":{"android":"levelo://app?vid=f322df79-0242-4db0-ac2e-452d61c9528e","ios":"levelo://app?vid=f322df79-0242-4db0-ac2e-452d61c9528e"},"vehicle_type_id":"4","last_reported":1732623539,"current_range_meters":38800,"station_id":"ce4bhih2rcd13ifvqfs0","pricing_plan_id":"cebpf4jnsgd1na2vs0mg"},{"bike_id":"0441d90f-1f2e-4380-978a-7d0df6d4717a","system_id":"levelo_inurba_marseille","lat":43.29974,"lon":5.37177,"is_reserved":false,"is_disabled":false,"rental_uris":{"android":"levelo://app?vid=0441d90f-1f2e-4380-978a-7d0df6d4717a","ios":"levelo://app?vid=0441d90f-1f2e-4380-978a-7d0df6d4717a"},"vehicle_type_id":"4","last_reported":1732623539,"current_range_meters":26800,"station_id":"ce4bgr92rcd13ifvqc7g","pricing_plan_id":"cebpf4jnsgd1na2vs0mg"},{"bike_id":"1ba60b54-7211-4879-bd92-2b16132ca82d","system_id":"levelo_inurba_marseille","lat":43.30562,"lon":5.36553,"is_reserved":false,"is_disabled":false,"rental_uris":{"android":"levelo://app?vid=1ba60b54-7211-4879-bd92-2b16132ca82d","ios":"levelo://app?vid=1ba60b54-7211-4879-bd92-2b16132ca82d"},"vehicle_type_id":"4","last_reported":1732623539,"current_range_meters":29600,"station_id":"ce4bgs12rcd13ifvqcag","pricing_plan_id":"cebpf4jnsgd1na2vs0mg"},{"bike_id":"c193f982-2451-4a4a-8ec7-9eb1d783973b","system_id":"levelo_inurba_marseille","lat":43.26789,"lon":5.39412,"is_reserved":false,"is_disabled":false,"rental_uris":{"android":"levelo://app?vid=c193f982-2451-4a4a-8ec7-9eb1d783973b","ios":"levelo://app?vid=c193f982-2451-4a4a-8ec7-9eb1d783973b"},"vehicle_type_id":"4","last_reported":1732623539,"current_range_meters":20000,"station_id":"ce4bhh12rcd13ifvqfg0","pricing_plan_id":"cebpf4jnsgd1na2vs0mg"},{"bike_id":"647b2db8-f9b7-4055-ae8a-5992f1e30c8a","system_id":"levelo_inurba_marseille","lat":43.30949,"lon":5.3904,"is_reserved":false,"is_disabled":true,"rental_uris":{"android":"levelo://app?vid=647b2db8-f9b7-4055-ae8a-5992f1e30c8a","ios":"levelo://app?vid=647b2db8-f9b7-4055-ae8a-5992f1e30c8a"},"vehicle_type_id":"4","last_reported":1732623539,"current_range_meters":1200,"station_id":"ce4bgup2rcd13ifvqco0","pricing_plan_id":"cebpf4jnsgd1na2vs0mg"},{"bike_id":"2b96727d-4246-4036-b336-c57d9697f4c7","system_id":"levelo_inurba_marseille","lat":43.2606,"lon":5.39399,"is_reserved":false,"is_disabled":false,"rental_uris":{"android":"levelo://app?vid=2b96727d-4246-4036-b336-c57d9697f4c7","ios":"levelo://app?vid=2b96727d-4246-4036-b336-c57d9697f4c7"},"vehicle_type_id":"4","last_reported":1732623539,"current_range_meters":2000,"station_id":"ce4bhh92rcd13ifvqfj0","pricing_plan_id":"cebpf4jnsgd1na2vs0mg"},{"bike_id":"36296f5c-0176-4be0-97c8-7930cda9c369","system_id":"levelo_inurba_marseille","lat":43.32106,"lon":5.3677,"is_reserved":false,"is_disabled":false,"rental_uris":{"android":"levelo://app?vid=36296f5c-0176-4be0-97c8-7930cda9c369","ios":"levelo://app?vid=36296f5c-0176-4be0-97c8-7930cda9c369"},"vehicle_type_id":"4","last_reported":1732623539,"current_range_meters":22800,"station_id":"ce4bhrh2rcd13ifvqhug","pricing_plan_id":"cebpf4jnsgd1na2vs0mg"},{"bike_id":"1dc01450-1594-45c1-b733-44065a259127","system_id":"levelo_inurba_marseille","lat":43.29529,"lon":5.38552,"is_reserved":false,"is_disabled":false,"rental_uris":{"android":"levelo://app?vid=1dc01450-1594-45c1-b733-44065a259127","ios":"levelo://app?vid=1dc01450-1594-45c1-b733-44065a259127"},"vehicle_type_id":"4","last_reported":1732623539,"current_range_meters":14000,"station_id":"ce4bgih2rcd13ifvqba0","pricing_plan_id":"cebpf4jnsgd1na2vs0mg"},{"bike_id":"2cb276b6-2662-43b4-bd30-5856367b625f","system_id":"levelo_inurba_marseille","lat":43.32523,"lon":5.41443,"is_reserved":false,"is_disabled":false,"rental_uris":{"android":"levelo://app?vid=2cb276b6-2662-43b4-bd30-5856367b625f","ios":"levelo://app?vid=2cb276b6-2662-43b4-bd30-5856367b625f"},"vehicle_type_id":"4","last_reported":1732623539,"current_range_meters":20800,"station_id":"ce4bhq12rcd13ifvqhhg","pricing_plan_id":"cebpf4jnsgd1na2vs0mg"},{"bike_id":"612e5fbc-1b3d-4719-b1bd-ea84b5b29229","system_id":"levelo_inurba_marseille","lat":43.30322,"lon":5.40436,"is_reserved":false,"is_disabled":false,"rental_uris":{"android":"levelo://app?vid=612e5fbc-1b3d-4719-b1bd-ea84b5b29229","ios":"levelo://app?vid=612e5fbc-1b3d-4719-b1bd-ea84b5b29229"},"vehicle_type_id":"4","last_reported":1732623539,"current_range_meters":11200,"station_id":"ce4bh012rcd13ifvqd10","pricing_plan_id":"cebpf4jnsgd1na2vs0mg"},{"bike_id":"2d3ac0cf-9b0a-4e1a-a923-ea0c3542ce6a","system_id":"levelo_inurba_marseille","lat":43.26027,"lon":5.37553,"is_reserved":false,"is_disabled":false,"rental_uris":{"android":"levelo://app?vid=2d3ac0cf-9b0a-4e1a-a923-ea0c3542ce6a","ios":"levelo://app?vid=2d3ac0cf-9b0a-4e1a-a923-ea0c3542ce6a"},"vehicle_type_id":"4","last_reported":1732623539,"current_range_meters":13600,"station_id":"ce4bhgh2rcd13ifvqfa0","pricing_plan_id":"cebpf4jnsgd1na2vs0mg"},{"bike_id":"1ebc2642-599e-41e5-89df-308a45bbfcfb","system_id":"levelo_inurba_marseille","lat":43.32102,"lon":5.36778,"is_reserved":false,"is_disabled":false,"rental_uris":{"android":"levelo://app?vid=1ebc2642-599e-41e5-89df-308a45bbfcfb","ios":"levelo://app?vid=1ebc2642-599e-41e5-89df-308a45bbfcfb"},"vehicle_type_id":"4","last_reported":1732623539,"current_range_meters":14800,"station_id":"ce4bhrh2rcd13ifvqhug","pricing_plan_id":"cebpf4jnsgd1na2vs0mg"},{"bike_id":"fc96c749-4012-4386-ac2f-c5e0790be467","system_id":"levelo_inurba_marseille","lat":43.30523,"lon":5.3672,"is_reserved":false,"is_disabled":false,"rental_uris":{"android":"levelo://app?vid=fc96c749-4012-4386-ac2f-c5e0790be467","ios":"levelo://app?vid=fc96c749-4012-4386-ac2f-c5e0790be467"},"vehicle_type_id":"4","last_reported":1732623539,"current_range_meters":35600,"station_id":"ce4bgrp2rcd13ifvqc9g","pricing_plan_id":"cebpf4jnsgd1na2vs0mg"},{"bike_id":"d30af700-f380-45c9-95ac-47b8fb70d46d","system_id":"levelo_inurba_marseille","lat":43.30594,"lon":5.39358,"is_reserved":false,"is_disabled":false,"rental_uris":{"android":"levelo://app?vid=d30af700-f380-45c9-95ac-47b8fb70d46d","ios":"levelo://app?vid=d30af700-f380-45c9-95ac-47b8fb70d46d"},"vehicle_type_id":"4","last_reported":1732623539,"current_range_meters":34800,"station_id":"ce4bh0p2rcd13ifvqd80","pricing_plan_id":"cebpf4jnsgd1na2vs0mg"},{"bike_id":"e8a12a11-eb94-43a1-89dc-1a990d2d11f4","system_id":"levelo_inurba_marseille","lat":43.23146,"lon":5.4372,"is_reserved":false,"is_disabled":false,"rental_uris":{"android":"levelo://app?vid=e8a12a11-eb94-43a1-89dc-1a990d2d11f4","ios":"levelo://app?vid=e8a12a11-eb94-43a1-89dc-1a990d2d11f4"},"vehicle_type_id":"4","last_reported":1732623539,"current_range_meters":38400,"station_id":"ce4bhmp2rcd13ifvqgog","pricing_plan_id":"cebpf4jnsgd1na2vs0mg"},{"bike_id":"ec076195-149f-4188-81d9-17325e5f1175","system_id":"levelo_inurba_marseille","lat":43.29795,"lon":5.3811,"is_reserved":false,"is_disabled":true,"rental_uris":{"android":"levelo://app?vid=ec076195-149f-4188-81d9-17325e5f1175","ios":"levelo://app?vid=ec076195-149f-4188-81d9-17325e5f1175"},"vehicle_type_id":"4","last_reported":1732623539,"current_range_meters":27200,"station_id":"ce4bgip2rcd13ifvqbb0","pricing_plan_id":"cebpf4jnsgd1na2vs0mg"},{"bike_id":"a10a5d44-7541-400b-9a37-49835effd4f5","system_id":"levelo_inurba_marseille","lat":43.28919,"lon":5.36384,"is_reserved":false,"is_disabled":false,"rental_uris":{"android":"levelo://app?vid=a10a5d44-7541-400b-9a37-49835effd4f5","ios":"levelo://app?vid=a10a5d44-7541-400b-9a37-49835effd4f5"},"vehicle_type_id":"4","last_reported":1732623539,"current_range_meters":29600,"station_id":"ce4bhc92rcd13ifvqetg","pricing_plan_id":"cebpf4jnsgd1na2vs0mg"},{"bike_id":"c7f283b3-994d-4c73-a497-d3a94036b360","system_id":"levelo_inurba_marseille","lat":43.25,"lon":5.389235,"is_reserved":false,"is_disabled":false,"rental_uris":{"android":"levelo://app?vid=c7f283b3-994d-4c73-a497-d3a94036b360","ios":"levelo://app?vid=c7f283b3-994d-4c73-a497-d3a94036b360"},"vehicle_type_id":"4","last_reported":1732623539,"current_range_meters":4800,"station_id":"ce4bhgp2rcd13ifvqfd0","pricing_plan_id":"cebpf4jnsgd1na2vs0mg"},{"bike_id":"5e501ae5-644b-45f2-8a81-073cc9474b71","system_id":"levelo_inurba_marseille","lat":43.23189,"lon":5.39982,"is_reserved":false,"is_disabled":false,"rental_uris":{"android":"levelo://app?vid=5e501ae5-644b-45f2-8a81-073cc9474b71","ios":"levelo://app?vid=5e501ae5-644b-45f2-8a81-073cc9474b71"},"vehicle_type_id":"4","last_reported":1732623539,"current_range_meters":6400,"station_id":"ce4bhn12rcd13ifvqgqg","pricing_plan_id":"cebpf4jnsgd1na2vs0mg"},{"bike_id":"dbb4bef5-f8d1-4eea-90a9-4da7137739b4","system_id":"levelo_inurba_marseille","lat":43.30545,"lon":5.36701,"is_reserved":false,"is_disabled":false,"rental_uris":{"android":"levelo://app?vid=dbb4bef5-f8d1-4eea-90a9-4da7137739b4","ios":"levelo://app?vid=dbb4bef5-f8d1-4eea-90a9-4da7137739b4"},"vehicle_type_id":"4","last_reported":1732623539,"current_range_meters":36800,"station_id":"ce4bgrp2rcd13ifvqc9g","pricing_plan_id":"cebpf4jnsgd1na2vs0mg"},{"bike_id":"ecafbf04-e97c-486f-8502-ae4081837df7","system_id":"levelo_inurba_marseille","lat":43.25002,"lon":5.38927,"is_reserved":false,"is_disabled":false,"rental_uris":{"android":"levelo://app?vid=ecafbf04-e97c-486f-8502-ae4081837df7","ios":"levelo://app?vid=ecafbf04-e97c-486f-8502-ae4081837df7"},"vehicle_type_id":"4","last_reported":1732623539,"current_range_meters":38800,"station_id":"ce4bhgp2rcd13ifvqfd0","pricing_plan_id":"cebpf4jnsgd1na2vs0mg"},{"bike_id":"39969d71-e080-4f64-82ae-e29c1c38f22f","system_id":"levelo_inurba_marseille","lat":43.30467,"lon":5.37912,"is_reserved":false,"is_disabled":false,"rental_uris":{"android":"levelo://app?vid=39969d71-e080-4f64-82ae-e29c1c38f22f","ios":"levelo://app?vid=39969d71-e080-4f64-82ae-e29c1c38f22f"},"vehicle_type_id":"4","last_reported":1732623539,"current_range_meters":6000,"station_id":"ce4bgup2rcd13ifvqcn0","pricing_plan_id":"cebpf4jnsgd1na2vs0mg"},{"bike_id":"da587ae6-9a09-4f1f-9801-49ebadd9eaba","system_id":"levelo_inurba_marseille","lat":43.27486,"lon":5.42455,"is_reserved":false,"is_disabled":true,"rental_uris":{"android":"levelo://app?vid=da587ae6-9a09-4f1f-9801-49ebadd9eaba","ios":"levelo://app?vid=da587ae6-9a09-4f1f-9801-49ebadd9eaba"},"vehicle_type_id":"4","last_reported":1732623539,"current_range_meters":8000,"station_id":"ce4bhn92rcd13ifvqgrg","pricing_plan_id":"cebpf4jnsgd1na2vs0mg"},{"bike_id":"572435f9-42b4-4ff9-bb3e-bd7d048670e4","system_id":"levelo_inurba_marseille","lat":43.29003,"lon":5.35607,"is_reserved":false,"is_disabled":false,"rental_uris":{"android":"levelo://app?vid=572435f9-42b4-4ff9-bb3e-bd7d048670e4","ios":"levelo://app?vid=572435f9-42b4-4ff9-bb3e-bd7d048670e4"},"vehicle_type_id":"4","last_reported":1732623539,"current_range_meters":39200,"station_id":"ce4bhb92rcd13ifvqen0","pricing_plan_id":"cebpf4jnsgd1na2vs0mg"},{"bike_id":"ac3c6b0d-c4b9-4ff1-b1a2-8adea9f368fc","system_id":"levelo_inurba_marseille","lat":43.30193,"lon":5.36609,"is_reserved":false,"is_disabled":true,"rental_uris":{"android":"levelo://app?vid=ac3c6b0d-c4b9-4ff1-b1a2-8adea9f368fc","ios":"levelo://app?vid=ac3c6b0d-c4b9-4ff1-b1a2-8adea9f368fc"},"vehicle_type_id":"4","last_reported":1732623539,"current_range_meters":36400,"station_id":"ce4bgrh2rcd13ifvqc8g","pricing_plan_id":"cebpf4jnsgd1na2vs0mg"},{"bike_id":"8f95b22c-ec31-4dd2-83b6-0fb7f715f71c","system_id":"levelo_inurba_marseille","lat":43.32369,"lon":5.38886,"is_reserved":false,"is_disabled":false,"rental_uris":{"android":"levelo://app?vid=8f95b22c-ec31-4dd2-83b6-0fb7f715f71c","ios":"levelo://app?vid=8f95b22c-ec31-4dd2-83b6-0fb7f715f71c"},"vehicle_type_id":"4","last_reported":1732623539,"current_range_meters":27200,"station_id":"ce4bhqp2rcd13ifvqhog","pricing_plan_id":"cebpf4jnsgd1na2vs0mg"},{"bike_id":"85e24196-939c-4214-af6f-e532d656d87c","system_id":"levelo_inurba_marseille","lat":43.28081,"lon":5.3966,"is_reserved":false,"is_disabled":false,"rental_uris":{"android":"levelo://app?vid=85e24196-939c-4214-af6f-e532d656d87c","ios":"levelo://app?vid=85e24196-939c-4214-af6f-e532d656d87c"},"vehicle_type_id":"4","last_reported":1732623539,"current_range_meters":36800,"station_id":"ce4bho12rcd13ifvqh2g","pricing_plan_id":"cebpf4jnsgd1na2vs0mg"},{"bike_id":"edc4ec26-9586-43e2-8071-e01c01aa0cd4","system_id":"levelo_inurba_marseille","lat":43.24391,"lon":5.37061,"is_reserved":false,"is_disabled":false,"rental_uris":{"android":"levelo://app?vid=edc4ec26-9586-43e2-8071-e01c01aa0cd4","ios":"levelo://app?vid=edc4ec26-9586-43e2-8071-e01c01aa0cd4"},"vehicle_type_id":"4","last_reported":1732623539,"current_range_meters":28400,"station_id":"ce4bhhh2rcd13ifvqfk0","pricing_plan_id":"cebpf4jnsgd1na2vs0mg"},{"bike_id":"548ef624-6be8-4d1b-8570-89d6dd7d18ce","system_id":"levelo_inurba_marseille","lat":43.27988,"lon":5.41658,"is_reserved":false,"is_disabled":false,"rental_uris":{"android":"levelo://app?vid=548ef624-6be8-4d1b-8570-89d6dd7d18ce","ios":"levelo://app?vid=548ef624-6be8-4d1b-8570-89d6dd7d18ce"},"vehicle_type_id":"4","last_reported":1732623539,"current_range_meters":38800,"station_id":"ce4bho12rcd13ifvqh1g","pricing_plan_id":"cebpf4jnsgd1na2vs0mg"},{"bike_id":"a0aa2388-5d18-4dda-a520-ed56ea55244f","system_id":"levelo_inurba_marseille","lat":43.28616,"lon":5.35107,"is_reserved":false,"is_disabled":false,"rental_uris":{"android":"levelo://app?vid=a0aa2388-5d18-4dda-a520-ed56ea55244f","ios":"levelo://app?vid=a0aa2388-5d18-4dda-a520-ed56ea55244f"},"vehicle_type_id":"4","last_reported":1732623539,"current_range_meters":26800,"station_id":"ce4bhch2rcd13ifvqeug","pricing_plan_id":"cebpf4jnsgd1na2vs0mg"},{"bike_id":"8c1b6cce-854a-468e-82f6-13bf5be31e7b","system_id":"levelo_inurba_marseille","lat":43.28351,"lon":5.38104,"is_reserved":false,"is_disabled":false,"rental_uris":{"android":"levelo://app?vid=8c1b6cce-854a-468e-82f6-13bf5be31e7b","ios":"levelo://app?vid=8c1b6cce-854a-468e-82f6-13bf5be31e7b"},"vehicle_type_id":"4","last_reported":1732623539,"current_range_meters":28000,"station_id":"ce4bh412rcd13ifvqdr0","pricing_plan_id":"cebpf4jnsgd1na2vs0mg"},{"bike_id":"ed00ff1c-a428-4ce5-a455-260378e65da7","system_id":"levelo_inurba_marseille","lat":43.28815,"lon":5.40034,"is_reserved":false,"is_disabled":true,"rental_uris":{"android":"levelo://app?vid=ed00ff1c-a428-4ce5-a455-260378e65da7","ios":"levelo://app?vid=ed00ff1c-a428-4ce5-a455-260378e65da7"},"vehicle_type_id":"4","last_reported":1732623539,"current_range_meters":0,"station_id":"","pricing_plan_id":"cebpf4jnsgd1na2vs0mg"},{"bike_id":"1e01212b-abf0-4e0b-b18b-622fee59af63","system_id":"levelo_inurba_marseille","lat":43.27568,"lon":5.38414,"is_reserved":false,"is_disabled":true,"rental_uris":{"android":"levelo://app?vid=1e01212b-abf0-4e0b-b18b-622fee59af63","ios":"levelo://app?vid=1e01212b-abf0-4e0b-b18b-622fee59af63"},"vehicle_type_id":"4","last_reported":1732623539,"current_range_meters":20000,"station_id":"ce4bhh92rcd13ifvqfi0","pricing_plan_id":"cebpf4jnsgd1na2vs0mg"},{"bike_id":"6dbaae53-44ac-46b8-bb1c-d5037e02bb6d","system_id":"levelo_inurba_marseille","lat":43.29223,"lon":5.36059,"is_reserved":false,"is_disabled":false,"rental_uris":{"android":"levelo://app?vid=6dbaae53-44ac-46b8-bb1c-d5037e02bb6d","ios":"levelo://app?vid=6dbaae53-44ac-46b8-bb1c-d5037e02bb6d"},"vehicle_type_id":"4","last_reported":1732623539,"current_range_meters":27600,"station_id":"ce4bhbh2rcd13ifvqeqg","pricing_plan_id":"cebpf4jnsgd1na2vs0mg"},{"bike_id":"858b65e1-94fc-4151-a71e-8b168cb19dcb","system_id":"levelo_inurba_marseille","lat":43.32249,"lon":5.39241,"is_reserved":false,"is_disabled":true,"rental_uris":{"android":"levelo://app?vid=858b65e1-94fc-4151-a71e-8b168cb19dcb","ios":"levelo://app?vid=858b65e1-94fc-4151-a71e-8b168cb19dcb"},"vehicle_type_id":"4","last_reported":1732623539,"current_range_meters":0,"station_id":"","pricing_plan_id":"cebpf4jnsgd1na2vs0mg"},{"bike_id":"fff12834-2f91-4236-90b9-bdac56036ced","system_id":"levelo_inurba_marseille","lat":43.26947,"lon":5.3863,"is_reserved":false,"is_disabled":false,"rental_uris":{"android":"levelo://app?vid=fff12834-2f91-4236-90b9-bdac56036ced","ios":"levelo://app?vid=fff12834-2f91-4236-90b9-bdac56036ced"},"vehicle_type_id":"4","last_reported":1732623539,"current_range_meters":9200,"station_id":"ce4bhh92rcd13ifvqfh0","pricing_plan_id":"cebpf4jnsgd1na2vs0mg"},{"bike_id":"e51b2acb-d883-446b-9ce9-347608453ece","system_id":"levelo_inurba_marseille","lat":43.22933,"lon":5.35372,"is_reserved":false,"is_disabled":false,"rental_uris":{"android":"levelo://app?vid=e51b2acb-d883-446b-9ce9-347608453ece","ios":"levelo://app?vid=e51b2acb-d883-446b-9ce9-347608453ece"},"vehicle_type_id":"4","last_reported":1732623539,"current_range_meters":30400,"station_id":"cpo3532slgdg3j2ikp40","pricing_plan_id":"cebpf4jnsgd1na2vs0mg"},{"bike_id":"9b363232-8f76-4870-a7c9-49c00e02e754","system_id":"levelo_inurba_marseille","lat":43.27937,"lon":5.41052,"is_reserved":false,"is_disabled":false,"rental_uris":{"android":"levelo://app?vid=9b363232-8f76-4870-a7c9-49c00e02e754","ios":"levelo://app?vid=9b363232-8f76-4870-a7c9-49c00e02e754"},"vehicle_type_id":"4","last_reported":1732623539,"current_range_meters":18800,"station_id":"ce4bhnp2rcd13ifvqh0g","pricing_plan_id":"cebpf4jnsgd1na2vs0mg"},{"bike_id":"fb6f267e-8f2f-4000-94c2-2899cf721536","system_id":"levelo_inurba_marseille","lat":43.309714,"lon":5.40564,"is_reserved":false,"is_disabled":false,"rental_uris":{"android":"levelo://app?vid=fb6f267e-8f2f-4000-94c2-2899cf721536","ios":"levelo://app?vid=fb6f267e-8f2f-4000-94c2-2899cf721536"},"vehicle_type_id":"4","last_reported":1732623539,"current_range_meters":7200,"station_id":"","pricing_plan_id":"cebpf4jnsgd1na2vs0mg"},{"bike_id":"9fc0dfff-24f1-4fb3-ba2b-5a50ec53c77c","system_id":"levelo_inurba_marseille","lat":43.27834,"lon":5.39222,"is_reserved":false,"is_disabled":false,"rental_uris":{"android":"levelo://app?vid=9fc0dfff-24f1-4fb3-ba2b-5a50ec53c77c","ios":"levelo://app?vid=9fc0dfff-24f1-4fb3-ba2b-5a50ec53c77c"},"vehicle_type_id":"4","last_reported":1732623539,"current_range_meters":36400,"station_id":"ce4bhjp2rcd13ifvqga0","pricing_plan_id":"cebpf4jnsgd1na2vs0mg"},{"bike_id":"8ede19bc-72b2-4609-abce-75881a156ff7","system_id":"levelo_inurba_marseille","lat":43.30589,"lon":5.39357,"is_reserved":false,"is_disabled":false,"rental_uris":{"android":"levelo://app?vid=8ede19bc-72b2-4609-abce-75881a156ff7","ios":"levelo://app?vid=8ede19bc-72b2-4609-abce-75881a156ff7"},"vehicle_type_id":"4","last_reported":1732623539,"current_range_meters":37600,"station_id":"ce4bh0p2rcd13ifvqd80","pricing_plan_id":"cebpf4jnsgd1na2vs0mg"},{"bike_id":"bf931dd5-f51c-4e08-a215-d4b67ea18d16","system_id":"levelo_inurba_marseille","lat":43.27376,"lon":5.3626,"is_reserved":false,"is_disabled":false,"rental_uris":{"android":"levelo://app?vid=bf931dd5-f51c-4e08-a215-d4b67ea18d16","ios":"levelo://app?vid=bf931dd5-f51c-4e08-a215-d4b67ea18d16"},"vehicle_type_id":"4","last_reported":1732623539,"current_range_meters":27200,"station_id":"ce4bhbh2rcd13ifvqeo0","pricing_plan_id":"cebpf4jnsgd1na2vs0mg"},{"bike_id":"e56684af-a751-4c04-bbbf-8c304207b3ae","system_id":"levelo_inurba_marseille","lat":43.2318,"lon":5.35555,"is_reserved":false,"is_disabled":false,"rental_uris":{"android":"levelo://app?vid=e56684af-a751-4c04-bbbf-8c304207b3ae","ios":"levelo://app?vid=e56684af-a751-4c04-bbbf-8c304207b3ae"},"vehicle_type_id":"4","last_reported":1732623539,"current_range_meters":8800,"station_id":"ce4bhu92rcd13ifvqi70","pricing_plan_id":"cebpf4jnsgd1na2vs0mg"},{"bike_id":"3bd4e758-1aa1-43e4-bf3f-c7c2dd799e60","system_id":"levelo_inurba_marseille","lat":43.23143,"lon":5.43752,"is_reserved":false,"is_disabled":false,"rental_uris":{"android":"levelo://app?vid=3bd4e758-1aa1-43e4-bf3f-c7c2dd799e60","ios":"levelo://app?vid=3bd4e758-1aa1-43e4-bf3f-c7c2dd799e60"},"vehicle_type_id":"4","last_reported":1732623539,"current_range_meters":38400,"station_id":"ce4bhmp2rcd13ifvqgog","pricing_plan_id":"cebpf4jnsgd1na2vs0mg"},{"bike_id":"f7f3756c-1ec7-4782-9c87-6273f87b6774","system_id":"levelo_inurba_marseille","lat":43.337444,"lon":5.374475,"is_reserved":false,"is_disabled":true,"rental_uris":{"android":"levelo://app?vid=f7f3756c-1ec7-4782-9c87-6273f87b6774","ios":"levelo://app?vid=f7f3756c-1ec7-4782-9c87-6273f87b6774"},"vehicle_type_id":"4","last_reported":1732623539,"current_range_meters":19600,"station_id":"","pricing_plan_id":"cebpf4jnsgd1na2vs0mg"},{"bike_id":"79f75c97-9d23-4a9f-8a4a-47dfab517a8e","system_id":"levelo_inurba_marseille","lat":43.30153,"lon":5.38072,"is_reserved":false,"is_disabled":false,"rental_uris":{"android":"levelo://app?vid=79f75c97-9d23-4a9f-8a4a-47dfab517a8e","ios":"levelo://app?vid=79f75c97-9d23-4a9f-8a4a-47dfab517a8e"},"vehicle_type_id":"4","last_reported":1732623539,"current_range_meters":28800,"station_id":"ce4bgjp2rcd13ifvqbh0","pricing_plan_id":"cebpf4jnsgd1na2vs0mg"},{"bike_id":"ae78cd95-0524-4346-8c3e-35a78db9a346","system_id":"levelo_inurba_marseille","lat":43.26064,"lon":5.39396,"is_reserved":false,"is_disabled":false,"rental_uris":{"android":"levelo://app?vid=ae78cd95-0524-4346-8c3e-35a78db9a346","ios":"levelo://app?vid=ae78cd95-0524-4346-8c3e-35a78db9a346"},"vehicle_type_id":"4","last_reported":1732623539,"current_range_meters":14800,"station_id":"ce4bhh92rcd13ifvqfj0","pricing_plan_id":"cebpf4jnsgd1na2vs0mg"},{"bike_id":"9adee9fd-f947-4fa8-80d6-8d4dc8240b71","system_id":"levelo_inurba_marseille","lat":43.30465,"lon":5.37915,"is_reserved":false,"is_disabled":false,"rental_uris":{"android":"levelo://app?vid=9adee9fd-f947-4fa8-80d6-8d4dc8240b71","ios":"levelo://app?vid=9adee9fd-f947-4fa8-80d6-8d4dc8240b71"},"vehicle_type_id":"4","last_reported":1732623539,"current_range_meters":21600,"station_id":"ce4bgup2rcd13ifvqcn0","pricing_plan_id":"cebpf4jnsgd1na2vs0mg"},{"bike_id":"335db0e2-7303-4337-8e5f-7cad70e7c6f2","system_id":"levelo_inurba_marseille","lat":43.29522,"lon":5.39046,"is_reserved":false,"is_disabled":false,"rental_uris":{"android":"levelo://app?vid=335db0e2-7303-4337-8e5f-7cad70e7c6f2","ios":"levelo://app?vid=335db0e2-7303-4337-8e5f-7cad70e7c6f2"},"vehicle_type_id":"4","last_reported":1732623539,"current_range_meters":38800,"station_id":"ce4bh3p2rcd13ifvqdp0","pricing_plan_id":"cebpf4jnsgd1na2vs0mg"},{"bike_id":"14f3c269-ea7b-4aeb-9a6e-2af7df033998","system_id":"levelo_inurba_marseille","lat":43.26062,"lon":5.39392,"is_reserved":false,"is_disabled":true,"rental_uris":{"android":"levelo://app?vid=14f3c269-ea7b-4aeb-9a6e-2af7df033998","ios":"levelo://app?vid=14f3c269-ea7b-4aeb-9a6e-2af7df033998"},"vehicle_type_id":"4","last_reported":1732623539,"current_range_meters":38800,"station_id":"ce4bhh92rcd13ifvqfj0","pricing_plan_id":"cebpf4jnsgd1na2vs0mg"},{"bike_id":"dfba7dbd-3a8c-457c-ba09-176d0fadee26","system_id":"levelo_inurba_marseille","lat":43.28735,"lon":5.3794,"is_reserved":false,"is_disabled":false,"rental_uris":{"android":"levelo://app?vid=dfba7dbd-3a8c-457c-ba09-176d0fadee26","ios":"levelo://app?vid=dfba7dbd-3a8c-457c-ba09-176d0fadee26"},"vehicle_type_id":"4","last_reported":1732623539,"current_range_meters":6000,"station_id":"ce4bh9p2rcd13ifvqec0","pricing_plan_id":"cebpf4jnsgd1na2vs0mg"},{"bike_id":"f5658b6b-05db-4270-b5a2-b12a283db2c3","system_id":"levelo_inurba_marseille","lat":43.32291,"lon":5.3827,"is_reserved":false,"is_disabled":false,"rental_uris":{"android":"levelo://app?vid=f5658b6b-05db-4270-b5a2-b12a283db2c3","ios":"levelo://app?vid=f5658b6b-05db-4270-b5a2-b12a283db2c3"},"vehicle_type_id":"4","last_reported":1732623539,"current_range_meters":38800,"station_id":"ce4bhr12rcd13ifvqhqg","pricing_plan_id":"cebpf4jnsgd1na2vs0mg"},{"bike_id":"1f805567-48da-46fb-8cbb-cb09cc17ccfc","system_id":"levelo_inurba_marseille","lat":43.23956,"lon":5.36641,"is_reserved":false,"is_disabled":false,"rental_uris":{"android":"levelo://app?vid=1f805567-48da-46fb-8cbb-cb09cc17ccfc","ios":"levelo://app?vid=1f805567-48da-46fb-8cbb-cb09cc17ccfc"},"vehicle_type_id":"4","last_reported":1732623539,"current_range_meters":24400,"station_id":"ce4bhi12rcd13ifvqfp0","pricing_plan_id":"cebpf4jnsgd1na2vs0mg"},{"bike_id":"a5909545-3e09-4859-9fda-9ffe4e6e4883","system_id":"levelo_inurba_marseille","lat":43.23065,"lon":5.35491,"is_reserved":false,"is_disabled":false,"rental_uris":{"android":"levelo://app?vid=a5909545-3e09-4859-9fda-9ffe4e6e4883","ios":"levelo://app?vid=a5909545-3e09-4859-9fda-9ffe4e6e4883"},"vehicle_type_id":"4","last_reported":1732623539,"current_range_meters":32000,"station_id":"cpo3342slgdg3j2ifvpg","pricing_plan_id":"cebpf4jnsgd1na2vs0mg"},{"bike_id":"17c860cd-9554-4821-900c-6cdf3f87de32","system_id":"levelo_inurba_marseille","lat":43.22919,"lon":5.35392,"is_reserved":false,"is_disabled":false,"rental_uris":{"android":"levelo://app?vid=17c860cd-9554-4821-900c-6cdf3f87de32","ios":"levelo://app?vid=17c860cd-9554-4821-900c-6cdf3f87de32"},"vehicle_type_id":"4","last_reported":1732623539,"current_range_meters":38800,"station_id":"cpo3532slgdg3j2ikp40","pricing_plan_id":"cebpf4jnsgd1na2vs0mg"},{"bike_id":"c6ebf3d4-bfbc-463a-84d1-84e4a5f78ee1","system_id":"levelo_inurba_marseille","lat":43.30187,"lon":5.36619,"is_reserved":false,"is_disabled":false,"rental_uris":{"android":"levelo://app?vid=c6ebf3d4-bfbc-463a-84d1-84e4a5f78ee1","ios":"levelo://app?vid=c6ebf3d4-bfbc-463a-84d1-84e4a5f78ee1"},"vehicle_type_id":"4","last_reported":1732623539,"current_range_meters":38800,"station_id":"ce4bgrh2rcd13ifvqc8g","pricing_plan_id":"cebpf4jnsgd1na2vs0mg"},{"bike_id":"8b855d86-2674-4484-ad52-bb485bad7ee1","system_id":"levelo_inurba_marseille","lat":43.30539,"lon":5.3653,"is_reserved":false,"is_disabled":false,"rental_uris":{"android":"levelo://app?vid=8b855d86-2674-4484-ad52-bb485bad7ee1","ios":"levelo://app?vid=8b855d86-2674-4484-ad52-bb485bad7ee1"},"vehicle_type_id":"4","last_reported":1732623539,"current_range_meters":30800,"station_id":"ce4bgs12rcd13ifvqcag","pricing_plan_id":"cebpf4jnsgd1na2vs0mg"},{"bike_id":"fd4b4543-2713-4afb-bb3b-ea8fcec7aa7e","system_id":"levelo_inurba_marseille","lat":43.29981,"lon":5.37187,"is_reserved":false,"is_disabled":false,"rental_uris":{"android":"levelo://app?vid=fd4b4543-2713-4afb-bb3b-ea8fcec7aa7e","ios":"levelo://app?vid=fd4b4543-2713-4afb-bb3b-ea8fcec7aa7e"},"vehicle_type_id":"4","last_reported":1732623539,"current_range_meters":17600,"station_id":"ce4bgr92rcd13ifvqc7g","pricing_plan_id":"cebpf4jnsgd1na2vs0mg"},{"bike_id":"e55cb847-ae27-4fbd-b24c-f65df0e27256","system_id":"levelo_inurba_marseille","lat":43.280348,"lon":5.369398,"is_reserved":false,"is_disabled":true,"rental_uris":{"android":"levelo://app?vid=e55cb847-ae27-4fbd-b24c-f65df0e27256","ios":"levelo://app?vid=e55cb847-ae27-4fbd-b24c-f65df0e27256"},"vehicle_type_id":"4","last_reported":1732623539,"current_range_meters":25600,"station_id":"ce4bha12rcd13ifvqef0","pricing_plan_id":"cebpf4jnsgd1na2vs0mg"},{"bike_id":"e5951ee3-4a5a-4ebb-b469-096c5188dfa3","system_id":"levelo_inurba_marseille","lat":43.23185,"lon":5.35555,"is_reserved":false,"is_disabled":false,"rental_uris":{"android":"levelo://app?vid=e5951ee3-4a5a-4ebb-b469-096c5188dfa3","ios":"levelo://app?vid=e5951ee3-4a5a-4ebb-b469-096c5188dfa3"},"vehicle_type_id":"4","last_reported":1732623539,"current_range_meters":36800,"station_id":"ce4bhu92rcd13ifvqi70","pricing_plan_id":"cebpf4jnsgd1na2vs0mg"},{"bike_id":"e2104004-821b-4cd5-97bb-7c88e986d710","system_id":"levelo_inurba_marseille","lat":43.25111,"lon":5.40324,"is_reserved":false,"is_disabled":true,"rental_uris":{"android":"levelo://app?vid=e2104004-821b-4cd5-97bb-7c88e986d710","ios":"levelo://app?vid=e2104004-821b-4cd5-97bb-7c88e986d710"},"vehicle_type_id":"4","last_reported":1732623539,"current_range_meters":8400,"station_id":"ce4bhlh2rcd13ifvqgig","pricing_plan_id":"cebpf4jnsgd1na2vs0mg"},{"bike_id":"f3465b37-c17a-45e5-b287-91ba7f371a28","system_id":"levelo_inurba_marseille","lat":43.28153,"lon":5.42653,"is_reserved":false,"is_disabled":false,"rental_uris":{"android":"levelo://app?vid=f3465b37-c17a-45e5-b287-91ba7f371a28","ios":"levelo://app?vid=f3465b37-c17a-45e5-b287-91ba7f371a28"},"vehicle_type_id":"4","last_reported":1732623539,"current_range_meters":16800,"station_id":"ce4bhnh2rcd13ifvqgug","pricing_plan_id":"cebpf4jnsgd1na2vs0mg"},{"bike_id":"66aad5d7-efa9-4543-8e11-bbf0af584fcf","system_id":"levelo_inurba_marseille","lat":43.27827,"lon":5.40722,"is_reserved":false,"is_disabled":false,"rental_uris":{"android":"levelo://app?vid=66aad5d7-efa9-4543-8e11-bbf0af584fcf","ios":"levelo://app?vid=66aad5d7-efa9-4543-8e11-bbf0af584fcf"},"vehicle_type_id":"4","last_reported":1732623539,"current_range_meters":38800,"station_id":"ce4bhnh2rcd13ifvqgtg","pricing_plan_id":"cebpf4jnsgd1na2vs0mg"},{"bike_id":"6c948e9c-d5b3-4fe5-a918-1bd2f7c83b02","system_id":"levelo_inurba_marseille","lat":43.32118,"lon":5.3678,"is_reserved":false,"is_disabled":false,"rental_uris":{"android":"levelo://app?vid=6c948e9c-d5b3-4fe5-a918-1bd2f7c83b02","ios":"levelo://app?vid=6c948e9c-d5b3-4fe5-a918-1bd2f7c83b02"},"vehicle_type_id":"4","last_reported":1732623539,"current_range_meters":18800,"station_id":"ce4bhrh2rcd13ifvqhug","pricing_plan_id":"cebpf4jnsgd1na2vs0mg"},{"bike_id":"9e620abf-d324-4f99-84fc-d67e71109f2a","system_id":"levelo_inurba_marseille","lat":43.31077,"lon":5.42435,"is_reserved":false,"is_disabled":true,"rental_uris":{"android":"levelo://app?vid=9e620abf-d324-4f99-84fc-d67e71109f2a","ios":"levelo://app?vid=9e620abf-d324-4f99-84fc-d67e71109f2a"},"vehicle_type_id":"4","last_reported":1732623539,"current_range_meters":0,"station_id":"ce4bhp92rcd13ifvqhag","pricing_plan_id":"cebpf4jnsgd1na2vs0mg"},{"bike_id":"2c597bc7-6df4-4180-a040-7c669379722f","system_id":"levelo_inurba_marseille","lat":43.30554,"lon":5.36539,"is_reserved":false,"is_disabled":true,"rental_uris":{"android":"levelo://app?vid=2c597bc7-6df4-4180-a040-7c669379722f","ios":"levelo://app?vid=2c597bc7-6df4-4180-a040-7c669379722f"},"vehicle_type_id":"4","last_reported":1732623539,"current_range_meters":26000,"station_id":"ce4bgs12rcd13ifvqcag","pricing_plan_id":"cebpf4jnsgd1na2vs0mg"},{"bike_id":"c58475dc-11bd-4094-95e9-2c3f9acc381c","system_id":"levelo_inurba_marseille","lat":43.27996,"lon":5.41665,"is_reserved":false,"is_disabled":false,"rental_uris":{"android":"levelo://app?vid=c58475dc-11bd-4094-95e9-2c3f9acc381c","ios":"levelo://app?vid=c58475dc-11bd-4094-95e9-2c3f9acc381c"},"vehicle_type_id":"4","last_reported":1732623539,"current_range_meters":33600,"station_id":"ce4bho12rcd13ifvqh1g","pricing_plan_id":"cebpf4jnsgd1na2vs0mg"},{"bike_id":"5c53cfbd-2547-413a-b79a-f8cc3b1ca992","system_id":"levelo_inurba_marseille","lat":43.32114,"lon":5.36773,"is_reserved":false,"is_disabled":false,"rental_uris":{"android":"levelo://app?vid=5c53cfbd-2547-413a-b79a-f8cc3b1ca992","ios":"levelo://app?vid=5c53cfbd-2547-413a-b79a-f8cc3b1ca992"},"vehicle_type_id":"4","last_reported":1732623539,"current_range_meters":32400,"station_id":"ce4bhrh2rcd13ifvqhug","pricing_plan_id":"cebpf4jnsgd1na2vs0mg"},{"bike_id":"a42119cb-2889-43e2-aa4f-9707a87e3e28","system_id":"levelo_inurba_marseille","lat":43.24654,"lon":5.38895,"is_reserved":false,"is_disabled":false,"rental_uris":{"android":"levelo://app?vid=a42119cb-2889-43e2-aa4f-9707a87e3e28","ios":"levelo://app?vid=a42119cb-2889-43e2-aa4f-9707a87e3e28"},"vehicle_type_id":"4","last_reported":1732623539,"current_range_meters":12400,"station_id":"ce4bhg12rcd13ifvqf60","pricing_plan_id":"cebpf4jnsgd1na2vs0mg"},{"bike_id":"78b462f2-70d1-4302-815d-dd04b11686c8","system_id":"levelo_inurba_marseille","lat":43.23955,"lon":5.36633,"is_reserved":false,"is_disabled":false,"rental_uris":{"android":"levelo://app?vid=78b462f2-70d1-4302-815d-dd04b11686c8","ios":"levelo://app?vid=78b462f2-70d1-4302-815d-dd04b11686c8"},"vehicle_type_id":"4","last_reported":1732623539,"current_range_meters":25200,"station_id":"ce4bhi12rcd13ifvqfp0","pricing_plan_id":"cebpf4jnsgd1na2vs0mg"},{"bike_id":"d93542ca-4fab-4818-b358-69eea253e068","system_id":"levelo_inurba_marseille","lat":43.2937,"lon":5.37823,"is_reserved":false,"is_disabled":false,"rental_uris":{"android":"levelo://app?vid=d93542ca-4fab-4818-b358-69eea253e068","ios":"levelo://app?vid=d93542ca-4fab-4818-b358-69eea253e068"},"vehicle_type_id":"4","last_reported":1732623539,"current_range_meters":39200,"station_id":"ce4bgjh2rcd13ifvqbf0","pricing_plan_id":"cebpf4jnsgd1na2vs0mg"},{"bike_id":"df773dc5-a184-4ebc-8085-dd9989ab64f4","system_id":"levelo_inurba_marseille","lat":43.23965,"lon":5.36631,"is_reserved":false,"is_disabled":false,"rental_uris":{"android":"levelo://app?vid=df773dc5-a184-4ebc-8085-dd9989ab64f4","ios":"levelo://app?vid=df773dc5-a184-4ebc-8085-dd9989ab64f4"},"vehicle_type_id":"4","last_reported":1732623539,"current_range_meters":6000,"station_id":"ce4bhi12rcd13ifvqfp0","pricing_plan_id":"cebpf4jnsgd1na2vs0mg"},{"bike_id":"8eeb8d10-d439-4383-83f9-0c746b9f6b8d","system_id":"levelo_inurba_marseille","lat":43.27998,"lon":5.41665,"is_reserved":false,"is_disabled":false,"rental_uris":{"android":"levelo://app?vid=8eeb8d10-d439-4383-83f9-0c746b9f6b8d","ios":"levelo://app?vid=8eeb8d10-d439-4383-83f9-0c746b9f6b8d"},"vehicle_type_id":"4","last_reported":1732623539,"current_range_meters":26800,"station_id":"ce4bho12rcd13ifvqh1g","pricing_plan_id":"cebpf4jnsgd1na2vs0mg"},{"bike_id":"baef74d7-936e-4be1-8083-5a112f0bf465","system_id":"levelo_inurba_marseille","lat":43.30246,"lon":5.40064,"is_reserved":false,"is_disabled":false,"rental_uris":{"android":"levelo://app?vid=baef74d7-936e-4be1-8083-5a112f0bf465","ios":"levelo://app?vid=baef74d7-936e-4be1-8083-5a112f0bf465"},"vehicle_type_id":"4","last_reported":1732623539,"current_range_meters":35600,"station_id":"ce4bgvh2rcd13ifvqcs0","pricing_plan_id":"cebpf4jnsgd1na2vs0mg"},{"bike_id":"40c7ddb8-0e1a-4eb1-9e2f-d3bf1a0f9d1e","system_id":"levelo_inurba_marseille","lat":43.28269,"lon":5.35075,"is_reserved":false,"is_disabled":false,"rental_uris":{"android":"levelo://app?vid=40c7ddb8-0e1a-4eb1-9e2f-d3bf1a0f9d1e","ios":"levelo://app?vid=40c7ddb8-0e1a-4eb1-9e2f-d3bf1a0f9d1e"},"vehicle_type_id":"4","last_reported":1732623539,"current_range_meters":20800,"station_id":"ce4bhbp2rcd13ifvqerg","pricing_plan_id":"cebpf4jnsgd1na2vs0mg"},{"bike_id":"46ac22a8-6f10-4221-98a6-34eba5c97bfb","system_id":"levelo_inurba_marseille","lat":43.29188,"lon":5.37308,"is_reserved":false,"is_disabled":true,"rental_uris":{"android":"levelo://app?vid=46ac22a8-6f10-4221-98a6-34eba5c97bfb","ios":"levelo://app?vid=46ac22a8-6f10-4221-98a6-34eba5c97bfb"},"vehicle_type_id":"4","last_reported":1732623539,"current_range_meters":0,"station_id":"","pricing_plan_id":"cebpf4jnsgd1na2vs0mg"},{"bike_id":"43746d86-8a13-4845-9faf-ae69b548d714","system_id":"levelo_inurba_marseille","lat":43.29459,"lon":5.37917,"is_reserved":false,"is_disabled":true,"rental_uris":{"android":"levelo://app?vid=43746d86-8a13-4845-9faf-ae69b548d714","ios":"levelo://app?vid=43746d86-8a13-4845-9faf-ae69b548d714"},"vehicle_type_id":"4","last_reported":1732623539,"current_range_meters":0,"station_id":"","pricing_plan_id":"cebpf4jnsgd1na2vs0mg"},{"bike_id":"7679867d-c385-48ae-8152-25971370e3fc","system_id":"levelo_inurba_marseille","lat":43.30928,"lon":5.40152,"is_reserved":false,"is_disabled":false,"rental_uris":{"android":"levelo://app?vid=7679867d-c385-48ae-8152-25971370e3fc","ios":"levelo://app?vid=7679867d-c385-48ae-8152-25971370e3fc"},"vehicle_type_id":"4","last_reported":1732623539,"current_range_meters":8000,"station_id":"ce4bgvp2rcd13ifvqct0","pricing_plan_id":"cebpf4jnsgd1na2vs0mg"},{"bike_id":"36d32bbf-132b-4b07-ba2d-aeba2f076af1","system_id":"levelo_inurba_marseille","lat":43.33611,"lon":5.41038,"is_reserved":false,"is_disabled":false,"rental_uris":{"android":"levelo://app?vid=36d32bbf-132b-4b07-ba2d-aeba2f076af1","ios":"levelo://app?vid=36d32bbf-132b-4b07-ba2d-aeba2f076af1"},"vehicle_type_id":"4","last_reported":1732623539,"current_range_meters":4400,"station_id":"ce4bhqh2rcd13ifvqhmg","pricing_plan_id":"cebpf4jnsgd1na2vs0mg"},{"bike_id":"f971abee-70f8-43dc-afe4-4050ccc8c3f7","system_id":"levelo_inurba_marseille","lat":43.25865,"lon":5.39914,"is_reserved":false,"is_disabled":true,"rental_uris":{"android":"levelo://app?vid=f971abee-70f8-43dc-afe4-4050ccc8c3f7","ios":"levelo://app?vid=f971abee-70f8-43dc-afe4-4050ccc8c3f7"},"vehicle_type_id":"4","last_reported":1732623539,"current_range_meters":36800,"station_id":"ce4bhl92rcd13ifvqghg","pricing_plan_id":"cebpf4jnsgd1na2vs0mg"},{"bike_id":"e9077ff7-d50f-4185-b35f-09d20b4a6995","system_id":"levelo_inurba_marseille","lat":43.29194,"lon":5.39313,"is_reserved":false,"is_disabled":true,"rental_uris":{"android":"levelo://app?vid=e9077ff7-d50f-4185-b35f-09d20b4a6995","ios":"levelo://app?vid=e9077ff7-d50f-4185-b35f-09d20b4a6995"},"vehicle_type_id":"4","last_reported":1732623539,"current_range_meters":34800,"station_id":"ce4bh192rcd13ifvqdd0","pricing_plan_id":"cebpf4jnsgd1na2vs0mg"},{"bike_id":"4f77ce29-85d3-4c13-9565-b4b8abf020a7","system_id":"levelo_inurba_marseille","lat":43.28936,"lon":5.36641,"is_reserved":false,"is_disabled":false,"rental_uris":{"android":"levelo://app?vid=4f77ce29-85d3-4c13-9565-b4b8abf020a7","ios":"levelo://app?vid=4f77ce29-85d3-4c13-9565-b4b8abf020a7"},"vehicle_type_id":"4","last_reported":1732623539,"current_range_meters":31200,"station_id":"ce4bhap2rcd13ifvqek0","pricing_plan_id":"cebpf4jnsgd1na2vs0mg"},{"bike_id":"c80387c7-1bfa-4227-970e-a1b7a44a79ed","system_id":"levelo_inurba_marseille","lat":43.3089,"lon":5.39647,"is_reserved":false,"is_disabled":false,"rental_uris":{"android":"levelo://app?vid=c80387c7-1bfa-4227-970e-a1b7a44a79ed","ios":"levelo://app?vid=c80387c7-1bfa-4227-970e-a1b7a44a79ed"},"vehicle_type_id":"4","last_reported":1732623539,"current_range_meters":8800,"station_id":"ce4bh012rcd13ifvqcv0","pricing_plan_id":"cebpf4jnsgd1na2vs0mg"},{"bike_id":"926d24d5-a52d-4bb6-9b21-52465a8835a2","system_id":"levelo_inurba_marseille","lat":43.29307,"lon":5.37176,"is_reserved":false,"is_disabled":false,"rental_uris":{"android":"levelo://app?vid=926d24d5-a52d-4bb6-9b21-52465a8835a2","ios":"levelo://app?vid=926d24d5-a52d-4bb6-9b21-52465a8835a2"},"vehicle_type_id":"4","last_reported":1732623539,"current_range_meters":36400,"station_id":"ce4bgh92rcd13ifvqb40","pricing_plan_id":"cebpf4jnsgd1na2vs0mg"},{"bike_id":"a78cfa66-1c29-4d3a-9c2e-ce49c0f2d4aa","system_id":"levelo_inurba_marseille","lat":43.29016,"lon":5.39973,"is_reserved":false,"is_disabled":false,"rental_uris":{"android":"levelo://app?vid=a78cfa66-1c29-4d3a-9c2e-ce49c0f2d4aa","ios":"levelo://app?vid=a78cfa66-1c29-4d3a-9c2e-ce49c0f2d4aa"},"vehicle_type_id":"4","last_reported":1732623539,"current_range_meters":27600,"station_id":"ce4bh392rcd13ifvqdm0","pricing_plan_id":"cebpf4jnsgd1na2vs0mg"},{"bike_id":"e3a9ff25-e192-4aec-af57-758c56bd5f8b","system_id":"levelo_inurba_marseille","lat":43.26033,"lon":5.37548,"is_reserved":false,"is_disabled":false,"rental_uris":{"android":"levelo://app?vid=e3a9ff25-e192-4aec-af57-758c56bd5f8b","ios":"levelo://app?vid=e3a9ff25-e192-4aec-af57-758c56bd5f8b"},"vehicle_type_id":"4","last_reported":1732623539,"current_range_meters":24800,"station_id":"ce4bhgh2rcd13ifvqfa0","pricing_plan_id":"cebpf4jnsgd1na2vs0mg"},{"bike_id":"a79097a6-c6c2-442a-9a18-50505a15e6cc","system_id":"levelo_inurba_marseille","lat":43.32478,"lon":5.36559,"is_reserved":false,"is_disabled":false,"rental_uris":{"android":"levelo://app?vid=a79097a6-c6c2-442a-9a18-50505a15e6cc","ios":"levelo://app?vid=a79097a6-c6c2-442a-9a18-50505a15e6cc"},"vehicle_type_id":"4","last_reported":1732623539,"current_range_meters":32800,"station_id":"ce4bhs12rcd13ifvqhvg","pricing_plan_id":"cebpf4jnsgd1na2vs0mg"},{"bike_id":"60366b91-dfba-451c-b2f1-0c2a18308bdf","system_id":"levelo_inurba_marseille","lat":43.22929,"lon":5.35378,"is_reserved":false,"is_disabled":false,"rental_uris":{"android":"levelo://app?vid=60366b91-dfba-451c-b2f1-0c2a18308bdf","ios":"levelo://app?vid=60366b91-dfba-451c-b2f1-0c2a18308bdf"},"vehicle_type_id":"4","last_reported":1732623539,"current_range_meters":29600,"station_id":"cpo3532slgdg3j2ikp40","pricing_plan_id":"cebpf4jnsgd1na2vs0mg"},{"bike_id":"9666ce30-5f2f-4332-a708-df17ba16a1d5","system_id":"levelo_inurba_marseille","lat":43.324818,"lon":5.3656,"is_reserved":false,"is_disabled":false,"rental_uris":{"android":"levelo://app?vid=9666ce30-5f2f-4332-a708-df17ba16a1d5","ios":"levelo://app?vid=9666ce30-5f2f-4332-a708-df17ba16a1d5"},"vehicle_type_id":"4","last_reported":1732623539,"current_range_meters":23200,"station_id":"ce4bhs12rcd13ifvqhvg","pricing_plan_id":"cebpf4jnsgd1na2vs0mg"},{"bike_id":"7e9061cd-5627-407a-8c6f-fcf878e75a40","system_id":"levelo_inurba_marseille","lat":43.2795,"lon":5.41048,"is_reserved":false,"is_disabled":true,"rental_uris":{"android":"levelo://app?vid=7e9061cd-5627-407a-8c6f-fcf878e75a40","ios":"levelo://app?vid=7e9061cd-5627-407a-8c6f-fcf878e75a40"},"vehicle_type_id":"4","last_reported":1732623539,"current_range_meters":0,"station_id":"ce4bhnp2rcd13ifvqh0g","pricing_plan_id":"cebpf4jnsgd1na2vs0mg"},{"bike_id":"009fe169-0c00-4962-9a5d-68dc5d216a87","system_id":"levelo_inurba_marseille","lat":43.32474,"lon":5.36568,"is_reserved":false,"is_disabled":false,"rental_uris":{"android":"levelo://app?vid=009fe169-0c00-4962-9a5d-68dc5d216a87","ios":"levelo://app?vid=009fe169-0c00-4962-9a5d-68dc5d216a87"},"vehicle_type_id":"4","last_reported":1732623539,"current_range_meters":27200,"station_id":"ce4bhs12rcd13ifvqhvg","pricing_plan_id":"cebpf4jnsgd1na2vs0mg"},{"bike_id":"cb20340f-9243-49ae-bd8e-80e0903484c0","system_id":"levelo_inurba_marseille","lat":43.30429,"lon":5.38895,"is_reserved":false,"is_disabled":false,"rental_uris":{"android":"levelo://app?vid=cb20340f-9243-49ae-bd8e-80e0903484c0","ios":"levelo://app?vid=cb20340f-9243-49ae-bd8e-80e0903484c0"},"vehicle_type_id":"4","last_reported":1732623539,"current_range_meters":38000,"station_id":"ce4bgk12rcd13ifvqbi0","pricing_plan_id":"cebpf4jnsgd1na2vs0mg"},{"bike_id":"d498a2e4-830c-4b49-aa93-4db145106d2d","system_id":"levelo_inurba_marseille","lat":43.28719,"lon":5.37935,"is_reserved":false,"is_disabled":false,"rental_uris":{"android":"levelo://app?vid=d498a2e4-830c-4b49-aa93-4db145106d2d","ios":"levelo://app?vid=d498a2e4-830c-4b49-aa93-4db145106d2d"},"vehicle_type_id":"4","last_reported":1732623539,"current_range_meters":8800,"station_id":"ce4bh9p2rcd13ifvqec0","pricing_plan_id":"cebpf4jnsgd1na2vs0mg"},{"bike_id":"c80ca3d0-f765-497c-a8e1-2232afa9396e","system_id":"levelo_inurba_marseille","lat":43.25083,"lon":5.39529,"is_reserved":false,"is_disabled":false,"rental_uris":{"android":"levelo://app?vid=c80ca3d0-f765-497c-a8e1-2232afa9396e","ios":"levelo://app?vid=c80ca3d0-f765-497c-a8e1-2232afa9396e"},"vehicle_type_id":"4","last_reported":1732623539,"current_range_meters":4000,"station_id":"ce4bhm12rcd13ifvqgkg","pricing_plan_id":"cebpf4jnsgd1na2vs0mg"},{"bike_id":"4039ea2a-36c3-48e9-84a9-1bd6dc4b83b9","system_id":"levelo_inurba_marseille","lat":43.317,"lon":5.40461,"is_reserved":false,"is_disabled":false,"rental_uris":{"android":"levelo://app?vid=4039ea2a-36c3-48e9-84a9-1bd6dc4b83b9","ios":"levelo://app?vid=4039ea2a-36c3-48e9-84a9-1bd6dc4b83b9"},"vehicle_type_id":"4","last_reported":1732623539,"current_range_meters":16400,"station_id":"ce4bh012rcd13ifvqd00","pricing_plan_id":"cebpf4jnsgd1na2vs0mg"},{"bike_id":"3a19d45d-a757-417c-b54e-92314bcfae61","system_id":"levelo_inurba_marseille","lat":43.26938,"lon":5.38644,"is_reserved":false,"is_disabled":true,"rental_uris":{"android":"levelo://app?vid=3a19d45d-a757-417c-b54e-92314bcfae61","ios":"levelo://app?vid=3a19d45d-a757-417c-b54e-92314bcfae61"},"vehicle_type_id":"4","last_reported":1732623539,"current_range_meters":400,"station_id":"ce4bhh92rcd13ifvqfh0","pricing_plan_id":"cebpf4jnsgd1na2vs0mg"},{"bike_id":"e484c561-e59d-40cd-a3e0-d89cfbc2456c","system_id":"levelo_inurba_marseille","lat":43.28943,"lon":5.36641,"is_reserved":false,"is_disabled":false,"rental_uris":{"android":"levelo://app?vid=e484c561-e59d-40cd-a3e0-d89cfbc2456c","ios":"levelo://app?vid=e484c561-e59d-40cd-a3e0-d89cfbc2456c"},"vehicle_type_id":"4","last_reported":1732623539,"current_range_meters":34800,"station_id":"ce4bhap2rcd13ifvqek0","pricing_plan_id":"cebpf4jnsgd1na2vs0mg"},{"bike_id":"24bf6bdf-4e91-4743-8260-29fb497ab273","system_id":"levelo_inurba_marseille","lat":43.30153,"lon":5.38086,"is_reserved":false,"is_disabled":true,"rental_uris":{"android":"levelo://app?vid=24bf6bdf-4e91-4743-8260-29fb497ab273","ios":"levelo://app?vid=24bf6bdf-4e91-4743-8260-29fb497ab273"},"vehicle_type_id":"4","last_reported":1732623539,"current_range_meters":29600,"station_id":"ce4bgjp2rcd13ifvqbh0","pricing_plan_id":"cebpf4jnsgd1na2vs0mg"},{"bike_id":"f3368351-9d3c-44de-a261-d31ff4ae03c3","system_id":"levelo_inurba_marseille","lat":43.27564,"lon":5.38445,"is_reserved":false,"is_disabled":false,"rental_uris":{"android":"levelo://app?vid=f3368351-9d3c-44de-a261-d31ff4ae03c3","ios":"levelo://app?vid=f3368351-9d3c-44de-a261-d31ff4ae03c3"},"vehicle_type_id":"4","last_reported":1732623539,"current_range_meters":38800,"station_id":"ce4bhh92rcd13ifvqfi0","pricing_plan_id":"cebpf4jnsgd1na2vs0mg"},{"bike_id":"3e23e0b8-800b-43f9-9181-077b76db0ec9","system_id":"levelo_inurba_marseille","lat":43.29556,"lon":5.42286,"is_reserved":false,"is_disabled":false,"rental_uris":{"android":"levelo://app?vid=3e23e0b8-800b-43f9-9181-077b76db0ec9","ios":"levelo://app?vid=3e23e0b8-800b-43f9-9181-077b76db0ec9"},"vehicle_type_id":"4","last_reported":1732623539,"current_range_meters":38400,"station_id":"ce4bhph2rcd13ifvqhdg","pricing_plan_id":"cebpf4jnsgd1na2vs0mg"},{"bike_id":"02379840-e472-472b-9e44-192bf041bb82","system_id":"levelo_inurba_marseille","lat":43.31168,"lon":5.38714,"is_reserved":false,"is_disabled":false,"rental_uris":{"android":"levelo://app?vid=02379840-e472-472b-9e44-192bf041bb82","ios":"levelo://app?vid=02379840-e472-472b-9e44-192bf041bb82"},"vehicle_type_id":"4","last_reported":1732623539,"current_range_meters":30400,"station_id":"ce4bgv12rcd13ifvqcp0","pricing_plan_id":"cebpf4jnsgd1na2vs0mg"},{"bike_id":"6de10b34-94aa-4ef9-ac82-a7dae912bbb0","system_id":"levelo_inurba_marseille","lat":43.24181,"lon":5.39737,"is_reserved":false,"is_disabled":true,"rental_uris":{"android":"levelo://app?vid=6de10b34-94aa-4ef9-ac82-a7dae912bbb0","ios":"levelo://app?vid=6de10b34-94aa-4ef9-ac82-a7dae912bbb0"},"vehicle_type_id":"4","last_reported":1732623539,"current_range_meters":1600,"station_id":"ce4bhn12rcd13ifvqgpg","pricing_plan_id":"cebpf4jnsgd1na2vs0mg"},{"bike_id":"b7253de9-6ec1-4db5-9737-385abac9855c","system_id":"levelo_inurba_marseille","lat":43.26654,"lon":5.39551,"is_reserved":false,"is_disabled":true,"rental_uris":{"android":"levelo://app?vid=b7253de9-6ec1-4db5-9737-385abac9855c","ios":"levelo://app?vid=b7253de9-6ec1-4db5-9737-385abac9855c"},"vehicle_type_id":"4","last_reported":1732623539,"current_range_meters":0,"station_id":"","pricing_plan_id":"cebpf4jnsgd1na2vs0mg"},{"bike_id":"35721010-0501-4d23-9637-688c6912beae","system_id":"levelo_inurba_marseille","lat":43.26208,"lon":5.37442,"is_reserved":false,"is_disabled":false,"rental_uris":{"android":"levelo://app?vid=35721010-0501-4d23-9637-688c6912beae","ios":"levelo://app?vid=35721010-0501-4d23-9637-688c6912beae"},"vehicle_type_id":"4","last_reported":1732623539,"current_range_meters":37600,"station_id":"ce4bhgp2rcd13ifvqfc0","pricing_plan_id":"cebpf4jnsgd1na2vs0mg"},{"bike_id":"7e04bb67-c24d-44da-93e9-2e0567bf10fa","system_id":"levelo_inurba_marseille","lat":43.23152,"lon":5.43713,"is_reserved":false,"is_disabled":true,"rental_uris":{"android":"levelo://app?vid=7e04bb67-c24d-44da-93e9-2e0567bf10fa","ios":"levelo://app?vid=7e04bb67-c24d-44da-93e9-2e0567bf10fa"},"vehicle_type_id":"4","last_reported":1732623539,"current_range_meters":0,"station_id":"ce4bhmp2rcd13ifvqgog","pricing_plan_id":"cebpf4jnsgd1na2vs0mg"},{"bike_id":"f51dda2c-9306-4dde-b4b4-90b75882bb9c","system_id":"levelo_inurba_marseille","lat":43.31112,"lon":5.37773,"is_reserved":false,"is_disabled":false,"rental_uris":{"android":"levelo://app?vid=f51dda2c-9306-4dde-b4b4-90b75882bb9c","ios":"levelo://app?vid=f51dda2c-9306-4dde-b4b4-90b75882bb9c"},"vehicle_type_id":"4","last_reported":1732623539,"current_range_meters":33600,"station_id":"ce4bgt92rcd13ifvqcg0","pricing_plan_id":"cebpf4jnsgd1na2vs0mg"},{"bike_id":"6db206cb-0668-4eaf-890a-70aa7c08dcaa","system_id":"levelo_inurba_marseille","lat":43.23181,"lon":5.39993,"is_reserved":false,"is_disabled":false,"rental_uris":{"android":"levelo://app?vid=6db206cb-0668-4eaf-890a-70aa7c08dcaa","ios":"levelo://app?vid=6db206cb-0668-4eaf-890a-70aa7c08dcaa"},"vehicle_type_id":"4","last_reported":1732623539,"current_range_meters":32800,"station_id":"ce4bhn12rcd13ifvqgqg","pricing_plan_id":"cebpf4jnsgd1na2vs0mg"},{"bike_id":"595c16cc-fe8b-4946-b9b5-e69c44a92c70","system_id":"levelo_inurba_marseille","lat":43.29034,"lon":5.3864,"is_reserved":false,"is_disabled":false,"rental_uris":{"android":"levelo://app?vid=595c16cc-fe8b-4946-b9b5-e69c44a92c70","ios":"levelo://app?vid=595c16cc-fe8b-4946-b9b5-e69c44a92c70"},"vehicle_type_id":"4","last_reported":1732623539,"current_range_meters":10800,"station_id":"ce4bh4p2rcd13ifvqe0g","pricing_plan_id":"cebpf4jnsgd1na2vs0mg"},{"bike_id":"dbe1ecd4-712e-4bb2-8132-32f61b0bc7b2","system_id":"levelo_inurba_marseille","lat":43.30207,"lon":5.39469,"is_reserved":false,"is_disabled":false,"rental_uris":{"android":"levelo://app?vid=dbe1ecd4-712e-4bb2-8132-32f61b0bc7b2","ios":"levelo://app?vid=dbe1ecd4-712e-4bb2-8132-32f61b0bc7b2"},"vehicle_type_id":"4","last_reported":1732623539,"current_range_meters":38400,"station_id":"ce4bh0p2rcd13ifvqd70","pricing_plan_id":"cebpf4jnsgd1na2vs0mg"},{"bike_id":"e4395f26-4c0b-4bec-b10e-ec01132237c1","system_id":"levelo_inurba_marseille","lat":43.27171,"lon":5.410007,"is_reserved":false,"is_disabled":true,"rental_uris":{"android":"levelo://app?vid=e4395f26-4c0b-4bec-b10e-ec01132237c1","ios":"levelo://app?vid=e4395f26-4c0b-4bec-b10e-ec01132237c1"},"vehicle_type_id":"4","last_reported":1732623539,"current_range_meters":0,"station_id":"ce4bhl12rcd13ifvqgf0","pricing_plan_id":"cebpf4jnsgd1na2vs0mg"},{"bike_id":"de3730fd-d9bf-4e71-8fc3-dc71ed9b8b5f","system_id":"levelo_inurba_marseille","lat":43.23156,"lon":5.43705,"is_reserved":false,"is_disabled":false,"rental_uris":{"android":"levelo://app?vid=de3730fd-d9bf-4e71-8fc3-dc71ed9b8b5f","ios":"levelo://app?vid=de3730fd-d9bf-4e71-8fc3-dc71ed9b8b5f"},"vehicle_type_id":"4","last_reported":1732623539,"current_range_meters":38400,"station_id":"ce4bhmp2rcd13ifvqgog","pricing_plan_id":"cebpf4jnsgd1na2vs0mg"},{"bike_id":"832acdd1-e3cc-4f85-b659-4259913b3799","system_id":"levelo_inurba_marseille","lat":43.23201,"lon":5.35545,"is_reserved":false,"is_disabled":false,"rental_uris":{"android":"levelo://app?vid=832acdd1-e3cc-4f85-b659-4259913b3799","ios":"levelo://app?vid=832acdd1-e3cc-4f85-b659-4259913b3799"},"vehicle_type_id":"4","last_reported":1732623539,"current_range_meters":25200,"station_id":"ce4bhu92rcd13ifvqi70","pricing_plan_id":"cebpf4jnsgd1na2vs0mg"},{"bike_id":"17f6ebf6-f95e-41b9-b06b-2c7e7af54367","system_id":"levelo_inurba_marseille","lat":43.28662,"lon":5.3636,"is_reserved":false,"is_disabled":true,"rental_uris":{"android":"levelo://app?vid=17f6ebf6-f95e-41b9-b06b-2c7e7af54367","ios":"levelo://app?vid=17f6ebf6-f95e-41b9-b06b-2c7e7af54367"},"vehicle_type_id":"4","last_reported":1732623539,"current_range_meters":38000,"station_id":"ce4bhah2rcd13ifvqej0","pricing_plan_id":"cebpf4jnsgd1na2vs0mg"},{"bike_id":"80279725-7b41-488c-b242-07588798f542","system_id":"levelo_inurba_marseille","lat":43.28468,"lon":5.38415,"is_reserved":false,"is_disabled":false,"rental_uris":{"android":"levelo://app?vid=80279725-7b41-488c-b242-07588798f542","ios":"levelo://app?vid=80279725-7b41-488c-b242-07588798f542"},"vehicle_type_id":"4","last_reported":1732623539,"current_range_meters":4400,"station_id":"ce4bh512rcd13ifvqe3g","pricing_plan_id":"cebpf4jnsgd1na2vs0mg"},{"bike_id":"6fcadd91-7e20-4359-a0c4-739d5b2a4246","system_id":"levelo_inurba_marseille","lat":43.29194,"lon":5.39327,"is_reserved":false,"is_disabled":false,"rental_uris":{"android":"levelo://app?vid=6fcadd91-7e20-4359-a0c4-739d5b2a4246","ios":"levelo://app?vid=6fcadd91-7e20-4359-a0c4-739d5b2a4246"},"vehicle_type_id":"4","last_reported":1732623539,"current_range_meters":14800,"station_id":"ce4bh192rcd13ifvqdd0","pricing_plan_id":"cebpf4jnsgd1na2vs0mg"},{"bike_id":"688e69cd-6fb5-434c-b55a-ca01032938cd","system_id":"levelo_inurba_marseille","lat":43.29523,"lon":5.39043,"is_reserved":false,"is_disabled":false,"rental_uris":{"android":"levelo://app?vid=688e69cd-6fb5-434c-b55a-ca01032938cd","ios":"levelo://app?vid=688e69cd-6fb5-434c-b55a-ca01032938cd"},"vehicle_type_id":"4","last_reported":1732623539,"current_range_meters":30400,"station_id":"ce4bh3p2rcd13ifvqdp0","pricing_plan_id":"cebpf4jnsgd1na2vs0mg"},{"bike_id":"6c3a5b7a-bcef-4120-9966-89b0ab217e7c","system_id":"levelo_inurba_marseille","lat":43.29167,"lon":5.37155,"is_reserved":false,"is_disabled":false,"rental_uris":{"android":"levelo://app?vid=6c3a5b7a-bcef-4120-9966-89b0ab217e7c","ios":"levelo://app?vid=6c3a5b7a-bcef-4120-9966-89b0ab217e7c"},"vehicle_type_id":"4","last_reported":1732623539,"current_range_meters":38800,"station_id":"ce4bha92rcd13ifvqeh0","pricing_plan_id":"cebpf4jnsgd1na2vs0mg"},{"bike_id":"7fa2e0c4-93ef-4dd8-94bd-ece0f6fefe99","system_id":"levelo_inurba_marseille","lat":43.23158,"lon":5.4372,"is_reserved":false,"is_disabled":false,"rental_uris":{"android":"levelo://app?vid=7fa2e0c4-93ef-4dd8-94bd-ece0f6fefe99","ios":"levelo://app?vid=7fa2e0c4-93ef-4dd8-94bd-ece0f6fefe99"},"vehicle_type_id":"4","last_reported":1732623539,"current_range_meters":20400,"station_id":"ce4bhmp2rcd13ifvqgog","pricing_plan_id":"cebpf4jnsgd1na2vs0mg"},{"bike_id":"3629a32f-a709-4a11-9106-5e7f0ff28e81","system_id":"levelo_inurba_marseille","lat":43.2704,"lon":5.40713,"is_reserved":false,"is_disabled":true,"rental_uris":{"android":"levelo://app?vid=3629a32f-a709-4a11-9106-5e7f0ff28e81","ios":"levelo://app?vid=3629a32f-a709-4a11-9106-5e7f0ff28e81"},"vehicle_type_id":"4","last_reported":1732623539,"current_range_meters":0,"station_id":"","pricing_plan_id":"cebpf4jnsgd1na2vs0mg"},{"bike_id":"3134a51f-3cda-4fa8-a1df-60ac265d6122","system_id":"levelo_inurba_marseille","lat":43.29932,"lon":5.36539,"is_reserved":false,"is_disabled":false,"rental_uris":{"android":"levelo://app?vid=3134a51f-3cda-4fa8-a1df-60ac265d6122","ios":"levelo://app?vid=3134a51f-3cda-4fa8-a1df-60ac265d6122"},"vehicle_type_id":"4","last_reported":1732623539,"current_range_meters":36000,"station_id":"ce4bgm92rcd13ifvqbr0","pricing_plan_id":"cebpf4jnsgd1na2vs0mg"},{"bike_id":"c0b23385-0353-43b0-ad05-eb4c1a0ee65d","system_id":"levelo_inurba_marseille","lat":43.25573,"lon":5.38239,"is_reserved":false,"is_disabled":false,"rental_uris":{"android":"levelo://app?vid=c0b23385-0353-43b0-ad05-eb4c1a0ee65d","ios":"levelo://app?vid=c0b23385-0353-43b0-ad05-eb4c1a0ee65d"},"vehicle_type_id":"4","last_reported":1732623539,"current_range_meters":22000,"station_id":"ce4bhih2rcd13ifvqfs0","pricing_plan_id":"cebpf4jnsgd1na2vs0mg"},{"bike_id":"cdd4f8d9-bd5a-4896-97ae-a7584cd5a3d9","system_id":"levelo_inurba_marseille","lat":43.33027,"lon":5.39037,"is_reserved":false,"is_disabled":false,"rental_uris":{"android":"levelo://app?vid=cdd4f8d9-bd5a-4896-97ae-a7584cd5a3d9","ios":"levelo://app?vid=cdd4f8d9-bd5a-4896-97ae-a7584cd5a3d9"},"vehicle_type_id":"4","last_reported":1732623539,"current_range_meters":39200,"station_id":"ce4bhr92rcd13ifvqhrg","pricing_plan_id":"cebpf4jnsgd1na2vs0mg"},{"bike_id":"aba56e56-b67c-4449-895e-5622b7056ce2","system_id":"levelo_inurba_marseille","lat":43.28731,"lon":5.37928,"is_reserved":false,"is_disabled":false,"rental_uris":{"android":"levelo://app?vid=aba56e56-b67c-4449-895e-5622b7056ce2","ios":"levelo://app?vid=aba56e56-b67c-4449-895e-5622b7056ce2"},"vehicle_type_id":"4","last_reported":1732623539,"current_range_meters":16000,"station_id":"ce4bh9p2rcd13ifvqec0","pricing_plan_id":"cebpf4jnsgd1na2vs0mg"},{"bike_id":"ef01e6ae-51af-450d-8416-86c90a14e523","system_id":"levelo_inurba_marseille","lat":43.25933,"lon":5.40914,"is_reserved":false,"is_disabled":false,"rental_uris":{"android":"levelo://app?vid=ef01e6ae-51af-450d-8416-86c90a14e523","ios":"levelo://app?vid=ef01e6ae-51af-450d-8416-86c90a14e523"},"vehicle_type_id":"4","last_reported":1732623539,"current_range_meters":36800,"station_id":"ce4bhm92rcd13ifvqglg","pricing_plan_id":"cebpf4jnsgd1na2vs0mg"},{"bike_id":"40cd5bfb-4da3-4e24-aca8-ee30822c1473","system_id":"levelo_inurba_marseille","lat":43.31362,"lon":5.38498,"is_reserved":false,"is_disabled":false,"rental_uris":{"android":"levelo://app?vid=40cd5bfb-4da3-4e24-aca8-ee30822c1473","ios":"levelo://app?vid=40cd5bfb-4da3-4e24-aca8-ee30822c1473"},"vehicle_type_id":"4","last_reported":1732623539,"current_range_meters":9600,"station_id":"ce4bgt92rcd13ifvqcf0","pricing_plan_id":"cebpf4jnsgd1na2vs0mg"},{"bike_id":"0fb3270d-ee9e-4aad-a7ef-57954a16bec8","system_id":"levelo_inurba_marseille","lat":43.30591,"lon":5.39361,"is_reserved":false,"is_disabled":false,"rental_uris":{"android":"levelo://app?vid=0fb3270d-ee9e-4aad-a7ef-57954a16bec8","ios":"levelo://app?vid=0fb3270d-ee9e-4aad-a7ef-57954a16bec8"},"vehicle_type_id":"4","last_reported":1732623539,"current_range_meters":14400,"station_id":"ce4bh0p2rcd13ifvqd80","pricing_plan_id":"cebpf4jnsgd1na2vs0mg"},{"bike_id":"5cda7d0c-0bf4-4f81-998e-3b0a0a112596","system_id":"levelo_inurba_marseille","lat":43.2707,"lon":5.4228,"is_reserved":false,"is_disabled":false,"rental_uris":{"android":"levelo://app?vid=5cda7d0c-0bf4-4f81-998e-3b0a0a112596","ios":"levelo://app?vid=5cda7d0c-0bf4-4f81-998e-3b0a0a112596"},"vehicle_type_id":"4","last_reported":1732623539,"current_range_meters":32400,"station_id":"ce4bhk92rcd13ifvqgb0","pricing_plan_id":"cebpf4jnsgd1na2vs0mg"},{"bike_id":"dc4c4e1a-2436-4bc7-81fd-70222ebce8a8","system_id":"levelo_inurba_marseille","lat":43.31171,"lon":5.38716,"is_reserved":false,"is_disabled":false,"rental_uris":{"android":"levelo://app?vid=dc4c4e1a-2436-4bc7-81fd-70222ebce8a8","ios":"levelo://app?vid=dc4c4e1a-2436-4bc7-81fd-70222ebce8a8"},"vehicle_type_id":"4","last_reported":1732623539,"current_range_meters":38800,"station_id":"ce4bgv12rcd13ifvqcp0","pricing_plan_id":"cebpf4jnsgd1na2vs0mg"},{"bike_id":"dc88f1cc-2899-4ac2-b303-7fc75bfac1fd","system_id":"levelo_inurba_marseille","lat":43.305528,"lon":5.365282,"is_reserved":false,"is_disabled":false,"rental_uris":{"android":"levelo://app?vid=dc88f1cc-2899-4ac2-b303-7fc75bfac1fd","ios":"levelo://app?vid=dc88f1cc-2899-4ac2-b303-7fc75bfac1fd"},"vehicle_type_id":"4","last_reported":1732623539,"current_range_meters":33200,"station_id":"ce4bgs12rcd13ifvqcag","pricing_plan_id":"cebpf4jnsgd1na2vs0mg"},{"bike_id":"4c586ed6-9be7-44d9-be82-96ff5190086e","system_id":"levelo_inurba_marseille","lat":43.23056,"lon":5.35491,"is_reserved":false,"is_disabled":false,"rental_uris":{"android":"levelo://app?vid=4c586ed6-9be7-44d9-be82-96ff5190086e","ios":"levelo://app?vid=4c586ed6-9be7-44d9-be82-96ff5190086e"},"vehicle_type_id":"4","last_reported":1732623539,"current_range_meters":36000,"station_id":"cpo3342slgdg3j2ifvpg","pricing_plan_id":"cebpf4jnsgd1na2vs0mg"},{"bike_id":"02acfe02-125b-44cb-a5ea-a9442bcf81ea","system_id":"levelo_inurba_marseille","lat":43.32471,"lon":5.36561,"is_reserved":false,"is_disabled":false,"rental_uris":{"android":"levelo://app?vid=02acfe02-125b-44cb-a5ea-a9442bcf81ea","ios":"levelo://app?vid=02acfe02-125b-44cb-a5ea-a9442bcf81ea"},"vehicle_type_id":"4","last_reported":1732623539,"current_range_meters":38800,"station_id":"ce4bhs12rcd13ifvqhvg","pricing_plan_id":"cebpf4jnsgd1na2vs0mg"},{"bike_id":"a6382a7c-de8b-40ea-8e8c-9b1074fc24b1","system_id":"levelo_inurba_marseille","lat":43.24537,"lon":5.39541,"is_reserved":false,"is_disabled":true,"rental_uris":{"android":"levelo://app?vid=a6382a7c-de8b-40ea-8e8c-9b1074fc24b1","ios":"levelo://app?vid=a6382a7c-de8b-40ea-8e8c-9b1074fc24b1"},"vehicle_type_id":"4","last_reported":1732623539,"current_range_meters":38800,"station_id":"ce4bhlp2rcd13ifvqgjg","pricing_plan_id":"cebpf4jnsgd1na2vs0mg"},{"bike_id":"c6a0cb2d-43e4-4945-9892-ed8c96fad10a","system_id":"levelo_inurba_marseille","lat":43.28856,"lon":5.35869,"is_reserved":false,"is_disabled":false,"rental_uris":{"android":"levelo://app?vid=c6a0cb2d-43e4-4945-9892-ed8c96fad10a","ios":"levelo://app?vid=c6a0cb2d-43e4-4945-9892-ed8c96fad10a"},