{"last_updated":1746547927,"ttl":60,"version":"2.2","data":{"bikes":[{"bike_id":"545631c8-05b7-4070-95e3-52dc096addb5","system_id":"levelo_inurba_marseille","lat":43.272006,"lon":5.364693,"is_reserved":false,"is_disabled":true,"rental_uris":{"android":"levelo://app?vid=545631c8-05b7-4070-95e3-52dc096addb5","ios":"levelo://app?vid=545631c8-05b7-4070-95e3-52dc096addb5"},"vehicle_type_id":"4","last_reported":1746547927,"current_range_meters":0,"station_id":"","pricing_plan_id":"cebpf4jnsgd1na2vs0mg"},{"bike_id":"64a99dee-e5f5-406c-bb57-3c1dd0084469","system_id":"levelo_inurba_marseille","lat":43.23667,"lon":5.39143,"is_reserved":false,"is_disabled":true,"rental_uris":{"android":"levelo://app?vid=64a99dee-e5f5-406c-bb57-3c1dd0084469","ios":"levelo://app?vid=64a99dee-e5f5-406c-bb57-3c1dd0084469"},"vehicle_type_id":"4","last_reported":1746547927,"current_range_meters":0,"station_id":"","pricing_plan_id":"cebpf4jnsgd1na2vs0mg"},{"bike_id":"b56eeeb9-9ded-4dd2-9efa-c8d4f8a5e387","system_id":"levelo_inurba_marseille","lat":43.27362,"lon":5.4223,"is_reserved":false,"is_disabled":true,"rental_uris":{"android":"levelo://app?vid=b56eeeb9-9ded-4dd2-9efa-c8d4f8a5e387","ios":"levelo://app?vid=b56eeeb9-9ded-4dd2-9efa-c8d4f8a5e387"},"vehicle_type_id":"4","last_reported":1746547927,"current_range_meters":0,"station_id":"","pricing_plan_id":"cebpf4jnsgd1na2vs0mg"},{"bike_id":"2d251c8d-e9d0-476f-8622-cb88831f30c3","system_id":"levelo_inurba_marseille","lat":43.26982,"lon":5.38768,"is_reserved":false,"is_disabled":true,"rental_uris":{"android":"levelo://app?vid=2d251c8d-e9d0-476f-8622-cb88831f30c3","ios":"levelo://app?vid=2d251c8d-e9d0-476f-8622-cb88831f30c3"},"vehicle_type_id":"4","last_reported":1746547927,"current_range_meters":0,"station_id":"","pricing_plan_id":"cebpf4jnsgd1na2vs0mg"},{"bike_id":"6bb75941-322d-4e4d-9830-b45548800653","system_id":"levelo_inurba_marseille","lat":43.30944,"lon":5.39041,"is_reserved":false,"is_disabled":true,"rental_uris":{"android":"levelo://app?vid=6bb75941-322d-4e4d-9830-b45548800653","ios":"levelo://app?vid=6bb75941-322d-4e4d-9830-b45548800653"},"vehicle_type_id":"4","last_reported":1746547927,"current_range_meters":0,"station_id":"ce4bgup2rcd13ifvqco0","pricing_plan_id":"cebpf4jnsgd1na2vs0mg"},{"bike_id":"a69448d6-86c9-4623-b5d0-b5d3b87a23ea","system_id":"levelo_inurba_marseille","lat":43.30212,"lon":5.39464,"is_reserved":false,"is_disabled":true,"rental_uris":{"android":"levelo://app?vid=a69448d6-86c9-4623-b5d0-b5d3b87a23ea","ios":"levelo://app?vid=a69448d6-86c9-4623-b5d0-b5d3b87a23ea"},"vehicle_type_id":"4","last_reported":1746547927,"current_range_meters":0,"station_id":"ce4bh0p2rcd13ifvqd70","pricing_plan_id":"cebpf4jnsgd1na2vs0mg"},{"bike_id":"9c0cf73d-f722-4559-92c8-afac14f12f0e","system_id":"levelo_inurba_marseille","lat":43.294403,"lon":5.397768,"is_reserved":false,"is_disabled":true,"rental_uris":{"android":"levelo://app?vid=9c0cf73d-f722-4559-92c8-afac14f12f0e","ios":"levelo://app?vid=9c0cf73d-f722-4559-92c8-afac14f12f0e"},"vehicle_type_id":"4","last_reported":1746547927,"current_range_meters":0,"station_id":"ce4bh3h2rcd13ifvqdo0","pricing_plan_id":"cebpf4jnsgd1na2vs0mg"},{"bike_id":"fc376cee-e6a6-494d-b18f-d7a5226f4569","system_id":"levelo_inurba_marseille","lat":43.28696,"lon":5.37392,"is_reserved":false,"is_disabled":true,"rental_uris":{"android":"levelo://app?vid=fc376cee-e6a6-494d-b18f-d7a5226f4569","ios":"levelo://app?vid=fc376cee-e6a6-494d-b18f-d7a5226f4569"},"vehicle_type_id":"4","last_reported":1746547927,"current_range_meters":0,"station_id":"ce4bh3p2rcd13ifvqdq0","pricing_plan_id":"cebpf4jnsgd1na2vs0mg"},{"bike_id":"44b70e7f-2cce-4761-9ce3-e7f056d84d49","system_id":"levelo_inurba_marseille","lat":43.28924,"lon":5.38407,"is_reserved":false,"is_disabled":true,"rental_uris":{"android":"levelo://app?vid=44b70e7f-2cce-4761-9ce3-e7f056d84d49","ios":"levelo://app?vid=44b70e7f-2cce-4761-9ce3-e7f056d84d49"},"vehicle_type_id":"4","last_reported":1746547927,"current_range_meters":0,"station_id":"ce4bh612rcd13ifvqe6g","pricing_plan_id":"cebpf4jnsgd1na2vs0mg"},{"bike_id":"87ec168a-10f1-4d5e-8cd2-c4ca96c8a002","system_id":"levelo_inurba_marseille","lat":43.28725,"lon":5.37936,"is_reserved":false,"is_disabled":true,"rental_uris":{"android":"levelo://app?vid=87ec168a-10f1-4d5e-8cd2-c4ca96c8a002","ios":"levelo://app?vid=87ec168a-10f1-4d5e-8cd2-c4ca96c8a002"},"vehicle_type_id":"4","last_reported":1746547927,"current_range_meters":0,"station_id":"ce4bh9p2rcd13ifvqec0","pricing_plan_id":"cebpf4jnsgd1na2vs0mg"},{"bike_id":"49482079-8cc1-4e0c-ac7b-cd6042345c74","system_id":"levelo_inurba_marseille","lat":43.2846,"lon":5.35874,"is_reserved":false,"is_disabled":true,"rental_uris":{"android":"levelo://app?vid=49482079-8cc1-4e0c-ac7b-cd6042345c74","ios":"levelo://app?vid=49482079-8cc1-4e0c-ac7b-cd6042345c74"},"vehicle_type_id":"4","last_reported":1746547927,"current_range_meters":0,"station_id":"ce4bhah2rcd13ifvqei0","pricing_plan_id":"cebpf4jnsgd1na2vs0mg"},{"bike_id":"2d64b6e5-b7d2-462f-b8c4-d5f9c1f5a165","system_id":"levelo_inurba_marseille","lat":43.28271,"lon":5.35067,"is_reserved":false,"is_disabled":true,"rental_uris":{"android":"levelo://app?vid=2d64b6e5-b7d2-462f-b8c4-d5f9c1f5a165","ios":"levelo://app?vid=2d64b6e5-b7d2-462f-b8c4-d5f9c1f5a165"},"vehicle_type_id":"4","last_reported":1746547927,"current_range_meters":0,"station_id":"ce4bhbp2rcd13ifvqerg","pricing_plan_id":"cebpf4jnsgd1na2vs0mg"},{"bike_id":"9f713e56-3066-4962-973d-5315177fe195","system_id":"levelo_inurba_marseille","lat":43.28284,"lon":5.3509,"is_reserved":false,"is_disabled":true,"rental_uris":{"android":"levelo://app?vid=9f713e56-3066-4962-973d-5315177fe195","ios":"levelo://app?vid=9f713e56-3066-4962-973d-5315177fe195"},"vehicle_type_id":"4","last_reported":1746547927,"current_range_meters":0,"station_id":"ce4bhbp2rcd13ifvqerg","pricing_plan_id":"cebpf4jnsgd1na2vs0mg"},{"bike_id":"619c0f0e-b374-471c-9463-13288fae1f68","system_id":"levelo_inurba_marseille","lat":43.28621,"lon":5.35107,"is_reserved":false,"is_disabled":true,"rental_uris":{"android":"levelo://app?vid=619c0f0e-b374-471c-9463-13288fae1f68","ios":"levelo://app?vid=619c0f0e-b374-471c-9463-13288fae1f68"},"vehicle_type_id":"4","last_reported":1746547927,"current_range_meters":0,"station_id":"ce4bhch2rcd13ifvqeug","pricing_plan_id":"cebpf4jnsgd1na2vs0mg"},{"bike_id":"b29a0544-f0ee-455b-9f35-afecdc639fca","system_id":"levelo_inurba_marseille","lat":43.27962,"lon":5.38743,"is_reserved":false,"is_disabled":true,"rental_uris":{"android":"levelo://app?vid=b29a0544-f0ee-455b-9f35-afecdc639fca","ios":"levelo://app?vid=b29a0544-f0ee-455b-9f35-afecdc639fca"},"vehicle_type_id":"4","last_reported":1746547927,"current_range_meters":0,"station_id":"ce4bhg12rcd13ifvqf80","pricing_plan_id":"cebpf4jnsgd1na2vs0mg"},{"bike_id":"ad1a0fdd-f83c-45ba-8666-2a7d3d615c34","system_id":"levelo_inurba_marseille","lat":43.27965,"lon":5.387122,"is_reserved":false,"is_disabled":true,"rental_uris":{"android":"levelo://app?vid=ad1a0fdd-f83c-45ba-8666-2a7d3d615c34","ios":"levelo://app?vid=ad1a0fdd-f83c-45ba-8666-2a7d3d615c34"},"vehicle_type_id":"4","last_reported":1746547927,"current_range_meters":0,"station_id":"ce4bhg12rcd13ifvqf80","pricing_plan_id":"cebpf4jnsgd1na2vs0mg"},{"bike_id":"f190d90e-89ab-4221-ac6f-fe018d86c48d","system_id":"levelo_inurba_marseille","lat":43.27953,"lon":5.41044,"is_reserved":false,"is_disabled":true,"rental_uris":{"android":"levelo://app?vid=f190d90e-89ab-4221-ac6f-fe018d86c48d","ios":"levelo://app?vid=f190d90e-89ab-4221-ac6f-fe018d86c48d"},"vehicle_type_id":"4","last_reported":1746547927,"current_range_meters":0,"station_id":"ce4bhnp2rcd13ifvqh0g","pricing_plan_id":"cebpf4jnsgd1na2vs0mg"},{"bike_id":"bcba558e-125c-402b-8bd0-08858ba91dff","system_id":"levelo_inurba_marseille","lat":43.2844,"lon":5.39188,"is_reserved":false,"is_disabled":true,"rental_uris":{"android":"levelo://app?vid=bcba558e-125c-402b-8bd0-08858ba91dff","ios":"levelo://app?vid=bcba558e-125c-402b-8bd0-08858ba91dff"},"vehicle_type_id":"4","last_reported":1746547927,"current_range_meters":0,"station_id":"ce4bhoh2rcd13ifvqh5g","pricing_plan_id":"cebpf4jnsgd1na2vs0mg"},{"bike_id":"4c7bd437-0776-49ce-87cb-1314b9389a08","system_id":"levelo_inurba_marseille","lat":43.29553,"lon":5.42296,"is_reserved":false,"is_disabled":true,"rental_uris":{"android":"levelo://app?vid=4c7bd437-0776-49ce-87cb-1314b9389a08","ios":"levelo://app?vid=4c7bd437-0776-49ce-87cb-1314b9389a08"},"vehicle_type_id":"4","last_reported":1746547927,"current_range_meters":0,"station_id":"ce4bhph2rcd13ifvqhdg","pricing_plan_id":"cebpf4jnsgd1na2vs0mg"},{"bike_id":"10102646-70c8-4147-81cc-b3aa4198cc96","system_id":"levelo_inurba_marseille","lat":43.33026,"lon":5.39044,"is_reserved":false,"is_disabled":true,"rental_uris":{"android":"levelo://app?vid=10102646-70c8-4147-81cc-b3aa4198cc96","ios":"levelo://app?vid=10102646-70c8-4147-81cc-b3aa4198cc96"},"vehicle_type_id":"4","last_reported":1746547927,"current_range_meters":0,"station_id":"ce4bhr92rcd13ifvqhrg","pricing_plan_id":"cebpf4jnsgd1na2vs0mg"},{"bike_id":"d21d2f43-0a5d-4b9b-856f-9f4fb7eea10d","system_id":"levelo_inurba_marseille","lat":43.33019,"lon":5.3905,"is_reserved":false,"is_disabled":true,"rental_uris":{"android":"levelo://app?vid=d21d2f43-0a5d-4b9b-856f-9f4fb7eea10d","ios":"levelo://app?vid=d21d2f43-0a5d-4b9b-856f-9f4fb7eea10d"},"vehicle_type_id":"4","last_reported":1746547927,"current_range_meters":0,"station_id":"ce4bhr92rcd13ifvqhrg","pricing_plan_id":"cebpf4jnsgd1na2vs0mg"},{"bike_id":"5613d14c-46f2-4653-b9e6-bf44581cdd80","system_id":"levelo_inurba_marseille","lat":43.27055,"lon":5.40275,"is_reserved":false,"is_disabled":true,"rental_uris":{"android":"levelo://app?vid=5613d14c-46f2-4653-b9e6-bf44581cdd80","ios":"levelo://app?vid=5613d14c-46f2-4653-b9e6-bf44581cdd80"},"vehicle_type_id":"4","last_reported":1746547927,"current_range_meters":400,"station_id":"ce4bhk92rcd13ifvqgc0","pricing_plan_id":"cebpf4jnsgd1na2vs0mg"},{"bike_id":"334bc227-7e82-48d3-a1ef-45daecaa6a30","system_id":"levelo_inurba_marseille","lat":43.28155,"lon":5.4265,"is_reserved":false,"is_disabled":true,"rental_uris":{"android":"levelo://app?vid=334bc227-7e82-48d3-a1ef-45daecaa6a30","ios":"levelo://app?vid=334bc227-7e82-48d3-a1ef-45daecaa6a30"},"vehicle_type_id":"4","last_reported":1746547927,"current_range_meters":400,"station_id":"ce4bhnh2rcd13ifvqgug","pricing_plan_id":"cebpf4jnsgd1na2vs0mg"},{"bike_id":"f591af55-4adb-4299-a5f2-e0ad07d48dd0","system_id":"levelo_inurba_marseille","lat":43.295421,"lon":5.392942,"is_reserved":false,"is_disabled":true,"rental_uris":{"android":"levelo://app?vid=f591af55-4adb-4299-a5f2-e0ad07d48dd0","ios":"levelo://app?vid=f591af55-4adb-4299-a5f2-e0ad07d48dd0"},"vehicle_type_id":"4","last_reported":1746547927,"current_range_meters":800,"station_id":"ce4bh392rcd13ifvqdl0","pricing_plan_id":"cebpf4jnsgd1na2vs0mg"},{"bike_id":"12898056-0f35-49fc-8e66-14c360b40540","system_id":"levelo_inurba_marseille","lat":43.29736,"lon":5.37604,"is_reserved":false,"is_disabled":true,"rental_uris":{"android":"levelo://app?vid=12898056-0f35-49fc-8e66-14c360b40540","ios":"levelo://app?vid=12898056-0f35-49fc-8e66-14c360b40540"},"vehicle_type_id":"4","last_reported":1746547927,"current_range_meters":1200,"station_id":"","pricing_plan_id":"cebpf4jnsgd1na2vs0mg"},{"bike_id":"dabbb0f5-269d-4434-aea0-b7551d961903","system_id":"levelo_inurba_marseille","lat":43.2993,"lon":5.37467,"is_reserved":false,"is_disabled":true,"rental_uris":{"android":"levelo://app?vid=dabbb0f5-269d-4434-aea0-b7551d961903","ios":"levelo://app?vid=dabbb0f5-269d-4434-aea0-b7551d961903"},"vehicle_type_id":"4","last_reported":1746547927,"current_range_meters":1200,"station_id":"ce4bgjh2rcd13ifvqbg0","pricing_plan_id":"cebpf4jnsgd1na2vs0mg"},{"bike_id":"8ec6549c-d59f-458f-846b-44ba31e0f690","system_id":"levelo_inurba_marseille","lat":43.306001,"lon":5.393604,"is_reserved":false,"is_disabled":true,"rental_uris":{"android":"levelo://app?vid=8ec6549c-d59f-458f-846b-44ba31e0f690","ios":"levelo://app?vid=8ec6549c-d59f-458f-846b-44ba31e0f690"},"vehicle_type_id":"4","last_reported":1746547927,"current_range_meters":1200,"station_id":"ce4bh0p2rcd13ifvqd80","pricing_plan_id":"cebpf4jnsgd1na2vs0mg"},{"bike_id":"6cf47bdd-ced2-4b2a-8cd0-6d268005f238","system_id":"levelo_inurba_marseille","lat":43.2792,"lon":5.39604,"is_reserved":false,"is_disabled":true,"rental_uris":{"android":"levelo://app?vid=6cf47bdd-ced2-4b2a-8cd0-6d268005f238","ios":"levelo://app?vid=6cf47bdd-ced2-4b2a-8cd0-6d268005f238"},"vehicle_type_id":"4","last_reported":1746547927,"current_range_meters":1200,"station_id":"ce4bhf92rcd13ifvqf40","pricing_plan_id":"cebpf4jnsgd1na2vs0mg"},{"bike_id":"ab68db02-1259-4c1f-b293-3d86061c8481","system_id":"levelo_inurba_marseille","lat":43.27058,"lon":5.40264,"is_reserved":false,"is_disabled":true,"rental_uris":{"android":"levelo://app?vid=ab68db02-1259-4c1f-b293-3d86061c8481","ios":"levelo://app?vid=ab68db02-1259-4c1f-b293-3d86061c8481"},"vehicle_type_id":"4","last_reported":1746547927,"current_range_meters":1200,"station_id":"ce4bhk92rcd13ifvqgc0","pricing_plan_id":"cebpf4jnsgd1na2vs0mg"},{"bike_id":"133ddf6c-15f7-4c2c-b77d-1332fce2d63d","system_id":"levelo_inurba_marseille","lat":43.25111,"lon":5.40323,"is_reserved":false,"is_disabled":true,"rental_uris":{"android":"levelo://app?vid=133ddf6c-15f7-4c2c-b77d-1332fce2d63d","ios":"levelo://app?vid=133ddf6c-15f7-4c2c-b77d-1332fce2d63d"},"vehicle_type_id":"4","last_reported":1746547927,"current_range_meters":1200,"station_id":"ce4bhlh2rcd13ifvqgig","pricing_plan_id":"cebpf4jnsgd1na2vs0mg"},{"bike_id":"85ff93b4-84ad-4e86-9aa2-11f143f5d84d","system_id":"levelo_inurba_marseille","lat":43.25083,"lon":5.39524,"is_reserved":false,"is_disabled":true,"rental_uris":{"android":"levelo://app?vid=85ff93b4-84ad-4e86-9aa2-11f143f5d84d","ios":"levelo://app?vid=85ff93b4-84ad-4e86-9aa2-11f143f5d84d"},"vehicle_type_id":"4","last_reported":1746547927,"current_range_meters":1200,"station_id":"ce4bhm12rcd13ifvqgkg","pricing_plan_id":"cebpf4jnsgd1na2vs0mg"},{"bike_id":"ea2c7d90-ca6f-401d-a990-94a4254ea4e4","system_id":"levelo_inurba_marseille","lat":43.29973,"lon":5.38489,"is_reserved":false,"is_disabled":true,"rental_uris":{"android":"levelo://app?vid=ea2c7d90-ca6f-401d-a990-94a4254ea4e4","ios":"levelo://app?vid=ea2c7d90-ca6f-401d-a990-94a4254ea4e4"},"vehicle_type_id":"4","last_reported":1746547927,"current_range_meters":1600,"station_id":"ce4bgj92rcd13ifvqbd0","pricing_plan_id":"cebpf4jnsgd1na2vs0mg"},{"bike_id":"336211ac-1b07-482f-91de-e525eca3a981","system_id":"levelo_inurba_marseille","lat":43.314905,"lon":5.373053,"is_reserved":false,"is_disabled":true,"rental_uris":{"android":"levelo://app?vid=336211ac-1b07-482f-91de-e525eca3a981","ios":"levelo://app?vid=336211ac-1b07-482f-91de-e525eca3a981"},"vehicle_type_id":"4","last_reported":1746547927,"current_range_meters":1600,"station_id":"ce4bgt12rcd13ifvqcd0","pricing_plan_id":"cebpf4jnsgd1na2vs0mg"},{"bike_id":"3d4405da-cf1a-4d2d-a3f6-9105b8f09694","system_id":"levelo_inurba_marseille","lat":43.31052,"lon":5.38357,"is_reserved":false,"is_disabled":true,"rental_uris":{"android":"levelo://app?vid=3d4405da-cf1a-4d2d-a3f6-9105b8f09694","ios":"levelo://app?vid=3d4405da-cf1a-4d2d-a3f6-9105b8f09694"},"vehicle_type_id":"4","last_reported":1746547927,"current_range_meters":1600,"station_id":"ce4bgv92rcd13ifvqcr0","pricing_plan_id":"cebpf4jnsgd1na2vs0mg"},{"bike_id":"14cd96ca-cc3e-4c22-9d1a-3eba74632733","system_id":"levelo_inurba_marseille","lat":43.29198,"lon":5.39325,"is_reserved":false,"is_disabled":true,"rental_uris":{"android":"levelo://app?vid=14cd96ca-cc3e-4c22-9d1a-3eba74632733","ios":"levelo://app?vid=14cd96ca-cc3e-4c22-9d1a-3eba74632733"},"vehicle_type_id":"4","last_reported":1746547927,"current_range_meters":1600,"station_id":"ce4bh192rcd13ifvqdd0","pricing_plan_id":"cebpf4jnsgd1na2vs0mg"},{"bike_id":"6e997478-efb3-4bc4-86b4-050eb93400c5","system_id":"levelo_inurba_marseille","lat":43.284015,"lon":5.375094,"is_reserved":false,"is_disabled":true,"rental_uris":{"android":"levelo://app?vid=6e997478-efb3-4bc4-86b4-050eb93400c5","ios":"levelo://app?vid=6e997478-efb3-4bc4-86b4-050eb93400c5"},"vehicle_type_id":"4","last_reported":1746547927,"current_range_meters":1600,"station_id":"ce4bh412rcd13ifvqds0","pricing_plan_id":"cebpf4jnsgd1na2vs0mg"},{"bike_id":"0cd5b48a-cf0a-4cf5-84fb-ec31220c2aed","system_id":"levelo_inurba_marseille","lat":43.290335,"lon":5.375628,"is_reserved":false,"is_disabled":true,"rental_uris":{"android":"levelo://app?vid=0cd5b48a-cf0a-4cf5-84fb-ec31220c2aed","ios":"levelo://app?vid=0cd5b48a-cf0a-4cf5-84fb-ec31220c2aed"},"vehicle_type_id":"4","last_reported":1746547927,"current_range_meters":1600,"station_id":"ce4bh692rcd13ifvqe90","pricing_plan_id":"cebpf4jnsgd1na2vs0mg"},{"bike_id":"e5dbcc53-7d7f-4ea3-9f12-4583f87c8180","system_id":"levelo_inurba_marseille","lat":43.26565,"lon":5.39,"is_reserved":false,"is_disabled":true,"rental_uris":{"android":"levelo://app?vid=e5dbcc53-7d7f-4ea3-9f12-4583f87c8180","ios":"levelo://app?vid=e5dbcc53-7d7f-4ea3-9f12-4583f87c8180"},"vehicle_type_id":"4","last_reported":1746547927,"current_range_meters":1600,"station_id":"ce4bhe12rcd13ifvqf30","pricing_plan_id":"cebpf4jnsgd1na2vs0mg"},{"bike_id":"da07fce8-d526-417c-ae72-f5d8f7868914","system_id":"levelo_inurba_marseille","lat":43.260672,"lon":5.39394,"is_reserved":false,"is_disabled":true,"rental_uris":{"android":"levelo://app?vid=da07fce8-d526-417c-ae72-f5d8f7868914","ios":"levelo://app?vid=da07fce8-d526-417c-ae72-f5d8f7868914"},"vehicle_type_id":"4","last_reported":1746547927,"current_range_meters":1600,"station_id":"ce4bhh92rcd13ifvqfj0","pricing_plan_id":"cebpf4jnsgd1na2vs0mg"},{"bike_id":"ce50539c-0701-4a0d-afe1-058f4036b822","system_id":"levelo_inurba_marseille","lat":43.29983,"lon":5.38495,"is_reserved":false,"is_disabled":true,"rental_uris":{"android":"levelo://app?vid=ce50539c-0701-4a0d-afe1-058f4036b822","ios":"levelo://app?vid=ce50539c-0701-4a0d-afe1-058f4036b822"},"vehicle_type_id":"4","last_reported":1746547927,"current_range_meters":2000,"station_id":"ce4bgj92rcd13ifvqbd0","pricing_plan_id":"cebpf4jnsgd1na2vs0mg"},{"bike_id":"476e1ce5-1d09-4e97-8280-055e25187e5c","system_id":"levelo_inurba_marseille","lat":43.27621,"lon":5.36113,"is_reserved":false,"is_disabled":true,"rental_uris":{"android":"levelo://app?vid=476e1ce5-1d09-4e97-8280-055e25187e5c","ios":"levelo://app?vid=476e1ce5-1d09-4e97-8280-055e25187e5c"},"vehicle_type_id":"4","last_reported":1746547927,"current_range_meters":2000,"station_id":"ce4bgj92rcd13ifvqbe0","pricing_plan_id":"cebpf4jnsgd1na2vs0mg"},{"bike_id":"b4300338-3154-4047-ab49-2d7cdaec2271","system_id":"levelo_inurba_marseille","lat":43.304273,"lon":5.388881,"is_reserved":false,"is_disabled":true,"rental_uris":{"android":"levelo://app?vid=b4300338-3154-4047-ab49-2d7cdaec2271","ios":"levelo://app?vid=b4300338-3154-4047-ab49-2d7cdaec2271"},"vehicle_type_id":"4","last_reported":1746547927,"current_range_meters":2000,"station_id":"ce4bgk12rcd13ifvqbi0","pricing_plan_id":"cebpf4jnsgd1na2vs0mg"},{"bike_id":"d1f66e2c-db85-4e08-994c-d41e17adb98d","system_id":"levelo_inurba_marseille","lat":43.28461,"lon":5.35893,"is_reserved":false,"is_disabled":true,"rental_uris":{"android":"levelo://app?vid=d1f66e2c-db85-4e08-994c-d41e17adb98d","ios":"levelo://app?vid=d1f66e2c-db85-4e08-994c-d41e17adb98d"},"vehicle_type_id":"4","last_reported":1746547927,"current_range_meters":2000,"station_id":"ce4bhah2rcd13ifvqei0","pricing_plan_id":"cebpf4jnsgd1na2vs0mg"},{"bike_id":"61851d0c-c17c-4c33-9dd8-16a521b76c0c","system_id":"levelo_inurba_marseille","lat":43.26564,"lon":5.39014,"is_reserved":false,"is_disabled":true,"rental_uris":{"android":"levelo://app?vid=61851d0c-c17c-4c33-9dd8-16a521b76c0c","ios":"levelo://app?vid=61851d0c-c17c-4c33-9dd8-16a521b76c0c"},"vehicle_type_id":"4","last_reported":1746547927,"current_range_meters":2000,"station_id":"ce4bhe12rcd13ifvqf30","pricing_plan_id":"cebpf4jnsgd1na2vs0mg"},{"bike_id":"850ebb25-90dc-4fd6-aa40-d311ff3fc68e","system_id":"levelo_inurba_marseille","lat":43.2549,"lon":5.37659,"is_reserved":false,"is_disabled":true,"rental_uris":{"android":"levelo://app?vid=850ebb25-90dc-4fd6-aa40-d311ff3fc68e","ios":"levelo://app?vid=850ebb25-90dc-4fd6-aa40-d311ff3fc68e"},"vehicle_type_id":"4","last_reported":1746547927,"current_range_meters":2000,"station_id":"ce4bhh12rcd13ifvqff0","pricing_plan_id":"cebpf4jnsgd1na2vs0mg"},{"bike_id":"012e3ca7-9445-48a1-b983-26b02ba518e4","system_id":"levelo_inurba_marseille","lat":43.26496,"lon":5.39557,"is_reserved":false,"is_disabled":true,"rental_uris":{"android":"levelo://app?vid=012e3ca7-9445-48a1-b983-26b02ba518e4","ios":"levelo://app?vid=012e3ca7-9445-48a1-b983-26b02ba518e4"},"vehicle_type_id":"4","last_reported":1746547927,"current_range_meters":2000,"station_id":"ce4bhi12rcd13ifvqfq0","pricing_plan_id":"cebpf4jnsgd1na2vs0mg"},{"bike_id":"66b646b3-6352-44bb-9bfb-21570512e3e5","system_id":"levelo_inurba_marseille","lat":43.281206,"lon":5.403996,"is_reserved":false,"is_disabled":false,"rental_uris":{"android":"levelo://app?vid=66b646b3-6352-44bb-9bfb-21570512e3e5","ios":"levelo://app?vid=66b646b3-6352-44bb-9bfb-21570512e3e5"},"vehicle_type_id":"4","last_reported":1746547927,"current_range_meters":2800,"station_id":"","pricing_plan_id":"cebpf4jnsgd1na2vs0mg"},{"bike_id":"88c3c6c1-a33a-48ed-b2a4-48c16332184c","system_id":"levelo_inurba_marseille","lat":43.27848,"lon":5.37406,"is_reserved":false,"is_disabled":false,"rental_uris":{"android":"levelo://app?vid=88c3c6c1-a33a-48ed-b2a4-48c16332184c","ios":"levelo://app?vid=88c3c6c1-a33a-48ed-b2a4-48c16332184c"},"vehicle_type_id":"4","last_reported":1746547927,"current_range_meters":2800,"station_id":"","pricing_plan_id":"cebpf4jnsgd1na2vs0mg"},{"bike_id":"3384d436-a758-4e0d-bf37-868cb79f440d","system_id":"levelo_inurba_marseille","lat":43.28459,"lon":5.35888,"is_reserved":false,"is_disabled":false,"rental_uris":{"android":"levelo://app?vid=3384d436-a758-4e0d-bf37-868cb79f440d","ios":"levelo://app?vid=3384d436-a758-4e0d-bf37-868cb79f440d"},"vehicle_type_id":"4","last_reported":1746547927,"current_range_meters":2800,"station_id":"ce4bhah2rcd13ifvqei0","pricing_plan_id":"cebpf4jnsgd1na2vs0mg"},{"bike_id":"8abe2dfe-dd94-4e67-9d82-0d4a0cdd2f1b","system_id":"levelo_inurba_marseille","lat":43.24807,"lon":5.37454,"is_reserved":false,"is_disabled":false,"rental_uris":{"android":"levelo://app?vid=8abe2dfe-dd94-4e67-9d82-0d4a0cdd2f1b","ios":"levelo://app?vid=8abe2dfe-dd94-4e67-9d82-0d4a0cdd2f1b"},"vehicle_type_id":"4","last_reported":1746547927,"current_range_meters":2800,"station_id":"ce4bhgh2rcd13ifvqfb0","pricing_plan_id":"cebpf4jnsgd1na2vs0mg"},{"bike_id":"6e2c21db-0baa-4ede-8c9b-539f044fc0a6","system_id":"levelo_inurba_marseille","lat":43.28081,"lon":5.39661,"is_reserved":false,"is_disabled":false,"rental_uris":{"android":"levelo://app?vid=6e2c21db-0baa-4ede-8c9b-539f044fc0a6","ios":"levelo://app?vid=6e2c21db-0baa-4ede-8c9b-539f044fc0a6"},"vehicle_type_id":"4","last_reported":1746547927,"current_range_meters":2800,"station_id":"ce4bho12rcd13ifvqh2g","pricing_plan_id":"cebpf4jnsgd1na2vs0mg"},{"bike_id":"c85147da-c555-473d-92ab-38d1aced85c9","system_id":"levelo_inurba_marseille","lat":43.29963,"lon":5.38502,"is_reserved":false,"is_disabled":false,"rental_uris":{"android":"levelo://app?vid=c85147da-c555-473d-92ab-38d1aced85c9","ios":"levelo://app?vid=c85147da-c555-473d-92ab-38d1aced85c9"},"vehicle_type_id":"4","last_reported":1746547927,"current_range_meters":3200,"station_id":"ce4bgj92rcd13ifvqbd0","pricing_plan_id":"cebpf4jnsgd1na2vs0mg"},{"bike_id":"1dea9073-4359-4808-93ed-5af994ca073c","system_id":"levelo_inurba_marseille","lat":43.29083,"lon":5.37177,"is_reserved":false,"is_disabled":false,"rental_uris":{"android":"levelo://app?vid=1dea9073-4359-4808-93ed-5af994ca073c","ios":"levelo://app?vid=1dea9073-4359-4808-93ed-5af994ca073c"},"vehicle_type_id":"4","last_reported":1746547927,"current_range_meters":3600,"station_id":"ce4bh5p2rcd13ifvqe4g","pricing_plan_id":"cebpf4jnsgd1na2vs0mg"},{"bike_id":"5a95b7eb-b3f3-49ae-b4fe-69cfdcbcd15f","system_id":"levelo_inurba_marseille","lat":43.33727,"lon":5.3919,"is_reserved":false,"is_disabled":false,"rental_uris":{"android":"levelo://app?vid=5a95b7eb-b3f3-49ae-b4fe-69cfdcbcd15f","ios":"levelo://app?vid=5a95b7eb-b3f3-49ae-b4fe-69cfdcbcd15f"},"vehicle_type_id":"4","last_reported":1746547927,"current_range_meters":4000,"station_id":"ce4bhr92rcd13ifvqhsg","pricing_plan_id":"cebpf4jnsgd1na2vs0mg"},{"bike_id":"5c7249a3-596f-4101-8dbd-1087a1f3b438","system_id":"levelo_inurba_marseille","lat":43.231847,"lon":5.355531,"is_reserved":false,"is_disabled":false,"rental_uris":{"android":"levelo://app?vid=5c7249a3-596f-4101-8dbd-1087a1f3b438","ios":"levelo://app?vid=5c7249a3-596f-4101-8dbd-1087a1f3b438"},"vehicle_type_id":"4","last_reported":1746547927,"current_range_meters":4000,"station_id":"ce4bhu92rcd13ifvqi70","pricing_plan_id":"cebpf4jnsgd1na2vs0mg"},{"bike_id":"482344f1-460c-48ea-83dd-01b9a385e5cf","system_id":"levelo_inurba_marseille","lat":43.30636,"lon":5.36855,"is_reserved":false,"is_disabled":false,"rental_uris":{"android":"levelo://app?vid=482344f1-460c-48ea-83dd-01b9a385e5cf","ios":"levelo://app?vid=482344f1-460c-48ea-83dd-01b9a385e5cf"},"vehicle_type_id":"4","last_reported":1746547927,"current_range_meters":4400,"station_id":"","pricing_plan_id":"cebpf4jnsgd1na2vs0mg"},{"bike_id":"b859c6be-f4b2-43ad-b0b3-add66d6b9d0a","system_id":"levelo_inurba_marseille","lat":43.29027,"lon":5.381185,"is_reserved":false,"is_disabled":false,"rental_uris":{"android":"levelo://app?vid=b859c6be-f4b2-43ad-b0b3-add66d6b9d0a","ios":"levelo://app?vid=b859c6be-f4b2-43ad-b0b3-add66d6b9d0a"},"vehicle_type_id":"4","last_reported":1746547927,"current_range_meters":4400,"station_id":"ce4bh4p2rcd13ifvqe1g","pricing_plan_id":"cebpf4jnsgd1na2vs0mg"},{"bike_id":"5f55d43c-c9c1-4ad8-91c0-5a1dec8aa3f0","system_id":"levelo_inurba_marseille","lat":43.27997,"lon":5.41664,"is_reserved":false,"is_disabled":false,"rental_uris":{"android":"levelo://app?vid=5f55d43c-c9c1-4ad8-91c0-5a1dec8aa3f0","ios":"levelo://app?vid=5f55d43c-c9c1-4ad8-91c0-5a1dec8aa3f0"},"vehicle_type_id":"4","last_reported":1746547927,"current_range_meters":4400,"station_id":"ce4bho12rcd13ifvqh1g","pricing_plan_id":"cebpf4jnsgd1na2vs0mg"},{"bike_id":"82922d52-cd44-4f61-92b0-9c7e19f7dae8","system_id":"levelo_inurba_marseille","lat":43.29836,"lon":5.3763,"is_reserved":false,"is_disabled":false,"rental_uris":{"android":"levelo://app?vid=82922d52-cd44-4f61-92b0-9c7e19f7dae8","ios":"levelo://app?vid=82922d52-cd44-4f61-92b0-9c7e19f7dae8"},"vehicle_type_id":"4","last_reported":1746547927,"current_range_meters":4800,"station_id":"","pricing_plan_id":"cebpf4jnsgd1na2vs0mg"},{"bike_id":"3d17d11b-1039-4586-84d9-2e6757959e15","system_id":"levelo_inurba_marseille","lat":43.29536,"lon":5.38551,"is_reserved":false,"is_disabled":false,"rental_uris":{"android":"levelo://app?vid=3d17d11b-1039-4586-84d9-2e6757959e15","ios":"levelo://app?vid=3d17d11b-1039-4586-84d9-2e6757959e15"},"vehicle_type_id":"4","last_reported":1746547927,"current_range_meters":4800,"station_id":"ce4bgih2rcd13ifvqba0","pricing_plan_id":"cebpf4jnsgd1na2vs0mg"},{"bike_id":"3d58b3a3-4173-4869-8ca7-9926efe297dd","system_id":"levelo_inurba_marseille","lat":43.29883,"lon":5.38902,"is_reserved":false,"is_disabled":false,"rental_uris":{"android":"levelo://app?vid=3d58b3a3-4173-4869-8ca7-9926efe297dd","ios":"levelo://app?vid=3d58b3a3-4173-4869-8ca7-9926efe297dd"},"vehicle_type_id":"4","last_reported":1746547927,"current_range_meters":4800,"station_id":"ce4bh392rcd13ifvqdl0","pricing_plan_id":"cebpf4jnsgd1na2vs0mg"},{"bike_id":"3fac7586-c068-4c09-96ba-830eeab81734","system_id":"levelo_inurba_marseille","lat":43.28042,"lon":5.36955,"is_reserved":false,"is_disabled":false,"rental_uris":{"android":"levelo://app?vid=3fac7586-c068-4c09-96ba-830eeab81734","ios":"levelo://app?vid=3fac7586-c068-4c09-96ba-830eeab81734"},"vehicle_type_id":"4","last_reported":1746547927,"current_range_meters":4800,"station_id":"ce4bha12rcd13ifvqef0","pricing_plan_id":"cebpf4jnsgd1na2vs0mg"},{"bike_id":"d2164ff2-e622-43c5-a96c-12a0e20481ae","system_id":"levelo_inurba_marseille","lat":43.27209,"lon":5.39189,"is_reserved":false,"is_disabled":false,"rental_uris":{"android":"levelo://app?vid=d2164ff2-e622-43c5-a96c-12a0e20481ae","ios":"levelo://app?vid=d2164ff2-e622-43c5-a96c-12a0e20481ae"},"vehicle_type_id":"4","last_reported":1746547927,"current_range_meters":4800,"station_id":"ce4bhhp2rcd13ifvqfm0","pricing_plan_id":"cebpf4jnsgd1na2vs0mg"},{"bike_id":"c806772d-d1c0-45c3-ab4b-7b052cedc9a2","system_id":"levelo_inurba_marseille","lat":43.25086,"lon":5.395276,"is_reserved":false,"is_disabled":false,"rental_uris":{"android":"levelo://app?vid=c806772d-d1c0-45c3-ab4b-7b052cedc9a2","ios":"levelo://app?vid=c806772d-d1c0-45c3-ab4b-7b052cedc9a2"},"vehicle_type_id":"4","last_reported":1746547927,"current_range_meters":4800,"station_id":"ce4bhm12rcd13ifvqgkg","pricing_plan_id":"cebpf4jnsgd1na2vs0mg"},{"bike_id":"9afdaa32-5437-40bb-b5dc-0e42f55a33ee","system_id":"levelo_inurba_marseille","lat":43.25396,"lon":5.41851,"is_reserved":false,"is_disabled":false,"rental_uris":{"android":"levelo://app?vid=9afdaa32-5437-40bb-b5dc-0e42f55a33ee","ios":"levelo://app?vid=9afdaa32-5437-40bb-b5dc-0e42f55a33ee"},"vehicle_type_id":"4","last_reported":1746547927,"current_range_meters":5600,"station_id":"","pricing_plan_id":"cebpf4jnsgd1na2vs0mg"},{"bike_id":"84796d25-aade-4960-ae15-0172d7b5b77e","system_id":"levelo_inurba_marseille","lat":43.31333,"lon":5.39693,"is_reserved":false,"is_disabled":false,"rental_uris":{"android":"levelo://app?vid=84796d25-aade-4960-ae15-0172d7b5b77e","ios":"levelo://app?vid=84796d25-aade-4960-ae15-0172d7b5b77e"},"vehicle_type_id":"4","last_reported":1746547927,"current_range_meters":5600,"station_id":"ce4bgvp2rcd13ifvqcu0","pricing_plan_id":"cebpf4jnsgd1na2vs0mg"},{"bike_id":"9bde960d-6050-4d53-be3e-dfbba2f0b5ef","system_id":"levelo_inurba_marseille","lat":43.289904,"lon":5.411463,"is_reserved":false,"is_disabled":false,"rental_uris":{"android":"levelo://app?vid=9bde960d-6050-4d53-be3e-dfbba2f0b5ef","ios":"levelo://app?vid=9bde960d-6050-4d53-be3e-dfbba2f0b5ef"},"vehicle_type_id":"4","last_reported":1746547927,"current_range_meters":5600,"station_id":"ce4bh192rcd13ifvqdc0","pricing_plan_id":"cebpf4jnsgd1na2vs0mg"},{"bike_id":"c5b7b6c9-d780-4046-946b-931c309b1cba","system_id":"levelo_inurba_marseille","lat":43.2862,"lon":5.35114,"is_reserved":false,"is_disabled":false,"rental_uris":{"android":"levelo://app?vid=c5b7b6c9-d780-4046-946b-931c309b1cba","ios":"levelo://app?vid=c5b7b6c9-d780-4046-946b-931c309b1cba"},"vehicle_type_id":"4","last_reported":1746547927,"current_range_meters":5600,"station_id":"ce4bhch2rcd13ifvqeug","pricing_plan_id":"cebpf4jnsgd1na2vs0mg"},{"bike_id":"3d25158d-06c1-4071-b099-11fa6e395f93","system_id":"levelo_inurba_marseille","lat":43.24653,"lon":5.38182,"is_reserved":false,"is_disabled":false,"rental_uris":{"android":"levelo://app?vid=3d25158d-06c1-4071-b099-11fa6e395f93","ios":"levelo://app?vid=3d25158d-06c1-4071-b099-11fa6e395f93"},"vehicle_type_id":"4","last_reported":1746547927,"current_range_meters":5600,"station_id":"ce4bhih2rcd13ifvqfr0","pricing_plan_id":"cebpf4jnsgd1na2vs0mg"},{"bike_id":"11d46424-5f99-45de-9884-93598522aba4","system_id":"levelo_inurba_marseille","lat":43.32664,"lon":5.40991,"is_reserved":false,"is_disabled":false,"rental_uris":{"android":"levelo://app?vid=11d46424-5f99-45de-9884-93598522aba4","ios":"levelo://app?vid=11d46424-5f99-45de-9884-93598522aba4"},"vehicle_type_id":"4","last_reported":1746547927,"current_range_meters":5600,"station_id":"ce4bhpp2rcd13ifvqhgg","pricing_plan_id":"cebpf4jnsgd1na2vs0mg"},{"bike_id":"fe272c6c-34eb-48a1-927e-7ad9a1a94852","system_id":"levelo_inurba_marseille","lat":43.3199,"lon":5.41508,"is_reserved":false,"is_disabled":false,"rental_uris":{"android":"levelo://app?vid=fe272c6c-34eb-48a1-927e-7ad9a1a94852","ios":"levelo://app?vid=fe272c6c-34eb-48a1-927e-7ad9a1a94852"},"vehicle_type_id":"4","last_reported":1746547927,"current_range_meters":5600,"station_id":"ce4bhq92rcd13ifvqhkg","pricing_plan_id":"cebpf4jnsgd1na2vs0mg"},{"bike_id":"7720970f-8f28-40c6-9275-bf5f966ed650","system_id":"levelo_inurba_marseille","lat":43.29192,"lon":5.35813,"is_reserved":false,"is_disabled":false,"rental_uris":{"android":"levelo://app?vid=7720970f-8f28-40c6-9275-bf5f966ed650","ios":"levelo://app?vid=7720970f-8f28-40c6-9275-bf5f966ed650"},"vehicle_type_id":"4","last_reported":1746547927,"current_range_meters":6000,"station_id":"ce4bhb12rcd13ifvqel0","pricing_plan_id":"cebpf4jnsgd1na2vs0mg"},{"bike_id":"e753b226-6bff-40fb-81c2-ac9a1121c3c7","system_id":"levelo_inurba_marseille","lat":43.28702,"lon":5.39989,"is_reserved":false,"is_disabled":false,"rental_uris":{"android":"levelo://app?vid=e753b226-6bff-40fb-81c2-ac9a1121c3c7","ios":"levelo://app?vid=e753b226-6bff-40fb-81c2-ac9a1121c3c7"},"vehicle_type_id":"4","last_reported":1746547927,"current_range_meters":6000,"station_id":"ce4bho92rcd13ifvqh3g","pricing_plan_id":"cebpf4jnsgd1na2vs0mg"},{"bike_id":"83cc1842-773c-46bc-8be1-caa63d83c3c2","system_id":"levelo_inurba_marseille","lat":43.25869,"lon":5.39534,"is_reserved":false,"is_disabled":false,"rental_uris":{"android":"levelo://app?vid=83cc1842-773c-46bc-8be1-caa63d83c3c2","ios":"levelo://app?vid=83cc1842-773c-46bc-8be1-caa63d83c3c2"},"vehicle_type_id":"4","last_reported":1746547927,"current_range_meters":6400,"station_id":"","pricing_plan_id":"cebpf4jnsgd1na2vs0mg"},{"bike_id":"414dd78d-8659-4ce1-b0c7-2851f1609d77","system_id":"levelo_inurba_marseille","lat":43.30089,"lon":5.39071,"is_reserved":false,"is_disabled":false,"rental_uris":{"android":"levelo://app?vid=414dd78d-8659-4ce1-b0c7-2851f1609d77","ios":"levelo://app?vid=414dd78d-8659-4ce1-b0c7-2851f1609d77"},"vehicle_type_id":"4","last_reported":1746547927,"current_range_meters":6400,"station_id":"ce4bh192rcd13ifvqdb0","pricing_plan_id":"cebpf4jnsgd1na2vs0mg"},{"bike_id":"416f578b-a76d-4698-b5ca-69135ef4b579","system_id":"levelo_inurba_marseille","lat":43.24164,"lon":5.36408,"is_reserved":false,"is_disabled":false,"rental_uris":{"android":"levelo://app?vid=416f578b-a76d-4698-b5ca-69135ef4b579","ios":"levelo://app?vid=416f578b-a76d-4698-b5ca-69135ef4b579"},"vehicle_type_id":"4","last_reported":1746547927,"current_range_meters":6400,"station_id":"cpo36qri1sfpv3e86is0","pricing_plan_id":"cebpf4jnsgd1na2vs0mg"},{"bike_id":"2b310f27-5097-46a0-8496-723ef7df81cf","system_id":"levelo_inurba_marseille","lat":43.298,"lon":5.40405,"is_reserved":false,"is_disabled":false,"rental_uris":{"android":"levelo://app?vid=2b310f27-5097-46a0-8496-723ef7df81cf","ios":"levelo://app?vid=2b310f27-5097-46a0-8496-723ef7df81cf"},"vehicle_type_id":"4","last_reported":1746547927,"current_range_meters":6800,"station_id":"ce4bh112rcd13ifvqd90","pricing_plan_id":"cebpf4jnsgd1na2vs0mg"},{"bike_id":"4d41f66c-f615-49b2-a6d7-735e22d421fb","system_id":"levelo_inurba_marseille","lat":43.23182,"lon":5.4,"is_reserved":false,"is_disabled":false,"rental_uris":{"android":"levelo://app?vid=4d41f66c-f615-49b2-a6d7-735e22d421fb","ios":"levelo://app?vid=4d41f66c-f615-49b2-a6d7-735e22d421fb"},"vehicle_type_id":"4","last_reported":1746547927,"current_range_meters":6800,"station_id":"ce4bhn12rcd13ifvqgqg","pricing_plan_id":"cebpf4jnsgd1na2vs0mg"},{"bike_id":"d70458b0-17aa-4f2c-9849-54ac0434bf07","system_id":"levelo_inurba_marseille","lat":43.29598,"lon":5.38101,"is_reserved":false,"is_disabled":false,"rental_uris":{"android":"levelo://app?vid=d70458b0-17aa-4f2c-9849-54ac0434bf07","ios":"levelo://app?vid=d70458b0-17aa-4f2c-9849-54ac0434bf07"},"vehicle_type_id":"4","last_reported":1746547927,"current_range_meters":7200,"station_id":"ce4bgl12rcd13ifvqbo0","pricing_plan_id":"cebpf4jnsgd1na2vs0mg"},{"bike_id":"59aa2eda-6ff2-45eb-b95d-27547809d7ff","system_id":"levelo_inurba_marseille","lat":43.24664,"lon":5.38168,"is_reserved":false,"is_disabled":false,"rental_uris":{"android":"levelo://app?vid=59aa2eda-6ff2-45eb-b95d-27547809d7ff","ios":"levelo://app?vid=59aa2eda-6ff2-45eb-b95d-27547809d7ff"},"vehicle_type_id":"4","last_reported":1746547927,"current_range_meters":7200,"station_id":"ce4bhih2rcd13ifvqfr0","pricing_plan_id":"cebpf4jnsgd1na2vs0mg"},{"bike_id":"59644f8e-465d-47b2-b2da-c7cef8192947","system_id":"levelo_inurba_marseille","lat":43.317119,"lon":5.437072,"is_reserved":false,"is_disabled":false,"rental_uris":{"android":"levelo://app?vid=59644f8e-465d-47b2-b2da-c7cef8192947","ios":"levelo://app?vid=59644f8e-465d-47b2-b2da-c7cef8192947"},"vehicle_type_id":"4","last_reported":1746547927,"current_range_meters":7200,"station_id":"ce4bhp92rcd13ifvqhcg","pricing_plan_id":"cebpf4jnsgd1na2vs0mg"},{"bike_id":"d15174ab-fff3-470e-914c-f80573388193","system_id":"levelo_inurba_marseille","lat":43.304387,"lon":5.397493,"is_reserved":false,"is_disabled":false,"rental_uris":{"android":"levelo://app?vid=d15174ab-fff3-470e-914c-f80573388193","ios":"levelo://app?vid=d15174ab-fff3-470e-914c-f80573388193"},"vehicle_type_id":"4","last_reported":1746547927,"current_range_meters":8000,"station_id":"ce4bh092rcd13ifvqd20","pricing_plan_id":"cebpf4jnsgd1na2vs0mg"},{"bike_id":"37a83780-6d9f-4861-a44f-8bb5b0f2a7b3","system_id":"levelo_inurba_marseille","lat":43.299219,"lon":5.385216,"is_reserved":false,"is_disabled":false,"rental_uris":{"android":"levelo://app?vid=37a83780-6d9f-4861-a44f-8bb5b0f2a7b3","ios":"levelo://app?vid=37a83780-6d9f-4861-a44f-8bb5b0f2a7b3"},"vehicle_type_id":"4","last_reported":1746547927,"current_range_meters":8000,"station_id":"ce4bh0h2rcd13ifvqd40","pricing_plan_id":"cebpf4jnsgd1na2vs0mg"},{"bike_id":"9d8f73eb-df09-4699-86a7-d631e2319093","system_id":"levelo_inurba_marseille","lat":43.26271,"lon":5.37446,"is_reserved":false,"is_disabled":false,"rental_uris":{"android":"levelo://app?vid=9d8f73eb-df09-4699-86a7-d631e2319093","ios":"levelo://app?vid=9d8f73eb-df09-4699-86a7-d631e2319093"},"vehicle_type_id":"4","last_reported":1746547927,"current_range_meters":8400,"station_id":"","pricing_plan_id":"cebpf4jnsgd1na2vs0mg"},{"bike_id":"f0d8003e-2e4c-417f-a4c5-f534a7ba6847","system_id":"levelo_inurba_marseille","lat":43.299091,"lon":5.381511,"is_reserved":false,"is_disabled":false,"rental_uris":{"android":"levelo://app?vid=f0d8003e-2e4c-417f-a4c5-f534a7ba6847","ios":"levelo://app?vid=f0d8003e-2e4c-417f-a4c5-f534a7ba6847"},"vehicle_type_id":"4","last_reported":1746547927,"current_range_meters":8400,"station_id":"ce4bgj12rcd13ifvqbc0","pricing_plan_id":"cebpf4jnsgd1na2vs0mg"},{"bike_id":"5d80b954-4ab6-4737-9654-c9d81c9dc148","system_id":"levelo_inurba_marseille","lat":43.28722,"lon":5.3793,"is_reserved":false,"is_disabled":false,"rental_uris":{"android":"levelo://app?vid=5d80b954-4ab6-4737-9654-c9d81c9dc148","ios":"levelo://app?vid=5d80b954-4ab6-4737-9654-c9d81c9dc148"},"vehicle_type_id":"4","last_reported":1746547927,"current_range_meters":8400,"station_id":"ce4bh9p2rcd13ifvqec0","pricing_plan_id":"cebpf4jnsgd1na2vs0mg"},{"bike_id":"61589239-7daa-404f-a726-71715e97eccf","system_id":"levelo_inurba_marseille","lat":43.28617,"lon":5.35107,"is_reserved":false,"is_disabled":false,"rental_uris":{"android":"levelo://app?vid=61589239-7daa-404f-a726-71715e97eccf","ios":"levelo://app?vid=61589239-7daa-404f-a726-71715e97eccf"},"vehicle_type_id":"4","last_reported":1746547927,"current_range_meters":8400,"station_id":"ce4bhch2rcd13ifvqeug","pricing_plan_id":"cebpf4jnsgd1na2vs0mg"},{"bike_id":"5716e4c8-7110-4605-9392-aaa7d9580e30","system_id":"levelo_inurba_marseille","lat":43.25113,"lon":5.4032,"is_reserved":false,"is_disabled":false,"rental_uris":{"android":"levelo://app?vid=5716e4c8-7110-4605-9392-aaa7d9580e30","ios":"levelo://app?vid=5716e4c8-7110-4605-9392-aaa7d9580e30"},"vehicle_type_id":"4","last_reported":1746547927,"current_range_meters":8400,"station_id":"ce4bhlh2rcd13ifvqgig","pricing_plan_id":"cebpf4jnsgd1na2vs0mg"},{"bike_id":"9d3fd1a0-e478-4ebd-9080-d3afe2d04ddf","system_id":"levelo_inurba_marseille","lat":43.33028,"lon":5.39044,"is_reserved":false,"is_disabled":false,"rental_uris":{"android":"levelo://app?vid=9d3fd1a0-e478-4ebd-9080-d3afe2d04ddf","ios":"levelo://app?vid=9d3fd1a0-e478-4ebd-9080-d3afe2d04ddf"},"vehicle_type_id":"4","last_reported":1746547927,"current_range_meters":8400,"station_id":"ce4bhr92rcd13ifvqhrg","pricing_plan_id":"cebpf4jnsgd1na2vs0mg"},{"bike_id":"aa5c2d58-84f2-4af4-bea8-81ac2f7aa588","system_id":"levelo_inurba_marseille","lat":43.29436,"lon":5.39748,"is_reserved":false,"is_disabled":false,"rental_uris":{"android":"levelo://app?vid=aa5c2d58-84f2-4af4-bea8-81ac2f7aa588","ios":"levelo://app?vid=aa5c2d58-84f2-4af4-bea8-81ac2f7aa588"},"vehicle_type_id":"4","last_reported":1746547927,"current_range_meters":8800,"station_id":"ce4bh3h2rcd13ifvqdo0","pricing_plan_id":"cebpf4jnsgd1na2vs0mg"},{"bike_id":"d34aee69-77f5-46d3-a1a2-df2ffd6d4276","system_id":"levelo_inurba_marseille","lat":43.28618,"lon":5.35109,"is_reserved":false,"is_disabled":false,"rental_uris":{"android":"levelo://app?vid=d34aee69-77f5-46d3-a1a2-df2ffd6d4276","ios":"levelo://app?vid=d34aee69-77f5-46d3-a1a2-df2ffd6d4276"},"vehicle_type_id":"4","last_reported":1746547927,"current_range_meters":8800,"station_id":"ce4bhch2rcd13ifvqeug","pricing_plan_id":"cebpf4jnsgd1na2vs0mg"},{"bike_id":"0c377d9d-9a3a-47a7-9944-6039314b5e15","system_id":"levelo_inurba_marseille","lat":43.24578,"lon":5.40503,"is_reserved":false,"is_disabled":false,"rental_uris":{"android":"levelo://app?vid=0c377d9d-9a3a-47a7-9944-6039314b5e15","ios":"levelo://app?vid=0c377d9d-9a3a-47a7-9944-6039314b5e15"},"vehicle_type_id":"4","last_reported":1746547927,"current_range_meters":9200,"station_id":"","pricing_plan_id":"cebpf4jnsgd1na2vs0mg"},{"bike_id":"91199f13-22e8-4b61-9ff5-8f82992fbc99","system_id":"levelo_inurba_marseille","lat":43.30936,"lon":5.40142,"is_reserved":false,"is_disabled":false,"rental_uris":{"android":"levelo://app?vid=91199f13-22e8-4b61-9ff5-8f82992fbc99","ios":"levelo://app?vid=91199f13-22e8-4b61-9ff5-8f82992fbc99"},"vehicle_type_id":"4","last_reported":1746547927,"current_range_meters":9200,"station_id":"ce4bgvp2rcd13ifvqct0","pricing_plan_id":"cebpf4jnsgd1na2vs0mg"},{"bike_id":"25218c20-79af-4b66-9203-bdf9f71c7531","system_id":"levelo_inurba_marseille","lat":43.29031,"lon":5.38657,"is_reserved":false,"is_disabled":false,"rental_uris":{"android":"levelo://app?vid=25218c20-79af-4b66-9203-bdf9f71c7531","ios":"levelo://app?vid=25218c20-79af-4b66-9203-bdf9f71c7531"},"vehicle_type_id":"4","last_reported":1746547927,"current_range_meters":9200,"station_id":"ce4bh4p2rcd13ifvqe0g","pricing_plan_id":"cebpf4jnsgd1na2vs0mg"},{"bike_id":"bf0223c6-6c46-453d-80b4-0d94c197c934","system_id":"levelo_inurba_marseille","lat":43.24826,"lon":5.3746,"is_reserved":false,"is_disabled":false,"rental_uris":{"android":"levelo://app?vid=bf0223c6-6c46-453d-80b4-0d94c197c934","ios":"levelo://app?vid=bf0223c6-6c46-453d-80b4-0d94c197c934"},"vehicle_type_id":"4","last_reported":1746547927,"current_range_meters":9200,"station_id":"ce4bhgh2rcd13ifvqfb0","pricing_plan_id":"cebpf4jnsgd1na2vs0mg"},{"bike_id":"37b80a7b-fd0f-49f3-81ae-7c49c154529e","system_id":"levelo_inurba_marseille","lat":43.25102,"lon":5.39518,"is_reserved":false,"is_disabled":false,"rental_uris":{"android":"levelo://app?vid=37b80a7b-fd0f-49f3-81ae-7c49c154529e","ios":"levelo://app?vid=37b80a7b-fd0f-49f3-81ae-7c49c154529e"},"vehicle_type_id":"4","last_reported":1746547927,"current_range_meters":9200,"station_id":"ce4bhm12rcd13ifvqgkg","pricing_plan_id":"cebpf4jnsgd1na2vs0mg"},{"bike_id":"503569af-07db-461f-918e-29f89d0c1c24","system_id":"levelo_inurba_marseille","lat":43.22495,"lon":5.34782,"is_reserved":false,"is_disabled":false,"rental_uris":{"android":"levelo://app?vid=503569af-07db-461f-918e-29f89d0c1c24","ios":"levelo://app?vid=503569af-07db-461f-918e-29f89d0c1c24"},"vehicle_type_id":"4","last_reported":1746547927,"current_range_meters":9200,"station_id":"st_cvj5dfep6f1abm77gieg","pricing_plan_id":"cebpf4jnsgd1na2vs0mg"},{"bike_id":"c2fff035-6128-402a-b38b-ebc94261b3d8","system_id":"levelo_inurba_marseille","lat":43.212,"lon":5.35082,"is_reserved":false,"is_disabled":false,"rental_uris":{"android":"levelo://app?vid=c2fff035-6128-402a-b38b-ebc94261b3d8","ios":"levelo://app?vid=c2fff035-6128-402a-b38b-ebc94261b3d8"},"vehicle_type_id":"4","last_reported":1746547927,"current_range_meters":9200,"station_id":"st_cvj6sg6p6f1abm77japg","pricing_plan_id":"cebpf4jnsgd1na2vs0mg"},{"bike_id":"4be95b90-db9a-4205-9ad8-468cfd9c87c9","system_id":"levelo_inurba_marseille","lat":43.25457,"lon":5.37614,"is_reserved":false,"is_disabled":false,"rental_uris":{"android":"levelo://app?vid=4be95b90-db9a-4205-9ad8-468cfd9c87c9","ios":"levelo://app?vid=4be95b90-db9a-4205-9ad8-468cfd9c87c9"},"vehicle_type_id":"4","last_reported":1746547927,"current_range_meters":9600,"station_id":"ce4bhh12rcd13ifvqff0","pricing_plan_id":"cebpf4jnsgd1na2vs0mg"},{"bike_id":"c9592205-9409-4f74-aed1-7c4141a58caa","system_id":"levelo_inurba_marseille","lat":43.27158,"lon":5.36364,"is_reserved":false,"is_disabled":false,"rental_uris":{"android":"levelo://app?vid=c9592205-9409-4f74-aed1-7c4141a58caa","ios":"levelo://app?vid=c9592205-9409-4f74-aed1-7c4141a58caa"},"vehicle_type_id":"4","last_reported":1746547927,"current_range_meters":10000,"station_id":"","pricing_plan_id":"cebpf4jnsgd1na2vs0mg"},{"bike_id":"943d0601-5d73-468b-922c-7ef604961a21","system_id":"levelo_inurba_marseille","lat":43.21191,"lon":5.35076,"is_reserved":false,"is_disabled":false,"rental_uris":{"android":"levelo://app?vid=943d0601-5d73-468b-922c-7ef604961a21","ios":"levelo://app?vid=943d0601-5d73-468b-922c-7ef604961a21"},"vehicle_type_id":"4","last_reported":1746547927,"current_range_meters":10000,"station_id":"st_cvj6sg6p6f1abm77japg","pricing_plan_id":"cebpf4jnsgd1na2vs0mg"},{"bike_id":"fc453207-e37b-4b13-ae20-4430b65eb533","system_id":"levelo_inurba_marseille","lat":43.32442,"lon":5.39127,"is_reserved":false,"is_disabled":false,"rental_uris":{"android":"levelo://app?vid=fc453207-e37b-4b13-ae20-4430b65eb533","ios":"levelo://app?vid=fc453207-e37b-4b13-ae20-4430b65eb533"},"vehicle_type_id":"4","last_reported":1746547927,"current_range_meters":10800,"station_id":"","pricing_plan_id":"cebpf4jnsgd1na2vs0mg"},{"bike_id":"e7df6164-0e63-4db9-a019-f130fa629123","system_id":"levelo_inurba_marseille","lat":43.326001,"lon":5.403765,"is_reserved":false,"is_disabled":false,"rental_uris":{"android":"levelo://app?vid=e7df6164-0e63-4db9-a019-f130fa629123","ios":"levelo://app?vid=e7df6164-0e63-4db9-a019-f130fa629123"},"vehicle_type_id":"4","last_reported":1746547927,"current_range_meters":10800,"station_id":"","pricing_plan_id":"cebpf4jnsgd1na2vs0mg"},{"bike_id":"27663269-193a-45b9-89db-1eac46c0001d","system_id":"levelo_inurba_marseille","lat":43.30354,"lon":5.4188,"is_reserved":false,"is_disabled":false,"rental_uris":{"android":"levelo://app?vid=27663269-193a-45b9-89db-1eac46c0001d","ios":"levelo://app?vid=27663269-193a-45b9-89db-1eac46c0001d"},"vehicle_type_id":"4","last_reported":1746547927,"current_range_meters":10800,"station_id":"ce4bhop2rcd13ifvqh7g","pricing_plan_id":"cebpf4jnsgd1na2vs0mg"},{"bike_id":"3f84d55c-f7b3-443f-a8ba-1f83ba8291a2","system_id":"levelo_inurba_marseille","lat":43.2119,"lon":5.35081,"is_reserved":false,"is_disabled":false,"rental_uris":{"android":"levelo://app?vid=3f84d55c-f7b3-443f-a8ba-1f83ba8291a2","ios":"levelo://app?vid=3f84d55c-f7b3-443f-a8ba-1f83ba8291a2"},"vehicle_type_id":"4","last_reported":1746547927,"current_range_meters":10800,"station_id":"st_cvj6sg6p6f1abm77japg","pricing_plan_id":"cebpf4jnsgd1na2vs0mg"},{"bike_id":"f24f5695-9496-43e7-84ae-694bdb2b779b","system_id":"levelo_inurba_marseille","lat":43.28466,"lon":5.35903,"is_reserved":false,"is_disabled":false,"rental_uris":{"android":"levelo://app?vid=f24f5695-9496-43e7-84ae-694bdb2b779b","ios":"levelo://app?vid=f24f5695-9496-43e7-84ae-694bdb2b779b"},"vehicle_type_id":"4","last_reported":1746547927,"current_range_meters":11200,"station_id":"ce4bhah2rcd13ifvqei0","pricing_plan_id":"cebpf4jnsgd1na2vs0mg"},{"bike_id":"c7117841-79e6-4897-9235-590438bb1b3c","system_id":"levelo_inurba_marseille","lat":43.2885,"lon":5.35865,"is_reserved":false,"is_disabled":false,"rental_uris":{"android":"levelo://app?vid=c7117841-79e6-4897-9235-590438bb1b3c","ios":"levelo://app?vid=c7117841-79e6-4897-9235-590438bb1b3c"},"vehicle_type_id":"4","last_reported":1746547927,"current_range_meters":11200,"station_id":"ce4bhb12rcd13ifvqem0","pricing_plan_id":"cebpf4jnsgd1na2vs0mg"},{"bike_id":"15562a66-6b26-43fc-a247-c0751d59f8ba","system_id":"levelo_inurba_marseille","lat":43.27557,"lon":5.38425,"is_reserved":false,"is_disabled":false,"rental_uris":{"android":"levelo://app?vid=15562a66-6b26-43fc-a247-c0751d59f8ba","ios":"levelo://app?vid=15562a66-6b26-43fc-a247-c0751d59f8ba"},"vehicle_type_id":"4","last_reported":1746547927,"current_range_meters":11200,"station_id":"ce4bhh92rcd13ifvqfi0","pricing_plan_id":"cebpf4jnsgd1na2vs0mg"},{"bike_id":"d6918ebc-6bfa-45b6-9f2f-bdf2010f816b","system_id":"levelo_inurba_marseille","lat":43.30811,"lon":5.43544,"is_reserved":false,"is_disabled":false,"rental_uris":{"android":"levelo://app?vid=d6918ebc-6bfa-45b6-9f2f-bdf2010f816b","ios":"levelo://app?vid=d6918ebc-6bfa-45b6-9f2f-bdf2010f816b"},"vehicle_type_id":"4","last_reported":1746547927,"current_range_meters":11200,"station_id":"ce4bhph2rcd13ifvqheg","pricing_plan_id":"cebpf4jnsgd1na2vs0mg"},{"bike_id":"10222216-2226-4724-b22d-9346bc489e9b","system_id":"levelo_inurba_marseille","lat":43.32051,"lon":5.41533,"is_reserved":false,"is_disabled":false,"rental_uris":{"android":"levelo://app?vid=10222216-2226-4724-b22d-9346bc489e9b","ios":"levelo://app?vid=10222216-2226-4724-b22d-9346bc489e9b"},"vehicle_type_id":"4","last_reported":1746547927,"current_range_meters":11200,"station_id":"ce4bhq92rcd13ifvqhkg","pricing_plan_id":"cebpf4jnsgd1na2vs0mg"},{"bike_id":"5c0f2d8c-2ea4-44eb-83e2-2dcd246a5d47","system_id":"levelo_inurba_marseille","lat":43.21747,"lon":5.34605,"is_reserved":false,"is_disabled":false,"rental_uris":{"android":"levelo://app?vid=5c0f2d8c-2ea4-44eb-83e2-2dcd246a5d47","ios":"levelo://app?vid=5c0f2d8c-2ea4-44eb-83e2-2dcd246a5d47"},"vehicle_type_id":"4","last_reported":1746547927,"current_range_meters":11200,"station_id":"st_cvj6r9ubvosntc0bgbag","pricing_plan_id":"cebpf4jnsgd1na2vs0mg"},{"bike_id":"db30713c-9aca-4023-a2f8-aa098de0159b","system_id":"levelo_inurba_marseille","lat":43.25727,"lon":5.41108,"is_reserved":false,"is_disabled":false,"rental_uris":{"android":"levelo://app?vid=db30713c-9aca-4023-a2f8-aa098de0159b","ios":"levelo://app?vid=db30713c-9aca-4023-a2f8-aa098de0159b"},"vehicle_type_id":"4","last_reported":1746547927,"current_range_meters":11600,"station_id":"ce4bhkp2rcd13ifvqgd0","pricing_plan_id":"cebpf4jnsgd1na2vs0mg"},{"bike_id":"da3298cb-0648-4b97-b125-1224becb6fdf","system_id":"levelo_inurba_marseille","lat":43.292714,"lon":5.376195,"is_reserved":false,"is_disabled":false,"rental_uris":{"android":"levelo://app?vid=da3298cb-0648-4b97-b125-1224becb6fdf","ios":"levelo://app?vid=da3298cb-0648-4b97-b125-1224becb6fdf"},"vehicle_type_id":"4","last_reported":1746547927,"current_range_meters":12400,"station_id":"ce4bgi12rcd13ifvqb80","pricing_plan_id":"cebpf4jnsgd1na2vs0mg"},{"bike_id":"5a9189d6-7239-40a6-a35d-5b6967ba85bf","system_id":"levelo_inurba_marseille","lat":43.29258,"lon":5.38445,"is_reserved":false,"is_disabled":false,"rental_uris":{"android":"levelo://app?vid=5a9189d6-7239-40a6-a35d-5b6967ba85bf","ios":"levelo://app?vid=5a9189d6-7239-40a6-a35d-5b6967ba85bf"},"vehicle_type_id":"4","last_reported":1746547927,"current_range_meters":12400,"station_id":"ce4bh692rcd13ifvqea0","pricing_plan_id":"cebpf4jnsgd1na2vs0mg"},{"bike_id":"b5679935-57aa-4ad8-9aec-da2e88d6cd32","system_id":"levelo_inurba_marseille","lat":43.248,"lon":5.37465,"is_reserved":false,"is_disabled":false,"rental_uris":{"android":"levelo://app?vid=b5679935-57aa-4ad8-9aec-da2e88d6cd32","ios":"levelo://app?vid=b5679935-57aa-4ad8-9aec-da2e88d6cd32"},"vehicle_type_id":"4","last_reported":1746547927,"current_range_meters":12400,"station_id":"ce4bhgh2rcd13ifvqfb0","pricing_plan_id":"cebpf4jnsgd1na2vs0mg"},{"bike_id":"de2955d7-3c3a-4e6c-a405-72c75325952c","system_id":"levelo_inurba_marseille","lat":43.28044,"lon":5.36948,"is_reserved":false,"is_disabled":false,"rental_uris":{"android":"levelo://app?vid=de2955d7-3c3a-4e6c-a405-72c75325952c","ios":"levelo://app?vid=de2955d7-3c3a-4e6c-a405-72c75325952c"},"vehicle_type_id":"4","last_reported":1746547927,"current_range_meters":12800,"station_id":"ce4bha12rcd13ifvqef0","pricing_plan_id":"cebpf4jnsgd1na2vs0mg"},{"bike_id":"5fb18fa8-6169-491e-aa7f-dc457438293c","system_id":"levelo_inurba_marseille","lat":43.29438,"lon":5.37426,"is_reserved":false,"is_disabled":false,"rental_uris":{"android":"levelo://app?vid=5fb18fa8-6169-491e-aa7f-dc457438293c","ios":"levelo://app?vid=5fb18fa8-6169-491e-aa7f-dc457438293c"},"vehicle_type_id":"4","last_reported":1746547927,"current_range_meters":13600,"station_id":"","pricing_plan_id":"cebpf4jnsgd1na2vs0mg"},{"bike_id":"fb1936bb-d60a-4bde-acec-a17082002c67","system_id":"levelo_inurba_marseille","lat":43.29876,"lon":5.39732,"is_reserved":false,"is_disabled":false,"rental_uris":{"android":"levelo://app?vid=fb1936bb-d60a-4bde-acec-a17082002c67","ios":"levelo://app?vid=fb1936bb-d60a-4bde-acec-a17082002c67"},"vehicle_type_id":"4","last_reported":1746547927,"current_range_meters":13600,"station_id":"ce4bh0h2rcd13ifvqd50","pricing_plan_id":"cebpf4jnsgd1na2vs0mg"},{"bike_id":"961e477c-afaf-4034-99dd-403eb1597523","system_id":"levelo_inurba_marseille","lat":43.31725,"lon":5.42415,"is_reserved":false,"is_disabled":false,"rental_uris":{"android":"levelo://app?vid=961e477c-afaf-4034-99dd-403eb1597523","ios":"levelo://app?vid=961e477c-afaf-4034-99dd-403eb1597523"},"vehicle_type_id":"4","last_reported":1746547927,"current_range_meters":13600,"station_id":"ce4bhp92rcd13ifvqhbg","pricing_plan_id":"cebpf4jnsgd1na2vs0mg"},{"bike_id":"8a5554a2-b62f-4371-8d49-519ad97fb9f1","system_id":"levelo_inurba_marseille","lat":43.33017,"lon":5.39064,"is_reserved":false,"is_disabled":false,"rental_uris":{"android":"levelo://app?vid=8a5554a2-b62f-4371-8d49-519ad97fb9f1","ios":"levelo://app?vid=8a5554a2-b62f-4371-8d49-519ad97fb9f1"},"vehicle_type_id":"4","last_reported":1746547927,"current_range_meters":13600,"station_id":"ce4bhr92rcd13ifvqhrg","pricing_plan_id":"cebpf4jnsgd1na2vs0mg"},{"bike_id":"b4bac287-3615-423a-bca2-a11fb80cb066","system_id":"levelo_inurba_marseille","lat":43.23058,"lon":5.35501,"is_reserved":false,"is_disabled":false,"rental_uris":{"android":"levelo://app?vid=b4bac287-3615-423a-bca2-a11fb80cb066","ios":"levelo://app?vid=b4bac287-3615-423a-bca2-a11fb80cb066"},"vehicle_type_id":"4","last_reported":1746547927,"current_range_meters":13600,"station_id":"cpo3342slgdg3j2ifvpg","pricing_plan_id":"cebpf4jnsgd1na2vs0mg"},{"bike_id":"b9d889a1-6f8f-4145-8432-407a3df656c7","system_id":"levelo_inurba_marseille","lat":43.24171,"lon":5.36396,"is_reserved":false,"is_disabled":false,"rental_uris":{"android":"levelo://app?vid=b9d889a1-6f8f-4145-8432-407a3df656c7","ios":"levelo://app?vid=b9d889a1-6f8f-4145-8432-407a3df656c7"},"vehicle_type_id":"4","last_reported":1746547927,"current_range_meters":13600,"station_id":"cpo36qri1sfpv3e86is0","pricing_plan_id":"cebpf4jnsgd1na2vs0mg"},{"bike_id":"a6921b22-0138-4dde-85a7-bd7f15729777","system_id":"levelo_inurba_marseille","lat":43.25822,"lon":5.39437,"is_reserved":false,"is_disabled":false,"rental_uris":{"android":"levelo://app?vid=a6921b22-0138-4dde-85a7-bd7f15729777","ios":"levelo://app?vid=a6921b22-0138-4dde-85a7-bd7f15729777"},"vehicle_type_id":"4","last_reported":1746547927,"current_range_meters":14000,"station_id":"ce4bhip2rcd13ifvqft0","pricing_plan_id":"cebpf4jnsgd1na2vs0mg"},{"bike_id":"4d2e360d-76d6-4e42-a208-b0187698e2a9","system_id":"levelo_inurba_marseille","lat":43.30927,"lon":5.40143,"is_reserved":false,"is_disabled":false,"rental_uris":{"android":"levelo://app?vid=4d2e360d-76d6-4e42-a208-b0187698e2a9","ios":"levelo://app?vid=4d2e360d-76d6-4e42-a208-b0187698e2a9"},"vehicle_type_id":"4","last_reported":1746547927,"current_range_meters":14400,"station_id":"ce4bgvp2rcd13ifvqct0","pricing_plan_id":"cebpf4jnsgd1na2vs0mg"},{"bike_id":"03bb5049-51e5-461e-8353-3cc13edfbfb8","system_id":"levelo_inurba_marseille","lat":43.23958,"lon":5.3668,"is_reserved":false,"is_disabled":false,"rental_uris":{"android":"levelo://app?vid=03bb5049-51e5-461e-8353-3cc13edfbfb8","ios":"levelo://app?vid=03bb5049-51e5-461e-8353-3cc13edfbfb8"},"vehicle_type_id":"4","last_reported":1746547927,"current_range_meters":14400,"station_id":"ce4bhi12rcd13ifvqfp0","pricing_plan_id":"cebpf4jnsgd1na2vs0mg"},{"bike_id":"c2b41c20-1997-488f-b9e6-95c7520b5ba2","system_id":"levelo_inurba_marseille","lat":43.23197,"lon":5.35585,"is_reserved":false,"is_disabled":false,"rental_uris":{"android":"levelo://app?vid=c2b41c20-1997-488f-b9e6-95c7520b5ba2","ios":"levelo://app?vid=c2b41c20-1997-488f-b9e6-95c7520b5ba2"},"vehicle_type_id":"4","last_reported":1746547927,"current_range_meters":14400,"station_id":"ce4bhu92rcd13ifvqi70","pricing_plan_id":"cebpf4jnsgd1na2vs0mg"},{"bike_id":"741922f7-49ff-4751-a228-5a73f2c8c24d","system_id":"levelo_inurba_marseille","lat":43.24173,"lon":5.3641,"is_reserved":false,"is_disabled":false,"rental_uris":{"android":"levelo://app?vid=741922f7-49ff-4751-a228-5a73f2c8c24d","ios":"levelo://app?vid=741922f7-49ff-4751-a228-5a73f2c8c24d"},"vehicle_type_id":"4","last_reported":1746547927,"current_range_meters":14400,"station_id":"cpo36qri1sfpv3e86is0","pricing_plan_id":"cebpf4jnsgd1na2vs0mg"},{"bike_id":"1900e395-19ba-404e-aa6a-262b7656599d","system_id":"levelo_inurba_marseille","lat":43.2888,"lon":5.43707,"is_reserved":false,"is_disabled":false,"rental_uris":{"android":"levelo://app?vid=1900e395-19ba-404e-aa6a-262b7656599d","ios":"levelo://app?vid=1900e395-19ba-404e-aa6a-262b7656599d"},"vehicle_type_id":"4","last_reported":1746547927,"current_range_meters":14800,"station_id":"","pricing_plan_id":"cebpf4jnsgd1na2vs0mg"},{"bike_id":"91d1da23-d819-4bdd-8b90-bda9fef1543a","system_id":"levelo_inurba_marseille","lat":43.30323,"lon":5.40438,"is_reserved":false,"is_disabled":false,"rental_uris":{"android":"levelo://app?vid=91d1da23-d819-4bdd-8b90-bda9fef1543a","ios":"levelo://app?vid=91d1da23-d819-4bdd-8b90-bda9fef1543a"},"vehicle_type_id":"4","last_reported":1746547927,"current_range_meters":14800,"station_id":"ce4bh012rcd13ifvqd10","pricing_plan_id":"cebpf4jnsgd1na2vs0mg"},{"bike_id":"c65b64f5-a38f-4b33-a48f-6bb6c6b32a53","system_id":"levelo_inurba_marseille","lat":43.21225,"lon":5.3509,"is_reserved":false,"is_disabled":false,"rental_uris":{"android":"levelo://app?vid=c65b64f5-a38f-4b33-a48f-6bb6c6b32a53","ios":"levelo://app?vid=c65b64f5-a38f-4b33-a48f-6bb6c6b32a53"},"vehicle_type_id":"4","last_reported":1746547927,"current_range_meters":14800,"station_id":"st_cvj6sg6p6f1abm77japg","pricing_plan_id":"cebpf4jnsgd1na2vs0mg"},{"bike_id":"242d87b8-117d-4239-91de-2030b2cfbdfd","system_id":"levelo_inurba_marseille","lat":43.25445,"lon":5.38263,"is_reserved":false,"is_disabled":false,"rental_uris":{"android":"levelo://app?vid=242d87b8-117d-4239-91de-2030b2cfbdfd","ios":"levelo://app?vid=242d87b8-117d-4239-91de-2030b2cfbdfd"},"vehicle_type_id":"4","last_reported":1746547927,"current_range_meters":15200,"station_id":"","pricing_plan_id":"cebpf4jnsgd1na2vs0mg"},{"bike_id":"b47b1e00-de67-4b18-bd80-af06ca3c24fb","system_id":"levelo_inurba_marseille","lat":43.29766,"lon":5.38899,"is_reserved":false,"is_disabled":false,"rental_uris":{"android":"levelo://app?vid=b47b1e00-de67-4b18-bd80-af06ca3c24fb","ios":"levelo://app?vid=b47b1e00-de67-4b18-bd80-af06ca3c24fb"},"vehicle_type_id":"4","last_reported":1746547927,"current_range_meters":15200,"station_id":"ce4bh2h2rcd13ifvqdh0","pricing_plan_id":"cebpf4jnsgd1na2vs0mg"},{"bike_id":"5c8a5608-216a-446a-980a-8b792cbcc808","system_id":"levelo_inurba_marseille","lat":43.281586,"lon":5.426444,"is_reserved":false,"is_disabled":false,"rental_uris":{"android":"levelo://app?vid=5c8a5608-216a-446a-980a-8b792cbcc808","ios":"levelo://app?vid=5c8a5608-216a-446a-980a-8b792cbcc808"},"vehicle_type_id":"4","last_reported":1746547927,"current_range_meters":15200,"station_id":"ce4bhnh2rcd13ifvqgug","pricing_plan_id":"cebpf4jnsgd1na2vs0mg"},{"bike_id":"681f10ca-9633-4886-92b6-5ad728b8fe4b","system_id":"levelo_inurba_marseille","lat":43.30889,"lon":5.39641,"is_reserved":false,"is_disabled":false,"rental_uris":{"android":"levelo://app?vid=681f10ca-9633-4886-92b6-5ad728b8fe4b","ios":"levelo://app?vid=681f10ca-9633-4886-92b6-5ad728b8fe4b"},"vehicle_type_id":"4","last_reported":1746547927,"current_range_meters":16000,"station_id":"ce4bh012rcd13ifvqcv0","pricing_plan_id":"cebpf4jnsgd1na2vs0mg"},{"bike_id":"58411efa-40b6-47e6-84fd-2de00c33f67c","system_id":"levelo_inurba_marseille","lat":43.33044,"lon":5.39048,"is_reserved":false,"is_disabled":false,"rental_uris":{"android":"levelo://app?vid=58411efa-40b6-47e6-84fd-2de00c33f67c","ios":"levelo://app?vid=58411efa-40b6-47e6-84fd-2de00c33f67c"},"vehicle_type_id":"4","last_reported":1746547927,"current_range_meters":16000,"station_id":"ce4bhr92rcd13ifvqhrg","pricing_plan_id":"cebpf4jnsgd1na2vs0mg"},{"bike_id":"1f1d128f-eec3-4b10-ac17-d21686ee380b","system_id":"levelo_inurba_marseille","lat":43.29802,"lon":5.39348,"is_reserved":false,"is_disabled":false,"rental_uris":{"android":"levelo://app?vid=1f1d128f-eec3-4b10-ac17-d21686ee380b","ios":"levelo://app?vid=1f1d128f-eec3-4b10-ac17-d21686ee380b"},"vehicle_type_id":"4","last_reported":1746547927,"current_range_meters":16000,"station_id":"chh1huq6cuj3fo74tm60","pricing_plan_id":"cebpf4jnsgd1na2vs0mg"},{"bike_id":"355f672d-5ab7-4352-980c-428a6a127f6d","system_id":"levelo_inurba_marseille","lat":43.3093,"lon":5.40146,"is_reserved":false,"is_disabled":false,"rental_uris":{"android":"levelo://app?vid=355f672d-5ab7-4352-980c-428a6a127f6d","ios":"levelo://app?vid=355f672d-5ab7-4352-980c-428a6a127f6d"},"vehicle_type_id":"4","last_reported":1746547927,"current_range_meters":16400,"station_id":"ce4bgvp2rcd13ifvqct0","pricing_plan_id":"cebpf4jnsgd1na2vs0mg"},{"bike_id":"2714f713-c769-4f6a-ac44-441a635e9cba","system_id":"levelo_inurba_marseille","lat":43.21604,"lon":5.34228,"is_reserved":false,"is_disabled":false,"rental_uris":{"android":"levelo://app?vid=2714f713-c769-4f6a-ac44-441a635e9cba","ios":"levelo://app?vid=2714f713-c769-4f6a-ac44-441a635e9cba"},"vehicle_type_id":"4","last_reported":1746547927,"current_range_meters":16800,"station_id":"","pricing_plan_id":"cebpf4jnsgd1na2vs0mg"},{"bike_id":"40fd1688-c944-4cf2-9591-74e6a15d7419","system_id":"levelo_inurba_marseille","lat":43.31786,"lon":5.37452,"is_reserved":false,"is_disabled":false,"rental_uris":{"android":"levelo://app?vid=40fd1688-c944-4cf2-9591-74e6a15d7419","ios":"levelo://app?vid=40fd1688-c944-4cf2-9591-74e6a15d7419"},"vehicle_type_id":"4","last_reported":1746547927,"current_range_meters":16800,"station_id":"","pricing_plan_id":"cebpf4jnsgd1na2vs0mg"},{"bike_id":"2d4427e7-a7a4-433d-a972-af2598822e0f","system_id":"levelo_inurba_marseille","lat":43.28424,"lon":5.34996,"is_reserved":false,"is_disabled":false,"rental_uris":{"android":"levelo://app?vid=2d4427e7-a7a4-433d-a972-af2598822e0f","ios":"levelo://app?vid=2d4427e7-a7a4-433d-a972-af2598822e0f"},"vehicle_type_id":"4","last_reported":1746547927,"current_range_meters":16800,"station_id":"ce4bhbh2rcd13ifvqepg","pricing_plan_id":"cebpf4jnsgd1na2vs0mg"},{"bike_id":"2a369998-1285-403d-9e73-dca9b37dfd13","system_id":"levelo_inurba_marseille","lat":43.28275,"lon":5.35072,"is_reserved":false,"is_disabled":false,"rental_uris":{"android":"levelo://app?vid=2a369998-1285-403d-9e73-dca9b37dfd13","ios":"levelo://app?vid=2a369998-1285-403d-9e73-dca9b37dfd13"},"vehicle_type_id":"4","last_reported":1746547927,"current_range_meters":16800,"station_id":"ce4bhbp2rcd13ifvqerg","pricing_plan_id":"cebpf4jnsgd1na2vs0mg"},{"bike_id":"56e89ff6-beb2-49d9-99a8-e69488cfd0f5","system_id":"levelo_inurba_marseille","lat":43.286176,"lon":5.350999,"is_reserved":false,"is_disabled":false,"rental_uris":{"android":"levelo://app?vid=56e89ff6-beb2-49d9-99a8-e69488cfd0f5","ios":"levelo://app?vid=56e89ff6-beb2-49d9-99a8-e69488cfd0f5"},"vehicle_type_id":"4","last_reported":1746547927,"current_range_meters":16800,"station_id":"ce4bhch2rcd13ifvqeug","pricing_plan_id":"cebpf4jnsgd1na2vs0mg"},{"bike_id":"f8ce59b1-c656-4ad6-8d18-07da634baec5","system_id":"levelo_inurba_marseille","lat":43.27922,"lon":5.38015,"is_reserved":false,"is_disabled":false,"rental_uris":{"android":"levelo://app?vid=f8ce59b1-c656-4ad6-8d18-07da634baec5","ios":"levelo://app?vid=f8ce59b1-c656-4ad6-8d18-07da634baec5"},"vehicle_type_id":"4","last_reported":1746547927,"current_range_meters":16800,"station_id":"ce4bhf92rcd13ifvqf50","pricing_plan_id":"cebpf4jnsgd1na2vs0mg"},{"bike_id":"d665b931-805d-4172-822c-1be6af513662","system_id":"levelo_inurba_marseille","lat":43.2439,"lon":5.37074,"is_reserved":false,"is_disabled":false,"rental_uris":{"android":"levelo://app?vid=d665b931-805d-4172-822c-1be6af513662","ios":"levelo://app?vid=d665b931-805d-4172-822c-1be6af513662"},"vehicle_type_id":"4","last_reported":1746547927,"current_range_meters":16800,"station_id":"ce4bhhh2rcd13ifvqfk0","pricing_plan_id":"cebpf4jnsgd1na2vs0mg"},{"bike_id":"177c0270-0517-4020-bb66-d9a12f720bdd","system_id":"levelo_inurba_marseille","lat":43.29965,"lon":5.38506,"is_reserved":false,"is_disabled":false,"rental_uris":{"android":"levelo://app?vid=177c0270-0517-4020-bb66-d9a12f720bdd","ios":"levelo://app?vid=177c0270-0517-4020-bb66-d9a12f720bdd"},"vehicle_type_id":"4","last_reported":1746547927,"current_range_meters":17200,"station_id":"ce4bgj92rcd13ifvqbd0","pricing_plan_id":"cebpf4jnsgd1na2vs0mg"},{"bike_id":"96bc7cd6-6a8c-46ad-8f3e-b08a1c57d98c","system_id":"levelo_inurba_marseille","lat":43.29049,"lon":5.35911,"is_reserved":false,"is_disabled":false,"rental_uris":{"android":"levelo://app?vid=96bc7cd6-6a8c-46ad-8f3e-b08a1c57d98c","ios":"levelo://app?vid=96bc7cd6-6a8c-46ad-8f3e-b08a1c57d98c"},"vehicle_type_id":"4","last_reported":1746547927,"current_range_meters":17200,"station_id":"ce4bha92rcd13ifvqeg0","pricing_plan_id":"cebpf4jnsgd1na2vs0mg"},{"bike_id":"5c7a74ad-c7a9-4950-96b3-9d3849bc7004","system_id":"levelo_inurba_marseille","lat":43.28275,"lon":5.35074,"is_reserved":false,"is_disabled":false,"rental_uris":{"android":"levelo://app?vid=5c7a74ad-c7a9-4950-96b3-9d3849bc7004","ios":"levelo://app?vid=5c7a74ad-c7a9-4950-96b3-9d3849bc7004"},"vehicle_type_id":"4","last_reported":1746547927,"current_range_meters":17200,"station_id":"ce4bhbp2rcd13ifvqerg","pricing_plan_id":"cebpf4jnsgd1na2vs0mg"},{"bike_id":"ef3d5e85-c6d3-4b4b-b2bd-94afb8216b1a","system_id":"levelo_inurba_marseille","lat":43.24168,"lon":5.36394,"is_reserved":false,"is_disabled":false,"rental_uris":{"android":"levelo://app?vid=ef3d5e85-c6d3-4b4b-b2bd-94afb8216b1a","ios":"levelo://app?vid=ef3d5e85-c6d3-4b4b-b2bd-94afb8216b1a"},"vehicle_type_id":"4","last_reported":1746547927,"current_range_meters":17200,"station_id":"cpo36qri1sfpv3e86is0","pricing_plan_id":"cebpf4jnsgd1na2vs0mg"},{"bike_id":"81d1e397-3216-4f19-8119-fb65d8db03ca","system_id":"levelo_inurba_marseille","lat":43.30147,"lon":5.38081,"is_reserved":false,"is_disabled":false,"rental_uris":{"android":"levelo://app?vid=81d1e397-3216-4f19-8119-fb65d8db03ca","ios":"levelo://app?vid=81d1e397-3216-4f19-8119-fb65d8db03ca"},"vehicle_type_id":"4","last_reported":1746547927,"current_range_meters":17600,"station_id":"ce4bgjp2rcd13ifvqbh0","pricing_plan_id":"cebpf4jnsgd1na2vs0mg"},{"bike_id":"41100c18-3027-4003-a09f-f37d63d76024","system_id":"levelo_inurba_marseille","lat":43.29532,"lon":5.39029,"is_reserved":false,"is_disabled":false,"rental_uris":{"android":"levelo://app?vid=41100c18-3027-4003-a09f-f37d63d76024","ios":"levelo://app?vid=41100c18-3027-4003-a09f-f37d63d76024"},"vehicle_type_id":"4","last_reported":1746547927,"current_range_meters":17600,"station_id":"ce4bh3p2rcd13ifvqdp0","pricing_plan_id":"cebpf4jnsgd1na2vs0mg"},{"bike_id":"e096b5b2-ec82-4d25-a387-ab06ba625453","system_id":"levelo_inurba_marseille","lat":43.26063,"lon":5.39399,"is_reserved":false,"is_disabled":false,"rental_uris":{"android":"levelo://app?vid=e096b5b2-ec82-4d25-a387-ab06ba625453","ios":"levelo://app?vid=e096b5b2-ec82-4d25-a387-ab06ba625453"},"vehicle_type_id":"4","last_reported":1746547927,"current_range_meters":17600,"station_id":"ce4bhh92rcd13ifvqfj0","pricing_plan_id":"cebpf4jnsgd1na2vs0mg"},{"bike_id":"ac700e2e-c129-4f82-a3c3-f628077933a6","system_id":"levelo_inurba_marseille","lat":43.21218,"lon":5.3509,"is_reserved":false,"is_disabled":false,"rental_uris":{"android":"levelo://app?vid=ac700e2e-c129-4f82-a3c3-f628077933a6","ios":"levelo://app?vid=ac700e2e-c129-4f82-a3c3-f628077933a6"},"vehicle_type_id":"4","last_reported":1746547927,"current_range_meters":17600,"station_id":"st_cvj6sg6p6f1abm77japg","pricing_plan_id":"cebpf4jnsgd1na2vs0mg"},{"bike_id":"dee248e6-0df0-47c6-9893-0f635e2dc5bf","system_id":"levelo_inurba_marseille","lat":43.291962,"lon":5.357978,"is_reserved":false,"is_disabled":false,"rental_uris":{"android":"levelo://app?vid=dee248e6-0df0-47c6-9893-0f635e2dc5bf","ios":"levelo://app?vid=dee248e6-0df0-47c6-9893-0f635e2dc5bf"},"vehicle_type_id":"4","last_reported":1746547927,"current_range_meters":18000,"station_id":"ce4bhb12rcd13ifvqel0","pricing_plan_id":"cebpf4jnsgd1na2vs0mg"},{"bike_id":"0781f13e-0dfe-47e4-82dc-884a777d577f","system_id":"levelo_inurba_marseille","lat":43.28277,"lon":5.35058,"is_reserved":false,"is_disabled":false,"rental_uris":{"android":"levelo://app?vid=0781f13e-0dfe-47e4-82dc-884a777d577f","ios":"levelo://app?vid=0781f13e-0dfe-47e4-82dc-884a777d577f"},"vehicle_type_id":"4","last_reported":1746547927,"current_range_meters":18000,"station_id":"ce4bhbp2rcd13ifvqerg","pricing_plan_id":"cebpf4jnsgd1na2vs0mg"},{"bike_id":"02c3f926-1654-43a5-bdd5-0ab5d6602055","system_id":"levelo_inurba_marseille","lat":43.28276,"lon":5.35091,"is_reserved":false,"is_disabled":false,"rental_uris":{"android":"levelo://app?vid=02c3f926-1654-43a5-bdd5-0ab5d6602055","ios":"levelo://app?vid=02c3f926-1654-43a5-bdd5-0ab5d6602055"},"vehicle_type_id":"4","last_reported":1746547927,"current_range_meters":18000,"station_id":"ce4bhbp2rcd13ifvqerg","pricing_plan_id":"cebpf4jnsgd1na2vs0mg"},{"bike_id":"ba918107-98b5-4eb5-be79-9a3569fdaa6b","system_id":"levelo_inurba_marseille","lat":43.29106,"lon":5.38131,"is_reserved":false,"is_disabled":false,"rental_uris":{"android":"levelo://app?vid=ba918107-98b5-4eb5-be79-9a3569fdaa6b","ios":"levelo://app?vid=ba918107-98b5-4eb5-be79-9a3569fdaa6b"},"vehicle_type_id":"4","last_reported":1746547927,"current_range_meters":18800,"station_id":"ce4bh512rcd13ifvqe2g","pricing_plan_id":"cebpf4jnsgd1na2vs0mg"},{"bike_id":"4fa44a4d-c738-41bc-9022-213fbeae4065","system_id":"levelo_inurba_marseille","lat":43.232,"lon":5.40009,"is_reserved":false,"is_disabled":false,"rental_uris":{"android":"levelo://app?vid=4fa44a4d-c738-41bc-9022-213fbeae4065","ios":"levelo://app?vid=4fa44a4d-c738-41bc-9022-213fbeae4065"},"vehicle_type_id":"4","last_reported":1746547927,"current_range_meters":18800,"station_id":"ce4bhn12rcd13ifvqgqg","pricing_plan_id":"cebpf4jnsgd1na2vs0mg"},{"bike_id":"a828f53a-027f-4b20-bc47-7241527c9d7a","system_id":"levelo_inurba_marseille","lat":43.283298,"lon":5.427128,"is_reserved":false,"is_disabled":false,"rental_uris":{"android":"levelo://app?vid=a828f53a-027f-4b20-bc47-7241527c9d7a","ios":"levelo://app?vid=a828f53a-027f-4b20-bc47-7241527c9d7a"},"vehicle_type_id":"4","last_reported":1746547927,"current_range_meters":18800,"station_id":"ce4bhph2rcd13ifvqhdg","pricing_plan_id":"cebpf4jnsgd1na2vs0mg"},{"bike_id":"760def71-9ca1-4048-a1fb-6c689d132961","system_id":"levelo_inurba_marseille","lat":43.29372,"lon":5.37854,"is_reserved":false,"is_disabled":false,"rental_uris":{"android":"levelo://app?vid=760def71-9ca1-4048-a1fb-6c689d132961","ios":"levelo://app?vid=760def71-9ca1-4048-a1fb-6c689d132961"},"vehicle_type_id":"4","last_reported":1746547927,"current_range_meters":19200,"station_id":"ce4bgjh2rcd13ifvqbf0","pricing_plan_id":"cebpf4jnsgd1na2vs0mg"},{"bike_id":"e85de3e4-7a4f-43aa-b0e5-843b602e3985","system_id":"levelo_inurba_marseille","lat":43.30783,"lon":5.38169,"is_reserved":false,"is_disabled":false,"rental_uris":{"android":"levelo://app?vid=e85de3e4-7a4f-43aa-b0e5-843b602e3985","ios":"levelo://app?vid=e85de3e4-7a4f-43aa-b0e5-843b602e3985"},"vehicle_type_id":"4","last_reported":1746547927,"current_range_meters":19200,"station_id":"ce4bgt12rcd13ifvqce0","pricing_plan_id":"cebpf4jnsgd1na2vs0mg"},{"bike_id":"d35d5a44-03d4-4a9a-806f-d1af4724684b","system_id":"levelo_inurba_marseille","lat":43.29206,"lon":5.39333,"is_reserved":false,"is_disabled":false,"rental_uris":{"android":"levelo://app?vid=d35d5a44-03d4-4a9a-806f-d1af4724684b","ios":"levelo://app?vid=d35d5a44-03d4-4a9a-806f-d1af4724684b"},"vehicle_type_id":"4","last_reported":1746547927,"current_range_meters":19200,"station_id":"ce4bh192rcd13ifvqdd0","pricing_plan_id":"cebpf4jnsgd1na2vs0mg"},{"bike_id":"da9c34b5-3fd4-4c1d-8056-90762b563460","system_id":"levelo_inurba_marseille","lat":43.28454,"lon":5.35886,"is_reserved":false,"is_disabled":false,"rental_uris":{"android":"levelo://app?vid=da9c34b5-3fd4-4c1d-8056-90762b563460","ios":"levelo://app?vid=da9c34b5-3fd4-4c1d-8056-90762b563460"},"vehicle_type_id":"4","last_reported":1746547927,"current_range_meters":19200,"station_id":"ce4bhah2rcd13ifvqei0","pricing_plan_id":"cebpf4jnsgd1na2vs0mg"},{"bike_id":"86aac975-5efa-4471-b431-8ed509ade609","system_id":"levelo_inurba_marseille","lat":43.28618,"lon":5.35106,"is_reserved":false,"is_disabled":false,"rental_uris":{"android":"levelo://app?vid=86aac975-5efa-4471-b431-8ed509ade609","ios":"levelo://app?vid=86aac975-5efa-4471-b431-8ed509ade609"},"vehicle_type_id":"4","last_reported":1746547927,"current_range_meters":19200,"station_id":"ce4bhch2rcd13ifvqeug","pricing_plan_id":"cebpf4jnsgd1na2vs0mg"},{"bike_id":"02bedacc-81ea-4ace-bdbc-c5ebf2281b5e","system_id":"levelo_inurba_marseille","lat":43.275696,"lon":5.384297,"is_reserved":false,"is_disabled":false,"rental_uris":{"android":"levelo://app?vid=02bedacc-81ea-4ace-bdbc-c5ebf2281b5e","ios":"levelo://app?vid=02bedacc-81ea-4ace-bdbc-c5ebf2281b5e"},"vehicle_type_id":"4","last_reported":1746547927,"current_range_meters":19200,"station_id":"ce4bhh92rcd13ifvqfi0","pricing_plan_id":"cebpf4jnsgd1na2vs0mg"},{"bike_id":"3e5d7fc4-6526-47dd-8a40-df82ea673aa0","system_id":"levelo_inurba_marseille","lat":43.28267,"lon":5.35063,"is_reserved":false,"is_disabled":false,"rental_uris":{"android":"levelo://app?vid=3e5d7fc4-6526-47dd-8a40-df82ea673aa0","ios":"levelo://app?vid=3e5d7fc4-6526-47dd-8a40-df82ea673aa0"},"vehicle_type_id":"4","last_reported":1746547927,"current_range_meters":19600,"station_id":"ce4bhbp2rcd13ifvqerg","pricing_plan_id":"cebpf4jnsgd1na2vs0mg"},{"bike_id":"c39483e4-7178-40a5-aca5-e00451b22221","system_id":"levelo_inurba_marseille","lat":43.2861,"lon":5.37069,"is_reserved":false,"is_disabled":false,"rental_uris":{"android":"levelo://app?vid=c39483e4-7178-40a5-aca5-e00451b22221","ios":"levelo://app?vid=c39483e4-7178-40a5-aca5-e00451b22221"},"vehicle_type_id":"4","last_reported":1746547927,"current_range_meters":19600,"station_id":"ce4bht12rcd13ifvqi60","pricing_plan_id":"cebpf4jnsgd1na2vs0mg"},{"bike_id":"e2233743-5692-4c74-acc2-5007b2d36a43","system_id":"levelo_inurba_marseille","lat":43.21748,"lon":5.346017,"is_reserved":false,"is_disabled":false,"rental_uris":{"android":"levelo://app?vid=e2233743-5692-4c74-acc2-5007b2d36a43","ios":"levelo://app?vid=e2233743-5692-4c74-acc2-5007b2d36a43"},"vehicle_type_id":"4","last_reported":1746547927,"current_range_meters":20000,"station_id":"","pricing_plan_id":"cebpf4jnsgd1na2vs0mg"},{"bike_id":"9333288d-f007-44b6-a92e-9f128d4234b8","system_id":"levelo_inurba_marseille","lat":43.28733,"lon":5.37941,"is_reserved":false,"is_disabled":false,"rental_uris":{"android":"levelo://app?vid=9333288d-f007-44b6-a92e-9f128d4234b8","ios":"levelo://app?vid=9333288d-f007-44b6-a92e-9f128d4234b8"},"vehicle_type_id":"4","last_reported":1746547927,"current_range_meters":20000,"station_id":"ce4bh9p2rcd13ifvqec0","pricing_plan_id":"cebpf4jnsgd1na2vs0mg"},{"bike_id":"daa095e1-0dbd-4d03-bafa-0c1f111250ea","system_id":"levelo_inurba_marseille","lat":43.25523,"lon":5.37663,"is_reserved":false,"is_disabled":false,"rental_uris":{"android":"levelo://app?vid=daa095e1-0dbd-4d03-bafa-0c1f111250ea","ios":"levelo://app?vid=daa095e1-0dbd-4d03-bafa-0c1f111250ea"},"vehicle_type_id":"4","last_reported":1746547927,"current_range_meters":20000,"station_id":"ce4bhh12rcd13ifvqff0","pricing_plan_id":"cebpf4jnsgd1na2vs0mg"},{"bike_id":"ab84ba55-81ec-4601-b6ad-f4f290280e9e","system_id":"levelo_inurba_marseille","lat":43.29531,"lon":5.38553,"is_reserved":false,"is_disabled":false,"rental_uris":{"android":"levelo://app?vid=ab84ba55-81ec-4601-b6ad-f4f290280e9e","ios":"levelo://app?vid=ab84ba55-81ec-4601-b6ad-f4f290280e9e"},"vehicle_type_id":"4","last_reported":1746547927,"current_range_meters":20400,"station_id":"ce4bgih2rcd13ifvqba0","pricing_plan_id":"cebpf4jnsgd1na2vs0mg"},{"bike_id":"97cb6ed1-033f-4bef-ac83-09334a0390b2","system_id":"levelo_inurba_marseille","lat":43.28492,"lon":5.38444,"is_reserved":false,"is_disabled":false,"rental_uris":{"android":"levelo://app?vid=97cb6ed1-033f-4bef-ac83-09334a0390b2","ios":"levelo://app?vid=97cb6ed1-033f-4bef-ac83-09334a0390b2"},"vehicle_type_id":"4","last_reported":1746547927,"current_range_meters":20400,"station_id":"ce4bh512rcd13ifvqe3g","pricing_plan_id":"cebpf4jnsgd1na2vs0mg"},{"bike_id":"a0403680-1a75-49b4-80c4-3bbf7f29d933","system_id":"levelo_inurba_marseille","lat":43.28001,"lon":5.40017,"is_reserved":false,"is_disabled":false,"rental_uris":{"android":"levelo://app?vid=a0403680-1a75-49b4-80c4-3bbf7f29d933","ios":"levelo://app?vid=a0403680-1a75-49b4-80c4-3bbf7f29d933"},"vehicle_type_id":"4","last_reported":1746547927,"current_range_meters":20400,"station_id":"ce4bho92rcd13ifvqh4g","pricing_plan_id":"cebpf4jnsgd1na2vs0mg"},{"bike_id":"5fde9f8f-7bfd-45cd-99fd-4f6020eb1e3f","system_id":"levelo_inurba_marseille","lat":43.30803,"lon":5.43537,"is_reserved":false,"is_disabled":false,"rental_uris":{"android":"levelo://app?vid=5fde9f8f-7bfd-45cd-99fd-4f6020eb1e3f","ios":"levelo://app?vid=5fde9f8f-7bfd-45cd-99fd-4f6020eb1e3f"},"vehicle_type_id":"4","last_reported":1746547927,"current_range_meters":20400,"station_id":"ce4bhph2rcd13ifvqheg","pricing_plan_id":"cebpf4jnsgd1na2vs0mg"},{"bike_id":"81dd1c4b-6a3b-4570-b1e2-1c9b93ab7410","system_id":"levelo_inurba_marseille","lat":43.22525,"lon":5.34785,"is_reserved":false,"is_disabled":false,"rental_uris":{"android":"levelo://app?vid=81dd1c4b-6a3b-4570-b1e2-1c9b93ab7410","ios":"levelo://app?vid=81dd1c4b-6a3b-4570-b1e2-1c9b93ab7410"},"vehicle_type_id":"4","last_reported":1746547927,"current_range_meters":20400,"station_id":"st_cvj5dfep6f1abm77gieg","pricing_plan_id":"cebpf4jnsgd1na2vs0mg"},{"bike_id":"a173b125-0603-41d3-8662-bf66917520d9","system_id":"levelo_inurba_marseille","lat":43.27917,"lon":5.39584,"is_reserved":false,"is_disabled":false,"rental_uris":{"android":"levelo://app?vid=a173b125-0603-41d3-8662-bf66917520d9","ios":"levelo://app?vid=a173b125-0603-41d3-8662-bf66917520d9"},"vehicle_type_id":"4","last_reported":1746547927,"current_range_meters":20800,"station_id":"ce4bhf92rcd13ifvqf40","pricing_plan_id":"cebpf4jnsgd1na2vs0mg"},{"bike_id":"d37882f1-2b96-40ce-be7c-50d9ad6df806","system_id":"levelo_inurba_marseille","lat":43.32493,"lon":5.36567,"is_reserved":false,"is_disabled":false,"rental_uris":{"android":"levelo://app?vid=d37882f1-2b96-40ce-be7c-50d9ad6df806","ios":"levelo://app?vid=d37882f1-2b96-40ce-be7c-50d9ad6df806"},"vehicle_type_id":"4","last_reported":1746547927,"current_range_meters":20800,"station_id":"ce4bhs12rcd13ifvqhvg","pricing_plan_id":"cebpf4jnsgd1na2vs0mg"},{"bike_id":"735dc36c-5c3c-4e9a-9fd6-dc97e8c3d8db","system_id":"levelo_inurba_marseille","lat":43.26942,"lon":5.40265,"is_reserved":false,"is_disabled":false,"rental_uris":{"android":"levelo://app?vid=735dc36c-5c3c-4e9a-9fd6-dc97e8c3d8db","ios":"levelo://app?vid=735dc36c-5c3c-4e9a-9fd6-dc97e8c3d8db"},"vehicle_type_id":"4","last_reported":1746547927,"current_range_meters":20800,"station_id":"cjm6bp8fraef2m0cb0m0","pricing_plan_id":"cebpf4jnsgd1na2vs0mg"},{"bike_id":"24384f0e-408a-42ee-9dc0-46996d573e79","system_id":"levelo_inurba_marseille","lat":43.22503,"lon":5.34787,"is_reserved":false,"is_disabled":false,"rental_uris":{"android":"levelo://app?vid=24384f0e-408a-42ee-9dc0-46996d573e79","ios":"levelo://app?vid=24384f0e-408a-42ee-9dc0-46996d573e79"},"vehicle_type_id":"4","last_reported":1746547927,"current_range_meters":20800,"station_id":"st_cvj5dfep6f1abm77gieg","pricing_plan_id":"cebpf4jnsgd1na2vs0mg"},{"bike_id":"0d924362-88e0-47cb-ba59-c610bf431ef5","system_id":"levelo_inurba_marseille","lat":43.28667,"lon":5.3636,"is_reserved":false,"is_disabled":false,"rental_uris":{"android":"levelo://app?vid=0d924362-88e0-47cb-ba59-c610bf431ef5","ios":"levelo://app?vid=0d924362-88e0-47cb-ba59-c610bf431ef5"},"vehicle_type_id":"4","last_reported":1746547927,"current_range_meters":21600,"station_id":"ce4bhah2rcd13ifvqej0","pricing_plan_id":"cebpf4jnsgd1na2vs0mg"},{"bike_id":"a3ed077e-760f-4bb6-b7f5-6ec386df71d4","system_id":"levelo_inurba_marseille","lat":43.217485,"lon":5.34601,"is_reserved":false,"is_disabled":false,"rental_uris":{"android":"levelo://app?vid=a3ed077e-760f-4bb6-b7f5-6ec386df71d4","ios":"levelo://app?vid=a3ed077e-760f-4bb6-b7f5-6ec386df71d4"},"vehicle_type_id":"4","last_reported":1746547927,"current_range_meters":21600,"station_id":"st_cvj6r9ubvosntc0bgbag","pricing_plan_id":"cebpf4jnsgd1na2vs0mg"},{"bike_id":"5a1e294d-2531-422a-aba8-434b80dc8633","system_id":"levelo_inurba_marseille","lat":43.30327,"lon":5.40436,"is_reserved":false,"is_disabled":false,"rental_uris":{"android":"levelo://app?vid=5a1e294d-2531-422a-aba8-434b80dc8633","ios":"levelo://app?vid=5a1e294d-2531-422a-aba8-434b80dc8633"},"vehicle_type_id":"4","last_reported":1746547927,"current_range_meters":22000,"station_id":"ce4bh012rcd13ifvqd10","pricing_plan_id":"cebpf4jnsgd1na2vs0mg"},{"bike_id":"c2dc6af2-18ff-4fca-98c2-6b0c1b1bd029","system_id":"levelo_inurba_marseille","lat":43.29392,"lon":5.373601,"is_reserved":false,"is_disabled":false,"rental_uris":{"android":"levelo://app?vid=c2dc6af2-18ff-4fca-98c2-6b0c1b1bd029","ios":"levelo://app?vid=c2dc6af2-18ff-4fca-98c2-6b0c1b1bd029"},"vehicle_type_id":"4","last_reported":1746547927,"current_range_meters":22000,"station_id":"ce4bhb12rcd13ifvqem0","pricing_plan_id":"cebpf4jnsgd1na2vs0mg"},{"bike_id":"023aef90-8d87-423b-b049-d5eba417613d","system_id":"levelo_inurba_marseille","lat":43.31756,"lon":5.3902,"is_reserved":false,"is_disabled":false,"rental_uris":{"android":"levelo://app?vid=023aef90-8d87-423b-b049-d5eba417613d","ios":"levelo://app?vid=023aef90-8d87-423b-b049-d5eba417613d"},"vehicle_type_id":"4","last_reported":1746547927,"current_range_meters":22000,"station_id":"ce4bhqp2rcd13ifvqhng","pricing_plan_id":"cebpf4jnsgd1na2vs0mg"},{"bike_id":"63af6f78-57d5-4f3d-9494-a6d72ff84dc1","system_id":"levelo_inurba_marseille","lat":43.21187,"lon":5.35074,"is_reserved":false,"is_disabled":false,"rental_uris":{"android":"levelo://app?vid=63af6f78-57d5-4f3d-9494-a6d72ff84dc1","ios":"levelo://app?vid=63af6f78-57d5-4f3d-9494-a6d72ff84dc1"},"vehicle_type_id":"4","last_reported":1746547927,"current_range_meters":22000,"station_id":"st_cvj6sg6p6f1abm77japg","pricing_plan_id":"cebpf4jnsgd1na2vs0mg"},{"bike_id":"66216fb2-4e10-4d65-914d-95dffa500c50","system_id":"levelo_inurba_marseille","lat":43.29512,"lon":5.37514,"is_reserved":false,"is_disabled":false,"rental_uris":{"android":"levelo://app?vid=66216fb2-4e10-4d65-914d-95dffa500c50","ios":"levelo://app?vid=66216fb2-4e10-4d65-914d-95dffa500c50"},"vehicle_type_id":"4","last_reported":1746547927,"current_range_meters":22400,"station_id":"","pricing_plan_id":"cebpf4jnsgd1na2vs0mg"},{"bike_id":"0df3111c-fd99-4e63-915e-e7763d46bb1b","system_id":"levelo_inurba_marseille","lat":43.28509,"lon":5.37071,"is_reserved":false,"is_disabled":false,"rental_uris":{"android":"levelo://app?vid=0df3111c-fd99-4e63-915e-e7763d46bb1b","ios":"levelo://app?vid=0df3111c-fd99-4e63-915e-e7763d46bb1b"},"vehicle_type_id":"4","last_reported":1746547927,"current_range_meters":22800,"station_id":"","pricing_plan_id":"cebpf4jnsgd1na2vs0mg"},{"bike_id":"abf42d32-4f29-4211-8e27-766912c07d49","system_id":"levelo_inurba_marseille","lat":43.30146,"lon":5.39877,"is_reserved":false,"is_disabled":false,"rental_uris":{"android":"levelo://app?vid=abf42d32-4f29-4211-8e27-766912c07d49","ios":"levelo://app?vid=abf42d32-4f29-4211-8e27-766912c07d49"},"vehicle_type_id":"4","last_reported":1746547927,"current_range_meters":22800,"station_id":"ce4bh0h2rcd13ifvqd40","pricing_plan_id":"cebpf4jnsgd1na2vs0mg"},{"bike_id":"8ebec386-9abf-46d0-8db3-98225d6f366d","system_id":"levelo_inurba_marseille","lat":43.27378,"lon":5.36258,"is_reserved":false,"is_disabled":false,"rental_uris":{"android":"levelo://app?vid=8ebec386-9abf-46d0-8db3-98225d6f366d","ios":"levelo://app?vid=8ebec386-9abf-46d0-8db3-98225d6f366d"},"vehicle_type_id":"4","last_reported":1746547927,"current_range_meters":22800,"station_id":"ce4bhbh2rcd13ifvqeo0","pricing_plan_id":"cebpf4jnsgd1na2vs0mg"},{"bike_id":"efa920bf-f40e-4e0d-a2b5-52a1ec08fe37","system_id":"levelo_inurba_marseille","lat":43.31363,"lon":5.384884,"is_reserved":false,"is_disabled":false,"rental_uris":{"android":"levelo://app?vid=efa920bf-f40e-4e0d-a2b5-52a1ec08fe37","ios":"levelo://app?vid=efa920bf-f40e-4e0d-a2b5-52a1ec08fe37"},"vehicle_type_id":"4","last_reported":1746547927,"current_range_meters":23200,"station_id":"ce4bgt92rcd13ifvqcf0","pricing_plan_id":"cebpf4jnsgd1na2vs0mg"},{"bike_id":"e695e327-1201-41ca-8c4d-3f508db99888","system_id":"levelo_inurba_marseille","lat":43.2901,"lon":5.3561,"is_reserved":false,"is_disabled":false,"rental_uris":{"android":"levelo://app?vid=e695e327-1201-41ca-8c4d-3f508db99888","ios":"levelo://app?vid=e695e327-1201-41ca-8c4d-3f508db99888"},"vehicle_type_id":"4","last_reported":1746547927,"current_range_meters":23200,"station_id":"ce4bhb92rcd13ifvqen0","pricing_plan_id":"cebpf4jnsgd1na2vs0mg"},{"bike_id":"7241216c-c95b-41a2-83d7-197ae0415ef7","system_id":"levelo_inurba_marseille","lat":43.24391,"lon":5.37092,"is_reserved":false,"is_disabled":false,"rental_uris":{"android":"levelo://app?vid=7241216c-c95b-41a2-83d7-197ae0415ef7","ios":"levelo://app?vid=7241216c-c95b-41a2-83d7-197ae0415ef7"},"vehicle_type_id":"4","last_reported":1746547927,"current_range_meters":23200,"station_id":"ce4bhhh2rcd13ifvqfk0","pricing_plan_id":"cebpf4jnsgd1na2vs0mg"},{"bike_id":"d2db77bc-5739-408d-8c09-9eeafe9b4155","system_id":"levelo_inurba_marseille","lat":43.2467,"lon":5.38173,"is_reserved":false,"is_disabled":false,"rental_uris":{"android":"levelo://app?vid=d2db77bc-5739-408d-8c09-9eeafe9b4155","ios":"levelo://app?vid=d2db77bc-5739-408d-8c09-9eeafe9b4155"},"vehicle_type_id":"4","last_reported":1746547927,"current_range_meters":23200,"station_id":"ce4bhih2rcd13ifvqfr0","pricing_plan_id":"cebpf4jnsgd1na2vs0mg"},{"bike_id":"6e078e89-aae8-4789-be5e-31ea267a1e48","system_id":"levelo_inurba_marseille","lat":43.23182,"lon":5.39992,"is_reserved":false,"is_disabled":false,"rental_uris":{"android":"levelo://app?vid=6e078e89-aae8-4789-be5e-31ea267a1e48","ios":"levelo://app?vid=6e078e89-aae8-4789-be5e-31ea267a1e48"},"vehicle_type_id":"4","last_reported":1746547927,"current_range_meters":23200,"station_id":"ce4bhn12rcd13ifvqgqg","pricing_plan_id":"cebpf4jnsgd1na2vs0mg"},{"bike_id":"f4859015-3c49-4477-8bda-a190d1bd891d","system_id":"levelo_inurba_marseille","lat":43.21754,"lon":5.34602,"is_reserved":false,"is_disabled":false,"rental_uris":{"android":"levelo://app?vid=f4859015-3c49-4477-8bda-a190d1bd891d","ios":"levelo://app?vid=f4859015-3c49-4477-8bda-a190d1bd891d"},"vehicle_type_id":"4","last_reported":1746547927,"current_range_meters":23200,"station_id":"st_cvj6r9ubvosntc0bgbag","pricing_plan_id":"cebpf4jnsgd1na2vs0mg"},{"bike_id":"d2395c45-41e5-4adc-b5f7-e2a56937bb97","system_id":"levelo_inurba_marseille","lat":43.31079,"lon":5.38352,"is_reserved":false,"is_disabled":false,"rental_uris":{"android":"levelo://app?vid=d2395c45-41e5-4adc-b5f7-e2a56937bb97","ios":"levelo://app?vid=d2395c45-41e5-4adc-b5f7-e2a56937bb97"},"vehicle_type_id":"4","last_reported":1746547927,"current_range_meters":24000,"station_id":"ce4bgv92rcd13ifvqcr0","pricing_plan_id":"cebpf4jnsgd1na2vs0mg"},{"bike_id":"b8a4c02d-6ff6-410d-b2f8-8be0d6f7169c","system_id":"levelo_inurba_marseille","lat":43.28985,"lon":5.35595,"is_reserved":false,"is_disabled":false,"rental_uris":{"android":"levelo://app?vid=b8a4c02d-6ff6-410d-b2f8-8be0d6f7169c","ios":"levelo://app?vid=b8a4c02d-6ff6-410d-b2f8-8be0d6f7169c"},"vehicle_type_id":"4","last_reported":1746547927,"current_range_meters":24000,"station_id":"ce4bhb92rcd13ifvqen0","pricing_plan_id":"cebpf4jnsgd1na2vs0mg"},{"bike_id":"e0b0e3d5-b1ee-4ed7-a825-16df8b745043","system_id":"levelo_inurba_marseille","lat":43.2861,"lon":5.35102,"is_reserved":false,"is_disabled":false,"rental_uris":{"android":"levelo://app?vid=e0b0e3d5-b1ee-4ed7-a825-16df8b745043","ios":"levelo://app?vid=e0b0e3d5-b1ee-4ed7-a825-16df8b745043"},"vehicle_type_id":"4","last_reported":1746547927,"current_range_meters":24000,"station_id":"ce4bhch2rcd13ifvqeug","pricing_plan_id":"cebpf4jnsgd1na2vs0mg"},{"bike_id":"346d3405-cb4b-46fb-94a8-796ff721b847","system_id":"levelo_inurba_marseille","lat":43.27908,"lon":5.38015,"is_reserved":false,"is_disabled":false,"rental_uris":{"android":"levelo://app?vid=346d3405-cb4b-46fb-94a8-796ff721b847","ios":"levelo://app?vid=346d3405-cb4b-46fb-94a8-796ff721b847"},"vehicle_type_id":"4","last_reported":1746547927,"current_range_meters":24000,"station_id":"ce4bhf92rcd13ifvqf50","pricing_plan_id":"cebpf4jnsgd1na2vs0mg"},{"bike_id":"09cafc01-3454-4aeb-8a60-7c62fac279f4","system_id":"levelo_inurba_marseille","lat":43.25108,"lon":5.40334,"is_reserved":false,"is_disabled":false,"rental_uris":{"android":"levelo://app?vid=09cafc01-3454-4aeb-8a60-7c62fac279f4","ios":"levelo://app?vid=09cafc01-3454-4aeb-8a60-7c62fac279f4"},"vehicle_type_id":"4","last_reported":1746547927,"current_range_meters":24000,"station_id":"ce4bhlh2rcd13ifvqgig","pricing_plan_id":"cebpf4jnsgd1na2vs0mg"},{"bike_id":"ed1074b5-4971-4c0c-bdc7-1250996c2ca2","system_id":"levelo_inurba_marseille","lat":43.27941,"lon":5.41053,"is_reserved":false,"is_disabled":false,"rental_uris":{"android":"levelo://app?vid=ed1074b5-4971-4c0c-bdc7-1250996c2ca2","ios":"levelo://app?vid=ed1074b5-4971-4c0c-bdc7-1250996c2ca2"},"vehicle_type_id":"4","last_reported":1746547927,"current_range_meters":24000,"station_id":"ce4bhnp2rcd13ifvqh0g","pricing_plan_id":"cebpf4jnsgd1na2vs0mg"},{"bike_id":"57a075ab-58f9-4336-b622-3fa123a6cf43","system_id":"levelo_inurba_marseille","lat":43.26544,"lon":5.37286,"is_reserved":false,"is_disabled":false,"rental_uris":{"android":"levelo://app?vid=57a075ab-58f9-4336-b622-3fa123a6cf43","ios":"levelo://app?vid=57a075ab-58f9-4336-b622-3fa123a6cf43"},"vehicle_type_id":"4","last_reported":1746547927,"current_range_meters":24400,"station_id":"ce4bhg12rcd13ifvqf70","pricing_plan_id":"cebpf4jnsgd1na2vs0mg"},{"bike_id":"be14af02-7701-4605-b2d6-5fd0439029d8","system_id":"levelo_inurba_marseille","lat":43.212,"lon":5.35078,"is_reserved":false,"is_disabled":false,"rental_uris":{"android":"levelo://app?vid=be14af02-7701-4605-b2d6-5fd0439029d8","ios":"levelo://app?vid=be14af02-7701-4605-b2d6-5fd0439029d8"},"vehicle_type_id":"4","last_reported":1746547927,"current_range_meters":24400,"station_id":"st_cvj6sg6p6f1abm77japg","pricing_plan_id":"cebpf4jnsgd1na2vs0mg"},{"bike_id":"e4820203-c1cc-47e3-b31e-153e346eb62b","system_id":"levelo_inurba_marseille","lat":43.32138,"lon":5.36774,"is_reserved":false,"is_disabled":false,"rental_uris":{"android":"levelo://app?vid=e4820203-c1cc-47e3-b31e-153e346eb62b","ios":"levelo://app?vid=e4820203-c1cc-47e3-b31e-153e346eb62b"},"vehicle_type_id":"4","last_reported":1746547927,"current_range_meters":24800,"station_id":"","pricing_plan_id":"cebpf4jnsgd1na2vs0mg"},{"bike_id":"416d860c-c935-4a9b-9786-64a81029161a","system_id":"levelo_inurba_marseille","lat":43.29097,"lon":5.3812,"is_reserved":false,"is_disabled":false,"rental_uris":{"android":"levelo://app?vid=416d860c-c935-4a9b-9786-64a81029161a","ios":"levelo://app?vid=416d860c-c935-4a9b-9786-64a81029161a"},"vehicle_type_id":"4","last_reported":1746547927,"current_range_meters":24800,"station_id":"ce4bh512rcd13ifvqe2g","pricing_plan_id":"cebpf4jnsgd1na2vs0mg"},{"bike_id":"c057e067-9454-496f-a3c5-09af2a3d7b6a","system_id":"levelo_inurba_marseille","lat":43.25114,"lon":5.40326,"is_reserved":false,"is_disabled":false,"rental_uris":{"android":"levelo://app?vid=c057e067-9454-496f-a3c5-09af2a3d7b6a","ios":"levelo://app?vid=c057e067-9454-496f-a3c5-09af2a3d7b6a"},"vehicle_type_id":"4","last_reported":1746547927,"current_range_meters":24800,"station_id":"ce4bhlh2rcd13ifvqgig","pricing_plan_id":"cebpf4jnsgd1na2vs0mg"},{"bike_id":"d8f88875-a7cc-47c3-af3f-78a6a0241b9d","system_id":"levelo_inurba_marseille","lat":43.25085,"lon":5.39507,"is_reserved":false,"is_disabled":false,"rental_uris":{"android":"levelo://app?vid=d8f88875-a7cc-47c3-af3f-78a6a0241b9d","ios":"levelo://app?vid=d8f88875-a7cc-47c3-af3f-78a6a0241b9d"},"vehicle_type_id":"4","last_reported":1746547927,"current_range_meters":24800,"station_id":"ce4bhm12rcd13ifvqgkg","pricing_plan_id":"cebpf4jnsgd1na2vs0mg"},{"bike_id":"88c4102c-2e63-439e-880b-8f87f1b4941b","system_id":"levelo_inurba_marseille","lat":43.28156,"lon":5.42653,"is_reserved":false,"is_disabled":false,"rental_uris":{"android":"levelo://app?vid=88c4102c-2e63-439e-880b-8f87f1b4941b","ios":"levelo://app?vid=88c4102c-2e63-439e-880b-8f87f1b4941b"},"vehicle_type_id":"4","last_reported":1746547927,"current_range_meters":24800,"station_id":"ce4bhnh2rcd13ifvqgug","pricing_plan_id":"cebpf4jnsgd1na2vs0mg"},{"bike_id":"70a29a45-574c-4ff1-aca3-740aa0e705be","system_id":"levelo_inurba_marseille","lat":43.24159,"lon":5.3642,"is_reserved":false,"is_disabled":false,"rental_uris":{"android":"levelo://app?vid=70a29a45-574c-4ff1-aca3-740aa0e705be","ios":"levelo://app?vid=70a29a45-574c-4ff1-aca3-740aa0e705be"},"vehicle_type_id":"4","last_reported":1746547927,"current_range_meters":24800,"station_id":"cpo36qri1sfpv3e86is0","pricing_plan_id":"cebpf4jnsgd1na2vs0mg"},{"bike_id":"4943aaff-c800-4e9a-bffe-aacef57a5114","system_id":"levelo_inurba_marseille","lat":43.21207,"lon":5.35078,"is_reserved":false,"is_disabled":false,"rental_uris":{"android":"levelo://app?vid=4943aaff-c800-4e9a-bffe-aacef57a5114","ios":"levelo://app?vid=4943aaff-c800-4e9a-bffe-aacef57a5114"},"vehicle_type_id":"4","last_reported":1746547927,"current_range_meters":24800,"station_id":"st_cvj6sg6p6f1abm77japg","pricing_plan_id":"cebpf4jnsgd1na2vs0mg"},{"bike_id":"82c07823-eeae-44c3-8c6d-6a178beaa34c","system_id":"levelo_inurba_marseille","lat":43.31333,"lon":5.39691,"is_reserved":false,"is_disabled":false,"rental_uris":{"android":"levelo://app?vid=82c07823-eeae-44c3-8c6d-6a178beaa34c","ios":"levelo://app?vid=82c07823-eeae-44c3-8c6d-6a178beaa34c"},"vehicle_type_id":"4","last_reported":1746547927,"current_range_meters":25200,"station_id":"ce4bgvp2rcd13ifvqcu0","pricing_plan_id":"cebpf4jnsgd1na2vs0mg"},{"bike_id":"e8ac35ef-31d3-476a-9855-08c8806c6bbc","system_id":"levelo_inurba_marseille","lat":43.28866,"lon":5.35866,"is_reserved":false,"is_disabled":false,"rental_uris":{"android":"levelo://app?vid=e8ac35ef-31d3-476a-9855-08c8806c6bbc","ios":"levelo://app?vid=e8ac35ef-31d3-476a-9855-08c8806c6bbc"},"vehicle_type_id":"4","last_reported":1746547927,"current_range_meters":25200,"station_id":"ce4bhb12rcd13ifvqem0","pricing_plan_id":"cebpf4jnsgd1na2vs0mg"},{"bike_id":"ecc3d37e-6831-4b0b-a5e8-8d9c997ed587","system_id":"levelo_inurba_marseille","lat":43.27178,"lon":5.40997,"is_reserved":false,"is_disabled":false,"rental_uris":{"android":"levelo://app?vid=ecc3d37e-6831-4b0b-a5e8-8d9c997ed587","ios":"levelo://app?vid=ecc3d37e-6831-4b0b-a5e8-8d9c997ed587"},"vehicle_type_id":"4","last_reported":1746547927,"current_range_meters":25200,"station_id":"ce4bhl12rcd13ifvqgf0","pricing_plan_id":"cebpf4jnsgd1na2vs0mg"},{"bike_id":"71c53763-d78e-468a-a150-3ae0ea6930da","system_id":"levelo_inurba_marseille","lat":43.22505,"lon":5.34794,"is_reserved":false,"is_disabled":false,"rental_uris":{"android":"levelo://app?vid=71c53763-d78e-468a-a150-3ae0ea6930da","ios":"levelo://app?vid=71c53763-d78e-468a-a150-3ae0ea6930da"},"vehicle_type_id":"4","last_reported":1746547927,"current_range_meters":25200,"station_id":"st_cvj5dfep6f1abm77gieg","pricing_plan_id":"cebpf4jnsgd1na2vs0mg"},{"bike_id":"50e49be2-f338-4e4d-baad-1389e0390b40","system_id":"levelo_inurba_marseille","lat":43.2927,"lon":5.37633,"is_reserved":false,"is_disabled":false,"rental_uris":{"android":"levelo://app?vid=50e49be2-f338-4e4d-baad-1389e0390b40","ios":"levelo://app?vid=50e49be2-f338-4e4d-baad-1389e0390b40"},"vehicle_type_id":"4","last_reported":1746547927,"current_range_meters":25600,"station_id":"ce4bgi12rcd13ifvqb80","pricing_plan_id":"cebpf4jnsgd1na2vs0mg"},{"bike_id":"1ca9019e-6560-449e-a0d8-5e87180ed0f4","system_id":"levelo_inurba_marseille","lat":43.25123,"lon":5.4035,"is_reserved":false,"is_disabled":false,"rental_uris":{"android":"levelo://app?vid=1ca9019e-6560-449e-a0d8-5e87180ed0f4","ios":"levelo://app?vid=1ca9019e-6560-449e-a0d8-5e87180ed0f4"},"vehicle_type_id":"4","last_reported":1746547927,"current_range_meters":25600,"station_id":"ce4bhlh2rcd13ifvqgig","pricing_plan_id":"cebpf4jnsgd1na2vs0mg"},{"bike_id":"2d60fc77-0789-4aa5-ae17-49c387a82783","system_id":"levelo_inurba_marseille","lat":43.21198,"lon":5.35055,"is_reserved":false,"is_disabled":false,"rental_uris":{"android":"levelo://app?vid=2d60fc77-0789-4aa5-ae17-49c387a82783","ios":"levelo://app?vid=2d60fc77-0789-4aa5-ae17-49c387a82783"},"vehicle_type_id":"4","last_reported":1746547927,"current_range_meters":25600,"station_id":"st_cvj6sg6p6f1abm77japg","pricing_plan_id":"cebpf4jnsgd1na2vs0mg"},{"bike_id":"7da4beb9-3ada-4337-8c06-cf25b36b9d4c","system_id":"levelo_inurba_marseille","lat":43.282675,"lon":5.350666,"is_reserved":false,"is_disabled":false,"rental_uris":{"android":"levelo://app?vid=7da4beb9-3ada-4337-8c06-cf25b36b9d4c","ios":"levelo://app?vid=7da4beb9-3ada-4337-8c06-cf25b36b9d4c"},"vehicle_type_id":"4","last_reported":1746547927,"current_range_meters":26000,"station_id":"ce4bhbp2rcd13ifvqerg","pricing_plan_id":"cebpf4jnsgd1na2vs0mg"},{"bike_id":"8a25d647-fa66-4ef4-b3dc-dc3bfeee97a1","system_id":"levelo_inurba_marseille","lat":43.25115,"lon":5.40341,"is_reserved":false,"is_disabled":false,"rental_uris":{"android":"levelo://app?vid=8a25d647-fa66-4ef4-b3dc-dc3bfeee97a1","ios":"levelo://app?vid=8a25d647-fa66-4ef4-b3dc-dc3bfeee97a1"},"vehicle_type_id":"4","last_reported":1746547927,"current_range_meters":26000,"station_id":"ce4bhlh2rcd13ifvqgig","pricing_plan_id":"cebpf4jnsgd1na2vs0mg"},{"bike_id":"21404e84-7941-4e33-a6e4-825624b18edf","system_id":"levelo_inurba_marseille","lat":43.231833,"lon":5.399883,"is_reserved":false,"is_disabled":false,"rental_uris":{"android":"levelo://app?vid=21404e84-7941-4e33-a6e4-825624b18edf","ios":"levelo://app?vid=21404e84-7941-4e33-a6e4-825624b18edf"},"vehicle_type_id":"4","last_reported":1746547927,"current_range_meters":26000,"station_id":"ce4bhn12rcd13ifvqgqg","pricing_plan_id":"cebpf4jnsgd1na2vs0mg"},{"bike_id":"b83d6932-990b-48e9-8535-52d696565d32","system_id":"levelo_inurba_marseille","lat":43.232033,"lon":5.355497,"is_reserved":false,"is_disabled":false,"rental_uris":{"android":"levelo://app?vid=b83d6932-990b-48e9-8535-52d696565d32","ios":"levelo://app?vid=b83d6932-990b-48e9-8535-52d696565d32"},"vehicle_type_id":"4","last_reported":1746547927,"current_range_meters":26000,"station_id":"ce4bhu92rcd13ifvqi70","pricing_plan_id":"cebpf4jnsgd1na2vs0mg"},