{"last_updated":1743408891,"ttl":60,"version":"2.2","data":{"bikes":[{"bike_id":"f28a2132-9d11-411c-a599-c4352a550e43","system_id":"levelo_inurba_marseille","lat":43.24891,"lon":5.39417,"is_reserved":false,"is_disabled":true,"rental_uris":{"android":"levelo://app?vid=f28a2132-9d11-411c-a599-c4352a550e43","ios":"levelo://app?vid=f28a2132-9d11-411c-a599-c4352a550e43"},"vehicle_type_id":"4","last_reported":1743408891,"current_range_meters":0,"station_id":"","pricing_plan_id":"cebpf4jnsgd1na2vs0mg"},{"bike_id":"4e093da4-3f42-49de-9394-47d65e4d4bb9","system_id":"levelo_inurba_marseille","lat":43.30231,"lon":5.4007,"is_reserved":false,"is_disabled":true,"rental_uris":{"android":"levelo://app?vid=4e093da4-3f42-49de-9394-47d65e4d4bb9","ios":"levelo://app?vid=4e093da4-3f42-49de-9394-47d65e4d4bb9"},"vehicle_type_id":"4","last_reported":1743408891,"current_range_meters":0,"station_id":"","pricing_plan_id":"cebpf4jnsgd1na2vs0mg"},{"bike_id":"524c0a99-e50a-4944-b98a-364c85fd198c","system_id":"levelo_inurba_marseille","lat":43.28632,"lon":5.44358,"is_reserved":false,"is_disabled":true,"rental_uris":{"android":"levelo://app?vid=524c0a99-e50a-4944-b98a-364c85fd198c","ios":"levelo://app?vid=524c0a99-e50a-4944-b98a-364c85fd198c"},"vehicle_type_id":"4","last_reported":1743408891,"current_range_meters":0,"station_id":"","pricing_plan_id":"cebpf4jnsgd1na2vs0mg"},{"bike_id":"ef3ab7e4-47aa-4e48-a63f-a437355606eb","system_id":"levelo_inurba_marseille","lat":43.2808,"lon":5.42141,"is_reserved":false,"is_disabled":true,"rental_uris":{"android":"levelo://app?vid=ef3ab7e4-47aa-4e48-a63f-a437355606eb","ios":"levelo://app?vid=ef3ab7e4-47aa-4e48-a63f-a437355606eb"},"vehicle_type_id":"4","last_reported":1743408891,"current_range_meters":0,"station_id":"","pricing_plan_id":"cebpf4jnsgd1na2vs0mg"},{"bike_id":"646b4b6f-1ba9-4554-b1a7-e4dc009abba1","system_id":"levelo_inurba_marseille","lat":43.29086,"lon":5.42792,"is_reserved":false,"is_disabled":true,"rental_uris":{"android":"levelo://app?vid=646b4b6f-1ba9-4554-b1a7-e4dc009abba1","ios":"levelo://app?vid=646b4b6f-1ba9-4554-b1a7-e4dc009abba1"},"vehicle_type_id":"4","last_reported":1743408891,"current_range_meters":0,"station_id":"","pricing_plan_id":"cebpf4jnsgd1na2vs0mg"},{"bike_id":"7a27eaeb-5a2f-4681-a220-1aeb5306552a","system_id":"levelo_inurba_marseille","lat":43.27406,"lon":5.41443,"is_reserved":false,"is_disabled":true,"rental_uris":{"android":"levelo://app?vid=7a27eaeb-5a2f-4681-a220-1aeb5306552a","ios":"levelo://app?vid=7a27eaeb-5a2f-4681-a220-1aeb5306552a"},"vehicle_type_id":"4","last_reported":1743408891,"current_range_meters":0,"station_id":"","pricing_plan_id":"cebpf4jnsgd1na2vs0mg"},{"bike_id":"be6725c0-5c09-4663-99b8-0b7371d27e21","system_id":"levelo_inurba_marseille","lat":43.25493,"lon":5.375,"is_reserved":false,"is_disabled":true,"rental_uris":{"android":"levelo://app?vid=be6725c0-5c09-4663-99b8-0b7371d27e21","ios":"levelo://app?vid=be6725c0-5c09-4663-99b8-0b7371d27e21"},"vehicle_type_id":"4","last_reported":1743408891,"current_range_meters":0,"station_id":"","pricing_plan_id":"cebpf4jnsgd1na2vs0mg"},{"bike_id":"579b8b66-6a37-4f4c-ad3b-0acee14f6d2d","system_id":"levelo_inurba_marseille","lat":43.29521,"lon":5.44256,"is_reserved":false,"is_disabled":true,"rental_uris":{"android":"levelo://app?vid=579b8b66-6a37-4f4c-ad3b-0acee14f6d2d","ios":"levelo://app?vid=579b8b66-6a37-4f4c-ad3b-0acee14f6d2d"},"vehicle_type_id":"4","last_reported":1743408891,"current_range_meters":0,"station_id":"","pricing_plan_id":"cebpf4jnsgd1na2vs0mg"},{"bike_id":"addfee32-b434-4d1a-a720-7460ebc95d3d","system_id":"levelo_inurba_marseille","lat":43.265915,"lon":5.393424,"is_reserved":false,"is_disabled":true,"rental_uris":{"android":"levelo://app?vid=addfee32-b434-4d1a-a720-7460ebc95d3d","ios":"levelo://app?vid=addfee32-b434-4d1a-a720-7460ebc95d3d"},"vehicle_type_id":"4","last_reported":1743408891,"current_range_meters":0,"station_id":"","pricing_plan_id":"cebpf4jnsgd1na2vs0mg"},{"bike_id":"04d84667-80d2-430a-a2ab-b0adb0b8c9ad","system_id":"levelo_inurba_marseille","lat":43.337444,"lon":5.374475,"is_reserved":false,"is_disabled":true,"rental_uris":{"android":"levelo://app?vid=04d84667-80d2-430a-a2ab-b0adb0b8c9ad","ios":"levelo://app?vid=04d84667-80d2-430a-a2ab-b0adb0b8c9ad"},"vehicle_type_id":"4","last_reported":1743408891,"current_range_meters":0,"station_id":"","pricing_plan_id":"cebpf4jnsgd1na2vs0mg"},{"bike_id":"deb3f671-3ace-4bcf-92e5-bfca91b65c0c","system_id":"levelo_inurba_marseille","lat":43.26888,"lon":5.39297,"is_reserved":false,"is_disabled":true,"rental_uris":{"android":"levelo://app?vid=deb3f671-3ace-4bcf-92e5-bfca91b65c0c","ios":"levelo://app?vid=deb3f671-3ace-4bcf-92e5-bfca91b65c0c"},"vehicle_type_id":"4","last_reported":1743408891,"current_range_meters":0,"station_id":"","pricing_plan_id":"cebpf4jnsgd1na2vs0mg"},{"bike_id":"54ddccb5-3e82-4e09-ad9d-1f88cce9f960","system_id":"levelo_inurba_marseille","lat":43.32969,"lon":5.43871,"is_reserved":false,"is_disabled":true,"rental_uris":{"android":"levelo://app?vid=54ddccb5-3e82-4e09-ad9d-1f88cce9f960","ios":"levelo://app?vid=54ddccb5-3e82-4e09-ad9d-1f88cce9f960"},"vehicle_type_id":"4","last_reported":1743408891,"current_range_meters":0,"station_id":"","pricing_plan_id":"cebpf4jnsgd1na2vs0mg"},{"bike_id":"288bb5a4-8592-4715-9f1c-af47147cb3c6","system_id":"levelo_inurba_marseille","lat":43.26151,"lon":5.41629,"is_reserved":false,"is_disabled":true,"rental_uris":{"android":"levelo://app?vid=288bb5a4-8592-4715-9f1c-af47147cb3c6","ios":"levelo://app?vid=288bb5a4-8592-4715-9f1c-af47147cb3c6"},"vehicle_type_id":"4","last_reported":1743408891,"current_range_meters":0,"station_id":"","pricing_plan_id":"cebpf4jnsgd1na2vs0mg"},{"bike_id":"c35f7468-1371-4b51-bf37-de9b928bcd7e","system_id":"levelo_inurba_marseille","lat":43.27914,"lon":5.41247,"is_reserved":false,"is_disabled":true,"rental_uris":{"android":"levelo://app?vid=c35f7468-1371-4b51-bf37-de9b928bcd7e","ios":"levelo://app?vid=c35f7468-1371-4b51-bf37-de9b928bcd7e"},"vehicle_type_id":"4","last_reported":1743408891,"current_range_meters":0,"station_id":"","pricing_plan_id":"cebpf4jnsgd1na2vs0mg"},{"bike_id":"014b23cd-294c-4074-ad98-9b95e2a8f9be","system_id":"levelo_inurba_marseille","lat":43.29571,"lon":5.37505,"is_reserved":false,"is_disabled":true,"rental_uris":{"android":"levelo://app?vid=014b23cd-294c-4074-ad98-9b95e2a8f9be","ios":"levelo://app?vid=014b23cd-294c-4074-ad98-9b95e2a8f9be"},"vehicle_type_id":"4","last_reported":1743408891,"current_range_meters":0,"station_id":"ce4bgh92rcd13ifvqb50","pricing_plan_id":"cebpf4jnsgd1na2vs0mg"},{"bike_id":"52e93d9c-d968-4a4c-8b71-c52fc1aef623","system_id":"levelo_inurba_marseille","lat":43.30312,"lon":5.39214,"is_reserved":false,"is_disabled":true,"rental_uris":{"android":"levelo://app?vid=52e93d9c-d968-4a4c-8b71-c52fc1aef623","ios":"levelo://app?vid=52e93d9c-d968-4a4c-8b71-c52fc1aef623"},"vehicle_type_id":"4","last_reported":1743408891,"current_range_meters":0,"station_id":"ce4bgkh2rcd13ifvqbk0","pricing_plan_id":"cebpf4jnsgd1na2vs0mg"},{"bike_id":"83f3a4d4-7dc7-4071-9a80-e20e78cc5119","system_id":"levelo_inurba_marseille","lat":43.30314,"lon":5.36919,"is_reserved":false,"is_disabled":true,"rental_uris":{"android":"levelo://app?vid=83f3a4d4-7dc7-4071-9a80-e20e78cc5119","ios":"levelo://app?vid=83f3a4d4-7dc7-4071-9a80-e20e78cc5119"},"vehicle_type_id":"4","last_reported":1743408891,"current_range_meters":0,"station_id":"ce4bgqh2rcd13ifvqc5g","pricing_plan_id":"cebpf4jnsgd1na2vs0mg"},{"bike_id":"68ead3af-df30-452d-b33c-944b398831e9","system_id":"levelo_inurba_marseille","lat":43.24989,"lon":5.38931,"is_reserved":false,"is_disabled":true,"rental_uris":{"android":"levelo://app?vid=68ead3af-df30-452d-b33c-944b398831e9","ios":"levelo://app?vid=68ead3af-df30-452d-b33c-944b398831e9"},"vehicle_type_id":"4","last_reported":1743408891,"current_range_meters":0,"station_id":"ce4bhgp2rcd13ifvqfd0","pricing_plan_id":"cebpf4jnsgd1na2vs0mg"},{"bike_id":"fd34d0e5-0141-4b95-8069-6c7f883c214c","system_id":"levelo_inurba_marseille","lat":43.25936,"lon":5.40899,"is_reserved":false,"is_disabled":true,"rental_uris":{"android":"levelo://app?vid=fd34d0e5-0141-4b95-8069-6c7f883c214c","ios":"levelo://app?vid=fd34d0e5-0141-4b95-8069-6c7f883c214c"},"vehicle_type_id":"4","last_reported":1743408891,"current_range_meters":0,"station_id":"ce4bhm92rcd13ifvqglg","pricing_plan_id":"cebpf4jnsgd1na2vs0mg"},{"bike_id":"bd72bf73-b18e-4e50-9058-c08935f1c2d6","system_id":"levelo_inurba_marseille","lat":43.24174,"lon":5.39726,"is_reserved":false,"is_disabled":true,"rental_uris":{"android":"levelo://app?vid=bd72bf73-b18e-4e50-9058-c08935f1c2d6","ios":"levelo://app?vid=bd72bf73-b18e-4e50-9058-c08935f1c2d6"},"vehicle_type_id":"4","last_reported":1743408891,"current_range_meters":0,"station_id":"ce4bhn12rcd13ifvqgpg","pricing_plan_id":"cebpf4jnsgd1na2vs0mg"},{"bike_id":"b0d5d940-1793-41f9-a46d-eaf06c898d04","system_id":"levelo_inurba_marseille","lat":43.27497,"lon":5.42451,"is_reserved":false,"is_disabled":true,"rental_uris":{"android":"levelo://app?vid=b0d5d940-1793-41f9-a46d-eaf06c898d04","ios":"levelo://app?vid=b0d5d940-1793-41f9-a46d-eaf06c898d04"},"vehicle_type_id":"4","last_reported":1743408891,"current_range_meters":0,"station_id":"ce4bhn92rcd13ifvqgrg","pricing_plan_id":"cebpf4jnsgd1na2vs0mg"},{"bike_id":"e759c1cd-10ca-41fe-b87d-424a3b6afe31","system_id":"levelo_inurba_marseille","lat":43.3361,"lon":5.41037,"is_reserved":false,"is_disabled":true,"rental_uris":{"android":"levelo://app?vid=e759c1cd-10ca-41fe-b87d-424a3b6afe31","ios":"levelo://app?vid=e759c1cd-10ca-41fe-b87d-424a3b6afe31"},"vehicle_type_id":"4","last_reported":1743408891,"current_range_meters":0,"station_id":"ce4bhqh2rcd13ifvqhmg","pricing_plan_id":"cebpf4jnsgd1na2vs0mg"},{"bike_id":"d20e75e8-34f8-4c7b-a8cd-3ea9fac5f787","system_id":"levelo_inurba_marseille","lat":43.22925,"lon":5.35395,"is_reserved":false,"is_disabled":true,"rental_uris":{"android":"levelo://app?vid=d20e75e8-34f8-4c7b-a8cd-3ea9fac5f787","ios":"levelo://app?vid=d20e75e8-34f8-4c7b-a8cd-3ea9fac5f787"},"vehicle_type_id":"4","last_reported":1743408891,"current_range_meters":0,"station_id":"cpo3532slgdg3j2ikp40","pricing_plan_id":"cebpf4jnsgd1na2vs0mg"},{"bike_id":"8e75bd74-174d-4a03-9a50-b07c3718f7b3","system_id":"levelo_inurba_marseille","lat":43.29862,"lon":5.39744,"is_reserved":false,"is_disabled":true,"rental_uris":{"android":"levelo://app?vid=8e75bd74-174d-4a03-9a50-b07c3718f7b3","ios":"levelo://app?vid=8e75bd74-174d-4a03-9a50-b07c3718f7b3"},"vehicle_type_id":"4","last_reported":1743408891,"current_range_meters":400,"station_id":"ce4bh0h2rcd13ifvqd50","pricing_plan_id":"cebpf4jnsgd1na2vs0mg"},{"bike_id":"d17820b2-786d-4ecb-9d7d-77bc39e3a41d","system_id":"levelo_inurba_marseille","lat":43.30212,"lon":5.39459,"is_reserved":false,"is_disabled":true,"rental_uris":{"android":"levelo://app?vid=d17820b2-786d-4ecb-9d7d-77bc39e3a41d","ios":"levelo://app?vid=d17820b2-786d-4ecb-9d7d-77bc39e3a41d"},"vehicle_type_id":"4","last_reported":1743408891,"current_range_meters":400,"station_id":"ce4bh0p2rcd13ifvqd70","pricing_plan_id":"cebpf4jnsgd1na2vs0mg"},{"bike_id":"db913db7-cb50-4581-9406-202050efbdef","system_id":"levelo_inurba_marseille","lat":43.29099,"lon":5.38128,"is_reserved":false,"is_disabled":true,"rental_uris":{"android":"levelo://app?vid=db913db7-cb50-4581-9406-202050efbdef","ios":"levelo://app?vid=db913db7-cb50-4581-9406-202050efbdef"},"vehicle_type_id":"4","last_reported":1743408891,"current_range_meters":400,"station_id":"ce4bh512rcd13ifvqe2g","pricing_plan_id":"cebpf4jnsgd1na2vs0mg"},{"bike_id":"d974bd60-897b-4303-ab3d-9395313fbfe3","system_id":"levelo_inurba_marseille","lat":43.24171,"lon":5.39732,"is_reserved":false,"is_disabled":true,"rental_uris":{"android":"levelo://app?vid=d974bd60-897b-4303-ab3d-9395313fbfe3","ios":"levelo://app?vid=d974bd60-897b-4303-ab3d-9395313fbfe3"},"vehicle_type_id":"4","last_reported":1743408891,"current_range_meters":400,"station_id":"ce4bhn12rcd13ifvqgpg","pricing_plan_id":"cebpf4jnsgd1na2vs0mg"},{"bike_id":"23af8687-a648-498f-87f7-b9c99a05e93a","system_id":"levelo_inurba_marseille","lat":43.30308,"lon":5.39205,"is_reserved":false,"is_disabled":true,"rental_uris":{"android":"levelo://app?vid=23af8687-a648-498f-87f7-b9c99a05e93a","ios":"levelo://app?vid=23af8687-a648-498f-87f7-b9c99a05e93a"},"vehicle_type_id":"4","last_reported":1743408891,"current_range_meters":800,"station_id":"ce4bgkh2rcd13ifvqbk0","pricing_plan_id":"cebpf4jnsgd1na2vs0mg"},{"bike_id":"961c0022-d23b-4343-b0c6-ba03adff1a7a","system_id":"levelo_inurba_marseille","lat":43.30541,"lon":5.36699,"is_reserved":false,"is_disabled":true,"rental_uris":{"android":"levelo://app?vid=961c0022-d23b-4343-b0c6-ba03adff1a7a","ios":"levelo://app?vid=961c0022-d23b-4343-b0c6-ba03adff1a7a"},"vehicle_type_id":"4","last_reported":1743408891,"current_range_meters":800,"station_id":"ce4bgrp2rcd13ifvqc9g","pricing_plan_id":"cebpf4jnsgd1na2vs0mg"},{"bike_id":"50588a87-ba76-4393-b91c-688af0202a03","system_id":"levelo_inurba_marseille","lat":43.25606,"lon":5.38226,"is_reserved":false,"is_disabled":true,"rental_uris":{"android":"levelo://app?vid=50588a87-ba76-4393-b91c-688af0202a03","ios":"levelo://app?vid=50588a87-ba76-4393-b91c-688af0202a03"},"vehicle_type_id":"4","last_reported":1743408891,"current_range_meters":800,"station_id":"ce4bhih2rcd13ifvqfs0","pricing_plan_id":"cebpf4jnsgd1na2vs0mg"},{"bike_id":"1c88173c-c7d8-4417-8a0a-2aec1cde6e47","system_id":"levelo_inurba_marseille","lat":43.29939,"lon":5.36537,"is_reserved":false,"is_disabled":true,"rental_uris":{"android":"levelo://app?vid=1c88173c-c7d8-4417-8a0a-2aec1cde6e47","ios":"levelo://app?vid=1c88173c-c7d8-4417-8a0a-2aec1cde6e47"},"vehicle_type_id":"4","last_reported":1743408891,"current_range_meters":1200,"station_id":"ce4bgm92rcd13ifvqbr0","pricing_plan_id":"cebpf4jnsgd1na2vs0mg"},{"bike_id":"917729f6-3345-48a9-857f-3b41d7a6d113","system_id":"levelo_inurba_marseille","lat":43.30595,"lon":5.39362,"is_reserved":false,"is_disabled":true,"rental_uris":{"android":"levelo://app?vid=917729f6-3345-48a9-857f-3b41d7a6d113","ios":"levelo://app?vid=917729f6-3345-48a9-857f-3b41d7a6d113"},"vehicle_type_id":"4","last_reported":1743408891,"current_range_meters":1200,"station_id":"ce4bh0p2rcd13ifvqd80","pricing_plan_id":"cebpf4jnsgd1na2vs0mg"},{"bike_id":"dd2d5028-c51f-40c0-9f3a-6a75e143a288","system_id":"levelo_inurba_marseille","lat":43.28491,"lon":5.38417,"is_reserved":false,"is_disabled":true,"rental_uris":{"android":"levelo://app?vid=dd2d5028-c51f-40c0-9f3a-6a75e143a288","ios":"levelo://app?vid=dd2d5028-c51f-40c0-9f3a-6a75e143a288"},"vehicle_type_id":"4","last_reported":1743408891,"current_range_meters":1200,"station_id":"ce4bh512rcd13ifvqe3g","pricing_plan_id":"cebpf4jnsgd1na2vs0mg"},{"bike_id":"591592e5-0eeb-443c-934b-725256f5543a","system_id":"levelo_inurba_marseille","lat":43.29222,"lon":5.36087,"is_reserved":false,"is_disabled":true,"rental_uris":{"android":"levelo://app?vid=591592e5-0eeb-443c-934b-725256f5543a","ios":"levelo://app?vid=591592e5-0eeb-443c-934b-725256f5543a"},"vehicle_type_id":"4","last_reported":1743408891,"current_range_meters":1200,"station_id":"ce4bhbh2rcd13ifvqeqg","pricing_plan_id":"cebpf4jnsgd1na2vs0mg"},{"bike_id":"862e6285-b75a-440b-a025-d6b6ce9a643d","system_id":"levelo_inurba_marseille","lat":43.27075,"lon":5.42279,"is_reserved":false,"is_disabled":true,"rental_uris":{"android":"levelo://app?vid=862e6285-b75a-440b-a025-d6b6ce9a643d","ios":"levelo://app?vid=862e6285-b75a-440b-a025-d6b6ce9a643d"},"vehicle_type_id":"4","last_reported":1743408891,"current_range_meters":1200,"station_id":"ce4bhk92rcd13ifvqgb0","pricing_plan_id":"cebpf4jnsgd1na2vs0mg"},{"bike_id":"e4023b76-3b3e-4e0a-83d8-f1f2c86a9a1a","system_id":"levelo_inurba_marseille","lat":43.25593,"lon":5.39325,"is_reserved":false,"is_disabled":true,"rental_uris":{"android":"levelo://app?vid=e4023b76-3b3e-4e0a-83d8-f1f2c86a9a1a","ios":"levelo://app?vid=e4023b76-3b3e-4e0a-83d8-f1f2c86a9a1a"},"vehicle_type_id":"4","last_reported":1743408891,"current_range_meters":1600,"station_id":"","pricing_plan_id":"cebpf4jnsgd1na2vs0mg"},{"bike_id":"7c07071e-68ba-48b9-b431-26cb6c62ac42","system_id":"levelo_inurba_marseille","lat":43.30962,"lon":5.40461,"is_reserved":false,"is_disabled":true,"rental_uris":{"android":"levelo://app?vid=7c07071e-68ba-48b9-b431-26cb6c62ac42","ios":"levelo://app?vid=7c07071e-68ba-48b9-b431-26cb6c62ac42"},"vehicle_type_id":"4","last_reported":1743408891,"current_range_meters":1600,"station_id":"","pricing_plan_id":"cebpf4jnsgd1na2vs0mg"},{"bike_id":"b4073ab7-8033-4a29-8a30-2ce2529ce4f9","system_id":"levelo_inurba_marseille","lat":43.29027,"lon":5.39963,"is_reserved":false,"is_disabled":true,"rental_uris":{"android":"levelo://app?vid=b4073ab7-8033-4a29-8a30-2ce2529ce4f9","ios":"levelo://app?vid=b4073ab7-8033-4a29-8a30-2ce2529ce4f9"},"vehicle_type_id":"4","last_reported":1743408891,"current_range_meters":1600,"station_id":"ce4bh392rcd13ifvqdm0","pricing_plan_id":"cebpf4jnsgd1na2vs0mg"},{"bike_id":"17f07d8c-c7d1-4c9a-a6cd-e3fea945ec60","system_id":"levelo_inurba_marseille","lat":43.29264,"lon":5.38436,"is_reserved":false,"is_disabled":true,"rental_uris":{"android":"levelo://app?vid=17f07d8c-c7d1-4c9a-a6cd-e3fea945ec60","ios":"levelo://app?vid=17f07d8c-c7d1-4c9a-a6cd-e3fea945ec60"},"vehicle_type_id":"4","last_reported":1743408891,"current_range_meters":1600,"station_id":"ce4bh692rcd13ifvqea0","pricing_plan_id":"cebpf4jnsgd1na2vs0mg"},{"bike_id":"085a361f-7074-488c-ad0a-3b0a850a01fb","system_id":"levelo_inurba_marseille","lat":43.27379,"lon":5.36253,"is_reserved":false,"is_disabled":true,"rental_uris":{"android":"levelo://app?vid=085a361f-7074-488c-ad0a-3b0a850a01fb","ios":"levelo://app?vid=085a361f-7074-488c-ad0a-3b0a850a01fb"},"vehicle_type_id":"4","last_reported":1743408891,"current_range_meters":1600,"station_id":"ce4bhbh2rcd13ifvqeo0","pricing_plan_id":"cebpf4jnsgd1na2vs0mg"},{"bike_id":"7a16227c-8b85-46e8-a87c-8349c4711248","system_id":"levelo_inurba_marseille","lat":43.2812,"lon":5.44583,"is_reserved":false,"is_disabled":true,"rental_uris":{"android":"levelo://app?vid=7a16227c-8b85-46e8-a87c-8349c4711248","ios":"levelo://app?vid=7a16227c-8b85-46e8-a87c-8349c4711248"},"vehicle_type_id":"4","last_reported":1743408891,"current_range_meters":2000,"station_id":"","pricing_plan_id":"cebpf4jnsgd1na2vs0mg"},{"bike_id":"62811a8c-a5ee-4b0e-992d-ff97db10838b","system_id":"levelo_inurba_marseille","lat":43.30158,"lon":5.3808,"is_reserved":false,"is_disabled":true,"rental_uris":{"android":"levelo://app?vid=62811a8c-a5ee-4b0e-992d-ff97db10838b","ios":"levelo://app?vid=62811a8c-a5ee-4b0e-992d-ff97db10838b"},"vehicle_type_id":"4","last_reported":1743408891,"current_range_meters":2000,"station_id":"ce4bgjp2rcd13ifvqbh0","pricing_plan_id":"cebpf4jnsgd1na2vs0mg"},{"bike_id":"4f5c78fd-7fde-4f2d-b852-74743f91e6d0","system_id":"levelo_inurba_marseille","lat":43.30443,"lon":5.37912,"is_reserved":false,"is_disabled":true,"rental_uris":{"android":"levelo://app?vid=4f5c78fd-7fde-4f2d-b852-74743f91e6d0","ios":"levelo://app?vid=4f5c78fd-7fde-4f2d-b852-74743f91e6d0"},"vehicle_type_id":"4","last_reported":1743408891,"current_range_meters":2000,"station_id":"ce4bgup2rcd13ifvqcn0","pricing_plan_id":"cebpf4jnsgd1na2vs0mg"},{"bike_id":"eff5a3c1-b8e0-4672-824c-1a6198385ba5","system_id":"levelo_inurba_marseille","lat":43.29589,"lon":5.381,"is_reserved":false,"is_disabled":false,"rental_uris":{"android":"levelo://app?vid=eff5a3c1-b8e0-4672-824c-1a6198385ba5","ios":"levelo://app?vid=eff5a3c1-b8e0-4672-824c-1a6198385ba5"},"vehicle_type_id":"4","last_reported":1743408891,"current_range_meters":2800,"station_id":"ce4bgl12rcd13ifvqbo0","pricing_plan_id":"cebpf4jnsgd1na2vs0mg"},{"bike_id":"062d5019-b501-420c-b60c-adc32131aba5","system_id":"levelo_inurba_marseille","lat":43.30477,"lon":5.37921,"is_reserved":false,"is_disabled":false,"rental_uris":{"android":"levelo://app?vid=062d5019-b501-420c-b60c-adc32131aba5","ios":"levelo://app?vid=062d5019-b501-420c-b60c-adc32131aba5"},"vehicle_type_id":"4","last_reported":1743408891,"current_range_meters":2800,"station_id":"ce4bgup2rcd13ifvqcn0","pricing_plan_id":"cebpf4jnsgd1na2vs0mg"},{"bike_id":"58003e17-e5fe-4f63-87f6-fa119db96883","system_id":"levelo_inurba_marseille","lat":43.27053,"lon":5.40259,"is_reserved":false,"is_disabled":false,"rental_uris":{"android":"levelo://app?vid=58003e17-e5fe-4f63-87f6-fa119db96883","ios":"levelo://app?vid=58003e17-e5fe-4f63-87f6-fa119db96883"},"vehicle_type_id":"4","last_reported":1743408891,"current_range_meters":2800,"station_id":"ce4bhk92rcd13ifvqgc0","pricing_plan_id":"cebpf4jnsgd1na2vs0mg"},{"bike_id":"5a3307a6-54ca-44bc-a5fd-ab80751e6464","system_id":"levelo_inurba_marseille","lat":43.23194,"lon":5.39986,"is_reserved":false,"is_disabled":false,"rental_uris":{"android":"levelo://app?vid=5a3307a6-54ca-44bc-a5fd-ab80751e6464","ios":"levelo://app?vid=5a3307a6-54ca-44bc-a5fd-ab80751e6464"},"vehicle_type_id":"4","last_reported":1743408891,"current_range_meters":2800,"station_id":"ce4bhn12rcd13ifvqgqg","pricing_plan_id":"cebpf4jnsgd1na2vs0mg"},{"bike_id":"4ac85f9e-5b07-4e93-b0ae-477825bffb27","system_id":"levelo_inurba_marseille","lat":43.2319,"lon":5.35548,"is_reserved":false,"is_disabled":false,"rental_uris":{"android":"levelo://app?vid=4ac85f9e-5b07-4e93-b0ae-477825bffb27","ios":"levelo://app?vid=4ac85f9e-5b07-4e93-b0ae-477825bffb27"},"vehicle_type_id":"4","last_reported":1743408891,"current_range_meters":2800,"station_id":"ce4bhu92rcd13ifvqi70","pricing_plan_id":"cebpf4jnsgd1na2vs0mg"},{"bike_id":"61431284-c02c-4dec-bde7-e2d1ed2f4fbb","system_id":"levelo_inurba_marseille","lat":43.29903,"lon":5.38135,"is_reserved":false,"is_disabled":false,"rental_uris":{"android":"levelo://app?vid=61431284-c02c-4dec-bde7-e2d1ed2f4fbb","ios":"levelo://app?vid=61431284-c02c-4dec-bde7-e2d1ed2f4fbb"},"vehicle_type_id":"4","last_reported":1743408891,"current_range_meters":3200,"station_id":"ce4bgj12rcd13ifvqbc0","pricing_plan_id":"cebpf4jnsgd1na2vs0mg"},{"bike_id":"ca7d3dbc-32a0-4079-a061-313befb75175","system_id":"levelo_inurba_marseille","lat":43.30142,"lon":5.37416,"is_reserved":false,"is_disabled":false,"rental_uris":{"android":"levelo://app?vid=ca7d3dbc-32a0-4079-a061-313befb75175","ios":"levelo://app?vid=ca7d3dbc-32a0-4079-a061-313befb75175"},"vehicle_type_id":"4","last_reported":1743408891,"current_range_meters":3200,"station_id":"ce4bgs92rcd13ifvqcc0","pricing_plan_id":"cebpf4jnsgd1na2vs0mg"},{"bike_id":"6888bb73-fddc-4bb3-93a5-c7f3f806af36","system_id":"levelo_inurba_marseille","lat":43.26947,"lon":5.3864,"is_reserved":false,"is_disabled":false,"rental_uris":{"android":"levelo://app?vid=6888bb73-fddc-4bb3-93a5-c7f3f806af36","ios":"levelo://app?vid=6888bb73-fddc-4bb3-93a5-c7f3f806af36"},"vehicle_type_id":"4","last_reported":1743408891,"current_range_meters":3200,"station_id":"ce4bhh92rcd13ifvqfh0","pricing_plan_id":"cebpf4jnsgd1na2vs0mg"},{"bike_id":"0495aac0-4dc9-4278-bcb6-7440702196aa","system_id":"levelo_inurba_marseille","lat":43.24171,"lon":5.39733,"is_reserved":false,"is_disabled":false,"rental_uris":{"android":"levelo://app?vid=0495aac0-4dc9-4278-bcb6-7440702196aa","ios":"levelo://app?vid=0495aac0-4dc9-4278-bcb6-7440702196aa"},"vehicle_type_id":"4","last_reported":1743408891,"current_range_meters":3600,"station_id":"ce4bhn12rcd13ifvqgpg","pricing_plan_id":"cebpf4jnsgd1na2vs0mg"},{"bike_id":"0014d291-02ac-49bb-9d8e-c42972f3608e","system_id":"levelo_inurba_marseille","lat":43.30467,"lon":5.37906,"is_reserved":false,"is_disabled":false,"rental_uris":{"android":"levelo://app?vid=0014d291-02ac-49bb-9d8e-c42972f3608e","ios":"levelo://app?vid=0014d291-02ac-49bb-9d8e-c42972f3608e"},"vehicle_type_id":"4","last_reported":1743408891,"current_range_meters":4000,"station_id":"ce4bgup2rcd13ifvqcn0","pricing_plan_id":"cebpf4jnsgd1na2vs0mg"},{"bike_id":"2b22511a-58d4-443f-98e7-f79bb1b2fce2","system_id":"levelo_inurba_marseille","lat":43.23147,"lon":5.43707,"is_reserved":false,"is_disabled":false,"rental_uris":{"android":"levelo://app?vid=2b22511a-58d4-443f-98e7-f79bb1b2fce2","ios":"levelo://app?vid=2b22511a-58d4-443f-98e7-f79bb1b2fce2"},"vehicle_type_id":"4","last_reported":1743408891,"current_range_meters":4000,"station_id":"ce4bhmp2rcd13ifvqgog","pricing_plan_id":"cebpf4jnsgd1na2vs0mg"},{"bike_id":"96ac20e8-5840-4579-b371-184ec6253952","system_id":"levelo_inurba_marseille","lat":43.27509,"lon":5.41141,"is_reserved":false,"is_disabled":false,"rental_uris":{"android":"levelo://app?vid=96ac20e8-5840-4579-b371-184ec6253952","ios":"levelo://app?vid=96ac20e8-5840-4579-b371-184ec6253952"},"vehicle_type_id":"4","last_reported":1743408891,"current_range_meters":4400,"station_id":"","pricing_plan_id":"cebpf4jnsgd1na2vs0mg"},{"bike_id":"5a83bb06-e82f-4f7e-8e1d-2a3b30d83a08","system_id":"levelo_inurba_marseille","lat":43.30303,"lon":5.36888,"is_reserved":false,"is_disabled":false,"rental_uris":{"android":"levelo://app?vid=5a83bb06-e82f-4f7e-8e1d-2a3b30d83a08","ios":"levelo://app?vid=5a83bb06-e82f-4f7e-8e1d-2a3b30d83a08"},"vehicle_type_id":"4","last_reported":1743408891,"current_range_meters":4400,"station_id":"ce4bgqh2rcd13ifvqc5g","pricing_plan_id":"cebpf4jnsgd1na2vs0mg"},{"bike_id":"f62f38bb-09ed-4e08-88a8-f6f114fabcfa","system_id":"levelo_inurba_marseille","lat":43.30473,"lon":5.37896,"is_reserved":false,"is_disabled":false,"rental_uris":{"android":"levelo://app?vid=f62f38bb-09ed-4e08-88a8-f6f114fabcfa","ios":"levelo://app?vid=f62f38bb-09ed-4e08-88a8-f6f114fabcfa"},"vehicle_type_id":"4","last_reported":1743408891,"current_range_meters":4400,"station_id":"ce4bgup2rcd13ifvqcn0","pricing_plan_id":"cebpf4jnsgd1na2vs0mg"},{"bike_id":"74bffd4c-1aa6-4724-b360-27d8378b7452","system_id":"levelo_inurba_marseille","lat":43.23141,"lon":5.43705,"is_reserved":false,"is_disabled":false,"rental_uris":{"android":"levelo://app?vid=74bffd4c-1aa6-4724-b360-27d8378b7452","ios":"levelo://app?vid=74bffd4c-1aa6-4724-b360-27d8378b7452"},"vehicle_type_id":"4","last_reported":1743408891,"current_range_meters":4400,"station_id":"ce4bhmp2rcd13ifvqgog","pricing_plan_id":"cebpf4jnsgd1na2vs0mg"},{"bike_id":"37f41d5f-3983-4db2-8781-c345307ed7b9","system_id":"levelo_inurba_marseille","lat":43.27501,"lon":5.424573,"is_reserved":false,"is_disabled":false,"rental_uris":{"android":"levelo://app?vid=37f41d5f-3983-4db2-8781-c345307ed7b9","ios":"levelo://app?vid=37f41d5f-3983-4db2-8781-c345307ed7b9"},"vehicle_type_id":"4","last_reported":1743408891,"current_range_meters":4400,"station_id":"ce4bhn92rcd13ifvqgrg","pricing_plan_id":"cebpf4jnsgd1na2vs0mg"},{"bike_id":"2347dd45-7dbc-492b-9fef-21927ca890d6","system_id":"levelo_inurba_marseille","lat":43.24069,"lon":5.37763,"is_reserved":false,"is_disabled":false,"rental_uris":{"android":"levelo://app?vid=2347dd45-7dbc-492b-9fef-21927ca890d6","ios":"levelo://app?vid=2347dd45-7dbc-492b-9fef-21927ca890d6"},"vehicle_type_id":"4","last_reported":1743408891,"current_range_meters":4800,"station_id":"ce4bhnp2rcd13ifvqgvg","pricing_plan_id":"cebpf4jnsgd1na2vs0mg"},{"bike_id":"d0ed36b4-3c5a-4da6-8fb4-955c321dd03a","system_id":"levelo_inurba_marseille","lat":43.27506,"lon":5.41044,"is_reserved":false,"is_disabled":false,"rental_uris":{"android":"levelo://app?vid=d0ed36b4-3c5a-4da6-8fb4-955c321dd03a","ios":"levelo://app?vid=d0ed36b4-3c5a-4da6-8fb4-955c321dd03a"},"vehicle_type_id":"4","last_reported":1743408891,"current_range_meters":5600,"station_id":"","pricing_plan_id":"cebpf4jnsgd1na2vs0mg"},{"bike_id":"e05eecd9-dd18-4661-982c-757885224b03","system_id":"levelo_inurba_marseille","lat":43.30142,"lon":5.37422,"is_reserved":false,"is_disabled":false,"rental_uris":{"android":"levelo://app?vid=e05eecd9-dd18-4661-982c-757885224b03","ios":"levelo://app?vid=e05eecd9-dd18-4661-982c-757885224b03"},"vehicle_type_id":"4","last_reported":1743408891,"current_range_meters":5600,"station_id":"ce4bgs92rcd13ifvqcc0","pricing_plan_id":"cebpf4jnsgd1na2vs0mg"},{"bike_id":"d267b0a9-b0b7-4ded-8a07-edfb8e7bae2a","system_id":"levelo_inurba_marseille","lat":43.269531,"lon":5.386285,"is_reserved":false,"is_disabled":false,"rental_uris":{"android":"levelo://app?vid=d267b0a9-b0b7-4ded-8a07-edfb8e7bae2a","ios":"levelo://app?vid=d267b0a9-b0b7-4ded-8a07-edfb8e7bae2a"},"vehicle_type_id":"4","last_reported":1743408891,"current_range_meters":5600,"station_id":"ce4bhgp2rcd13ifvqfe0","pricing_plan_id":"cebpf4jnsgd1na2vs0mg"},{"bike_id":"bd941b2d-2cb5-472c-998b-f4462c0a8cac","system_id":"levelo_inurba_marseille","lat":43.27936,"lon":5.41054,"is_reserved":false,"is_disabled":false,"rental_uris":{"android":"levelo://app?vid=bd941b2d-2cb5-472c-998b-f4462c0a8cac","ios":"levelo://app?vid=bd941b2d-2cb5-472c-998b-f4462c0a8cac"},"vehicle_type_id":"4","last_reported":1743408891,"current_range_meters":5600,"station_id":"ce4bhnp2rcd13ifvqh0g","pricing_plan_id":"cebpf4jnsgd1na2vs0mg"},{"bike_id":"ad0dcdb8-2fef-4f97-be96-f63a93e62e4f","system_id":"levelo_inurba_marseille","lat":43.3253,"lon":5.41454,"is_reserved":false,"is_disabled":false,"rental_uris":{"android":"levelo://app?vid=ad0dcdb8-2fef-4f97-be96-f63a93e62e4f","ios":"levelo://app?vid=ad0dcdb8-2fef-4f97-be96-f63a93e62e4f"},"vehicle_type_id":"4","last_reported":1743408891,"current_range_meters":5600,"station_id":"ce4bhq12rcd13ifvqhhg","pricing_plan_id":"cebpf4jnsgd1na2vs0mg"},{"bike_id":"09652dc6-223f-491a-a1ce-7f1a323d102e","system_id":"levelo_inurba_marseille","lat":43.30493,"lon":5.3656,"is_reserved":false,"is_disabled":false,"rental_uris":{"android":"levelo://app?vid=09652dc6-223f-491a-a1ce-7f1a323d102e","ios":"levelo://app?vid=09652dc6-223f-491a-a1ce-7f1a323d102e"},"vehicle_type_id":"4","last_reported":1743408891,"current_range_meters":6000,"station_id":"","pricing_plan_id":"cebpf4jnsgd1na2vs0mg"},{"bike_id":"17883c73-0f61-452e-9f07-988d5933a738","system_id":"levelo_inurba_marseille","lat":43.27068,"lon":5.4228,"is_reserved":false,"is_disabled":false,"rental_uris":{"android":"levelo://app?vid=17883c73-0f61-452e-9f07-988d5933a738","ios":"levelo://app?vid=17883c73-0f61-452e-9f07-988d5933a738"},"vehicle_type_id":"4","last_reported":1743408891,"current_range_meters":6000,"station_id":"ce4bhk92rcd13ifvqgb0","pricing_plan_id":"cebpf4jnsgd1na2vs0mg"},{"bike_id":"b4bc347a-bb26-4c89-8d6a-c921d8fe09f0","system_id":"levelo_inurba_marseille","lat":43.29615,"lon":5.37732,"is_reserved":false,"is_disabled":false,"rental_uris":{"android":"levelo://app?vid=b4bc347a-bb26-4c89-8d6a-c921d8fe09f0","ios":"levelo://app?vid=b4bc347a-bb26-4c89-8d6a-c921d8fe09f0"},"vehicle_type_id":"4","last_reported":1743408891,"current_range_meters":6400,"station_id":"ce4bgi92rcd13ifvqb90","pricing_plan_id":"cebpf4jnsgd1na2vs0mg"},{"bike_id":"c3a88a09-6aeb-46c3-adf6-0238dc7d72de","system_id":"levelo_inurba_marseille","lat":43.30948,"lon":5.39037,"is_reserved":false,"is_disabled":false,"rental_uris":{"android":"levelo://app?vid=c3a88a09-6aeb-46c3-adf6-0238dc7d72de","ios":"levelo://app?vid=c3a88a09-6aeb-46c3-adf6-0238dc7d72de"},"vehicle_type_id":"4","last_reported":1743408891,"current_range_meters":6400,"station_id":"ce4bgup2rcd13ifvqco0","pricing_plan_id":"cebpf4jnsgd1na2vs0mg"},{"bike_id":"8c01b583-3164-4f82-8804-8c5644c3dc71","system_id":"levelo_inurba_marseille","lat":43.29033,"lon":5.37559,"is_reserved":false,"is_disabled":false,"rental_uris":{"android":"levelo://app?vid=8c01b583-3164-4f82-8804-8c5644c3dc71","ios":"levelo://app?vid=8c01b583-3164-4f82-8804-8c5644c3dc71"},"vehicle_type_id":"4","last_reported":1743408891,"current_range_meters":6400,"station_id":"ce4bh692rcd13ifvqe90","pricing_plan_id":"cebpf4jnsgd1na2vs0mg"},{"bike_id":"bcd485f6-d8de-41ca-87c8-be90ba9ba7fd","system_id":"levelo_inurba_marseille","lat":43.25496,"lon":5.37649,"is_reserved":false,"is_disabled":false,"rental_uris":{"android":"levelo://app?vid=bcd485f6-d8de-41ca-87c8-be90ba9ba7fd","ios":"levelo://app?vid=bcd485f6-d8de-41ca-87c8-be90ba9ba7fd"},"vehicle_type_id":"4","last_reported":1743408891,"current_range_meters":6400,"station_id":"ce4bhh12rcd13ifvqff0","pricing_plan_id":"cebpf4jnsgd1na2vs0mg"},{"bike_id":"c4561ed7-b86f-48be-8a0f-6fcd3a34f661","system_id":"levelo_inurba_marseille","lat":43.27055,"lon":5.42281,"is_reserved":false,"is_disabled":false,"rental_uris":{"android":"levelo://app?vid=c4561ed7-b86f-48be-8a0f-6fcd3a34f661","ios":"levelo://app?vid=c4561ed7-b86f-48be-8a0f-6fcd3a34f661"},"vehicle_type_id":"4","last_reported":1743408891,"current_range_meters":6400,"station_id":"ce4bhk92rcd13ifvqgb0","pricing_plan_id":"cebpf4jnsgd1na2vs0mg"},{"bike_id":"3d559752-4124-4304-bce2-0b863e5a6dbe","system_id":"levelo_inurba_marseille","lat":43.25715,"lon":5.41106,"is_reserved":false,"is_disabled":false,"rental_uris":{"android":"levelo://app?vid=3d559752-4124-4304-bce2-0b863e5a6dbe","ios":"levelo://app?vid=3d559752-4124-4304-bce2-0b863e5a6dbe"},"vehicle_type_id":"4","last_reported":1743408891,"current_range_meters":6400,"station_id":"ce4bhkp2rcd13ifvqgd0","pricing_plan_id":"cebpf4jnsgd1na2vs0mg"},{"bike_id":"36438f87-de35-42e6-84d1-312e6a8359ec","system_id":"levelo_inurba_marseille","lat":43.24183,"lon":5.3972,"is_reserved":false,"is_disabled":false,"rental_uris":{"android":"levelo://app?vid=36438f87-de35-42e6-84d1-312e6a8359ec","ios":"levelo://app?vid=36438f87-de35-42e6-84d1-312e6a8359ec"},"vehicle_type_id":"4","last_reported":1743408891,"current_range_meters":6400,"station_id":"ce4bhn12rcd13ifvqgpg","pricing_plan_id":"cebpf4jnsgd1na2vs0mg"},{"bike_id":"a0877a99-dff5-4bb5-9a72-6d3f9e9b6583","system_id":"levelo_inurba_marseille","lat":43.24084,"lon":5.37758,"is_reserved":false,"is_disabled":false,"rental_uris":{"android":"levelo://app?vid=a0877a99-dff5-4bb5-9a72-6d3f9e9b6583","ios":"levelo://app?vid=a0877a99-dff5-4bb5-9a72-6d3f9e9b6583"},"vehicle_type_id":"4","last_reported":1743408891,"current_range_meters":6400,"station_id":"ce4bhnp2rcd13ifvqgvg","pricing_plan_id":"cebpf4jnsgd1na2vs0mg"},{"bike_id":"e869839a-584c-44dd-9f87-f1e728d99764","system_id":"levelo_inurba_marseille","lat":43.27951,"lon":5.38739,"is_reserved":false,"is_disabled":false,"rental_uris":{"android":"levelo://app?vid=e869839a-584c-44dd-9f87-f1e728d99764","ios":"levelo://app?vid=e869839a-584c-44dd-9f87-f1e728d99764"},"vehicle_type_id":"4","last_reported":1743408891,"current_range_meters":6800,"station_id":"ce4bhg12rcd13ifvqf80","pricing_plan_id":"cebpf4jnsgd1na2vs0mg"},{"bike_id":"93b55f3d-b1dd-4f3f-b1f6-f78029e736da","system_id":"levelo_inurba_marseille","lat":43.23126,"lon":5.43723,"is_reserved":false,"is_disabled":false,"rental_uris":{"android":"levelo://app?vid=93b55f3d-b1dd-4f3f-b1f6-f78029e736da","ios":"levelo://app?vid=93b55f3d-b1dd-4f3f-b1f6-f78029e736da"},"vehicle_type_id":"4","last_reported":1743408891,"current_range_meters":6800,"station_id":"ce4bhmp2rcd13ifvqgog","pricing_plan_id":"cebpf4jnsgd1na2vs0mg"},{"bike_id":"4dd45f49-d275-4d2d-b375-f5f9b3521828","system_id":"levelo_inurba_marseille","lat":43.29257,"lon":5.37627,"is_reserved":false,"is_disabled":false,"rental_uris":{"android":"levelo://app?vid=4dd45f49-d275-4d2d-b375-f5f9b3521828","ios":"levelo://app?vid=4dd45f49-d275-4d2d-b375-f5f9b3521828"},"vehicle_type_id":"4","last_reported":1743408891,"current_range_meters":7200,"station_id":"ce4bgi12rcd13ifvqb80","pricing_plan_id":"cebpf4jnsgd1na2vs0mg"},{"bike_id":"33a2857d-fc02-4112-94e5-d394d3d364f0","system_id":"levelo_inurba_marseille","lat":43.3122,"lon":5.36873,"is_reserved":false,"is_disabled":false,"rental_uris":{"android":"levelo://app?vid=33a2857d-fc02-4112-94e5-d394d3d364f0","ios":"levelo://app?vid=33a2857d-fc02-4112-94e5-d394d3d364f0"},"vehicle_type_id":"4","last_reported":1743408891,"current_range_meters":7200,"station_id":"ce4bgl92rcd13ifvqbq0","pricing_plan_id":"cebpf4jnsgd1na2vs0mg"},{"bike_id":"26febead-b7d3-4531-87e0-18f41eca5408","system_id":"levelo_inurba_marseille","lat":43.29853,"lon":5.36282,"is_reserved":false,"is_disabled":false,"rental_uris":{"android":"levelo://app?vid=26febead-b7d3-4531-87e0-18f41eca5408","ios":"levelo://app?vid=26febead-b7d3-4531-87e0-18f41eca5408"},"vehicle_type_id":"4","last_reported":1743408891,"current_range_meters":7200,"station_id":"ce4bgpp2rcd13ifvqc3g","pricing_plan_id":"cebpf4jnsgd1na2vs0mg"},{"bike_id":"54c84428-af22-4e0d-9bea-3095a198f30e","system_id":"levelo_inurba_marseille","lat":43.30274,"lon":5.37716,"is_reserved":false,"is_disabled":false,"rental_uris":{"android":"levelo://app?vid=54c84428-af22-4e0d-9bea-3095a198f30e","ios":"levelo://app?vid=54c84428-af22-4e0d-9bea-3095a198f30e"},"vehicle_type_id":"4","last_reported":1743408891,"current_range_meters":7200,"station_id":"ce4bguh2rcd13ifvqcj0","pricing_plan_id":"cebpf4jnsgd1na2vs0mg"},{"bike_id":"6abfcf76-b46b-48ec-9741-222295465860","system_id":"levelo_inurba_marseille","lat":43.28609,"lon":5.37067,"is_reserved":false,"is_disabled":false,"rental_uris":{"android":"levelo://app?vid=6abfcf76-b46b-48ec-9741-222295465860","ios":"levelo://app?vid=6abfcf76-b46b-48ec-9741-222295465860"},"vehicle_type_id":"4","last_reported":1743408891,"current_range_meters":7200,"station_id":"ce4bh312rcd13ifvqdj0","pricing_plan_id":"cebpf4jnsgd1na2vs0mg"},{"bike_id":"509fb611-063c-4fc4-aff2-e584985b7674","system_id":"levelo_inurba_marseille","lat":43.2901,"lon":5.40032,"is_reserved":false,"is_disabled":false,"rental_uris":{"android":"levelo://app?vid=509fb611-063c-4fc4-aff2-e584985b7674","ios":"levelo://app?vid=509fb611-063c-4fc4-aff2-e584985b7674"},"vehicle_type_id":"4","last_reported":1743408891,"current_range_meters":7200,"station_id":"ce4bh392rcd13ifvqdm0","pricing_plan_id":"cebpf4jnsgd1na2vs0mg"},{"bike_id":"462165b4-9992-42bc-9c38-53d3c96cbb1e","system_id":"levelo_inurba_marseille","lat":43.29027,"lon":5.37574,"is_reserved":false,"is_disabled":false,"rental_uris":{"android":"levelo://app?vid=462165b4-9992-42bc-9c38-53d3c96cbb1e","ios":"levelo://app?vid=462165b4-9992-42bc-9c38-53d3c96cbb1e"},"vehicle_type_id":"4","last_reported":1743408891,"current_range_meters":7200,"station_id":"ce4bh692rcd13ifvqe90","pricing_plan_id":"cebpf4jnsgd1na2vs0mg"},{"bike_id":"6cdbb536-49f2-47d2-beb4-5e7f7bcf5ad7","system_id":"levelo_inurba_marseille","lat":43.26201,"lon":5.37928,"is_reserved":false,"is_disabled":false,"rental_uris":{"android":"levelo://app?vid=6cdbb536-49f2-47d2-beb4-5e7f7bcf5ad7","ios":"levelo://app?vid=6cdbb536-49f2-47d2-beb4-5e7f7bcf5ad7"},"vehicle_type_id":"4","last_reported":1743408891,"current_range_meters":7200,"station_id":"ce4bhjp2rcd13ifvqg90","pricing_plan_id":"cebpf4jnsgd1na2vs0mg"},{"bike_id":"93944404-6abd-41a8-a24d-27485090d68c","system_id":"levelo_inurba_marseille","lat":43.25727,"lon":5.41104,"is_reserved":false,"is_disabled":false,"rental_uris":{"android":"levelo://app?vid=93944404-6abd-41a8-a24d-27485090d68c","ios":"levelo://app?vid=93944404-6abd-41a8-a24d-27485090d68c"},"vehicle_type_id":"4","last_reported":1743408891,"current_range_meters":7200,"station_id":"ce4bhkp2rcd13ifvqgd0","pricing_plan_id":"cebpf4jnsgd1na2vs0mg"},{"bike_id":"0a1ae682-1f0e-4453-a6f1-f229b4054c7e","system_id":"levelo_inurba_marseille","lat":43.27472,"lon":5.4247,"is_reserved":false,"is_disabled":false,"rental_uris":{"android":"levelo://app?vid=0a1ae682-1f0e-4453-a6f1-f229b4054c7e","ios":"levelo://app?vid=0a1ae682-1f0e-4453-a6f1-f229b4054c7e"},"vehicle_type_id":"4","last_reported":1743408891,"current_range_meters":7200,"station_id":"ce4bhn92rcd13ifvqgrg","pricing_plan_id":"cebpf4jnsgd1na2vs0mg"},{"bike_id":"2201fb24-281b-488f-b78d-a2cece1a8ca9","system_id":"levelo_inurba_marseille","lat":43.3048,"lon":5.36525,"is_reserved":false,"is_disabled":false,"rental_uris":{"android":"levelo://app?vid=2201fb24-281b-488f-b78d-a2cece1a8ca9","ios":"levelo://app?vid=2201fb24-281b-488f-b78d-a2cece1a8ca9"},"vehicle_type_id":"4","last_reported":1743408891,"current_range_meters":8000,"station_id":"ce4bgs12rcd13ifvqcag","pricing_plan_id":"cebpf4jnsgd1na2vs0mg"},{"bike_id":"55ef2532-64d8-4ba5-9c7f-6b9644e664d1","system_id":"levelo_inurba_marseille","lat":43.26957,"lon":5.38624,"is_reserved":false,"is_disabled":false,"rental_uris":{"android":"levelo://app?vid=55ef2532-64d8-4ba5-9c7f-6b9644e664d1","ios":"levelo://app?vid=55ef2532-64d8-4ba5-9c7f-6b9644e664d1"},"vehicle_type_id":"4","last_reported":1743408891,"current_range_meters":8000,"station_id":"ce4bhh92rcd13ifvqfh0","pricing_plan_id":"cebpf4jnsgd1na2vs0mg"},{"bike_id":"b4951ea6-9d4a-482a-9a29-5cb0fe6a6ed5","system_id":"levelo_inurba_marseille","lat":43.26953,"lon":5.38628,"is_reserved":false,"is_disabled":false,"rental_uris":{"android":"levelo://app?vid=b4951ea6-9d4a-482a-9a29-5cb0fe6a6ed5","ios":"levelo://app?vid=b4951ea6-9d4a-482a-9a29-5cb0fe6a6ed5"},"vehicle_type_id":"4","last_reported":1743408891,"current_range_meters":8000,"station_id":"ce4bhh92rcd13ifvqfh0","pricing_plan_id":"cebpf4jnsgd1na2vs0mg"},{"bike_id":"f7e1afd7-34d5-4304-8eac-0bfefea0f782","system_id":"levelo_inurba_marseille","lat":43.298762,"lon":5.397256,"is_reserved":false,"is_disabled":false,"rental_uris":{"android":"levelo://app?vid=f7e1afd7-34d5-4304-8eac-0bfefea0f782","ios":"levelo://app?vid=f7e1afd7-34d5-4304-8eac-0bfefea0f782"},"vehicle_type_id":"4","last_reported":1743408891,"current_range_meters":8400,"station_id":"","pricing_plan_id":"cebpf4jnsgd1na2vs0mg"},{"bike_id":"439f4368-0067-4ae0-9bbe-8fb21e09235c","system_id":"levelo_inurba_marseille","lat":43.29617,"lon":5.38098,"is_reserved":false,"is_disabled":false,"rental_uris":{"android":"levelo://app?vid=439f4368-0067-4ae0-9bbe-8fb21e09235c","ios":"levelo://app?vid=439f4368-0067-4ae0-9bbe-8fb21e09235c"},"vehicle_type_id":"4","last_reported":1743408891,"current_range_meters":8400,"station_id":"ce4bgl12rcd13ifvqbo0","pricing_plan_id":"cebpf4jnsgd1na2vs0mg"},{"bike_id":"dd30cc6b-f2bb-479b-8ee4-07ac8d36df64","system_id":"levelo_inurba_marseille","lat":43.30443,"lon":5.37913,"is_reserved":false,"is_disabled":false,"rental_uris":{"android":"levelo://app?vid=dd30cc6b-f2bb-479b-8ee4-07ac8d36df64","ios":"levelo://app?vid=dd30cc6b-f2bb-479b-8ee4-07ac8d36df64"},"vehicle_type_id":"4","last_reported":1743408891,"current_range_meters":8400,"station_id":"ce4bgup2rcd13ifvqcn0","pricing_plan_id":"cebpf4jnsgd1na2vs0mg"},{"bike_id":"485fb810-4bee-492b-9360-351fb118313e","system_id":"levelo_inurba_marseille","lat":43.25098,"lon":5.40334,"is_reserved":false,"is_disabled":false,"rental_uris":{"android":"levelo://app?vid=485fb810-4bee-492b-9360-351fb118313e","ios":"levelo://app?vid=485fb810-4bee-492b-9360-351fb118313e"},"vehicle_type_id":"4","last_reported":1743408891,"current_range_meters":8400,"station_id":"ce4bhlh2rcd13ifvqgig","pricing_plan_id":"cebpf4jnsgd1na2vs0mg"},{"bike_id":"452ee7ed-aed5-4f3a-80c1-b63ab3953967","system_id":"levelo_inurba_marseille","lat":43.27974,"lon":5.41029,"is_reserved":false,"is_disabled":false,"rental_uris":{"android":"levelo://app?vid=452ee7ed-aed5-4f3a-80c1-b63ab3953967","ios":"levelo://app?vid=452ee7ed-aed5-4f3a-80c1-b63ab3953967"},"vehicle_type_id":"4","last_reported":1743408891,"current_range_meters":8400,"station_id":"ce4bhnp2rcd13ifvqh0g","pricing_plan_id":"cebpf4jnsgd1na2vs0mg"},{"bike_id":"533dde56-3c6f-4b30-a6d4-69433b869256","system_id":"levelo_inurba_marseille","lat":43.28701,"lon":5.39992,"is_reserved":false,"is_disabled":false,"rental_uris":{"android":"levelo://app?vid=533dde56-3c6f-4b30-a6d4-69433b869256","ios":"levelo://app?vid=533dde56-3c6f-4b30-a6d4-69433b869256"},"vehicle_type_id":"4","last_reported":1743408891,"current_range_meters":8400,"station_id":"ce4bho92rcd13ifvqh3g","pricing_plan_id":"cebpf4jnsgd1na2vs0mg"},{"bike_id":"fcc742e0-4a68-45c1-a6a8-614596259f49","system_id":"levelo_inurba_marseille","lat":43.31991,"lon":5.38142,"is_reserved":false,"is_disabled":false,"rental_uris":{"android":"levelo://app?vid=fcc742e0-4a68-45c1-a6a8-614596259f49","ios":"levelo://app?vid=fcc742e0-4a68-45c1-a6a8-614596259f49"},"vehicle_type_id":"4","last_reported":1743408891,"current_range_meters":8400,"station_id":"ce4bhr12rcd13ifvqhpg","pricing_plan_id":"cebpf4jnsgd1na2vs0mg"},{"bike_id":"407b633a-987e-4722-b77a-993eaa06a6b7","system_id":"levelo_inurba_marseille","lat":43.31574,"lon":5.38837,"is_reserved":false,"is_disabled":false,"rental_uris":{"android":"levelo://app?vid=407b633a-987e-4722-b77a-993eaa06a6b7","ios":"levelo://app?vid=407b633a-987e-4722-b77a-993eaa06a6b7"},"vehicle_type_id":"4","last_reported":1743408891,"current_range_meters":8800,"station_id":"","pricing_plan_id":"cebpf4jnsgd1na2vs0mg"},{"bike_id":"362750b3-6733-46ac-a34d-f586b50f6397","system_id":"levelo_inurba_marseille","lat":43.26192,"lon":5.37448,"is_reserved":false,"is_disabled":false,"rental_uris":{"android":"levelo://app?vid=362750b3-6733-46ac-a34d-f586b50f6397","ios":"levelo://app?vid=362750b3-6733-46ac-a34d-f586b50f6397"},"vehicle_type_id":"4","last_reported":1743408891,"current_range_meters":8800,"station_id":"ce4bhgp2rcd13ifvqfc0","pricing_plan_id":"cebpf4jnsgd1na2vs0mg"},{"bike_id":"2403089b-07d2-4817-842f-5393e534470e","system_id":"levelo_inurba_marseille","lat":43.28014,"lon":5.41642,"is_reserved":false,"is_disabled":false,"rental_uris":{"android":"levelo://app?vid=2403089b-07d2-4817-842f-5393e534470e","ios":"levelo://app?vid=2403089b-07d2-4817-842f-5393e534470e"},"vehicle_type_id":"4","last_reported":1743408891,"current_range_meters":8800,"station_id":"ce4bho12rcd13ifvqh1g","pricing_plan_id":"cebpf4jnsgd1na2vs0mg"},{"bike_id":"6165c5e1-15f4-4779-ba2f-91df8ba3f8c0","system_id":"levelo_inurba_marseille","lat":43.289086,"lon":5.430014,"is_reserved":false,"is_disabled":false,"rental_uris":{"android":"levelo://app?vid=6165c5e1-15f4-4779-ba2f-91df8ba3f8c0","ios":"levelo://app?vid=6165c5e1-15f4-4779-ba2f-91df8ba3f8c0"},"vehicle_type_id":"4","last_reported":1743408891,"current_range_meters":9200,"station_id":"","pricing_plan_id":"cebpf4jnsgd1na2vs0mg"},{"bike_id":"204ecd7d-d79a-4494-8305-7c83c69add7d","system_id":"levelo_inurba_marseille","lat":43.25661,"lon":5.41993,"is_reserved":false,"is_disabled":false,"rental_uris":{"android":"levelo://app?vid=204ecd7d-d79a-4494-8305-7c83c69add7d","ios":"levelo://app?vid=204ecd7d-d79a-4494-8305-7c83c69add7d"},"vehicle_type_id":"4","last_reported":1743408891,"current_range_meters":9200,"station_id":"","pricing_plan_id":"cebpf4jnsgd1na2vs0mg"},{"bike_id":"896c03c5-4046-4a80-811b-98f1d1e46181","system_id":"levelo_inurba_marseille","lat":43.29968,"lon":5.38497,"is_reserved":false,"is_disabled":false,"rental_uris":{"android":"levelo://app?vid=896c03c5-4046-4a80-811b-98f1d1e46181","ios":"levelo://app?vid=896c03c5-4046-4a80-811b-98f1d1e46181"},"vehicle_type_id":"4","last_reported":1743408891,"current_range_meters":9200,"station_id":"ce4bgj92rcd13ifvqbd0","pricing_plan_id":"cebpf4jnsgd1na2vs0mg"},{"bike_id":"0000c457-9203-4d96-82f2-30b50ba4dcc9","system_id":"levelo_inurba_marseille","lat":43.29846,"lon":5.36278,"is_reserved":false,"is_disabled":false,"rental_uris":{"android":"levelo://app?vid=0000c457-9203-4d96-82f2-30b50ba4dcc9","ios":"levelo://app?vid=0000c457-9203-4d96-82f2-30b50ba4dcc9"},"vehicle_type_id":"4","last_reported":1743408891,"current_range_meters":9200,"station_id":"ce4bgpp2rcd13ifvqc3g","pricing_plan_id":"cebpf4jnsgd1na2vs0mg"},{"bike_id":"13fb059c-d9d1-44d8-9622-37a0a44d382a","system_id":"levelo_inurba_marseille","lat":43.30306,"lon":5.3689,"is_reserved":false,"is_disabled":false,"rental_uris":{"android":"levelo://app?vid=13fb059c-d9d1-44d8-9622-37a0a44d382a","ios":"levelo://app?vid=13fb059c-d9d1-44d8-9622-37a0a44d382a"},"vehicle_type_id":"4","last_reported":1743408891,"current_range_meters":9200,"station_id":"ce4bgqh2rcd13ifvqc5g","pricing_plan_id":"cebpf4jnsgd1na2vs0mg"},{"bike_id":"24a68f22-ba49-460d-89d5-8370e5f18716","system_id":"levelo_inurba_marseille","lat":43.284728,"lon":5.384169,"is_reserved":false,"is_disabled":false,"rental_uris":{"android":"levelo://app?vid=24a68f22-ba49-460d-89d5-8370e5f18716","ios":"levelo://app?vid=24a68f22-ba49-460d-89d5-8370e5f18716"},"vehicle_type_id":"4","last_reported":1743408891,"current_range_meters":9200,"station_id":"ce4bh512rcd13ifvqe3g","pricing_plan_id":"cebpf4jnsgd1na2vs0mg"},{"bike_id":"2256a5a9-cce1-418d-8e93-736359c5f021","system_id":"levelo_inurba_marseille","lat":43.231528,"lon":5.437133,"is_reserved":false,"is_disabled":false,"rental_uris":{"android":"levelo://app?vid=2256a5a9-cce1-418d-8e93-736359c5f021","ios":"levelo://app?vid=2256a5a9-cce1-418d-8e93-736359c5f021"},"vehicle_type_id":"4","last_reported":1743408891,"current_range_meters":9200,"station_id":"ce4bhmp2rcd13ifvqgog","pricing_plan_id":"cebpf4jnsgd1na2vs0mg"},{"bike_id":"4a828261-0526-4091-b3bb-177ad003bab5","system_id":"levelo_inurba_marseille","lat":43.24071,"lon":5.37745,"is_reserved":false,"is_disabled":false,"rental_uris":{"android":"levelo://app?vid=4a828261-0526-4091-b3bb-177ad003bab5","ios":"levelo://app?vid=4a828261-0526-4091-b3bb-177ad003bab5"},"vehicle_type_id":"4","last_reported":1743408891,"current_range_meters":9200,"station_id":"ce4bhnp2rcd13ifvqgvg","pricing_plan_id":"cebpf4jnsgd1na2vs0mg"},{"bike_id":"99e7d147-e2b6-4982-8a11-f600737d5497","system_id":"levelo_inurba_marseille","lat":43.3167,"lon":5.36691,"is_reserved":false,"is_disabled":false,"rental_uris":{"android":"levelo://app?vid=99e7d147-e2b6-4982-8a11-f600737d5497","ios":"levelo://app?vid=99e7d147-e2b6-4982-8a11-f600737d5497"},"vehicle_type_id":"4","last_reported":1743408891,"current_range_meters":9600,"station_id":"","pricing_plan_id":"cebpf4jnsgd1na2vs0mg"},{"bike_id":"ba1107aa-9b1f-4710-bb75-05314e757fc6","system_id":"levelo_inurba_marseille","lat":43.31665,"lon":5.3725,"is_reserved":false,"is_disabled":false,"rental_uris":{"android":"levelo://app?vid=ba1107aa-9b1f-4710-bb75-05314e757fc6","ios":"levelo://app?vid=ba1107aa-9b1f-4710-bb75-05314e757fc6"},"vehicle_type_id":"4","last_reported":1743408891,"current_range_meters":9600,"station_id":"","pricing_plan_id":"cebpf4jnsgd1na2vs0mg"},{"bike_id":"33418f73-7fdd-4e9c-8fe0-3fdc605e2e59","system_id":"levelo_inurba_marseille","lat":43.29717,"lon":5.36611,"is_reserved":false,"is_disabled":false,"rental_uris":{"android":"levelo://app?vid=33418f73-7fdd-4e9c-8fe0-3fdc605e2e59","ios":"levelo://app?vid=33418f73-7fdd-4e9c-8fe0-3fdc605e2e59"},"vehicle_type_id":"4","last_reported":1743408891,"current_range_meters":9600,"station_id":"ce4bgn12rcd13ifvqbt0","pricing_plan_id":"cebpf4jnsgd1na2vs0mg"},{"bike_id":"f2a56113-b575-48a0-9729-f6dce5639030","system_id":"levelo_inurba_marseille","lat":43.29862,"lon":5.363,"is_reserved":false,"is_disabled":false,"rental_uris":{"android":"levelo://app?vid=f2a56113-b575-48a0-9729-f6dce5639030","ios":"levelo://app?vid=f2a56113-b575-48a0-9729-f6dce5639030"},"vehicle_type_id":"4","last_reported":1743408891,"current_range_meters":9600,"station_id":"ce4bgpp2rcd13ifvqc3g","pricing_plan_id":"cebpf4jnsgd1na2vs0mg"},{"bike_id":"1ca654ae-dc4d-4362-acdb-676b4062b92d","system_id":"levelo_inurba_marseille","lat":43.30301,"lon":5.36895,"is_reserved":false,"is_disabled":false,"rental_uris":{"android":"levelo://app?vid=1ca654ae-dc4d-4362-acdb-676b4062b92d","ios":"levelo://app?vid=1ca654ae-dc4d-4362-acdb-676b4062b92d"},"vehicle_type_id":"4","last_reported":1743408891,"current_range_meters":9600,"station_id":"ce4bgqh2rcd13ifvqc5g","pricing_plan_id":"cebpf4jnsgd1na2vs0mg"},{"bike_id":"98b892af-cbde-4675-aa9a-1de5c1a9a362","system_id":"levelo_inurba_marseille","lat":43.30461,"lon":5.37905,"is_reserved":false,"is_disabled":false,"rental_uris":{"android":"levelo://app?vid=98b892af-cbde-4675-aa9a-1de5c1a9a362","ios":"levelo://app?vid=98b892af-cbde-4675-aa9a-1de5c1a9a362"},"vehicle_type_id":"4","last_reported":1743408891,"current_range_meters":9600,"station_id":"ce4bgup2rcd13ifvqcn0","pricing_plan_id":"cebpf4jnsgd1na2vs0mg"},{"bike_id":"293a5c20-f3ad-4092-8137-f8d20f9a3d01","system_id":"levelo_inurba_marseille","lat":43.29041,"lon":5.37562,"is_reserved":false,"is_disabled":false,"rental_uris":{"android":"levelo://app?vid=293a5c20-f3ad-4092-8137-f8d20f9a3d01","ios":"levelo://app?vid=293a5c20-f3ad-4092-8137-f8d20f9a3d01"},"vehicle_type_id":"4","last_reported":1743408891,"current_range_meters":9600,"station_id":"ce4bh692rcd13ifvqe90","pricing_plan_id":"cebpf4jnsgd1na2vs0mg"},{"bike_id":"34c70963-3230-4cbc-8478-6d3fe10dcd94","system_id":"levelo_inurba_marseille","lat":43.25575,"lon":5.38226,"is_reserved":false,"is_disabled":false,"rental_uris":{"android":"levelo://app?vid=34c70963-3230-4cbc-8478-6d3fe10dcd94","ios":"levelo://app?vid=34c70963-3230-4cbc-8478-6d3fe10dcd94"},"vehicle_type_id":"4","last_reported":1743408891,"current_range_meters":9600,"station_id":"ce4bhih2rcd13ifvqfs0","pricing_plan_id":"cebpf4jnsgd1na2vs0mg"},{"bike_id":"b7fd714f-9e42-444f-b394-b6dda2cac0dc","system_id":"levelo_inurba_marseille","lat":43.23149,"lon":5.43705,"is_reserved":false,"is_disabled":false,"rental_uris":{"android":"levelo://app?vid=b7fd714f-9e42-444f-b394-b6dda2cac0dc","ios":"levelo://app?vid=b7fd714f-9e42-444f-b394-b6dda2cac0dc"},"vehicle_type_id":"4","last_reported":1743408891,"current_range_meters":9600,"station_id":"ce4bhmp2rcd13ifvqgog","pricing_plan_id":"cebpf4jnsgd1na2vs0mg"},{"bike_id":"5f4b6dec-c8cd-4fba-a769-4892a6dbdf94","system_id":"levelo_inurba_marseille","lat":43.28124,"lon":5.39852,"is_reserved":false,"is_disabled":false,"rental_uris":{"android":"levelo://app?vid=5f4b6dec-c8cd-4fba-a769-4892a6dbdf94","ios":"levelo://app?vid=5f4b6dec-c8cd-4fba-a769-4892a6dbdf94"},"vehicle_type_id":"4","last_reported":1743408891,"current_range_meters":10000,"station_id":"","pricing_plan_id":"cebpf4jnsgd1na2vs0mg"},{"bike_id":"7ac531af-010d-489d-8a89-6a3dd0b1274d","system_id":"levelo_inurba_marseille","lat":43.30569,"lon":5.36522,"is_reserved":false,"is_disabled":false,"rental_uris":{"android":"levelo://app?vid=7ac531af-010d-489d-8a89-6a3dd0b1274d","ios":"levelo://app?vid=7ac531af-010d-489d-8a89-6a3dd0b1274d"},"vehicle_type_id":"4","last_reported":1743408891,"current_range_meters":10000,"station_id":"ce4bgs12rcd13ifvqcag","pricing_plan_id":"cebpf4jnsgd1na2vs0mg"},{"bike_id":"defd705a-8835-46dc-8f63-a6f0e6acccb7","system_id":"levelo_inurba_marseille","lat":43.31352,"lon":5.38494,"is_reserved":false,"is_disabled":false,"rental_uris":{"android":"levelo://app?vid=defd705a-8835-46dc-8f63-a6f0e6acccb7","ios":"levelo://app?vid=defd705a-8835-46dc-8f63-a6f0e6acccb7"},"vehicle_type_id":"4","last_reported":1743408891,"current_range_meters":10000,"station_id":"ce4bgt92rcd13ifvqcf0","pricing_plan_id":"cebpf4jnsgd1na2vs0mg"},{"bike_id":"4966eb0c-ab43-4658-bd97-127c031a4fc7","system_id":"levelo_inurba_marseille","lat":43.29874,"lon":5.39751,"is_reserved":false,"is_disabled":false,"rental_uris":{"android":"levelo://app?vid=4966eb0c-ab43-4658-bd97-127c031a4fc7","ios":"levelo://app?vid=4966eb0c-ab43-4658-bd97-127c031a4fc7"},"vehicle_type_id":"4","last_reported":1743408891,"current_range_meters":10000,"station_id":"ce4bh0h2rcd13ifvqd50","pricing_plan_id":"cebpf4jnsgd1na2vs0mg"},{"bike_id":"857a583c-74a9-48cd-a3c8-26f5b55e1e2b","system_id":"levelo_inurba_marseille","lat":43.296295,"lon":5.405232,"is_reserved":false,"is_disabled":false,"rental_uris":{"android":"levelo://app?vid=857a583c-74a9-48cd-a3c8-26f5b55e1e2b","ios":"levelo://app?vid=857a583c-74a9-48cd-a3c8-26f5b55e1e2b"},"vehicle_type_id":"4","last_reported":1743408891,"current_range_meters":10000,"station_id":"ce4bh0h2rcd13ifvqd60","pricing_plan_id":"cebpf4jnsgd1na2vs0mg"},{"bike_id":"81a0b184-8ce0-4d8f-8ffc-54543a8d534f","system_id":"levelo_inurba_marseille","lat":43.29023,"lon":5.39967,"is_reserved":false,"is_disabled":false,"rental_uris":{"android":"levelo://app?vid=81a0b184-8ce0-4d8f-8ffc-54543a8d534f","ios":"levelo://app?vid=81a0b184-8ce0-4d8f-8ffc-54543a8d534f"},"vehicle_type_id":"4","last_reported":1743408891,"current_range_meters":10000,"station_id":"ce4bh392rcd13ifvqdm0","pricing_plan_id":"cebpf4jnsgd1na2vs0mg"},{"bike_id":"121010d1-d0ea-475b-97a6-f9054736109c","system_id":"levelo_inurba_marseille","lat":43.23185,"lon":5.39978,"is_reserved":false,"is_disabled":false,"rental_uris":{"android":"levelo://app?vid=121010d1-d0ea-475b-97a6-f9054736109c","ios":"levelo://app?vid=121010d1-d0ea-475b-97a6-f9054736109c"},"vehicle_type_id":"4","last_reported":1743408891,"current_range_meters":10000,"station_id":"ce4bhn12rcd13ifvqgqg","pricing_plan_id":"cebpf4jnsgd1na2vs0mg"},{"bike_id":"3c6db3b8-510e-4a3d-8aa9-2a8f5b93957a","system_id":"levelo_inurba_marseille","lat":43.2408,"lon":5.3777,"is_reserved":false,"is_disabled":false,"rental_uris":{"android":"levelo://app?vid=3c6db3b8-510e-4a3d-8aa9-2a8f5b93957a","ios":"levelo://app?vid=3c6db3b8-510e-4a3d-8aa9-2a8f5b93957a"},"vehicle_type_id":"4","last_reported":1743408891,"current_range_meters":10000,"station_id":"ce4bhnp2rcd13ifvqgvg","pricing_plan_id":"cebpf4jnsgd1na2vs0mg"},{"bike_id":"341d26e9-deb8-4988-a8c3-6444c1157e68","system_id":"levelo_inurba_marseille","lat":43.30146,"lon":5.38092,"is_reserved":false,"is_disabled":false,"rental_uris":{"android":"levelo://app?vid=341d26e9-deb8-4988-a8c3-6444c1157e68","ios":"levelo://app?vid=341d26e9-deb8-4988-a8c3-6444c1157e68"},"vehicle_type_id":"4","last_reported":1743408891,"current_range_meters":10800,"station_id":"ce4bgjp2rcd13ifvqbh0","pricing_plan_id":"cebpf4jnsgd1na2vs0mg"},{"bike_id":"abe50da3-d276-4e2d-89dc-4ba535cd6c8e","system_id":"levelo_inurba_marseille","lat":43.30886,"lon":5.36885,"is_reserved":false,"is_disabled":false,"rental_uris":{"android":"levelo://app?vid=abe50da3-d276-4e2d-89dc-4ba535cd6c8e","ios":"levelo://app?vid=abe50da3-d276-4e2d-89dc-4ba535cd6c8e"},"vehicle_type_id":"4","last_reported":1743408891,"current_range_meters":10800,"station_id":"ce4bgn92rcd13ifvqbvg","pricing_plan_id":"cebpf4jnsgd1na2vs0mg"},{"bike_id":"af4f17f1-87e6-478a-84d3-2995975b855c","system_id":"levelo_inurba_marseille","lat":43.30292,"lon":5.36891,"is_reserved":false,"is_disabled":false,"rental_uris":{"android":"levelo://app?vid=af4f17f1-87e6-478a-84d3-2995975b855c","ios":"levelo://app?vid=af4f17f1-87e6-478a-84d3-2995975b855c"},"vehicle_type_id":"4","last_reported":1743408891,"current_range_meters":10800,"station_id":"ce4bgqh2rcd13ifvqc5g","pricing_plan_id":"cebpf4jnsgd1na2vs0mg"},{"bike_id":"3800d769-17c9-4494-95dc-dead0e353753","system_id":"levelo_inurba_marseille","lat":43.26945,"lon":5.3865,"is_reserved":false,"is_disabled":false,"rental_uris":{"android":"levelo://app?vid=3800d769-17c9-4494-95dc-dead0e353753","ios":"levelo://app?vid=3800d769-17c9-4494-95dc-dead0e353753"},"vehicle_type_id":"4","last_reported":1743408891,"current_range_meters":10800,"station_id":"ce4bhh92rcd13ifvqfh0","pricing_plan_id":"cebpf4jnsgd1na2vs0mg"},{"bike_id":"861fba4a-9c12-463c-8a39-b4a694ea5d40","system_id":"levelo_inurba_marseille","lat":43.23969,"lon":5.36624,"is_reserved":false,"is_disabled":false,"rental_uris":{"android":"levelo://app?vid=861fba4a-9c12-463c-8a39-b4a694ea5d40","ios":"levelo://app?vid=861fba4a-9c12-463c-8a39-b4a694ea5d40"},"vehicle_type_id":"4","last_reported":1743408891,"current_range_meters":10800,"station_id":"ce4bhi12rcd13ifvqfp0","pricing_plan_id":"cebpf4jnsgd1na2vs0mg"},{"bike_id":"3510f364-9b24-465b-b8ed-9136aea48c22","system_id":"levelo_inurba_marseille","lat":43.27057,"lon":5.40263,"is_reserved":false,"is_disabled":false,"rental_uris":{"android":"levelo://app?vid=3510f364-9b24-465b-b8ed-9136aea48c22","ios":"levelo://app?vid=3510f364-9b24-465b-b8ed-9136aea48c22"},"vehicle_type_id":"4","last_reported":1743408891,"current_range_meters":10800,"station_id":"ce4bhk92rcd13ifvqgc0","pricing_plan_id":"cebpf4jnsgd1na2vs0mg"},{"bike_id":"62159111-1332-4dcc-afcd-1edfcfc19e53","system_id":"levelo_inurba_marseille","lat":43.24081,"lon":5.37758,"is_reserved":false,"is_disabled":false,"rental_uris":{"android":"levelo://app?vid=62159111-1332-4dcc-afcd-1edfcfc19e53","ios":"levelo://app?vid=62159111-1332-4dcc-afcd-1edfcfc19e53"},"vehicle_type_id":"4","last_reported":1743408891,"current_range_meters":10800,"station_id":"ce4bhnp2rcd13ifvqgvg","pricing_plan_id":"cebpf4jnsgd1na2vs0mg"},{"bike_id":"0f8f638f-6c59-4dfb-ab4f-882d40e453aa","system_id":"levelo_inurba_marseille","lat":43.29292,"lon":5.42783,"is_reserved":false,"is_disabled":false,"rental_uris":{"android":"levelo://app?vid=0f8f638f-6c59-4dfb-ab4f-882d40e453aa","ios":"levelo://app?vid=0f8f638f-6c59-4dfb-ab4f-882d40e453aa"},"vehicle_type_id":"4","last_reported":1743408891,"current_range_meters":11200,"station_id":"","pricing_plan_id":"cebpf4jnsgd1na2vs0mg"},{"bike_id":"1503be96-3b00-41f1-9209-8a6dc82607e2","system_id":"levelo_inurba_marseille","lat":43.294716,"lon":5.375742,"is_reserved":false,"is_disabled":false,"rental_uris":{"android":"levelo://app?vid=1503be96-3b00-41f1-9209-8a6dc82607e2","ios":"levelo://app?vid=1503be96-3b00-41f1-9209-8a6dc82607e2"},"vehicle_type_id":"4","last_reported":1743408891,"current_range_meters":11200,"station_id":"ce4bgh92rcd13ifvqb40","pricing_plan_id":"cebpf4jnsgd1na2vs0mg"},{"bike_id":"d7cfebc7-00fc-4330-94c0-03c7088ec80b","system_id":"levelo_inurba_marseille","lat":43.29252,"lon":5.37619,"is_reserved":false,"is_disabled":false,"rental_uris":{"android":"levelo://app?vid=d7cfebc7-00fc-4330-94c0-03c7088ec80b","ios":"levelo://app?vid=d7cfebc7-00fc-4330-94c0-03c7088ec80b"},"vehicle_type_id":"4","last_reported":1743408891,"current_range_meters":11200,"station_id":"ce4bgi12rcd13ifvqb80","pricing_plan_id":"cebpf4jnsgd1na2vs0mg"},{"bike_id":"97707c1d-7495-47ff-969b-5fe8a9b7efe1","system_id":"levelo_inurba_marseille","lat":43.30461,"lon":5.37918,"is_reserved":false,"is_disabled":false,"rental_uris":{"android":"levelo://app?vid=97707c1d-7495-47ff-969b-5fe8a9b7efe1","ios":"levelo://app?vid=97707c1d-7495-47ff-969b-5fe8a9b7efe1"},"vehicle_type_id":"4","last_reported":1743408891,"current_range_meters":11200,"station_id":"ce4bgup2rcd13ifvqcn0","pricing_plan_id":"cebpf4jnsgd1na2vs0mg"},{"bike_id":"ad88fbf6-1851-477d-97e8-0266976c06e9","system_id":"levelo_inurba_marseille","lat":43.27321,"lon":5.39068,"is_reserved":false,"is_disabled":false,"rental_uris":{"android":"levelo://app?vid=ad88fbf6-1851-477d-97e8-0266976c06e9","ios":"levelo://app?vid=ad88fbf6-1851-477d-97e8-0266976c06e9"},"vehicle_type_id":"4","last_reported":1743408891,"current_range_meters":11200,"station_id":"ce4bhgp2rcd13ifvqfe0","pricing_plan_id":"cebpf4jnsgd1na2vs0mg"},{"bike_id":"a7429d4b-d46e-45ee-b120-43d67d2eb7c5","system_id":"levelo_inurba_marseille","lat":43.23151,"lon":5.43723,"is_reserved":false,"is_disabled":false,"rental_uris":{"android":"levelo://app?vid=a7429d4b-d46e-45ee-b120-43d67d2eb7c5","ios":"levelo://app?vid=a7429d4b-d46e-45ee-b120-43d67d2eb7c5"},"vehicle_type_id":"4","last_reported":1743408891,"current_range_meters":11200,"station_id":"ce4bhmp2rcd13ifvqgog","pricing_plan_id":"cebpf4jnsgd1na2vs0mg"},{"bike_id":"2bf31f9f-c5c0-434c-ab3b-b017d7dc966d","system_id":"levelo_inurba_marseille","lat":43.23053,"lon":5.35491,"is_reserved":false,"is_disabled":false,"rental_uris":{"android":"levelo://app?vid=2bf31f9f-c5c0-434c-ab3b-b017d7dc966d","ios":"levelo://app?vid=2bf31f9f-c5c0-434c-ab3b-b017d7dc966d"},"vehicle_type_id":"4","last_reported":1743408891,"current_range_meters":11200,"station_id":"cpo3342slgdg3j2ifvpg","pricing_plan_id":"cebpf4jnsgd1na2vs0mg"},{"bike_id":"90cb007e-3249-409c-adea-3934fec78da0","system_id":"levelo_inurba_marseille","lat":43.30433,"lon":5.36749,"is_reserved":false,"is_disabled":false,"rental_uris":{"android":"levelo://app?vid=90cb007e-3249-409c-adea-3934fec78da0","ios":"levelo://app?vid=90cb007e-3249-409c-adea-3934fec78da0"},"vehicle_type_id":"4","last_reported":1743408891,"current_range_meters":11600,"station_id":"ce4bgl92rcd13ifvqbq0","pricing_plan_id":"cebpf4jnsgd1na2vs0mg"},{"bike_id":"f6ab581c-a47e-45f1-a73a-b0b9671d8b2a","system_id":"levelo_inurba_marseille","lat":43.28474,"lon":5.3842,"is_reserved":false,"is_disabled":false,"rental_uris":{"android":"levelo://app?vid=f6ab581c-a47e-45f1-a73a-b0b9671d8b2a","ios":"levelo://app?vid=f6ab581c-a47e-45f1-a73a-b0b9671d8b2a"},"vehicle_type_id":"4","last_reported":1743408891,"current_range_meters":11600,"station_id":"ce4bh512rcd13ifvqe3g","pricing_plan_id":"cebpf4jnsgd1na2vs0mg"},{"bike_id":"1a130b3a-a65d-435d-a5a2-838d45f8e81b","system_id":"levelo_inurba_marseille","lat":43.24149,"lon":5.39714,"is_reserved":false,"is_disabled":false,"rental_uris":{"android":"levelo://app?vid=1a130b3a-a65d-435d-a5a2-838d45f8e81b","ios":"levelo://app?vid=1a130b3a-a65d-435d-a5a2-838d45f8e81b"},"vehicle_type_id":"4","last_reported":1743408891,"current_range_meters":11600,"station_id":"ce4bhn12rcd13ifvqgpg","pricing_plan_id":"cebpf4jnsgd1na2vs0mg"},{"bike_id":"8fa5fb11-10c8-4bed-b75c-83f4c72259ad","system_id":"levelo_inurba_marseille","lat":43.32338,"lon":5.36696,"is_reserved":false,"is_disabled":false,"rental_uris":{"android":"levelo://app?vid=8fa5fb11-10c8-4bed-b75c-83f4c72259ad","ios":"levelo://app?vid=8fa5fb11-10c8-4bed-b75c-83f4c72259ad"},"vehicle_type_id":"4","last_reported":1743408891,"current_range_meters":11600,"station_id":"ce4bhsh2rcd13ifvqi2g","pricing_plan_id":"cebpf4jnsgd1na2vs0mg"},{"bike_id":"51978973-8141-43c4-9a6c-b50852994e60","system_id":"levelo_inurba_marseille","lat":43.32359,"lon":5.38946,"is_reserved":false,"is_disabled":false,"rental_uris":{"android":"levelo://app?vid=51978973-8141-43c4-9a6c-b50852994e60","ios":"levelo://app?vid=51978973-8141-43c4-9a6c-b50852994e60"},"vehicle_type_id":"4","last_reported":1743408891,"current_range_meters":12000,"station_id":"","pricing_plan_id":"cebpf4jnsgd1na2vs0mg"},{"bike_id":"fb4b7257-a329-4750-8899-5218c646dc6a","system_id":"levelo_inurba_marseille","lat":43.30541,"lon":5.36536,"is_reserved":false,"is_disabled":false,"rental_uris":{"android":"levelo://app?vid=fb4b7257-a329-4750-8899-5218c646dc6a","ios":"levelo://app?vid=fb4b7257-a329-4750-8899-5218c646dc6a"},"vehicle_type_id":"4","last_reported":1743408891,"current_range_meters":12000,"station_id":"ce4bgs12rcd13ifvqcag","pricing_plan_id":"cebpf4jnsgd1na2vs0mg"},{"bike_id":"58b9fd00-34c5-42a3-a994-73b1d1fec80e","system_id":"levelo_inurba_marseille","lat":43.28351,"lon":5.38101,"is_reserved":false,"is_disabled":false,"rental_uris":{"android":"levelo://app?vid=58b9fd00-34c5-42a3-a994-73b1d1fec80e","ios":"levelo://app?vid=58b9fd00-34c5-42a3-a994-73b1d1fec80e"},"vehicle_type_id":"4","last_reported":1743408891,"current_range_meters":12000,"station_id":"ce4bh412rcd13ifvqdr0","pricing_plan_id":"cebpf4jnsgd1na2vs0mg"},{"bike_id":"c8575fcf-b8ab-4447-9a4f-a07c2f7b6bfa","system_id":"levelo_inurba_marseille","lat":43.28135,"lon":5.42676,"is_reserved":false,"is_disabled":false,"rental_uris":{"android":"levelo://app?vid=c8575fcf-b8ab-4447-9a4f-a07c2f7b6bfa","ios":"levelo://app?vid=c8575fcf-b8ab-4447-9a4f-a07c2f7b6bfa"},"vehicle_type_id":"4","last_reported":1743408891,"current_range_meters":12000,"station_id":"ce4bhnh2rcd13ifvqgug","pricing_plan_id":"cebpf4jnsgd1na2vs0mg"},{"bike_id":"24a26cc1-e86a-4373-bbfa-fe2533da907a","system_id":"levelo_inurba_marseille","lat":43.3054,"lon":5.36707,"is_reserved":false,"is_disabled":false,"rental_uris":{"android":"levelo://app?vid=24a26cc1-e86a-4373-bbfa-fe2533da907a","ios":"levelo://app?vid=24a26cc1-e86a-4373-bbfa-fe2533da907a"},"vehicle_type_id":"4","last_reported":1743408891,"current_range_meters":12400,"station_id":"ce4bgrp2rcd13ifvqc9g","pricing_plan_id":"cebpf4jnsgd1na2vs0mg"},{"bike_id":"ed8d7e84-fdf1-4cc8-a763-cd66731578af","system_id":"levelo_inurba_marseille","lat":43.30217,"lon":5.39472,"is_reserved":false,"is_disabled":false,"rental_uris":{"android":"levelo://app?vid=ed8d7e84-fdf1-4cc8-a763-cd66731578af","ios":"levelo://app?vid=ed8d7e84-fdf1-4cc8-a763-cd66731578af"},"vehicle_type_id":"4","last_reported":1743408891,"current_range_meters":12400,"station_id":"ce4bh0p2rcd13ifvqd70","pricing_plan_id":"cebpf4jnsgd1na2vs0mg"},{"bike_id":"6b71c936-cb56-4af7-9146-21a41f4f923f","system_id":"levelo_inurba_marseille","lat":43.290394,"lon":5.39971,"is_reserved":false,"is_disabled":false,"rental_uris":{"android":"levelo://app?vid=6b71c936-cb56-4af7-9146-21a41f4f923f","ios":"levelo://app?vid=6b71c936-cb56-4af7-9146-21a41f4f923f"},"vehicle_type_id":"4","last_reported":1743408891,"current_range_meters":12400,"station_id":"ce4bh392rcd13ifvqdm0","pricing_plan_id":"cebpf4jnsgd1na2vs0mg"},{"bike_id":"01afd06a-9522-4aeb-9a1a-2b17752bd1d9","system_id":"levelo_inurba_marseille","lat":43.28921,"lon":5.39637,"is_reserved":false,"is_disabled":false,"rental_uris":{"android":"levelo://app?vid=01afd06a-9522-4aeb-9a1a-2b17752bd1d9","ios":"levelo://app?vid=01afd06a-9522-4aeb-9a1a-2b17752bd1d9"},"vehicle_type_id":"4","last_reported":1743408891,"current_range_meters":12400,"station_id":"ce4bh3h2rcd13ifvqdn0","pricing_plan_id":"cebpf4jnsgd1na2vs0mg"},{"bike_id":"e3ed6a7b-116d-4bce-98f8-0c4519635233","system_id":"levelo_inurba_marseille","lat":43.31958,"lon":5.37456,"is_reserved":false,"is_disabled":false,"rental_uris":{"android":"levelo://app?vid=e3ed6a7b-116d-4bce-98f8-0c4519635233","ios":"levelo://app?vid=e3ed6a7b-116d-4bce-98f8-0c4519635233"},"vehicle_type_id":"4","last_reported":1743408891,"current_range_meters":12800,"station_id":"","pricing_plan_id":"cebpf4jnsgd1na2vs0mg"},{"bike_id":"7fc853a2-7ac2-4d60-8c3e-7edbf2b93f47","system_id":"levelo_inurba_marseille","lat":43.30804,"lon":5.37659,"is_reserved":false,"is_disabled":false,"rental_uris":{"android":"levelo://app?vid=7fc853a2-7ac2-4d60-8c3e-7edbf2b93f47","ios":"levelo://app?vid=7fc853a2-7ac2-4d60-8c3e-7edbf2b93f47"},"vehicle_type_id":"4","last_reported":1743408891,"current_range_meters":12800,"station_id":"ce4bgv92rcd13ifvqcq0","pricing_plan_id":"cebpf4jnsgd1na2vs0mg"},{"bike_id":"014e9dfa-e1e7-4a74-8165-54274e9b7d17","system_id":"levelo_inurba_marseille","lat":43.2794,"lon":5.41038,"is_reserved":false,"is_disabled":false,"rental_uris":{"android":"levelo://app?vid=014e9dfa-e1e7-4a74-8165-54274e9b7d17","ios":"levelo://app?vid=014e9dfa-e1e7-4a74-8165-54274e9b7d17"},"vehicle_type_id":"4","last_reported":1743408891,"current_range_meters":12800,"station_id":"ce4bhnp2rcd13ifvqh0g","pricing_plan_id":"cebpf4jnsgd1na2vs0mg"},{"bike_id":"c3689a63-1d58-4137-a12d-d7cbc439865c","system_id":"levelo_inurba_marseille","lat":43.27912,"lon":5.38328,"is_reserved":false,"is_disabled":false,"rental_uris":{"android":"levelo://app?vid=c3689a63-1d58-4137-a12d-d7cbc439865c","ios":"levelo://app?vid=c3689a63-1d58-4137-a12d-d7cbc439865c"},"vehicle_type_id":"4","last_reported":1743408891,"current_range_meters":13600,"station_id":"","pricing_plan_id":"cebpf4jnsgd1na2vs0mg"},{"bike_id":"fd63be84-051e-408d-b006-77fc7d83d3c7","system_id":"levelo_inurba_marseille","lat":43.32242,"lon":5.39421,"is_reserved":false,"is_disabled":false,"rental_uris":{"android":"levelo://app?vid=fd63be84-051e-408d-b006-77fc7d83d3c7","ios":"levelo://app?vid=fd63be84-051e-408d-b006-77fc7d83d3c7"},"vehicle_type_id":"4","last_reported":1743408891,"current_range_meters":13600,"station_id":"","pricing_plan_id":"cebpf4jnsgd1na2vs0mg"},{"bike_id":"29a7a33a-ba92-4de5-96dc-53f67156e633","system_id":"levelo_inurba_marseille","lat":43.30444,"lon":5.37918,"is_reserved":false,"is_disabled":false,"rental_uris":{"android":"levelo://app?vid=29a7a33a-ba92-4de5-96dc-53f67156e633","ios":"levelo://app?vid=29a7a33a-ba92-4de5-96dc-53f67156e633"},"vehicle_type_id":"4","last_reported":1743408891,"current_range_meters":13600,"station_id":"ce4bgup2rcd13ifvqcn0","pricing_plan_id":"cebpf4jnsgd1na2vs0mg"},{"bike_id":"2b480e4b-b8a7-4f29-8488-c72025a00414","system_id":"levelo_inurba_marseille","lat":43.3045,"lon":5.37901,"is_reserved":false,"is_disabled":false,"rental_uris":{"android":"levelo://app?vid=2b480e4b-b8a7-4f29-8488-c72025a00414","ios":"levelo://app?vid=2b480e4b-b8a7-4f29-8488-c72025a00414"},"vehicle_type_id":"4","last_reported":1743408891,"current_range_meters":13600,"station_id":"ce4bgup2rcd13ifvqcn0","pricing_plan_id":"cebpf4jnsgd1na2vs0mg"},{"bike_id":"bfe0e46c-8101-44b4-92c8-415ba878348e","system_id":"levelo_inurba_marseille","lat":43.26951,"lon":5.38628,"is_reserved":false,"is_disabled":false,"rental_uris":{"android":"levelo://app?vid=bfe0e46c-8101-44b4-92c8-415ba878348e","ios":"levelo://app?vid=bfe0e46c-8101-44b4-92c8-415ba878348e"},"vehicle_type_id":"4","last_reported":1743408891,"current_range_meters":13600,"station_id":"ce4bhh92rcd13ifvqfh0","pricing_plan_id":"cebpf4jnsgd1na2vs0mg"},{"bike_id":"33ac7997-e875-45e5-a20f-760ee6b4a597","system_id":"levelo_inurba_marseille","lat":43.25929,"lon":5.40903,"is_reserved":false,"is_disabled":false,"rental_uris":{"android":"levelo://app?vid=33ac7997-e875-45e5-a20f-760ee6b4a597","ios":"levelo://app?vid=33ac7997-e875-45e5-a20f-760ee6b4a597"},"vehicle_type_id":"4","last_reported":1743408891,"current_range_meters":13600,"station_id":"ce4bhm92rcd13ifvqglg","pricing_plan_id":"cebpf4jnsgd1na2vs0mg"},{"bike_id":"6722f85c-5cc6-440c-913d-79255823cb26","system_id":"levelo_inurba_marseille","lat":43.25931,"lon":5.40914,"is_reserved":false,"is_disabled":false,"rental_uris":{"android":"levelo://app?vid=6722f85c-5cc6-440c-913d-79255823cb26","ios":"levelo://app?vid=6722f85c-5cc6-440c-913d-79255823cb26"},"vehicle_type_id":"4","last_reported":1743408891,"current_range_meters":13600,"station_id":"ce4bhm92rcd13ifvqglg","pricing_plan_id":"cebpf4jnsgd1na2vs0mg"},{"bike_id":"d3b02bca-33c0-4a10-8686-2c253850c469","system_id":"levelo_inurba_marseille","lat":43.30647,"lon":5.40098,"is_reserved":false,"is_disabled":false,"rental_uris":{"android":"levelo://app?vid=d3b02bca-33c0-4a10-8686-2c253850c469","ios":"levelo://app?vid=d3b02bca-33c0-4a10-8686-2c253850c469"},"vehicle_type_id":"4","last_reported":1743408891,"current_range_meters":14000,"station_id":"ce4bh112rcd13ifvqda0","pricing_plan_id":"cebpf4jnsgd1na2vs0mg"},{"bike_id":"7600e00f-345b-474f-bf8f-5d0482aa16fc","system_id":"levelo_inurba_marseille","lat":43.2695,"lon":5.38642,"is_reserved":false,"is_disabled":false,"rental_uris":{"android":"levelo://app?vid=7600e00f-345b-474f-bf8f-5d0482aa16fc","ios":"levelo://app?vid=7600e00f-345b-474f-bf8f-5d0482aa16fc"},"vehicle_type_id":"4","last_reported":1743408891,"current_range_meters":14000,"station_id":"ce4bhh92rcd13ifvqfh0","pricing_plan_id":"cebpf4jnsgd1na2vs0mg"},{"bike_id":"038b527a-e308-42ff-9e81-b00006d08dda","system_id":"levelo_inurba_marseille","lat":43.28946,"lon":5.39633,"is_reserved":false,"is_disabled":false,"rental_uris":{"android":"levelo://app?vid=038b527a-e308-42ff-9e81-b00006d08dda","ios":"levelo://app?vid=038b527a-e308-42ff-9e81-b00006d08dda"},"vehicle_type_id":"4","last_reported":1743408891,"current_range_meters":14400,"station_id":"ce4bh3h2rcd13ifvqdn0","pricing_plan_id":"cebpf4jnsgd1na2vs0mg"},{"bike_id":"bc93c28e-bd0b-4371-a5bf-fa463d70be83","system_id":"levelo_inurba_marseille","lat":43.27218,"lon":5.39195,"is_reserved":false,"is_disabled":false,"rental_uris":{"android":"levelo://app?vid=bc93c28e-bd0b-4371-a5bf-fa463d70be83","ios":"levelo://app?vid=bc93c28e-bd0b-4371-a5bf-fa463d70be83"},"vehicle_type_id":"4","last_reported":1743408891,"current_range_meters":14400,"station_id":"ce4bhhp2rcd13ifvqfm0","pricing_plan_id":"cebpf4jnsgd1na2vs0mg"},{"bike_id":"563f1298-5e80-43d7-bd83-8b78e60378b3","system_id":"levelo_inurba_marseille","lat":43.30517,"lon":5.36555,"is_reserved":false,"is_disabled":false,"rental_uris":{"android":"levelo://app?vid=563f1298-5e80-43d7-bd83-8b78e60378b3","ios":"levelo://app?vid=563f1298-5e80-43d7-bd83-8b78e60378b3"},"vehicle_type_id":"4","last_reported":1743408891,"current_range_meters":14800,"station_id":"ce4bgs12rcd13ifvqcag","pricing_plan_id":"cebpf4jnsgd1na2vs0mg"},{"bike_id":"5c1550a0-7e88-4884-a91e-201c3a399a44","system_id":"levelo_inurba_marseille","lat":43.28708,"lon":5.39987,"is_reserved":false,"is_disabled":false,"rental_uris":{"android":"levelo://app?vid=5c1550a0-7e88-4884-a91e-201c3a399a44","ios":"levelo://app?vid=5c1550a0-7e88-4884-a91e-201c3a399a44"},"vehicle_type_id":"4","last_reported":1743408891,"current_range_meters":14800,"station_id":"ce4bho92rcd13ifvqh3g","pricing_plan_id":"cebpf4jnsgd1na2vs0mg"},{"bike_id":"c64e7ca7-5310-4c52-99b0-846521c60b8f","system_id":"levelo_inurba_marseille","lat":43.29793,"lon":5.38083,"is_reserved":false,"is_disabled":false,"rental_uris":{"android":"levelo://app?vid=c64e7ca7-5310-4c52-99b0-846521c60b8f","ios":"levelo://app?vid=c64e7ca7-5310-4c52-99b0-846521c60b8f"},"vehicle_type_id":"4","last_reported":1743408891,"current_range_meters":15200,"station_id":"ce4bgip2rcd13ifvqbb0","pricing_plan_id":"cebpf4jnsgd1na2vs0mg"},{"bike_id":"666b44e7-b710-4f18-81e8-6a0f6cb4fe3b","system_id":"levelo_inurba_marseille","lat":43.31504,"lon":5.3728,"is_reserved":false,"is_disabled":false,"rental_uris":{"android":"levelo://app?vid=666b44e7-b710-4f18-81e8-6a0f6cb4fe3b","ios":"levelo://app?vid=666b44e7-b710-4f18-81e8-6a0f6cb4fe3b"},"vehicle_type_id":"4","last_reported":1743408891,"current_range_meters":15200,"station_id":"ce4bgt12rcd13ifvqcd0","pricing_plan_id":"cebpf4jnsgd1na2vs0mg"},{"bike_id":"3d291240-df1b-412b-906b-3c8500f0489c","system_id":"levelo_inurba_marseille","lat":43.3014,"lon":5.38083,"is_reserved":false,"is_disabled":false,"rental_uris":{"android":"levelo://app?vid=3d291240-df1b-412b-906b-3c8500f0489c","ios":"levelo://app?vid=3d291240-df1b-412b-906b-3c8500f0489c"},"vehicle_type_id":"4","last_reported":1743408891,"current_range_meters":16000,"station_id":"ce4bgjp2rcd13ifvqbh0","pricing_plan_id":"cebpf4jnsgd1na2vs0mg"},{"bike_id":"c0df8ce0-b306-461c-9ebc-778c2050dfa4","system_id":"levelo_inurba_marseille","lat":43.30317,"lon":5.36902,"is_reserved":false,"is_disabled":false,"rental_uris":{"android":"levelo://app?vid=c0df8ce0-b306-461c-9ebc-778c2050dfa4","ios":"levelo://app?vid=c0df8ce0-b306-461c-9ebc-778c2050dfa4"},"vehicle_type_id":"4","last_reported":1743408891,"current_range_meters":16000,"station_id":"ce4bgqh2rcd13ifvqc5g","pricing_plan_id":"cebpf4jnsgd1na2vs0mg"},{"bike_id":"0498ecf1-faf2-4e8b-add0-38fa696081a6","system_id":"levelo_inurba_marseille","lat":43.29026,"lon":5.38135,"is_reserved":false,"is_disabled":false,"rental_uris":{"android":"levelo://app?vid=0498ecf1-faf2-4e8b-add0-38fa696081a6","ios":"levelo://app?vid=0498ecf1-faf2-4e8b-add0-38fa696081a6"},"vehicle_type_id":"4","last_reported":1743408891,"current_range_meters":16000,"station_id":"ce4bh4p2rcd13ifvqe1g","pricing_plan_id":"cebpf4jnsgd1na2vs0mg"},{"bike_id":"9076cba5-1376-4918-a6a1-9514e129d8a0","system_id":"levelo_inurba_marseille","lat":43.25934,"lon":5.40899,"is_reserved":false,"is_disabled":false,"rental_uris":{"android":"levelo://app?vid=9076cba5-1376-4918-a6a1-9514e129d8a0","ios":"levelo://app?vid=9076cba5-1376-4918-a6a1-9514e129d8a0"},"vehicle_type_id":"4","last_reported":1743408891,"current_range_meters":16000,"station_id":"ce4bhm92rcd13ifvqglg","pricing_plan_id":"cebpf4jnsgd1na2vs0mg"},{"bike_id":"595b5973-e0cb-4cd0-878e-924f384c4c91","system_id":"levelo_inurba_marseille","lat":43.24071,"lon":5.37765,"is_reserved":false,"is_disabled":false,"rental_uris":{"android":"levelo://app?vid=595b5973-e0cb-4cd0-878e-924f384c4c91","ios":"levelo://app?vid=595b5973-e0cb-4cd0-878e-924f384c4c91"},"vehicle_type_id":"4","last_reported":1743408891,"current_range_meters":16000,"station_id":"ce4bhnp2rcd13ifvqgvg","pricing_plan_id":"cebpf4jnsgd1na2vs0mg"},{"bike_id":"73d7d064-6ef5-4a9e-964a-35724613a7b7","system_id":"levelo_inurba_marseille","lat":43.33607,"lon":5.41035,"is_reserved":false,"is_disabled":false,"rental_uris":{"android":"levelo://app?vid=73d7d064-6ef5-4a9e-964a-35724613a7b7","ios":"levelo://app?vid=73d7d064-6ef5-4a9e-964a-35724613a7b7"},"vehicle_type_id":"4","last_reported":1743408891,"current_range_meters":16000,"station_id":"ce4bhqh2rcd13ifvqhmg","pricing_plan_id":"cebpf4jnsgd1na2vs0mg"},{"bike_id":"837663bc-c16c-4ef4-a732-725c425b1b7f","system_id":"levelo_inurba_marseille","lat":43.29676,"lon":5.3729,"is_reserved":false,"is_disabled":false,"rental_uris":{"android":"levelo://app?vid=837663bc-c16c-4ef4-a732-725c425b1b7f","ios":"levelo://app?vid=837663bc-c16c-4ef4-a732-725c425b1b7f"},"vehicle_type_id":"4","last_reported":1743408891,"current_range_meters":16400,"station_id":"ce4bgk12rcd13ifvqbj0","pricing_plan_id":"cebpf4jnsgd1na2vs0mg"},{"bike_id":"1d750dbe-fff1-4da4-a93a-0b35f881efa1","system_id":"levelo_inurba_marseille","lat":43.28939,"lon":5.39637,"is_reserved":false,"is_disabled":false,"rental_uris":{"android":"levelo://app?vid=1d750dbe-fff1-4da4-a93a-0b35f881efa1","ios":"levelo://app?vid=1d750dbe-fff1-4da4-a93a-0b35f881efa1"},"vehicle_type_id":"4","last_reported":1743408891,"current_range_meters":16400,"station_id":"ce4bh3h2rcd13ifvqdn0","pricing_plan_id":"cebpf4jnsgd1na2vs0mg"},{"bike_id":"9f26f6b4-6f8c-41bd-9823-94cef41b22be","system_id":"levelo_inurba_marseille","lat":43.23189,"lon":5.40007,"is_reserved":false,"is_disabled":false,"rental_uris":{"android":"levelo://app?vid=9f26f6b4-6f8c-41bd-9823-94cef41b22be","ios":"levelo://app?vid=9f26f6b4-6f8c-41bd-9823-94cef41b22be"},"vehicle_type_id":"4","last_reported":1743408891,"current_range_meters":16400,"station_id":"ce4bhn12rcd13ifvqgqg","pricing_plan_id":"cebpf4jnsgd1na2vs0mg"},{"bike_id":"161cead0-12cf-4ec0-af5d-972431311186","system_id":"levelo_inurba_marseille","lat":43.24061,"lon":5.37771,"is_reserved":false,"is_disabled":false,"rental_uris":{"android":"levelo://app?vid=161cead0-12cf-4ec0-af5d-972431311186","ios":"levelo://app?vid=161cead0-12cf-4ec0-af5d-972431311186"},"vehicle_type_id":"4","last_reported":1743408891,"current_range_meters":16400,"station_id":"ce4bhnp2rcd13ifvqgvg","pricing_plan_id":"cebpf4jnsgd1na2vs0mg"},{"bike_id":"a324c80d-1449-4680-91a6-510ada448acb","system_id":"levelo_inurba_marseille","lat":43.32541,"lon":5.41432,"is_reserved":false,"is_disabled":false,"rental_uris":{"android":"levelo://app?vid=a324c80d-1449-4680-91a6-510ada448acb","ios":"levelo://app?vid=a324c80d-1449-4680-91a6-510ada448acb"},"vehicle_type_id":"4","last_reported":1743408891,"current_range_meters":16400,"station_id":"ce4bhq12rcd13ifvqhhg","pricing_plan_id":"cebpf4jnsgd1na2vs0mg"},{"bike_id":"b38cf2fd-0618-4da8-925a-2313d2fb7755","system_id":"levelo_inurba_marseille","lat":43.29843,"lon":5.3629,"is_reserved":false,"is_disabled":false,"rental_uris":{"android":"levelo://app?vid=b38cf2fd-0618-4da8-925a-2313d2fb7755","ios":"levelo://app?vid=b38cf2fd-0618-4da8-925a-2313d2fb7755"},"vehicle_type_id":"4","last_reported":1743408891,"current_range_meters":16800,"station_id":"ce4bgpp2rcd13ifvqc3g","pricing_plan_id":"cebpf4jnsgd1na2vs0mg"},{"bike_id":"e47bc61d-df2d-41b3-b26b-dd94e6e5e301","system_id":"levelo_inurba_marseille","lat":43.26242,"lon":5.42134,"is_reserved":false,"is_disabled":false,"rental_uris":{"android":"levelo://app?vid=e47bc61d-df2d-41b3-b26b-dd94e6e5e301","ios":"levelo://app?vid=e47bc61d-df2d-41b3-b26b-dd94e6e5e301"},"vehicle_type_id":"4","last_reported":1743408891,"current_range_meters":17200,"station_id":"","pricing_plan_id":"cebpf4jnsgd1na2vs0mg"},{"bike_id":"71b31a4e-85a7-4b38-8a6c-9dc07ca41e6e","system_id":"levelo_inurba_marseille","lat":43.29301,"lon":5.37175,"is_reserved":false,"is_disabled":false,"rental_uris":{"android":"levelo://app?vid=71b31a4e-85a7-4b38-8a6c-9dc07ca41e6e","ios":"levelo://app?vid=71b31a4e-85a7-4b38-8a6c-9dc07ca41e6e"},"vehicle_type_id":"4","last_reported":1743408891,"current_range_meters":17200,"station_id":"ce4bgh92rcd13ifvqb40","pricing_plan_id":"cebpf4jnsgd1na2vs0mg"},{"bike_id":"97b10035-4fd4-42bf-96a0-00e43267393b","system_id":"levelo_inurba_marseille","lat":43.29858,"lon":5.36279,"is_reserved":false,"is_disabled":false,"rental_uris":{"android":"levelo://app?vid=97b10035-4fd4-42bf-96a0-00e43267393b","ios":"levelo://app?vid=97b10035-4fd4-42bf-96a0-00e43267393b"},"vehicle_type_id":"4","last_reported":1743408891,"current_range_meters":17200,"station_id":"ce4bgpp2rcd13ifvqc3g","pricing_plan_id":"cebpf4jnsgd1na2vs0mg"},{"bike_id":"f9a2a5f0-9c98-43ac-84ca-a9b38b605fa6","system_id":"levelo_inurba_marseille","lat":43.30539,"lon":5.36699,"is_reserved":false,"is_disabled":false,"rental_uris":{"android":"levelo://app?vid=f9a2a5f0-9c98-43ac-84ca-a9b38b605fa6","ios":"levelo://app?vid=f9a2a5f0-9c98-43ac-84ca-a9b38b605fa6"},"vehicle_type_id":"4","last_reported":1743408891,"current_range_meters":17200,"station_id":"ce4bgrp2rcd13ifvqc9g","pricing_plan_id":"cebpf4jnsgd1na2vs0mg"},{"bike_id":"e8b55504-1928-4dad-b7c4-b3396e1122b4","system_id":"levelo_inurba_marseille","lat":43.3088,"lon":5.39657,"is_reserved":false,"is_disabled":false,"rental_uris":{"android":"levelo://app?vid=e8b55504-1928-4dad-b7c4-b3396e1122b4","ios":"levelo://app?vid=e8b55504-1928-4dad-b7c4-b3396e1122b4"},"vehicle_type_id":"4","last_reported":1743408891,"current_range_meters":17200,"station_id":"ce4bh012rcd13ifvqcv0","pricing_plan_id":"cebpf4jnsgd1na2vs0mg"},{"bike_id":"86dc83d2-803f-4099-b079-7f6d977bb526","system_id":"levelo_inurba_marseille","lat":43.28948,"lon":5.39628,"is_reserved":false,"is_disabled":false,"rental_uris":{"android":"levelo://app?vid=86dc83d2-803f-4099-b079-7f6d977bb526","ios":"levelo://app?vid=86dc83d2-803f-4099-b079-7f6d977bb526"},"vehicle_type_id":"4","last_reported":1743408891,"current_range_meters":17200,"station_id":"ce4bh3h2rcd13ifvqdn0","pricing_plan_id":"cebpf4jnsgd1na2vs0mg"},{"bike_id":"0a861bce-e43b-4e0f-88cb-e1f4c36e3623","system_id":"levelo_inurba_marseille","lat":43.26675,"lon":5.38264,"is_reserved":false,"is_disabled":false,"rental_uris":{"android":"levelo://app?vid=0a861bce-e43b-4e0f-88cb-e1f4c36e3623","ios":"levelo://app?vid=0a861bce-e43b-4e0f-88cb-e1f4c36e3623"},"vehicle_type_id":"4","last_reported":1743408891,"current_range_meters":17200,"station_id":"ce4bhg92rcd13ifvqf90","pricing_plan_id":"cebpf4jnsgd1na2vs0mg"},{"bike_id":"e96b24b9-5928-47a9-a3af-1ab7a754a0d9","system_id":"levelo_inurba_marseille","lat":43.25927,"lon":5.40896,"is_reserved":false,"is_disabled":false,"rental_uris":{"android":"levelo://app?vid=e96b24b9-5928-47a9-a3af-1ab7a754a0d9","ios":"levelo://app?vid=e96b24b9-5928-47a9-a3af-1ab7a754a0d9"},"vehicle_type_id":"4","last_reported":1743408891,"current_range_meters":17200,"station_id":"ce4bhm92rcd13ifvqglg","pricing_plan_id":"cebpf4jnsgd1na2vs0mg"},{"bike_id":"1b63ccb2-1298-4d96-b7f3-6ad6cace00e9","system_id":"levelo_inurba_marseille","lat":43.26126,"lon":5.40103,"is_reserved":false,"is_disabled":false,"rental_uris":{"android":"levelo://app?vid=1b63ccb2-1298-4d96-b7f3-6ad6cace00e9","ios":"levelo://app?vid=1b63ccb2-1298-4d96-b7f3-6ad6cace00e9"},"vehicle_type_id":"4","last_reported":1743408891,"current_range_meters":17600,"station_id":"","pricing_plan_id":"cebpf4jnsgd1na2vs0mg"},{"bike_id":"46cb76bc-5587-4e77-a513-e3ffb1eedb0d","system_id":"levelo_inurba_marseille","lat":43.30546,"lon":5.38426,"is_reserved":false,"is_disabled":false,"rental_uris":{"android":"levelo://app?vid=46cb76bc-5587-4e77-a513-e3ffb1eedb0d","ios":"levelo://app?vid=46cb76bc-5587-4e77-a513-e3ffb1eedb0d"},"vehicle_type_id":"4","last_reported":1743408891,"current_range_meters":17600,"station_id":"ce4bgg92rcd13ifvqb30","pricing_plan_id":"cebpf4jnsgd1na2vs0mg"},{"bike_id":"a699b13c-e379-4e68-9261-47aab17f1c4b","system_id":"levelo_inurba_marseille","lat":43.30317,"lon":5.36905,"is_reserved":false,"is_disabled":false,"rental_uris":{"android":"levelo://app?vid=a699b13c-e379-4e68-9261-47aab17f1c4b","ios":"levelo://app?vid=a699b13c-e379-4e68-9261-47aab17f1c4b"},"vehicle_type_id":"4","last_reported":1743408891,"current_range_meters":17600,"station_id":"ce4bgqh2rcd13ifvqc5g","pricing_plan_id":"cebpf4jnsgd1na2vs0mg"},{"bike_id":"6c3e62ed-83b0-470c-b364-e1231a90e513","system_id":"levelo_inurba_marseille","lat":43.30294,"lon":5.36926,"is_reserved":false,"is_disabled":false,"rental_uris":{"android":"levelo://app?vid=6c3e62ed-83b0-470c-b364-e1231a90e513","ios":"levelo://app?vid=6c3e62ed-83b0-470c-b364-e1231a90e513"},"vehicle_type_id":"4","last_reported":1743408891,"current_range_meters":17600,"station_id":"ce4bgqh2rcd13ifvqc5g","pricing_plan_id":"cebpf4jnsgd1na2vs0mg"},{"bike_id":"ebd2df61-ad15-4d52-846f-320738e68797","system_id":"levelo_inurba_marseille","lat":43.30479,"lon":5.37904,"is_reserved":false,"is_disabled":false,"rental_uris":{"android":"levelo://app?vid=ebd2df61-ad15-4d52-846f-320738e68797","ios":"levelo://app?vid=ebd2df61-ad15-4d52-846f-320738e68797"},"vehicle_type_id":"4","last_reported":1743408891,"current_range_meters":17600,"station_id":"ce4bgup2rcd13ifvqcn0","pricing_plan_id":"cebpf4jnsgd1na2vs0mg"},{"bike_id":"018b6232-b456-43fe-8f3a-54802f983e02","system_id":"levelo_inurba_marseille","lat":43.294802,"lon":5.378789,"is_reserved":false,"is_disabled":false,"rental_uris":{"android":"levelo://app?vid=018b6232-b456-43fe-8f3a-54802f983e02","ios":"levelo://app?vid=018b6232-b456-43fe-8f3a-54802f983e02"},"vehicle_type_id":"4","last_reported":1743408891,"current_range_meters":17600,"station_id":"ce4bh512rcd13ifvqe2g","pricing_plan_id":"cebpf4jnsgd1na2vs0mg"},{"bike_id":"27773214-4312-4127-aa54-e74cba3d6d07","system_id":"levelo_inurba_marseille","lat":43.27822,"lon":5.40732,"is_reserved":false,"is_disabled":false,"rental_uris":{"android":"levelo://app?vid=27773214-4312-4127-aa54-e74cba3d6d07","ios":"levelo://app?vid=27773214-4312-4127-aa54-e74cba3d6d07"},"vehicle_type_id":"4","last_reported":1743408891,"current_range_meters":17600,"station_id":"ce4bhnh2rcd13ifvqgtg","pricing_plan_id":"cebpf4jnsgd1na2vs0mg"},{"bike_id":"9ad88468-7e15-4196-8c19-3bebfeb7becf","system_id":"levelo_inurba_marseille","lat":43.24076,"lon":5.37735,"is_reserved":false,"is_disabled":false,"rental_uris":{"android":"levelo://app?vid=9ad88468-7e15-4196-8c19-3bebfeb7becf","ios":"levelo://app?vid=9ad88468-7e15-4196-8c19-3bebfeb7becf"},"vehicle_type_id":"4","last_reported":1743408891,"current_range_meters":17600,"station_id":"ce4bhnp2rcd13ifvqgvg","pricing_plan_id":"cebpf4jnsgd1na2vs0mg"},{"bike_id":"230de95c-edd0-46d9-98db-ba13c6bcf303","system_id":"levelo_inurba_marseille","lat":43.30468,"lon":5.37909,"is_reserved":false,"is_disabled":false,"rental_uris":{"android":"levelo://app?vid=230de95c-edd0-46d9-98db-ba13c6bcf303","ios":"levelo://app?vid=230de95c-edd0-46d9-98db-ba13c6bcf303"},"vehicle_type_id":"4","last_reported":1743408891,"current_range_meters":18000,"station_id":"ce4bgup2rcd13ifvqcn0","pricing_plan_id":"cebpf4jnsgd1na2vs0mg"},{"bike_id":"e7ef08e9-a96d-4088-a7da-a3b6333812e8","system_id":"levelo_inurba_marseille","lat":43.3046,"lon":5.37903,"is_reserved":false,"is_disabled":false,"rental_uris":{"android":"levelo://app?vid=e7ef08e9-a96d-4088-a7da-a3b6333812e8","ios":"levelo://app?vid=e7ef08e9-a96d-4088-a7da-a3b6333812e8"},"vehicle_type_id":"4","last_reported":1743408891,"current_range_meters":18000,"station_id":"ce4bgup2rcd13ifvqcn0","pricing_plan_id":"cebpf4jnsgd1na2vs0mg"},{"bike_id":"407b8913-be21-496e-b444-2f833d7deba1","system_id":"levelo_inurba_marseille","lat":43.30945,"lon":5.3905,"is_reserved":false,"is_disabled":false,"rental_uris":{"android":"levelo://app?vid=407b8913-be21-496e-b444-2f833d7deba1","ios":"levelo://app?vid=407b8913-be21-496e-b444-2f833d7deba1"},"vehicle_type_id":"4","last_reported":1743408891,"current_range_meters":18000,"station_id":"ce4bgup2rcd13ifvqco0","pricing_plan_id":"cebpf4jnsgd1na2vs0mg"},{"bike_id":"94c1a6f8-b3ca-4c79-a212-3345123ebf2f","system_id":"levelo_inurba_marseille","lat":43.29038,"lon":5.39964,"is_reserved":false,"is_disabled":false,"rental_uris":{"android":"levelo://app?vid=94c1a6f8-b3ca-4c79-a212-3345123ebf2f","ios":"levelo://app?vid=94c1a6f8-b3ca-4c79-a212-3345123ebf2f"},"vehicle_type_id":"4","last_reported":1743408891,"current_range_meters":18000,"station_id":"ce4bh392rcd13ifvqdm0","pricing_plan_id":"cebpf4jnsgd1na2vs0mg"},{"bike_id":"56d01622-8d30-435b-a664-385a06ac9afe","system_id":"levelo_inurba_marseille","lat":43.29014,"lon":5.37579,"is_reserved":false,"is_disabled":false,"rental_uris":{"android":"levelo://app?vid=56d01622-8d30-435b-a664-385a06ac9afe","ios":"levelo://app?vid=56d01622-8d30-435b-a664-385a06ac9afe"},"vehicle_type_id":"4","last_reported":1743408891,"current_range_meters":18000,"station_id":"ce4bh692rcd13ifvqe90","pricing_plan_id":"cebpf4jnsgd1na2vs0mg"},{"bike_id":"b50a1393-62bb-4a3c-8fa2-fa4da6323c23","system_id":"levelo_inurba_marseille","lat":43.275,"lon":5.42458,"is_reserved":false,"is_disabled":false,"rental_uris":{"android":"levelo://app?vid=b50a1393-62bb-4a3c-8fa2-fa4da6323c23","ios":"levelo://app?vid=b50a1393-62bb-4a3c-8fa2-fa4da6323c23"},"vehicle_type_id":"4","last_reported":1743408891,"current_range_meters":18000,"station_id":"ce4bhn92rcd13ifvqgrg","pricing_plan_id":"cebpf4jnsgd1na2vs0mg"},{"bike_id":"922cfc32-c485-4643-a531-342b83625748","system_id":"levelo_inurba_marseille","lat":43.30305,"lon":5.36899,"is_reserved":false,"is_disabled":false,"rental_uris":{"android":"levelo://app?vid=922cfc32-c485-4643-a531-342b83625748","ios":"levelo://app?vid=922cfc32-c485-4643-a531-342b83625748"},"vehicle_type_id":"4","last_reported":1743408891,"current_range_meters":18800,"station_id":"ce4bgqh2rcd13ifvqc5g","pricing_plan_id":"cebpf4jnsgd1na2vs0mg"},{"bike_id":"9d14244e-8219-4c10-adfa-29569ca920fe","system_id":"levelo_inurba_marseille","lat":43.30288,"lon":5.37708,"is_reserved":false,"is_disabled":false,"rental_uris":{"android":"levelo://app?vid=9d14244e-8219-4c10-adfa-29569ca920fe","ios":"levelo://app?vid=9d14244e-8219-4c10-adfa-29569ca920fe"},"vehicle_type_id":"4","last_reported":1743408891,"current_range_meters":18800,"station_id":"ce4bguh2rcd13ifvqcj0","pricing_plan_id":"cebpf4jnsgd1na2vs0mg"},{"bike_id":"f1418431-76e0-4c88-a6b9-3d7d91ece481","system_id":"levelo_inurba_marseille","lat":43.29803,"lon":5.40408,"is_reserved":false,"is_disabled":false,"rental_uris":{"android":"levelo://app?vid=f1418431-76e0-4c88-a6b9-3d7d91ece481","ios":"levelo://app?vid=f1418431-76e0-4c88-a6b9-3d7d91ece481"},"vehicle_type_id":"4","last_reported":1743408891,"current_range_meters":18800,"station_id":"ce4bh112rcd13ifvqd90","pricing_plan_id":"cebpf4jnsgd1na2vs0mg"},{"bike_id":"4b415c89-e886-43ac-8a33-f9160425606f","system_id":"levelo_inurba_marseille","lat":43.265721,"lon":5.403558,"is_reserved":false,"is_disabled":false,"rental_uris":{"android":"levelo://app?vid=4b415c89-e886-43ac-8a33-f9160425606f","ios":"levelo://app?vid=4b415c89-e886-43ac-8a33-f9160425606f"},"vehicle_type_id":"4","last_reported":1743408891,"current_range_meters":18800,"station_id":"ce4bhm92rcd13ifvqglg","pricing_plan_id":"cebpf4jnsgd1na2vs0mg"},{"bike_id":"c389f499-bd96-4d8c-a78c-f2d6471e945d","system_id":"levelo_inurba_marseille","lat":43.27497,"lon":5.42457,"is_reserved":false,"is_disabled":false,"rental_uris":{"android":"levelo://app?vid=c389f499-bd96-4d8c-a78c-f2d6471e945d","ios":"levelo://app?vid=c389f499-bd96-4d8c-a78c-f2d6471e945d"},"vehicle_type_id":"4","last_reported":1743408891,"current_range_meters":18800,"station_id":"ce4bhn92rcd13ifvqgrg","pricing_plan_id":"cebpf4jnsgd1na2vs0mg"},{"bike_id":"a27f77b3-04c9-4174-807f-aa5b8d1123e1","system_id":"levelo_inurba_marseille","lat":43.30299,"lon":5.36879,"is_reserved":false,"is_disabled":false,"rental_uris":{"android":"levelo://app?vid=a27f77b3-04c9-4174-807f-aa5b8d1123e1","ios":"levelo://app?vid=a27f77b3-04c9-4174-807f-aa5b8d1123e1"},"vehicle_type_id":"4","last_reported":1743408891,"current_range_meters":19200,"station_id":"ce4bgqh2rcd13ifvqc5g","pricing_plan_id":"cebpf4jnsgd1na2vs0mg"},{"bike_id":"14ef4fc7-bd1f-41de-a46a-274266d9cfbf","system_id":"levelo_inurba_marseille","lat":43.31377,"lon":5.36753,"is_reserved":false,"is_disabled":false,"rental_uris":{"android":"levelo://app?vid=14ef4fc7-bd1f-41de-a46a-274266d9cfbf","ios":"levelo://app?vid=14ef4fc7-bd1f-41de-a46a-274266d9cfbf"},"vehicle_type_id":"4","last_reported":1743408891,"current_range_meters":19200,"station_id":"ce4bgr92rcd13ifvqc6g","pricing_plan_id":"cebpf4jnsgd1na2vs0mg"},{"bike_id":"8a1cb60a-f5d3-45fd-aaf6-fba912198479","system_id":"levelo_inurba_marseille","lat":43.28978,"lon":5.37838,"is_reserved":false,"is_disabled":false,"rental_uris":{"android":"levelo://app?vid=8a1cb60a-f5d3-45fd-aaf6-fba912198479","ios":"levelo://app?vid=8a1cb60a-f5d3-45fd-aaf6-fba912198479"},"vehicle_type_id":"4","last_reported":1743408891,"current_range_meters":19200,"station_id":"ce4bh9p2rcd13ifvqed0","pricing_plan_id":"cebpf4jnsgd1na2vs0mg"},{"bike_id":"a9d4870d-0524-41de-97b5-412d6276f587","system_id":"levelo_inurba_marseille","lat":43.26942,"lon":5.3864,"is_reserved":false,"is_disabled":false,"rental_uris":{"android":"levelo://app?vid=a9d4870d-0524-41de-97b5-412d6276f587","ios":"levelo://app?vid=a9d4870d-0524-41de-97b5-412d6276f587"},"vehicle_type_id":"4","last_reported":1743408891,"current_range_meters":19200,"station_id":"ce4bhh92rcd13ifvqfh0","pricing_plan_id":"cebpf4jnsgd1na2vs0mg"},{"bike_id":"aae5f4a7-ce80-4c3f-b76e-1ff943ab4d01","system_id":"levelo_inurba_marseille","lat":43.29847,"lon":5.36277,"is_reserved":false,"is_disabled":false,"rental_uris":{"android":"levelo://app?vid=aae5f4a7-ce80-4c3f-b76e-1ff943ab4d01","ios":"levelo://app?vid=aae5f4a7-ce80-4c3f-b76e-1ff943ab4d01"},"vehicle_type_id":"4","last_reported":1743408891,"current_range_meters":19600,"station_id":"ce4bgpp2rcd13ifvqc3g","pricing_plan_id":"cebpf4jnsgd1na2vs0mg"},{"bike_id":"7bc1cb0e-5e0f-462b-ae14-68fdac0f33fa","system_id":"levelo_inurba_marseille","lat":43.31467,"lon":5.37336,"is_reserved":false,"is_disabled":false,"rental_uris":{"android":"levelo://app?vid=7bc1cb0e-5e0f-462b-ae14-68fdac0f33fa","ios":"levelo://app?vid=7bc1cb0e-5e0f-462b-ae14-68fdac0f33fa"},"vehicle_type_id":"4","last_reported":1743408891,"current_range_meters":19600,"station_id":"ce4bgt12rcd13ifvqcd0","pricing_plan_id":"cebpf4jnsgd1na2vs0mg"},{"bike_id":"a96a36ff-a3dd-4833-ad07-2fcc55dc30ba","system_id":"levelo_inurba_marseille","lat":43.31277,"lon":5.40161,"is_reserved":false,"is_disabled":false,"rental_uris":{"android":"levelo://app?vid=a96a36ff-a3dd-4833-ad07-2fcc55dc30ba","ios":"levelo://app?vid=a96a36ff-a3dd-4833-ad07-2fcc55dc30ba"},"vehicle_type_id":"4","last_reported":1743408891,"current_range_meters":19600,"station_id":"ce4bh092rcd13ifvqd30","pricing_plan_id":"cebpf4jnsgd1na2vs0mg"},{"bike_id":"ac7143d4-a41d-414b-bae7-ea3fa410d0f1","system_id":"levelo_inurba_marseille","lat":43.34145,"lon":5.40908,"is_reserved":false,"is_disabled":false,"rental_uris":{"android":"levelo://app?vid=ac7143d4-a41d-414b-bae7-ea3fa410d0f1","ios":"levelo://app?vid=ac7143d4-a41d-414b-bae7-ea3fa410d0f1"},"vehicle_type_id":"4","last_reported":1743408891,"current_range_meters":19600,"station_id":"ce4bhqh2rcd13ifvqhlg","pricing_plan_id":"cebpf4jnsgd1na2vs0mg"},{"bike_id":"dd3db03f-0f43-4986-9ec8-2a76818fb28c","system_id":"levelo_inurba_marseille","lat":43.23191,"lon":5.35563,"is_reserved":false,"is_disabled":false,"rental_uris":{"android":"levelo://app?vid=dd3db03f-0f43-4986-9ec8-2a76818fb28c","ios":"levelo://app?vid=dd3db03f-0f43-4986-9ec8-2a76818fb28c"},"vehicle_type_id":"4","last_reported":1743408891,"current_range_meters":19600,"station_id":"ce4bhu92rcd13ifvqi70","pricing_plan_id":"cebpf4jnsgd1na2vs0mg"},{"bike_id":"dfbc8e1e-55d2-4599-b920-13243f77f976","system_id":"levelo_inurba_marseille","lat":43.3121,"lon":5.36863,"is_reserved":false,"is_disabled":false,"rental_uris":{"android":"levelo://app?vid=dfbc8e1e-55d2-4599-b920-13243f77f976","ios":"levelo://app?vid=dfbc8e1e-55d2-4599-b920-13243f77f976"},"vehicle_type_id":"4","last_reported":1743408891,"current_range_meters":20000,"station_id":"ce4bgl92rcd13ifvqbq0","pricing_plan_id":"cebpf4jnsgd1na2vs0mg"},{"bike_id":"ff981b15-c84c-46ed-8290-3cfa5d8a8f97","system_id":"levelo_inurba_marseille","lat":43.30906,"lon":5.36858,"is_reserved":false,"is_disabled":false,"rental_uris":{"android":"levelo://app?vid=ff981b15-c84c-46ed-8290-3cfa5d8a8f97","ios":"levelo://app?vid=ff981b15-c84c-46ed-8290-3cfa5d8a8f97"},"vehicle_type_id":"4","last_reported":1743408891,"current_range_meters":20000,"station_id":"ce4bgn92rcd13ifvqbvg","pricing_plan_id":"cebpf4jnsgd1na2vs0mg"},{"bike_id":"86e10252-95ce-42e4-b0ed-fa7b5f76cada","system_id":"levelo_inurba_marseille","lat":43.30948,"lon":5.39047,"is_reserved":false,"is_disabled":false,"rental_uris":{"android":"levelo://app?vid=86e10252-95ce-42e4-b0ed-fa7b5f76cada","ios":"levelo://app?vid=86e10252-95ce-42e4-b0ed-fa7b5f76cada"},"vehicle_type_id":"4","last_reported":1743408891,"current_range_meters":20000,"station_id":"ce4bgup2rcd13ifvqco0","pricing_plan_id":"cebpf4jnsgd1na2vs0mg"},{"bike_id":"620fc093-36d8-412a-a297-b4c13d82d5ff","system_id":"levelo_inurba_marseille","lat":43.31651,"lon":5.40499,"is_reserved":false,"is_disabled":false,"rental_uris":{"android":"levelo://app?vid=620fc093-36d8-412a-a297-b4c13d82d5ff","ios":"levelo://app?vid=620fc093-36d8-412a-a297-b4c13d82d5ff"},