{"last_updated":1747220927,"ttl":60,"version":"2.2","data":{"bikes":[{"bike_id":"c0b9fd4f-e181-46ce-b0bf-f5119973334f","system_id":"levelo_inurba_marseille","lat":43.33771,"lon":5.37424,"is_reserved":false,"is_disabled":false,"rental_uris":{"android":"levelo://app?vid=c0b9fd4f-e181-46ce-b0bf-f5119973334f","ios":"levelo://app?vid=c0b9fd4f-e181-46ce-b0bf-f5119973334f"},"vehicle_type_id":"4","last_reported":1747220927,"current_range_meters":19600,"station_id":"","pricing_plan_id":"cebpf4jnsgd1na2vs0mg"},{"bike_id":"3fae8334-a9d0-4ed3-aa20-0276813b60f6","system_id":"levelo_inurba_marseille","lat":43.26835,"lon":5.38458,"is_reserved":false,"is_disabled":true,"rental_uris":{"android":"levelo://app?vid=3fae8334-a9d0-4ed3-aa20-0276813b60f6","ios":"levelo://app?vid=3fae8334-a9d0-4ed3-aa20-0276813b60f6"},"vehicle_type_id":"4","last_reported":1747220927,"current_range_meters":0,"station_id":"","pricing_plan_id":"cebpf4jnsgd1na2vs0mg"},{"bike_id":"fc2577e7-1497-425b-9d4f-ab8d7dc843c6","system_id":"levelo_inurba_marseille","lat":43.33771,"lon":5.37485,"is_reserved":false,"is_disabled":true,"rental_uris":{"android":"levelo://app?vid=fc2577e7-1497-425b-9d4f-ab8d7dc843c6","ios":"levelo://app?vid=fc2577e7-1497-425b-9d4f-ab8d7dc843c6"},"vehicle_type_id":"4","last_reported":1747220927,"current_range_meters":0,"station_id":"","pricing_plan_id":"cebpf4jnsgd1na2vs0mg"},{"bike_id":"bce6dd6c-5f15-4ae5-8f21-e71db397b253","system_id":"levelo_inurba_marseille","lat":43.305465,"lon":5.365433,"is_reserved":false,"is_disabled":true,"rental_uris":{"android":"levelo://app?vid=bce6dd6c-5f15-4ae5-8f21-e71db397b253","ios":"levelo://app?vid=bce6dd6c-5f15-4ae5-8f21-e71db397b253"},"vehicle_type_id":"4","last_reported":1747220927,"current_range_meters":0,"station_id":"","pricing_plan_id":"cebpf4jnsgd1na2vs0mg"},{"bike_id":"f3fd69d4-efb4-47cf-98ad-2a450a9fc845","system_id":"levelo_inurba_marseille","lat":43.279542,"lon":5.387208,"is_reserved":false,"is_disabled":true,"rental_uris":{"android":"levelo://app?vid=f3fd69d4-efb4-47cf-98ad-2a450a9fc845","ios":"levelo://app?vid=f3fd69d4-efb4-47cf-98ad-2a450a9fc845"},"vehicle_type_id":"4","last_reported":1747220927,"current_range_meters":0,"station_id":"","pricing_plan_id":"cebpf4jnsgd1na2vs0mg"},{"bike_id":"0fedde00-40eb-40d2-8fc2-e61ecce46b7b","system_id":"levelo_inurba_marseille","lat":43.283,"lon":5.4322,"is_reserved":false,"is_disabled":true,"rental_uris":{"android":"levelo://app?vid=0fedde00-40eb-40d2-8fc2-e61ecce46b7b","ios":"levelo://app?vid=0fedde00-40eb-40d2-8fc2-e61ecce46b7b"},"vehicle_type_id":"4","last_reported":1747220927,"current_range_meters":0,"station_id":"","pricing_plan_id":"cebpf4jnsgd1na2vs0mg"},{"bike_id":"57ddeb2b-38aa-457b-9ea6-1c47cf7c50f9","system_id":"levelo_inurba_marseille","lat":43.29131,"lon":5.38069,"is_reserved":false,"is_disabled":true,"rental_uris":{"android":"levelo://app?vid=57ddeb2b-38aa-457b-9ea6-1c47cf7c50f9","ios":"levelo://app?vid=57ddeb2b-38aa-457b-9ea6-1c47cf7c50f9"},"vehicle_type_id":"4","last_reported":1747220927,"current_range_meters":0,"station_id":"","pricing_plan_id":"cebpf4jnsgd1na2vs0mg"},{"bike_id":"792567c6-0442-4011-aff0-9c05e25deb48","system_id":"levelo_inurba_marseille","lat":43.28071,"lon":5.44168,"is_reserved":false,"is_disabled":true,"rental_uris":{"android":"levelo://app?vid=792567c6-0442-4011-aff0-9c05e25deb48","ios":"levelo://app?vid=792567c6-0442-4011-aff0-9c05e25deb48"},"vehicle_type_id":"4","last_reported":1747220927,"current_range_meters":0,"station_id":"","pricing_plan_id":"cebpf4jnsgd1na2vs0mg"},{"bike_id":"2d708e46-2d3d-40dc-90c6-4cfe70c8634f","system_id":"levelo_inurba_marseille","lat":43.30304,"lon":5.36861,"is_reserved":false,"is_disabled":true,"rental_uris":{"android":"levelo://app?vid=2d708e46-2d3d-40dc-90c6-4cfe70c8634f","ios":"levelo://app?vid=2d708e46-2d3d-40dc-90c6-4cfe70c8634f"},"vehicle_type_id":"4","last_reported":1747220927,"current_range_meters":0,"station_id":"ce4bgqh2rcd13ifvqc5g","pricing_plan_id":"cebpf4jnsgd1na2vs0mg"},{"bike_id":"e8625838-0c00-4b67-8f33-382c1d491995","system_id":"levelo_inurba_marseille","lat":43.31685,"lon":5.40477,"is_reserved":false,"is_disabled":true,"rental_uris":{"android":"levelo://app?vid=e8625838-0c00-4b67-8f33-382c1d491995","ios":"levelo://app?vid=e8625838-0c00-4b67-8f33-382c1d491995"},"vehicle_type_id":"4","last_reported":1747220927,"current_range_meters":0,"station_id":"ce4bh012rcd13ifvqd00","pricing_plan_id":"cebpf4jnsgd1na2vs0mg"},{"bike_id":"decd9de7-fecb-4624-971d-5c1f378c0005","system_id":"levelo_inurba_marseille","lat":43.29417,"lon":5.38629,"is_reserved":false,"is_disabled":true,"rental_uris":{"android":"levelo://app?vid=decd9de7-fecb-4624-971d-5c1f378c0005","ios":"levelo://app?vid=decd9de7-fecb-4624-971d-5c1f378c0005"},"vehicle_type_id":"4","last_reported":1747220927,"current_range_meters":0,"station_id":"ce4bh2h2rcd13ifvqdh0","pricing_plan_id":"cebpf4jnsgd1na2vs0mg"},{"bike_id":"94558faa-4aa1-4cb0-a432-98f3d9f66057","system_id":"levelo_inurba_marseille","lat":43.28853,"lon":5.35843,"is_reserved":false,"is_disabled":true,"rental_uris":{"android":"levelo://app?vid=94558faa-4aa1-4cb0-a432-98f3d9f66057","ios":"levelo://app?vid=94558faa-4aa1-4cb0-a432-98f3d9f66057"},"vehicle_type_id":"4","last_reported":1747220927,"current_range_meters":0,"station_id":"ce4bhb12rcd13ifvqem0","pricing_plan_id":"cebpf4jnsgd1na2vs0mg"},{"bike_id":"f155320a-cc33-49fb-9538-ae12e0586dad","system_id":"levelo_inurba_marseille","lat":43.26203,"lon":5.37444,"is_reserved":false,"is_disabled":true,"rental_uris":{"android":"levelo://app?vid=f155320a-cc33-49fb-9538-ae12e0586dad","ios":"levelo://app?vid=f155320a-cc33-49fb-9538-ae12e0586dad"},"vehicle_type_id":"4","last_reported":1747220927,"current_range_meters":0,"station_id":"ce4bhgp2rcd13ifvqfc0","pricing_plan_id":"cebpf4jnsgd1na2vs0mg"},{"bike_id":"38f8894c-49bd-4722-a892-cadada920c9a","system_id":"levelo_inurba_marseille","lat":43.24667,"lon":5.38161,"is_reserved":false,"is_disabled":true,"rental_uris":{"android":"levelo://app?vid=38f8894c-49bd-4722-a892-cadada920c9a","ios":"levelo://app?vid=38f8894c-49bd-4722-a892-cadada920c9a"},"vehicle_type_id":"4","last_reported":1747220927,"current_range_meters":0,"station_id":"ce4bhih2rcd13ifvqfr0","pricing_plan_id":"cebpf4jnsgd1na2vs0mg"},{"bike_id":"9e355874-008b-4a85-9d4b-19c220338712","system_id":"levelo_inurba_marseille","lat":43.27056,"lon":5.40264,"is_reserved":false,"is_disabled":true,"rental_uris":{"android":"levelo://app?vid=9e355874-008b-4a85-9d4b-19c220338712","ios":"levelo://app?vid=9e355874-008b-4a85-9d4b-19c220338712"},"vehicle_type_id":"4","last_reported":1747220927,"current_range_meters":0,"station_id":"ce4bhk92rcd13ifvqgc0","pricing_plan_id":"cebpf4jnsgd1na2vs0mg"},{"bike_id":"201f78f1-699b-4e65-98da-1489730edb54","system_id":"levelo_inurba_marseille","lat":43.27178,"lon":5.40993,"is_reserved":false,"is_disabled":true,"rental_uris":{"android":"levelo://app?vid=201f78f1-699b-4e65-98da-1489730edb54","ios":"levelo://app?vid=201f78f1-699b-4e65-98da-1489730edb54"},"vehicle_type_id":"4","last_reported":1747220927,"current_range_meters":0,"station_id":"ce4bhl12rcd13ifvqgf0","pricing_plan_id":"cebpf4jnsgd1na2vs0mg"},{"bike_id":"8ebb8539-72a5-4e1a-9d8d-bd6d4f03ca1e","system_id":"levelo_inurba_marseille","lat":43.25086,"lon":5.39522,"is_reserved":false,"is_disabled":true,"rental_uris":{"android":"levelo://app?vid=8ebb8539-72a5-4e1a-9d8d-bd6d4f03ca1e","ios":"levelo://app?vid=8ebb8539-72a5-4e1a-9d8d-bd6d4f03ca1e"},"vehicle_type_id":"4","last_reported":1747220927,"current_range_meters":0,"station_id":"ce4bhm12rcd13ifvqgkg","pricing_plan_id":"cebpf4jnsgd1na2vs0mg"},{"bike_id":"7d648bb7-ab7e-409a-add7-d4a17f03de12","system_id":"levelo_inurba_marseille","lat":43.23162,"lon":5.43681,"is_reserved":false,"is_disabled":true,"rental_uris":{"android":"levelo://app?vid=7d648bb7-ab7e-409a-add7-d4a17f03de12","ios":"levelo://app?vid=7d648bb7-ab7e-409a-add7-d4a17f03de12"},"vehicle_type_id":"4","last_reported":1747220927,"current_range_meters":0,"station_id":"ce4bhmp2rcd13ifvqgog","pricing_plan_id":"cebpf4jnsgd1na2vs0mg"},{"bike_id":"401cfb43-7117-47ce-8aab-1b1a11dc0482","system_id":"levelo_inurba_marseille","lat":43.24178,"lon":5.39725,"is_reserved":false,"is_disabled":true,"rental_uris":{"android":"levelo://app?vid=401cfb43-7117-47ce-8aab-1b1a11dc0482","ios":"levelo://app?vid=401cfb43-7117-47ce-8aab-1b1a11dc0482"},"vehicle_type_id":"4","last_reported":1747220927,"current_range_meters":0,"station_id":"ce4bhn12rcd13ifvqgpg","pricing_plan_id":"cebpf4jnsgd1na2vs0mg"},{"bike_id":"97854dde-f062-4862-9117-fc2c99e80cfa","system_id":"levelo_inurba_marseille","lat":43.27937,"lon":5.41034,"is_reserved":false,"is_disabled":true,"rental_uris":{"android":"levelo://app?vid=97854dde-f062-4862-9117-fc2c99e80cfa","ios":"levelo://app?vid=97854dde-f062-4862-9117-fc2c99e80cfa"},"vehicle_type_id":"4","last_reported":1747220927,"current_range_meters":0,"station_id":"ce4bhnp2rcd13ifvqh0g","pricing_plan_id":"cebpf4jnsgd1na2vs0mg"},{"bike_id":"b03f4a10-1b53-43a0-9eb2-9d638cacb562","system_id":"levelo_inurba_marseille","lat":43.31762,"lon":5.38991,"is_reserved":false,"is_disabled":true,"rental_uris":{"android":"levelo://app?vid=b03f4a10-1b53-43a0-9eb2-9d638cacb562","ios":"levelo://app?vid=b03f4a10-1b53-43a0-9eb2-9d638cacb562"},"vehicle_type_id":"4","last_reported":1747220927,"current_range_meters":0,"station_id":"ce4bhqp2rcd13ifvqhng","pricing_plan_id":"cebpf4jnsgd1na2vs0mg"},{"bike_id":"986c18d8-74d7-4caf-9a65-ed5970f61353","system_id":"levelo_inurba_marseille","lat":43.21193,"lon":5.35072,"is_reserved":false,"is_disabled":true,"rental_uris":{"android":"levelo://app?vid=986c18d8-74d7-4caf-9a65-ed5970f61353","ios":"levelo://app?vid=986c18d8-74d7-4caf-9a65-ed5970f61353"},"vehicle_type_id":"4","last_reported":1747220927,"current_range_meters":0,"station_id":"st_cvj6sg6p6f1abm77japg","pricing_plan_id":"cebpf4jnsgd1na2vs0mg"},{"bike_id":"227f1a5d-4fcc-40ab-aaf9-642611eb76b5","system_id":"levelo_inurba_marseille","lat":43.30417,"lon":5.41281,"is_reserved":false,"is_disabled":true,"rental_uris":{"android":"levelo://app?vid=227f1a5d-4fcc-40ab-aaf9-642611eb76b5","ios":"levelo://app?vid=227f1a5d-4fcc-40ab-aaf9-642611eb76b5"},"vehicle_type_id":"4","last_reported":1747220927,"current_range_meters":400,"station_id":"ce4bhop2rcd13ifvqh8g","pricing_plan_id":"cebpf4jnsgd1na2vs0mg"},{"bike_id":"5790793e-f8bd-4013-8f09-6534aff8a47d","system_id":"levelo_inurba_marseille","lat":43.30924,"lon":5.40173,"is_reserved":false,"is_disabled":true,"rental_uris":{"android":"levelo://app?vid=5790793e-f8bd-4013-8f09-6534aff8a47d","ios":"levelo://app?vid=5790793e-f8bd-4013-8f09-6534aff8a47d"},"vehicle_type_id":"4","last_reported":1747220927,"current_range_meters":800,"station_id":"ce4bgvp2rcd13ifvqct0","pricing_plan_id":"cebpf4jnsgd1na2vs0mg"},{"bike_id":"e2b51381-ab36-4f41-a7de-2d872631ebe4","system_id":"levelo_inurba_marseille","lat":43.26553,"lon":5.39012,"is_reserved":false,"is_disabled":true,"rental_uris":{"android":"levelo://app?vid=e2b51381-ab36-4f41-a7de-2d872631ebe4","ios":"levelo://app?vid=e2b51381-ab36-4f41-a7de-2d872631ebe4"},"vehicle_type_id":"4","last_reported":1747220927,"current_range_meters":800,"station_id":"ce4bhe12rcd13ifvqf30","pricing_plan_id":"cebpf4jnsgd1na2vs0mg"},{"bike_id":"eeedddb1-f46f-4afb-ae44-7b75c31951a6","system_id":"levelo_inurba_marseille","lat":43.27907,"lon":5.36331,"is_reserved":false,"is_disabled":true,"rental_uris":{"android":"levelo://app?vid=eeedddb1-f46f-4afb-ae44-7b75c31951a6","ios":"levelo://app?vid=eeedddb1-f46f-4afb-ae44-7b75c31951a6"},"vehicle_type_id":"4","last_reported":1747220927,"current_range_meters":1200,"station_id":"","pricing_plan_id":"cebpf4jnsgd1na2vs0mg"},{"bike_id":"fbfb718f-8ccb-4f3d-9820-7177b44d7a20","system_id":"levelo_inurba_marseille","lat":43.29264,"lon":5.38439,"is_reserved":false,"is_disabled":true,"rental_uris":{"android":"levelo://app?vid=fbfb718f-8ccb-4f3d-9820-7177b44d7a20","ios":"levelo://app?vid=fbfb718f-8ccb-4f3d-9820-7177b44d7a20"},"vehicle_type_id":"4","last_reported":1747220927,"current_range_meters":1200,"station_id":"ce4bh692rcd13ifvqea0","pricing_plan_id":"cebpf4jnsgd1na2vs0mg"},{"bike_id":"5bcae94d-d5a4-4334-ba37-9d52bc5fdd71","system_id":"levelo_inurba_marseille","lat":43.27494,"lon":5.42451,"is_reserved":false,"is_disabled":true,"rental_uris":{"android":"levelo://app?vid=5bcae94d-d5a4-4334-ba37-9d52bc5fdd71","ios":"levelo://app?vid=5bcae94d-d5a4-4334-ba37-9d52bc5fdd71"},"vehicle_type_id":"4","last_reported":1747220927,"current_range_meters":1200,"station_id":"ce4bhn92rcd13ifvqgrg","pricing_plan_id":"cebpf4jnsgd1na2vs0mg"},{"bike_id":"969f20a4-5e58-4f53-a849-5811af519b5d","system_id":"levelo_inurba_marseille","lat":43.28612,"lon":5.37056,"is_reserved":false,"is_disabled":true,"rental_uris":{"android":"levelo://app?vid=969f20a4-5e58-4f53-a849-5811af519b5d","ios":"levelo://app?vid=969f20a4-5e58-4f53-a849-5811af519b5d"},"vehicle_type_id":"4","last_reported":1747220927,"current_range_meters":1200,"station_id":"ce4bht12rcd13ifvqi60","pricing_plan_id":"cebpf4jnsgd1na2vs0mg"},{"bike_id":"f0461f09-2cb2-4b60-be17-9880adc6dc06","system_id":"levelo_inurba_marseille","lat":43.29049,"lon":5.3559,"is_reserved":false,"is_disabled":true,"rental_uris":{"android":"levelo://app?vid=f0461f09-2cb2-4b60-be17-9880adc6dc06","ios":"levelo://app?vid=f0461f09-2cb2-4b60-be17-9880adc6dc06"},"vehicle_type_id":"4","last_reported":1747220927,"current_range_meters":1600,"station_id":"ce4bhb92rcd13ifvqen0","pricing_plan_id":"cebpf4jnsgd1na2vs0mg"},{"bike_id":"90ad7283-ad48-443a-879d-91a80df6ff42","system_id":"levelo_inurba_marseille","lat":43.28269,"lon":5.35085,"is_reserved":false,"is_disabled":true,"rental_uris":{"android":"levelo://app?vid=90ad7283-ad48-443a-879d-91a80df6ff42","ios":"levelo://app?vid=90ad7283-ad48-443a-879d-91a80df6ff42"},"vehicle_type_id":"4","last_reported":1747220927,"current_range_meters":1600,"station_id":"ce4bhbp2rcd13ifvqerg","pricing_plan_id":"cebpf4jnsgd1na2vs0mg"},{"bike_id":"31dff2f2-8e57-448f-ade2-b6116c5bf434","system_id":"levelo_inurba_marseille","lat":43.272965,"lon":5.39082,"is_reserved":false,"is_disabled":true,"rental_uris":{"android":"levelo://app?vid=31dff2f2-8e57-448f-ade2-b6116c5bf434","ios":"levelo://app?vid=31dff2f2-8e57-448f-ade2-b6116c5bf434"},"vehicle_type_id":"4","last_reported":1747220927,"current_range_meters":1600,"station_id":"ce4bhgp2rcd13ifvqfe0","pricing_plan_id":"cebpf4jnsgd1na2vs0mg"},{"bike_id":"d18edaf7-6be4-4d90-9ec1-326c2ce1b436","system_id":"levelo_inurba_marseille","lat":43.270643,"lon":5.422623,"is_reserved":false,"is_disabled":true,"rental_uris":{"android":"levelo://app?vid=d18edaf7-6be4-4d90-9ec1-326c2ce1b436","ios":"levelo://app?vid=d18edaf7-6be4-4d90-9ec1-326c2ce1b436"},"vehicle_type_id":"4","last_reported":1747220927,"current_range_meters":1600,"station_id":"ce4bhk92rcd13ifvqgb0","pricing_plan_id":"cebpf4jnsgd1na2vs0mg"},{"bike_id":"000f12e2-1845-4f5c-8fca-28648ccf9ec0","system_id":"levelo_inurba_marseille","lat":43.31074,"lon":5.38358,"is_reserved":false,"is_disabled":true,"rental_uris":{"android":"levelo://app?vid=000f12e2-1845-4f5c-8fca-28648ccf9ec0","ios":"levelo://app?vid=000f12e2-1845-4f5c-8fca-28648ccf9ec0"},"vehicle_type_id":"4","last_reported":1747220927,"current_range_meters":2000,"station_id":"ce4bgv92rcd13ifvqcr0","pricing_plan_id":"cebpf4jnsgd1na2vs0mg"},{"bike_id":"7f3568a5-2061-46ed-b126-6b03d70069c3","system_id":"levelo_inurba_marseille","lat":43.29527,"lon":5.39046,"is_reserved":false,"is_disabled":false,"rental_uris":{"android":"levelo://app?vid=7f3568a5-2061-46ed-b126-6b03d70069c3","ios":"levelo://app?vid=7f3568a5-2061-46ed-b126-6b03d70069c3"},"vehicle_type_id":"4","last_reported":1747220927,"current_range_meters":2000,"station_id":"ce4bh3p2rcd13ifvqdp0","pricing_plan_id":"cebpf4jnsgd1na2vs0mg"},{"bike_id":"e2fbc36b-a096-47cc-b66a-aebadec1554c","system_id":"levelo_inurba_marseille","lat":43.30514,"lon":5.36564,"is_reserved":false,"is_disabled":false,"rental_uris":{"android":"levelo://app?vid=e2fbc36b-a096-47cc-b66a-aebadec1554c","ios":"levelo://app?vid=e2fbc36b-a096-47cc-b66a-aebadec1554c"},"vehicle_type_id":"4","last_reported":1747220927,"current_range_meters":2800,"station_id":"","pricing_plan_id":"cebpf4jnsgd1na2vs0mg"},{"bike_id":"8db29d73-b419-45c9-833f-1234d3a31c75","system_id":"levelo_inurba_marseille","lat":43.30089,"lon":5.39076,"is_reserved":false,"is_disabled":false,"rental_uris":{"android":"levelo://app?vid=8db29d73-b419-45c9-833f-1234d3a31c75","ios":"levelo://app?vid=8db29d73-b419-45c9-833f-1234d3a31c75"},"vehicle_type_id":"4","last_reported":1747220927,"current_range_meters":2800,"station_id":"ce4bh192rcd13ifvqdb0","pricing_plan_id":"cebpf4jnsgd1na2vs0mg"},{"bike_id":"08a11150-8b3f-48ec-aeca-fca4d5070986","system_id":"levelo_inurba_marseille","lat":43.28266,"lon":5.35065,"is_reserved":false,"is_disabled":false,"rental_uris":{"android":"levelo://app?vid=08a11150-8b3f-48ec-aeca-fca4d5070986","ios":"levelo://app?vid=08a11150-8b3f-48ec-aeca-fca4d5070986"},"vehicle_type_id":"4","last_reported":1747220927,"current_range_meters":2800,"station_id":"ce4bhbp2rcd13ifvqerg","pricing_plan_id":"cebpf4jnsgd1na2vs0mg"},{"bike_id":"635a2178-c451-46d1-8658-bbc811312487","system_id":"levelo_inurba_marseille","lat":43.28621,"lon":5.35108,"is_reserved":false,"is_disabled":false,"rental_uris":{"android":"levelo://app?vid=635a2178-c451-46d1-8658-bbc811312487","ios":"levelo://app?vid=635a2178-c451-46d1-8658-bbc811312487"},"vehicle_type_id":"4","last_reported":1747220927,"current_range_meters":2800,"station_id":"ce4bhch2rcd13ifvqeug","pricing_plan_id":"cebpf4jnsgd1na2vs0mg"},{"bike_id":"1f8dc911-40cf-4891-a3dd-b30f24c9fa87","system_id":"levelo_inurba_marseille","lat":43.23148,"lon":5.43711,"is_reserved":false,"is_disabled":false,"rental_uris":{"android":"levelo://app?vid=1f8dc911-40cf-4891-a3dd-b30f24c9fa87","ios":"levelo://app?vid=1f8dc911-40cf-4891-a3dd-b30f24c9fa87"},"vehicle_type_id":"4","last_reported":1747220927,"current_range_meters":2800,"station_id":"ce4bhmp2rcd13ifvqgog","pricing_plan_id":"cebpf4jnsgd1na2vs0mg"},{"bike_id":"f6909008-bb07-4dbd-8913-4572fb486685","system_id":"levelo_inurba_marseille","lat":43.2318,"lon":5.3998,"is_reserved":false,"is_disabled":false,"rental_uris":{"android":"levelo://app?vid=f6909008-bb07-4dbd-8913-4572fb486685","ios":"levelo://app?vid=f6909008-bb07-4dbd-8913-4572fb486685"},"vehicle_type_id":"4","last_reported":1747220927,"current_range_meters":2800,"station_id":"ce4bhn12rcd13ifvqgqg","pricing_plan_id":"cebpf4jnsgd1na2vs0mg"},{"bike_id":"2b10199e-6d6e-41eb-9d3c-af00f4848a4b","system_id":"levelo_inurba_marseille","lat":43.29849,"lon":5.36285,"is_reserved":false,"is_disabled":false,"rental_uris":{"android":"levelo://app?vid=2b10199e-6d6e-41eb-9d3c-af00f4848a4b","ios":"levelo://app?vid=2b10199e-6d6e-41eb-9d3c-af00f4848a4b"},"vehicle_type_id":"4","last_reported":1747220927,"current_range_meters":3200,"station_id":"ce4bgpp2rcd13ifvqc3g","pricing_plan_id":"cebpf4jnsgd1na2vs0mg"},{"bike_id":"3a98edc5-4897-4a84-8555-0a01bdd33b75","system_id":"levelo_inurba_marseille","lat":43.29101,"lon":5.38146,"is_reserved":false,"is_disabled":false,"rental_uris":{"android":"levelo://app?vid=3a98edc5-4897-4a84-8555-0a01bdd33b75","ios":"levelo://app?vid=3a98edc5-4897-4a84-8555-0a01bdd33b75"},"vehicle_type_id":"4","last_reported":1747220927,"current_range_meters":3200,"station_id":"ce4bh512rcd13ifvqe2g","pricing_plan_id":"cebpf4jnsgd1na2vs0mg"},{"bike_id":"91ec453e-4b86-48c2-940e-6a9d67d81d13","system_id":"levelo_inurba_marseille","lat":43.23966,"lon":5.36633,"is_reserved":false,"is_disabled":false,"rental_uris":{"android":"levelo://app?vid=91ec453e-4b86-48c2-940e-6a9d67d81d13","ios":"levelo://app?vid=91ec453e-4b86-48c2-940e-6a9d67d81d13"},"vehicle_type_id":"4","last_reported":1747220927,"current_range_meters":3200,"station_id":"ce4bhi12rcd13ifvqfp0","pricing_plan_id":"cebpf4jnsgd1na2vs0mg"},{"bike_id":"c5747f2d-172c-414d-9784-5265c3606a61","system_id":"levelo_inurba_marseille","lat":43.27497,"lon":5.42451,"is_reserved":false,"is_disabled":false,"rental_uris":{"android":"levelo://app?vid=c5747f2d-172c-414d-9784-5265c3606a61","ios":"levelo://app?vid=c5747f2d-172c-414d-9784-5265c3606a61"},"vehicle_type_id":"4","last_reported":1747220927,"current_range_meters":3200,"station_id":"ce4bhn92rcd13ifvqgrg","pricing_plan_id":"cebpf4jnsgd1na2vs0mg"},{"bike_id":"134a89ce-f753-43dc-889c-6928be5ff929","system_id":"levelo_inurba_marseille","lat":43.25864,"lon":5.39905,"is_reserved":false,"is_disabled":false,"rental_uris":{"android":"levelo://app?vid=134a89ce-f753-43dc-889c-6928be5ff929","ios":"levelo://app?vid=134a89ce-f753-43dc-889c-6928be5ff929"},"vehicle_type_id":"4","last_reported":1747220927,"current_range_meters":3600,"station_id":"ce4bhl92rcd13ifvqghg","pricing_plan_id":"cebpf4jnsgd1na2vs0mg"},{"bike_id":"c76c8908-350c-40ff-ba98-b7e03de746ea","system_id":"levelo_inurba_marseille","lat":43.29708,"lon":5.36269,"is_reserved":false,"is_disabled":false,"rental_uris":{"android":"levelo://app?vid=c76c8908-350c-40ff-ba98-b7e03de746ea","ios":"levelo://app?vid=c76c8908-350c-40ff-ba98-b7e03de746ea"},"vehicle_type_id":"4","last_reported":1747220927,"current_range_meters":4000,"station_id":"","pricing_plan_id":"cebpf4jnsgd1na2vs0mg"},{"bike_id":"f85d6687-8d1b-483f-a647-ddfde422825e","system_id":"levelo_inurba_marseille","lat":43.30791,"lon":5.37646,"is_reserved":false,"is_disabled":false,"rental_uris":{"android":"levelo://app?vid=f85d6687-8d1b-483f-a647-ddfde422825e","ios":"levelo://app?vid=f85d6687-8d1b-483f-a647-ddfde422825e"},"vehicle_type_id":"4","last_reported":1747220927,"current_range_meters":4000,"station_id":"ce4bgv92rcd13ifvqcq0","pricing_plan_id":"cebpf4jnsgd1na2vs0mg"},{"bike_id":"e221678c-f5a6-427b-b9de-2a6a41a3db78","system_id":"levelo_inurba_marseille","lat":43.24653,"lon":5.38901,"is_reserved":false,"is_disabled":false,"rental_uris":{"android":"levelo://app?vid=e221678c-f5a6-427b-b9de-2a6a41a3db78","ios":"levelo://app?vid=e221678c-f5a6-427b-b9de-2a6a41a3db78"},"vehicle_type_id":"4","last_reported":1747220927,"current_range_meters":4000,"station_id":"ce4bhg12rcd13ifvqf60","pricing_plan_id":"cebpf4jnsgd1na2vs0mg"},{"bike_id":"f61d6bdd-c4f1-4f6d-b581-ea58987bcae0","system_id":"levelo_inurba_marseille","lat":43.23152,"lon":5.43731,"is_reserved":false,"is_disabled":false,"rental_uris":{"android":"levelo://app?vid=f61d6bdd-c4f1-4f6d-b581-ea58987bcae0","ios":"levelo://app?vid=f61d6bdd-c4f1-4f6d-b581-ea58987bcae0"},"vehicle_type_id":"4","last_reported":1747220927,"current_range_meters":4400,"station_id":"ce4bhmp2rcd13ifvqgog","pricing_plan_id":"cebpf4jnsgd1na2vs0mg"},{"bike_id":"b017a755-874d-477f-bcdf-6aa9f1c23ec2","system_id":"levelo_inurba_marseille","lat":43.30791,"lon":5.37307,"is_reserved":false,"is_disabled":false,"rental_uris":{"android":"levelo://app?vid=b017a755-874d-477f-bcdf-6aa9f1c23ec2","ios":"levelo://app?vid=b017a755-874d-477f-bcdf-6aa9f1c23ec2"},"vehicle_type_id":"4","last_reported":1747220927,"current_range_meters":4800,"station_id":"","pricing_plan_id":"cebpf4jnsgd1na2vs0mg"},{"bike_id":"b3e3bca4-705f-4ac4-a437-7c2c447d4e87","system_id":"levelo_inurba_marseille","lat":43.28346,"lon":5.38093,"is_reserved":false,"is_disabled":false,"rental_uris":{"android":"levelo://app?vid=b3e3bca4-705f-4ac4-a437-7c2c447d4e87","ios":"levelo://app?vid=b3e3bca4-705f-4ac4-a437-7c2c447d4e87"},"vehicle_type_id":"4","last_reported":1747220927,"current_range_meters":4800,"station_id":"ce4bh412rcd13ifvqdr0","pricing_plan_id":"cebpf4jnsgd1na2vs0mg"},{"bike_id":"dc53ac2c-033a-4bd1-9d45-c92b72b8ce0a","system_id":"levelo_inurba_marseille","lat":43.28078,"lon":5.39658,"is_reserved":false,"is_disabled":false,"rental_uris":{"android":"levelo://app?vid=dc53ac2c-033a-4bd1-9d45-c92b72b8ce0a","ios":"levelo://app?vid=dc53ac2c-033a-4bd1-9d45-c92b72b8ce0a"},"vehicle_type_id":"4","last_reported":1747220927,"current_range_meters":4800,"station_id":"ce4bho12rcd13ifvqh2g","pricing_plan_id":"cebpf4jnsgd1na2vs0mg"},{"bike_id":"e42e17e5-d574-40b9-811b-e914acd6632f","system_id":"levelo_inurba_marseille","lat":43.23042,"lon":5.35509,"is_reserved":false,"is_disabled":false,"rental_uris":{"android":"levelo://app?vid=e42e17e5-d574-40b9-811b-e914acd6632f","ios":"levelo://app?vid=e42e17e5-d574-40b9-811b-e914acd6632f"},"vehicle_type_id":"4","last_reported":1747220927,"current_range_meters":4800,"station_id":"cpo3342slgdg3j2ifvpg","pricing_plan_id":"cebpf4jnsgd1na2vs0mg"},{"bike_id":"72925509-a70c-4976-a362-3b48a1bea45c","system_id":"levelo_inurba_marseille","lat":43.29039,"lon":5.3592,"is_reserved":false,"is_disabled":false,"rental_uris":{"android":"levelo://app?vid=72925509-a70c-4976-a362-3b48a1bea45c","ios":"levelo://app?vid=72925509-a70c-4976-a362-3b48a1bea45c"},"vehicle_type_id":"4","last_reported":1747220927,"current_range_meters":5600,"station_id":"ce4bha92rcd13ifvqeg0","pricing_plan_id":"cebpf4jnsgd1na2vs0mg"},{"bike_id":"d70a394b-e40a-459a-b5df-ab0f03f3fb36","system_id":"levelo_inurba_marseille","lat":43.32541,"lon":5.4143,"is_reserved":false,"is_disabled":false,"rental_uris":{"android":"levelo://app?vid=d70a394b-e40a-459a-b5df-ab0f03f3fb36","ios":"levelo://app?vid=d70a394b-e40a-459a-b5df-ab0f03f3fb36"},"vehicle_type_id":"4","last_reported":1747220927,"current_range_meters":6000,"station_id":"ce4bhq12rcd13ifvqhhg","pricing_plan_id":"cebpf4jnsgd1na2vs0mg"},{"bike_id":"a8e6c40c-4c85-4bd6-ab67-cc8d051094be","system_id":"levelo_inurba_marseille","lat":43.30145,"lon":5.37416,"is_reserved":false,"is_disabled":false,"rental_uris":{"android":"levelo://app?vid=a8e6c40c-4c85-4bd6-ab67-cc8d051094be","ios":"levelo://app?vid=a8e6c40c-4c85-4bd6-ab67-cc8d051094be"},"vehicle_type_id":"4","last_reported":1747220927,"current_range_meters":6400,"station_id":"ce4bgs92rcd13ifvqcc0","pricing_plan_id":"cebpf4jnsgd1na2vs0mg"},{"bike_id":"22314cb5-11f2-4604-a5a5-9d4d7504b3d9","system_id":"levelo_inurba_marseille","lat":43.23143,"lon":5.43698,"is_reserved":false,"is_disabled":false,"rental_uris":{"android":"levelo://app?vid=22314cb5-11f2-4604-a5a5-9d4d7504b3d9","ios":"levelo://app?vid=22314cb5-11f2-4604-a5a5-9d4d7504b3d9"},"vehicle_type_id":"4","last_reported":1747220927,"current_range_meters":6400,"station_id":"ce4bhmp2rcd13ifvqgog","pricing_plan_id":"cebpf4jnsgd1na2vs0mg"},{"bike_id":"ce4325af-2448-4172-bdec-81d552ee0b62","system_id":"levelo_inurba_marseille","lat":43.261794,"lon":5.420262,"is_reserved":false,"is_disabled":false,"rental_uris":{"android":"levelo://app?vid=ce4325af-2448-4172-bdec-81d552ee0b62","ios":"levelo://app?vid=ce4325af-2448-4172-bdec-81d552ee0b62"},"vehicle_type_id":"4","last_reported":1747220927,"current_range_meters":6800,"station_id":"","pricing_plan_id":"cebpf4jnsgd1na2vs0mg"},{"bike_id":"d1f317ea-205d-499c-8c37-9dc0250e2058","system_id":"levelo_inurba_marseille","lat":43.2974,"lon":5.36243,"is_reserved":false,"is_disabled":false,"rental_uris":{"android":"levelo://app?vid=d1f317ea-205d-499c-8c37-9dc0250e2058","ios":"levelo://app?vid=d1f317ea-205d-499c-8c37-9dc0250e2058"},"vehicle_type_id":"4","last_reported":1747220927,"current_range_meters":6800,"station_id":"","pricing_plan_id":"cebpf4jnsgd1na2vs0mg"},{"bike_id":"6347b4a4-5dba-428e-b8ac-9084a2f0a08b","system_id":"levelo_inurba_marseille","lat":43.29615,"lon":5.37172,"is_reserved":false,"is_disabled":false,"rental_uris":{"android":"levelo://app?vid=6347b4a4-5dba-428e-b8ac-9084a2f0a08b","ios":"levelo://app?vid=6347b4a4-5dba-428e-b8ac-9084a2f0a08b"},"vehicle_type_id":"4","last_reported":1747220927,"current_range_meters":6800,"station_id":"ce4bgnh2rcd13ifvqc0g","pricing_plan_id":"cebpf4jnsgd1na2vs0mg"},{"bike_id":"3b763487-9989-4bfd-963d-7d6731a25421","system_id":"levelo_inurba_marseille","lat":43.305605,"lon":5.367035,"is_reserved":false,"is_disabled":false,"rental_uris":{"android":"levelo://app?vid=3b763487-9989-4bfd-963d-7d6731a25421","ios":"levelo://app?vid=3b763487-9989-4bfd-963d-7d6731a25421"},"vehicle_type_id":"4","last_reported":1747220927,"current_range_meters":6800,"station_id":"ce4bgrp2rcd13ifvqc9g","pricing_plan_id":"cebpf4jnsgd1na2vs0mg"},{"bike_id":"fa026843-5050-449f-bf4b-f103c43727b3","system_id":"levelo_inurba_marseille","lat":43.30121,"lon":5.39857,"is_reserved":false,"is_disabled":false,"rental_uris":{"android":"levelo://app?vid=fa026843-5050-449f-bf4b-f103c43727b3","ios":"levelo://app?vid=fa026843-5050-449f-bf4b-f103c43727b3"},"vehicle_type_id":"4","last_reported":1747220927,"current_range_meters":6800,"station_id":"ce4bh0h2rcd13ifvqd40","pricing_plan_id":"cebpf4jnsgd1na2vs0mg"},{"bike_id":"3f40cce7-bfb2-4d47-a25b-e48f7902c1e3","system_id":"levelo_inurba_marseille","lat":43.23152,"lon":5.43701,"is_reserved":false,"is_disabled":false,"rental_uris":{"android":"levelo://app?vid=3f40cce7-bfb2-4d47-a25b-e48f7902c1e3","ios":"levelo://app?vid=3f40cce7-bfb2-4d47-a25b-e48f7902c1e3"},"vehicle_type_id":"4","last_reported":1747220927,"current_range_meters":6800,"station_id":"ce4bhmp2rcd13ifvqgog","pricing_plan_id":"cebpf4jnsgd1na2vs0mg"},{"bike_id":"56bea2d5-1851-4bc0-b9ec-2abbd891bd8c","system_id":"levelo_inurba_marseille","lat":43.24167,"lon":5.36383,"is_reserved":false,"is_disabled":false,"rental_uris":{"android":"levelo://app?vid=56bea2d5-1851-4bc0-b9ec-2abbd891bd8c","ios":"levelo://app?vid=56bea2d5-1851-4bc0-b9ec-2abbd891bd8c"},"vehicle_type_id":"4","last_reported":1747220927,"current_range_meters":6800,"station_id":"cpo36qri1sfpv3e86is0","pricing_plan_id":"cebpf4jnsgd1na2vs0mg"},{"bike_id":"9845377c-6290-4687-b606-635f473ca570","system_id":"levelo_inurba_marseille","lat":43.2963,"lon":5.40599,"is_reserved":false,"is_disabled":false,"rental_uris":{"android":"levelo://app?vid=9845377c-6290-4687-b606-635f473ca570","ios":"levelo://app?vid=9845377c-6290-4687-b606-635f473ca570"},"vehicle_type_id":"4","last_reported":1747220927,"current_range_meters":7200,"station_id":"ce4bh0h2rcd13ifvqd60","pricing_plan_id":"cebpf4jnsgd1na2vs0mg"},{"bike_id":"0d312b35-2ce9-4c92-957a-24f41a52c690","system_id":"levelo_inurba_marseille","lat":43.29193,"lon":5.35809,"is_reserved":false,"is_disabled":false,"rental_uris":{"android":"levelo://app?vid=0d312b35-2ce9-4c92-957a-24f41a52c690","ios":"levelo://app?vid=0d312b35-2ce9-4c92-957a-24f41a52c690"},"vehicle_type_id":"4","last_reported":1747220927,"current_range_meters":7200,"station_id":"ce4bhb12rcd13ifvqel0","pricing_plan_id":"cebpf4jnsgd1na2vs0mg"},{"bike_id":"952fe9d3-3cfa-4c1b-accc-cc57f0c0dcb8","system_id":"levelo_inurba_marseille","lat":43.28863,"lon":5.35851,"is_reserved":false,"is_disabled":false,"rental_uris":{"android":"levelo://app?vid=952fe9d3-3cfa-4c1b-accc-cc57f0c0dcb8","ios":"levelo://app?vid=952fe9d3-3cfa-4c1b-accc-cc57f0c0dcb8"},"vehicle_type_id":"4","last_reported":1747220927,"current_range_meters":7200,"station_id":"ce4bhb12rcd13ifvqem0","pricing_plan_id":"cebpf4jnsgd1na2vs0mg"},{"bike_id":"80b39321-8e74-488a-9522-21fc952cbce9","system_id":"levelo_inurba_marseille","lat":43.28276,"lon":5.35062,"is_reserved":false,"is_disabled":false,"rental_uris":{"android":"levelo://app?vid=80b39321-8e74-488a-9522-21fc952cbce9","ios":"levelo://app?vid=80b39321-8e74-488a-9522-21fc952cbce9"},"vehicle_type_id":"4","last_reported":1747220927,"current_range_meters":7200,"station_id":"ce4bhbp2rcd13ifvqerg","pricing_plan_id":"cebpf4jnsgd1na2vs0mg"},{"bike_id":"5de1e8df-cec1-47cf-b554-41f6e726d337","system_id":"levelo_inurba_marseille","lat":43.27418,"lon":5.40618,"is_reserved":false,"is_disabled":false,"rental_uris":{"android":"levelo://app?vid=5de1e8df-cec1-47cf-b554-41f6e726d337","ios":"levelo://app?vid=5de1e8df-cec1-47cf-b554-41f6e726d337"},"vehicle_type_id":"4","last_reported":1747220927,"current_range_meters":8000,"station_id":"","pricing_plan_id":"cebpf4jnsgd1na2vs0mg"},{"bike_id":"0e2106a1-cae0-4243-b281-d14bba89806b","system_id":"levelo_inurba_marseille","lat":43.30773,"lon":5.37655,"is_reserved":false,"is_disabled":false,"rental_uris":{"android":"levelo://app?vid=0e2106a1-cae0-4243-b281-d14bba89806b","ios":"levelo://app?vid=0e2106a1-cae0-4243-b281-d14bba89806b"},"vehicle_type_id":"4","last_reported":1747220927,"current_range_meters":8000,"station_id":"ce4bgv92rcd13ifvqcq0","pricing_plan_id":"cebpf4jnsgd1na2vs0mg"},{"bike_id":"f9f7b5e9-9297-4919-88e5-ecb45681f574","system_id":"levelo_inurba_marseille","lat":43.29037,"lon":5.39981,"is_reserved":false,"is_disabled":false,"rental_uris":{"android":"levelo://app?vid=f9f7b5e9-9297-4919-88e5-ecb45681f574","ios":"levelo://app?vid=f9f7b5e9-9297-4919-88e5-ecb45681f574"},"vehicle_type_id":"4","last_reported":1747220927,"current_range_meters":8000,"station_id":"ce4bh392rcd13ifvqdm0","pricing_plan_id":"cebpf4jnsgd1na2vs0mg"},{"bike_id":"19d2ccf1-1175-4e2c-98bc-515b66a4685e","system_id":"levelo_inurba_marseille","lat":43.29164,"lon":5.37158,"is_reserved":false,"is_disabled":false,"rental_uris":{"android":"levelo://app?vid=19d2ccf1-1175-4e2c-98bc-515b66a4685e","ios":"levelo://app?vid=19d2ccf1-1175-4e2c-98bc-515b66a4685e"},"vehicle_type_id":"4","last_reported":1747220927,"current_range_meters":8000,"station_id":"ce4bha92rcd13ifvqeh0","pricing_plan_id":"cebpf4jnsgd1na2vs0mg"},{"bike_id":"733ca2c5-e624-4584-8e32-a31bfef03fb6","system_id":"levelo_inurba_marseille","lat":43.2606,"lon":5.39401,"is_reserved":false,"is_disabled":false,"rental_uris":{"android":"levelo://app?vid=733ca2c5-e624-4584-8e32-a31bfef03fb6","ios":"levelo://app?vid=733ca2c5-e624-4584-8e32-a31bfef03fb6"},"vehicle_type_id":"4","last_reported":1747220927,"current_range_meters":8000,"station_id":"ce4bhh92rcd13ifvqfj0","pricing_plan_id":"cebpf4jnsgd1na2vs0mg"},{"bike_id":"3a7a364f-2dd1-40ad-b066-b8be424cdeb5","system_id":"levelo_inurba_marseille","lat":43.24167,"lon":5.39724,"is_reserved":false,"is_disabled":false,"rental_uris":{"android":"levelo://app?vid=3a7a364f-2dd1-40ad-b066-b8be424cdeb5","ios":"levelo://app?vid=3a7a364f-2dd1-40ad-b066-b8be424cdeb5"},"vehicle_type_id":"4","last_reported":1747220927,"current_range_meters":8000,"station_id":"ce4bhn12rcd13ifvqgpg","pricing_plan_id":"cebpf4jnsgd1na2vs0mg"},{"bike_id":"558721a6-9cf7-43db-afd2-8099273c00be","system_id":"levelo_inurba_marseille","lat":43.24071,"lon":5.37764,"is_reserved":false,"is_disabled":false,"rental_uris":{"android":"levelo://app?vid=558721a6-9cf7-43db-afd2-8099273c00be","ios":"levelo://app?vid=558721a6-9cf7-43db-afd2-8099273c00be"},"vehicle_type_id":"4","last_reported":1747220927,"current_range_meters":8000,"station_id":"ce4bhnp2rcd13ifvqgvg","pricing_plan_id":"cebpf4jnsgd1na2vs0mg"},{"bike_id":"d165ebe9-72e4-4dea-92a0-4589e2d21c6d","system_id":"levelo_inurba_marseille","lat":43.2119,"lon":5.35075,"is_reserved":false,"is_disabled":false,"rental_uris":{"android":"levelo://app?vid=d165ebe9-72e4-4dea-92a0-4589e2d21c6d","ios":"levelo://app?vid=d165ebe9-72e4-4dea-92a0-4589e2d21c6d"},"vehicle_type_id":"4","last_reported":1747220927,"current_range_meters":8000,"station_id":"st_cvj6sg6p6f1abm77japg","pricing_plan_id":"cebpf4jnsgd1na2vs0mg"},{"bike_id":"e329e74f-04f8-4aab-a850-b310dcaba27d","system_id":"levelo_inurba_marseille","lat":43.27324,"lon":5.39064,"is_reserved":false,"is_disabled":false,"rental_uris":{"android":"levelo://app?vid=e329e74f-04f8-4aab-a850-b310dcaba27d","ios":"levelo://app?vid=e329e74f-04f8-4aab-a850-b310dcaba27d"},"vehicle_type_id":"4","last_reported":1747220927,"current_range_meters":8400,"station_id":"ce4bhgp2rcd13ifvqfe0","pricing_plan_id":"cebpf4jnsgd1na2vs0mg"},{"bike_id":"f37b7848-b34f-4203-8cd6-ee4ac88ff930","system_id":"levelo_inurba_marseille","lat":43.23958,"lon":5.36629,"is_reserved":false,"is_disabled":false,"rental_uris":{"android":"levelo://app?vid=f37b7848-b34f-4203-8cd6-ee4ac88ff930","ios":"levelo://app?vid=f37b7848-b34f-4203-8cd6-ee4ac88ff930"},"vehicle_type_id":"4","last_reported":1747220927,"current_range_meters":8400,"station_id":"ce4bhi12rcd13ifvqfp0","pricing_plan_id":"cebpf4jnsgd1na2vs0mg"},{"bike_id":"671f5c7d-5c2a-42ad-a45c-3e1e3929598b","system_id":"levelo_inurba_marseille","lat":43.29969,"lon":5.385,"is_reserved":false,"is_disabled":false,"rental_uris":{"android":"levelo://app?vid=671f5c7d-5c2a-42ad-a45c-3e1e3929598b","ios":"levelo://app?vid=671f5c7d-5c2a-42ad-a45c-3e1e3929598b"},"vehicle_type_id":"4","last_reported":1747220927,"current_range_meters":8800,"station_id":"ce4bgj92rcd13ifvqbd0","pricing_plan_id":"cebpf4jnsgd1na2vs0mg"},{"bike_id":"0647ad68-de49-412d-8b71-f129781ad5c8","system_id":"levelo_inurba_marseille","lat":43.262118,"lon":5.374391,"is_reserved":false,"is_disabled":false,"rental_uris":{"android":"levelo://app?vid=0647ad68-de49-412d-8b71-f129781ad5c8","ios":"levelo://app?vid=0647ad68-de49-412d-8b71-f129781ad5c8"},"vehicle_type_id":"4","last_reported":1747220927,"current_range_meters":8800,"station_id":"ce4bhgp2rcd13ifvqfc0","pricing_plan_id":"cebpf4jnsgd1na2vs0mg"},{"bike_id":"1f0e1db7-413a-442c-b423-93b2c9feefb7","system_id":"levelo_inurba_marseille","lat":43.30597,"lon":5.37219,"is_reserved":false,"is_disabled":false,"rental_uris":{"android":"levelo://app?vid=1f0e1db7-413a-442c-b423-93b2c9feefb7","ios":"levelo://app?vid=1f0e1db7-413a-442c-b423-93b2c9feefb7"},"vehicle_type_id":"4","last_reported":1747220927,"current_range_meters":9200,"station_id":"ce4bgqh2rcd13ifvqc4g","pricing_plan_id":"cebpf4jnsgd1na2vs0mg"},{"bike_id":"e0ecd592-44b2-45bd-9465-c25ac5fa2fd2","system_id":"levelo_inurba_marseille","lat":43.28668,"lon":5.38657,"is_reserved":false,"is_disabled":false,"rental_uris":{"android":"levelo://app?vid=e0ecd592-44b2-45bd-9465-c25ac5fa2fd2","ios":"levelo://app?vid=e0ecd592-44b2-45bd-9465-c25ac5fa2fd2"},"vehicle_type_id":"4","last_reported":1747220927,"current_range_meters":9200,"station_id":"ce4bh492rcd13ifvqdug","pricing_plan_id":"cebpf4jnsgd1na2vs0mg"},{"bike_id":"98c7f29b-7798-4ca7-93a9-2f8204d48cbb","system_id":"levelo_inurba_marseille","lat":43.2842,"lon":5.34981,"is_reserved":false,"is_disabled":false,"rental_uris":{"android":"levelo://app?vid=98c7f29b-7798-4ca7-93a9-2f8204d48cbb","ios":"levelo://app?vid=98c7f29b-7798-4ca7-93a9-2f8204d48cbb"},"vehicle_type_id":"4","last_reported":1747220927,"current_range_meters":9200,"station_id":"ce4bhbh2rcd13ifvqepg","pricing_plan_id":"cebpf4jnsgd1na2vs0mg"},{"bike_id":"df01bf56-fa20-408c-a8ef-c07192a995ae","system_id":"levelo_inurba_marseille","lat":43.23146,"lon":5.43718,"is_reserved":false,"is_disabled":false,"rental_uris":{"android":"levelo://app?vid=df01bf56-fa20-408c-a8ef-c07192a995ae","ios":"levelo://app?vid=df01bf56-fa20-408c-a8ef-c07192a995ae"},"vehicle_type_id":"4","last_reported":1747220927,"current_range_meters":9200,"station_id":"ce4bhmp2rcd13ifvqgog","pricing_plan_id":"cebpf4jnsgd1na2vs0mg"},{"bike_id":"4c36b3c2-b166-4f1b-a391-dae88ab7fba4","system_id":"levelo_inurba_marseille","lat":43.28717,"lon":5.36092,"is_reserved":false,"is_disabled":false,"rental_uris":{"android":"levelo://app?vid=4c36b3c2-b166-4f1b-a391-dae88ab7fba4","ios":"levelo://app?vid=4c36b3c2-b166-4f1b-a391-dae88ab7fba4"},"vehicle_type_id":"4","last_reported":1747220927,"current_range_meters":9200,"station_id":"cki0cbj6b192h4jlfktg","pricing_plan_id":"cebpf4jnsgd1na2vs0mg"},{"bike_id":"71e3c66b-295c-422e-8a2e-07088555be29","system_id":"levelo_inurba_marseille","lat":43.21186,"lon":5.35074,"is_reserved":false,"is_disabled":false,"rental_uris":{"android":"levelo://app?vid=71e3c66b-295c-422e-8a2e-07088555be29","ios":"levelo://app?vid=71e3c66b-295c-422e-8a2e-07088555be29"},"vehicle_type_id":"4","last_reported":1747220927,"current_range_meters":9200,"station_id":"st_cvj6sg6p6f1abm77japg","pricing_plan_id":"cebpf4jnsgd1na2vs0mg"},{"bike_id":"59af256a-7624-40fc-aea1-4d80b2b595fc","system_id":"levelo_inurba_marseille","lat":43.31087,"lon":5.40063,"is_reserved":false,"is_disabled":false,"rental_uris":{"android":"levelo://app?vid=59af256a-7624-40fc-aea1-4d80b2b595fc","ios":"levelo://app?vid=59af256a-7624-40fc-aea1-4d80b2b595fc"},"vehicle_type_id":"4","last_reported":1747220927,"current_range_meters":9600,"station_id":"","pricing_plan_id":"cebpf4jnsgd1na2vs0mg"},{"bike_id":"64f09f63-0324-4941-8f27-c945f4fb0e53","system_id":"levelo_inurba_marseille","lat":43.30787,"lon":5.37639,"is_reserved":false,"is_disabled":false,"rental_uris":{"android":"levelo://app?vid=64f09f63-0324-4941-8f27-c945f4fb0e53","ios":"levelo://app?vid=64f09f63-0324-4941-8f27-c945f4fb0e53"},"vehicle_type_id":"4","last_reported":1747220927,"current_range_meters":9600,"station_id":"ce4bgv92rcd13ifvqcq0","pricing_plan_id":"cebpf4jnsgd1na2vs0mg"},{"bike_id":"ab53e763-18b0-4f85-83a2-945c5438d78e","system_id":"levelo_inurba_marseille","lat":43.281538,"lon":5.426462,"is_reserved":false,"is_disabled":false,"rental_uris":{"android":"levelo://app?vid=ab53e763-18b0-4f85-83a2-945c5438d78e","ios":"levelo://app?vid=ab53e763-18b0-4f85-83a2-945c5438d78e"},"vehicle_type_id":"4","last_reported":1747220927,"current_range_meters":9600,"station_id":"ce4bhnh2rcd13ifvqgug","pricing_plan_id":"cebpf4jnsgd1na2vs0mg"},{"bike_id":"e6ae43cc-bfd1-4764-9a04-fdcacfe6e804","system_id":"levelo_inurba_marseille","lat":43.325278,"lon":5.414771,"is_reserved":false,"is_disabled":false,"rental_uris":{"android":"levelo://app?vid=e6ae43cc-bfd1-4764-9a04-fdcacfe6e804","ios":"levelo://app?vid=e6ae43cc-bfd1-4764-9a04-fdcacfe6e804"},"vehicle_type_id":"4","last_reported":1747220927,"current_range_meters":9600,"station_id":"ce4bhq12rcd13ifvqhhg","pricing_plan_id":"cebpf4jnsgd1na2vs0mg"},{"bike_id":"d559a899-b1bd-4a71-a12e-4458bcd0cdbf","system_id":"levelo_inurba_marseille","lat":43.23055,"lon":5.35492,"is_reserved":false,"is_disabled":false,"rental_uris":{"android":"levelo://app?vid=d559a899-b1bd-4a71-a12e-4458bcd0cdbf","ios":"levelo://app?vid=d559a899-b1bd-4a71-a12e-4458bcd0cdbf"},"vehicle_type_id":"4","last_reported":1747220927,"current_range_meters":9600,"station_id":"cpo3342slgdg3j2ifvpg","pricing_plan_id":"cebpf4jnsgd1na2vs0mg"},{"bike_id":"67be698f-93b9-42d6-9a62-3cb5251749db","system_id":"levelo_inurba_marseille","lat":43.30535,"lon":5.3672,"is_reserved":false,"is_disabled":false,"rental_uris":{"android":"levelo://app?vid=67be698f-93b9-42d6-9a62-3cb5251749db","ios":"levelo://app?vid=67be698f-93b9-42d6-9a62-3cb5251749db"},"vehicle_type_id":"4","last_reported":1747220927,"current_range_meters":10000,"station_id":"ce4bgrp2rcd13ifvqc9g","pricing_plan_id":"cebpf4jnsgd1na2vs0mg"},{"bike_id":"38e2d691-0404-4dfd-9034-1f1fc5400598","system_id":"levelo_inurba_marseille","lat":43.2439,"lon":5.37064,"is_reserved":false,"is_disabled":false,"rental_uris":{"android":"levelo://app?vid=38e2d691-0404-4dfd-9034-1f1fc5400598","ios":"levelo://app?vid=38e2d691-0404-4dfd-9034-1f1fc5400598"},"vehicle_type_id":"4","last_reported":1747220927,"current_range_meters":10000,"station_id":"ce4bhhh2rcd13ifvqfk0","pricing_plan_id":"cebpf4jnsgd1na2vs0mg"},{"bike_id":"a51fa631-e7b9-40ea-85bd-210c288dbd6d","system_id":"levelo_inurba_marseille","lat":43.23182,"lon":5.39994,"is_reserved":false,"is_disabled":false,"rental_uris":{"android":"levelo://app?vid=a51fa631-e7b9-40ea-85bd-210c288dbd6d","ios":"levelo://app?vid=a51fa631-e7b9-40ea-85bd-210c288dbd6d"},"vehicle_type_id":"4","last_reported":1747220927,"current_range_meters":10000,"station_id":"ce4bhn12rcd13ifvqgqg","pricing_plan_id":"cebpf4jnsgd1na2vs0mg"},{"bike_id":"6278b3aa-ab3e-48a5-b735-2fd596ccf05f","system_id":"levelo_inurba_marseille","lat":43.28417,"lon":5.34988,"is_reserved":false,"is_disabled":false,"rental_uris":{"android":"levelo://app?vid=6278b3aa-ab3e-48a5-b735-2fd596ccf05f","ios":"levelo://app?vid=6278b3aa-ab3e-48a5-b735-2fd596ccf05f"},"vehicle_type_id":"4","last_reported":1747220927,"current_range_meters":10800,"station_id":"ce4bhbh2rcd13ifvqepg","pricing_plan_id":"cebpf4jnsgd1na2vs0mg"},{"bike_id":"810f3210-bbc7-4475-bb40-b2f3a8c7220f","system_id":"levelo_inurba_marseille","lat":43.24663,"lon":5.38164,"is_reserved":false,"is_disabled":false,"rental_uris":{"android":"levelo://app?vid=810f3210-bbc7-4475-bb40-b2f3a8c7220f","ios":"levelo://app?vid=810f3210-bbc7-4475-bb40-b2f3a8c7220f"},"vehicle_type_id":"4","last_reported":1747220927,"current_range_meters":10800,"station_id":"ce4bhih2rcd13ifvqfr0","pricing_plan_id":"cebpf4jnsgd1na2vs0mg"},{"bike_id":"40c02d98-2abb-4ffe-b51b-2eb349bcf3e7","system_id":"levelo_inurba_marseille","lat":43.24665,"lon":5.38157,"is_reserved":false,"is_disabled":false,"rental_uris":{"android":"levelo://app?vid=40c02d98-2abb-4ffe-b51b-2eb349bcf3e7","ios":"levelo://app?vid=40c02d98-2abb-4ffe-b51b-2eb349bcf3e7"},"vehicle_type_id":"4","last_reported":1747220927,"current_range_meters":10800,"station_id":"ce4bhih2rcd13ifvqfr0","pricing_plan_id":"cebpf4jnsgd1na2vs0mg"},{"bike_id":"2d9c08c0-bf40-45c9-b1a8-d15c183a79bf","system_id":"levelo_inurba_marseille","lat":43.24181,"lon":5.39742,"is_reserved":false,"is_disabled":false,"rental_uris":{"android":"levelo://app?vid=2d9c08c0-bf40-45c9-b1a8-d15c183a79bf","ios":"levelo://app?vid=2d9c08c0-bf40-45c9-b1a8-d15c183a79bf"},"vehicle_type_id":"4","last_reported":1747220927,"current_range_meters":10800,"station_id":"ce4bhn12rcd13ifvqgpg","pricing_plan_id":"cebpf4jnsgd1na2vs0mg"},{"bike_id":"f8366aaa-dab8-4d23-bc38-6382e02451a4","system_id":"levelo_inurba_marseille","lat":43.27808,"lon":5.40748,"is_reserved":false,"is_disabled":false,"rental_uris":{"android":"levelo://app?vid=f8366aaa-dab8-4d23-bc38-6382e02451a4","ios":"levelo://app?vid=f8366aaa-dab8-4d23-bc38-6382e02451a4"},"vehicle_type_id":"4","last_reported":1747220927,"current_range_meters":10800,"station_id":"ce4bhnh2rcd13ifvqgtg","pricing_plan_id":"cebpf4jnsgd1na2vs0mg"},{"bike_id":"970b296e-c927-4bfc-89cc-9f289cee04a0","system_id":"levelo_inurba_marseille","lat":43.32108,"lon":5.36762,"is_reserved":false,"is_disabled":false,"rental_uris":{"android":"levelo://app?vid=970b296e-c927-4bfc-89cc-9f289cee04a0","ios":"levelo://app?vid=970b296e-c927-4bfc-89cc-9f289cee04a0"},"vehicle_type_id":"4","last_reported":1747220927,"current_range_meters":10800,"station_id":"ce4bhrh2rcd13ifvqhug","pricing_plan_id":"cebpf4jnsgd1na2vs0mg"},{"bike_id":"80e2ea7f-511c-4555-b6e4-0b32fa4ec3f0","system_id":"levelo_inurba_marseille","lat":43.305137,"lon":5.365394,"is_reserved":false,"is_disabled":false,"rental_uris":{"android":"levelo://app?vid=80e2ea7f-511c-4555-b6e4-0b32fa4ec3f0","ios":"levelo://app?vid=80e2ea7f-511c-4555-b6e4-0b32fa4ec3f0"},"vehicle_type_id":"4","last_reported":1747220927,"current_range_meters":11200,"station_id":"ce4bgs12rcd13ifvqcag","pricing_plan_id":"cebpf4jnsgd1na2vs0mg"},{"bike_id":"941b7ec3-2d23-4c8f-9061-9dc78a7af7d6","system_id":"levelo_inurba_marseille","lat":43.29,"lon":5.35602,"is_reserved":false,"is_disabled":false,"rental_uris":{"android":"levelo://app?vid=941b7ec3-2d23-4c8f-9061-9dc78a7af7d6","ios":"levelo://app?vid=941b7ec3-2d23-4c8f-9061-9dc78a7af7d6"},"vehicle_type_id":"4","last_reported":1747220927,"current_range_meters":11200,"station_id":"ce4bhb92rcd13ifvqen0","pricing_plan_id":"cebpf4jnsgd1na2vs0mg"},{"bike_id":"5a2fa20b-ef7e-4375-989f-b420b57e3fa2","system_id":"levelo_inurba_marseille","lat":43.27488,"lon":5.42449,"is_reserved":false,"is_disabled":false,"rental_uris":{"android":"levelo://app?vid=5a2fa20b-ef7e-4375-989f-b420b57e3fa2","ios":"levelo://app?vid=5a2fa20b-ef7e-4375-989f-b420b57e3fa2"},"vehicle_type_id":"4","last_reported":1747220927,"current_range_meters":11200,"station_id":"ce4bhn92rcd13ifvqgrg","pricing_plan_id":"cebpf4jnsgd1na2vs0mg"},{"bike_id":"cd844e34-8c0e-477b-bd76-87c2a59c2ca8","system_id":"levelo_inurba_marseille","lat":43.29267,"lon":5.3762,"is_reserved":false,"is_disabled":false,"rental_uris":{"android":"levelo://app?vid=cd844e34-8c0e-477b-bd76-87c2a59c2ca8","ios":"levelo://app?vid=cd844e34-8c0e-477b-bd76-87c2a59c2ca8"},"vehicle_type_id":"4","last_reported":1747220927,"current_range_meters":11600,"station_id":"ce4bgi12rcd13ifvqb80","pricing_plan_id":"cebpf4jnsgd1na2vs0mg"},{"bike_id":"d9bb2d82-9b24-4cac-b56d-75b27dbb75e9","system_id":"levelo_inurba_marseille","lat":43.29706,"lon":5.36607,"is_reserved":false,"is_disabled":false,"rental_uris":{"android":"levelo://app?vid=d9bb2d82-9b24-4cac-b56d-75b27dbb75e9","ios":"levelo://app?vid=d9bb2d82-9b24-4cac-b56d-75b27dbb75e9"},"vehicle_type_id":"4","last_reported":1747220927,"current_range_meters":11600,"station_id":"ce4bgn12rcd13ifvqbt0","pricing_plan_id":"cebpf4jnsgd1na2vs0mg"},{"bike_id":"8756aa35-b96d-4436-bc98-c159e0d74b6a","system_id":"levelo_inurba_marseille","lat":43.26556,"lon":5.37283,"is_reserved":false,"is_disabled":false,"rental_uris":{"android":"levelo://app?vid=8756aa35-b96d-4436-bc98-c159e0d74b6a","ios":"levelo://app?vid=8756aa35-b96d-4436-bc98-c159e0d74b6a"},"vehicle_type_id":"4","last_reported":1747220927,"current_range_meters":11600,"station_id":"ce4bhg12rcd13ifvqf70","pricing_plan_id":"cebpf4jnsgd1na2vs0mg"},{"bike_id":"ee47bcaa-015f-4ec1-b8ec-ac8c6906fcd6","system_id":"levelo_inurba_marseille","lat":43.25113,"lon":5.40319,"is_reserved":false,"is_disabled":false,"rental_uris":{"android":"levelo://app?vid=ee47bcaa-015f-4ec1-b8ec-ac8c6906fcd6","ios":"levelo://app?vid=ee47bcaa-015f-4ec1-b8ec-ac8c6906fcd6"},"vehicle_type_id":"4","last_reported":1747220927,"current_range_meters":11600,"station_id":"ce4bhlh2rcd13ifvqgig","pricing_plan_id":"cebpf4jnsgd1na2vs0mg"},{"bike_id":"940b3909-b6f0-4f89-adfd-175725c0aab3","system_id":"levelo_inurba_marseille","lat":43.259357,"lon":5.40901,"is_reserved":false,"is_disabled":false,"rental_uris":{"android":"levelo://app?vid=940b3909-b6f0-4f89-adfd-175725c0aab3","ios":"levelo://app?vid=940b3909-b6f0-4f89-adfd-175725c0aab3"},"vehicle_type_id":"4","last_reported":1747220927,"current_range_meters":11600,"station_id":"ce4bhm92rcd13ifvqglg","pricing_plan_id":"cebpf4jnsgd1na2vs0mg"},{"bike_id":"45cd3168-9d91-47df-b3a8-3a2e83ff8fd8","system_id":"levelo_inurba_marseille","lat":43.23149,"lon":5.43714,"is_reserved":false,"is_disabled":false,"rental_uris":{"android":"levelo://app?vid=45cd3168-9d91-47df-b3a8-3a2e83ff8fd8","ios":"levelo://app?vid=45cd3168-9d91-47df-b3a8-3a2e83ff8fd8"},"vehicle_type_id":"4","last_reported":1747220927,"current_range_meters":11600,"station_id":"ce4bhmp2rcd13ifvqgog","pricing_plan_id":"cebpf4jnsgd1na2vs0mg"},{"bike_id":"7395c0f9-eb26-4cbc-9f9b-9c1edf7364f4","system_id":"levelo_inurba_marseille","lat":43.32955,"lon":5.40539,"is_reserved":false,"is_disabled":false,"rental_uris":{"android":"levelo://app?vid=7395c0f9-eb26-4cbc-9f9b-9c1edf7364f4","ios":"levelo://app?vid=7395c0f9-eb26-4cbc-9f9b-9c1edf7364f4"},"vehicle_type_id":"4","last_reported":1747220927,"current_range_meters":12000,"station_id":"","pricing_plan_id":"cebpf4jnsgd1na2vs0mg"},{"bike_id":"6e18dbe2-30b8-44e1-bdfa-5f9c45d024ad","system_id":"levelo_inurba_marseille","lat":43.30118,"lon":5.39855,"is_reserved":false,"is_disabled":false,"rental_uris":{"android":"levelo://app?vid=6e18dbe2-30b8-44e1-bdfa-5f9c45d024ad","ios":"levelo://app?vid=6e18dbe2-30b8-44e1-bdfa-5f9c45d024ad"},"vehicle_type_id":"4","last_reported":1747220927,"current_range_meters":12000,"station_id":"ce4bh0h2rcd13ifvqd40","pricing_plan_id":"cebpf4jnsgd1na2vs0mg"},{"bike_id":"6c8ffca2-ce66-43e2-b58c-904a5a77a6d6","system_id":"levelo_inurba_marseille","lat":43.29274,"lon":5.36841,"is_reserved":false,"is_disabled":false,"rental_uris":{"android":"levelo://app?vid=6c8ffca2-ce66-43e2-b58c-904a5a77a6d6","ios":"levelo://app?vid=6c8ffca2-ce66-43e2-b58c-904a5a77a6d6"},"vehicle_type_id":"4","last_reported":1747220927,"current_range_meters":12000,"station_id":"ce4bhbp2rcd13ifvqesg","pricing_plan_id":"cebpf4jnsgd1na2vs0mg"},{"bike_id":"27882060-45ea-4718-b9c8-4ebcb5722718","system_id":"levelo_inurba_marseille","lat":43.26553,"lon":5.3728,"is_reserved":false,"is_disabled":false,"rental_uris":{"android":"levelo://app?vid=27882060-45ea-4718-b9c8-4ebcb5722718","ios":"levelo://app?vid=27882060-45ea-4718-b9c8-4ebcb5722718"},"vehicle_type_id":"4","last_reported":1747220927,"current_range_meters":12000,"station_id":"ce4bhg12rcd13ifvqf70","pricing_plan_id":"cebpf4jnsgd1na2vs0mg"},{"bike_id":"1feda3f1-70ba-4895-83be-f925da859e67","system_id":"levelo_inurba_marseille","lat":43.25867,"lon":5.39897,"is_reserved":false,"is_disabled":false,"rental_uris":{"android":"levelo://app?vid=1feda3f1-70ba-4895-83be-f925da859e67","ios":"levelo://app?vid=1feda3f1-70ba-4895-83be-f925da859e67"},"vehicle_type_id":"4","last_reported":1747220927,"current_range_meters":12000,"station_id":"ce4bhl92rcd13ifvqghg","pricing_plan_id":"cebpf4jnsgd1na2vs0mg"},{"bike_id":"40115fd5-f59f-4b0c-9552-a95b14ed5e7f","system_id":"levelo_inurba_marseille","lat":43.30935,"lon":5.36859,"is_reserved":false,"is_disabled":false,"rental_uris":{"android":"levelo://app?vid=40115fd5-f59f-4b0c-9552-a95b14ed5e7f","ios":"levelo://app?vid=40115fd5-f59f-4b0c-9552-a95b14ed5e7f"},"vehicle_type_id":"4","last_reported":1747220927,"current_range_meters":12400,"station_id":"ce4bgn92rcd13ifvqbvg","pricing_plan_id":"cebpf4jnsgd1na2vs0mg"},{"bike_id":"d91402de-e6e3-4577-89ea-24814ab57041","system_id":"levelo_inurba_marseille","lat":43.23124,"lon":5.43695,"is_reserved":false,"is_disabled":false,"rental_uris":{"android":"levelo://app?vid=d91402de-e6e3-4577-89ea-24814ab57041","ios":"levelo://app?vid=d91402de-e6e3-4577-89ea-24814ab57041"},"vehicle_type_id":"4","last_reported":1747220927,"current_range_meters":12400,"station_id":"ce4bhmp2rcd13ifvqgog","pricing_plan_id":"cebpf4jnsgd1na2vs0mg"},{"bike_id":"a6760d30-0aa5-4112-9a5b-20c348811594","system_id":"levelo_inurba_marseille","lat":43.23156,"lon":5.43715,"is_reserved":false,"is_disabled":false,"rental_uris":{"android":"levelo://app?vid=a6760d30-0aa5-4112-9a5b-20c348811594","ios":"levelo://app?vid=a6760d30-0aa5-4112-9a5b-20c348811594"},"vehicle_type_id":"4","last_reported":1747220927,"current_range_meters":12400,"station_id":"ce4bhmp2rcd13ifvqgog","pricing_plan_id":"cebpf4jnsgd1na2vs0mg"},{"bike_id":"fed244ed-2ea0-4c9e-858f-50d71797dc91","system_id":"levelo_inurba_marseille","lat":43.32654,"lon":5.40994,"is_reserved":false,"is_disabled":false,"rental_uris":{"android":"levelo://app?vid=fed244ed-2ea0-4c9e-858f-50d71797dc91","ios":"levelo://app?vid=fed244ed-2ea0-4c9e-858f-50d71797dc91"},"vehicle_type_id":"4","last_reported":1747220927,"current_range_meters":12400,"station_id":"ce4bhpp2rcd13ifvqhgg","pricing_plan_id":"cebpf4jnsgd1na2vs0mg"},{"bike_id":"273e5706-1fbe-4550-9fe4-01cc5735d32f","system_id":"levelo_inurba_marseille","lat":43.29962,"lon":5.38502,"is_reserved":false,"is_disabled":false,"rental_uris":{"android":"levelo://app?vid=273e5706-1fbe-4550-9fe4-01cc5735d32f","ios":"levelo://app?vid=273e5706-1fbe-4550-9fe4-01cc5735d32f"},"vehicle_type_id":"4","last_reported":1747220927,"current_range_meters":12800,"station_id":"ce4bgj92rcd13ifvqbd0","pricing_plan_id":"cebpf4jnsgd1na2vs0mg"},{"bike_id":"356eb65b-4211-494a-b4a2-fba28f60c55b","system_id":"levelo_inurba_marseille","lat":43.312761,"lon":5.401589,"is_reserved":false,"is_disabled":false,"rental_uris":{"android":"levelo://app?vid=356eb65b-4211-494a-b4a2-fba28f60c55b","ios":"levelo://app?vid=356eb65b-4211-494a-b4a2-fba28f60c55b"},"vehicle_type_id":"4","last_reported":1747220927,"current_range_meters":12800,"station_id":"ce4bh092rcd13ifvqd30","pricing_plan_id":"cebpf4jnsgd1na2vs0mg"},{"bike_id":"1e297e0e-a907-489c-9a22-1dfb89bfb64f","system_id":"levelo_inurba_marseille","lat":43.29233,"lon":5.36416,"is_reserved":false,"is_disabled":false,"rental_uris":{"android":"levelo://app?vid=1e297e0e-a907-489c-9a22-1dfb89bfb64f","ios":"levelo://app?vid=1e297e0e-a907-489c-9a22-1dfb89bfb64f"},"vehicle_type_id":"4","last_reported":1747220927,"current_range_meters":13600,"station_id":"","pricing_plan_id":"cebpf4jnsgd1na2vs0mg"},{"bike_id":"ef8b8435-5a14-4516-ac5d-8d497e1e85ba","system_id":"levelo_inurba_marseille","lat":43.25906,"lon":5.40875,"is_reserved":false,"is_disabled":false,"rental_uris":{"android":"levelo://app?vid=ef8b8435-5a14-4516-ac5d-8d497e1e85ba","ios":"levelo://app?vid=ef8b8435-5a14-4516-ac5d-8d497e1e85ba"},"vehicle_type_id":"4","last_reported":1747220927,"current_range_meters":13600,"station_id":"ce4bhm92rcd13ifvqglg","pricing_plan_id":"cebpf4jnsgd1na2vs0mg"},{"bike_id":"953c2388-4bcd-43dd-bcd3-b8960a7d9ce6","system_id":"levelo_inurba_marseille","lat":43.28441,"lon":5.39203,"is_reserved":false,"is_disabled":false,"rental_uris":{"android":"levelo://app?vid=953c2388-4bcd-43dd-bcd3-b8960a7d9ce6","ios":"levelo://app?vid=953c2388-4bcd-43dd-bcd3-b8960a7d9ce6"},"vehicle_type_id":"4","last_reported":1747220927,"current_range_meters":13600,"station_id":"ce4bhoh2rcd13ifvqh5g","pricing_plan_id":"cebpf4jnsgd1na2vs0mg"},{"bike_id":"69fdd0d4-102d-4d45-9066-c0c4d65e37dc","system_id":"levelo_inurba_marseille","lat":43.29037,"lon":5.39966,"is_reserved":false,"is_disabled":false,"rental_uris":{"android":"levelo://app?vid=69fdd0d4-102d-4d45-9066-c0c4d65e37dc","ios":"levelo://app?vid=69fdd0d4-102d-4d45-9066-c0c4d65e37dc"},"vehicle_type_id":"4","last_reported":1747220927,"current_range_meters":14000,"station_id":"ce4bh392rcd13ifvqdm0","pricing_plan_id":"cebpf4jnsgd1na2vs0mg"},{"bike_id":"bbea8d91-07a8-47f5-8ebf-0b7b435b1d0d","system_id":"levelo_inurba_marseille","lat":43.25864,"lon":5.39898,"is_reserved":false,"is_disabled":false,"rental_uris":{"android":"levelo://app?vid=bbea8d91-07a8-47f5-8ebf-0b7b435b1d0d","ios":"levelo://app?vid=bbea8d91-07a8-47f5-8ebf-0b7b435b1d0d"},"vehicle_type_id":"4","last_reported":1747220927,"current_range_meters":14000,"station_id":"ce4bhl92rcd13ifvqghg","pricing_plan_id":"cebpf4jnsgd1na2vs0mg"},{"bike_id":"1dffea47-932b-472d-a926-7c8a262923fb","system_id":"levelo_inurba_marseille","lat":43.25919,"lon":5.40871,"is_reserved":false,"is_disabled":false,"rental_uris":{"android":"levelo://app?vid=1dffea47-932b-472d-a926-7c8a262923fb","ios":"levelo://app?vid=1dffea47-932b-472d-a926-7c8a262923fb"},"vehicle_type_id":"4","last_reported":1747220927,"current_range_meters":14000,"station_id":"ce4bhm92rcd13ifvqglg","pricing_plan_id":"cebpf4jnsgd1na2vs0mg"},{"bike_id":"934b854a-fd69-40b8-86db-c5938890c71e","system_id":"levelo_inurba_marseille","lat":43.32535,"lon":5.41429,"is_reserved":false,"is_disabled":false,"rental_uris":{"android":"levelo://app?vid=934b854a-fd69-40b8-86db-c5938890c71e","ios":"levelo://app?vid=934b854a-fd69-40b8-86db-c5938890c71e"},"vehicle_type_id":"4","last_reported":1747220927,"current_range_meters":14000,"station_id":"ce4bhq12rcd13ifvqhhg","pricing_plan_id":"cebpf4jnsgd1na2vs0mg"},{"bike_id":"0ee57cd3-b290-46af-a35a-6f306772e452","system_id":"levelo_inurba_marseille","lat":43.30662,"lon":5.40273,"is_reserved":false,"is_disabled":false,"rental_uris":{"android":"levelo://app?vid=0ee57cd3-b290-46af-a35a-6f306772e452","ios":"levelo://app?vid=0ee57cd3-b290-46af-a35a-6f306772e452"},"vehicle_type_id":"4","last_reported":1747220927,"current_range_meters":14400,"station_id":"","pricing_plan_id":"cebpf4jnsgd1na2vs0mg"},{"bike_id":"e35cb818-c6ce-40aa-ab4b-3585516c531a","system_id":"levelo_inurba_marseille","lat":43.29526,"lon":5.39401,"is_reserved":false,"is_disabled":false,"rental_uris":{"android":"levelo://app?vid=e35cb818-c6ce-40aa-ab4b-3585516c531a","ios":"levelo://app?vid=e35cb818-c6ce-40aa-ab4b-3585516c531a"},"vehicle_type_id":"4","last_reported":1747220927,"current_range_meters":14400,"station_id":"ce4bh292rcd13ifvqdf0","pricing_plan_id":"cebpf4jnsgd1na2vs0mg"},{"bike_id":"ff98b847-da64-4de0-979f-c3b4ba27c3f2","system_id":"levelo_inurba_marseille","lat":43.2737,"lon":5.36248,"is_reserved":false,"is_disabled":false,"rental_uris":{"android":"levelo://app?vid=ff98b847-da64-4de0-979f-c3b4ba27c3f2","ios":"levelo://app?vid=ff98b847-da64-4de0-979f-c3b4ba27c3f2"},"vehicle_type_id":"4","last_reported":1747220927,"current_range_meters":14400,"station_id":"ce4bhbh2rcd13ifvqeo0","pricing_plan_id":"cebpf4jnsgd1na2vs0mg"},{"bike_id":"fcdaf1f1-125f-41e0-82e7-c2fca50a722d","system_id":"levelo_inurba_marseille","lat":43.2621,"lon":5.37442,"is_reserved":false,"is_disabled":false,"rental_uris":{"android":"levelo://app?vid=fcdaf1f1-125f-41e0-82e7-c2fca50a722d","ios":"levelo://app?vid=fcdaf1f1-125f-41e0-82e7-c2fca50a722d"},"vehicle_type_id":"4","last_reported":1747220927,"current_range_meters":14400,"station_id":"ce4bhgp2rcd13ifvqfc0","pricing_plan_id":"cebpf4jnsgd1na2vs0mg"},{"bike_id":"62256507-efc3-4bab-9ce3-f258c7d91df5","system_id":"levelo_inurba_marseille","lat":43.29889,"lon":5.38896,"is_reserved":false,"is_disabled":false,"rental_uris":{"android":"levelo://app?vid=62256507-efc3-4bab-9ce3-f258c7d91df5","ios":"levelo://app?vid=62256507-efc3-4bab-9ce3-f258c7d91df5"},"vehicle_type_id":"4","last_reported":1747220927,"current_range_meters":14800,"station_id":"ce4bh392rcd13ifvqdl0","pricing_plan_id":"cebpf4jnsgd1na2vs0mg"},{"bike_id":"585839d2-a523-41a5-9b69-5bea10e456bf","system_id":"levelo_inurba_marseille","lat":43.28462,"lon":5.35877,"is_reserved":false,"is_disabled":false,"rental_uris":{"android":"levelo://app?vid=585839d2-a523-41a5-9b69-5bea10e456bf","ios":"levelo://app?vid=585839d2-a523-41a5-9b69-5bea10e456bf"},"vehicle_type_id":"4","last_reported":1747220927,"current_range_meters":14800,"station_id":"ce4bhah2rcd13ifvqei0","pricing_plan_id":"cebpf4jnsgd1na2vs0mg"},{"bike_id":"1650302b-497b-4bbd-8c2a-9edef6b2a9c9","system_id":"levelo_inurba_marseille","lat":43.28414,"lon":5.34972,"is_reserved":false,"is_disabled":false,"rental_uris":{"android":"levelo://app?vid=1650302b-497b-4bbd-8c2a-9edef6b2a9c9","ios":"levelo://app?vid=1650302b-497b-4bbd-8c2a-9edef6b2a9c9"},"vehicle_type_id":"4","last_reported":1747220927,"current_range_meters":14800,"station_id":"ce4bhbh2rcd13ifvqepg","pricing_plan_id":"cebpf4jnsgd1na2vs0mg"},{"bike_id":"ef2056fe-fc71-4cde-833c-bc557c580097","system_id":"levelo_inurba_marseille","lat":43.248,"lon":5.37462,"is_reserved":false,"is_disabled":false,"rental_uris":{"android":"levelo://app?vid=ef2056fe-fc71-4cde-833c-bc557c580097","ios":"levelo://app?vid=ef2056fe-fc71-4cde-833c-bc557c580097"},"vehicle_type_id":"4","last_reported":1747220927,"current_range_meters":14800,"station_id":"ce4bhgh2rcd13ifvqfb0","pricing_plan_id":"cebpf4jnsgd1na2vs0mg"},{"bike_id":"907cb5f0-ce77-4b0a-bfb3-b845d7ef4ca2","system_id":"levelo_inurba_marseille","lat":43.25,"lon":5.38929,"is_reserved":false,"is_disabled":false,"rental_uris":{"android":"levelo://app?vid=907cb5f0-ce77-4b0a-bfb3-b845d7ef4ca2","ios":"levelo://app?vid=907cb5f0-ce77-4b0a-bfb3-b845d7ef4ca2"},"vehicle_type_id":"4","last_reported":1747220927,"current_range_meters":14800,"station_id":"ce4bhgp2rcd13ifvqfd0","pricing_plan_id":"cebpf4jnsgd1na2vs0mg"},{"bike_id":"a746e2c7-b52e-4d4e-8bfc-76b12e0209f6","system_id":"levelo_inurba_marseille","lat":43.325395,"lon":5.41431,"is_reserved":false,"is_disabled":false,"rental_uris":{"android":"levelo://app?vid=a746e2c7-b52e-4d4e-8bfc-76b12e0209f6","ios":"levelo://app?vid=a746e2c7-b52e-4d4e-8bfc-76b12e0209f6"},"vehicle_type_id":"4","last_reported":1747220927,"current_range_meters":14800,"station_id":"ce4bhq12rcd13ifvqhhg","pricing_plan_id":"cebpf4jnsgd1na2vs0mg"},{"bike_id":"da4ec9d7-463b-47a1-8558-bad5733dc649","system_id":"levelo_inurba_marseille","lat":43.24165,"lon":5.36388,"is_reserved":false,"is_disabled":false,"rental_uris":{"android":"levelo://app?vid=da4ec9d7-463b-47a1-8558-bad5733dc649","ios":"levelo://app?vid=da4ec9d7-463b-47a1-8558-bad5733dc649"},"vehicle_type_id":"4","last_reported":1747220927,"current_range_meters":14800,"station_id":"cpo36qri1sfpv3e86is0","pricing_plan_id":"cebpf4jnsgd1na2vs0mg"},{"bike_id":"69757105-9188-4d0d-87fa-3cb5b4a9e6c7","system_id":"levelo_inurba_marseille","lat":43.23139,"lon":5.43718,"is_reserved":false,"is_disabled":false,"rental_uris":{"android":"levelo://app?vid=69757105-9188-4d0d-87fa-3cb5b4a9e6c7","ios":"levelo://app?vid=69757105-9188-4d0d-87fa-3cb5b4a9e6c7"},"vehicle_type_id":"4","last_reported":1747220927,"current_range_meters":16000,"station_id":"ce4bhmp2rcd13ifvqgog","pricing_plan_id":"cebpf4jnsgd1na2vs0mg"},{"bike_id":"6bc4d3dd-7663-476a-b29e-6612440bdfbc","system_id":"levelo_inurba_marseille","lat":43.27935,"lon":5.41046,"is_reserved":false,"is_disabled":false,"rental_uris":{"android":"levelo://app?vid=6bc4d3dd-7663-476a-b29e-6612440bdfbc","ios":"levelo://app?vid=6bc4d3dd-7663-476a-b29e-6612440bdfbc"},"vehicle_type_id":"4","last_reported":1747220927,"current_range_meters":16000,"station_id":"ce4bhnp2rcd13ifvqh0g","pricing_plan_id":"cebpf4jnsgd1na2vs0mg"},{"bike_id":"5f432ca9-33d2-4219-add0-60d615ebc46f","system_id":"levelo_inurba_marseille","lat":43.32534,"lon":5.41425,"is_reserved":false,"is_disabled":false,"rental_uris":{"android":"levelo://app?vid=5f432ca9-33d2-4219-add0-60d615ebc46f","ios":"levelo://app?vid=5f432ca9-33d2-4219-add0-60d615ebc46f"},"vehicle_type_id":"4","last_reported":1747220927,"current_range_meters":16000,"station_id":"ce4bhq12rcd13ifvqhhg","pricing_plan_id":"cebpf4jnsgd1na2vs0mg"},{"bike_id":"1c5b676c-9de4-49c9-8aa1-3578233e2190","system_id":"levelo_inurba_marseille","lat":43.33596,"lon":5.40971,"is_reserved":false,"is_disabled":false,"rental_uris":{"android":"levelo://app?vid=1c5b676c-9de4-49c9-8aa1-3578233e2190","ios":"levelo://app?vid=1c5b676c-9de4-49c9-8aa1-3578233e2190"},"vehicle_type_id":"4","last_reported":1747220927,"current_range_meters":16000,"station_id":"ce4bhqh2rcd13ifvqhmg","pricing_plan_id":"cebpf4jnsgd1na2vs0mg"},{"bike_id":"4d38c7be-ee6a-4d0b-8bc1-954c6809bd49","system_id":"levelo_inurba_marseille","lat":43.27056,"lon":5.40266,"is_reserved":false,"is_disabled":false,"rental_uris":{"android":"levelo://app?vid=4d38c7be-ee6a-4d0b-8bc1-954c6809bd49","ios":"levelo://app?vid=4d38c7be-ee6a-4d0b-8bc1-954c6809bd49"},"vehicle_type_id":"4","last_reported":1747220927,"current_range_meters":16400,"station_id":"ce4bhk92rcd13ifvqgc0","pricing_plan_id":"cebpf4jnsgd1na2vs0mg"},{"bike_id":"8345995a-0a01-4dd8-9104-32511268ce47","system_id":"levelo_inurba_marseille","lat":43.30464,"lon":5.37896,"is_reserved":false,"is_disabled":false,"rental_uris":{"android":"levelo://app?vid=8345995a-0a01-4dd8-9104-32511268ce47","ios":"levelo://app?vid=8345995a-0a01-4dd8-9104-32511268ce47"},"vehicle_type_id":"4","last_reported":1747220927,"current_range_meters":16800,"station_id":"ce4bgup2rcd13ifvqcn0","pricing_plan_id":"cebpf4jnsgd1na2vs0mg"},{"bike_id":"2ff48a83-5383-49ae-afba-163486830295","system_id":"levelo_inurba_marseille","lat":43.24387,"lon":5.37056,"is_reserved":false,"is_disabled":false,"rental_uris":{"android":"levelo://app?vid=2ff48a83-5383-49ae-afba-163486830295","ios":"levelo://app?vid=2ff48a83-5383-49ae-afba-163486830295"},"vehicle_type_id":"4","last_reported":1747220927,"current_range_meters":16800,"station_id":"ce4bhhh2rcd13ifvqfk0","pricing_plan_id":"cebpf4jnsgd1na2vs0mg"},{"bike_id":"5b2bf2cc-e79c-4a99-a91f-20d49657d90b","system_id":"levelo_inurba_marseille","lat":43.2417,"lon":5.39718,"is_reserved":false,"is_disabled":false,"rental_uris":{"android":"levelo://app?vid=5b2bf2cc-e79c-4a99-a91f-20d49657d90b","ios":"levelo://app?vid=5b2bf2cc-e79c-4a99-a91f-20d49657d90b"},"vehicle_type_id":"4","last_reported":1747220927,"current_range_meters":16800,"station_id":"ce4bhn12rcd13ifvqgpg","pricing_plan_id":"cebpf4jnsgd1na2vs0mg"},{"bike_id":"c77744cd-dd85-473a-952b-e9873b6afa4f","system_id":"levelo_inurba_marseille","lat":43.3323,"lon":5.40421,"is_reserved":false,"is_disabled":false,"rental_uris":{"android":"levelo://app?vid=c77744cd-dd85-473a-952b-e9873b6afa4f","ios":"levelo://app?vid=c77744cd-dd85-473a-952b-e9873b6afa4f"},"vehicle_type_id":"4","last_reported":1747220927,"current_range_meters":17200,"station_id":"","pricing_plan_id":"cebpf4jnsgd1na2vs0mg"},{"bike_id":"460fd5e2-9413-4eeb-9732-3a418fa302b8","system_id":"levelo_inurba_marseille","lat":43.29788,"lon":5.38119,"is_reserved":false,"is_disabled":false,"rental_uris":{"android":"levelo://app?vid=460fd5e2-9413-4eeb-9732-3a418fa302b8","ios":"levelo://app?vid=460fd5e2-9413-4eeb-9732-3a418fa302b8"},"vehicle_type_id":"4","last_reported":1747220927,"current_range_meters":17200,"station_id":"ce4bgip2rcd13ifvqbb0","pricing_plan_id":"cebpf4jnsgd1na2vs0mg"},{"bike_id":"071bae66-a3c2-407f-a4ef-b9866a42fb1d","system_id":"levelo_inurba_marseille","lat":43.31223,"lon":5.36846,"is_reserved":false,"is_disabled":false,"rental_uris":{"android":"levelo://app?vid=071bae66-a3c2-407f-a4ef-b9866a42fb1d","ios":"levelo://app?vid=071bae66-a3c2-407f-a4ef-b9866a42fb1d"},"vehicle_type_id":"4","last_reported":1747220927,"current_range_meters":17200,"station_id":"ce4bgl92rcd13ifvqbq0","pricing_plan_id":"cebpf4jnsgd1na2vs0mg"},{"bike_id":"1d942bfe-9c5f-4ec2-b628-6b4c07d42b6d","system_id":"levelo_inurba_marseille","lat":43.26204,"lon":5.37439,"is_reserved":false,"is_disabled":false,"rental_uris":{"android":"levelo://app?vid=1d942bfe-9c5f-4ec2-b628-6b4c07d42b6d","ios":"levelo://app?vid=1d942bfe-9c5f-4ec2-b628-6b4c07d42b6d"},"vehicle_type_id":"4","last_reported":1747220927,"current_range_meters":17200,"station_id":"ce4bhgp2rcd13ifvqfc0","pricing_plan_id":"cebpf4jnsgd1na2vs0mg"},{"bike_id":"81df83bd-96fe-4025-8404-279d0c4d21a9","system_id":"levelo_inurba_marseille","lat":43.25897,"lon":5.40874,"is_reserved":false,"is_disabled":false,"rental_uris":{"android":"levelo://app?vid=81df83bd-96fe-4025-8404-279d0c4d21a9","ios":"levelo://app?vid=81df83bd-96fe-4025-8404-279d0c4d21a9"},"vehicle_type_id":"4","last_reported":1747220927,"current_range_meters":17200,"station_id":"ce4bhm92rcd13ifvqglg","pricing_plan_id":"cebpf4jnsgd1na2vs0mg"},{"bike_id":"8c5f530e-a1ca-42f6-afa9-82a6df52a3d8","system_id":"levelo_inurba_marseille","lat":43.31991,"lon":5.38153,"is_reserved":false,"is_disabled":false,"rental_uris":{"android":"levelo://app?vid=8c5f530e-a1ca-42f6-afa9-82a6df52a3d8","ios":"levelo://app?vid=8c5f530e-a1ca-42f6-afa9-82a6df52a3d8"},"vehicle_type_id":"4","last_reported":1747220927,"current_range_meters":17200,"station_id":"ce4bhr12rcd13ifvqhpg","pricing_plan_id":"cebpf4jnsgd1na2vs0mg"},{"bike_id":"6ed6b045-5fdd-4b23-810c-9f519910480c","system_id":"levelo_inurba_marseille","lat":43.30922,"lon":5.36835,"is_reserved":false,"is_disabled":false,"rental_uris":{"android":"levelo://app?vid=6ed6b045-5fdd-4b23-810c-9f519910480c","ios":"levelo://app?vid=6ed6b045-5fdd-4b23-810c-9f519910480c"},"vehicle_type_id":"4","last_reported":1747220927,"current_range_meters":17600,"station_id":"ce4bgn92rcd13ifvqbvg","pricing_plan_id":"cebpf4jnsgd1na2vs0mg"},{"bike_id":"20be7e85-e350-4398-a65c-4d686a9251cf","system_id":"levelo_inurba_marseille","lat":43.29842,"lon":5.36271,"is_reserved":false,"is_disabled":false,"rental_uris":{"android":"levelo://app?vid=20be7e85-e350-4398-a65c-4d686a9251cf","ios":"levelo://app?vid=20be7e85-e350-4398-a65c-4d686a9251cf"},"vehicle_type_id":"4","last_reported":1747220927,"current_range_meters":17600,"station_id":"ce4bgpp2rcd13ifvqc3g","pricing_plan_id":"cebpf4jnsgd1na2vs0mg"},{"bike_id":"d39dbf52-b6ed-452b-bfe6-660d94ede48f","system_id":"levelo_inurba_marseille","lat":43.24548,"lon":5.39522,"is_reserved":false,"is_disabled":false,"rental_uris":{"android":"levelo://app?vid=d39dbf52-b6ed-452b-bfe6-660d94ede48f","ios":"levelo://app?vid=d39dbf52-b6ed-452b-bfe6-660d94ede48f"},"vehicle_type_id":"4","last_reported":1747220927,"current_range_meters":17600,"station_id":"ce4bhlp2rcd13ifvqgjg","pricing_plan_id":"cebpf4jnsgd1na2vs0mg"},{"bike_id":"7a906d5d-d156-472a-a645-d2ee30c1fbc8","system_id":"levelo_inurba_marseille","lat":43.336136,"lon":5.410316,"is_reserved":false,"is_disabled":false,"rental_uris":{"android":"levelo://app?vid=7a906d5d-d156-472a-a645-d2ee30c1fbc8","ios":"levelo://app?vid=7a906d5d-d156-472a-a645-d2ee30c1fbc8"},"vehicle_type_id":"4","last_reported":1747220927,"current_range_meters":17600,"station_id":"ce4bhqh2rcd13ifvqhmg","pricing_plan_id":"cebpf4jnsgd1na2vs0mg"},{"bike_id":"6080f958-154f-4fcf-a261-3457330cc6f7","system_id":"levelo_inurba_marseille","lat":43.32364,"lon":5.38883,"is_reserved":false,"is_disabled":false,"rental_uris":{"android":"levelo://app?vid=6080f958-154f-4fcf-a261-3457330cc6f7","ios":"levelo://app?vid=6080f958-154f-4fcf-a261-3457330cc6f7"},"vehicle_type_id":"4","last_reported":1747220927,"current_range_meters":17600,"station_id":"ce4bhqp2rcd13ifvqhog","pricing_plan_id":"cebpf4jnsgd1na2vs0mg"},{"bike_id":"fc99a2e2-2159-4339-a7b9-34cb7ae943d8","system_id":"levelo_inurba_marseille","lat":43.31993,"lon":5.38167,"is_reserved":false,"is_disabled":false,"rental_uris":{"android":"levelo://app?vid=fc99a2e2-2159-4339-a7b9-34cb7ae943d8","ios":"levelo://app?vid=fc99a2e2-2159-4339-a7b9-34cb7ae943d8"},"vehicle_type_id":"4","last_reported":1747220927,"current_range_meters":17600,"station_id":"ce4bhr12rcd13ifvqhpg","pricing_plan_id":"cebpf4jnsgd1na2vs0mg"},{"bike_id":"643fc62a-953a-48cc-a621-86cd2eac6ae0","system_id":"levelo_inurba_marseille","lat":43.29275,"lon":5.36842,"is_reserved":false,"is_disabled":false,"rental_uris":{"android":"levelo://app?vid=643fc62a-953a-48cc-a621-86cd2eac6ae0","ios":"levelo://app?vid=643fc62a-953a-48cc-a621-86cd2eac6ae0"},"vehicle_type_id":"4","last_reported":1747220927,"current_range_meters":18000,"station_id":"ce4bhbp2rcd13ifvqesg","pricing_plan_id":"cebpf4jnsgd1na2vs0mg"},{"bike_id":"f83e264b-0ad9-47d8-a6e2-7e66a521c767","system_id":"levelo_inurba_marseille","lat":43.26558,"lon":5.37272,"is_reserved":false,"is_disabled":false,"rental_uris":{"android":"levelo://app?vid=f83e264b-0ad9-47d8-a6e2-7e66a521c767","ios":"levelo://app?vid=f83e264b-0ad9-47d8-a6e2-7e66a521c767"},"vehicle_type_id":"4","last_reported":1747220927,"current_range_meters":18000,"station_id":"ce4bhg12rcd13ifvqf70","pricing_plan_id":"cebpf4jnsgd1na2vs0mg"},{"bike_id":"ac0112c9-313e-422c-910b-a3523b05b0c9","system_id":"levelo_inurba_marseille","lat":43.23057,"lon":5.3549,"is_reserved":false,"is_disabled":false,"rental_uris":{"android":"levelo://app?vid=ac0112c9-313e-422c-910b-a3523b05b0c9","ios":"levelo://app?vid=ac0112c9-313e-422c-910b-a3523b05b0c9"},"vehicle_type_id":"4","last_reported":1747220927,"current_range_meters":18000,"station_id":"cpo3342slgdg3j2ifvpg","pricing_plan_id":"cebpf4jnsgd1na2vs0mg"},{"bike_id":"d74dda0c-2ae8-4a20-aee3-80ba3b692d64","system_id":"levelo_inurba_marseille","lat":43.30463,"lon":5.37172,"is_reserved":false,"is_disabled":false,"rental_uris":{"android":"levelo://app?vid=d74dda0c-2ae8-4a20-aee3-80ba3b692d64","ios":"levelo://app?vid=d74dda0c-2ae8-4a20-aee3-80ba3b692d64"},"vehicle_type_id":"4","last_reported":1747220927,"current_range_meters":18800,"station_id":"","pricing_plan_id":"cebpf4jnsgd1na2vs0mg"},{"bike_id":"78999408-abeb-475d-b455-39e9b4b26f67","system_id":"levelo_inurba_marseille","lat":43.29298,"lon":5.3745,"is_reserved":false,"is_disabled":false,"rental_uris":{"android":"levelo://app?vid=78999408-abeb-475d-b455-39e9b4b26f67","ios":"levelo://app?vid=78999408-abeb-475d-b455-39e9b4b26f67"},"vehicle_type_id":"4","last_reported":1747220927,"current_range_meters":18800,"station_id":"ce4bgi12rcd13ifvqb70","pricing_plan_id":"cebpf4jnsgd1na2vs0mg"},{"bike_id":"3b10439d-cb21-4a5e-9660-09353cde8a78","system_id":"levelo_inurba_marseille","lat":43.29825,"lon":5.36265,"is_reserved":false,"is_disabled":false,"rental_uris":{"android":"levelo://app?vid=3b10439d-cb21-4a5e-9660-09353cde8a78","ios":"levelo://app?vid=3b10439d-cb21-4a5e-9660-09353cde8a78"},"vehicle_type_id":"4","last_reported":1747220927,"current_range_meters":18800,"station_id":"ce4bgpp2rcd13ifvqc3g","pricing_plan_id":"cebpf4jnsgd1na2vs0mg"},{"bike_id":"18b83499-996f-4b60-8478-efa7736efd33","system_id":"levelo_inurba_marseille","lat":43.29036,"lon":5.37554,"is_reserved":false,"is_disabled":false,"rental_uris":{"android":"levelo://app?vid=18b83499-996f-4b60-8478-efa7736efd33","ios":"levelo://app?vid=18b83499-996f-4b60-8478-efa7736efd33"},"vehicle_type_id":"4","last_reported":1747220927,"current_range_meters":18800,"station_id":"ce4bh692rcd13ifvqe90","pricing_plan_id":"cebpf4jnsgd1na2vs0mg"},{"bike_id":"fdf5099d-3cb8-4fb5-90c4-f9dcbc7c2a8c","system_id":"levelo_inurba_marseille","lat":43.25925,"lon":5.40898,"is_reserved":false,"is_disabled":false,"rental_uris":{"android":"levelo://app?vid=fdf5099d-3cb8-4fb5-90c4-f9dcbc7c2a8c","ios":"levelo://app?vid=fdf5099d-3cb8-4fb5-90c4-f9dcbc7c2a8c"},"vehicle_type_id":"4","last_reported":1747220927,"current_range_meters":18800,"station_id":"ce4bhm92rcd13ifvqglg","pricing_plan_id":"cebpf4jnsgd1na2vs0mg"},{"bike_id":"c785251c-780d-4a50-9ca1-3185167bc6d2","system_id":"levelo_inurba_marseille","lat":43.23143,"lon":5.43704,"is_reserved":false,"is_disabled":false,"rental_uris":{"android":"levelo://app?vid=c785251c-780d-4a50-9ca1-3185167bc6d2","ios":"levelo://app?vid=c785251c-780d-4a50-9ca1-3185167bc6d2"},"vehicle_type_id":"4","last_reported":1747220927,"current_range_meters":18800,"station_id":"ce4bhmp2rcd13ifvqgog","pricing_plan_id":"cebpf4jnsgd1na2vs0mg"},{"bike_id":"644511a3-94a8-4d9e-a99e-a8a4681f0634","system_id":"levelo_inurba_marseille","lat":43.241696,"lon":5.397401,"is_reserved":false,"is_disabled":false,"rental_uris":{"android":"levelo://app?vid=644511a3-94a8-4d9e-a99e-a8a4681f0634","ios":"levelo://app?vid=644511a3-94a8-4d9e-a99e-a8a4681f0634"},"vehicle_type_id":"4","last_reported":1747220927,"current_range_meters":18800,"station_id":"ce4bhn12rcd13ifvqgpg","pricing_plan_id":"cebpf4jnsgd1na2vs0mg"},{"bike_id":"5b71f642-47be-4dc6-870a-d7b3bd68d82c","system_id":"levelo_inurba_marseille","lat":43.24169,"lon":5.36391,"is_reserved":false,"is_disabled":false,"rental_uris":{"android":"levelo://app?vid=5b71f642-47be-4dc6-870a-d7b3bd68d82c","ios":"levelo://app?vid=5b71f642-47be-4dc6-870a-d7b3bd68d82c"},"vehicle_type_id":"4","last_reported":1747220927,"current_range_meters":18800,"station_id":"cpo36qri1sfpv3e86is0","pricing_plan_id":"cebpf4jnsgd1na2vs0mg"},{"bike_id":"86f5d543-4a80-4fca-821b-1fe2f1fc14f4","system_id":"levelo_inurba_marseille","lat":43.29052,"lon":5.35569,"is_reserved":false,"is_disabled":false,"rental_uris":{"android":"levelo://app?vid=86f5d543-4a80-4fca-821b-1fe2f1fc14f4","ios":"levelo://app?vid=86f5d543-4a80-4fca-821b-1fe2f1fc14f4"},"vehicle_type_id":"4","last_reported":1747220927,"current_range_meters":19200,"station_id":"","pricing_plan_id":"cebpf4jnsgd1na2vs0mg"},{"bike_id":"8c32ae4c-85e3-47df-af02-7e8ca739be33","system_id":"levelo_inurba_marseille","lat":43.30534,"lon":5.36522,"is_reserved":false,"is_disabled":false,"rental_uris":{"android":"levelo://app?vid=8c32ae4c-85e3-47df-af02-7e8ca739be33","ios":"levelo://app?vid=8c32ae4c-85e3-47df-af02-7e8ca739be33"},"vehicle_type_id":"4","last_reported":1747220927,"current_range_meters":19200,"station_id":"ce4bgs12rcd13ifvqcag","pricing_plan_id":"cebpf4jnsgd1na2vs0mg"},{"bike_id":"7bada6c3-0efb-4c88-9254-9ac47993b378","system_id":"levelo_inurba_marseille","lat":43.2894,"lon":5.36644,"is_reserved":false,"is_disabled":false,"rental_uris":{"android":"levelo://app?vid=7bada6c3-0efb-4c88-9254-9ac47993b378","ios":"levelo://app?vid=7bada6c3-0efb-4c88-9254-9ac47993b378"},"vehicle_type_id":"4","last_reported":1747220927,"current_range_meters":19200,"station_id":"ce4bhap2rcd13ifvqek0","pricing_plan_id":"cebpf4jnsgd1na2vs0mg"},{"bike_id":"848a305e-a782-426b-b344-ae683f56e5ca","system_id":"levelo_inurba_marseille","lat":43.28623,"lon":5.351023,"is_reserved":false,"is_disabled":false,"rental_uris":{"android":"levelo://app?vid=848a305e-a782-426b-b344-ae683f56e5ca","ios":"levelo://app?vid=848a305e-a782-426b-b344-ae683f56e5ca"},"vehicle_type_id":"4","last_reported":1747220927,"current_range_meters":19200,"station_id":"ce4bhch2rcd13ifvqeug","pricing_plan_id":"cebpf4jnsgd1na2vs0mg"},{"bike_id":"a6a7446a-fc69-49d9-bff4-26151c185577","system_id":"levelo_inurba_marseille","lat":43.24391,"lon":5.37057,"is_reserved":false,"is_disabled":false,"rental_uris":{"android":"levelo://app?vid=a6a7446a-fc69-49d9-bff4-26151c185577","ios":"levelo://app?vid=a6a7446a-fc69-49d9-bff4-26151c185577"},"vehicle_type_id":"4","last_reported":1747220927,"current_range_meters":19200,"station_id":"ce4bhhh2rcd13ifvqfk0","pricing_plan_id":"cebpf4jnsgd1na2vs0mg"},{"bike_id":"0c139302-ba80-4a2f-9a2c-8f684bc2a58e","system_id":"levelo_inurba_marseille","lat":43.24547,"lon":5.39523,"is_reserved":false,"is_disabled":false,"rental_uris":{"android":"levelo://app?vid=0c139302-ba80-4a2f-9a2c-8f684bc2a58e","ios":"levelo://app?vid=0c139302-ba80-4a2f-9a2c-8f684bc2a58e"},"vehicle_type_id":"4","last_reported":1747220927,"current_range_meters":19200,"station_id":"ce4bhlp2rcd13ifvqgjg","pricing_plan_id":"cebpf4jnsgd1na2vs0mg"},{"bike_id":"f8885f32-f9b1-4dea-97d5-0d6ab03e0a41","system_id":"levelo_inurba_marseille","lat":43.29186,"lon":5.35806,"is_reserved":false,"is_disabled":false,"rental_uris":{"android":"levelo://app?vid=f8885f32-f9b1-4dea-97d5-0d6ab03e0a41","ios":"levelo://app?vid=f8885f32-f9b1-4dea-97d5-0d6ab03e0a41"},"vehicle_type_id":"4","last_reported":1747220927,"current_range_meters":19600,"station_id":"ce4bhb12rcd13ifvqel0","pricing_plan_id":"cebpf4jnsgd1na2vs0mg"},{"bike_id":"38211f5a-9e6b-43fb-a533-35898239b6a3","system_id":"levelo_inurba_marseille","lat":43.23962,"lon":5.36626,"is_reserved":false,"is_disabled":false,"rental_uris":{"android":"levelo://app?vid=38211f5a-9e6b-43fb-a533-35898239b6a3","ios":"levelo://app?vid=38211f5a-9e6b-43fb-a533-35898239b6a3"},"vehicle_type_id":"4","last_reported":1747220927,"current_range_meters":19600,"station_id":"ce4bhi12rcd13ifvqfp0","pricing_plan_id":"cebpf4jnsgd1na2vs0mg"},{"bike_id":"70136c98-e1a2-4944-bc03-8f5e5e059d96","system_id":"levelo_inurba_marseille","lat":43.23156,"lon":5.43701,"is_reserved":false,"is_disabled":false,"rental_uris":{"android":"levelo://app?vid=70136c98-e1a2-4944-bc03-8f5e5e059d96","ios":"levelo://app?vid=70136c98-e1a2-4944-bc03-8f5e5e059d96"},"vehicle_type_id":"4","last_reported":1747220927,"current_range_meters":19600,"station_id":"ce4bhmp2rcd13ifvqgog","pricing_plan_id":"cebpf4jnsgd1na2vs0mg"},{"bike_id":"4269a203-34b5-408c-9237-8b2f72169f12","system_id":"levelo_inurba_marseille","lat":43.23136,"lon":5.43704,"is_reserved":false,"is_disabled":false,"rental_uris":{"android":"levelo://app?vid=4269a203-34b5-408c-9237-8b2f72169f12","ios":"levelo://app?vid=4269a203-34b5-408c-9237-8b2f72169f12"},"vehicle_type_id":"4","last_reported":1747220927,"current_range_meters":19600,"station_id":"ce4bhmp2rcd13ifvqgog","pricing_plan_id":"cebpf4jnsgd1na2vs0mg"},{"bike_id":"297a85b0-fa8c-489e-bd98-6fd7f3aae510","system_id":"levelo_inurba_marseille","lat":43.24179,"lon":5.39728,"is_reserved":false,"is_disabled":false,"rental_uris":{"android":"levelo://app?vid=297a85b0-fa8c-489e-bd98-6fd7f3aae510","ios":"levelo://app?vid=297a85b0-fa8c-489e-bd98-6fd7f3aae510"},"vehicle_type_id":"4","last_reported":1747220927,"current_range_meters":19600,"station_id":"ce4bhn12rcd13ifvqgpg","pricing_plan_id":"cebpf4jnsgd1na2vs0mg"},{"bike_id":"74e465a6-62f1-45be-9144-40f0ae71c9e6","system_id":"levelo_inurba_marseille","lat":43.32343,"lon":5.36731,"is_reserved":false,"is_disabled":false,"rental_uris":{"android":"levelo://app?vid=74e465a6-62f1-45be-9144-40f0ae71c9e6","ios":"levelo://app?vid=74e465a6-62f1-45be-9144-40f0ae71c9e6"},"vehicle_type_id":"4","last_reported":1747220927,"current_range_meters":19600,"station_id":"ce4bhsh2rcd13ifvqi2g","pricing_plan_id":"cebpf4jnsgd1na2vs0mg"},{"bike_id":"1def4d9e-ba54-4554-8279-72b57c0de750","system_id":"levelo_inurba_marseille","lat":43.337444,"lon":5.374475,"is_reserved":false,"is_disabled":false,"rental_uris":{"android":"levelo://app?vid=1def4d9e-ba54-4554-8279-72b57c0de750","ios":"levelo://app?vid=1def4d9e-ba54-4554-8279-72b57c0de750"},"vehicle_type_id":"4","last_reported":1747220927,"current_range_meters":20000,"station_id":"","pricing_plan_id":"cebpf4jnsgd1na2vs0mg"},{"bike_id":"0f41a4ae-9b1c-43da-843f-2df25b0a187e","system_id":"levelo_inurba_marseille","lat":43.31329,"lon":5.397,"is_reserved":false,"is_disabled":false,"rental_uris":{"android":"levelo://app?vid=0f41a4ae-9b1c-43da-843f-2df25b0a187e","ios":"levelo://app?vid=0f41a4ae-9b1c-43da-843f-2df25b0a187e"},"vehicle_type_id":"4","last_reported":1747220927,"current_range_meters":20000,"station_id":"ce4bgvp2rcd13ifvqcu0","pricing_plan_id":"cebpf4jnsgd1na2vs0mg"},{"bike_id":"b98cac51-6a90-4afb-88f7-799d85fded5c","system_id":"levelo_inurba_marseille","lat":43.28367,"lon":5.38633,"is_reserved":false,"is_disabled":false,"rental_uris":{"android":"levelo://app?vid=b98cac51-6a90-4afb-88f7-799d85fded5c","ios":"levelo://app?vid=b98cac51-6a90-4afb-88f7-799d85fded5c"},"vehicle_type_id":"4","last_reported":1747220927,"current_range_meters":20000,"station_id":"ce4bh492rcd13ifvqdvg","pricing_plan_id":"cebpf4jnsgd1na2vs0mg"},{"bike_id":"3510939f-7cd9-4aa4-b8cb-9520e70f17e7","system_id":"levelo_inurba_marseille","lat":43.28419,"lon":5.34974,"is_reserved":false,"is_disabled":false,"rental_uris":{"android":"levelo://app?vid=3510939f-7cd9-4aa4-b8cb-9520e70f17e7","ios":"levelo://app?vid=3510939f-7cd9-4aa4-b8cb-9520e70f17e7"},"vehicle_type_id":"4","last_reported":1747220927,"current_range_meters":20000,"station_id":"ce4bhbh2rcd13ifvqepg","pricing_plan_id":"cebpf4jnsgd1na2vs0mg"},{"bike_id":"2ecb114f-5d75-4c5d-8f1f-6d26727f9732","system_id":"levelo_inurba_marseille","lat":43.28621,"lon":5.35083,"is_reserved":false,"is_disabled":false,"rental_uris":{"android":"levelo://app?vid=2ecb114f-5d75-4c5d-8f1f-6d26727f9732","ios":"levelo://app?vid=2ecb114f-5d75-4c5d-8f1f-6d26727f9732"},"vehicle_type_id":"4","last_reported":1747220927,"current_range_meters":20000,"station_id":"ce4bhch2rcd13ifvqeug","pricing_plan_id":"cebpf4jnsgd1na2vs0mg"},{"bike_id":"35a7b327-547f-42d1-abf0-e61d211a381f","system_id":"levelo_inurba_marseille","lat":43.2862,"lon":5.3511,"is_reserved":false,"is_disabled":false,"rental_uris":{"android":"levelo://app?vid=35a7b327-547f-42d1-abf0-e61d211a381f","ios":"levelo://app?vid=35a7b327-547f-42d1-abf0-e61d211a381f"},"vehicle_type_id":"4","last_reported":1747220927,"current_range_meters":20000,"station_id":"ce4bhch2rcd13ifvqeug","pricing_plan_id":"cebpf4jnsgd1na2vs0mg"},{"bike_id":"b0917c2d-0896-493f-bca3-c4899cde7b05","system_id":"levelo_inurba_marseille","lat":43.2561,"lon":5.38206,"is_reserved":false,"is_disabled":false,"rental_uris":{"android":"levelo://app?vid=b0917c2d-0896-493f-bca3-c4899cde7b05","ios":"levelo://app?vid=b0917c2d-0896-493f-bca3-c4899cde7b05"},"vehicle_type_id":"4","last_reported":1747220927,"current_range_meters":20000,"station_id":"ce4bhih2rcd13ifvqfs0","pricing_plan_id":"cebpf4jnsgd1na2vs0mg"},{"bike_id":"5766e2cb-0f22-44c2-aff4-fafe3037b8fc","system_id":"levelo_inurba_marseille","lat":43.25084,"lon":5.40348,"is_reserved":false,"is_disabled":false,"rental_uris":{"android":"levelo://app?vid=5766e2cb-0f22-44c2-aff4-fafe3037b8fc","ios":"levelo://app?vid=5766e2cb-0f22-44c2-aff4-fafe3037b8fc"},"vehicle_type_id":"4","last_reported":1747220927,"current_range_meters":20000,"station_id":"ce4bhlh2rcd13ifvqgig","pricing_plan_id":"cebpf4jnsgd1na2vs0mg"},{"bike_id":"7101a8f9-7307-41c9-b105-c8fb2998d7f6","system_id":"levelo_inurba_marseille","lat":43.23178,"lon":5.39989,"is_reserved":false,"is_disabled":false,"rental_uris":{"android":"levelo://app?vid=7101a8f9-7307-41c9-b105-c8fb2998d7f6","ios":"levelo://app?vid=7101a8f9-7307-41c9-b105-c8fb2998d7f6"},"vehicle_type_id":"4","last_reported":1747220927,"current_range_meters":20000,"station_id":"ce4bhn12rcd13ifvqgqg","pricing_plan_id":"cebpf4jnsgd1na2vs0mg"},{"bike_id":"deb3357e-849a-476e-9e5a-59f349c9b280","system_id":"levelo_inurba_marseille","lat":43.33025,"lon":5.39042,"is_reserved":false,"is_disabled":false,"rental_uris":{"android":"levelo://app?vid=deb3357e-849a-476e-9e5a-59f349c9b280","ios":"levelo://app?vid=deb3357e-849a-476e-9e5a-59f349c9b280"},"vehicle_type_id":"4","last_reported":1747220927,"current_range_meters":20000,"station_id":"ce4bhr92rcd13ifvqhrg","pricing_plan_id":"cebpf4jnsgd1na2vs0mg"},{"bike_id":"236fe8a1-bb49-4378-9a13-707d1ea97db2","system_id":"levelo_inurba_marseille","lat":43.32111,"lon":5.36763,"is_reserved":false,"is_disabled":false,"rental_uris":{"android":"levelo://app?vid=236fe8a1-bb49-4378-9a13-707d1ea97db2","ios":"levelo://app?vid=236fe8a1-bb49-4378-9a13-707d1ea97db2"},"vehicle_type_id":"4","last_reported":1747220927,"current_range_meters":20000,"station_id":"ce4bhrh2rcd13ifvqhug","pricing_plan_id":"cebpf4jnsgd1na2vs0mg"},{"bike_id":"817842b4-cb45-4c65-9684-9fb3ea028291","system_id":"levelo_inurba_marseille","lat":43.21751,"lon":5.34604,"is_reserved":false,"is_disabled":false,"rental_uris":{"android":"levelo://app?vid=817842b4-cb45-4c65-9684-9fb3ea028291","ios":"levelo://app?vid=817842b4-cb45-4c65-9684-9fb3ea028291"},"vehicle_type_id":"4","last_reported":1747220927,"current_range_meters":20000,"station_id":"st_cvj6r9ubvosntc0bgbag","pricing_plan_id":"cebpf4jnsgd1na2vs0mg"},{"bike_id":"39181eee-d035-42eb-8d71-020f5bb59281","system_id":"levelo_inurba_marseille","lat":43.3171,"lon":5.37739,"is_reserved":false,"is_disabled":false,"rental_uris":{"android":"levelo://app?vid=39181eee-d035-42eb-8d71-020f5bb59281","ios":"levelo://app?vid=39181eee-d035-42eb-8d71-020f5bb59281"},"vehicle_type_id":"4","last_reported":1747220927,"current_range_meters":20400,"station_id":"ce4bgth2rcd13ifvqch0","pricing_plan_id":"cebpf4jnsgd1na2vs0mg"},{"bike_id":"518afb21-c0e0-4dbc-a735-b7863185b1f9","system_id":"levelo_inurba_marseille","lat":43.2842,"lon":5.34979,"is_reserved":false,"is_disabled":false,"rental_uris":{"android":"levelo://app?vid=518afb21-c0e0-4dbc-a735-b7863185b1f9","ios":"levelo://app?vid=518afb21-c0e0-4dbc-a735-b7863185b1f9"},"vehicle_type_id":"4","last_reported":1747220927,"current_range_meters":20400,"station_id":"ce4bhbh2rcd13ifvqepg","pricing_plan_id":"cebpf4jnsgd1na2vs0mg"},{"bike_id":"5b346019-5b6e-442b-861d-7e5db4ada664","system_id":"levelo_inurba_marseille","lat":43.26029,"lon":5.37543,"is_reserved":false,"is_disabled":false,"rental_uris":{"android":"levelo://app?vid=5b346019-5b6e-442b-861d-7e5db4ada664","ios":"levelo://app?vid=5b346019-5b6e-442b-861d-7e5db4ada664"},"vehicle_type_id":"4","last_reported":1747220927,"current_range_meters":20400,"station_id":"ce4bhgh2rcd13ifvqfa0","pricing_plan_id":"cebpf4jnsgd1na2vs0mg"},{"bike_id":"21e90b70-3b5b-4e39-879c-3d420ae5e896","system_id":"levelo_inurba_marseille","lat":43.2766,"lon":5.38898,"is_reserved":false,"is_disabled":false,"rental_uris":{"android":"levelo://app?vid=21e90b70-3b5b-4e39-879c-3d420ae5e896","ios":"levelo://app?vid=21e90b70-3b5b-4e39-879c-3d420ae5e896"},"vehicle_type_id":"4","last_reported":1747220927,"current_range_meters":20400,"station_id":"ce4bhi12rcd13ifvqfo0","pricing_plan_id":"cebpf4jnsgd1na2vs0mg"},{"bike_id":"c41dfe03-8515-4f3b-be02-a998e39f9069","system_id":"levelo_inurba_marseille","lat":43.336134,"lon":5.410309,"is_reserved":false,"is_disabled":false,"rental_uris":{"android":"levelo://app?vid=c41dfe03-8515-4f3b-be02-a998e39f9069","ios":"levelo://app?vid=c41dfe03-8515-4f3b-be02-a998e39f9069"},"vehicle_type_id":"4","last_reported":1747220927,"current_range_meters":20400,"station_id":"ce4bhqh2rcd13ifvqhmg","pricing_plan_id":"cebpf4jnsgd1na2vs0mg"},{"bike_id":"61aa1782-49d9-4762-bea1-94c390716a66","system_id":"levelo_inurba_marseille","lat":43.33591,"lon":5.40999,"is_reserved":false,"is_disabled":false,"rental_uris":{"android":"levelo://app?vid=61aa1782-49d9-4762-bea1-94c390716a66","ios":"levelo://app?vid=61aa1782-49d9-4762-bea1-94c390716a66"},"vehicle_type_id":"4","last_reported":1747220927,"current_range_meters":20400,"station_id":"ce4bhqh2rcd13ifvqhmg","pricing_plan_id":"cebpf4jnsgd1na2vs0mg"},{"bike_id":"cfd2335d-256f-4912-821a-f5390c6525af","system_id":"levelo_inurba_marseille","lat":43.300727,"lon":5.38123,"is_reserved":false,"is_disabled":false,"rental_uris":{"android":"levelo://app?vid=cfd2335d-256f-4912-821a-f5390c6525af","ios":"levelo://app?vid=cfd2335d-256f-4912-821a-f5390c6525af"},"vehicle_type_id":"4","last_reported":1747220927,"current_range_meters":20800,"station_id":"","pricing_plan_id":"cebpf4jnsgd1na2vs0mg"},{"bike_id":"1ae0b734-22b3-4b50-80d3-c63698279b7b","system_id":"levelo_inurba_marseille","lat":43.30592,"lon":5.37104,"is_reserved":false,"is_disabled":false,"rental_uris":{"android":"levelo://app?vid=1ae0b734-22b3-4b50-80d3-c63698279b7b","ios":"levelo://app?vid=1ae0b734-22b3-4b50-80d3-c63698279b7b"},"vehicle_type_id":"4","last_reported":1747220927,"current_range_meters":20800,"station_id":"","pricing_plan_id":"cebpf4jnsgd1na2vs0mg"},{"bike_id":"dc19af9c-7b80-4cb4-82bc-e06ac428c729","system_id":"levelo_inurba_marseille","lat":43.29524,"lon":5.38526,"is_reserved":false,"is_disabled":false,"rental_uris":{"android":"levelo://app?vid=dc19af9c-7b80-4cb4-82bc-e06ac428c729","ios":"levelo://app?vid=dc19af9c-7b80-4cb4-82bc-e06ac428c729"},"vehicle_type_id":"4","last_reported":1747220927,"current_range_meters":20800,"station_id":"ce4bgih2rcd13ifvqba0","pricing_plan_id":"cebpf4jnsgd1na2vs0mg"},{"bike_id":"13c9dde3-370f-4898-921a-52334846866b","system_id":"levelo_inurba_marseille","lat":43.312307,"lon":5.368593,"is_reserved":false,"is_disabled":false,"rental_uris":{"android":"levelo://app?vid=13c9dde3-370f-4898-921a-52334846866b","ios":"levelo://app?vid=13c9dde3-370f-4898-921a-52334846866b"},"vehicle_type_id":"4","last_reported":1747220927,"current_range_meters":20800,"station_id":"ce4bgl92rcd13ifvqbq0","pricing_plan_id":"cebpf4jnsgd1na2vs0mg"},{"bike_id":"3b25795c-e7bc-4ee2-90d2-803ff2197f27","system_id":"levelo_inurba_marseille","lat":43.29619,"lon":5.37153,"is_reserved":false,"is_disabled":false,"rental_uris":{"android":"levelo://app?vid=3b25795c-e7bc-4ee2-90d2-803ff2197f27","ios":"levelo://app?vid=3b25795c-e7bc-4ee2-90d2-803ff2197f27"},"vehicle_type_id":"4","last_reported":1747220927,"current_range_meters":20800,"station_id":"ce4bgnh2rcd13ifvqc0g","pricing_plan_id":"cebpf4jnsgd1na2vs0mg"},{"bike_id":"88cef012-63d8-4f97-856b-602e64b69a00","system_id":"levelo_inurba_marseille","lat":43.30139,"lon":5.39865,"is_reserved":false,"is_disabled":false,"rental_uris":{"android":"levelo://app?vid=88cef012-63d8-4f97-856b-602e64b69a00","ios":"levelo://app?vid=88cef012-63d8-4f97-856b-602e64b69a00"},"vehicle_type_id":"4","last_reported":1747220927,"current_range_meters":20800,"station_id":"ce4bh0h2rcd13ifvqd40","pricing_plan_id":"cebpf4jnsgd1na2vs0mg"},{"bike_id":"75cfd76a-e7a4-4ac6-99e2-0dbba11ed749","system_id":"levelo_inurba_marseille","lat":43.29889,"lon":5.3889,"is_reserved":false,"is_disabled":false,"rental_uris":{"android":"levelo://app?vid=75cfd76a-e7a4-4ac6-99e2-0dbba11ed749","ios":"levelo://app?vid=75cfd76a-e7a4-4ac6-99e2-0dbba11ed749"},"vehicle_type_id":"4","last_reported":1747220927,"current_range_meters":20800,"station_id":"ce4bh392rcd13ifvqdl0","pricing_plan_id":"cebpf4jnsgd1na2vs0mg"},{"bike_id":"ad2bf0b1-d39c-4291-b58f-0ac39ae861db","system_id":"levelo_inurba_marseille","lat":43.32661,"lon":5.40994,"is_reserved":false,"is_disabled":false,"rental_uris":{"android":"levelo://app?vid=ad2bf0b1-d39c-4291-b58f-0ac39ae861db","ios":"levelo://app?vid=ad2bf0b1-d39c-4291-b58f-0ac39ae861db"},"vehicle_type_id":"4","last_reported":1747220927,"current_range_meters":20800,"station_id":"ce4bhpp2rcd13ifvqhgg","pricing_plan_id":"cebpf4jnsgd1na2vs0mg"},{"bike_id":"449cc076-d2a9-45e2-960c-367531845070","system_id":"levelo_inurba_marseille","lat":43.29782,"lon":5.37099,"is_reserved":false,"is_disabled":false,"rental_uris":{"android":"levelo://app?vid=449cc076-d2a9-45e2-960c-367531845070","ios":"levelo://app?vid=449cc076-d2a9-45e2-960c-367531845070"},"vehicle_type_id":"4","last_reported":1747220927,"current_range_meters":21600,"station_id":"ce4bgop2rcd13ifvqc1g","pricing_plan_id":"cebpf4jnsgd1na2vs0mg"},{"bike_id":"e52ce236-9a06-4882-a1d2-435a701c2652","system_id":"levelo_inurba_marseille","lat":43.29277,"lon":5.35993,"is_reserved":false,"is_disabled":false,"rental_uris":{"android":"levelo://app?vid=e52ce236-9a06-4882-a1d2-435a701c2652","ios":"levelo://app?vid=e52ce236-9a06-4882-a1d2-435a701c2652"},"vehicle_type_id":"4","last_reported":1747220927,"current_range_meters":21600,"station_id":"ce4bhbh2rcd13ifvqeqg","pricing_plan_id":"cebpf4jnsgd1na2vs0mg"},{"bike_id":"72191636-5c98-43b1-8e31-512b80b11122","system_id":"levelo_inurba_marseille","lat":43.28944,"lon":5.364,"is_reserved":false,"is_disabled":false,"rental_uris":{"android":"levelo://app?vid=72191636-5c98-43b1-8e31-512b80b11122","ios":"levelo://app?vid=72191636-5c98-43b1-8e31-512b80b11122"},"vehicle_type_id":"4","last_reported":1747220927,"current_range_meters":21600,"station_id":"ce4bhc92rcd13ifvqetg","pricing_plan_id":"cebpf4jnsgd1na2vs0mg"},{"bike_id":"46e1ac37-ce0a-47d2-a642-efd4d507f350","system_id":"levelo_inurba_marseille","lat":43.26206,"lon":5.3744,"is_reserved":false,"is_disabled":false,"rental_uris":{"android":"levelo://app?vid=46e1ac37-ce0a-47d2-a642-efd4d507f350","ios":"levelo://app?vid=46e1ac37-ce0a-47d2-a642-efd4d507f350"},"vehicle_type_id":"4","last_reported":1747220927,"current_range_meters":21600,"station_id":"ce4bhgp2rcd13ifvqfc0","pricing_plan_id":"cebpf4jnsgd1na2vs0mg"},{"bike_id":"fffc0718-6631-470d-8a5c-b1efad75e0e2","system_id":"levelo_inurba_marseille","lat":43.23964,"lon":5.366264,"is_reserved":false,"is_disabled":false,"rental_uris":{"android":"levelo://app?vid=fffc0718-6631-470d-8a5c-b1efad75e0e2","ios":"levelo://app?vid=fffc0718-6631-470d-8a5c-b1efad75e0e2"},"vehicle_type_id":"4","last_reported":1747220927,"current_range_meters":21600,"station_id":"ce4bhi12rcd13ifvqfp0","pricing_plan_id":"cebpf4jnsgd1na2vs0mg"},{"bike_id":"def2aa14-8fea-48c2-9e53-91c1ba85147e","system_id":"levelo_inurba_marseille","lat":43.24168,"lon":5.36387,"is_reserved":false,"is_disabled":false,"rental_uris":{"android":"levelo://app?vid=def2aa14-8fea-48c2-9e53-91c1ba85147e","ios":"levelo://app?vid=def2aa14-8fea-48c2-9e53-91c1ba85147e"},"vehicle_type_id":"4","last_reported":1747220927,"current_range_meters":21600,"station_id":"cpo36qri1sfpv3e86is0","pricing_plan_id":"cebpf4jnsgd1na2vs0mg"},{"bike_id":"9a402898-f116-408b-8709-c62dd77d2b5d","system_id":"levelo_inurba_marseille","lat":43.29365,"lon":5.42826,"is_reserved":false,"is_disabled":false,"rental_uris":{"android":"levelo://app?vid=9a402898-f116-408b-8709-c62dd77d2b5d","ios":"levelo://app?vid=9a402898-f116-408b-8709-c62dd77d2b5d"},"vehicle_type_id":"4","last_reported":1747220927,"current_range_meters":22000,"station_id":"","pricing_plan_id":"cebpf4jnsgd1na2vs0mg"},{"bike_id":"a9d31fe0-2508-42cc-8e0b-6f6a14799b08","system_id":"levelo_inurba_marseille","lat":43.3016,"lon":5.37226,"is_reserved":false,"is_disabled":false,"rental_uris":{"android":"levelo://app?vid=a9d31fe0-2508-42cc-8e0b-6f6a14799b08","ios":"levelo://app?vid=a9d31fe0-2508-42cc-8e0b-6f6a14799b08"},"vehicle_type_id":"4","last_reported":1747220927,"current_range_meters":22000,"station_id":"","pricing_plan_id":"cebpf4jnsgd1na2vs0mg"},{"bike_id":"94ba1cdf-9398-47f1-a3dc-b5c15b20021c","system_id":"levelo_inurba_marseille","lat":43.31993,"lon":5.38135,"is_reserved":false,"is_disabled":false,"rental_uris":{"android":"levelo://app?vid=94ba1cdf-9398-47f1-a3dc-b5c15b20021c","ios":"levelo://app?vid=94ba1cdf-9398-47f1-a3dc-b5c15b20021c"},"vehicle_type_id":"4","last_reported":1747220927,"current_range_meters":22000,"station_id":"ce4bhr12rcd13ifvqhpg","pricing_plan_id":"cebpf4jnsgd1na2vs0mg"},{"bike_id":"6d853f86-4beb-4a70-804c-52ea5b633ec4","system_id":"levelo_inurba_marseille","lat":43.24164,"lon":5.36401,"is_reserved":false,"is_disabled":false,"rental_uris":{"android":"levelo://app?vid=6d853f86-4beb-4a70-804c-52ea5b633ec4","ios":"levelo://app?vid=6d853f86-4beb-4a70-804c-52ea5b633ec4"},"vehicle_type_id":"4","last_reported":1747220927,"current_range_meters":22000,"station_id":"cpo36qri1sfpv3e86is0","pricing_plan_id":"cebpf4jnsgd1na2vs0mg"},{"bike_id":"6b7c691e-f2b5-488a-bb78-f3336304d229","system_id":"levelo_inurba_marseille","lat":43.24166,"lon":5.36407,"is_reserved":false,"is_disabled":false,"rental_uris":{"android":"levelo://app?vid=6b7c691e-f2b5-488a-bb78-f3336304d229","ios":"levelo://app?vid=6b7c691e-f2b5-488a-bb78-f3336304d229"},"vehicle_type_id":"4","last_reported":1747220927,"current_range_meters":22000,"station_id":"cpo36qri1sfpv3e86is0","pricing_plan_id":"cebpf4jnsgd1na2vs0mg"},{"bike_id":"f03ed3f3-42d4-488a-9039-0789b1881240","system_id":"levelo_inurba_marseille","lat":43.30799,"lon":5.37409,"is_reserved":false,"is_disabled":false,"rental_uris":{"android":"levelo://app?vid=f03ed3f3-42d4-488a-9039-0789b1881240","ios":"levelo://app?vid=f03ed3f3-42d4-488a-9039-0789b1881240"},"vehicle_type_id":"4","last_reported":1747220927,"current_range_meters":22400,"station_id":"","pricing_plan_id":"cebpf4jnsgd1na2vs0mg"},