{"last_updated":1733072814,"ttl":60,"version":"2.2","data":{"bikes":[{"bike_id":"92b23b60-0174-4ee0-926b-6c47f6ecf19c","system_id":"levelo_inurba_marseille","lat":43.28107,"lon":5.3784,"is_reserved":false,"is_disabled":false,"rental_uris":{"android":"levelo://app?vid=92b23b60-0174-4ee0-926b-6c47f6ecf19c","ios":"levelo://app?vid=92b23b60-0174-4ee0-926b-6c47f6ecf19c"},"vehicle_type_id":"4","last_reported":1733072814,"current_range_meters":14800,"station_id":"ce4bha12rcd13ifvqee0","pricing_plan_id":"cebpf4jnsgd1na2vs0mg"},{"bike_id":"9eb9ee9b-532a-4e66-9337-6742bfb3d802","system_id":"levelo_inurba_marseille","lat":43.279919,"lon":5.416611,"is_reserved":false,"is_disabled":true,"rental_uris":{"android":"levelo://app?vid=9eb9ee9b-532a-4e66-9337-6742bfb3d802","ios":"levelo://app?vid=9eb9ee9b-532a-4e66-9337-6742bfb3d802"},"vehicle_type_id":"4","last_reported":1733072814,"current_range_meters":29600,"station_id":"ce4bho12rcd13ifvqh1g","pricing_plan_id":"cebpf4jnsgd1na2vs0mg"},{"bike_id":"3f08722c-49a5-4c33-9b59-3f62f9134a3d","system_id":"levelo_inurba_marseille","lat":43.301498,"lon":5.380991,"is_reserved":false,"is_disabled":true,"rental_uris":{"android":"levelo://app?vid=3f08722c-49a5-4c33-9b59-3f62f9134a3d","ios":"levelo://app?vid=3f08722c-49a5-4c33-9b59-3f62f9134a3d"},"vehicle_type_id":"4","last_reported":1733072814,"current_range_meters":0,"station_id":"ce4bgjp2rcd13ifvqbh0","pricing_plan_id":"cebpf4jnsgd1na2vs0mg"},{"bike_id":"a98000c5-e972-4739-afdb-09c51e575c54","system_id":"levelo_inurba_marseille","lat":43.29051,"lon":5.35907,"is_reserved":false,"is_disabled":false,"rental_uris":{"android":"levelo://app?vid=a98000c5-e972-4739-afdb-09c51e575c54","ios":"levelo://app?vid=a98000c5-e972-4739-afdb-09c51e575c54"},"vehicle_type_id":"4","last_reported":1733072814,"current_range_meters":2000,"station_id":"ce4bha92rcd13ifvqeg0","pricing_plan_id":"cebpf4jnsgd1na2vs0mg"},{"bike_id":"7ff9ed7d-51d4-4c0b-aef0-61969fefb411","system_id":"levelo_inurba_marseille","lat":43.24168,"lon":5.36411,"is_reserved":false,"is_disabled":false,"rental_uris":{"android":"levelo://app?vid=7ff9ed7d-51d4-4c0b-aef0-61969fefb411","ios":"levelo://app?vid=7ff9ed7d-51d4-4c0b-aef0-61969fefb411"},"vehicle_type_id":"4","last_reported":1733072814,"current_range_meters":24800,"station_id":"cpo36qri1sfpv3e86is0","pricing_plan_id":"cebpf4jnsgd1na2vs0mg"},{"bike_id":"7cbdc790-40e7-4638-9863-f9052ef130e1","system_id":"levelo_inurba_marseille","lat":43.2721,"lon":5.39172,"is_reserved":false,"is_disabled":false,"rental_uris":{"android":"levelo://app?vid=7cbdc790-40e7-4638-9863-f9052ef130e1","ios":"levelo://app?vid=7cbdc790-40e7-4638-9863-f9052ef130e1"},"vehicle_type_id":"4","last_reported":1733072814,"current_range_meters":34800,"station_id":"ce4bhhp2rcd13ifvqfm0","pricing_plan_id":"cebpf4jnsgd1na2vs0mg"},{"bike_id":"304c3c23-006c-47a7-be41-53df15bd78fa","system_id":"levelo_inurba_marseille","lat":43.29423,"lon":5.38609,"is_reserved":false,"is_disabled":true,"rental_uris":{"android":"levelo://app?vid=304c3c23-006c-47a7-be41-53df15bd78fa","ios":"levelo://app?vid=304c3c23-006c-47a7-be41-53df15bd78fa"},"vehicle_type_id":"4","last_reported":1733072814,"current_range_meters":27600,"station_id":"ce4bh2h2rcd13ifvqdh0","pricing_plan_id":"cebpf4jnsgd1na2vs0mg"},{"bike_id":"6aaf2f04-8e11-4f90-82dd-18cc398bd6e3","system_id":"levelo_inurba_marseille","lat":43.3136,"lon":5.38493,"is_reserved":false,"is_disabled":false,"rental_uris":{"android":"levelo://app?vid=6aaf2f04-8e11-4f90-82dd-18cc398bd6e3","ios":"levelo://app?vid=6aaf2f04-8e11-4f90-82dd-18cc398bd6e3"},"vehicle_type_id":"4","last_reported":1733072814,"current_range_meters":34000,"station_id":"ce4bgt92rcd13ifvqcf0","pricing_plan_id":"cebpf4jnsgd1na2vs0mg"},{"bike_id":"8e78e253-4c2e-43eb-b595-5d436e2056e0","system_id":"levelo_inurba_marseille","lat":43.2317,"lon":5.39998,"is_reserved":false,"is_disabled":false,"rental_uris":{"android":"levelo://app?vid=8e78e253-4c2e-43eb-b595-5d436e2056e0","ios":"levelo://app?vid=8e78e253-4c2e-43eb-b595-5d436e2056e0"},"vehicle_type_id":"4","last_reported":1733072814,"current_range_meters":14800,"station_id":"ce4bhn12rcd13ifvqgqg","pricing_plan_id":"cebpf4jnsgd1na2vs0mg"},{"bike_id":"de9565e7-311c-4fc1-b784-f6054fdcec1e","system_id":"levelo_inurba_marseille","lat":43.30129,"lon":5.38773,"is_reserved":false,"is_disabled":false,"rental_uris":{"android":"levelo://app?vid=de9565e7-311c-4fc1-b784-f6054fdcec1e","ios":"levelo://app?vid=de9565e7-311c-4fc1-b784-f6054fdcec1e"},"vehicle_type_id":"4","last_reported":1733072814,"current_range_meters":38800,"station_id":"ce4bghh2rcd13ifvqb60","pricing_plan_id":"cebpf4jnsgd1na2vs0mg"},{"bike_id":"6c3702ca-81e8-4155-999e-4c84b14b6a45","system_id":"levelo_inurba_marseille","lat":43.28103,"lon":5.37848,"is_reserved":false,"is_disabled":false,"rental_uris":{"android":"levelo://app?vid=6c3702ca-81e8-4155-999e-4c84b14b6a45","ios":"levelo://app?vid=6c3702ca-81e8-4155-999e-4c84b14b6a45"},"vehicle_type_id":"4","last_reported":1733072814,"current_range_meters":17200,"station_id":"ce4bha12rcd13ifvqee0","pricing_plan_id":"cebpf4jnsgd1na2vs0mg"},{"bike_id":"b65688fa-b1c3-40d7-a238-e0b81dcc7be7","system_id":"levelo_inurba_marseille","lat":43.23189,"lon":5.39982,"is_reserved":false,"is_disabled":false,"rental_uris":{"android":"levelo://app?vid=b65688fa-b1c3-40d7-a238-e0b81dcc7be7","ios":"levelo://app?vid=b65688fa-b1c3-40d7-a238-e0b81dcc7be7"},"vehicle_type_id":"4","last_reported":1733072814,"current_range_meters":37600,"station_id":"ce4bhn12rcd13ifvqgqg","pricing_plan_id":"cebpf4jnsgd1na2vs0mg"},{"bike_id":"34086af6-1b80-4187-b713-36da4e85ff96","system_id":"levelo_inurba_marseille","lat":43.33726,"lon":5.39193,"is_reserved":false,"is_disabled":false,"rental_uris":{"android":"levelo://app?vid=34086af6-1b80-4187-b713-36da4e85ff96","ios":"levelo://app?vid=34086af6-1b80-4187-b713-36da4e85ff96"},"vehicle_type_id":"4","last_reported":1733072814,"current_range_meters":19600,"station_id":"ce4bhr92rcd13ifvqhsg","pricing_plan_id":"cebpf4jnsgd1na2vs0mg"},{"bike_id":"fb3a8c8f-a7b7-44ab-8865-b6aa64849552","system_id":"levelo_inurba_marseille","lat":43.29174,"lon":5.3716,"is_reserved":false,"is_disabled":false,"rental_uris":{"android":"levelo://app?vid=fb3a8c8f-a7b7-44ab-8865-b6aa64849552","ios":"levelo://app?vid=fb3a8c8f-a7b7-44ab-8865-b6aa64849552"},"vehicle_type_id":"4","last_reported":1733072814,"current_range_meters":8800,"station_id":"ce4bha92rcd13ifvqeh0","pricing_plan_id":"cebpf4jnsgd1na2vs0mg"},{"bike_id":"14967877-3bc0-49ad-9034-43c2663e4545","system_id":"levelo_inurba_marseille","lat":43.2944,"lon":5.38635,"is_reserved":false,"is_disabled":false,"rental_uris":{"android":"levelo://app?vid=14967877-3bc0-49ad-9034-43c2663e4545","ios":"levelo://app?vid=14967877-3bc0-49ad-9034-43c2663e4545"},"vehicle_type_id":"4","last_reported":1733072814,"current_range_meters":14000,"station_id":"ce4bh2h2rcd13ifvqdh0","pricing_plan_id":"cebpf4jnsgd1na2vs0mg"},{"bike_id":"967e9a74-8d35-43a8-bb3f-b2f2942f3b6d","system_id":"levelo_inurba_marseille","lat":43.3056,"lon":5.36711,"is_reserved":false,"is_disabled":true,"rental_uris":{"android":"levelo://app?vid=967e9a74-8d35-43a8-bb3f-b2f2942f3b6d","ios":"levelo://app?vid=967e9a74-8d35-43a8-bb3f-b2f2942f3b6d"},"vehicle_type_id":"4","last_reported":1733072814,"current_range_meters":33600,"station_id":"ce4bgrp2rcd13ifvqc9g","pricing_plan_id":"cebpf4jnsgd1na2vs0mg"},{"bike_id":"966791e8-cdff-4838-a42b-c9b609a533a7","system_id":"levelo_inurba_marseille","lat":43.27465,"lon":5.40073,"is_reserved":false,"is_disabled":true,"rental_uris":{"android":"levelo://app?vid=966791e8-cdff-4838-a42b-c9b609a533a7","ios":"levelo://app?vid=966791e8-cdff-4838-a42b-c9b609a533a7"},"vehicle_type_id":"4","last_reported":1733072814,"current_range_meters":0,"station_id":"","pricing_plan_id":"cebpf4jnsgd1na2vs0mg"},{"bike_id":"de4a384e-242d-4660-b6fb-ae97475695f4","system_id":"levelo_inurba_marseille","lat":43.29421,"lon":5.38626,"is_reserved":false,"is_disabled":false,"rental_uris":{"android":"levelo://app?vid=de4a384e-242d-4660-b6fb-ae97475695f4","ios":"levelo://app?vid=de4a384e-242d-4660-b6fb-ae97475695f4"},"vehicle_type_id":"4","last_reported":1733072814,"current_range_meters":26000,"station_id":"ce4bh2h2rcd13ifvqdh0","pricing_plan_id":"cebpf4jnsgd1na2vs0mg"},{"bike_id":"157a3d81-cf27-4d67-b0f6-ba9e7fc15397","system_id":"levelo_inurba_marseille","lat":43.30191,"lon":5.36622,"is_reserved":false,"is_disabled":true,"rental_uris":{"android":"levelo://app?vid=157a3d81-cf27-4d67-b0f6-ba9e7fc15397","ios":"levelo://app?vid=157a3d81-cf27-4d67-b0f6-ba9e7fc15397"},"vehicle_type_id":"4","last_reported":1733072814,"current_range_meters":9200,"station_id":"ce4bgrh2rcd13ifvqc8g","pricing_plan_id":"cebpf4jnsgd1na2vs0mg"},{"bike_id":"626ae450-a415-4a61-8816-976e1b70be4e","system_id":"levelo_inurba_marseille","lat":43.28459,"lon":5.35895,"is_reserved":false,"is_disabled":false,"rental_uris":{"android":"levelo://app?vid=626ae450-a415-4a61-8816-976e1b70be4e","ios":"levelo://app?vid=626ae450-a415-4a61-8816-976e1b70be4e"},"vehicle_type_id":"4","last_reported":1733072814,"current_range_meters":15200,"station_id":"ce4bhah2rcd13ifvqei0","pricing_plan_id":"cebpf4jnsgd1na2vs0mg"},{"bike_id":"c8540c9d-7dc3-44fa-a0f8-7263d3d70bb8","system_id":"levelo_inurba_marseille","lat":43.24647,"lon":5.38888,"is_reserved":false,"is_disabled":true,"rental_uris":{"android":"levelo://app?vid=c8540c9d-7dc3-44fa-a0f8-7263d3d70bb8","ios":"levelo://app?vid=c8540c9d-7dc3-44fa-a0f8-7263d3d70bb8"},"vehicle_type_id":"4","last_reported":1733072814,"current_range_meters":0,"station_id":"ce4bhg12rcd13ifvqf60","pricing_plan_id":"cebpf4jnsgd1na2vs0mg"},{"bike_id":"34553e4f-2bbe-4e94-8740-7b5a4682f76a","system_id":"levelo_inurba_marseille","lat":43.31115,"lon":5.37775,"is_reserved":false,"is_disabled":true,"rental_uris":{"android":"levelo://app?vid=34553e4f-2bbe-4e94-8740-7b5a4682f76a","ios":"levelo://app?vid=34553e4f-2bbe-4e94-8740-7b5a4682f76a"},"vehicle_type_id":"4","last_reported":1733072814,"current_range_meters":34800,"station_id":"ce4bgt92rcd13ifvqcg0","pricing_plan_id":"cebpf4jnsgd1na2vs0mg"},{"bike_id":"87a177cf-8a72-43d2-ad9b-470961f3e5dc","system_id":"levelo_inurba_marseille","lat":43.299996,"lon":5.376471,"is_reserved":false,"is_disabled":true,"rental_uris":{"android":"levelo://app?vid=87a177cf-8a72-43d2-ad9b-470961f3e5dc","ios":"levelo://app?vid=87a177cf-8a72-43d2-ad9b-470961f3e5dc"},"vehicle_type_id":"4","last_reported":1733072814,"current_range_meters":0,"station_id":"","pricing_plan_id":"cebpf4jnsgd1na2vs0mg"},{"bike_id":"ffc3eeb6-6bf5-4a72-99c1-23a99957f6b4","system_id":"levelo_inurba_marseille","lat":43.23187,"lon":5.3999,"is_reserved":false,"is_disabled":true,"rental_uris":{"android":"levelo://app?vid=ffc3eeb6-6bf5-4a72-99c1-23a99957f6b4","ios":"levelo://app?vid=ffc3eeb6-6bf5-4a72-99c1-23a99957f6b4"},"vehicle_type_id":"4","last_reported":1733072814,"current_range_meters":0,"station_id":"ce4bhn12rcd13ifvqgqg","pricing_plan_id":"cebpf4jnsgd1na2vs0mg"},{"bike_id":"b0bd4cdf-7308-45f0-8e99-a0d5811907ff","system_id":"levelo_inurba_marseille","lat":43.254321,"lon":5.38167,"is_reserved":false,"is_disabled":true,"rental_uris":{"android":"levelo://app?vid=b0bd4cdf-7308-45f0-8e99-a0d5811907ff","ios":"levelo://app?vid=b0bd4cdf-7308-45f0-8e99-a0d5811907ff"},"vehicle_type_id":"4","last_reported":1733072814,"current_range_meters":0,"station_id":"","pricing_plan_id":"cebpf4jnsgd1na2vs0mg"},{"bike_id":"8bcd172f-5475-4607-a4e7-44d7749b12a1","system_id":"levelo_inurba_marseille","lat":43.3373,"lon":5.39201,"is_reserved":false,"is_disabled":true,"rental_uris":{"android":"levelo://app?vid=8bcd172f-5475-4607-a4e7-44d7749b12a1","ios":"levelo://app?vid=8bcd172f-5475-4607-a4e7-44d7749b12a1"},"vehicle_type_id":"4","last_reported":1733072814,"current_range_meters":3200,"station_id":"ce4bhr92rcd13ifvqhsg","pricing_plan_id":"cebpf4jnsgd1na2vs0mg"},{"bike_id":"f2cc114c-6c9b-4393-884b-2ddc57f96b7d","system_id":"levelo_inurba_marseille","lat":43.27072,"lon":5.42278,"is_reserved":false,"is_disabled":false,"rental_uris":{"android":"levelo://app?vid=f2cc114c-6c9b-4393-884b-2ddc57f96b7d","ios":"levelo://app?vid=f2cc114c-6c9b-4393-884b-2ddc57f96b7d"},"vehicle_type_id":"4","last_reported":1733072814,"current_range_meters":27200,"station_id":"ce4bhk92rcd13ifvqgb0","pricing_plan_id":"cebpf4jnsgd1na2vs0mg"},{"bike_id":"f1d01421-413e-4b0b-8139-4de64fcae036","system_id":"levelo_inurba_marseille","lat":43.31271,"lon":5.40173,"is_reserved":false,"is_disabled":false,"rental_uris":{"android":"levelo://app?vid=f1d01421-413e-4b0b-8139-4de64fcae036","ios":"levelo://app?vid=f1d01421-413e-4b0b-8139-4de64fcae036"},"vehicle_type_id":"4","last_reported":1733072814,"current_range_meters":19200,"station_id":"ce4bh092rcd13ifvqd30","pricing_plan_id":"cebpf4jnsgd1na2vs0mg"},{"bike_id":"6f7949e1-de87-4a49-8620-fec27e04447f","system_id":"levelo_inurba_marseille","lat":43.33739,"lon":5.39197,"is_reserved":false,"is_disabled":false,"rental_uris":{"android":"levelo://app?vid=6f7949e1-de87-4a49-8620-fec27e04447f","ios":"levelo://app?vid=6f7949e1-de87-4a49-8620-fec27e04447f"},"vehicle_type_id":"4","last_reported":1733072814,"current_range_meters":23200,"station_id":"ce4bhr92rcd13ifvqhsg","pricing_plan_id":"cebpf4jnsgd1na2vs0mg"},{"bike_id":"cc3955d1-a882-4f66-a1e5-f56964c0b494","system_id":"levelo_inurba_marseille","lat":43.30598,"lon":5.37229,"is_reserved":false,"is_disabled":false,"rental_uris":{"android":"levelo://app?vid=cc3955d1-a882-4f66-a1e5-f56964c0b494","ios":"levelo://app?vid=cc3955d1-a882-4f66-a1e5-f56964c0b494"},"vehicle_type_id":"4","last_reported":1733072814,"current_range_meters":28800,"station_id":"ce4bgqh2rcd13ifvqc4g","pricing_plan_id":"cebpf4jnsgd1na2vs0mg"},{"bike_id":"8c85827c-99a2-49e1-8002-2f550f18a903","system_id":"levelo_inurba_marseille","lat":43.2757,"lon":5.38407,"is_reserved":false,"is_disabled":false,"rental_uris":{"android":"levelo://app?vid=8c85827c-99a2-49e1-8002-2f550f18a903","ios":"levelo://app?vid=8c85827c-99a2-49e1-8002-2f550f18a903"},"vehicle_type_id":"4","last_reported":1733072814,"current_range_meters":34000,"station_id":"ce4bhh92rcd13ifvqfi0","pricing_plan_id":"cebpf4jnsgd1na2vs0mg"},{"bike_id":"7066298c-8444-4dbb-8e5a-afa45f0890f5","system_id":"levelo_inurba_marseille","lat":43.28867,"lon":5.39305,"is_reserved":false,"is_disabled":true,"rental_uris":{"android":"levelo://app?vid=7066298c-8444-4dbb-8e5a-afa45f0890f5","ios":"levelo://app?vid=7066298c-8444-4dbb-8e5a-afa45f0890f5"},"vehicle_type_id":"4","last_reported":1733072814,"current_range_meters":8000,"station_id":"ce4bh2p2rcd13ifvqdi0","pricing_plan_id":"cebpf4jnsgd1na2vs0mg"},{"bike_id":"79da6e11-068f-4f85-891a-bf5d6033ae1b","system_id":"levelo_inurba_marseille","lat":43.29186,"lon":5.39309,"is_reserved":false,"is_disabled":true,"rental_uris":{"android":"levelo://app?vid=79da6e11-068f-4f85-891a-bf5d6033ae1b","ios":"levelo://app?vid=79da6e11-068f-4f85-891a-bf5d6033ae1b"},"vehicle_type_id":"4","last_reported":1733072814,"current_range_meters":17600,"station_id":"ce4bh192rcd13ifvqdd0","pricing_plan_id":"cebpf4jnsgd1na2vs0mg"},{"bike_id":"b93c60fe-b173-4143-9514-2eb2eb8b3db5","system_id":"levelo_inurba_marseille","lat":43.29901,"lon":5.38147,"is_reserved":false,"is_disabled":false,"rental_uris":{"android":"levelo://app?vid=b93c60fe-b173-4143-9514-2eb2eb8b3db5","ios":"levelo://app?vid=b93c60fe-b173-4143-9514-2eb2eb8b3db5"},"vehicle_type_id":"4","last_reported":1733072814,"current_range_meters":28800,"station_id":"ce4bgj12rcd13ifvqbc0","pricing_plan_id":"cebpf4jnsgd1na2vs0mg"},{"bike_id":"0ca80638-0979-43b0-b956-894cbe5558b3","system_id":"levelo_inurba_marseille","lat":43.29106,"lon":5.38124,"is_reserved":false,"is_disabled":false,"rental_uris":{"android":"levelo://app?vid=0ca80638-0979-43b0-b956-894cbe5558b3","ios":"levelo://app?vid=0ca80638-0979-43b0-b956-894cbe5558b3"},"vehicle_type_id":"4","last_reported":1733072814,"current_range_meters":32800,"station_id":"ce4bh512rcd13ifvqe2g","pricing_plan_id":"cebpf4jnsgd1na2vs0mg"},{"bike_id":"5faefd85-0697-4aae-b606-e724c5880c33","system_id":"levelo_inurba_marseille","lat":43.30215,"lon":5.3742,"is_reserved":false,"is_disabled":false,"rental_uris":{"android":"levelo://app?vid=5faefd85-0697-4aae-b606-e724c5880c33","ios":"levelo://app?vid=5faefd85-0697-4aae-b606-e724c5880c33"},"vehicle_type_id":"4","last_reported":1733072814,"current_range_meters":8000,"station_id":"","pricing_plan_id":"cebpf4jnsgd1na2vs0mg"},{"bike_id":"050c2e6e-9703-4305-a7cb-db217ee0305a","system_id":"levelo_inurba_marseille","lat":43.26041,"lon":5.37555,"is_reserved":false,"is_disabled":true,"rental_uris":{"android":"levelo://app?vid=050c2e6e-9703-4305-a7cb-db217ee0305a","ios":"levelo://app?vid=050c2e6e-9703-4305-a7cb-db217ee0305a"},"vehicle_type_id":"4","last_reported":1733072814,"current_range_meters":0,"station_id":"ce4bhgh2rcd13ifvqfa0","pricing_plan_id":"cebpf4jnsgd1na2vs0mg"},{"bike_id":"a3d6644a-0ffc-44af-b85b-65efc97f59c2","system_id":"levelo_inurba_marseille","lat":43.26206,"lon":5.3793,"is_reserved":false,"is_disabled":true,"rental_uris":{"android":"levelo://app?vid=a3d6644a-0ffc-44af-b85b-65efc97f59c2","ios":"levelo://app?vid=a3d6644a-0ffc-44af-b85b-65efc97f59c2"},"vehicle_type_id":"4","last_reported":1733072814,"current_range_meters":6800,"station_id":"ce4bhjp2rcd13ifvqg90","pricing_plan_id":"cebpf4jnsgd1na2vs0mg"},{"bike_id":"67013bae-332b-4e6f-b22c-ab3691d64463","system_id":"levelo_inurba_marseille","lat":43.29601,"lon":5.38101,"is_reserved":false,"is_disabled":false,"rental_uris":{"android":"levelo://app?vid=67013bae-332b-4e6f-b22c-ab3691d64463","ios":"levelo://app?vid=67013bae-332b-4e6f-b22c-ab3691d64463"},"vehicle_type_id":"4","last_reported":1733072814,"current_range_meters":10800,"station_id":"ce4bgl12rcd13ifvqbo0","pricing_plan_id":"cebpf4jnsgd1na2vs0mg"},{"bike_id":"7e34e2cc-7262-4633-b6ee-8a75aae8a374","system_id":"levelo_inurba_marseille","lat":43.29006,"lon":5.35646,"is_reserved":false,"is_disabled":false,"rental_uris":{"android":"levelo://app?vid=7e34e2cc-7262-4633-b6ee-8a75aae8a374","ios":"levelo://app?vid=7e34e2cc-7262-4633-b6ee-8a75aae8a374"},"vehicle_type_id":"4","last_reported":1733072814,"current_range_meters":36000,"station_id":"ce4bhb92rcd13ifvqen0","pricing_plan_id":"cebpf4jnsgd1na2vs0mg"},{"bike_id":"ad6792c3-e34e-4577-b586-af0448767d2d","system_id":"levelo_inurba_marseille","lat":43.28852,"lon":5.35843,"is_reserved":false,"is_disabled":false,"rental_uris":{"android":"levelo://app?vid=ad6792c3-e34e-4577-b586-af0448767d2d","ios":"levelo://app?vid=ad6792c3-e34e-4577-b586-af0448767d2d"},"vehicle_type_id":"4","last_reported":1733072814,"current_range_meters":36800,"station_id":"ce4bhb12rcd13ifvqem0","pricing_plan_id":"cebpf4jnsgd1na2vs0mg"},{"bike_id":"7ed2229e-6e77-42d8-826e-e15ec9f33077","system_id":"levelo_inurba_marseille","lat":43.26688,"lon":5.38275,"is_reserved":false,"is_disabled":true,"rental_uris":{"android":"levelo://app?vid=7ed2229e-6e77-42d8-826e-e15ec9f33077","ios":"levelo://app?vid=7ed2229e-6e77-42d8-826e-e15ec9f33077"},"vehicle_type_id":"4","last_reported":1733072814,"current_range_meters":16000,"station_id":"ce4bhg92rcd13ifvqf90","pricing_plan_id":"cebpf4jnsgd1na2vs0mg"},{"bike_id":"8fdf0680-166b-4766-a655-d02e84d131fa","system_id":"levelo_inurba_marseille","lat":43.3096,"lon":5.39035,"is_reserved":false,"is_disabled":true,"rental_uris":{"android":"levelo://app?vid=8fdf0680-166b-4766-a655-d02e84d131fa","ios":"levelo://app?vid=8fdf0680-166b-4766-a655-d02e84d131fa"},"vehicle_type_id":"4","last_reported":1733072814,"current_range_meters":38400,"station_id":"ce4bgup2rcd13ifvqco0","pricing_plan_id":"cebpf4jnsgd1na2vs0mg"},{"bike_id":"9399411f-0c64-4d2c-a74d-b11183503569","system_id":"levelo_inurba_marseille","lat":43.27678,"lon":5.38862,"is_reserved":false,"is_disabled":false,"rental_uris":{"android":"levelo://app?vid=9399411f-0c64-4d2c-a74d-b11183503569","ios":"levelo://app?vid=9399411f-0c64-4d2c-a74d-b11183503569"},"vehicle_type_id":"4","last_reported":1733072814,"current_range_meters":33600,"station_id":"ce4bhi12rcd13ifvqfo0","pricing_plan_id":"cebpf4jnsgd1na2vs0mg"},{"bike_id":"64cbfd6a-4a4e-4d37-982c-18402a201eee","system_id":"levelo_inurba_marseille","lat":43.28656,"lon":5.36349,"is_reserved":false,"is_disabled":true,"rental_uris":{"android":"levelo://app?vid=64cbfd6a-4a4e-4d37-982c-18402a201eee","ios":"levelo://app?vid=64cbfd6a-4a4e-4d37-982c-18402a201eee"},"vehicle_type_id":"4","last_reported":1733072814,"current_range_meters":16000,"station_id":"ce4bhah2rcd13ifvqej0","pricing_plan_id":"cebpf4jnsgd1na2vs0mg"},{"bike_id":"e35b6b13-a07d-4681-a3a9-b1c8e463360c","system_id":"levelo_inurba_marseille","lat":43.29903,"lon":5.38155,"is_reserved":false,"is_disabled":false,"rental_uris":{"android":"levelo://app?vid=e35b6b13-a07d-4681-a3a9-b1c8e463360c","ios":"levelo://app?vid=e35b6b13-a07d-4681-a3a9-b1c8e463360c"},"vehicle_type_id":"4","last_reported":1733072814,"current_range_meters":28400,"station_id":"ce4bgj12rcd13ifvqbc0","pricing_plan_id":"cebpf4jnsgd1na2vs0mg"},{"bike_id":"60a749b7-1158-49e1-a7f7-40118c10259a","system_id":"levelo_inurba_marseille","lat":43.284196,"lon":5.375216,"is_reserved":false,"is_disabled":false,"rental_uris":{"android":"levelo://app?vid=60a749b7-1158-49e1-a7f7-40118c10259a","ios":"levelo://app?vid=60a749b7-1158-49e1-a7f7-40118c10259a"},"vehicle_type_id":"4","last_reported":1733072814,"current_range_meters":33200,"station_id":"ce4bh412rcd13ifvqds0","pricing_plan_id":"cebpf4jnsgd1na2vs0mg"},{"bike_id":"f792d34c-1c6d-47c1-a35b-7fabd691333d","system_id":"levelo_inurba_marseille","lat":43.33739,"lon":5.39192,"is_reserved":false,"is_disabled":false,"rental_uris":{"android":"levelo://app?vid=f792d34c-1c6d-47c1-a35b-7fabd691333d","ios":"levelo://app?vid=f792d34c-1c6d-47c1-a35b-7fabd691333d"},"vehicle_type_id":"4","last_reported":1733072814,"current_range_meters":27600,"station_id":"ce4bhr92rcd13ifvqhsg","pricing_plan_id":"cebpf4jnsgd1na2vs0mg"},{"bike_id":"209c0815-1137-465b-b0d6-13fcf1b7a485","system_id":"levelo_inurba_marseille","lat":43.29561,"lon":5.42267,"is_reserved":false,"is_disabled":false,"rental_uris":{"android":"levelo://app?vid=209c0815-1137-465b-b0d6-13fcf1b7a485","ios":"levelo://app?vid=209c0815-1137-465b-b0d6-13fcf1b7a485"},"vehicle_type_id":"4","last_reported":1733072814,"current_range_meters":38800,"station_id":"ce4bhph2rcd13ifvqhdg","pricing_plan_id":"cebpf4jnsgd1na2vs0mg"},{"bike_id":"e0c6eb74-55b1-4887-8073-0d325a89f386","system_id":"levelo_inurba_marseille","lat":43.289488,"lon":5.364095,"is_reserved":false,"is_disabled":false,"rental_uris":{"android":"levelo://app?vid=e0c6eb74-55b1-4887-8073-0d325a89f386","ios":"levelo://app?vid=e0c6eb74-55b1-4887-8073-0d325a89f386"},"vehicle_type_id":"4","last_reported":1733072814,"current_range_meters":8800,"station_id":"ce4bhc92rcd13ifvqetg","pricing_plan_id":"cebpf4jnsgd1na2vs0mg"},{"bike_id":"4712f637-3dc8-4c14-9921-27158339f678","system_id":"levelo_inurba_marseille","lat":43.26942,"lon":5.40259,"is_reserved":false,"is_disabled":false,"rental_uris":{"android":"levelo://app?vid=4712f637-3dc8-4c14-9921-27158339f678","ios":"levelo://app?vid=4712f637-3dc8-4c14-9921-27158339f678"},"vehicle_type_id":"4","last_reported":1733072814,"current_range_meters":10000,"station_id":"cjm6bp8fraef2m0cb0m0","pricing_plan_id":"cebpf4jnsgd1na2vs0mg"},{"bike_id":"67fa2a9e-eed8-4ed6-bdd8-7d1023a52b4e","system_id":"levelo_inurba_marseille","lat":43.26939,"lon":5.38927,"is_reserved":false,"is_disabled":true,"rental_uris":{"android":"levelo://app?vid=67fa2a9e-eed8-4ed6-bdd8-7d1023a52b4e","ios":"levelo://app?vid=67fa2a9e-eed8-4ed6-bdd8-7d1023a52b4e"},"vehicle_type_id":"4","last_reported":1733072814,"current_range_meters":4800,"station_id":"ce4bhhh2rcd13ifvqfl0","pricing_plan_id":"cebpf4jnsgd1na2vs0mg"},{"bike_id":"c8537d05-a067-41ab-8139-dc89a2af92b1","system_id":"levelo_inurba_marseille","lat":43.318881,"lon":5.407433,"is_reserved":false,"is_disabled":false,"rental_uris":{"android":"levelo://app?vid=c8537d05-a067-41ab-8139-dc89a2af92b1","ios":"levelo://app?vid=c8537d05-a067-41ab-8139-dc89a2af92b1"},"vehicle_type_id":"4","last_reported":1733072814,"current_range_meters":15200,"station_id":"ce4bhq12rcd13ifvqhig","pricing_plan_id":"cebpf4jnsgd1na2vs0mg"},{"bike_id":"d7935a4e-3fa9-4259-9e60-39bc0ad852e1","system_id":"levelo_inurba_marseille","lat":43.29553,"lon":5.42296,"is_reserved":false,"is_disabled":false,"rental_uris":{"android":"levelo://app?vid=d7935a4e-3fa9-4259-9e60-39bc0ad852e1","ios":"levelo://app?vid=d7935a4e-3fa9-4259-9e60-39bc0ad852e1"},"vehicle_type_id":"4","last_reported":1733072814,"current_range_meters":30400,"station_id":"ce4bhph2rcd13ifvqhdg","pricing_plan_id":"cebpf4jnsgd1na2vs0mg"},{"bike_id":"3dc57342-a70a-4f92-ae52-6d8d5fa8ec86","system_id":"levelo_inurba_marseille","lat":43.28621,"lon":5.35108,"is_reserved":false,"is_disabled":true,"rental_uris":{"android":"levelo://app?vid=3dc57342-a70a-4f92-ae52-6d8d5fa8ec86","ios":"levelo://app?vid=3dc57342-a70a-4f92-ae52-6d8d5fa8ec86"},"vehicle_type_id":"4","last_reported":1733072814,"current_range_meters":0,"station_id":"ce4bhch2rcd13ifvqeug","pricing_plan_id":"cebpf4jnsgd1na2vs0mg"},{"bike_id":"990a2c6a-7eed-4714-af95-7231412fade6","system_id":"levelo_inurba_marseille","lat":43.29622,"lon":5.37719,"is_reserved":false,"is_disabled":false,"rental_uris":{"android":"levelo://app?vid=990a2c6a-7eed-4714-af95-7231412fade6","ios":"levelo://app?vid=990a2c6a-7eed-4714-af95-7231412fade6"},"vehicle_type_id":"4","last_reported":1733072814,"current_range_meters":38800,"station_id":"ce4bgi92rcd13ifvqb90","pricing_plan_id":"cebpf4jnsgd1na2vs0mg"},{"bike_id":"7e1a1a3b-d0ed-410e-b5c9-0cf42c31ba32","system_id":"levelo_inurba_marseille","lat":43.27965,"lon":5.38709,"is_reserved":false,"is_disabled":false,"rental_uris":{"android":"levelo://app?vid=7e1a1a3b-d0ed-410e-b5c9-0cf42c31ba32","ios":"levelo://app?vid=7e1a1a3b-d0ed-410e-b5c9-0cf42c31ba32"},"vehicle_type_id":"4","last_reported":1733072814,"current_range_meters":15200,"station_id":"ce4bhg12rcd13ifvqf80","pricing_plan_id":"cebpf4jnsgd1na2vs0mg"},{"bike_id":"2e651b7f-ebba-4d26-aef5-c72de1663ab2","system_id":"levelo_inurba_marseille","lat":43.29972,"lon":5.38487,"is_reserved":false,"is_disabled":false,"rental_uris":{"android":"levelo://app?vid=2e651b7f-ebba-4d26-aef5-c72de1663ab2","ios":"levelo://app?vid=2e651b7f-ebba-4d26-aef5-c72de1663ab2"},"vehicle_type_id":"4","last_reported":1733072814,"current_range_meters":30800,"station_id":"ce4bgj92rcd13ifvqbd0","pricing_plan_id":"cebpf4jnsgd1na2vs0mg"},{"bike_id":"4aa24472-40e2-413a-8eb4-9728812689b9","system_id":"levelo_inurba_marseille","lat":43.28459,"lon":5.35893,"is_reserved":false,"is_disabled":false,"rental_uris":{"android":"levelo://app?vid=4aa24472-40e2-413a-8eb4-9728812689b9","ios":"levelo://app?vid=4aa24472-40e2-413a-8eb4-9728812689b9"},"vehicle_type_id":"4","last_reported":1733072814,"current_range_meters":30800,"station_id":"ce4bhah2rcd13ifvqei0","pricing_plan_id":"cebpf4jnsgd1na2vs0mg"},{"bike_id":"45c95cf3-1aa9-4af9-a9a3-7dba50ecc20e","system_id":"levelo_inurba_marseille","lat":43.27446,"lon":5.40727,"is_reserved":false,"is_disabled":false,"rental_uris":{"android":"levelo://app?vid=45c95cf3-1aa9-4af9-a9a3-7dba50ecc20e","ios":"levelo://app?vid=45c95cf3-1aa9-4af9-a9a3-7dba50ecc20e"},"vehicle_type_id":"4","last_reported":1733072814,"current_range_meters":18800,"station_id":"","pricing_plan_id":"cebpf4jnsgd1na2vs0mg"},{"bike_id":"bc749360-3ce4-4dd6-a0ac-83aa82c323a7","system_id":"levelo_inurba_marseille","lat":43.28154,"lon":5.42642,"is_reserved":false,"is_disabled":true,"rental_uris":{"android":"levelo://app?vid=bc749360-3ce4-4dd6-a0ac-83aa82c323a7","ios":"levelo://app?vid=bc749360-3ce4-4dd6-a0ac-83aa82c323a7"},"vehicle_type_id":"4","last_reported":1733072814,"current_range_meters":28800,"station_id":"ce4bhnh2rcd13ifvqgug","pricing_plan_id":"cebpf4jnsgd1na2vs0mg"},{"bike_id":"200d0ebd-c30d-49d7-9fcc-9f49e4876e98","system_id":"levelo_inurba_marseille","lat":43.29279,"lon":5.40114,"is_reserved":false,"is_disabled":false,"rental_uris":{"android":"levelo://app?vid=200d0ebd-c30d-49d7-9fcc-9f49e4876e98","ios":"levelo://app?vid=200d0ebd-c30d-49d7-9fcc-9f49e4876e98"},"vehicle_type_id":"4","last_reported":1733072814,"current_range_meters":30000,"station_id":"ce4bh312rcd13ifvqdk0","pricing_plan_id":"cebpf4jnsgd1na2vs0mg"},{"bike_id":"5d924355-eb2d-4816-9703-2fb20f270da7","system_id":"levelo_inurba_marseille","lat":43.26564,"lon":5.39004,"is_reserved":false,"is_disabled":false,"rental_uris":{"android":"levelo://app?vid=5d924355-eb2d-4816-9703-2fb20f270da7","ios":"levelo://app?vid=5d924355-eb2d-4816-9703-2fb20f270da7"},"vehicle_type_id":"4","last_reported":1733072814,"current_range_meters":25200,"station_id":"ce4bhe12rcd13ifvqf30","pricing_plan_id":"cebpf4jnsgd1na2vs0mg"},{"bike_id":"4d4c884f-6933-49c0-8899-f9856d90f44d","system_id":"levelo_inurba_marseille","lat":43.29748,"lon":5.37971,"is_reserved":false,"is_disabled":true,"rental_uris":{"android":"levelo://app?vid=4d4c884f-6933-49c0-8899-f9856d90f44d","ios":"levelo://app?vid=4d4c884f-6933-49c0-8899-f9856d90f44d"},"vehicle_type_id":"4","last_reported":1733072814,"current_range_meters":0,"station_id":"","pricing_plan_id":"cebpf4jnsgd1na2vs0mg"},{"bike_id":"49383f8c-5e0c-4bb5-aa2b-e1c81f4536f3","system_id":"levelo_inurba_marseille","lat":43.32294,"lon":5.38261,"is_reserved":false,"is_disabled":false,"rental_uris":{"android":"levelo://app?vid=49383f8c-5e0c-4bb5-aa2b-e1c81f4536f3","ios":"levelo://app?vid=49383f8c-5e0c-4bb5-aa2b-e1c81f4536f3"},"vehicle_type_id":"4","last_reported":1733072814,"current_range_meters":24800,"station_id":"ce4bhr12rcd13ifvqhqg","pricing_plan_id":"cebpf4jnsgd1na2vs0mg"},{"bike_id":"362acf97-9e8f-4c3e-8574-4958ae2ff74f","system_id":"levelo_inurba_marseille","lat":43.26182,"lon":5.42085,"is_reserved":false,"is_disabled":false,"rental_uris":{"android":"levelo://app?vid=362acf97-9e8f-4c3e-8574-4958ae2ff74f","ios":"levelo://app?vid=362acf97-9e8f-4c3e-8574-4958ae2ff74f"},"vehicle_type_id":"4","last_reported":1733072814,"current_range_meters":27600,"station_id":"","pricing_plan_id":"cebpf4jnsgd1na2vs0mg"},{"bike_id":"f070b46f-f295-4869-946e-332934d2e60a","system_id":"levelo_inurba_marseille","lat":43.22929,"lon":5.35377,"is_reserved":false,"is_disabled":false,"rental_uris":{"android":"levelo://app?vid=f070b46f-f295-4869-946e-332934d2e60a","ios":"levelo://app?vid=f070b46f-f295-4869-946e-332934d2e60a"},"vehicle_type_id":"4","last_reported":1733072814,"current_range_meters":38800,"station_id":"cpo3532slgdg3j2ikp40","pricing_plan_id":"cebpf4jnsgd1na2vs0mg"},{"bike_id":"c4936f8d-ff17-4c25-aa9f-3d843afb3b3f","system_id":"levelo_inurba_marseille","lat":43.29723,"lon":5.37686,"is_reserved":false,"is_disabled":false,"rental_uris":{"android":"levelo://app?vid=c4936f8d-ff17-4c25-aa9f-3d843afb3b3f","ios":"levelo://app?vid=c4936f8d-ff17-4c25-aa9f-3d843afb3b3f"},"vehicle_type_id":"4","last_reported":1733072814,"current_range_meters":38400,"station_id":"ce4bgkh2rcd13ifvqbl0","pricing_plan_id":"cebpf4jnsgd1na2vs0mg"},{"bike_id":"9586eb19-b25a-4ebb-8fd9-51fadcecab88","system_id":"levelo_inurba_marseille","lat":43.3123,"lon":5.36857,"is_reserved":false,"is_disabled":false,"rental_uris":{"android":"levelo://app?vid=9586eb19-b25a-4ebb-8fd9-51fadcecab88","ios":"levelo://app?vid=9586eb19-b25a-4ebb-8fd9-51fadcecab88"},"vehicle_type_id":"4","last_reported":1733072814,"current_range_meters":38800,"station_id":"ce4bgl92rcd13ifvqbq0","pricing_plan_id":"cebpf4jnsgd1na2vs0mg"},{"bike_id":"b7b33697-14a7-4110-9b8b-4194e6ef5f3f","system_id":"levelo_inurba_marseille","lat":43.27283,"lon":5.39194,"is_reserved":false,"is_disabled":true,"rental_uris":{"android":"levelo://app?vid=b7b33697-14a7-4110-9b8b-4194e6ef5f3f","ios":"levelo://app?vid=b7b33697-14a7-4110-9b8b-4194e6ef5f3f"},"vehicle_type_id":"4","last_reported":1733072814,"current_range_meters":0,"station_id":"","pricing_plan_id":"cebpf4jnsgd1na2vs0mg"},{"bike_id":"ac49fba4-30df-4893-b052-7d9d76fd86a2","system_id":"levelo_inurba_marseille","lat":43.2926,"lon":5.38436,"is_reserved":false,"is_disabled":true,"rental_uris":{"android":"levelo://app?vid=ac49fba4-30df-4893-b052-7d9d76fd86a2","ios":"levelo://app?vid=ac49fba4-30df-4893-b052-7d9d76fd86a2"},"vehicle_type_id":"4","last_reported":1733072814,"current_range_meters":10800,"station_id":"ce4bh692rcd13ifvqea0","pricing_plan_id":"cebpf4jnsgd1na2vs0mg"},{"bike_id":"e56a37c8-7f3f-4715-92ec-c7eb723438d4","system_id":"levelo_inurba_marseille","lat":43.312247,"lon":5.368603,"is_reserved":false,"is_disabled":false,"rental_uris":{"android":"levelo://app?vid=e56a37c8-7f3f-4715-92ec-c7eb723438d4","ios":"levelo://app?vid=e56a37c8-7f3f-4715-92ec-c7eb723438d4"},"vehicle_type_id":"4","last_reported":1733072814,"current_range_meters":39200,"station_id":"ce4bgl92rcd13ifvqbq0","pricing_plan_id":"cebpf4jnsgd1na2vs0mg"},{"bike_id":"a3d540a5-c9e8-4c92-9399-ec0baac57a71","system_id":"levelo_inurba_marseille","lat":43.29537,"lon":5.38547,"is_reserved":false,"is_disabled":true,"rental_uris":{"android":"levelo://app?vid=a3d540a5-c9e8-4c92-9399-ec0baac57a71","ios":"levelo://app?vid=a3d540a5-c9e8-4c92-9399-ec0baac57a71"},"vehicle_type_id":"4","last_reported":1733072814,"current_range_meters":32800,"station_id":"ce4bgih2rcd13ifvqba0","pricing_plan_id":"cebpf4jnsgd1na2vs0mg"},{"bike_id":"2578c898-454b-4870-95e3-3e53ed8ad570","system_id":"levelo_inurba_marseille","lat":43.26944,"lon":5.40241,"is_reserved":false,"is_disabled":false,"rental_uris":{"android":"levelo://app?vid=2578c898-454b-4870-95e3-3e53ed8ad570","ios":"levelo://app?vid=2578c898-454b-4870-95e3-3e53ed8ad570"},"vehicle_type_id":"4","last_reported":1733072814,"current_range_meters":18000,"station_id":"cjm6bp8fraef2m0cb0m0","pricing_plan_id":"cebpf4jnsgd1na2vs0mg"},{"bike_id":"c70bed4a-03c3-4d48-9d9d-f10e1949ee20","system_id":"levelo_inurba_marseille","lat":43.25004,"lon":5.38925,"is_reserved":false,"is_disabled":true,"rental_uris":{"android":"levelo://app?vid=c70bed4a-03c3-4d48-9d9d-f10e1949ee20","ios":"levelo://app?vid=c70bed4a-03c3-4d48-9d9d-f10e1949ee20"},"vehicle_type_id":"4","last_reported":1733072814,"current_range_meters":0,"station_id":"ce4bhgp2rcd13ifvqfd0","pricing_plan_id":"cebpf4jnsgd1na2vs0mg"},{"bike_id":"425ffece-9685-4021-8402-91aa2fd4d676","system_id":"levelo_inurba_marseille","lat":43.25094,"lon":5.39524,"is_reserved":false,"is_disabled":true,"rental_uris":{"android":"levelo://app?vid=425ffece-9685-4021-8402-91aa2fd4d676","ios":"levelo://app?vid=425ffece-9685-4021-8402-91aa2fd4d676"},"vehicle_type_id":"4","last_reported":1733072814,"current_range_meters":0,"station_id":"ce4bhm12rcd13ifvqgkg","pricing_plan_id":"cebpf4jnsgd1na2vs0mg"},{"bike_id":"3abdb507-aca9-41cf-ab5c-c13fb795c3a0","system_id":"levelo_inurba_marseille","lat":43.28417,"lon":5.34983,"is_reserved":false,"is_disabled":true,"rental_uris":{"android":"levelo://app?vid=3abdb507-aca9-41cf-ab5c-c13fb795c3a0","ios":"levelo://app?vid=3abdb507-aca9-41cf-ab5c-c13fb795c3a0"},"vehicle_type_id":"4","last_reported":1733072814,"current_range_meters":0,"station_id":"ce4bhbh2rcd13ifvqepg","pricing_plan_id":"cebpf4jnsgd1na2vs0mg"},{"bike_id":"957035af-634d-4c30-bf1e-c54867c31f27","system_id":"levelo_inurba_marseille","lat":43.31767,"lon":5.39015,"is_reserved":false,"is_disabled":false,"rental_uris":{"android":"levelo://app?vid=957035af-634d-4c30-bf1e-c54867c31f27","ios":"levelo://app?vid=957035af-634d-4c30-bf1e-c54867c31f27"},"vehicle_type_id":"4","last_reported":1733072814,"current_range_meters":38800,"station_id":"ce4bhqp2rcd13ifvqhng","pricing_plan_id":"cebpf4jnsgd1na2vs0mg"},{"bike_id":"fb2674c4-493a-4927-84ab-3be626644e42","system_id":"levelo_inurba_marseille","lat":43.31886,"lon":5.40738,"is_reserved":false,"is_disabled":false,"rental_uris":{"android":"levelo://app?vid=fb2674c4-493a-4927-84ab-3be626644e42","ios":"levelo://app?vid=fb2674c4-493a-4927-84ab-3be626644e42"},"vehicle_type_id":"4","last_reported":1733072814,"current_range_meters":17200,"station_id":"ce4bhq12rcd13ifvqhig","pricing_plan_id":"cebpf4jnsgd1na2vs0mg"},{"bike_id":"314d1365-c0f9-4b36-8299-e279909a774d","system_id":"levelo_inurba_marseille","lat":43.31214,"lon":5.36859,"is_reserved":false,"is_disabled":true,"rental_uris":{"android":"levelo://app?vid=314d1365-c0f9-4b36-8299-e279909a774d","ios":"levelo://app?vid=314d1365-c0f9-4b36-8299-e279909a774d"},"vehicle_type_id":"4","last_reported":1733072814,"current_range_meters":0,"station_id":"ce4bgl92rcd13ifvqbq0","pricing_plan_id":"cebpf4jnsgd1na2vs0mg"},{"bike_id":"a0d8c5dc-0261-4057-8633-570358d88be8","system_id":"levelo_inurba_marseille","lat":43.24808,"lon":5.37455,"is_reserved":false,"is_disabled":true,"rental_uris":{"android":"levelo://app?vid=a0d8c5dc-0261-4057-8633-570358d88be8","ios":"levelo://app?vid=a0d8c5dc-0261-4057-8633-570358d88be8"},"vehicle_type_id":"4","last_reported":1733072814,"current_range_meters":9200,"station_id":"ce4bhgh2rcd13ifvqfb0","pricing_plan_id":"cebpf4jnsgd1na2vs0mg"},{"bike_id":"60e0bd61-5de3-4124-b784-2b221b77bcac","system_id":"levelo_inurba_marseille","lat":43.29311,"lon":5.3717,"is_reserved":false,"is_disabled":false,"rental_uris":{"android":"levelo://app?vid=60e0bd61-5de3-4124-b784-2b221b77bcac","ios":"levelo://app?vid=60e0bd61-5de3-4124-b784-2b221b77bcac"},"vehicle_type_id":"4","last_reported":1733072814,"current_range_meters":38400,"station_id":"ce4bgh92rcd13ifvqb40","pricing_plan_id":"cebpf4jnsgd1na2vs0mg"},{"bike_id":"0f9beb4f-2a67-4313-b5e4-7b7f5dbca4e7","system_id":"levelo_inurba_marseille","lat":43.30096,"lon":5.39075,"is_reserved":false,"is_disabled":false,"rental_uris":{"android":"levelo://app?vid=0f9beb4f-2a67-4313-b5e4-7b7f5dbca4e7","ios":"levelo://app?vid=0f9beb4f-2a67-4313-b5e4-7b7f5dbca4e7"},"vehicle_type_id":"4","last_reported":1733072814,"current_range_meters":38800,"station_id":"ce4bh192rcd13ifvqdb0","pricing_plan_id":"cebpf4jnsgd1na2vs0mg"},{"bike_id":"35e2ebd1-4f5b-40ef-8ca5-60c82f733d10","system_id":"levelo_inurba_marseille","lat":43.26034,"lon":5.37546,"is_reserved":false,"is_disabled":false,"rental_uris":{"android":"levelo://app?vid=35e2ebd1-4f5b-40ef-8ca5-60c82f733d10","ios":"levelo://app?vid=35e2ebd1-4f5b-40ef-8ca5-60c82f733d10"},"vehicle_type_id":"4","last_reported":1733072814,"current_range_meters":37600,"station_id":"ce4bhgh2rcd13ifvqfa0","pricing_plan_id":"cebpf4jnsgd1na2vs0mg"},{"bike_id":"064861a6-5a15-4e22-bc40-26ea165590ab","system_id":"levelo_inurba_marseille","lat":43.29196,"lon":5.39313,"is_reserved":false,"is_disabled":true,"rental_uris":{"android":"levelo://app?vid=064861a6-5a15-4e22-bc40-26ea165590ab","ios":"levelo://app?vid=064861a6-5a15-4e22-bc40-26ea165590ab"},"vehicle_type_id":"4","last_reported":1733072814,"current_range_meters":23200,"station_id":"ce4bh192rcd13ifvqdd0","pricing_plan_id":"cebpf4jnsgd1na2vs0mg"},{"bike_id":"83187be1-7efa-435e-ae9b-74201cb4dec3","system_id":"levelo_inurba_marseille","lat":43.26686,"lon":5.38276,"is_reserved":false,"is_disabled":true,"rental_uris":{"android":"levelo://app?vid=83187be1-7efa-435e-ae9b-74201cb4dec3","ios":"levelo://app?vid=83187be1-7efa-435e-ae9b-74201cb4dec3"},"vehicle_type_id":"4","last_reported":1733072814,"current_range_meters":37600,"station_id":"ce4bhg92rcd13ifvqf90","pricing_plan_id":"cebpf4jnsgd1na2vs0mg"},{"bike_id":"c111e9fb-60e5-4181-8897-e7b4a184b8b9","system_id":"levelo_inurba_marseille","lat":43.31891,"lon":5.40726,"is_reserved":false,"is_disabled":false,"rental_uris":{"android":"levelo://app?vid=c111e9fb-60e5-4181-8897-e7b4a184b8b9","ios":"levelo://app?vid=c111e9fb-60e5-4181-8897-e7b4a184b8b9"},"vehicle_type_id":"4","last_reported":1733072814,"current_range_meters":9600,"station_id":"ce4bhq12rcd13ifvqhig","pricing_plan_id":"cebpf4jnsgd1na2vs0mg"},{"bike_id":"e8fa7be1-2407-41a7-b843-e7c70f1917ef","system_id":"levelo_inurba_marseille","lat":43.27611,"lon":5.36109,"is_reserved":false,"is_disabled":true,"rental_uris":{"android":"levelo://app?vid=e8fa7be1-2407-41a7-b843-e7c70f1917ef","ios":"levelo://app?vid=e8fa7be1-2407-41a7-b843-e7c70f1917ef"},"vehicle_type_id":"4","last_reported":1733072814,"current_range_meters":0,"station_id":"ce4bgj92rcd13ifvqbe0","pricing_plan_id":"cebpf4jnsgd1na2vs0mg"},{"bike_id":"91b5aa53-adad-4be3-b866-a0d3f07be3d7","system_id":"levelo_inurba_marseille","lat":43.30605,"lon":5.37227,"is_reserved":false,"is_disabled":false,"rental_uris":{"android":"levelo://app?vid=91b5aa53-adad-4be3-b866-a0d3f07be3d7","ios":"levelo://app?vid=91b5aa53-adad-4be3-b866-a0d3f07be3d7"},"vehicle_type_id":"4","last_reported":1733072814,"current_range_meters":8400,"station_id":"ce4bgqh2rcd13ifvqc4g","pricing_plan_id":"cebpf4jnsgd1na2vs0mg"},{"bike_id":"bf8f27bc-3e60-4dbf-8b63-68f2a9bb8d4b","system_id":"levelo_inurba_marseille","lat":43.280989,"lon":5.40146,"is_reserved":false,"is_disabled":false,"rental_uris":{"android":"levelo://app?vid=bf8f27bc-3e60-4dbf-8b63-68f2a9bb8d4b","ios":"levelo://app?vid=bf8f27bc-3e60-4dbf-8b63-68f2a9bb8d4b"},"vehicle_type_id":"4","last_reported":1733072814,"current_range_meters":6000,"station_id":"ce4bho92rcd13ifvqh4g","pricing_plan_id":"cebpf4jnsgd1na2vs0mg"},{"bike_id":"13f0b914-c9ac-42b5-950b-1c98890a852b","system_id":"levelo_inurba_marseille","lat":43.29618,"lon":5.37164,"is_reserved":false,"is_disabled":false,"rental_uris":{"android":"levelo://app?vid=13f0b914-c9ac-42b5-950b-1c98890a852b","ios":"levelo://app?vid=13f0b914-c9ac-42b5-950b-1c98890a852b"},"vehicle_type_id":"4","last_reported":1733072814,"current_range_meters":38800,"station_id":"ce4bgnh2rcd13ifvqc0g","pricing_plan_id":"cebpf4jnsgd1na2vs0mg"},{"bike_id":"6aa662e9-a3fe-478a-81d3-3aaf5a7ded6d","system_id":"levelo_inurba_marseille","lat":43.27815,"lon":5.40725,"is_reserved":false,"is_disabled":false,"rental_uris":{"android":"levelo://app?vid=6aa662e9-a3fe-478a-81d3-3aaf5a7ded6d","ios":"levelo://app?vid=6aa662e9-a3fe-478a-81d3-3aaf5a7ded6d"},"vehicle_type_id":"4","last_reported":1733072814,"current_range_meters":27200,"station_id":"ce4bhnh2rcd13ifvqgtg","pricing_plan_id":"cebpf4jnsgd1na2vs0mg"},{"bike_id":"5355a35f-a85f-4521-8c16-2b31268a6094","system_id":"levelo_inurba_marseille","lat":43.24468,"lon":5.37782,"is_reserved":false,"is_disabled":false,"rental_uris":{"android":"levelo://app?vid=5355a35f-a85f-4521-8c16-2b31268a6094","ios":"levelo://app?vid=5355a35f-a85f-4521-8c16-2b31268a6094"},"vehicle_type_id":"4","last_reported":1733072814,"current_range_meters":11600,"station_id":"ce4bhi12rcd13ifvqfp0","pricing_plan_id":"cebpf4jnsgd1na2vs0mg"},{"bike_id":"2a0bc779-8d8e-470a-af4f-1db38e2e00d9","system_id":"levelo_inurba_marseille","lat":43.27207,"lon":5.3918,"is_reserved":false,"is_disabled":false,"rental_uris":{"android":"levelo://app?vid=2a0bc779-8d8e-470a-af4f-1db38e2e00d9","ios":"levelo://app?vid=2a0bc779-8d8e-470a-af4f-1db38e2e00d9"},"vehicle_type_id":"4","last_reported":1733072814,"current_range_meters":38800,"station_id":"ce4bhhp2rcd13ifvqfm0","pricing_plan_id":"cebpf4jnsgd1na2vs0mg"},{"bike_id":"a842e1ca-4047-4493-b4bb-2dd792a00080","system_id":"levelo_inurba_marseille","lat":43.28855,"lon":5.35846,"is_reserved":false,"is_disabled":false,"rental_uris":{"android":"levelo://app?vid=a842e1ca-4047-4493-b4bb-2dd792a00080","ios":"levelo://app?vid=a842e1ca-4047-4493-b4bb-2dd792a00080"},"vehicle_type_id":"4","last_reported":1733072814,"current_range_meters":38800,"station_id":"ce4bhb12rcd13ifvqem0","pricing_plan_id":"cebpf4jnsgd1na2vs0mg"},{"bike_id":"426e0eab-15da-4f7e-98cd-95d550b9787f","system_id":"levelo_inurba_marseille","lat":43.30553,"lon":5.36703,"is_reserved":false,"is_disabled":false,"rental_uris":{"android":"levelo://app?vid=426e0eab-15da-4f7e-98cd-95d550b9787f","ios":"levelo://app?vid=426e0eab-15da-4f7e-98cd-95d550b9787f"},"vehicle_type_id":"4","last_reported":1733072814,"current_range_meters":24400,"station_id":"ce4bgrp2rcd13ifvqc9g","pricing_plan_id":"cebpf4jnsgd1na2vs0mg"},{"bike_id":"e2b3a68c-d082-464e-b0fc-af644eeafa09","system_id":"levelo_inurba_marseille","lat":43.28166,"lon":5.42373,"is_reserved":false,"is_disabled":false,"rental_uris":{"android":"levelo://app?vid=e2b3a68c-d082-464e-b0fc-af644eeafa09","ios":"levelo://app?vid=e2b3a68c-d082-464e-b0fc-af644eeafa09"},"vehicle_type_id":"4","last_reported":1733072814,"current_range_meters":3200,"station_id":"ce4bho12rcd13ifvqh1g","pricing_plan_id":"cebpf4jnsgd1na2vs0mg"},{"bike_id":"c54c0da2-3b9c-460f-bd0a-619cb288f111","system_id":"levelo_inurba_marseille","lat":43.29715,"lon":5.37703,"is_reserved":false,"is_disabled":false,"rental_uris":{"android":"levelo://app?vid=c54c0da2-3b9c-460f-bd0a-619cb288f111","ios":"levelo://app?vid=c54c0da2-3b9c-460f-bd0a-619cb288f111"},"vehicle_type_id":"4","last_reported":1733072814,"current_range_meters":17200,"station_id":"ce4bgkh2rcd13ifvqbl0","pricing_plan_id":"cebpf4jnsgd1na2vs0mg"},{"bike_id":"c41c80aa-ebc2-464a-a5fd-b932967f12d5","system_id":"levelo_inurba_marseille","lat":43.29263,"lon":5.38443,"is_reserved":false,"is_disabled":false,"rental_uris":{"android":"levelo://app?vid=c41c80aa-ebc2-464a-a5fd-b932967f12d5","ios":"levelo://app?vid=c41c80aa-ebc2-464a-a5fd-b932967f12d5"},"vehicle_type_id":"4","last_reported":1733072814,"current_range_meters":17600,"station_id":"ce4bh692rcd13ifvqea0","pricing_plan_id":"cebpf4jnsgd1na2vs0mg"},{"bike_id":"c828f31a-0c94-4a20-ac1f-2408855595e0","system_id":"levelo_inurba_marseille","lat":43.31279,"lon":5.40168,"is_reserved":false,"is_disabled":false,"rental_uris":{"android":"levelo://app?vid=c828f31a-0c94-4a20-ac1f-2408855595e0","ios":"levelo://app?vid=c828f31a-0c94-4a20-ac1f-2408855595e0"},"vehicle_type_id":"4","last_reported":1733072814,"current_range_meters":38800,"station_id":"ce4bh092rcd13ifvqd30","pricing_plan_id":"cebpf4jnsgd1na2vs0mg"},{"bike_id":"af12a5f9-720e-4019-987d-3779fe2b91a2","system_id":"levelo_inurba_marseille","lat":43.3083,"lon":5.37395,"is_reserved":false,"is_disabled":true,"rental_uris":{"android":"levelo://app?vid=af12a5f9-720e-4019-987d-3779fe2b91a2","ios":"levelo://app?vid=af12a5f9-720e-4019-987d-3779fe2b91a2"},"vehicle_type_id":"4","last_reported":1733072814,"current_range_meters":0,"station_id":"","pricing_plan_id":"cebpf4jnsgd1na2vs0mg"},{"bike_id":"93605057-a509-44d9-bf09-ed21f25dffea","system_id":"levelo_inurba_marseille","lat":43.28437,"lon":5.39183,"is_reserved":false,"is_disabled":false,"rental_uris":{"android":"levelo://app?vid=93605057-a509-44d9-bf09-ed21f25dffea","ios":"levelo://app?vid=93605057-a509-44d9-bf09-ed21f25dffea"},"vehicle_type_id":"4","last_reported":1733072814,"current_range_meters":26800,"station_id":"ce4bhoh2rcd13ifvqh5g","pricing_plan_id":"cebpf4jnsgd1na2vs0mg"},{"bike_id":"b190b8f2-aa96-4cbf-8654-8be8cebaab3c","system_id":"levelo_inurba_marseille","lat":43.31223,"lon":5.36848,"is_reserved":false,"is_disabled":false,"rental_uris":{"android":"levelo://app?vid=b190b8f2-aa96-4cbf-8654-8be8cebaab3c","ios":"levelo://app?vid=b190b8f2-aa96-4cbf-8654-8be8cebaab3c"},"vehicle_type_id":"4","last_reported":1733072814,"current_range_meters":30800,"station_id":"ce4bgl92rcd13ifvqbq0","pricing_plan_id":"cebpf4jnsgd1na2vs0mg"},{"bike_id":"22f49356-60a7-45e3-90bd-7ed007b266cc","system_id":"levelo_inurba_marseille","lat":43.26946,"lon":5.40258,"is_reserved":false,"is_disabled":false,"rental_uris":{"android":"levelo://app?vid=22f49356-60a7-45e3-90bd-7ed007b266cc","ios":"levelo://app?vid=22f49356-60a7-45e3-90bd-7ed007b266cc"},"vehicle_type_id":"4","last_reported":1733072814,"current_range_meters":38800,"station_id":"cjm6bp8fraef2m0cb0m0","pricing_plan_id":"cebpf4jnsgd1na2vs0mg"},{"bike_id":"d15814a2-573f-4c78-8275-4faa7c761a8d","system_id":"levelo_inurba_marseille","lat":43.28732,"lon":5.36093,"is_reserved":false,"is_disabled":false,"rental_uris":{"android":"levelo://app?vid=d15814a2-573f-4c78-8275-4faa7c761a8d","ios":"levelo://app?vid=d15814a2-573f-4c78-8275-4faa7c761a8d"},"vehicle_type_id":"4","last_reported":1733072814,"current_range_meters":38800,"station_id":"cki0cbj6b192h4jlfktg","pricing_plan_id":"cebpf4jnsgd1na2vs0mg"},{"bike_id":"e8aaf989-f7c7-4f92-9039-2cedc59abe88","system_id":"levelo_inurba_marseille","lat":43.25388,"lon":5.41855,"is_reserved":false,"is_disabled":false,"rental_uris":{"android":"levelo://app?vid=e8aaf989-f7c7-4f92-9039-2cedc59abe88","ios":"levelo://app?vid=e8aaf989-f7c7-4f92-9039-2cedc59abe88"},"vehicle_type_id":"4","last_reported":1733072814,"current_range_meters":28000,"station_id":"","pricing_plan_id":"cebpf4jnsgd1na2vs0mg"},{"bike_id":"497ae7da-c038-4534-86ae-b8200e9c03e1","system_id":"levelo_inurba_marseille","lat":43.30087,"lon":5.39093,"is_reserved":false,"is_disabled":true,"rental_uris":{"android":"levelo://app?vid=497ae7da-c038-4534-86ae-b8200e9c03e1","ios":"levelo://app?vid=497ae7da-c038-4534-86ae-b8200e9c03e1"},"vehicle_type_id":"4","last_reported":1733072814,"current_range_meters":800,"station_id":"ce4bh192rcd13ifvqdb0","pricing_plan_id":"cebpf4jnsgd1na2vs0mg"},{"bike_id":"4a2be555-d056-454c-bed3-fe781ba86f8e","system_id":"levelo_inurba_marseille","lat":43.25886,"lon":5.39954,"is_reserved":false,"is_disabled":true,"rental_uris":{"android":"levelo://app?vid=4a2be555-d056-454c-bed3-fe781ba86f8e","ios":"levelo://app?vid=4a2be555-d056-454c-bed3-fe781ba86f8e"},"vehicle_type_id":"4","last_reported":1733072814,"current_range_meters":0,"station_id":"","pricing_plan_id":"cebpf4jnsgd1na2vs0mg"},{"bike_id":"769e9b16-a41f-4b7a-b9c4-316f2f79ccbe","system_id":"levelo_inurba_marseille","lat":43.29722,"lon":5.37695,"is_reserved":false,"is_disabled":false,"rental_uris":{"android":"levelo://app?vid=769e9b16-a41f-4b7a-b9c4-316f2f79ccbe","ios":"levelo://app?vid=769e9b16-a41f-4b7a-b9c4-316f2f79ccbe"},"vehicle_type_id":"4","last_reported":1733072814,"current_range_meters":36400,"station_id":"ce4bgkh2rcd13ifvqbl0","pricing_plan_id":"cebpf4jnsgd1na2vs0mg"},{"bike_id":"0c34563b-a10e-4c7d-b18f-6ddc3b869174","system_id":"levelo_inurba_marseille","lat":43.29982,"lon":5.385313,"is_reserved":false,"is_disabled":false,"rental_uris":{"android":"levelo://app?vid=0c34563b-a10e-4c7d-b18f-6ddc3b869174","ios":"levelo://app?vid=0c34563b-a10e-4c7d-b18f-6ddc3b869174"},"vehicle_type_id":"4","last_reported":1733072814,"current_range_meters":37600,"station_id":"ce4bgj92rcd13ifvqbd0","pricing_plan_id":"cebpf4jnsgd1na2vs0mg"},{"bike_id":"cb680d94-5b19-4595-97b6-8746f8cacacf","system_id":"levelo_inurba_marseille","lat":43.31231,"lon":5.36839,"is_reserved":false,"is_disabled":false,"rental_uris":{"android":"levelo://app?vid=cb680d94-5b19-4595-97b6-8746f8cacacf","ios":"levelo://app?vid=cb680d94-5b19-4595-97b6-8746f8cacacf"},"vehicle_type_id":"4","last_reported":1733072814,"current_range_meters":39200,"station_id":"ce4bgl92rcd13ifvqbq0","pricing_plan_id":"cebpf4jnsgd1na2vs0mg"},{"bike_id":"ebd846cf-11c7-4afd-80de-65839d479ef8","system_id":"levelo_inurba_marseille","lat":43.28479,"lon":5.38423,"is_reserved":false,"is_disabled":false,"rental_uris":{"android":"levelo://app?vid=ebd846cf-11c7-4afd-80de-65839d479ef8","ios":"levelo://app?vid=ebd846cf-11c7-4afd-80de-65839d479ef8"},"vehicle_type_id":"4","last_reported":1733072814,"current_range_meters":34800,"station_id":"ce4bh512rcd13ifvqe3g","pricing_plan_id":"cebpf4jnsgd1na2vs0mg"},{"bike_id":"b29b29e7-56fe-4da5-9be5-3e237f331a61","system_id":"levelo_inurba_marseille","lat":43.25726,"lon":5.41107,"is_reserved":false,"is_disabled":false,"rental_uris":{"android":"levelo://app?vid=b29b29e7-56fe-4da5-9be5-3e237f331a61","ios":"levelo://app?vid=b29b29e7-56fe-4da5-9be5-3e237f331a61"},"vehicle_type_id":"4","last_reported":1733072814,"current_range_meters":8800,"station_id":"ce4bhkp2rcd13ifvqgd0","pricing_plan_id":"cebpf4jnsgd1na2vs0mg"},{"bike_id":"41329919-d8a6-4529-9c36-e6723e50ee60","system_id":"levelo_inurba_marseille","lat":43.30307,"lon":5.39194,"is_reserved":false,"is_disabled":true,"rental_uris":{"android":"levelo://app?vid=41329919-d8a6-4529-9c36-e6723e50ee60","ios":"levelo://app?vid=41329919-d8a6-4529-9c36-e6723e50ee60"},"vehicle_type_id":"4","last_reported":1733072814,"current_range_meters":29600,"station_id":"ce4bgkh2rcd13ifvqbk0","pricing_plan_id":"cebpf4jnsgd1na2vs0mg"},{"bike_id":"33fd44a0-b7c3-49f6-be66-d93726644b6e","system_id":"levelo_inurba_marseille","lat":43.27319,"lon":5.39086,"is_reserved":false,"is_disabled":false,"rental_uris":{"android":"levelo://app?vid=33fd44a0-b7c3-49f6-be66-d93726644b6e","ios":"levelo://app?vid=33fd44a0-b7c3-49f6-be66-d93726644b6e"},"vehicle_type_id":"4","last_reported":1733072814,"current_range_meters":16400,"station_id":"ce4bhgp2rcd13ifvqfe0","pricing_plan_id":"cebpf4jnsgd1na2vs0mg"},{"bike_id":"000b518d-442b-4752-8b9a-e2fc3654d286","system_id":"levelo_inurba_marseille","lat":43.29449,"lon":5.39757,"is_reserved":false,"is_disabled":true,"rental_uris":{"android":"levelo://app?vid=000b518d-442b-4752-8b9a-e2fc3654d286","ios":"levelo://app?vid=000b518d-442b-4752-8b9a-e2fc3654d286"},"vehicle_type_id":"4","last_reported":1733072814,"current_range_meters":16000,"station_id":"ce4bh3h2rcd13ifvqdo0","pricing_plan_id":"cebpf4jnsgd1na2vs0mg"},{"bike_id":"45acdc18-8767-4741-89d0-2da1afb7a9e7","system_id":"levelo_inurba_marseille","lat":43.2903,"lon":5.38634,"is_reserved":false,"is_disabled":false,"rental_uris":{"android":"levelo://app?vid=45acdc18-8767-4741-89d0-2da1afb7a9e7","ios":"levelo://app?vid=45acdc18-8767-4741-89d0-2da1afb7a9e7"},"vehicle_type_id":"4","last_reported":1733072814,"current_range_meters":31200,"station_id":"ce4bh4p2rcd13ifvqe0g","pricing_plan_id":"cebpf4jnsgd1na2vs0mg"},{"bike_id":"e39d22a4-daed-483a-acbb-550d4592cfe0","system_id":"levelo_inurba_marseille","lat":43.3005,"lon":5.38838,"is_reserved":false,"is_disabled":true,"rental_uris":{"android":"levelo://app?vid=e39d22a4-daed-483a-acbb-550d4592cfe0","ios":"levelo://app?vid=e39d22a4-daed-483a-acbb-550d4592cfe0"},"vehicle_type_id":"4","last_reported":1733072814,"current_range_meters":0,"station_id":"","pricing_plan_id":"cebpf4jnsgd1na2vs0mg"},{"bike_id":"8e49e3bc-0aee-49fb-83c0-0c1cbdbe8935","system_id":"levelo_inurba_marseille","lat":43.27211,"lon":5.39175,"is_reserved":false,"is_disabled":false,"rental_uris":{"android":"levelo://app?vid=8e49e3bc-0aee-49fb-83c0-0c1cbdbe8935","ios":"levelo://app?vid=8e49e3bc-0aee-49fb-83c0-0c1cbdbe8935"},"vehicle_type_id":"4","last_reported":1733072814,"current_range_meters":24000,"station_id":"ce4bhhp2rcd13ifvqfm0","pricing_plan_id":"cebpf4jnsgd1na2vs0mg"},{"bike_id":"f9c8b933-6f3c-415b-a23a-3b43c2f5668d","system_id":"levelo_inurba_marseille","lat":43.23051,"lon":5.35509,"is_reserved":false,"is_disabled":true,"rental_uris":{"android":"levelo://app?vid=f9c8b933-6f3c-415b-a23a-3b43c2f5668d","ios":"levelo://app?vid=f9c8b933-6f3c-415b-a23a-3b43c2f5668d"},"vehicle_type_id":"4","last_reported":1733072814,"current_range_meters":30000,"station_id":"cpo3342slgdg3j2ifvpg","pricing_plan_id":"cebpf4jnsgd1na2vs0mg"},{"bike_id":"25263bc5-04e2-41c8-8631-077f2b4e5e11","system_id":"levelo_inurba_marseille","lat":43.293368,"lon":5.3718,"is_reserved":false,"is_disabled":false,"rental_uris":{"android":"levelo://app?vid=25263bc5-04e2-41c8-8631-077f2b4e5e11","ios":"levelo://app?vid=25263bc5-04e2-41c8-8631-077f2b4e5e11"},"vehicle_type_id":"4","last_reported":1733072814,"current_range_meters":27600,"station_id":"ce4bgh92rcd13ifvqb40","pricing_plan_id":"cebpf4jnsgd1na2vs0mg"},{"bike_id":"4d66dd85-c7f6-4b2b-bfce-f9cf60033b78","system_id":"levelo_inurba_marseille","lat":43.31331,"lon":5.39691,"is_reserved":false,"is_disabled":false,"rental_uris":{"android":"levelo://app?vid=4d66dd85-c7f6-4b2b-bfce-f9cf60033b78","ios":"levelo://app?vid=4d66dd85-c7f6-4b2b-bfce-f9cf60033b78"},"vehicle_type_id":"4","last_reported":1733072814,"current_range_meters":18000,"station_id":"ce4bgvp2rcd13ifvqcu0","pricing_plan_id":"cebpf4jnsgd1na2vs0mg"},{"bike_id":"502d3029-d85f-4912-9512-bf839e539c67","system_id":"levelo_inurba_marseille","lat":43.29529,"lon":5.38545,"is_reserved":false,"is_disabled":false,"rental_uris":{"android":"levelo://app?vid=502d3029-d85f-4912-9512-bf839e539c67","ios":"levelo://app?vid=502d3029-d85f-4912-9512-bf839e539c67"},"vehicle_type_id":"4","last_reported":1733072814,"current_range_meters":35600,"station_id":"ce4bgih2rcd13ifvqba0","pricing_plan_id":"cebpf4jnsgd1na2vs0mg"},{"bike_id":"06e6470a-e7c6-43e1-8faf-2131a4d6a529","system_id":"levelo_inurba_marseille","lat":43.23185,"lon":5.39982,"is_reserved":false,"is_disabled":false,"rental_uris":{"android":"levelo://app?vid=06e6470a-e7c6-43e1-8faf-2131a4d6a529","ios":"levelo://app?vid=06e6470a-e7c6-43e1-8faf-2131a4d6a529"},"vehicle_type_id":"4","last_reported":1733072814,"current_range_meters":38800,"station_id":"ce4bhn12rcd13ifvqgqg","pricing_plan_id":"cebpf4jnsgd1na2vs0mg"},{"bike_id":"3f59b417-afad-4b62-9f61-287fb5ce9cbf","system_id":"levelo_inurba_marseille","lat":43.31074,"lon":5.38356,"is_reserved":false,"is_disabled":true,"rental_uris":{"android":"levelo://app?vid=3f59b417-afad-4b62-9f61-287fb5ce9cbf","ios":"levelo://app?vid=3f59b417-afad-4b62-9f61-287fb5ce9cbf"},"vehicle_type_id":"4","last_reported":1733072814,"current_range_meters":0,"station_id":"ce4bgv92rcd13ifvqcr0","pricing_plan_id":"cebpf4jnsgd1na2vs0mg"},{"bike_id":"0f7f79a0-c59e-4b71-83f2-b12c1bc94c9e","system_id":"levelo_inurba_marseille","lat":43.27973,"lon":5.38745,"is_reserved":false,"is_disabled":true,"rental_uris":{"android":"levelo://app?vid=0f7f79a0-c59e-4b71-83f2-b12c1bc94c9e","ios":"levelo://app?vid=0f7f79a0-c59e-4b71-83f2-b12c1bc94c9e"},"vehicle_type_id":"4","last_reported":1733072814,"current_range_meters":6800,"station_id":"ce4bhg12rcd13ifvqf80","pricing_plan_id":"cebpf4jnsgd1na2vs0mg"},{"bike_id":"b535dfd0-ec01-4a13-996f-71245b6113cc","system_id":"levelo_inurba_marseille","lat":43.27976,"lon":5.41231,"is_reserved":false,"is_disabled":true,"rental_uris":{"android":"levelo://app?vid=b535dfd0-ec01-4a13-996f-71245b6113cc","ios":"levelo://app?vid=b535dfd0-ec01-4a13-996f-71245b6113cc"},"vehicle_type_id":"4","last_reported":1733072814,"current_range_meters":0,"station_id":"","pricing_plan_id":"cebpf4jnsgd1na2vs0mg"},{"bike_id":"11d5604e-29c4-4f54-96ae-67f1e4e1420d","system_id":"levelo_inurba_marseille","lat":43.29569,"lon":5.37512,"is_reserved":false,"is_disabled":true,"rental_uris":{"android":"levelo://app?vid=11d5604e-29c4-4f54-96ae-67f1e4e1420d","ios":"levelo://app?vid=11d5604e-29c4-4f54-96ae-67f1e4e1420d"},"vehicle_type_id":"4","last_reported":1733072814,"current_range_meters":0,"station_id":"ce4bgh92rcd13ifvqb50","pricing_plan_id":"cebpf4jnsgd1na2vs0mg"},{"bike_id":"8b926e0b-5189-4776-8518-7519fc084d32","system_id":"levelo_inurba_marseille","lat":43.25113,"lon":5.40322,"is_reserved":false,"is_disabled":true,"rental_uris":{"android":"levelo://app?vid=8b926e0b-5189-4776-8518-7519fc084d32","ios":"levelo://app?vid=8b926e0b-5189-4776-8518-7519fc084d32"},"vehicle_type_id":"4","last_reported":1733072814,"current_range_meters":0,"station_id":"ce4bhlh2rcd13ifvqgig","pricing_plan_id":"cebpf4jnsgd1na2vs0mg"},{"bike_id":"882eebb9-e0f5-4867-b687-1d440da3970c","system_id":"levelo_inurba_marseille","lat":43.27812,"lon":5.40716,"is_reserved":false,"is_disabled":false,"rental_uris":{"android":"levelo://app?vid=882eebb9-e0f5-4867-b687-1d440da3970c","ios":"levelo://app?vid=882eebb9-e0f5-4867-b687-1d440da3970c"},"vehicle_type_id":"4","last_reported":1733072814,"current_range_meters":9200,"station_id":"ce4bhnh2rcd13ifvqgtg","pricing_plan_id":"cebpf4jnsgd1na2vs0mg"},{"bike_id":"b642d79a-bd2c-495a-acdd-099583f67bf5","system_id":"levelo_inurba_marseille","lat":43.32293,"lon":5.38261,"is_reserved":false,"is_disabled":false,"rental_uris":{"android":"levelo://app?vid=b642d79a-bd2c-495a-acdd-099583f67bf5","ios":"levelo://app?vid=b642d79a-bd2c-495a-acdd-099583f67bf5"},"vehicle_type_id":"4","last_reported":1733072814,"current_range_meters":25600,"station_id":"ce4bhr12rcd13ifvqhqg","pricing_plan_id":"cebpf4jnsgd1na2vs0mg"},{"bike_id":"612ff584-c95b-4271-9dfd-f283f925bc8f","system_id":"levelo_inurba_marseille","lat":43.26682,"lon":5.38272,"is_reserved":false,"is_disabled":true,"rental_uris":{"android":"levelo://app?vid=612ff584-c95b-4271-9dfd-f283f925bc8f","ios":"levelo://app?vid=612ff584-c95b-4271-9dfd-f283f925bc8f"},"vehicle_type_id":"4","last_reported":1733072814,"current_range_meters":0,"station_id":"ce4bhg92rcd13ifvqf90","pricing_plan_id":"cebpf4jnsgd1na2vs0mg"},{"bike_id":"2ebf3b3c-662f-41a2-b8dc-68990b8b5b78","system_id":"levelo_inurba_marseille","lat":43.27087,"lon":5.42272,"is_reserved":false,"is_disabled":false,"rental_uris":{"android":"levelo://app?vid=2ebf3b3c-662f-41a2-b8dc-68990b8b5b78","ios":"levelo://app?vid=2ebf3b3c-662f-41a2-b8dc-68990b8b5b78"},"vehicle_type_id":"4","last_reported":1733072814,"current_range_meters":9200,"station_id":"ce4bhk92rcd13ifvqgb0","pricing_plan_id":"cebpf4jnsgd1na2vs0mg"},{"bike_id":"5b9d6f48-f6d1-42ec-91ce-2705b20346f7","system_id":"levelo_inurba_marseille","lat":43.27615,"lon":5.36122,"is_reserved":false,"is_disabled":true,"rental_uris":{"android":"levelo://app?vid=5b9d6f48-f6d1-42ec-91ce-2705b20346f7","ios":"levelo://app?vid=5b9d6f48-f6d1-42ec-91ce-2705b20346f7"},"vehicle_type_id":"4","last_reported":1733072814,"current_range_meters":38800,"station_id":"ce4bgj92rcd13ifvqbe0","pricing_plan_id":"cebpf4jnsgd1na2vs0mg"},{"bike_id":"b0c3bea6-4bea-4f04-a02c-43072b043247","system_id":"levelo_inurba_marseille","lat":43.24081,"lon":5.37761,"is_reserved":false,"is_disabled":false,"rental_uris":{"android":"levelo://app?vid=b0c3bea6-4bea-4f04-a02c-43072b043247","ios":"levelo://app?vid=b0c3bea6-4bea-4f04-a02c-43072b043247"},"vehicle_type_id":"4","last_reported":1733072814,"current_range_meters":10000,"station_id":"ce4bhnp2rcd13ifvqgvg","pricing_plan_id":"cebpf4jnsgd1na2vs0mg"},{"bike_id":"0174841e-8011-4a7b-bd18-480101bee765","system_id":"levelo_inurba_marseille","lat":43.23962,"lon":5.36621,"is_reserved":false,"is_disabled":true,"rental_uris":{"android":"levelo://app?vid=0174841e-8011-4a7b-bd18-480101bee765","ios":"levelo://app?vid=0174841e-8011-4a7b-bd18-480101bee765"},"vehicle_type_id":"4","last_reported":1733072814,"current_range_meters":0,"station_id":"ce4bhi12rcd13ifvqfp0","pricing_plan_id":"cebpf4jnsgd1na2vs0mg"},{"bike_id":"55aa419e-7ca9-4f29-976a-fefd7a814401","system_id":"levelo_inurba_marseille","lat":43.30137,"lon":5.38784,"is_reserved":false,"is_disabled":true,"rental_uris":{"android":"levelo://app?vid=55aa419e-7ca9-4f29-976a-fefd7a814401","ios":"levelo://app?vid=55aa419e-7ca9-4f29-976a-fefd7a814401"},"vehicle_type_id":"4","last_reported":1733072814,"current_range_meters":16800,"station_id":"ce4bghh2rcd13ifvqb60","pricing_plan_id":"cebpf4jnsgd1na2vs0mg"},{"bike_id":"e858d099-08d9-4397-91c5-39265e9c0a0d","system_id":"levelo_inurba_marseille","lat":43.28458,"lon":5.35891,"is_reserved":false,"is_disabled":false,"rental_uris":{"android":"levelo://app?vid=e858d099-08d9-4397-91c5-39265e9c0a0d","ios":"levelo://app?vid=e858d099-08d9-4397-91c5-39265e9c0a0d"},"vehicle_type_id":"4","last_reported":1733072814,"current_range_meters":38800,"station_id":"ce4bhah2rcd13ifvqei0","pricing_plan_id":"cebpf4jnsgd1na2vs0mg"},{"bike_id":"0b5ae2a3-712e-414a-856c-da6d61d8a475","system_id":"levelo_inurba_marseille","lat":43.29162,"lon":5.37161,"is_reserved":false,"is_disabled":false,"rental_uris":{"android":"levelo://app?vid=0b5ae2a3-712e-414a-856c-da6d61d8a475","ios":"levelo://app?vid=0b5ae2a3-712e-414a-856c-da6d61d8a475"},"vehicle_type_id":"4","last_reported":1733072814,"current_range_meters":36800,"station_id":"ce4bha92rcd13ifvqeh0","pricing_plan_id":"cebpf4jnsgd1na2vs0mg"},{"bike_id":"a233b25b-869e-422b-bf5e-63d3d8ff686f","system_id":"levelo_inurba_marseille","lat":43.30959,"lon":5.40154,"is_reserved":false,"is_disabled":true,"rental_uris":{"android":"levelo://app?vid=a233b25b-869e-422b-bf5e-63d3d8ff686f","ios":"levelo://app?vid=a233b25b-869e-422b-bf5e-63d3d8ff686f"},"vehicle_type_id":"4","last_reported":1733072814,"current_range_meters":39200,"station_id":"ce4bgvp2rcd13ifvqct0","pricing_plan_id":"cebpf4jnsgd1na2vs0mg"},{"bike_id":"5fb181dc-bea9-4f91-8a60-fd73b1bbbccd","system_id":"levelo_inurba_marseille","lat":43.31884,"lon":5.40738,"is_reserved":false,"is_disabled":false,"rental_uris":{"android":"levelo://app?vid=5fb181dc-bea9-4f91-8a60-fd73b1bbbccd","ios":"levelo://app?vid=5fb181dc-bea9-4f91-8a60-fd73b1bbbccd"},"vehicle_type_id":"4","last_reported":1733072814,"current_range_meters":10800,"station_id":"ce4bhq12rcd13ifvqhig","pricing_plan_id":"cebpf4jnsgd1na2vs0mg"},{"bike_id":"d3d123b9-bf77-4e17-859d-89236002e59e","system_id":"levelo_inurba_marseille","lat":43.32358,"lon":5.36749,"is_reserved":false,"is_disabled":false,"rental_uris":{"android":"levelo://app?vid=d3d123b9-bf77-4e17-859d-89236002e59e","ios":"levelo://app?vid=d3d123b9-bf77-4e17-859d-89236002e59e"},"vehicle_type_id":"4","last_reported":1733072814,"current_range_meters":38800,"station_id":"ce4bhsh2rcd13ifvqi2g","pricing_plan_id":"cebpf4jnsgd1na2vs0mg"},{"bike_id":"dd27f69d-7a25-48b9-a4e1-31ad4c829bdc","system_id":"levelo_inurba_marseille","lat":43.2921,"lon":5.36072,"is_reserved":false,"is_disabled":false,"rental_uris":{"android":"levelo://app?vid=dd27f69d-7a25-48b9-a4e1-31ad4c829bdc","ios":"levelo://app?vid=dd27f69d-7a25-48b9-a4e1-31ad4c829bdc"},"vehicle_type_id":"4","last_reported":1733072814,"current_range_meters":36800,"station_id":"ce4bhbh2rcd13ifvqeqg","pricing_plan_id":"cebpf4jnsgd1na2vs0mg"},{"bike_id":"11c1c8ce-2268-4dc7-b546-6b258d71835d","system_id":"levelo_inurba_marseille","lat":43.22934,"lon":5.35374,"is_reserved":false,"is_disabled":false,"rental_uris":{"android":"levelo://app?vid=11c1c8ce-2268-4dc7-b546-6b258d71835d","ios":"levelo://app?vid=11c1c8ce-2268-4dc7-b546-6b258d71835d"},"vehicle_type_id":"4","last_reported":1733072814,"current_range_meters":38800,"station_id":"cpo3532slgdg3j2ikp40","pricing_plan_id":"cebpf4jnsgd1na2vs0mg"},{"bike_id":"25dd2a60-280f-4b55-9588-353347a1acca","system_id":"levelo_inurba_marseille","lat":43.24072,"lon":5.37767,"is_reserved":false,"is_disabled":true,"rental_uris":{"android":"levelo://app?vid=25dd2a60-280f-4b55-9588-353347a1acca","ios":"levelo://app?vid=25dd2a60-280f-4b55-9588-353347a1acca"},"vehicle_type_id":"4","last_reported":1733072814,"current_range_meters":0,"station_id":"ce4bhnp2rcd13ifvqgvg","pricing_plan_id":"cebpf4jnsgd1na2vs0mg"},{"bike_id":"40b3e0a0-aa65-4b2d-aceb-05249d7834b1","system_id":"levelo_inurba_marseille","lat":43.27913,"lon":5.39577,"is_reserved":false,"is_disabled":false,"rental_uris":{"android":"levelo://app?vid=40b3e0a0-aa65-4b2d-aceb-05249d7834b1","ios":"levelo://app?vid=40b3e0a0-aa65-4b2d-aceb-05249d7834b1"},"vehicle_type_id":"4","last_reported":1733072814,"current_range_meters":25600,"station_id":"ce4bhf92rcd13ifvqf40","pricing_plan_id":"cebpf4jnsgd1na2vs0mg"},{"bike_id":"bfa86af0-1f74-434e-abbf-921f33e599bc","system_id":"levelo_inurba_marseille","lat":43.28358,"lon":5.38125,"is_reserved":false,"is_disabled":false,"rental_uris":{"android":"levelo://app?vid=bfa86af0-1f74-434e-abbf-921f33e599bc","ios":"levelo://app?vid=bfa86af0-1f74-434e-abbf-921f33e599bc"},"vehicle_type_id":"4","last_reported":1733072814,"current_range_meters":38000,"station_id":"ce4bh412rcd13ifvqdr0","pricing_plan_id":"cebpf4jnsgd1na2vs0mg"},{"bike_id":"d495c36c-5aaa-4fbd-8259-79d1977a4171","system_id":"levelo_inurba_marseille","lat":43.29082,"lon":5.37166,"is_reserved":false,"is_disabled":false,"rental_uris":{"android":"levelo://app?vid=d495c36c-5aaa-4fbd-8259-79d1977a4171","ios":"levelo://app?vid=d495c36c-5aaa-4fbd-8259-79d1977a4171"},"vehicle_type_id":"4","last_reported":1733072814,"current_range_meters":36800,"station_id":"ce4bh5p2rcd13ifvqe4g","pricing_plan_id":"cebpf4jnsgd1na2vs0mg"},{"bike_id":"708af79f-74d9-4e0b-a901-a782d2f9a6e5","system_id":"levelo_inurba_marseille","lat":43.29035,"lon":5.39966,"is_reserved":false,"is_disabled":false,"rental_uris":{"android":"levelo://app?vid=708af79f-74d9-4e0b-a901-a782d2f9a6e5","ios":"levelo://app?vid=708af79f-74d9-4e0b-a901-a782d2f9a6e5"},"vehicle_type_id":"4","last_reported":1733072814,"current_range_meters":19600,"station_id":"ce4bh392rcd13ifvqdm0","pricing_plan_id":"cebpf4jnsgd1na2vs0mg"},{"bike_id":"42dff1c4-6053-46d6-ab14-2b44877e8b55","system_id":"levelo_inurba_marseille","lat":43.28447,"lon":5.39179,"is_reserved":false,"is_disabled":true,"rental_uris":{"android":"levelo://app?vid=42dff1c4-6053-46d6-ab14-2b44877e8b55","ios":"levelo://app?vid=42dff1c4-6053-46d6-ab14-2b44877e8b55"},"vehicle_type_id":"4","last_reported":1733072814,"current_range_meters":36800,"station_id":"ce4bhoh2rcd13ifvqh5g","pricing_plan_id":"cebpf4jnsgd1na2vs0mg"},{"bike_id":"0d2f764c-d4dd-420a-a033-14eebfa4bcc3","system_id":"levelo_inurba_marseille","lat":43.29613,"lon":5.37714,"is_reserved":false,"is_disabled":false,"rental_uris":{"android":"levelo://app?vid=0d2f764c-d4dd-420a-a033-14eebfa4bcc3","ios":"levelo://app?vid=0d2f764c-d4dd-420a-a033-14eebfa4bcc3"},"vehicle_type_id":"4","last_reported":1733072814,"current_range_meters":16800,"station_id":"ce4bgi92rcd13ifvqb90","pricing_plan_id":"cebpf4jnsgd1na2vs0mg"},{"bike_id":"4741ff3c-4fec-4076-a5ff-8b2cc68fc926","system_id":"levelo_inurba_marseille","lat":43.248019,"lon":5.374531,"is_reserved":false,"is_disabled":false,"rental_uris":{"android":"levelo://app?vid=4741ff3c-4fec-4076-a5ff-8b2cc68fc926","ios":"levelo://app?vid=4741ff3c-4fec-4076-a5ff-8b2cc68fc926"},"vehicle_type_id":"4","last_reported":1733072814,"current_range_meters":38400,"station_id":"ce4bhgh2rcd13ifvqfb0","pricing_plan_id":"cebpf4jnsgd1na2vs0mg"},{"bike_id":"27d13c7a-6338-48dc-81dd-618b3e4ff60b","system_id":"levelo_inurba_marseille","lat":43.28369,"lon":5.3864,"is_reserved":false,"is_disabled":true,"rental_uris":{"android":"levelo://app?vid=27d13c7a-6338-48dc-81dd-618b3e4ff60b","ios":"levelo://app?vid=27d13c7a-6338-48dc-81dd-618b3e4ff60b"},"vehicle_type_id":"4","last_reported":1733072814,"current_range_meters":34000,"station_id":"ce4bh492rcd13ifvqdvg","pricing_plan_id":"cebpf4jnsgd1na2vs0mg"},{"bike_id":"13151158-c4ba-49c7-a920-9a61c5dd56f2","system_id":"levelo_inurba_marseille","lat":43.23959,"lon":5.36628,"is_reserved":false,"is_disabled":true,"rental_uris":{"android":"levelo://app?vid=13151158-c4ba-49c7-a920-9a61c5dd56f2","ios":"levelo://app?vid=13151158-c4ba-49c7-a920-9a61c5dd56f2"},"vehicle_type_id":"4","last_reported":1733072814,"current_range_meters":0,"station_id":"ce4bhi12rcd13ifvqfp0","pricing_plan_id":"cebpf4jnsgd1na2vs0mg"},{"bike_id":"acf4a756-d86a-4aba-99d9-8148b7db3378","system_id":"levelo_inurba_marseille","lat":43.2798,"lon":5.40041,"is_reserved":false,"is_disabled":true,"rental_uris":{"android":"levelo://app?vid=acf4a756-d86a-4aba-99d9-8148b7db3378","ios":"levelo://app?vid=acf4a756-d86a-4aba-99d9-8148b7db3378"},"vehicle_type_id":"4","last_reported":1733072814,"current_range_meters":37600,"station_id":"ce4bho92rcd13ifvqh4g","pricing_plan_id":"cebpf4jnsgd1na2vs0mg"},{"bike_id":"4018fb8f-45f3-45d0-a054-90a03257f3a3","system_id":"levelo_inurba_marseille","lat":43.28315,"lon":5.4054,"is_reserved":false,"is_disabled":false,"rental_uris":{"android":"levelo://app?vid=4018fb8f-45f3-45d0-a054-90a03257f3a3","ios":"levelo://app?vid=4018fb8f-45f3-45d0-a054-90a03257f3a3"},"vehicle_type_id":"4","last_reported":1733072814,"current_range_meters":22400,"station_id":"","pricing_plan_id":"cebpf4jnsgd1na2vs0mg"},{"bike_id":"3e90d5ea-9804-462d-86b4-08c4b6670307","system_id":"levelo_inurba_marseille","lat":43.2926,"lon":5.3844,"is_reserved":false,"is_disabled":false,"rental_uris":{"android":"levelo://app?vid=3e90d5ea-9804-462d-86b4-08c4b6670307","ios":"levelo://app?vid=3e90d5ea-9804-462d-86b4-08c4b6670307"},"vehicle_type_id":"4","last_reported":1733072814,"current_range_meters":23200,"station_id":"","pricing_plan_id":"cebpf4jnsgd1na2vs0mg"},{"bike_id":"cec385ba-4e51-4015-843e-7e3ff004b80d","system_id":"levelo_inurba_marseille","lat":43.29713,"lon":5.37686,"is_reserved":false,"is_disabled":false,"rental_uris":{"android":"levelo://app?vid=cec385ba-4e51-4015-843e-7e3ff004b80d","ios":"levelo://app?vid=cec385ba-4e51-4015-843e-7e3ff004b80d"},"vehicle_type_id":"4","last_reported":1733072814,"current_range_meters":32000,"station_id":"ce4bgkh2rcd13ifvqbl0","pricing_plan_id":"cebpf4jnsgd1na2vs0mg"},{"bike_id":"a72d9299-2ef3-4e3f-8e69-acc7098d09c2","system_id":"levelo_inurba_marseille","lat":43.33028,"lon":5.390557,"is_reserved":false,"is_disabled":true,"rental_uris":{"android":"levelo://app?vid=a72d9299-2ef3-4e3f-8e69-acc7098d09c2","ios":"levelo://app?vid=a72d9299-2ef3-4e3f-8e69-acc7098d09c2"},"vehicle_type_id":"4","last_reported":1733072814,"current_range_meters":24400,"station_id":"ce4bhr92rcd13ifvqhrg","pricing_plan_id":"cebpf4jnsgd1na2vs0mg"},{"bike_id":"c8133749-8619-41c6-9ca5-02585c2f807a","system_id":"levelo_inurba_marseille","lat":43.29715,"lon":5.392036,"is_reserved":false,"is_disabled":true,"rental_uris":{"android":"levelo://app?vid=c8133749-8619-41c6-9ca5-02585c2f807a","ios":"levelo://app?vid=c8133749-8619-41c6-9ca5-02585c2f807a"},"vehicle_type_id":"4","last_reported":1733072814,"current_range_meters":2000,"station_id":"chh1huq6cuj3fo74tm60","pricing_plan_id":"cebpf4jnsgd1na2vs0mg"},{"bike_id":"e0161261-fd33-45e3-8038-51d77778a6b0","system_id":"levelo_inurba_marseille","lat":43.30657,"lon":5.40077,"is_reserved":false,"is_disabled":true,"rental_uris":{"android":"levelo://app?vid=e0161261-fd33-45e3-8038-51d77778a6b0","ios":"levelo://app?vid=e0161261-fd33-45e3-8038-51d77778a6b0"},"vehicle_type_id":"4","last_reported":1733072814,"current_range_meters":35200,"station_id":"ce4bh112rcd13ifvqda0","pricing_plan_id":"cebpf4jnsgd1na2vs0mg"},{"bike_id":"8b8a1819-bc1c-4d52-ad5c-649458be7869","system_id":"levelo_inurba_marseille","lat":43.32296,"lon":5.38274,"is_reserved":false,"is_disabled":false,"rental_uris":{"android":"levelo://app?vid=8b8a1819-bc1c-4d52-ad5c-649458be7869","ios":"levelo://app?vid=8b8a1819-bc1c-4d52-ad5c-649458be7869"},"vehicle_type_id":"4","last_reported":1733072814,"current_range_meters":30800,"station_id":"ce4bhr12rcd13ifvqhqg","pricing_plan_id":"cebpf4jnsgd1na2vs0mg"},{"bike_id":"0925ff43-bab0-49be-8348-5535795fc1c0","system_id":"levelo_inurba_marseille","lat":43.30531,"lon":5.38423,"is_reserved":false,"is_disabled":true,"rental_uris":{"android":"levelo://app?vid=0925ff43-bab0-49be-8348-5535795fc1c0","ios":"levelo://app?vid=0925ff43-bab0-49be-8348-5535795fc1c0"},"vehicle_type_id":"4","last_reported":1733072814,"current_range_meters":10800,"station_id":"ce4bgg92rcd13ifvqb30","pricing_plan_id":"cebpf4jnsgd1na2vs0mg"},{"bike_id":"5fd470f3-da62-48ec-8bb8-3493555d1763","system_id":"levelo_inurba_marseille","lat":43.29542,"lon":5.37547,"is_reserved":false,"is_disabled":true,"rental_uris":{"android":"levelo://app?vid=5fd470f3-da62-48ec-8bb8-3493555d1763","ios":"levelo://app?vid=5fd470f3-da62-48ec-8bb8-3493555d1763"},"vehicle_type_id":"4","last_reported":1733072814,"current_range_meters":23200,"station_id":"ce4bgkp2rcd13ifvqbmg","pricing_plan_id":"cebpf4jnsgd1na2vs0mg"},{"bike_id":"df175e35-a109-455b-a549-3a0af8fc4135","system_id":"levelo_inurba_marseille","lat":43.26684,"lon":5.38277,"is_reserved":false,"is_disabled":true,"rental_uris":{"android":"levelo://app?vid=df175e35-a109-455b-a549-3a0af8fc4135","ios":"levelo://app?vid=df175e35-a109-455b-a549-3a0af8fc4135"},"vehicle_type_id":"4","last_reported":1733072814,"current_range_meters":19600,"station_id":"ce4bhg92rcd13ifvqf90","pricing_plan_id":"cebpf4jnsgd1na2vs0mg"},{"bike_id":"3cd36cdd-b8ac-4151-bacd-1ff7508ad009","system_id":"levelo_inurba_marseille","lat":43.32535,"lon":5.41451,"is_reserved":false,"is_disabled":true,"rental_uris":{"android":"levelo://app?vid=3cd36cdd-b8ac-4151-bacd-1ff7508ad009","ios":"levelo://app?vid=3cd36cdd-b8ac-4151-bacd-1ff7508ad009"},"vehicle_type_id":"4","last_reported":1733072814,"current_range_meters":36800,"station_id":"ce4bhq12rcd13ifvqhhg","pricing_plan_id":"cebpf4jnsgd1na2vs0mg"},{"bike_id":"ebaa904e-bc87-46fe-8951-7f1d176fdb4c","system_id":"levelo_inurba_marseille","lat":43.31272,"lon":5.40167,"is_reserved":false,"is_disabled":true,"rental_uris":{"android":"levelo://app?vid=ebaa904e-bc87-46fe-8951-7f1d176fdb4c","ios":"levelo://app?vid=ebaa904e-bc87-46fe-8951-7f1d176fdb4c"},"vehicle_type_id":"4","last_reported":1733072814,"current_range_meters":22400,"station_id":"ce4bh092rcd13ifvqd30","pricing_plan_id":"cebpf4jnsgd1na2vs0mg"},{"bike_id":"603d2adb-7bfc-4683-8b5b-8b52562dec4f","system_id":"levelo_inurba_marseille","lat":43.29706,"lon":5.37683,"is_reserved":false,"is_disabled":false,"rental_uris":{"android":"levelo://app?vid=603d2adb-7bfc-4683-8b5b-8b52562dec4f","ios":"levelo://app?vid=603d2adb-7bfc-4683-8b5b-8b52562dec4f"},"vehicle_type_id":"4","last_reported":1733072814,"current_range_meters":27600,"station_id":"ce4bgkh2rcd13ifvqbl0","pricing_plan_id":"cebpf4jnsgd1na2vs0mg"},{"bike_id":"741fd5f6-45ce-4e01-8300-71dcbc30da73","system_id":"levelo_inurba_marseille","lat":43.2594,"lon":5.40908,"is_reserved":false,"is_disabled":false,"rental_uris":{"android":"levelo://app?vid=741fd5f6-45ce-4e01-8300-71dcbc30da73","ios":"levelo://app?vid=741fd5f6-45ce-4e01-8300-71dcbc30da73"},"vehicle_type_id":"4","last_reported":1733072814,"current_range_meters":10800,"station_id":"ce4bhm92rcd13ifvqglg","pricing_plan_id":"cebpf4jnsgd1na2vs0mg"},{"bike_id":"1e9f7531-f02f-4a68-a033-35dfa2f6d9df","system_id":"levelo_inurba_marseille","lat":43.28489,"lon":5.38533,"is_reserved":false,"is_disabled":true,"rental_uris":{"android":"levelo://app?vid=1e9f7531-f02f-4a68-a033-35dfa2f6d9df","ios":"levelo://app?vid=1e9f7531-f02f-4a68-a033-35dfa2f6d9df"},"vehicle_type_id":"4","last_reported":1733072814,"current_range_meters":20400,"station_id":"ce4bh8p2rcd13ifvqeb0","pricing_plan_id":"cebpf4jnsgd1na2vs0mg"},{"bike_id":"b0da078f-b192-4769-9852-c430d4c57cb4","system_id":"levelo_inurba_marseille","lat":43.29034,"lon":5.38642,"is_reserved":false,"is_disabled":false,"rental_uris":{"android":"levelo://app?vid=b0da078f-b192-4769-9852-c430d4c57cb4","ios":"levelo://app?vid=b0da078f-b192-4769-9852-c430d4c57cb4"},"vehicle_type_id":"4","last_reported":1733072814,"current_range_meters":21600,"station_id":"ce4bh4p2rcd13ifvqe0g","pricing_plan_id":"cebpf4jnsgd1na2vs0mg"},{"bike_id":"95726091-2353-4f0f-b9d0-afa6f66d7aa3","system_id":"levelo_inurba_marseille","lat":43.29788,"lon":5.38094,"is_reserved":false,"is_disabled":false,"rental_uris":{"android":"levelo://app?vid=95726091-2353-4f0f-b9d0-afa6f66d7aa3","ios":"levelo://app?vid=95726091-2353-4f0f-b9d0-afa6f66d7aa3"},"vehicle_type_id":"4","last_reported":1733072814,"current_range_meters":39200,"station_id":"ce4bgip2rcd13ifvqbb0","pricing_plan_id":"cebpf4jnsgd1na2vs0mg"},{"bike_id":"e05666e3-b707-46de-a7e5-8e4163e50f7c","system_id":"levelo_inurba_marseille","lat":43.28433,"lon":5.34979,"is_reserved":false,"is_disabled":true,"rental_uris":{"android":"levelo://app?vid=e05666e3-b707-46de-a7e5-8e4163e50f7c","ios":"levelo://app?vid=e05666e3-b707-46de-a7e5-8e4163e50f7c"},"vehicle_type_id":"4","last_reported":1733072814,"current_range_meters":39200,"station_id":"ce4bhbh2rcd13ifvqepg","pricing_plan_id":"cebpf4jnsgd1na2vs0mg"},{"bike_id":"6ffe91fb-690d-42aa-8ca0-455ed27962b6","system_id":"levelo_inurba_marseille","lat":43.2695,"lon":5.38631,"is_reserved":false,"is_disabled":false,"rental_uris":{"android":"levelo://app?vid=6ffe91fb-690d-42aa-8ca0-455ed27962b6","ios":"levelo://app?vid=6ffe91fb-690d-42aa-8ca0-455ed27962b6"},"vehicle_type_id":"4","last_reported":1733072814,"current_range_meters":31200,"station_id":"ce4bhh92rcd13ifvqfh0","pricing_plan_id":"cebpf4jnsgd1na2vs0mg"},{"bike_id":"f8d592a2-1761-4fc2-ae68-7688d9a28c14","system_id":"levelo_inurba_marseille","lat":43.27955,"lon":5.38694,"is_reserved":false,"is_disabled":true,"rental_uris":{"android":"levelo://app?vid=f8d592a2-1761-4fc2-ae68-7688d9a28c14","ios":"levelo://app?vid=f8d592a2-1761-4fc2-ae68-7688d9a28c14"},"vehicle_type_id":"4","last_reported":1733072814,"current_range_meters":0,"station_id":"ce4bhg12rcd13ifvqf80","pricing_plan_id":"cebpf4jnsgd1na2vs0mg"},{"bike_id":"9b8a7255-4c32-448f-b638-47447a397b57","system_id":"levelo_inurba_marseille","lat":43.30295,"lon":5.37681,"is_reserved":false,"is_disabled":false,"rental_uris":{"android":"levelo://app?vid=9b8a7255-4c32-448f-b638-47447a397b57","ios":"levelo://app?vid=9b8a7255-4c32-448f-b638-47447a397b57"},"vehicle_type_id":"4","last_reported":1733072814,"current_range_meters":22800,"station_id":"ce4bguh2rcd13ifvqcj0","pricing_plan_id":"cebpf4jnsgd1na2vs0mg"},{"bike_id":"757c474e-dfe8-44ea-8e53-9f9dec01fd5c","system_id":"levelo_inurba_marseille","lat":43.269562,"lon":5.402477,"is_reserved":false,"is_disabled":false,"rental_uris":{"android":"levelo://app?vid=757c474e-dfe8-44ea-8e53-9f9dec01fd5c","ios":"levelo://app?vid=757c474e-dfe8-44ea-8e53-9f9dec01fd5c"},"vehicle_type_id":"4","last_reported":1733072814,"current_range_meters":28400,"station_id":"cjm6bp8fraef2m0cb0m0","pricing_plan_id":"cebpf4jnsgd1na2vs0mg"},{"bike_id":"aa868eb3-5723-480d-8f47-76ec81e31e33","system_id":"levelo_inurba_marseille","lat":43.32369,"lon":5.36727,"is_reserved":false,"is_disabled":false,"rental_uris":{"android":"levelo://app?vid=aa868eb3-5723-480d-8f47-76ec81e31e33","ios":"levelo://app?vid=aa868eb3-5723-480d-8f47-76ec81e31e33"},"vehicle_type_id":"4","last_reported":1733072814,"current_range_meters":38800,"station_id":"ce4bhsh2rcd13ifvqi2g","pricing_plan_id":"cebpf4jnsgd1na2vs0mg"},{"bike_id":"7deaf822-5f8a-47f1-8f40-f0b79365cbc1","system_id":"levelo_inurba_marseille","lat":43.27433,"lon":5.39422,"is_reserved":false,"is_disabled":false,"rental_uris":{"android":"levelo://app?vid=7deaf822-5f8a-47f1-8f40-f0b79365cbc1","ios":"levelo://app?vid=7deaf822-5f8a-47f1-8f40-f0b79365cbc1"},"vehicle_type_id":"4","last_reported":1733072814,"current_range_meters":17200,"station_id":"ce4bhdp2rcd13ifvqf20","pricing_plan_id":"cebpf4jnsgd1na2vs0mg"},{"bike_id":"e983cae6-6dc7-43ab-b019-b2537e9e2446","system_id":"levelo_inurba_marseille","lat":43.30296,"lon":5.36876,"is_reserved":false,"is_disabled":false,"rental_uris":{"android":"levelo://app?vid=e983cae6-6dc7-43ab-b019-b2537e9e2446","ios":"levelo://app?vid=e983cae6-6dc7-43ab-b019-b2537e9e2446"},"vehicle_type_id":"4","last_reported":1733072814,"current_range_meters":19200,"station_id":"ce4bgqh2rcd13ifvqc5g","pricing_plan_id":"cebpf4jnsgd1na2vs0mg"},{"bike_id":"9dd1fc98-a89e-437a-b707-6eb8b3c899e8","system_id":"levelo_inurba_marseille","lat":43.29043,"lon":5.35919,"is_reserved":false,"is_disabled":true,"rental_uris":{"android":"levelo://app?vid=9dd1fc98-a89e-437a-b707-6eb8b3c899e8","ios":"levelo://app?vid=9dd1fc98-a89e-437a-b707-6eb8b3c899e8"},"vehicle_type_id":"4","last_reported":1733072814,"current_range_meters":0,"station_id":"ce4bha92rcd13ifvqeg0","pricing_plan_id":"cebpf4jnsgd1na2vs0mg"},{"bike_id":"be565720-a799-4a32-a856-cdf89d37629b","system_id":"levelo_inurba_marseille","lat":43.27374,"lon":5.3625,"is_reserved":false,"is_disabled":false,"rental_uris":{"android":"levelo://app?vid=be565720-a799-4a32-a856-cdf89d37629b","ios":"levelo://app?vid=be565720-a799-4a32-a856-cdf89d37629b"},"vehicle_type_id":"4","last_reported":1733072814,"current_range_meters":24800,"station_id":"ce4bhbh2rcd13ifvqeo0","pricing_plan_id":"cebpf4jnsgd1na2vs0mg"},{"bike_id":"a490911f-73d7-40b1-8e23-9162397e2d1c","system_id":"levelo_inurba_marseille","lat":43.29578,"lon":5.37501,"is_reserved":false,"is_disabled":true,"rental_uris":{"android":"levelo://app?vid=a490911f-73d7-40b1-8e23-9162397e2d1c","ios":"levelo://app?vid=a490911f-73d7-40b1-8e23-9162397e2d1c"},"vehicle_type_id":"4","last_reported":1733072814,"current_range_meters":36800,"station_id":"ce4bgh92rcd13ifvqb50","pricing_plan_id":"cebpf4jnsgd1na2vs0mg"},{"bike_id":"7d04781e-4be2-4c70-ab24-008360d413fd","system_id":"levelo_inurba_marseille","lat":43.27939,"lon":5.41054,"is_reserved":false,"is_disabled":false,"rental_uris":{"android":"levelo://app?vid=7d04781e-4be2-4c70-ab24-008360d413fd","ios":"levelo://app?vid=7d04781e-4be2-4c70-ab24-008360d413fd"},"vehicle_type_id":"4","last_reported":1733072814,"current_range_meters":37600,"station_id":"ce4bhnp2rcd13ifvqh0g","pricing_plan_id":"cebpf4jnsgd1na2vs0mg"},{"bike_id":"bea43fe6-0ab8-4ff0-afcb-1dc4fc192577","system_id":"levelo_inurba_marseille","lat":43.25102,"lon":5.4033,"is_reserved":false,"is_disabled":true,"rental_uris":{"android":"levelo://app?vid=bea43fe6-0ab8-4ff0-afcb-1dc4fc192577","ios":"levelo://app?vid=bea43fe6-0ab8-4ff0-afcb-1dc4fc192577"},"vehicle_type_id":"4","last_reported":1733072814,"current_range_meters":0,"station_id":"ce4bhlh2rcd13ifvqgig","pricing_plan_id":"cebpf4jnsgd1na2vs0mg"},{"bike_id":"6f5b1ead-c960-4c8a-a968-0eeea95ab5b2","system_id":"levelo_inurba_marseille","lat":43.29171,"lon":5.37176,"is_reserved":false,"is_disabled":false,"rental_uris":{"android":"levelo://app?vid=6f5b1ead-c960-4c8a-a968-0eeea95ab5b2","ios":"levelo://app?vid=6f5b1ead-c960-4c8a-a968-0eeea95ab5b2"},"vehicle_type_id":"4","last_reported":1733072814,"current_range_meters":12000,"station_id":"ce4bha92rcd13ifvqeh0","pricing_plan_id":"cebpf4jnsgd1na2vs0mg"},{"bike_id":"1b4091b4-9da5-4e08-a623-15bd0eb83e75","system_id":"levelo_inurba_marseille","lat":43.29306,"lon":5.37175,"is_reserved":false,"is_disabled":true,"rental_uris":{"android":"levelo://app?vid=1b4091b4-9da5-4e08-a623-15bd0eb83e75","ios":"levelo://app?vid=1b4091b4-9da5-4e08-a623-15bd0eb83e75"},"vehicle_type_id":"4","last_reported":1733072814,"current_range_meters":4800,"station_id":"ce4bgh92rcd13ifvqb40","pricing_plan_id":"cebpf4jnsgd1na2vs0mg"},{"bike_id":"d943d960-7d9b-4964-9228-20089cd21664","system_id":"levelo_inurba_marseille","lat":43.32906,"lon":5.3644,"is_reserved":false,"is_disabled":false,"rental_uris":{"android":"levelo://app?vid=d943d960-7d9b-4964-9228-20089cd21664","ios":"levelo://app?vid=d943d960-7d9b-4964-9228-20089cd21664"},"vehicle_type_id":"4","last_reported":1733072814,"current_range_meters":14400,"station_id":"","pricing_plan_id":"cebpf4jnsgd1na2vs0mg"},{"bike_id":"23da5067-cac7-4ef3-9734-be333b976303","system_id":"levelo_inurba_marseille","lat":43.25494,"lon":5.37649,"is_reserved":false,"is_disabled":true,"rental_uris":{"android":"levelo://app?vid=23da5067-cac7-4ef3-9734-be333b976303","ios":"levelo://app?vid=23da5067-cac7-4ef3-9734-be333b976303"},"vehicle_type_id":"4","last_reported":1733072814,"current_range_meters":21600,"station_id":"ce4bhh12rcd13ifvqff0","pricing_plan_id":"cebpf4jnsgd1na2vs0mg"},{"bike_id":"351b542a-ec12-44b5-83df-87ed075e2411","system_id":"levelo_inurba_marseille","lat":43.30801,"lon":5.43525,"is_reserved":false,"is_disabled":true,"rental_uris":{"android":"levelo://app?vid=351b542a-ec12-44b5-83df-87ed075e2411","ios":"levelo://app?vid=351b542a-ec12-44b5-83df-87ed075e2411"},"vehicle_type_id":"4","last_reported":1733072814,"current_range_meters":1600,"station_id":"ce4bhph2rcd13ifvqheg","pricing_plan_id":"cebpf4jnsgd1na2vs0mg"},{"bike_id":"47a9b35d-a54f-4f29-ac1e-ec2fc1da5bf8","system_id":"levelo_inurba_marseille","lat":43.294602,"lon":5.369256,"is_reserved":false,"is_disabled":false,"rental_uris":{"android":"levelo://app?vid=47a9b35d-a54f-4f29-ac1e-ec2fc1da5bf8","ios":"levelo://app?vid=47a9b35d-a54f-4f29-ac1e-ec2fc1da5bf8"},"vehicle_type_id":"4","last_reported":1733072814,"current_range_meters":38800,"station_id":"ce4bgnh2rcd13ifvqc0g","pricing_plan_id":"cebpf4jnsgd1na2vs0mg"},{"bike_id":"e5951ee3-4a5a-4ebb-b469-096c5188dfa3","system_id":"levelo_inurba_marseille","lat":43.23205,"lon":5.35564,"is_reserved":false,"is_disabled":false,"rental_uris":{"android":"levelo://app?vid=e5951ee3-4a5a-4ebb-b469-096c5188dfa3","ios":"levelo://app?vid=e5951ee3-4a5a-4ebb-b469-096c5188dfa3"},"vehicle_type_id":"4","last_reported":1733072814,"current_range_meters":12400,"station_id":"ce4bhu92rcd13ifvqi70","pricing_plan_id":"cebpf4jnsgd1na2vs0mg"},{"bike_id":"f9a63393-5401-4f98-ae5a-dfbb8291ab6d","system_id":"levelo_inurba_marseille","lat":43.3004,"lon":5.37551,"is_reserved":false,"is_disabled":true,"rental_uris":{"android":"levelo://app?vid=f9a63393-5401-4f98-ae5a-dfbb8291ab6d","ios":"levelo://app?vid=f9a63393-5401-4f98-ae5a-dfbb8291ab6d"},"vehicle_type_id":"4","last_reported":1733072814,"current_range_meters":0,"station_id":"","pricing_plan_id":"cebpf4jnsgd1na2vs0mg"},{"bike_id":"16693a0a-9caa-4451-ae6f-f04d08f19112","system_id":"levelo_inurba_marseille","lat":43.29787,"lon":5.38089,"is_reserved":false,"is_disabled":false,"rental_uris":{"android":"levelo://app?vid=16693a0a-9caa-4451-ae6f-f04d08f19112","ios":"levelo://app?vid=16693a0a-9caa-4451-ae6f-f04d08f19112"},"vehicle_type_id":"4","last_reported":1733072814,"current_range_meters":21600,"station_id":"ce4bgip2rcd13ifvqbb0","pricing_plan_id":"cebpf4jnsgd1na2vs0mg"},{"bike_id":"3b415b63-7f1b-4798-93dd-db4da30c2c59","system_id":"levelo_inurba_marseille","lat":43.24805,"lon":5.37459,"is_reserved":false,"is_disabled":false,"rental_uris":{"android":"levelo://app?vid=3b415b63-7f1b-4798-93dd-db4da30c2c59","ios":"levelo://app?vid=3b415b63-7f1b-4798-93dd-db4da30c2c59"},"vehicle_type_id":"4","last_reported":1733072814,"current_range_meters":7200,"station_id":"ce4bhgh2rcd13ifvqfb0","pricing_plan_id":"cebpf4jnsgd1na2vs0mg"},{"bike_id":"f7203759-8da4-40ac-a213-e1e1e7ed9b94","system_id":"levelo_inurba_marseille","lat":43.29432,"lon":5.38639,"is_reserved":false,"is_disabled":true,"rental_uris":{"android":"levelo://app?vid=f7203759-8da4-40ac-a213-e1e1e7ed9b94","ios":"levelo://app?vid=f7203759-8da4-40ac-a213-e1e1e7ed9b94"},"vehicle_type_id":"4","last_reported":1733072814,"current_range_meters":0,"station_id":"ce4bh2h2rcd13ifvqdh0","pricing_plan_id":"cebpf4jnsgd1na2vs0mg"},{"bike_id":"529d652b-b4f8-48b8-b62f-d7225160528d","system_id":"levelo_inurba_marseille","lat":43.31076,"lon":5.38352,"is_reserved":false,"is_disabled":false,"rental_uris":{"android":"levelo://app?vid=529d652b-b4f8-48b8-b62f-d7225160528d","ios":"levelo://app?vid=529d652b-b4f8-48b8-b62f-d7225160528d"},"vehicle_type_id":"4","last_reported":1733072814,"current_range_meters":38800,"station_id":"ce4bgv92rcd13ifvqcr0","pricing_plan_id":"cebpf4jnsgd1na2vs0mg"},{"bike_id":"ea461fa6-489e-4de7-89c7-2f448445227c","system_id":"levelo_inurba_marseille","lat":43.29308,"lon":5.37163,"is_reserved":false,"is_disabled":true,"rental_uris":{"android":"levelo://app?vid=ea461fa6-489e-4de7-89c7-2f448445227c","ios":"levelo://app?vid=ea461fa6-489e-4de7-89c7-2f448445227c"},"vehicle_type_id":"4","last_reported":1733072814,"current_range_meters":36400,"station_id":"ce4bgh92rcd13ifvqb40","pricing_plan_id":"cebpf4jnsgd1na2vs0mg"},{"bike_id":"a5e0769c-a139-4655-acab-96ac73e518aa","system_id":"levelo_inurba_marseille","lat":43.28458,"lon":5.35891,"is_reserved":false,"is_disabled":true,"rental_uris":{"android":"levelo://app?vid=a5e0769c-a139-4655-acab-96ac73e518aa","ios":"levelo://app?vid=a5e0769c-a139-4655-acab-96ac73e518aa"},"vehicle_type_id":"4","last_reported":1733072814,"current_range_meters":0,"station_id":"ce4bhah2rcd13ifvqei0","pricing_plan_id":"cebpf4jnsgd1na2vs0mg"},{"bike_id":"b0bda3a0-8d9d-4bd3-a5b8-75ccdf39fdf3","system_id":"levelo_inurba_marseille","lat":43.29445,"lon":5.39759,"is_reserved":false,"is_disabled":true,"rental_uris":{"android":"levelo://app?vid=b0bda3a0-8d9d-4bd3-a5b8-75ccdf39fdf3","ios":"levelo://app?vid=b0bda3a0-8d9d-4bd3-a5b8-75ccdf39fdf3"},"vehicle_type_id":"4","last_reported":1733072814,"current_range_meters":24000,"station_id":"ce4bh3h2rcd13ifvqdo0","pricing_plan_id":"cebpf4jnsgd1na2vs0mg"},{"bike_id":"8dde5317-ea65-4629-a91e-8fded3473284","system_id":"levelo_inurba_marseille","lat":43.30911,"lon":5.36849,"is_reserved":false,"is_disabled":false,"rental_uris":{"android":"levelo://app?vid=8dde5317-ea65-4629-a91e-8fded3473284","ios":"levelo://app?vid=8dde5317-ea65-4629-a91e-8fded3473284"},"vehicle_type_id":"4","last_reported":1733072814,"current_range_meters":36800,"station_id":"ce4bgn92rcd13ifvqbvg","pricing_plan_id":"cebpf4jnsgd1na2vs0mg"},{"bike_id":"b98dc454-65ed-479f-acfa-259bc94f3993","system_id":"levelo_inurba_marseille","lat":43.2846,"lon":5.35897,"is_reserved":false,"is_disabled":false,"rental_uris":{"android":"levelo://app?vid=b98dc454-65ed-479f-acfa-259bc94f3993","ios":"levelo://app?vid=b98dc454-65ed-479f-acfa-259bc94f3993"},"vehicle_type_id":"4","last_reported":1733072814,"current_range_meters":38800,"station_id":"ce4bhah2rcd13ifvqei0","pricing_plan_id":"cebpf4jnsgd1na2vs0mg"},{"bike_id":"7d7cede7-2633-409b-b661-c0617848067b","system_id":"levelo_inurba_marseille","lat":43.30221,"lon":5.36634,"is_reserved":false,"is_disabled":false,"rental_uris":{"android":"levelo://app?vid=7d7cede7-2633-409b-b661-c0617848067b","ios":"levelo://app?vid=7d7cede7-2633-409b-b661-c0617848067b"},"vehicle_type_id":"4","last_reported":1733072814,"current_range_meters":33600,"station_id":"ce4bgrh2rcd13ifvqc8g","pricing_plan_id":"cebpf4jnsgd1na2vs0mg"},{"bike_id":"17230201-ba0c-4f58-b81c-891abef33aad","system_id":"levelo_inurba_marseille","lat":43.2795,"lon":5.41056,"is_reserved":false,"is_disabled":false,"rental_uris":{"android":"levelo://app?vid=17230201-ba0c-4f58-b81c-891abef33aad","ios":"levelo://app?vid=17230201-ba0c-4f58-b81c-891abef33aad"},"vehicle_type_id":"4","last_reported":1733072814,"current_range_meters":29600,"station_id":"ce4bhnp2rcd13ifvqh0g","pricing_plan_id":"cebpf4jnsgd1na2vs0mg"},{"bike_id":"5ee604c7-006d-4ae7-be22-6deb7b110b3c","system_id":"levelo_inurba_marseille","lat":43.29902,"lon":5.43667,"is_reserved":false,"is_disabled":false,"rental_uris":{"android":"levelo://app?vid=5ee604c7-006d-4ae7-be22-6deb7b110b3c","ios":"levelo://app?vid=5ee604c7-006d-4ae7-be22-6deb7b110b3c"},"vehicle_type_id":"4","last_reported":1733072814,"current_range_meters":38800,"station_id":"ce4bhpp2rcd13ifvqhfg","pricing_plan_id":"cebpf4jnsgd1na2vs0mg"},{"bike_id":"242ea919-e0e5-41f8-a660-5bf1e88e8d9d","system_id":"levelo_inurba_marseille","lat":43.27939,"lon":5.41044,"is_reserved":false,"is_disabled":false,"rental_uris":{"android":"levelo://app?vid=242ea919-e0e5-41f8-a660-5bf1e88e8d9d","ios":"levelo://app?vid=242ea919-e0e5-41f8-a660-5bf1e88e8d9d"},"vehicle_type_id":"4","last_reported":1733072814,"current_range_meters":7200,"station_id":"ce4bhnp2rcd13ifvqh0g","pricing_plan_id":"cebpf4jnsgd1na2vs0mg"},{"bike_id":"fe352d0a-87ee-4f78-8a3a-87a415a4fcd6","system_id":"levelo_inurba_marseille","lat":43.2927,"lon":5.36841,"is_reserved":false,"is_disabled":true,"rental_uris":{"android":"levelo://app?vid=fe352d0a-87ee-4f78-8a3a-87a415a4fcd6","ios":"levelo://app?vid=fe352d0a-87ee-4f78-8a3a-87a415a4fcd6"},"vehicle_type_id":"4","last_reported":1733072814,"current_range_meters":38800,"station_id":"ce4bhbp2rcd13ifvqesg","pricing_plan_id":"cebpf4jnsgd1na2vs0mg"},{"bike_id":"b822ad25-b29a-4084-a489-01182dd41aa4","system_id":"levelo_inurba_marseille","lat":43.26929,"lon":5.38916,"is_reserved":false,"is_disabled":true,"rental_uris":{"android":"levelo://app?vid=b822ad25-b29a-4084-a489-01182dd41aa4","ios":"levelo://app?vid=b822ad25-b29a-4084-a489-01182dd41aa4"},"vehicle_type_id":"4","last_reported":1733072814,"current_range_meters":1200,"station_id":"ce4bhhh2rcd13ifvqfl0","pricing_plan_id":"cebpf4jnsgd1na2vs0mg"},{"bike_id":"05a4207a-4e01-4765-89bc-c5630be619b2","system_id":"levelo_inurba_marseille","lat":43.30792,"lon":5.3732,"is_reserved":false,"is_disabled":false,"rental_uris":{"android":"levelo://app?vid=05a4207a-4e01-4765-89bc-c5630be619b2","ios":"levelo://app?vid=05a4207a-4e01-4765-89bc-c5630be619b2"},"vehicle_type_id":"4","last_reported":1733072814,"current_range_meters":28800,"station_id":"","pricing_plan_id":"cebpf4jnsgd1na2vs0mg"},{"bike_id":"b0c690f8-d01e-4558-bd58-74c69874eb20","system_id":"levelo_inurba_marseille","lat":43.23176,"lon":5.39994,"is_reserved":false,"is_disabled":false,"rental_uris":{"android":"levelo://app?vid=b0c690f8-d01e-4558-bd58-74c69874eb20","ios":"levelo://app?vid=b0c690f8-d01e-4558-bd58-74c69874eb20"},"vehicle_type_id":"4","last_reported":1733072814,"current_range_meters":7200,"station_id":"ce4bhn12rcd13ifvqgqg","pricing_plan_id":"cebpf4jnsgd1na2vs0mg"},{"bike_id":"98ba6f31-1117-44c4-8d86-b68acdac9a98","system_id":"levelo_inurba_marseille","lat":43.28852,"lon":5.35845,"is_reserved":false,"is_disabled":false,"rental_uris":{"android":"levelo://app?vid=98ba6f31-1117-44c4-8d86-b68acdac9a98","ios":"levelo://app?vid=98ba6f31-1117-44c4-8d86-b68acdac9a98"},"vehicle_type_id":"4","last_reported":1733072814,"current_range_meters":17600,"station_id":"ce4bhb12rcd13ifvqem0","pricing_plan_id":"cebpf4jnsgd1na2vs0mg"},{"bike_id":"0864cf67-e4ed-45a0-bc3f-43666c04014b","system_id":"levelo_inurba_marseille","lat":43.24544,"lon":5.39524,"is_reserved":false,"is_disabled":false,"rental_uris":{"android":"levelo://app?vid=0864cf67-e4ed-45a0-bc3f-43666c04014b","ios":"levelo://app?vid=0864cf67-e4ed-45a0-bc3f-43666c04014b"},"vehicle_type_id":"4","last_reported":1733072814,"current_range_meters":11200,"station_id":"ce4bhlp2rcd13ifvqgjg","pricing_plan_id":"cebpf4jnsgd1na2vs0mg"},{"bike_id":"783367db-6720-4a16-9b51-f9ccc4060b1c","system_id":"levelo_inurba_marseille","lat":43.2808,"lon":5.39661,"is_reserved":false,"is_disabled":false,"rental_uris":{"android":"levelo://app?vid=783367db-6720-4a16-9b51-f9ccc4060b1c","ios":"levelo://app?vid=783367db-6720-4a16-9b51-f9ccc4060b1c"},"vehicle_type_id":"4","last_reported":1733072814,"current_range_meters":8800,"station_id":"ce4bho12rcd13ifvqh2g","pricing_plan_id":"cebpf4jnsgd1na2vs0mg"},{"bike_id":"6ee1e084-924e-44b7-a74e-a5e5032f3a4b","system_id":"levelo_inurba_marseille","lat":43.30605,"lon":5.37238,"is_reserved":false,"is_disabled":false,"rental_uris":{"android":"levelo://app?vid=6ee1e084-924e-44b7-a74e-a5e5032f3a4b","ios":"levelo://app?vid=6ee1e084-924e-44b7-a74e-a5e5032f3a4b"},"vehicle_type_id":"4","last_reported":1733072814,"current_range_meters":24800,"station_id":"ce4bgqh2rcd13ifvqc4g","pricing_plan_id":"cebpf4jnsgd1na2vs0mg"},{"bike_id":"005ce77e-39ce-4936-be09-02be7dd4c5a4","system_id":"levelo_inurba_marseille","lat":43.27314,"lon":5.39074,"is_reserved":false,"is_disabled":true,"rental_uris":{"android":"levelo://app?vid=005ce77e-39ce-4936-be09-02be7dd4c5a4","ios":"levelo://app?vid=005ce77e-39ce-4936-be09-02be7dd4c5a4"},"vehicle_type_id":"4","last_reported":1733072814,"current_range_meters":1600,"station_id":"ce4bhgp2rcd13ifvqfe0","pricing_plan_id":"cebpf4jnsgd1na2vs0mg"},{"bike_id":"85720f51-2458-4933-abdb-4d38058881f9","system_id":"levelo_inurba_marseille","lat":43.29036,"lon":5.37562,"is_reserved":false,"is_disabled":false,"rental_uris":{"android":"levelo://app?vid=85720f51-2458-4933-abdb-4d38058881f9","ios":"levelo://app?vid=85720f51-2458-4933-abdb-4d38058881f9"},"vehicle_type_id":"4","last_reported":1733072814,"current_range_meters":18000,"station_id":"ce4bh692rcd13ifvqe90","pricing_plan_id":"cebpf4jnsgd1na2vs0mg"},{"bike_id":"f86a7985-f983-4c43-accc-36f193764ff0","system_id":"levelo_inurba_marseille","lat":43.31068,"lon":5.40093,"is_reserved":false,"is_disabled":false,"rental_uris":{"android":"levelo://app?vid=f86a7985-f983-4c43-accc-36f193764ff0","ios":"levelo://app?vid=f86a7985-f983-4c43-accc-36f193764ff0"},"vehicle_type_id":"4","last_reported":1733072814,"current_range_meters":11200,"station_id":"","pricing_plan_id":"cebpf4jnsgd1na2vs0mg"},{"bike_id":"dd0ac728-ca6e-4c42-b6d7-74acfcd68595","system_id":"levelo_inurba_marseille","lat":43.32341,"lon":5.40626,"is_reserved":false,"is_disabled":false,"rental_uris":{"android":"levelo://app?vid=dd0ac728-ca6e-4c42-b6d7-74acfcd68595","ios":"levelo://app?vid=dd0ac728-ca6e-4c42-b6d7-74acfcd68595"},"vehicle_type_id":"4","last_reported":1733072814,"current_range_meters":28000,"station_id":"ce4bhq92rcd13ifvqhjg","pricing_plan_id":"cebpf4jnsgd1na2vs0mg"},{"bike_id":"4c5fd8fa-f13a-40f8-bde8-5db5173938a4","system_id":"levelo_inurba_marseille","lat":43.27973,"lon":5.38741,"is_reserved":false,"is_disabled":false,"rental_uris":{"android":"levelo://app?vid=4c5fd8fa-f13a-40f8-bde8-5db5173938a4","ios":"levelo://app?vid=4c5fd8fa-f13a-40f8-bde8-5db5173938a4"},"vehicle_type_id":"4","last_reported":1733072814,"current_range_meters":37600,"station_id":"ce4bhg12rcd13ifvqf80","pricing_plan_id":"cebpf4jnsgd1na2vs0mg"},{"bike_id":"43746d86-8a13-4845-9faf-ae69b548d714","system_id":"levelo_inurba_marseille","lat":43.29459,"lon":5.37917,"is_reserved":false,"is_disabled":true,"rental_uris":{"android":"levelo://app?vid=43746d86-8a13-4845-9faf-ae69b548d714","ios":"levelo://app?vid=43746d86-8a13-4845-9faf-ae69b548d714"},"vehicle_type_id":"4","last_reported":1733072814,"current_range_meters":0,"station_id":"","pricing_plan_id":"cebpf4jnsgd1na2vs0mg"},