{"last_updated":1774217661,"ttl":60,"version":"2.2","data":{"bikes":[{"bike_id":"684715c6-945f-4949-9133-64dec7838b4e","system_id":"levelo_inurba_marseille","lat":43.27215,"lon":5.39197,"is_reserved":false,"is_disabled":true,"rental_uris":{"android":"levelo://app?vid=684715c6-945f-4949-9133-64dec7838b4e","ios":"levelo://app?vid=684715c6-945f-4949-9133-64dec7838b4e"},"vehicle_type_id":"4","last_reported":1774217661,"current_range_meters":2800,"station_id":"ce4bhhp2rcd13ifvqfm0","pricing_plan_id":"cebpf4jnsgd1na2vs0mg"},{"bike_id":"c7cc5081-8a90-4664-8378-0ac0db8d74fb","system_id":"levelo_inurba_marseille","lat":43.29811,"lon":5.36693,"is_reserved":false,"is_disabled":false,"rental_uris":{"android":"levelo://app?vid=c7cc5081-8a90-4664-8378-0ac0db8d74fb","ios":"levelo://app?vid=c7cc5081-8a90-4664-8378-0ac0db8d74fb"},"vehicle_type_id":"4","last_reported":1774217661,"current_range_meters":2800,"station_id":"","pricing_plan_id":"cebpf4jnsgd1na2vs0mg"},{"bike_id":"d65bd890-bd76-40b1-a464-add252f480e6","system_id":"levelo_inurba_marseille","lat":43.31736,"lon":5.38999,"is_reserved":false,"is_disabled":false,"rental_uris":{"android":"levelo://app?vid=d65bd890-bd76-40b1-a464-add252f480e6","ios":"levelo://app?vid=d65bd890-bd76-40b1-a464-add252f480e6"},"vehicle_type_id":"4","last_reported":1774217661,"current_range_meters":2800,"station_id":"ce4bhqp2rcd13ifvqhng","pricing_plan_id":"cebpf4jnsgd1na2vs0mg"},{"bike_id":"1bf523a3-5926-4a56-bcae-e377f2ed8117","system_id":"levelo_inurba_marseille","lat":43.27941,"lon":5.41073,"is_reserved":false,"is_disabled":false,"rental_uris":{"android":"levelo://app?vid=1bf523a3-5926-4a56-bcae-e377f2ed8117","ios":"levelo://app?vid=1bf523a3-5926-4a56-bcae-e377f2ed8117"},"vehicle_type_id":"4","last_reported":1774217661,"current_range_meters":2800,"station_id":"ce4bhnp2rcd13ifvqh0g","pricing_plan_id":"cebpf4jnsgd1na2vs0mg"},{"bike_id":"d9a2340f-4dc0-456b-89f0-454af4d93a65","system_id":"levelo_inurba_marseille","lat":43.28462,"lon":5.35019,"is_reserved":false,"is_disabled":false,"rental_uris":{"android":"levelo://app?vid=d9a2340f-4dc0-456b-89f0-454af4d93a65","ios":"levelo://app?vid=d9a2340f-4dc0-456b-89f0-454af4d93a65"},"vehicle_type_id":"4","last_reported":1774217661,"current_range_meters":2800,"station_id":"","pricing_plan_id":"cebpf4jnsgd1na2vs0mg"},{"bike_id":"e6475c08-c2b5-4384-9f5a-f76a9e6ed419","system_id":"levelo_inurba_marseille","lat":43.30139,"lon":5.39842,"is_reserved":false,"is_disabled":true,"rental_uris":{"android":"levelo://app?vid=e6475c08-c2b5-4384-9f5a-f76a9e6ed419","ios":"levelo://app?vid=e6475c08-c2b5-4384-9f5a-f76a9e6ed419"},"vehicle_type_id":"4","last_reported":1774217661,"current_range_meters":2800,"station_id":"ce4bh0h2rcd13ifvqd40","pricing_plan_id":"cebpf4jnsgd1na2vs0mg"},{"bike_id":"5c57b442-e44c-4217-ae47-6fe16361dbee","system_id":"levelo_inurba_marseille","lat":43.29769,"lon":5.42769,"is_reserved":false,"is_disabled":true,"rental_uris":{"android":"levelo://app?vid=5c57b442-e44c-4217-ae47-6fe16361dbee","ios":"levelo://app?vid=5c57b442-e44c-4217-ae47-6fe16361dbee"},"vehicle_type_id":"4","last_reported":1774217661,"current_range_meters":2800,"station_id":"st_d3md5207bmas73dh9klg","pricing_plan_id":"cebpf4jnsgd1na2vs0mg"},{"bike_id":"b3c87133-a858-4c96-8034-1bf85dc082c3","system_id":"levelo_inurba_marseille","lat":43.29636,"lon":5.38073,"is_reserved":false,"is_disabled":true,"rental_uris":{"android":"levelo://app?vid=b3c87133-a858-4c96-8034-1bf85dc082c3","ios":"levelo://app?vid=b3c87133-a858-4c96-8034-1bf85dc082c3"},"vehicle_type_id":"4","last_reported":1774217661,"current_range_meters":2800,"station_id":"ce4bgl12rcd13ifvqbo0","pricing_plan_id":"cebpf4jnsgd1na2vs0mg"},{"bike_id":"1856b9ba-950d-4d20-8b8a-1dd2c2ab3f7d","system_id":"levelo_inurba_marseille","lat":43.26948,"lon":5.40246,"is_reserved":false,"is_disabled":false,"rental_uris":{"android":"levelo://app?vid=1856b9ba-950d-4d20-8b8a-1dd2c2ab3f7d","ios":"levelo://app?vid=1856b9ba-950d-4d20-8b8a-1dd2c2ab3f7d"},"vehicle_type_id":"4","last_reported":1774217661,"current_range_meters":2800,"station_id":"cjm6bp8fraef2m0cb0m0","pricing_plan_id":"cebpf4jnsgd1na2vs0mg"},{"bike_id":"fdc655d4-8c99-4d97-9c1e-46ec98ef8979","system_id":"levelo_inurba_marseille","lat":43.28616,"lon":5.35126,"is_reserved":false,"is_disabled":true,"rental_uris":{"android":"levelo://app?vid=fdc655d4-8c99-4d97-9c1e-46ec98ef8979","ios":"levelo://app?vid=fdc655d4-8c99-4d97-9c1e-46ec98ef8979"},"vehicle_type_id":"4","last_reported":1774217661,"current_range_meters":3200,"station_id":"ce4bhch2rcd13ifvqeug","pricing_plan_id":"cebpf4jnsgd1na2vs0mg"},{"bike_id":"3f12e940-de87-4cda-8d19-b5ddb45a8f36","system_id":"levelo_inurba_marseille","lat":43.2319,"lon":5.35563,"is_reserved":false,"is_disabled":false,"rental_uris":{"android":"levelo://app?vid=3f12e940-de87-4cda-8d19-b5ddb45a8f36","ios":"levelo://app?vid=3f12e940-de87-4cda-8d19-b5ddb45a8f36"},"vehicle_type_id":"4","last_reported":1774217661,"current_range_meters":3200,"station_id":"ce4bhu92rcd13ifvqi70","pricing_plan_id":"cebpf4jnsgd1na2vs0mg"},{"bike_id":"53663f10-c972-4dad-83a0-96ec19d2a37e","system_id":"levelo_inurba_marseille","lat":43.25013,"lon":5.38909,"is_reserved":false,"is_disabled":true,"rental_uris":{"android":"levelo://app?vid=53663f10-c972-4dad-83a0-96ec19d2a37e","ios":"levelo://app?vid=53663f10-c972-4dad-83a0-96ec19d2a37e"},"vehicle_type_id":"4","last_reported":1774217661,"current_range_meters":3200,"station_id":"ce4bhgp2rcd13ifvqfd0","pricing_plan_id":"cebpf4jnsgd1na2vs0mg"},{"bike_id":"bb64248e-0e5d-4ee1-9d8f-d48a0dd77d66","system_id":"levelo_inurba_marseille","lat":43.21624,"lon":5.34476,"is_reserved":false,"is_disabled":false,"rental_uris":{"android":"levelo://app?vid=bb64248e-0e5d-4ee1-9d8f-d48a0dd77d66","ios":"levelo://app?vid=bb64248e-0e5d-4ee1-9d8f-d48a0dd77d66"},"vehicle_type_id":"4","last_reported":1774217661,"current_range_meters":3200,"station_id":"","pricing_plan_id":"cebpf4jnsgd1na2vs0mg"},{"bike_id":"2623926b-006b-4bc5-8015-1fb75878f346","system_id":"levelo_inurba_marseille","lat":43.24807,"lon":5.37472,"is_reserved":false,"is_disabled":false,"rental_uris":{"android":"levelo://app?vid=2623926b-006b-4bc5-8015-1fb75878f346","ios":"levelo://app?vid=2623926b-006b-4bc5-8015-1fb75878f346"},"vehicle_type_id":"4","last_reported":1774217661,"current_range_meters":3600,"station_id":"ce4bhgh2rcd13ifvqfb0","pricing_plan_id":"cebpf4jnsgd1na2vs0mg"},{"bike_id":"b6fffe2f-9423-41b9-a53f-4ddbccd10965","system_id":"levelo_inurba_marseille","lat":43.33524,"lon":5.37469,"is_reserved":false,"is_disabled":false,"rental_uris":{"android":"levelo://app?vid=b6fffe2f-9423-41b9-a53f-4ddbccd10965","ios":"levelo://app?vid=b6fffe2f-9423-41b9-a53f-4ddbccd10965"},"vehicle_type_id":"4","last_reported":1774217661,"current_range_meters":3600,"station_id":"st_d46tts09ee8s73dlu43g","pricing_plan_id":"cebpf4jnsgd1na2vs0mg"},{"bike_id":"df5ad533-8354-43dd-b4db-d4118becde63","system_id":"levelo_inurba_marseille","lat":43.28526,"lon":5.48332,"is_reserved":false,"is_disabled":false,"rental_uris":{"android":"levelo://app?vid=df5ad533-8354-43dd-b4db-d4118becde63","ios":"levelo://app?vid=df5ad533-8354-43dd-b4db-d4118becde63"},"vehicle_type_id":"4","last_reported":1774217661,"current_range_meters":3600,"station_id":"","pricing_plan_id":"cebpf4jnsgd1na2vs0mg"},{"bike_id":"9428c957-f603-4346-9e68-4f9e4a780b24","system_id":"levelo_inurba_marseille","lat":43.2175,"lon":5.34602,"is_reserved":false,"is_disabled":true,"rental_uris":{"android":"levelo://app?vid=9428c957-f603-4346-9e68-4f9e4a780b24","ios":"levelo://app?vid=9428c957-f603-4346-9e68-4f9e4a780b24"},"vehicle_type_id":"4","last_reported":1774217661,"current_range_meters":4000,"station_id":"st_cvj6r9ubvosntc0bgbag","pricing_plan_id":"cebpf4jnsgd1na2vs0mg"},{"bike_id":"589e256a-566c-48aa-ba2e-bb8bec131139","system_id":"levelo_inurba_marseille","lat":43.27381,"lon":5.3624,"is_reserved":false,"is_disabled":true,"rental_uris":{"android":"levelo://app?vid=589e256a-566c-48aa-ba2e-bb8bec131139","ios":"levelo://app?vid=589e256a-566c-48aa-ba2e-bb8bec131139"},"vehicle_type_id":"4","last_reported":1774217661,"current_range_meters":4000,"station_id":"ce4bhbh2rcd13ifvqeo0","pricing_plan_id":"cebpf4jnsgd1na2vs0mg"},{"bike_id":"f35f25a3-f6e2-49ab-a635-857e4cb91e6c","system_id":"levelo_inurba_marseille","lat":43.29565,"lon":5.37534,"is_reserved":false,"is_disabled":false,"rental_uris":{"android":"levelo://app?vid=f35f25a3-f6e2-49ab-a635-857e4cb91e6c","ios":"levelo://app?vid=f35f25a3-f6e2-49ab-a635-857e4cb91e6c"},"vehicle_type_id":"4","last_reported":1774217661,"current_range_meters":4000,"station_id":"ce4bgh92rcd13ifvqb50","pricing_plan_id":"cebpf4jnsgd1na2vs0mg"},{"bike_id":"1e50f1b9-e205-414f-9a7f-d356bf198753","system_id":"levelo_inurba_marseille","lat":43.24075,"lon":5.37748,"is_reserved":false,"is_disabled":false,"rental_uris":{"android":"levelo://app?vid=1e50f1b9-e205-414f-9a7f-d356bf198753","ios":"levelo://app?vid=1e50f1b9-e205-414f-9a7f-d356bf198753"},"vehicle_type_id":"4","last_reported":1774217661,"current_range_meters":4000,"station_id":"ce4bhnp2rcd13ifvqgvg","pricing_plan_id":"cebpf4jnsgd1na2vs0mg"},{"bike_id":"280578b9-60d3-4d63-bb0d-4693a52f0b6d","system_id":"levelo_inurba_marseille","lat":43.29013,"lon":5.3812,"is_reserved":false,"is_disabled":true,"rental_uris":{"android":"levelo://app?vid=280578b9-60d3-4d63-bb0d-4693a52f0b6d","ios":"levelo://app?vid=280578b9-60d3-4d63-bb0d-4693a52f0b6d"},"vehicle_type_id":"4","last_reported":1774217661,"current_range_meters":4000,"station_id":"ce4bh4p2rcd13ifvqe1g","pricing_plan_id":"cebpf4jnsgd1na2vs0mg"},{"bike_id":"bb2bb087-057b-42f3-9513-f048d27083cc","system_id":"levelo_inurba_marseille","lat":43.28174,"lon":5.42808,"is_reserved":false,"is_disabled":false,"rental_uris":{"android":"levelo://app?vid=bb2bb087-057b-42f3-9513-f048d27083cc","ios":"levelo://app?vid=bb2bb087-057b-42f3-9513-f048d27083cc"},"vehicle_type_id":"4","last_reported":1774217661,"current_range_meters":4000,"station_id":"","pricing_plan_id":"cebpf4jnsgd1na2vs0mg"},{"bike_id":"b19a626a-93cd-41bf-8d4f-8b63d7aeec08","system_id":"levelo_inurba_marseille","lat":43.30122,"lon":5.439,"is_reserved":false,"is_disabled":false,"rental_uris":{"android":"levelo://app?vid=b19a626a-93cd-41bf-8d4f-8b63d7aeec08","ios":"levelo://app?vid=b19a626a-93cd-41bf-8d4f-8b63d7aeec08"},"vehicle_type_id":"4","last_reported":1774217661,"current_range_meters":4000,"station_id":"","pricing_plan_id":"cebpf4jnsgd1na2vs0mg"},{"bike_id":"110e82fe-61f1-41a5-8603-789cab85d046","system_id":"levelo_inurba_marseille","lat":43.31282,"lon":5.40169,"is_reserved":false,"is_disabled":false,"rental_uris":{"android":"levelo://app?vid=110e82fe-61f1-41a5-8603-789cab85d046","ios":"levelo://app?vid=110e82fe-61f1-41a5-8603-789cab85d046"},"vehicle_type_id":"4","last_reported":1774217661,"current_range_meters":4000,"station_id":"ce4bh092rcd13ifvqd30","pricing_plan_id":"cebpf4jnsgd1na2vs0mg"},{"bike_id":"24892758-e1c8-4866-9ace-f6379bc81fdc","system_id":"levelo_inurba_marseille","lat":43.26375,"lon":5.41081,"is_reserved":false,"is_disabled":false,"rental_uris":{"android":"levelo://app?vid=24892758-e1c8-4866-9ace-f6379bc81fdc","ios":"levelo://app?vid=24892758-e1c8-4866-9ace-f6379bc81fdc"},"vehicle_type_id":"4","last_reported":1774217661,"current_range_meters":4000,"station_id":"st_d4e5ca6na9uc73bfl5fg","pricing_plan_id":"cebpf4jnsgd1na2vs0mg"},{"bike_id":"183fd90c-0052-4b2b-a72d-89bd5fb0a1bb","system_id":"levelo_inurba_marseille","lat":43.30961,"lon":5.43868,"is_reserved":false,"is_disabled":false,"rental_uris":{"android":"levelo://app?vid=183fd90c-0052-4b2b-a72d-89bd5fb0a1bb","ios":"levelo://app?vid=183fd90c-0052-4b2b-a72d-89bd5fb0a1bb"},"vehicle_type_id":"4","last_reported":1774217661,"current_range_meters":4400,"station_id":"","pricing_plan_id":"cebpf4jnsgd1na2vs0mg"},{"bike_id":"037af263-c94a-46ee-b673-7aa7948320d5","system_id":"levelo_inurba_marseille","lat":43.29276,"lon":5.38441,"is_reserved":false,"is_disabled":true,"rental_uris":{"android":"levelo://app?vid=037af263-c94a-46ee-b673-7aa7948320d5","ios":"levelo://app?vid=037af263-c94a-46ee-b673-7aa7948320d5"},"vehicle_type_id":"4","last_reported":1774217661,"current_range_meters":4400,"station_id":"ce4bh692rcd13ifvqea0","pricing_plan_id":"cebpf4jnsgd1na2vs0mg"},{"bike_id":"91164465-ec9b-48c0-81c7-43b516f7e846","system_id":"levelo_inurba_marseille","lat":43.304,"lon":5.368,"is_reserved":false,"is_disabled":false,"rental_uris":{"android":"levelo://app?vid=91164465-ec9b-48c0-81c7-43b516f7e846","ios":"levelo://app?vid=91164465-ec9b-48c0-81c7-43b516f7e846"},"vehicle_type_id":"4","last_reported":1774217661,"current_range_meters":4800,"station_id":"","pricing_plan_id":"cebpf4jnsgd1na2vs0mg"},{"bike_id":"f7d6c650-f32c-4f32-9970-3fed07f42d78","system_id":"levelo_inurba_marseille","lat":43.27056,"lon":5.38298,"is_reserved":false,"is_disabled":false,"rental_uris":{"android":"levelo://app?vid=f7d6c650-f32c-4f32-9970-3fed07f42d78","ios":"levelo://app?vid=f7d6c650-f32c-4f32-9970-3fed07f42d78"},"vehicle_type_id":"4","last_reported":1774217661,"current_range_meters":4800,"station_id":"st_d3n2fo6cfp8s73cte1j0","pricing_plan_id":"cebpf4jnsgd1na2vs0mg"},{"bike_id":"21de157a-5e00-4554-aa09-05d9fd4473d6","system_id":"levelo_inurba_marseille","lat":43.24186,"lon":5.39723,"is_reserved":false,"is_disabled":true,"rental_uris":{"android":"levelo://app?vid=21de157a-5e00-4554-aa09-05d9fd4473d6","ios":"levelo://app?vid=21de157a-5e00-4554-aa09-05d9fd4473d6"},"vehicle_type_id":"4","last_reported":1774217661,"current_range_meters":4800,"station_id":"ce4bhn12rcd13ifvqgpg","pricing_plan_id":"cebpf4jnsgd1na2vs0mg"},{"bike_id":"069a31e1-8491-47f6-acb3-52f081dfc8d1","system_id":"levelo_inurba_marseille","lat":43.30302,"lon":5.36914,"is_reserved":false,"is_disabled":false,"rental_uris":{"android":"levelo://app?vid=069a31e1-8491-47f6-acb3-52f081dfc8d1","ios":"levelo://app?vid=069a31e1-8491-47f6-acb3-52f081dfc8d1"},"vehicle_type_id":"4","last_reported":1774217661,"current_range_meters":4800,"station_id":"ce4bgqh2rcd13ifvqc5g","pricing_plan_id":"cebpf4jnsgd1na2vs0mg"},{"bike_id":"b48db811-f2cf-46ea-aa62-4aa4fcd788b4","system_id":"levelo_inurba_marseille","lat":43.29896,"lon":5.43683,"is_reserved":false,"is_disabled":false,"rental_uris":{"android":"levelo://app?vid=b48db811-f2cf-46ea-aa62-4aa4fcd788b4","ios":"levelo://app?vid=b48db811-f2cf-46ea-aa62-4aa4fcd788b4"},"vehicle_type_id":"4","last_reported":1774217661,"current_range_meters":4800,"station_id":"ce4bhpp2rcd13ifvqhfg","pricing_plan_id":"cebpf4jnsgd1na2vs0mg"},{"bike_id":"c09e1bc7-aa7e-44da-a985-d803cb6b22e0","system_id":"levelo_inurba_marseille","lat":43.23168,"lon":5.43723,"is_reserved":false,"is_disabled":false,"rental_uris":{"android":"levelo://app?vid=c09e1bc7-aa7e-44da-a985-d803cb6b22e0","ios":"levelo://app?vid=c09e1bc7-aa7e-44da-a985-d803cb6b22e0"},"vehicle_type_id":"4","last_reported":1774217661,"current_range_meters":4800,"station_id":"ce4bhmp2rcd13ifvqgog","pricing_plan_id":"cebpf4jnsgd1na2vs0mg"},{"bike_id":"c740e20c-eca7-406c-92dd-2b448718a645","system_id":"levelo_inurba_marseille","lat":43.28478,"lon":5.48395,"is_reserved":false,"is_disabled":false,"rental_uris":{"android":"levelo://app?vid=c740e20c-eca7-406c-92dd-2b448718a645","ios":"levelo://app?vid=c740e20c-eca7-406c-92dd-2b448718a645"},"vehicle_type_id":"4","last_reported":1774217661,"current_range_meters":4800,"station_id":"","pricing_plan_id":"cebpf4jnsgd1na2vs0mg"},{"bike_id":"35939b35-432f-4730-9a4d-bca4477a51c8","system_id":"levelo_inurba_marseille","lat":43.32121,"lon":5.36796,"is_reserved":false,"is_disabled":false,"rental_uris":{"android":"levelo://app?vid=35939b35-432f-4730-9a4d-bca4477a51c8","ios":"levelo://app?vid=35939b35-432f-4730-9a4d-bca4477a51c8"},"vehicle_type_id":"4","last_reported":1774217661,"current_range_meters":4800,"station_id":"ce4bhrh2rcd13ifvqhug","pricing_plan_id":"cebpf4jnsgd1na2vs0mg"},{"bike_id":"6c1ac590-511b-4ef3-b19a-055f363bbc14","system_id":"levelo_inurba_marseille","lat":43.29901,"lon":5.43661,"is_reserved":false,"is_disabled":false,"rental_uris":{"android":"levelo://app?vid=6c1ac590-511b-4ef3-b19a-055f363bbc14","ios":"levelo://app?vid=6c1ac590-511b-4ef3-b19a-055f363bbc14"},"vehicle_type_id":"4","last_reported":1774217661,"current_range_meters":4800,"station_id":"ce4bhpp2rcd13ifvqhfg","pricing_plan_id":"cebpf4jnsgd1na2vs0mg"},{"bike_id":"f8cc83d7-8cfc-43c5-a95c-950d60be7ca1","system_id":"levelo_inurba_marseille","lat":43.2293,"lon":5.35374,"is_reserved":false,"is_disabled":false,"rental_uris":{"android":"levelo://app?vid=f8cc83d7-8cfc-43c5-a95c-950d60be7ca1","ios":"levelo://app?vid=f8cc83d7-8cfc-43c5-a95c-950d60be7ca1"},"vehicle_type_id":"4","last_reported":1774217661,"current_range_meters":5600,"station_id":"cpo3532slgdg3j2ikp40","pricing_plan_id":"cebpf4jnsgd1na2vs0mg"},{"bike_id":"4c3f08d4-34c7-4e1b-9255-baed674c1087","system_id":"levelo_inurba_marseille","lat":43.24128,"lon":5.36842,"is_reserved":false,"is_disabled":false,"rental_uris":{"android":"levelo://app?vid=4c3f08d4-34c7-4e1b-9255-baed674c1087","ios":"levelo://app?vid=4c3f08d4-34c7-4e1b-9255-baed674c1087"},"vehicle_type_id":"4","last_reported":1774217661,"current_range_meters":5600,"station_id":"","pricing_plan_id":"cebpf4jnsgd1na2vs0mg"},{"bike_id":"8827da7c-4553-4e45-8b96-33f6c2699a52","system_id":"levelo_inurba_marseille","lat":43.21727,"lon":5.34605,"is_reserved":false,"is_disabled":true,"rental_uris":{"android":"levelo://app?vid=8827da7c-4553-4e45-8b96-33f6c2699a52","ios":"levelo://app?vid=8827da7c-4553-4e45-8b96-33f6c2699a52"},"vehicle_type_id":"4","last_reported":1774217661,"current_range_meters":5600,"station_id":"st_cvj6r9ubvosntc0bgbag","pricing_plan_id":"cebpf4jnsgd1na2vs0mg"},{"bike_id":"b6bd7335-6c6d-461c-80a2-97a8664a80f6","system_id":"levelo_inurba_marseille","lat":43.28412,"lon":5.37523,"is_reserved":false,"is_disabled":false,"rental_uris":{"android":"levelo://app?vid=b6bd7335-6c6d-461c-80a2-97a8664a80f6","ios":"levelo://app?vid=b6bd7335-6c6d-461c-80a2-97a8664a80f6"},"vehicle_type_id":"4","last_reported":1774217661,"current_range_meters":6000,"station_id":"ce4bh412rcd13ifvqds0","pricing_plan_id":"cebpf4jnsgd1na2vs0mg"},{"bike_id":"54493c86-a4ae-4109-bfc7-0b88e6e19cc7","system_id":"levelo_inurba_marseille","lat":43.27391,"lon":5.36271,"is_reserved":false,"is_disabled":true,"rental_uris":{"android":"levelo://app?vid=54493c86-a4ae-4109-bfc7-0b88e6e19cc7","ios":"levelo://app?vid=54493c86-a4ae-4109-bfc7-0b88e6e19cc7"},"vehicle_type_id":"4","last_reported":1774217661,"current_range_meters":6000,"station_id":"ce4bhbh2rcd13ifvqeo0","pricing_plan_id":"cebpf4jnsgd1na2vs0mg"},{"bike_id":"d8325b93-4545-46e9-bae7-aa3ee9ecf896","system_id":"levelo_inurba_marseille","lat":43.30743,"lon":5.42437,"is_reserved":false,"is_disabled":false,"rental_uris":{"android":"levelo://app?vid=d8325b93-4545-46e9-bae7-aa3ee9ecf896","ios":"levelo://app?vid=d8325b93-4545-46e9-bae7-aa3ee9ecf896"},"vehicle_type_id":"4","last_reported":1774217661,"current_range_meters":6000,"station_id":"st_cvj6ca6bvosntc0bfgr0","pricing_plan_id":"cebpf4jnsgd1na2vs0mg"},{"bike_id":"c66abed4-a510-467b-9fe2-a140744c1f13","system_id":"levelo_inurba_marseille","lat":43.31544,"lon":5.38046,"is_reserved":false,"is_disabled":false,"rental_uris":{"android":"levelo://app?vid=c66abed4-a510-467b-9fe2-a140744c1f13","ios":"levelo://app?vid=c66abed4-a510-467b-9fe2-a140744c1f13"},"vehicle_type_id":"4","last_reported":1774217661,"current_range_meters":6000,"station_id":"ce4bhsp2rcd13ifvqi50","pricing_plan_id":"cebpf4jnsgd1na2vs0mg"},{"bike_id":"c0e712b0-8e3d-4fec-a262-a832fe71beaa","system_id":"levelo_inurba_marseille","lat":43.25584,"lon":5.38241,"is_reserved":false,"is_disabled":false,"rental_uris":{"android":"levelo://app?vid=c0e712b0-8e3d-4fec-a262-a832fe71beaa","ios":"levelo://app?vid=c0e712b0-8e3d-4fec-a262-a832fe71beaa"},"vehicle_type_id":"4","last_reported":1774217661,"current_range_meters":6000,"station_id":"ce4bhih2rcd13ifvqfs0","pricing_plan_id":"cebpf4jnsgd1na2vs0mg"},{"bike_id":"b41ba9fd-1286-49b2-bb79-3ecc772ffeae","system_id":"levelo_inurba_marseille","lat":43.32124,"lon":5.36768,"is_reserved":false,"is_disabled":false,"rental_uris":{"android":"levelo://app?vid=b41ba9fd-1286-49b2-bb79-3ecc772ffeae","ios":"levelo://app?vid=b41ba9fd-1286-49b2-bb79-3ecc772ffeae"},"vehicle_type_id":"4","last_reported":1774217661,"current_range_meters":6000,"station_id":"ce4bhrh2rcd13ifvqhug","pricing_plan_id":"cebpf4jnsgd1na2vs0mg"},{"bike_id":"ef8cd562-295e-4308-aa28-51ee95bd4f8d","system_id":"levelo_inurba_marseille","lat":43.28159,"lon":5.42639,"is_reserved":false,"is_disabled":false,"rental_uris":{"android":"levelo://app?vid=ef8cd562-295e-4308-aa28-51ee95bd4f8d","ios":"levelo://app?vid=ef8cd562-295e-4308-aa28-51ee95bd4f8d"},"vehicle_type_id":"4","last_reported":1774217661,"current_range_meters":6400,"station_id":"ce4bhnh2rcd13ifvqgug","pricing_plan_id":"cebpf4jnsgd1na2vs0mg"},{"bike_id":"cc696a92-d35f-424c-9e4d-00cc096b60f0","system_id":"levelo_inurba_marseille","lat":43.24177,"lon":5.36485,"is_reserved":false,"is_disabled":false,"rental_uris":{"android":"levelo://app?vid=cc696a92-d35f-424c-9e4d-00cc096b60f0","ios":"levelo://app?vid=cc696a92-d35f-424c-9e4d-00cc096b60f0"},"vehicle_type_id":"4","last_reported":1774217661,"current_range_meters":6400,"station_id":"","pricing_plan_id":"cebpf4jnsgd1na2vs0mg"},{"bike_id":"4be772b0-70fb-4565-a7a2-840a9845edba","system_id":"levelo_inurba_marseille","lat":43.326,"lon":5.37493,"is_reserved":false,"is_disabled":false,"rental_uris":{"android":"levelo://app?vid=4be772b0-70fb-4565-a7a2-840a9845edba","ios":"levelo://app?vid=4be772b0-70fb-4565-a7a2-840a9845edba"},"vehicle_type_id":"4","last_reported":1774217661,"current_range_meters":6400,"station_id":"","pricing_plan_id":"cebpf4jnsgd1na2vs0mg"},{"bike_id":"fcfa3e4d-7cf3-4d27-bd73-136b9ec1b8ca","system_id":"levelo_inurba_marseille","lat":43.2501,"lon":5.38916,"is_reserved":false,"is_disabled":true,"rental_uris":{"android":"levelo://app?vid=fcfa3e4d-7cf3-4d27-bd73-136b9ec1b8ca","ios":"levelo://app?vid=fcfa3e4d-7cf3-4d27-bd73-136b9ec1b8ca"},"vehicle_type_id":"4","last_reported":1774217661,"current_range_meters":6400,"station_id":"ce4bhgp2rcd13ifvqfd0","pricing_plan_id":"cebpf4jnsgd1na2vs0mg"},{"bike_id":"c6b8c288-7f12-44f1-b184-782c8c64e9d9","system_id":"levelo_inurba_marseille","lat":43.30908,"lon":5.36867,"is_reserved":false,"is_disabled":false,"rental_uris":{"android":"levelo://app?vid=c6b8c288-7f12-44f1-b184-782c8c64e9d9","ios":"levelo://app?vid=c6b8c288-7f12-44f1-b184-782c8c64e9d9"},"vehicle_type_id":"4","last_reported":1774217661,"current_range_meters":6400,"station_id":"ce4bgn92rcd13ifvqbvg","pricing_plan_id":"cebpf4jnsgd1na2vs0mg"},{"bike_id":"f0832cba-2ffd-4074-8401-583b24e85573","system_id":"levelo_inurba_marseille","lat":43.28494,"lon":5.38431,"is_reserved":false,"is_disabled":false,"rental_uris":{"android":"levelo://app?vid=f0832cba-2ffd-4074-8401-583b24e85573","ios":"levelo://app?vid=f0832cba-2ffd-4074-8401-583b24e85573"},"vehicle_type_id":"4","last_reported":1774217661,"current_range_meters":6400,"station_id":"ce4bh512rcd13ifvqe3g","pricing_plan_id":"cebpf4jnsgd1na2vs0mg"},{"bike_id":"4dbcbb21-40ca-4c05-9c4d-91c43c42066a","system_id":"levelo_inurba_marseille","lat":43.26918,"lon":5.42034,"is_reserved":false,"is_disabled":false,"rental_uris":{"android":"levelo://app?vid=4dbcbb21-40ca-4c05-9c4d-91c43c42066a","ios":"levelo://app?vid=4dbcbb21-40ca-4c05-9c4d-91c43c42066a"},"vehicle_type_id":"4","last_reported":1774217661,"current_range_meters":6400,"station_id":"","pricing_plan_id":"cebpf4jnsgd1na2vs0mg"},{"bike_id":"ecfaeba0-eb3e-4890-8290-078f45c79c6a","system_id":"levelo_inurba_marseille","lat":43.29731,"lon":5.36433,"is_reserved":false,"is_disabled":false,"rental_uris":{"android":"levelo://app?vid=ecfaeba0-eb3e-4890-8290-078f45c79c6a","ios":"levelo://app?vid=ecfaeba0-eb3e-4890-8290-078f45c79c6a"},"vehicle_type_id":"4","last_reported":1774217661,"current_range_meters":6400,"station_id":"","pricing_plan_id":"cebpf4jnsgd1na2vs0mg"},{"bike_id":"d40eaa64-a3b8-4e26-8b08-a6febafe1391","system_id":"levelo_inurba_marseille","lat":43.29774,"lon":5.37086,"is_reserved":false,"is_disabled":false,"rental_uris":{"android":"levelo://app?vid=d40eaa64-a3b8-4e26-8b08-a6febafe1391","ios":"levelo://app?vid=d40eaa64-a3b8-4e26-8b08-a6febafe1391"},"vehicle_type_id":"4","last_reported":1774217661,"current_range_meters":6800,"station_id":"ce4bgop2rcd13ifvqc1g","pricing_plan_id":"cebpf4jnsgd1na2vs0mg"},{"bike_id":"76b26924-278b-4413-bc71-94244ae001aa","system_id":"levelo_inurba_marseille","lat":43.31699,"lon":5.40443,"is_reserved":false,"is_disabled":false,"rental_uris":{"android":"levelo://app?vid=76b26924-278b-4413-bc71-94244ae001aa","ios":"levelo://app?vid=76b26924-278b-4413-bc71-94244ae001aa"},"vehicle_type_id":"4","last_reported":1774217661,"current_range_meters":6800,"station_id":"ce4bh012rcd13ifvqd00","pricing_plan_id":"cebpf4jnsgd1na2vs0mg"},{"bike_id":"348b028b-7113-4df9-8c29-432c15b7b280","system_id":"levelo_inurba_marseille","lat":43.23959,"lon":5.36634,"is_reserved":false,"is_disabled":true,"rental_uris":{"android":"levelo://app?vid=348b028b-7113-4df9-8c29-432c15b7b280","ios":"levelo://app?vid=348b028b-7113-4df9-8c29-432c15b7b280"},"vehicle_type_id":"4","last_reported":1774217661,"current_range_meters":6800,"station_id":"ce4bhi12rcd13ifvqfp0","pricing_plan_id":"cebpf4jnsgd1na2vs0mg"},{"bike_id":"cc777a7e-f3d4-4026-819d-66c6f1a5d2b6","system_id":"levelo_inurba_marseille","lat":43.28896,"lon":5.43344,"is_reserved":false,"is_disabled":false,"rental_uris":{"android":"levelo://app?vid=cc777a7e-f3d4-4026-819d-66c6f1a5d2b6","ios":"levelo://app?vid=cc777a7e-f3d4-4026-819d-66c6f1a5d2b6"},"vehicle_type_id":"4","last_reported":1774217661,"current_range_meters":6800,"station_id":"","pricing_plan_id":"cebpf4jnsgd1na2vs0mg"},{"bike_id":"1182e6ca-0fa4-4bde-b010-4b71c852ea66","system_id":"levelo_inurba_marseille","lat":43.24168,"lon":5.36404,"is_reserved":false,"is_disabled":false,"rental_uris":{"android":"levelo://app?vid=1182e6ca-0fa4-4bde-b010-4b71c852ea66","ios":"levelo://app?vid=1182e6ca-0fa4-4bde-b010-4b71c852ea66"},"vehicle_type_id":"4","last_reported":1774217661,"current_range_meters":6800,"station_id":"cpo36qri1sfpv3e86is0","pricing_plan_id":"cebpf4jnsgd1na2vs0mg"},{"bike_id":"1251245c-8245-4039-a13b-eaa939230dc3","system_id":"levelo_inurba_marseille","lat":43.25013,"lon":5.3892,"is_reserved":false,"is_disabled":false,"rental_uris":{"android":"levelo://app?vid=1251245c-8245-4039-a13b-eaa939230dc3","ios":"levelo://app?vid=1251245c-8245-4039-a13b-eaa939230dc3"},"vehicle_type_id":"4","last_reported":1774217661,"current_range_meters":6800,"station_id":"ce4bhgp2rcd13ifvqfd0","pricing_plan_id":"cebpf4jnsgd1na2vs0mg"},{"bike_id":"b8282293-9e5d-44c0-961a-c4ad312c5b39","system_id":"levelo_inurba_marseille","lat":43.28483,"lon":5.4839,"is_reserved":false,"is_disabled":false,"rental_uris":{"android":"levelo://app?vid=b8282293-9e5d-44c0-961a-c4ad312c5b39","ios":"levelo://app?vid=b8282293-9e5d-44c0-961a-c4ad312c5b39"},"vehicle_type_id":"4","last_reported":1774217661,"current_range_meters":6800,"station_id":"","pricing_plan_id":"cebpf4jnsgd1na2vs0mg"},{"bike_id":"b6475f89-ba56-4017-b5a1-7c15431967a6","system_id":"levelo_inurba_marseille","lat":43.29272,"lon":5.36838,"is_reserved":false,"is_disabled":false,"rental_uris":{"android":"levelo://app?vid=b6475f89-ba56-4017-b5a1-7c15431967a6","ios":"levelo://app?vid=b6475f89-ba56-4017-b5a1-7c15431967a6"},"vehicle_type_id":"4","last_reported":1774217661,"current_range_meters":6800,"station_id":"ce4bhbp2rcd13ifvqesg","pricing_plan_id":"cebpf4jnsgd1na2vs0mg"},{"bike_id":"a1614e97-0fde-4b88-a19f-d517decb1f27","system_id":"levelo_inurba_marseille","lat":43.32097,"lon":5.36808,"is_reserved":false,"is_disabled":false,"rental_uris":{"android":"levelo://app?vid=a1614e97-0fde-4b88-a19f-d517decb1f27","ios":"levelo://app?vid=a1614e97-0fde-4b88-a19f-d517decb1f27"},"vehicle_type_id":"4","last_reported":1774217661,"current_range_meters":6800,"station_id":"ce4bhrh2rcd13ifvqhug","pricing_plan_id":"cebpf4jnsgd1na2vs0mg"},{"bike_id":"0273712f-17e9-48aa-9e69-0ac0ce214834","system_id":"levelo_inurba_marseille","lat":43.25349,"lon":5.4217,"is_reserved":false,"is_disabled":false,"rental_uris":{"android":"levelo://app?vid=0273712f-17e9-48aa-9e69-0ac0ce214834","ios":"levelo://app?vid=0273712f-17e9-48aa-9e69-0ac0ce214834"},"vehicle_type_id":"4","last_reported":1774217661,"current_range_meters":6800,"station_id":"st_d2m65c5bi1j21697t3ng","pricing_plan_id":"cebpf4jnsgd1na2vs0mg"},{"bike_id":"8294aced-9d8f-401e-9e74-4555a1438aad","system_id":"levelo_inurba_marseille","lat":43.31579,"lon":5.44542,"is_reserved":false,"is_disabled":false,"rental_uris":{"android":"levelo://app?vid=8294aced-9d8f-401e-9e74-4555a1438aad","ios":"levelo://app?vid=8294aced-9d8f-401e-9e74-4555a1438aad"},"vehicle_type_id":"4","last_reported":1774217661,"current_range_meters":6800,"station_id":"","pricing_plan_id":"cebpf4jnsgd1na2vs0mg"},{"bike_id":"727a7cec-c0a4-42ee-b13e-1092ce84e6ac","system_id":"levelo_inurba_marseille","lat":43.25498,"lon":5.37646,"is_reserved":false,"is_disabled":true,"rental_uris":{"android":"levelo://app?vid=727a7cec-c0a4-42ee-b13e-1092ce84e6ac","ios":"levelo://app?vid=727a7cec-c0a4-42ee-b13e-1092ce84e6ac"},"vehicle_type_id":"4","last_reported":1774217661,"current_range_meters":6800,"station_id":"ce4bhh12rcd13ifvqff0","pricing_plan_id":"cebpf4jnsgd1na2vs0mg"},{"bike_id":"5a901877-c7bc-49e7-9cf1-458737e21c89","system_id":"levelo_inurba_marseille","lat":43.25075,"lon":5.41248,"is_reserved":false,"is_disabled":false,"rental_uris":{"android":"levelo://app?vid=5a901877-c7bc-49e7-9cf1-458737e21c89","ios":"levelo://app?vid=5a901877-c7bc-49e7-9cf1-458737e21c89"},"vehicle_type_id":"4","last_reported":1774217661,"current_range_meters":6800,"station_id":"","pricing_plan_id":"cebpf4jnsgd1na2vs0mg"},{"bike_id":"76e3202f-50fd-4567-8d90-9ecb0c2a894c","system_id":"levelo_inurba_marseille","lat":43.30127,"lon":5.43116,"is_reserved":false,"is_disabled":false,"rental_uris":{"android":"levelo://app?vid=76e3202f-50fd-4567-8d90-9ecb0c2a894c","ios":"levelo://app?vid=76e3202f-50fd-4567-8d90-9ecb0c2a894c"},"vehicle_type_id":"4","last_reported":1774217661,"current_range_meters":6800,"station_id":"st_d3js3co5814s73ftftug","pricing_plan_id":"cebpf4jnsgd1na2vs0mg"},{"bike_id":"2551d31a-32a0-4e34-9548-cb8a3c919e9e","system_id":"levelo_inurba_marseille","lat":43.30049,"lon":5.36872,"is_reserved":false,"is_disabled":false,"rental_uris":{"android":"levelo://app?vid=2551d31a-32a0-4e34-9548-cb8a3c919e9e","ios":"levelo://app?vid=2551d31a-32a0-4e34-9548-cb8a3c919e9e"},"vehicle_type_id":"4","last_reported":1774217661,"current_range_meters":7200,"station_id":"","pricing_plan_id":"cebpf4jnsgd1na2vs0mg"},{"bike_id":"492ae306-1625-47fa-bc1f-db162bff558f","system_id":"levelo_inurba_marseille","lat":43.24575,"lon":5.39523,"is_reserved":false,"is_disabled":false,"rental_uris":{"android":"levelo://app?vid=492ae306-1625-47fa-bc1f-db162bff558f","ios":"levelo://app?vid=492ae306-1625-47fa-bc1f-db162bff558f"},"vehicle_type_id":"4","last_reported":1774217661,"current_range_meters":7200,"station_id":"ce4bhlp2rcd13ifvqgjg","pricing_plan_id":"cebpf4jnsgd1na2vs0mg"},{"bike_id":"f31af7da-bcce-4b34-9ba7-f01b9da1af25","system_id":"levelo_inurba_marseille","lat":43.24635,"lon":5.4349,"is_reserved":false,"is_disabled":true,"rental_uris":{"android":"levelo://app?vid=f31af7da-bcce-4b34-9ba7-f01b9da1af25","ios":"levelo://app?vid=f31af7da-bcce-4b34-9ba7-f01b9da1af25"},"vehicle_type_id":"4","last_reported":1774217661,"current_range_meters":7200,"station_id":"","pricing_plan_id":"cebpf4jnsgd1na2vs0mg"},{"bike_id":"73a3b26e-3a6d-4e68-b7f8-014d26b23e9a","system_id":"levelo_inurba_marseille","lat":43.31052,"lon":5.37867,"is_reserved":false,"is_disabled":false,"rental_uris":{"android":"levelo://app?vid=73a3b26e-3a6d-4e68-b7f8-014d26b23e9a","ios":"levelo://app?vid=73a3b26e-3a6d-4e68-b7f8-014d26b23e9a"},"vehicle_type_id":"4","last_reported":1774217661,"current_range_meters":7200,"station_id":"","pricing_plan_id":"cebpf4jnsgd1na2vs0mg"},{"bike_id":"97794810-20fe-43bd-9187-99d26a82b19b","system_id":"levelo_inurba_marseille","lat":43.30315,"lon":5.36897,"is_reserved":false,"is_disabled":false,"rental_uris":{"android":"levelo://app?vid=97794810-20fe-43bd-9187-99d26a82b19b","ios":"levelo://app?vid=97794810-20fe-43bd-9187-99d26a82b19b"},"vehicle_type_id":"4","last_reported":1774217661,"current_range_meters":7200,"station_id":"ce4bgqh2rcd13ifvqc5g","pricing_plan_id":"cebpf4jnsgd1na2vs0mg"},{"bike_id":"bb014a77-b4dd-49b3-80b4-21c6e7b2c2fe","system_id":"levelo_inurba_marseille","lat":43.27324,"lon":5.39093,"is_reserved":false,"is_disabled":true,"rental_uris":{"android":"levelo://app?vid=bb014a77-b4dd-49b3-80b4-21c6e7b2c2fe","ios":"levelo://app?vid=bb014a77-b4dd-49b3-80b4-21c6e7b2c2fe"},"vehicle_type_id":"4","last_reported":1774217661,"current_range_meters":7200,"station_id":"ce4bhgp2rcd13ifvqfe0","pricing_plan_id":"cebpf4jnsgd1na2vs0mg"},{"bike_id":"f26513af-706d-43cc-956c-9102569421f3","system_id":"levelo_inurba_marseille","lat":43.2467,"lon":5.39205,"is_reserved":false,"is_disabled":false,"rental_uris":{"android":"levelo://app?vid=f26513af-706d-43cc-956c-9102569421f3","ios":"levelo://app?vid=f26513af-706d-43cc-956c-9102569421f3"},"vehicle_type_id":"4","last_reported":1774217661,"current_range_meters":7200,"station_id":"","pricing_plan_id":"cebpf4jnsgd1na2vs0mg"},{"bike_id":"c2532941-191e-4086-9727-be0e60ffa4a0","system_id":"levelo_inurba_marseille","lat":43.29777,"lon":5.38539,"is_reserved":false,"is_disabled":false,"rental_uris":{"android":"levelo://app?vid=c2532941-191e-4086-9727-be0e60ffa4a0","ios":"levelo://app?vid=c2532941-191e-4086-9727-be0e60ffa4a0"},"vehicle_type_id":"4","last_reported":1774217661,"current_range_meters":7200,"station_id":"","pricing_plan_id":"cebpf4jnsgd1na2vs0mg"},{"bike_id":"c8bce134-97c4-4426-b939-85d1b3b365e4","system_id":"levelo_inurba_marseille","lat":43.29241,"lon":5.40896,"is_reserved":false,"is_disabled":false,"rental_uris":{"android":"levelo://app?vid=c8bce134-97c4-4426-b939-85d1b3b365e4","ios":"levelo://app?vid=c8bce134-97c4-4426-b939-85d1b3b365e4"},"vehicle_type_id":"4","last_reported":1774217661,"current_range_meters":7200,"station_id":"ce4bh192rcd13ifvqdc0","pricing_plan_id":"cebpf4jnsgd1na2vs0mg"},{"bike_id":"59f675c7-3300-4b5c-9b6c-736612a162ac","system_id":"levelo_inurba_marseille","lat":43.31347,"lon":5.39731,"is_reserved":false,"is_disabled":false,"rental_uris":{"android":"levelo://app?vid=59f675c7-3300-4b5c-9b6c-736612a162ac","ios":"levelo://app?vid=59f675c7-3300-4b5c-9b6c-736612a162ac"},"vehicle_type_id":"4","last_reported":1774217661,"current_range_meters":8000,"station_id":"ce4bgvp2rcd13ifvqcu0","pricing_plan_id":"cebpf4jnsgd1na2vs0mg"},{"bike_id":"06a55998-6b84-44ec-8fec-256dcbc64b4e","system_id":"levelo_inurba_marseille","lat":43.2696,"lon":5.40273,"is_reserved":false,"is_disabled":false,"rental_uris":{"android":"levelo://app?vid=06a55998-6b84-44ec-8fec-256dcbc64b4e","ios":"levelo://app?vid=06a55998-6b84-44ec-8fec-256dcbc64b4e"},"vehicle_type_id":"4","last_reported":1774217661,"current_range_meters":8000,"station_id":"cjm6bp8fraef2m0cb0m0","pricing_plan_id":"cebpf4jnsgd1na2vs0mg"},{"bike_id":"be27c081-d6c0-4feb-a587-965600a5f4f7","system_id":"levelo_inurba_marseille","lat":43.26401,"lon":5.41065,"is_reserved":false,"is_disabled":false,"rental_uris":{"android":"levelo://app?vid=be27c081-d6c0-4feb-a587-965600a5f4f7","ios":"levelo://app?vid=be27c081-d6c0-4feb-a587-965600a5f4f7"},"vehicle_type_id":"4","last_reported":1774217661,"current_range_meters":8000,"station_id":"st_d4e5ca6na9uc73bfl5fg","pricing_plan_id":"cebpf4jnsgd1na2vs0mg"},{"bike_id":"bf370da2-9793-4874-9a08-205575cb1266","system_id":"levelo_inurba_marseille","lat":43.29586,"lon":5.37511,"is_reserved":false,"is_disabled":false,"rental_uris":{"android":"levelo://app?vid=bf370da2-9793-4874-9a08-205575cb1266","ios":"levelo://app?vid=bf370da2-9793-4874-9a08-205575cb1266"},"vehicle_type_id":"4","last_reported":1774217661,"current_range_meters":8000,"station_id":"ce4bgh92rcd13ifvqb50","pricing_plan_id":"cebpf4jnsgd1na2vs0mg"},{"bike_id":"4696be1a-03ad-459b-acfa-2ea1b934be2f","system_id":"levelo_inurba_marseille","lat":43.29253,"lon":5.40907,"is_reserved":false,"is_disabled":false,"rental_uris":{"android":"levelo://app?vid=4696be1a-03ad-459b-acfa-2ea1b934be2f","ios":"levelo://app?vid=4696be1a-03ad-459b-acfa-2ea1b934be2f"},"vehicle_type_id":"4","last_reported":1774217661,"current_range_meters":8000,"station_id":"ce4bh192rcd13ifvqdc0","pricing_plan_id":"cebpf4jnsgd1na2vs0mg"},{"bike_id":"0dc294e0-1f73-46fa-89e8-0f67671a83c2","system_id":"levelo_inurba_marseille","lat":43.29161,"lon":5.37155,"is_reserved":false,"is_disabled":true,"rental_uris":{"android":"levelo://app?vid=0dc294e0-1f73-46fa-89e8-0f67671a83c2","ios":"levelo://app?vid=0dc294e0-1f73-46fa-89e8-0f67671a83c2"},"vehicle_type_id":"4","last_reported":1774217661,"current_range_meters":8000,"station_id":"ce4bha92rcd13ifvqeh0","pricing_plan_id":"cebpf4jnsgd1na2vs0mg"},{"bike_id":"5b5f1570-a668-411d-a2c3-c6754b5a14df","system_id":"levelo_inurba_marseille","lat":43.31721,"lon":5.43712,"is_reserved":false,"is_disabled":false,"rental_uris":{"android":"levelo://app?vid=5b5f1570-a668-411d-a2c3-c6754b5a14df","ios":"levelo://app?vid=5b5f1570-a668-411d-a2c3-c6754b5a14df"},"vehicle_type_id":"4","last_reported":1774217661,"current_range_meters":8000,"station_id":"ce4bhp92rcd13ifvqhcg","pricing_plan_id":"cebpf4jnsgd1na2vs0mg"},{"bike_id":"cf960eae-b383-41a4-a5f7-d4e246ad8ace","system_id":"levelo_inurba_marseille","lat":43.30608,"lon":5.37233,"is_reserved":false,"is_disabled":false,"rental_uris":{"android":"levelo://app?vid=cf960eae-b383-41a4-a5f7-d4e246ad8ace","ios":"levelo://app?vid=cf960eae-b383-41a4-a5f7-d4e246ad8ace"},"vehicle_type_id":"4","last_reported":1774217661,"current_range_meters":8000,"station_id":"ce4bgqh2rcd13ifvqc4g","pricing_plan_id":"cebpf4jnsgd1na2vs0mg"},{"bike_id":"0d51ac66-90c2-4072-839e-168f5ef50c8f","system_id":"levelo_inurba_marseille","lat":43.305483,"lon":5.367317,"is_reserved":false,"is_disabled":false,"rental_uris":{"android":"levelo://app?vid=0d51ac66-90c2-4072-839e-168f5ef50c8f","ios":"levelo://app?vid=0d51ac66-90c2-4072-839e-168f5ef50c8f"},"vehicle_type_id":"4","last_reported":1774217661,"current_range_meters":8000,"station_id":"st_d4a7ka997mjs738ck50g","pricing_plan_id":"cebpf4jnsgd1na2vs0mg"},{"bike_id":"e29fa5ae-14c6-4a72-a28a-f5d7dff9bf28","system_id":"levelo_inurba_marseille","lat":43.3296,"lon":5.3667,"is_reserved":false,"is_disabled":false,"rental_uris":{"android":"levelo://app?vid=e29fa5ae-14c6-4a72-a28a-f5d7dff9bf28","ios":"levelo://app?vid=e29fa5ae-14c6-4a72-a28a-f5d7dff9bf28"},"vehicle_type_id":"4","last_reported":1774217661,"current_range_meters":8000,"station_id":"","pricing_plan_id":"cebpf4jnsgd1na2vs0mg"},{"bike_id":"1b90cb8f-5376-4467-8f30-7080f04519ef","system_id":"levelo_inurba_marseille","lat":43.23889,"lon":5.37485,"is_reserved":false,"is_disabled":true,"rental_uris":{"android":"levelo://app?vid=1b90cb8f-5376-4467-8f30-7080f04519ef","ios":"levelo://app?vid=1b90cb8f-5376-4467-8f30-7080f04519ef"},"vehicle_type_id":"4","last_reported":1774217661,"current_range_meters":8400,"station_id":"st_d6sm7csbq4hs73f8fpjg","pricing_plan_id":"cebpf4jnsgd1na2vs0mg"},{"bike_id":"d928d6a0-ac04-4448-bd38-9d352511fe30","system_id":"levelo_inurba_marseille","lat":43.25339,"lon":5.42173,"is_reserved":false,"is_disabled":false,"rental_uris":{"android":"levelo://app?vid=d928d6a0-ac04-4448-bd38-9d352511fe30","ios":"levelo://app?vid=d928d6a0-ac04-4448-bd38-9d352511fe30"},"vehicle_type_id":"4","last_reported":1774217661,"current_range_meters":8400,"station_id":"st_d2m65c5bi1j21697t3ng","pricing_plan_id":"cebpf4jnsgd1na2vs0mg"},{"bike_id":"61efe9a0-0d5c-4060-b440-e1c6f3374585","system_id":"levelo_inurba_marseille","lat":43.28482,"lon":5.48393,"is_reserved":false,"is_disabled":true,"rental_uris":{"android":"levelo://app?vid=61efe9a0-0d5c-4060-b440-e1c6f3374585","ios":"levelo://app?vid=61efe9a0-0d5c-4060-b440-e1c6f3374585"},"vehicle_type_id":"4","last_reported":1774217661,"current_range_meters":8400,"station_id":"","pricing_plan_id":"cebpf4jnsgd1na2vs0mg"},{"bike_id":"8fe420e0-6dec-41b2-9eea-e30417641a3b","system_id":"levelo_inurba_marseille","lat":43.23386,"lon":5.41249,"is_reserved":false,"is_disabled":false,"rental_uris":{"android":"levelo://app?vid=8fe420e0-6dec-41b2-9eea-e30417641a3b","ios":"levelo://app?vid=8fe420e0-6dec-41b2-9eea-e30417641a3b"},"vehicle_type_id":"4","last_reported":1774217661,"current_range_meters":8400,"station_id":"","pricing_plan_id":"cebpf4jnsgd1na2vs0mg"},{"bike_id":"a7450a94-8cb4-41f0-9643-4a308178b762","system_id":"levelo_inurba_marseille","lat":43.313269,"lon":5.396816,"is_reserved":false,"is_disabled":false,"rental_uris":{"android":"levelo://app?vid=a7450a94-8cb4-41f0-9643-4a308178b762","ios":"levelo://app?vid=a7450a94-8cb4-41f0-9643-4a308178b762"},"vehicle_type_id":"4","last_reported":1774217661,"current_range_meters":8400,"station_id":"ce4bgvp2rcd13ifvqcu0","pricing_plan_id":"cebpf4jnsgd1na2vs0mg"},{"bike_id":"b3a01e08-d6e3-42c8-92ba-e15566b55c57","system_id":"levelo_inurba_marseille","lat":43.25941,"lon":5.40872,"is_reserved":false,"is_disabled":true,"rental_uris":{"android":"levelo://app?vid=b3a01e08-d6e3-42c8-92ba-e15566b55c57","ios":"levelo://app?vid=b3a01e08-d6e3-42c8-92ba-e15566b55c57"},"vehicle_type_id":"4","last_reported":1774217661,"current_range_meters":8400,"station_id":"ce4bhm92rcd13ifvqglg","pricing_plan_id":"cebpf4jnsgd1na2vs0mg"},{"bike_id":"ebde9368-c67c-463e-a604-75f89826b908","system_id":"levelo_inurba_marseille","lat":43.2964,"lon":5.39827,"is_reserved":false,"is_disabled":false,"rental_uris":{"android":"levelo://app?vid=ebde9368-c67c-463e-a604-75f89826b908","ios":"levelo://app?vid=ebde9368-c67c-463e-a604-75f89826b908"},"vehicle_type_id":"4","last_reported":1774217661,"current_range_meters":8400,"station_id":"","pricing_plan_id":"cebpf4jnsgd1na2vs0mg"},{"bike_id":"cf2b5c97-ce5a-429d-a47d-e52be80a15ff","system_id":"levelo_inurba_marseille","lat":43.2467,"lon":5.40073,"is_reserved":false,"is_disabled":false,"rental_uris":{"android":"levelo://app?vid=cf2b5c97-ce5a-429d-a47d-e52be80a15ff","ios":"levelo://app?vid=cf2b5c97-ce5a-429d-a47d-e52be80a15ff"},"vehicle_type_id":"4","last_reported":1774217661,"current_range_meters":8400,"station_id":"","pricing_plan_id":"cebpf4jnsgd1na2vs0mg"},{"bike_id":"92dd9d77-4896-43b1-971c-28499a0b045d","system_id":"levelo_inurba_marseille","lat":43.28239,"lon":5.40832,"is_reserved":false,"is_disabled":false,"rental_uris":{"android":"levelo://app?vid=92dd9d77-4896-43b1-971c-28499a0b045d","ios":"levelo://app?vid=92dd9d77-4896-43b1-971c-28499a0b045d"},"vehicle_type_id":"4","last_reported":1774217661,"current_range_meters":8400,"station_id":"","pricing_plan_id":"cebpf4jnsgd1na2vs0mg"},{"bike_id":"3a5ba4a4-1cd4-45b4-a774-5fec89f7240f","system_id":"levelo_inurba_marseille","lat":43.2847,"lon":5.48389,"is_reserved":false,"is_disabled":false,"rental_uris":{"android":"levelo://app?vid=3a5ba4a4-1cd4-45b4-a774-5fec89f7240f","ios":"levelo://app?vid=3a5ba4a4-1cd4-45b4-a774-5fec89f7240f"},"vehicle_type_id":"4","last_reported":1774217661,"current_range_meters":8400,"station_id":"st_d3svhcjqgbts73a3dn0g","pricing_plan_id":"cebpf4jnsgd1na2vs0mg"},{"bike_id":"7fc84e7f-16e2-4d18-8d28-12bb10ae662a","system_id":"levelo_inurba_marseille","lat":43.31446,"lon":5.44545,"is_reserved":false,"is_disabled":false,"rental_uris":{"android":"levelo://app?vid=7fc84e7f-16e2-4d18-8d28-12bb10ae662a","ios":"levelo://app?vid=7fc84e7f-16e2-4d18-8d28-12bb10ae662a"},"vehicle_type_id":"4","last_reported":1774217661,"current_range_meters":8800,"station_id":"","pricing_plan_id":"cebpf4jnsgd1na2vs0mg"},{"bike_id":"73992fa9-20af-463e-9123-1fcf8e33a8cd","system_id":"levelo_inurba_marseille","lat":43.30138,"lon":5.43104,"is_reserved":false,"is_disabled":false,"rental_uris":{"android":"levelo://app?vid=73992fa9-20af-463e-9123-1fcf8e33a8cd","ios":"levelo://app?vid=73992fa9-20af-463e-9123-1fcf8e33a8cd"},"vehicle_type_id":"4","last_reported":1774217661,"current_range_meters":8800,"station_id":"st_d3js3co5814s73ftftug","pricing_plan_id":"cebpf4jnsgd1na2vs0mg"},{"bike_id":"41068ca7-3036-4528-9526-26d09af62506","system_id":"levelo_inurba_marseille","lat":43.32111,"lon":5.36782,"is_reserved":false,"is_disabled":false,"rental_uris":{"android":"levelo://app?vid=41068ca7-3036-4528-9526-26d09af62506","ios":"levelo://app?vid=41068ca7-3036-4528-9526-26d09af62506"},"vehicle_type_id":"4","last_reported":1774217661,"current_range_meters":8800,"station_id":"ce4bhrh2rcd13ifvqhug","pricing_plan_id":"cebpf4jnsgd1na2vs0mg"},{"bike_id":"1c748e95-4785-483c-bc9a-1cd07f24587e","system_id":"levelo_inurba_marseille","lat":43.279704,"lon":5.38751,"is_reserved":false,"is_disabled":false,"rental_uris":{"android":"levelo://app?vid=1c748e95-4785-483c-bc9a-1cd07f24587e","ios":"levelo://app?vid=1c748e95-4785-483c-bc9a-1cd07f24587e"},"vehicle_type_id":"4","last_reported":1774217661,"current_range_meters":8800,"station_id":"","pricing_plan_id":"cebpf4jnsgd1na2vs0mg"},{"bike_id":"3be498d0-b77d-41d8-b080-4b1cbeb602bd","system_id":"levelo_inurba_marseille","lat":43.30551,"lon":5.38436,"is_reserved":false,"is_disabled":false,"rental_uris":{"android":"levelo://app?vid=3be498d0-b77d-41d8-b080-4b1cbeb602bd","ios":"levelo://app?vid=3be498d0-b77d-41d8-b080-4b1cbeb602bd"},"vehicle_type_id":"4","last_reported":1774217661,"current_range_meters":8800,"station_id":"ce4bgg92rcd13ifvqb30","pricing_plan_id":"cebpf4jnsgd1na2vs0mg"},{"bike_id":"3f14d548-9e51-4923-8a9f-7ffc65d9c85d","system_id":"levelo_inurba_marseille","lat":43.28919,"lon":5.38397,"is_reserved":false,"is_disabled":true,"rental_uris":{"android":"levelo://app?vid=3f14d548-9e51-4923-8a9f-7ffc65d9c85d","ios":"levelo://app?vid=3f14d548-9e51-4923-8a9f-7ffc65d9c85d"},"vehicle_type_id":"4","last_reported":1774217661,"current_range_meters":8800,"station_id":"ce4bh612rcd13ifvqe6g","pricing_plan_id":"cebpf4jnsgd1na2vs0mg"},{"bike_id":"d6a92379-a83b-4d16-bc9b-01277d622909","system_id":"levelo_inurba_marseille","lat":43.32113,"lon":5.36769,"is_reserved":false,"is_disabled":false,"rental_uris":{"android":"levelo://app?vid=d6a92379-a83b-4d16-bc9b-01277d622909","ios":"levelo://app?vid=d6a92379-a83b-4d16-bc9b-01277d622909"},"vehicle_type_id":"4","last_reported":1774217661,"current_range_meters":8800,"station_id":"ce4bhrh2rcd13ifvqhug","pricing_plan_id":"cebpf4jnsgd1na2vs0mg"},{"bike_id":"b0171302-9d19-42a8-b85d-b3c8cdec90a4","system_id":"levelo_inurba_marseille","lat":43.29583,"lon":5.3676,"is_reserved":false,"is_disabled":true,"rental_uris":{"android":"levelo://app?vid=b0171302-9d19-42a8-b85d-b3c8cdec90a4","ios":"levelo://app?vid=b0171302-9d19-42a8-b85d-b3c8cdec90a4"},"vehicle_type_id":"4","last_reported":1774217661,"current_range_meters":8800,"station_id":"ce4bgph2rcd13ifvqc2g","pricing_plan_id":"cebpf4jnsgd1na2vs0mg"},{"bike_id":"fa96f011-4018-42e8-98d7-f9ebe7a4e6a2","system_id":"levelo_inurba_marseille","lat":43.30546,"lon":5.36535,"is_reserved":false,"is_disabled":false,"rental_uris":{"android":"levelo://app?vid=fa96f011-4018-42e8-98d7-f9ebe7a4e6a2","ios":"levelo://app?vid=fa96f011-4018-42e8-98d7-f9ebe7a4e6a2"},"vehicle_type_id":"4","last_reported":1774217661,"current_range_meters":8800,"station_id":"ce4bgs12rcd13ifvqcag","pricing_plan_id":"cebpf4jnsgd1na2vs0mg"},{"bike_id":"269d2d70-366c-4e00-8307-4303b7d6e591","system_id":"levelo_inurba_marseille","lat":43.24642,"lon":5.4166,"is_reserved":false,"is_disabled":false,"rental_uris":{"android":"levelo://app?vid=269d2d70-366c-4e00-8307-4303b7d6e591","ios":"levelo://app?vid=269d2d70-366c-4e00-8307-4303b7d6e591"},"vehicle_type_id":"4","last_reported":1774217661,"current_range_meters":8800,"station_id":"","pricing_plan_id":"cebpf4jnsgd1na2vs0mg"},{"bike_id":"6a116e03-27be-4007-95a9-3c707554e9e1","system_id":"levelo_inurba_marseille","lat":43.25344,"lon":5.42172,"is_reserved":false,"is_disabled":true,"rental_uris":{"android":"levelo://app?vid=6a116e03-27be-4007-95a9-3c707554e9e1","ios":"levelo://app?vid=6a116e03-27be-4007-95a9-3c707554e9e1"},"vehicle_type_id":"4","last_reported":1774217661,"current_range_meters":8800,"station_id":"st_d2m65c5bi1j21697t3ng","pricing_plan_id":"cebpf4jnsgd1na2vs0mg"},{"bike_id":"dac3590a-b4b5-445b-9d2d-113c17baa295","system_id":"levelo_inurba_marseille","lat":43.25089,"lon":5.39519,"is_reserved":false,"is_disabled":true,"rental_uris":{"android":"levelo://app?vid=dac3590a-b4b5-445b-9d2d-113c17baa295","ios":"levelo://app?vid=dac3590a-b4b5-445b-9d2d-113c17baa295"},"vehicle_type_id":"4","last_reported":1774217661,"current_range_meters":8800,"station_id":"ce4bhm12rcd13ifvqgkg","pricing_plan_id":"cebpf4jnsgd1na2vs0mg"},{"bike_id":"f0388167-dcc0-435a-837c-5eb0c48f50c0","system_id":"levelo_inurba_marseille","lat":43.28737,"lon":5.46713,"is_reserved":false,"is_disabled":false,"rental_uris":{"android":"levelo://app?vid=f0388167-dcc0-435a-837c-5eb0c48f50c0","ios":"levelo://app?vid=f0388167-dcc0-435a-837c-5eb0c48f50c0"},"vehicle_type_id":"4","last_reported":1774217661,"current_range_meters":8800,"station_id":"st_d6tc3vkotcvc738tfjhg","pricing_plan_id":"cebpf4jnsgd1na2vs0mg"},{"bike_id":"c13a6b3c-c14e-4ecc-9460-c79bd6a0f398","system_id":"levelo_inurba_marseille","lat":43.29964,"lon":5.41322,"is_reserved":false,"is_disabled":false,"rental_uris":{"android":"levelo://app?vid=c13a6b3c-c14e-4ecc-9460-c79bd6a0f398","ios":"levelo://app?vid=c13a6b3c-c14e-4ecc-9460-c79bd6a0f398"},"vehicle_type_id":"4","last_reported":1774217661,"current_range_meters":8800,"station_id":"ce4bhp12rcd13ifvqh9g","pricing_plan_id":"cebpf4jnsgd1na2vs0mg"},{"bike_id":"3e86872d-0403-4619-842e-1549b9470291","system_id":"levelo_inurba_marseille","lat":43.27997,"lon":5.40009,"is_reserved":false,"is_disabled":true,"rental_uris":{"android":"levelo://app?vid=3e86872d-0403-4619-842e-1549b9470291","ios":"levelo://app?vid=3e86872d-0403-4619-842e-1549b9470291"},"vehicle_type_id":"4","last_reported":1774217661,"current_range_meters":8800,"station_id":"ce4bho92rcd13ifvqh4g","pricing_plan_id":"cebpf4jnsgd1na2vs0mg"},{"bike_id":"1be3a4ec-c2ec-4fa5-b915-220eda4109f4","system_id":"levelo_inurba_marseille","lat":43.28703,"lon":5.46678,"is_reserved":false,"is_disabled":false,"rental_uris":{"android":"levelo://app?vid=1be3a4ec-c2ec-4fa5-b915-220eda4109f4","ios":"levelo://app?vid=1be3a4ec-c2ec-4fa5-b915-220eda4109f4"},"vehicle_type_id":"4","last_reported":1774217661,"current_range_meters":9200,"station_id":"st_d6tc3vkotcvc738tfjhg","pricing_plan_id":"cebpf4jnsgd1na2vs0mg"},{"bike_id":"c92fb013-f65a-4b6e-8912-580a6142357c","system_id":"levelo_inurba_marseille","lat":43.33539,"lon":5.37471,"is_reserved":false,"is_disabled":false,"rental_uris":{"android":"levelo://app?vid=c92fb013-f65a-4b6e-8912-580a6142357c","ios":"levelo://app?vid=c92fb013-f65a-4b6e-8912-580a6142357c"},"vehicle_type_id":"4","last_reported":1774217661,"current_range_meters":9200,"station_id":"st_d46tts09ee8s73dlu43g","pricing_plan_id":"cebpf4jnsgd1na2vs0mg"},{"bike_id":"69fcec7f-ac33-45cd-bce0-553de2f7ffb9","system_id":"levelo_inurba_marseille","lat":43.27042,"lon":5.40241,"is_reserved":false,"is_disabled":false,"rental_uris":{"android":"levelo://app?vid=69fcec7f-ac33-45cd-bce0-553de2f7ffb9","ios":"levelo://app?vid=69fcec7f-ac33-45cd-bce0-553de2f7ffb9"},"vehicle_type_id":"4","last_reported":1774217661,"current_range_meters":9200,"station_id":"ce4bhk92rcd13ifvqgc0","pricing_plan_id":"cebpf4jnsgd1na2vs0mg"},{"bike_id":"e75c0e5f-106c-47e2-93f8-5a002f67eaa8","system_id":"levelo_inurba_marseille","lat":43.23792,"lon":5.36636,"is_reserved":false,"is_disabled":false,"rental_uris":{"android":"levelo://app?vid=e75c0e5f-106c-47e2-93f8-5a002f67eaa8","ios":"levelo://app?vid=e75c0e5f-106c-47e2-93f8-5a002f67eaa8"},"vehicle_type_id":"4","last_reported":1774217661,"current_range_meters":9200,"station_id":"st_d3nk18o9ro0c73en2l3g","pricing_plan_id":"cebpf4jnsgd1na2vs0mg"},{"bike_id":"ad998b8e-1e0e-4522-a6b0-38e1268f96a5","system_id":"levelo_inurba_marseille","lat":43.3125,"lon":5.36822,"is_reserved":false,"is_disabled":false,"rental_uris":{"android":"levelo://app?vid=ad998b8e-1e0e-4522-a6b0-38e1268f96a5","ios":"levelo://app?vid=ad998b8e-1e0e-4522-a6b0-38e1268f96a5"},"vehicle_type_id":"4","last_reported":1774217661,"current_range_meters":9200,"station_id":"ce4bgl92rcd13ifvqbq0","pricing_plan_id":"cebpf4jnsgd1na2vs0mg"},{"bike_id":"0b2517ff-7555-440c-8a7d-8e629f682998","system_id":"levelo_inurba_marseille","lat":43.31331,"lon":5.39698,"is_reserved":false,"is_disabled":false,"rental_uris":{"android":"levelo://app?vid=0b2517ff-7555-440c-8a7d-8e629f682998","ios":"levelo://app?vid=0b2517ff-7555-440c-8a7d-8e629f682998"},"vehicle_type_id":"4","last_reported":1774217661,"current_range_meters":9200,"station_id":"ce4bgvp2rcd13ifvqcu0","pricing_plan_id":"cebpf4jnsgd1na2vs0mg"},{"bike_id":"4654d03d-a6a4-4eee-a061-7c2a677f6949","system_id":"levelo_inurba_marseille","lat":43.32105,"lon":5.36754,"is_reserved":false,"is_disabled":false,"rental_uris":{"android":"levelo://app?vid=4654d03d-a6a4-4eee-a061-7c2a677f6949","ios":"levelo://app?vid=4654d03d-a6a4-4eee-a061-7c2a677f6949"},"vehicle_type_id":"4","last_reported":1774217661,"current_range_meters":9200,"station_id":"ce4bhrh2rcd13ifvqhug","pricing_plan_id":"cebpf4jnsgd1na2vs0mg"},{"bike_id":"2bf6e12f-3f64-49c2-9464-ec23d157a16d","system_id":"levelo_inurba_marseille","lat":43.32103,"lon":5.36769,"is_reserved":false,"is_disabled":false,"rental_uris":{"android":"levelo://app?vid=2bf6e12f-3f64-49c2-9464-ec23d157a16d","ios":"levelo://app?vid=2bf6e12f-3f64-49c2-9464-ec23d157a16d"},"vehicle_type_id":"4","last_reported":1774217661,"current_range_meters":9200,"station_id":"ce4bhrh2rcd13ifvqhug","pricing_plan_id":"cebpf4jnsgd1na2vs0mg"},{"bike_id":"3bbb2d24-3e39-4a5a-acef-2063c8f69749","system_id":"levelo_inurba_marseille","lat":43.30139,"lon":5.38781,"is_reserved":false,"is_disabled":true,"rental_uris":{"android":"levelo://app?vid=3bbb2d24-3e39-4a5a-acef-2063c8f69749","ios":"levelo://app?vid=3bbb2d24-3e39-4a5a-acef-2063c8f69749"},"vehicle_type_id":"4","last_reported":1774217661,"current_range_meters":9600,"station_id":"ce4bghh2rcd13ifvqb60","pricing_plan_id":"cebpf4jnsgd1na2vs0mg"},{"bike_id":"8b5ac345-ed06-4aa3-a02e-461c1d85a878","system_id":"levelo_inurba_marseille","lat":43.25025,"lon":5.389,"is_reserved":false,"is_disabled":true,"rental_uris":{"android":"levelo://app?vid=8b5ac345-ed06-4aa3-a02e-461c1d85a878","ios":"levelo://app?vid=8b5ac345-ed06-4aa3-a02e-461c1d85a878"},"vehicle_type_id":"4","last_reported":1774217661,"current_range_meters":9600,"station_id":"ce4bhgp2rcd13ifvqfd0","pricing_plan_id":"cebpf4jnsgd1na2vs0mg"},{"bike_id":"59d26c1c-a626-4fe5-bb54-85a4f4e17640","system_id":"levelo_inurba_marseille","lat":43.28475,"lon":5.48389,"is_reserved":false,"is_disabled":false,"rental_uris":{"android":"levelo://app?vid=59d26c1c-a626-4fe5-bb54-85a4f4e17640","ios":"levelo://app?vid=59d26c1c-a626-4fe5-bb54-85a4f4e17640"},"vehicle_type_id":"4","last_reported":1774217661,"current_range_meters":9600,"station_id":"","pricing_plan_id":"cebpf4jnsgd1na2vs0mg"},{"bike_id":"c524ee7b-a362-41ed-9659-586e5fab1e4b","system_id":"levelo_inurba_marseille","lat":43.29589,"lon":5.3996,"is_reserved":false,"is_disabled":true,"rental_uris":{"android":"levelo://app?vid=c524ee7b-a362-41ed-9659-586e5fab1e4b","ios":"levelo://app?vid=c524ee7b-a362-41ed-9659-586e5fab1e4b"},"vehicle_type_id":"4","last_reported":1774217661,"current_range_meters":9600,"station_id":"ce4bh312rcd13ifvqdj0","pricing_plan_id":"cebpf4jnsgd1na2vs0mg"},{"bike_id":"f6b0aaa3-f85d-4911-b3c0-89e24d615d95","system_id":"levelo_inurba_marseille","lat":43.21196,"lon":5.35076,"is_reserved":false,"is_disabled":true,"rental_uris":{"android":"levelo://app?vid=f6b0aaa3-f85d-4911-b3c0-89e24d615d95","ios":"levelo://app?vid=f6b0aaa3-f85d-4911-b3c0-89e24d615d95"},"vehicle_type_id":"4","last_reported":1774217661,"current_range_meters":9600,"station_id":"st_cvj6sg6p6f1abm77japg","pricing_plan_id":"cebpf4jnsgd1na2vs0mg"},{"bike_id":"5135b388-2c36-4537-be3f-d4aaec9eb489","system_id":"levelo_inurba_marseille","lat":43.32025,"lon":5.41585,"is_reserved":false,"is_disabled":true,"rental_uris":{"android":"levelo://app?vid=5135b388-2c36-4537-be3f-d4aaec9eb489","ios":"levelo://app?vid=5135b388-2c36-4537-be3f-d4aaec9eb489"},"vehicle_type_id":"4","last_reported":1774217661,"current_range_meters":9600,"station_id":"ce4bhq92rcd13ifvqhkg","pricing_plan_id":"cebpf4jnsgd1na2vs0mg"},{"bike_id":"fa7f5f0d-1fd4-40b2-9523-978617503ff0","system_id":"levelo_inurba_marseille","lat":43.26691,"lon":5.38288,"is_reserved":false,"is_disabled":true,"rental_uris":{"android":"levelo://app?vid=fa7f5f0d-1fd4-40b2-9523-978617503ff0","ios":"levelo://app?vid=fa7f5f0d-1fd4-40b2-9523-978617503ff0"},"vehicle_type_id":"4","last_reported":1774217661,"current_range_meters":9600,"station_id":"ce4bhg92rcd13ifvqf90","pricing_plan_id":"cebpf4jnsgd1na2vs0mg"},{"bike_id":"06517dae-b7b9-4e7f-a9bd-9b462d98abd3","system_id":"levelo_inurba_marseille","lat":43.28035,"lon":5.36937,"is_reserved":false,"is_disabled":false,"rental_uris":{"android":"levelo://app?vid=06517dae-b7b9-4e7f-a9bd-9b462d98abd3","ios":"levelo://app?vid=06517dae-b7b9-4e7f-a9bd-9b462d98abd3"},"vehicle_type_id":"4","last_reported":1774217661,"current_range_meters":9600,"station_id":"ce4bha12rcd13ifvqef0","pricing_plan_id":"cebpf4jnsgd1na2vs0mg"},{"bike_id":"5521ae74-b716-4888-ae64-fd25b7d56914","system_id":"levelo_inurba_marseille","lat":43.29595,"lon":5.36565,"is_reserved":false,"is_disabled":false,"rental_uris":{"android":"levelo://app?vid=5521ae74-b716-4888-ae64-fd25b7d56914","ios":"levelo://app?vid=5521ae74-b716-4888-ae64-fd25b7d56914"},"vehicle_type_id":"4","last_reported":1774217661,"current_range_meters":9600,"station_id":"","pricing_plan_id":"cebpf4jnsgd1na2vs0mg"},{"bike_id":"2f2a96ab-e7b6-4c82-b3e7-8ea9f0d7b7c6","system_id":"levelo_inurba_marseille","lat":43.28699,"lon":5.39984,"is_reserved":false,"is_disabled":false,"rental_uris":{"android":"levelo://app?vid=2f2a96ab-e7b6-4c82-b3e7-8ea9f0d7b7c6","ios":"levelo://app?vid=2f2a96ab-e7b6-4c82-b3e7-8ea9f0d7b7c6"},"vehicle_type_id":"4","last_reported":1774217661,"current_range_meters":9600,"station_id":"ce4bho92rcd13ifvqh3g","pricing_plan_id":"cebpf4jnsgd1na2vs0mg"},{"bike_id":"6fb15948-a05b-43c6-8157-c719b829935b","system_id":"levelo_inurba_marseille","lat":43.31327,"lon":5.39707,"is_reserved":false,"is_disabled":false,"rental_uris":{"android":"levelo://app?vid=6fb15948-a05b-43c6-8157-c719b829935b","ios":"levelo://app?vid=6fb15948-a05b-43c6-8157-c719b829935b"},"vehicle_type_id":"4","last_reported":1774217661,"current_range_meters":9600,"station_id":"ce4bgvp2rcd13ifvqcu0","pricing_plan_id":"cebpf4jnsgd1na2vs0mg"},{"bike_id":"43e59ba5-ec46-4220-91f3-66a9acd0748a","system_id":"levelo_inurba_marseille","lat":43.23108,"lon":5.35488,"is_reserved":false,"is_disabled":false,"rental_uris":{"android":"levelo://app?vid=43e59ba5-ec46-4220-91f3-66a9acd0748a","ios":"levelo://app?vid=43e59ba5-ec46-4220-91f3-66a9acd0748a"},"vehicle_type_id":"4","last_reported":1774217661,"current_range_meters":9600,"station_id":"","pricing_plan_id":"cebpf4jnsgd1na2vs0mg"},{"bike_id":"8b87b45c-a551-4f59-a6ab-37cb4d8a790c","system_id":"levelo_inurba_marseille","lat":43.29978,"lon":5.38483,"is_reserved":false,"is_disabled":true,"rental_uris":{"android":"levelo://app?vid=8b87b45c-a551-4f59-a6ab-37cb4d8a790c","ios":"levelo://app?vid=8b87b45c-a551-4f59-a6ab-37cb4d8a790c"},"vehicle_type_id":"4","last_reported":1774217661,"current_range_meters":10000,"station_id":"ce4bgj92rcd13ifvqbd0","pricing_plan_id":"cebpf4jnsgd1na2vs0mg"},{"bike_id":"bf581493-29ec-48b7-b37c-57c9f28ff16c","system_id":"levelo_inurba_marseille","lat":43.28922,"lon":5.38911,"is_reserved":false,"is_disabled":false,"rental_uris":{"android":"levelo://app?vid=bf581493-29ec-48b7-b37c-57c9f28ff16c","ios":"levelo://app?vid=bf581493-29ec-48b7-b37c-57c9f28ff16c"},"vehicle_type_id":"4","last_reported":1774217661,"current_range_meters":10000,"station_id":"","pricing_plan_id":"cebpf4jnsgd1na2vs0mg"},{"bike_id":"94b186d1-2ae3-49b4-8152-d41fc2565b52","system_id":"levelo_inurba_marseille","lat":43.29271,"lon":5.40896,"is_reserved":false,"is_disabled":false,"rental_uris":{"android":"levelo://app?vid=94b186d1-2ae3-49b4-8152-d41fc2565b52","ios":"levelo://app?vid=94b186d1-2ae3-49b4-8152-d41fc2565b52"},"vehicle_type_id":"4","last_reported":1774217661,"current_range_meters":10000,"station_id":"ce4bh192rcd13ifvqdc0","pricing_plan_id":"cebpf4jnsgd1na2vs0mg"},{"bike_id":"9bd3f79a-0719-4c3f-b3c7-8051544625c1","system_id":"levelo_inurba_marseille","lat":43.2656,"lon":5.39025,"is_reserved":false,"is_disabled":true,"rental_uris":{"android":"levelo://app?vid=9bd3f79a-0719-4c3f-b3c7-8051544625c1","ios":"levelo://app?vid=9bd3f79a-0719-4c3f-b3c7-8051544625c1"},"vehicle_type_id":"4","last_reported":1774217661,"current_range_meters":10000,"station_id":"ce4bhe12rcd13ifvqf30","pricing_plan_id":"cebpf4jnsgd1na2vs0mg"},{"bike_id":"2622af1f-a585-4008-a4bd-47a1884ef2be","system_id":"levelo_inurba_marseille","lat":43.29959,"lon":5.41327,"is_reserved":false,"is_disabled":false,"rental_uris":{"android":"levelo://app?vid=2622af1f-a585-4008-a4bd-47a1884ef2be","ios":"levelo://app?vid=2622af1f-a585-4008-a4bd-47a1884ef2be"},"vehicle_type_id":"4","last_reported":1774217661,"current_range_meters":10000,"station_id":"ce4bhp12rcd13ifvqh9g","pricing_plan_id":"cebpf4jnsgd1na2vs0mg"},{"bike_id":"5980dbab-554a-48e7-a3ff-8a95f21d019e","system_id":"levelo_inurba_marseille","lat":43.32111,"lon":5.36766,"is_reserved":false,"is_disabled":false,"rental_uris":{"android":"levelo://app?vid=5980dbab-554a-48e7-a3ff-8a95f21d019e","ios":"levelo://app?vid=5980dbab-554a-48e7-a3ff-8a95f21d019e"},"vehicle_type_id":"4","last_reported":1774217661,"current_range_meters":10000,"station_id":"ce4bhrh2rcd13ifvqhug","pricing_plan_id":"cebpf4jnsgd1na2vs0mg"},{"bike_id":"4fbd7bdc-310e-4946-a8b8-c5e070fba8f4","system_id":"levelo_inurba_marseille","lat":43.28967,"lon":5.37807,"is_reserved":false,"is_disabled":true,"rental_uris":{"android":"levelo://app?vid=4fbd7bdc-310e-4946-a8b8-c5e070fba8f4","ios":"levelo://app?vid=4fbd7bdc-310e-4946-a8b8-c5e070fba8f4"},"vehicle_type_id":"4","last_reported":1774217661,"current_range_meters":10000,"station_id":"ce4bh9p2rcd13ifvqed0","pricing_plan_id":"cebpf4jnsgd1na2vs0mg"},{"bike_id":"6a349db2-35cd-46bc-9450-f4ec403eb3e2","system_id":"levelo_inurba_marseille","lat":43.24725,"lon":5.39243,"is_reserved":false,"is_disabled":false,"rental_uris":{"android":"levelo://app?vid=6a349db2-35cd-46bc-9450-f4ec403eb3e2","ios":"levelo://app?vid=6a349db2-35cd-46bc-9450-f4ec403eb3e2"},"vehicle_type_id":"4","last_reported":1774217661,"current_range_meters":10000,"station_id":"","pricing_plan_id":"cebpf4jnsgd1na2vs0mg"},{"bike_id":"920a5d76-d9d6-49d0-86b2-e6efeb8b0a42","system_id":"levelo_inurba_marseille","lat":43.29207,"lon":5.42595,"is_reserved":false,"is_disabled":false,"rental_uris":{"android":"levelo://app?vid=920a5d76-d9d6-49d0-86b2-e6efeb8b0a42","ios":"levelo://app?vid=920a5d76-d9d6-49d0-86b2-e6efeb8b0a42"},"vehicle_type_id":"4","last_reported":1774217661,"current_range_meters":10000,"station_id":"","pricing_plan_id":"cebpf4jnsgd1na2vs0mg"},{"bike_id":"bd496750-bf55-4130-86b6-b9df6421f735","system_id":"levelo_inurba_marseille","lat":43.31318,"lon":5.38431,"is_reserved":false,"is_disabled":false,"rental_uris":{"android":"levelo://app?vid=bd496750-bf55-4130-86b6-b9df6421f735","ios":"levelo://app?vid=bd496750-bf55-4130-86b6-b9df6421f735"},"vehicle_type_id":"4","last_reported":1774217661,"current_range_meters":10000,"station_id":"","pricing_plan_id":"cebpf4jnsgd1na2vs0mg"},{"bike_id":"d377b73d-4e75-43ee-9583-ed7feed69c46","system_id":"levelo_inurba_marseille","lat":43.31178,"lon":5.36862,"is_reserved":false,"is_disabled":false,"rental_uris":{"android":"levelo://app?vid=d377b73d-4e75-43ee-9583-ed7feed69c46","ios":"levelo://app?vid=d377b73d-4e75-43ee-9583-ed7feed69c46"},"vehicle_type_id":"4","last_reported":1774217661,"current_range_meters":10000,"station_id":"","pricing_plan_id":"cebpf4jnsgd1na2vs0mg"},{"bike_id":"728c189a-ecd8-46ef-aadc-354c1c8ed43b","system_id":"levelo_inurba_marseille","lat":43.2768,"lon":5.38895,"is_reserved":false,"is_disabled":false,"rental_uris":{"android":"levelo://app?vid=728c189a-ecd8-46ef-aadc-354c1c8ed43b","ios":"levelo://app?vid=728c189a-ecd8-46ef-aadc-354c1c8ed43b"},"vehicle_type_id":"4","last_reported":1774217661,"current_range_meters":10000,"station_id":"ce4bhi12rcd13ifvqfo0","pricing_plan_id":"cebpf4jnsgd1na2vs0mg"},{"bike_id":"1f73e3f0-028e-4314-bf46-885c2e89ab17","system_id":"levelo_inurba_marseille","lat":43.31124,"lon":5.37797,"is_reserved":false,"is_disabled":true,"rental_uris":{"android":"levelo://app?vid=1f73e3f0-028e-4314-bf46-885c2e89ab17","ios":"levelo://app?vid=1f73e3f0-028e-4314-bf46-885c2e89ab17"},"vehicle_type_id":"4","last_reported":1774217661,"current_range_meters":10800,"station_id":"ce4bgt92rcd13ifvqcg0","pricing_plan_id":"cebpf4jnsgd1na2vs0mg"},{"bike_id":"8ed2d08c-6f1e-4605-a456-b1343be89941","system_id":"levelo_inurba_marseille","lat":43.2583,"lon":5.39449,"is_reserved":false,"is_disabled":true,"rental_uris":{"android":"levelo://app?vid=8ed2d08c-6f1e-4605-a456-b1343be89941","ios":"levelo://app?vid=8ed2d08c-6f1e-4605-a456-b1343be89941"},"vehicle_type_id":"4","last_reported":1774217661,"current_range_meters":10800,"station_id":"ce4bhip2rcd13ifvqft0","pricing_plan_id":"cebpf4jnsgd1na2vs0mg"},{"bike_id":"a45161af-a88e-4f3f-942e-d2b820a4974f","system_id":"levelo_inurba_marseille","lat":43.29918,"lon":5.43645,"is_reserved":false,"is_disabled":false,"rental_uris":{"android":"levelo://app?vid=a45161af-a88e-4f3f-942e-d2b820a4974f","ios":"levelo://app?vid=a45161af-a88e-4f3f-942e-d2b820a4974f"},"vehicle_type_id":"4","last_reported":1774217661,"current_range_meters":10800,"station_id":"ce4bhpp2rcd13ifvqhfg","pricing_plan_id":"cebpf4jnsgd1na2vs0mg"},{"bike_id":"799bfa70-f302-472e-a814-a78b32f991a0","system_id":"levelo_inurba_marseille","lat":43.25828,"lon":5.39437,"is_reserved":false,"is_disabled":false,"rental_uris":{"android":"levelo://app?vid=799bfa70-f302-472e-a814-a78b32f991a0","ios":"levelo://app?vid=799bfa70-f302-472e-a814-a78b32f991a0"},"vehicle_type_id":"4","last_reported":1774217661,"current_range_meters":10800,"station_id":"ce4bhip2rcd13ifvqft0","pricing_plan_id":"cebpf4jnsgd1na2vs0mg"},{"bike_id":"f022ffb0-fd15-4849-a172-efb955c56a3d","system_id":"levelo_inurba_marseille","lat":43.28158,"lon":5.40928,"is_reserved":false,"is_disabled":false,"rental_uris":{"android":"levelo://app?vid=f022ffb0-fd15-4849-a172-efb955c56a3d","ios":"levelo://app?vid=f022ffb0-fd15-4849-a172-efb955c56a3d"},"vehicle_type_id":"4","last_reported":1774217661,"current_range_meters":10800,"station_id":"","pricing_plan_id":"cebpf4jnsgd1na2vs0mg"},{"bike_id":"3232a440-1596-4b33-a369-dd69ab7c6dfc","system_id":"levelo_inurba_marseille","lat":43.2964,"lon":5.42423,"is_reserved":false,"is_disabled":false,"rental_uris":{"android":"levelo://app?vid=3232a440-1596-4b33-a369-dd69ab7c6dfc","ios":"levelo://app?vid=3232a440-1596-4b33-a369-dd69ab7c6dfc"},"vehicle_type_id":"4","last_reported":1774217661,"current_range_meters":10800,"station_id":"","pricing_plan_id":"cebpf4jnsgd1na2vs0mg"},{"bike_id":"8ec4f42d-ef4b-4dc7-94a2-03b5723e269d","system_id":"levelo_inurba_marseille","lat":43.27191,"lon":5.40982,"is_reserved":false,"is_disabled":false,"rental_uris":{"android":"levelo://app?vid=8ec4f42d-ef4b-4dc7-94a2-03b5723e269d","ios":"levelo://app?vid=8ec4f42d-ef4b-4dc7-94a2-03b5723e269d"},"vehicle_type_id":"4","last_reported":1774217661,"current_range_meters":10800,"station_id":"ce4bhl12rcd13ifvqgf0","pricing_plan_id":"cebpf4jnsgd1na2vs0mg"},{"bike_id":"04d81b9b-5e14-4afe-9f37-84056a920cda","system_id":"levelo_inurba_marseille","lat":43.29383,"lon":5.37837,"is_reserved":false,"is_disabled":false,"rental_uris":{"android":"levelo://app?vid=04d81b9b-5e14-4afe-9f37-84056a920cda","ios":"levelo://app?vid=04d81b9b-5e14-4afe-9f37-84056a920cda"},"vehicle_type_id":"4","last_reported":1774217661,"current_range_meters":10800,"station_id":"ce4bgjh2rcd13ifvqbf0","pricing_plan_id":"cebpf4jnsgd1na2vs0mg"},{"bike_id":"1c062ef6-d94c-4276-97e8-1f0e831f707c","system_id":"levelo_inurba_marseille","lat":43.24125,"lon":5.36399,"is_reserved":false,"is_disabled":false,"rental_uris":{"android":"levelo://app?vid=1c062ef6-d94c-4276-97e8-1f0e831f707c","ios":"levelo://app?vid=1c062ef6-d94c-4276-97e8-1f0e831f707c"},"vehicle_type_id":"4","last_reported":1774217661,"current_range_meters":10800,"station_id":"cpo36qri1sfpv3e86is0","pricing_plan_id":"cebpf4jnsgd1na2vs0mg"},{"bike_id":"479f31e5-4f37-4002-b88b-cfa4374fd14f","system_id":"levelo_inurba_marseille","lat":43.302,"lon":5.366,"is_reserved":false,"is_disabled":false,"rental_uris":{"android":"levelo://app?vid=479f31e5-4f37-4002-b88b-cfa4374fd14f","ios":"levelo://app?vid=479f31e5-4f37-4002-b88b-cfa4374fd14f"},"vehicle_type_id":"4","last_reported":1774217661,"current_range_meters":10800,"station_id":"ce4bgrh2rcd13ifvqc8g","pricing_plan_id":"cebpf4jnsgd1na2vs0mg"},{"bike_id":"7743ecc1-6993-4071-9a85-cf047b8317fa","system_id":"levelo_inurba_marseille","lat":43.27831,"lon":5.40733,"is_reserved":false,"is_disabled":false,"rental_uris":{"android":"levelo://app?vid=7743ecc1-6993-4071-9a85-cf047b8317fa","ios":"levelo://app?vid=7743ecc1-6993-4071-9a85-cf047b8317fa"},"vehicle_type_id":"4","last_reported":1774217661,"current_range_meters":11200,"station_id":"ce4bhnh2rcd13ifvqgtg","pricing_plan_id":"cebpf4jnsgd1na2vs0mg"},{"bike_id":"810d1be9-b748-4a70-b470-896d0128af15","system_id":"levelo_inurba_marseille","lat":43.29253,"lon":5.40894,"is_reserved":false,"is_disabled":false,"rental_uris":{"android":"levelo://app?vid=810d1be9-b748-4a70-b470-896d0128af15","ios":"levelo://app?vid=810d1be9-b748-4a70-b470-896d0128af15"},"vehicle_type_id":"4","last_reported":1774217661,"current_range_meters":11200,"station_id":"ce4bh192rcd13ifvqdc0","pricing_plan_id":"cebpf4jnsgd1na2vs0mg"},{"bike_id":"b9f505fc-2e00-4ec6-b16f-02065eb5caa6","system_id":"levelo_inurba_marseille","lat":43.28475,"lon":5.48412,"is_reserved":false,"is_disabled":false,"rental_uris":{"android":"levelo://app?vid=b9f505fc-2e00-4ec6-b16f-02065eb5caa6","ios":"levelo://app?vid=b9f505fc-2e00-4ec6-b16f-02065eb5caa6"},"vehicle_type_id":"4","last_reported":1774217661,"current_range_meters":11200,"station_id":"st_d3svhcjqgbts73a3dn0g","pricing_plan_id":"cebpf4jnsgd1na2vs0mg"},{"bike_id":"c250d617-6f49-4534-a56b-323ec48f8483","system_id":"levelo_inurba_marseille","lat":43.29595,"lon":5.37542,"is_reserved":false,"is_disabled":false,"rental_uris":{"android":"levelo://app?vid=c250d617-6f49-4534-a56b-323ec48f8483","ios":"levelo://app?vid=c250d617-6f49-4534-a56b-323ec48f8483"},"vehicle_type_id":"4","last_reported":1774217661,"current_range_meters":11200,"station_id":"ce4bgh92rcd13ifvqb50","pricing_plan_id":"cebpf4jnsgd1na2vs0mg"},{"bike_id":"12ccb092-e1c6-41d4-bba9-ccfc08c2778e","system_id":"levelo_inurba_marseille","lat":43.26063,"lon":5.39394,"is_reserved":false,"is_disabled":false,"rental_uris":{"android":"levelo://app?vid=12ccb092-e1c6-41d4-bba9-ccfc08c2778e","ios":"levelo://app?vid=12ccb092-e1c6-41d4-bba9-ccfc08c2778e"},"vehicle_type_id":"4","last_reported":1774217661,"current_range_meters":11200,"station_id":"ce4bhh92rcd13ifvqfj0","pricing_plan_id":"cebpf4jnsgd1na2vs0mg"},{"bike_id":"9aa8d54f-5194-4e85-898f-32ec4d39709e","system_id":"levelo_inurba_marseille","lat":43.25573,"lon":5.38241,"is_reserved":false,"is_disabled":true,"rental_uris":{"android":"levelo://app?vid=9aa8d54f-5194-4e85-898f-32ec4d39709e","ios":"levelo://app?vid=9aa8d54f-5194-4e85-898f-32ec4d39709e"},"vehicle_type_id":"4","last_reported":1774217661,"current_range_meters":11200,"station_id":"ce4bhih2rcd13ifvqfs0","pricing_plan_id":"cebpf4jnsgd1na2vs0mg"},{"bike_id":"988e1c7a-06c5-47ec-9be8-5d95053efe00","system_id":"levelo_inurba_marseille","lat":43.28544,"lon":5.44123,"is_reserved":false,"is_disabled":false,"rental_uris":{"android":"levelo://app?vid=988e1c7a-06c5-47ec-9be8-5d95053efe00","ios":"levelo://app?vid=988e1c7a-06c5-47ec-9be8-5d95053efe00"},"vehicle_type_id":"4","last_reported":1774217661,"current_range_meters":11200,"station_id":"st_d3j3df2ikq2c7380ej80","pricing_plan_id":"cebpf4jnsgd1na2vs0mg"},{"bike_id":"edb0787a-0bc8-4fcc-8382-493efa7b2a5f","system_id":"levelo_inurba_marseille","lat":43.29205,"lon":5.42586,"is_reserved":false,"is_disabled":false,"rental_uris":{"android":"levelo://app?vid=edb0787a-0bc8-4fcc-8382-493efa7b2a5f","ios":"levelo://app?vid=edb0787a-0bc8-4fcc-8382-493efa7b2a5f"},"vehicle_type_id":"4","last_reported":1774217661,"current_range_meters":11200,"station_id":"","pricing_plan_id":"cebpf4jnsgd1na2vs0mg"},{"bike_id":"35f645e1-8c5a-4a54-aa65-0e928df4c46d","system_id":"levelo_inurba_marseille","lat":43.26777,"lon":5.39427,"is_reserved":false,"is_disabled":true,"rental_uris":{"android":"levelo://app?vid=35f645e1-8c5a-4a54-aa65-0e928df4c46d","ios":"levelo://app?vid=35f645e1-8c5a-4a54-aa65-0e928df4c46d"},"vehicle_type_id":"4","last_reported":1774217661,"current_range_meters":11200,"station_id":"ce4bhh12rcd13ifvqfg0","pricing_plan_id":"cebpf4jnsgd1na2vs0mg"},{"bike_id":"72dbeea7-ba8f-4303-a015-7b55503ab9a2","system_id":"levelo_inurba_marseille","lat":43.29778,"lon":5.37084,"is_reserved":false,"is_disabled":false,"rental_uris":{"android":"levelo://app?vid=72dbeea7-ba8f-4303-a015-7b55503ab9a2","ios":"levelo://app?vid=72dbeea7-ba8f-4303-a015-7b55503ab9a2"},"vehicle_type_id":"4","last_reported":1774217661,"current_range_meters":11200,"station_id":"ce4bgop2rcd13ifvqc1g","pricing_plan_id":"cebpf4jnsgd1na2vs0mg"},{"bike_id":"f42f660a-25c0-43e5-be12-db3eb95ee8c8","system_id":"levelo_inurba_marseille","lat":43.30153,"lon":5.39904,"is_reserved":false,"is_disabled":true,"rental_uris":{"android":"levelo://app?vid=f42f660a-25c0-43e5-be12-db3eb95ee8c8","ios":"levelo://app?vid=f42f660a-25c0-43e5-be12-db3eb95ee8c8"},"vehicle_type_id":"4","last_reported":1774217661,"current_range_meters":11600,"station_id":"ce4bh0h2rcd13ifvqd40","pricing_plan_id":"cebpf4jnsgd1na2vs0mg"},{"bike_id":"88c75268-c829-4290-81d1-d719ec4f5cda","system_id":"levelo_inurba_marseille","lat":43.28747,"lon":5.35186,"is_reserved":false,"is_disabled":false,"rental_uris":{"android":"levelo://app?vid=88c75268-c829-4290-81d1-d719ec4f5cda","ios":"levelo://app?vid=88c75268-c829-4290-81d1-d719ec4f5cda"},"vehicle_type_id":"4","last_reported":1774217661,"current_range_meters":11600,"station_id":"","pricing_plan_id":"cebpf4jnsgd1na2vs0mg"},{"bike_id":"5f1fc54f-523e-48d6-989e-ae3cde29a666","system_id":"levelo_inurba_marseille","lat":43.30306,"lon":5.36898,"is_reserved":false,"is_disabled":false,"rental_uris":{"android":"levelo://app?vid=5f1fc54f-523e-48d6-989e-ae3cde29a666","ios":"levelo://app?vid=5f1fc54f-523e-48d6-989e-ae3cde29a666"},"vehicle_type_id":"4","last_reported":1774217661,"current_range_meters":11600,"station_id":"ce4bgqh2rcd13ifvqc5g","pricing_plan_id":"cebpf4jnsgd1na2vs0mg"},{"bike_id":"3e8960a8-ecc2-4a1b-be9f-7819413af594","system_id":"levelo_inurba_marseille","lat":43.27068,"lon":5.38317,"is_reserved":false,"is_disabled":false,"rental_uris":{"android":"levelo://app?vid=3e8960a8-ecc2-4a1b-be9f-7819413af594","ios":"levelo://app?vid=3e8960a8-ecc2-4a1b-be9f-7819413af594"},"vehicle_type_id":"4","last_reported":1774217661,"current_range_meters":11600,"station_id":"st_d3n2fo6cfp8s73cte1j0","pricing_plan_id":"cebpf4jnsgd1na2vs0mg"},{"bike_id":"733152fc-5672-46b8-932f-e65e9193c863","system_id":"levelo_inurba_marseille","lat":43.27954,"lon":5.43624,"is_reserved":false,"is_disabled":false,"rental_uris":{"android":"levelo://app?vid=733152fc-5672-46b8-932f-e65e9193c863","ios":"levelo://app?vid=733152fc-5672-46b8-932f-e65e9193c863"},"vehicle_type_id":"4","last_reported":1774217661,"current_range_meters":11600,"station_id":"","pricing_plan_id":"cebpf4jnsgd1na2vs0mg"},{"bike_id":"e4e67fa2-e1c4-4b02-9ce4-1cf4df7f9fae","system_id":"levelo_inurba_marseille","lat":43.27043,"lon":5.403,"is_reserved":false,"is_disabled":false,"rental_uris":{"android":"levelo://app?vid=e4e67fa2-e1c4-4b02-9ce4-1cf4df7f9fae","ios":"levelo://app?vid=e4e67fa2-e1c4-4b02-9ce4-1cf4df7f9fae"},"vehicle_type_id":"4","last_reported":1774217661,"current_range_meters":12000,"station_id":"ce4bhk92rcd13ifvqgc0","pricing_plan_id":"cebpf4jnsgd1na2vs0mg"},{"bike_id":"d5655304-8323-46da-aaf3-621b7978c8b9","system_id":"levelo_inurba_marseille","lat":43.29613,"lon":5.37717,"is_reserved":false,"is_disabled":true,"rental_uris":{"android":"levelo://app?vid=d5655304-8323-46da-aaf3-621b7978c8b9","ios":"levelo://app?vid=d5655304-8323-46da-aaf3-621b7978c8b9"},"vehicle_type_id":"4","last_reported":1774217661,"current_range_meters":12000,"station_id":"ce4bgi92rcd13ifvqb90","pricing_plan_id":"cebpf4jnsgd1na2vs0mg"},{"bike_id":"4b4cc377-b31c-476e-83b3-fe7b53a9f5c4","system_id":"levelo_inurba_marseille","lat":43.27702,"lon":5.41487,"is_reserved":false,"is_disabled":false,"rental_uris":{"android":"levelo://app?vid=4b4cc377-b31c-476e-83b3-fe7b53a9f5c4","ios":"levelo://app?vid=4b4cc377-b31c-476e-83b3-fe7b53a9f5c4"},"vehicle_type_id":"4","last_reported":1774217661,"current_range_meters":12000,"station_id":"","pricing_plan_id":"cebpf4jnsgd1na2vs0mg"},{"bike_id":"21d11ad5-0050-49a2-bcc5-5cd3d309f80a","system_id":"levelo_inurba_marseille","lat":43.29263,"lon":5.40905,"is_reserved":false,"is_disabled":false,"rental_uris":{"android":"levelo://app?vid=21d11ad5-0050-49a2-bcc5-5cd3d309f80a","ios":"levelo://app?vid=21d11ad5-0050-49a2-bcc5-5cd3d309f80a"},"vehicle_type_id":"4","last_reported":1774217661,"current_range_meters":12000,"station_id":"ce4bh192rcd13ifvqdc0","pricing_plan_id":"cebpf4jnsgd1na2vs0mg"},{"bike_id":"7990660b-2620-4022-917b-310d044a5ce8","system_id":"levelo_inurba_marseille","lat":43.23789,"lon":5.36628,"is_reserved":false,"is_disabled":false,"rental_uris":{"android":"levelo://app?vid=7990660b-2620-4022-917b-310d044a5ce8","ios":"levelo://app?vid=7990660b-2620-4022-917b-310d044a5ce8"},"vehicle_type_id":"4","last_reported":1774217661,"current_range_meters":12000,"station_id":"st_d3nk18o9ro0c73en2l3g","pricing_plan_id":"cebpf4jnsgd1na2vs0mg"},{"bike_id":"ecd95b02-b046-43f3-a7bb-62dec3d6d8d2","system_id":"levelo_inurba_marseille","lat":43.30959,"lon":5.39057,"is_reserved":false,"is_disabled":false,"rental_uris":{"android":"levelo://app?vid=ecd95b02-b046-43f3-a7bb-62dec3d6d8d2","ios":"levelo://app?vid=ecd95b02-b046-43f3-a7bb-62dec3d6d8d2"},"vehicle_type_id":"4","last_reported":1774217661,"current_range_meters":12000,"station_id":"ce4bgup2rcd13ifvqco0","pricing_plan_id":"cebpf4jnsgd1na2vs0mg"},{"bike_id":"ed1ee25b-4a4b-4de4-b517-c24b3d22b925","system_id":"levelo_inurba_marseille","lat":43.31532,"lon":5.37311,"is_reserved":false,"is_disabled":false,"rental_uris":{"android":"levelo://app?vid=ed1ee25b-4a4b-4de4-b517-c24b3d22b925","ios":"levelo://app?vid=ed1ee25b-4a4b-4de4-b517-c24b3d22b925"},"vehicle_type_id":"4","last_reported":1774217661,"current_range_meters":12000,"station_id":"","pricing_plan_id":"cebpf4jnsgd1na2vs0mg"},{"bike_id":"fb5c253a-ac07-44c0-b73c-6f41338cf90d","system_id":"levelo_inurba_marseille","lat":43.29377,"lon":5.37838,"is_reserved":false,"is_disabled":false,"rental_uris":{"android":"levelo://app?vid=fb5c253a-ac07-44c0-b73c-6f41338cf90d","ios":"levelo://app?vid=fb5c253a-ac07-44c0-b73c-6f41338cf90d"},"vehicle_type_id":"4","last_reported":1774217661,"current_range_meters":12000,"station_id":"ce4bgjh2rcd13ifvqbf0","pricing_plan_id":"cebpf4jnsgd1na2vs0mg"},{"bike_id":"d88344c2-7982-44c5-b59f-ca674532bd34","system_id":"levelo_inurba_marseille","lat":43.29928,"lon":5.36556,"is_reserved":false,"is_disabled":false,"rental_uris":{"android":"levelo://app?vid=d88344c2-7982-44c5-b59f-ca674532bd34","ios":"levelo://app?vid=d88344c2-7982-44c5-b59f-ca674532bd34"},"vehicle_type_id":"4","last_reported":1774217661,"current_range_meters":12400,"station_id":"ce4bgm92rcd13ifvqbr0","pricing_plan_id":"cebpf4jnsgd1na2vs0mg"},{"bike_id":"6c795635-3065-492d-b935-195107d3902d","system_id":"levelo_inurba_marseille","lat":43.29571,"lon":5.43883,"is_reserved":false,"is_disabled":false,"rental_uris":{"android":"levelo://app?vid=6c795635-3065-492d-b935-195107d3902d","ios":"levelo://app?vid=6c795635-3065-492d-b935-195107d3902d"},"vehicle_type_id":"4","last_reported":1774217661,"current_range_meters":12400,"station_id":"","pricing_plan_id":"cebpf4jnsgd1na2vs0mg"},{"bike_id":"f6a7a81b-fc6a-49e3-ac57-45c5341dc6c9","system_id":"levelo_inurba_marseille","lat":43.28623,"lon":5.35101,"is_reserved":false,"is_disabled":true,"rental_uris":{"android":"levelo://app?vid=f6a7a81b-fc6a-49e3-ac57-45c5341dc6c9","ios":"levelo://app?vid=f6a7a81b-fc6a-49e3-ac57-45c5341dc6c9"},"vehicle_type_id":"4","last_reported":1774217661,"current_range_meters":12400,"station_id":"ce4bhch2rcd13ifvqeug","pricing_plan_id":"cebpf4jnsgd1na2vs0mg"},{"bike_id":"617277a9-7405-4911-9de4-91b6ad328218","system_id":"levelo_inurba_marseille","lat":43.30933,"lon":5.40162,"is_reserved":false,"is_disabled":false,"rental_uris":{"android":"levelo://app?vid=617277a9-7405-4911-9de4-91b6ad328218","ios":"levelo://app?vid=617277a9-7405-4911-9de4-91b6ad328218"},"vehicle_type_id":"4","last_reported":1774217661,"current_range_meters":12400,"station_id":"ce4bgvp2rcd13ifvqct0","pricing_plan_id":"cebpf4jnsgd1na2vs0mg"},{"bike_id":"49bc0c1d-bda9-49bc-970f-68dcd2e15322","system_id":"levelo_inurba_marseille","lat":43.29969,"lon":5.38481,"is_reserved":false,"is_disabled":true,"rental_uris":{"android":"levelo://app?vid=49bc0c1d-bda9-49bc-970f-68dcd2e15322","ios":"levelo://app?vid=49bc0c1d-bda9-49bc-970f-68dcd2e15322"},"vehicle_type_id":"4","last_reported":1774217661,"current_range_meters":12400,"station_id":"ce4bgj92rcd13ifvqbd0","pricing_plan_id":"cebpf4jnsgd1na2vs0mg"},{"bike_id":"c41a4fb8-2843-44d9-b80e-5ce9e1c2e940","system_id":"levelo_inurba_marseille","lat":43.24011,"lon":5.3625,"is_reserved":false,"is_disabled":false,"rental_uris":{"android":"levelo://app?vid=c41a4fb8-2843-44d9-b80e-5ce9e1c2e940","ios":"levelo://app?vid=c41a4fb8-2843-44d9-b80e-5ce9e1c2e940"},"vehicle_type_id":"4","last_reported":1774217661,"current_range_meters":12400,"station_id":"","pricing_plan_id":"cebpf4jnsgd1na2vs0mg"},{"bike_id":"6b00f18e-7eee-456a-ab5b-c745dbea62c1","system_id":"levelo_inurba_marseille","lat":43.32109,"lon":5.36751,"is_reserved":false,"is_disabled":false,"rental_uris":{"android":"levelo://app?vid=6b00f18e-7eee-456a-ab5b-c745dbea62c1","ios":"levelo://app?vid=6b00f18e-7eee-456a-ab5b-c745dbea62c1"},"vehicle_type_id":"4","last_reported":1774217661,"current_range_meters":12400,"station_id":"ce4bhrh2rcd13ifvqhug","pricing_plan_id":"cebpf4jnsgd1na2vs0mg"},{"bike_id":"a43fe6bf-69a9-439a-b7ad-f6c908e25bd7","system_id":"levelo_inurba_marseille","lat":43.27207,"lon":5.39193,"is_reserved":false,"is_disabled":true,"rental_uris":{"android":"levelo://app?vid=a43fe6bf-69a9-439a-b7ad-f6c908e25bd7","ios":"levelo://app?vid=a43fe6bf-69a9-439a-b7ad-f6c908e25bd7"},"vehicle_type_id":"4","last_reported":1774217661,"current_range_meters":12400,"station_id":"ce4bhhp2rcd13ifvqfm0","pricing_plan_id":"cebpf4jnsgd1na2vs0mg"},{"bike_id":"291fc04c-074f-442e-97fd-1d0417718243","system_id":"levelo_inurba_marseille","lat":43.30308,"lon":5.4496,"is_reserved":false,"is_disabled":false,"rental_uris":{"android":"levelo://app?vid=291fc04c-074f-442e-97fd-1d0417718243","ios":"levelo://app?vid=291fc04c-074f-442e-97fd-1d0417718243"},"vehicle_type_id":"4","last_reported":1774217661,"current_range_meters":12400,"station_id":"","pricing_plan_id":"cebpf4jnsgd1na2vs0mg"},{"bike_id":"b5893769-60bf-4560-a990-e4d81f88c2a2","system_id":"levelo_inurba_marseille","lat":43.30541,"lon":5.38435,"is_reserved":false,"is_disabled":true,"rental_uris":{"android":"levelo://app?vid=b5893769-60bf-4560-a990-e4d81f88c2a2","ios":"levelo://app?vid=b5893769-60bf-4560-a990-e4d81f88c2a2"},"vehicle_type_id":"4","last_reported":1774217661,"current_range_meters":12800,"station_id":"ce4bgg92rcd13ifvqb30","pricing_plan_id":"cebpf4jnsgd1na2vs0mg"},{"bike_id":"740ee367-ca4e-4cc3-9251-f35d15b72cc6","system_id":"levelo_inurba_marseille","lat":43.33544,"lon":5.37467,"is_reserved":false,"is_disabled":false,"rental_uris":{"android":"levelo://app?vid=740ee367-ca4e-4cc3-9251-f35d15b72cc6","ios":"levelo://app?vid=740ee367-ca4e-4cc3-9251-f35d15b72cc6"},"vehicle_type_id":"4","last_reported":1774217661,"current_range_meters":12800,"station_id":"st_d46tts09ee8s73dlu43g","pricing_plan_id":"cebpf4jnsgd1na2vs0mg"},{"bike_id":"30e2c14c-9304-4a2b-863a-65167a9f3b13","system_id":"levelo_inurba_marseille","lat":43.29059,"lon":5.37155,"is_reserved":false,"is_disabled":false,"rental_uris":{"android":"levelo://app?vid=30e2c14c-9304-4a2b-863a-65167a9f3b13","ios":"levelo://app?vid=30e2c14c-9304-4a2b-863a-65167a9f3b13"},"vehicle_type_id":"4","last_reported":1774217661,"current_range_meters":12800,"station_id":"ce4bh5p2rcd13ifvqe4g","pricing_plan_id":"cebpf4jnsgd1na2vs0mg"},{"bike_id":"03d63685-421a-4a52-bce6-3e6d6958c388","system_id":"levelo_inurba_marseille","lat":43.30002,"lon":5.37173,"is_reserved":false,"is_disabled":true,"rental_uris":{"android":"levelo://app?vid=03d63685-421a-4a52-bce6-3e6d6958c388","ios":"levelo://app?vid=03d63685-421a-4a52-bce6-3e6d6958c388"},"vehicle_type_id":"4","last_reported":1774217661,"current_range_meters":12800,"station_id":"ce4bgr92rcd13ifvqc7g","pricing_plan_id":"cebpf4jnsgd1na2vs0mg"},{"bike_id":"fce3089f-a3c7-4273-9879-3aa3fd635d2b","system_id":"levelo_inurba_marseille","lat":43.28479,"lon":5.3842,"is_reserved":false,"is_disabled":false,"rental_uris":{"android":"levelo://app?vid=fce3089f-a3c7-4273-9879-3aa3fd635d2b","ios":"levelo://app?vid=fce3089f-a3c7-4273-9879-3aa3fd635d2b"},"vehicle_type_id":"4","last_reported":1774217661,"current_range_meters":12800,"station_id":"ce4bh512rcd13ifvqe3g","pricing_plan_id":"cebpf4jnsgd1na2vs0mg"},{"bike_id":"ee92d065-5437-41b4-9816-6f30b7b26253","system_id":"levelo_inurba_marseille","lat":43.28959,"lon":5.39628,"is_reserved":false,"is_disabled":true,"rental_uris":{"android":"levelo://app?vid=ee92d065-5437-41b4-9816-6f30b7b26253","ios":"levelo://app?vid=ee92d065-5437-41b4-9816-6f30b7b26253"},"vehicle_type_id":"4","last_reported":1774217661,"current_range_meters":12800,"station_id":"ce4bh3h2rcd13ifvqdn0","pricing_plan_id":"cebpf4jnsgd1na2vs0mg"},{"bike_id":"4ebba701-4216-4499-95b9-59df55969d4f","system_id":"levelo_inurba_marseille","lat":43.31034,"lon":5.37184,"is_reserved":false,"is_disabled":false,"rental_uris":{"android":"levelo://app?vid=4ebba701-4216-4499-95b9-59df55969d4f","ios":"levelo://app?vid=4ebba701-4216-4499-95b9-59df55969d4f"},"vehicle_type_id":"4","last_reported":1774217661,"current_range_meters":12800,"station_id":"st_d4kl2rp97mjs73e7tdfg","pricing_plan_id":"cebpf4jnsgd1na2vs0mg"},{"bike_id":"cd8845c1-7dc4-45b4-8599-55fe03229b32","system_id":"levelo_inurba_marseille","lat":43.28911,"lon":5.38919,"is_reserved":false,"is_disabled":false,"rental_uris":{"android":"levelo://app?vid=cd8845c1-7dc4-45b4-8599-55fe03229b32","ios":"levelo://app?vid=cd8845c1-7dc4-45b4-8599-55fe03229b32"},"vehicle_type_id":"4","last_reported":1774217661,"current_range_meters":12800,"station_id":"","pricing_plan_id":"cebpf4jnsgd1na2vs0mg"},{"bike_id":"ae973117-b80d-406a-81f8-2d830aa4fb71","system_id":"levelo_inurba_marseille","lat":43.29579,"lon":5.3751,"is_reserved":false,"is_disabled":false,"rental_uris":{"android":"levelo://app?vid=ae973117-b80d-406a-81f8-2d830aa4fb71","ios":"levelo://app?vid=ae973117-b80d-406a-81f8-2d830aa4fb71"},"vehicle_type_id":"4","last_reported":1774217661,"current_range_meters":12800,"station_id":"ce4bgh92rcd13ifvqb50","pricing_plan_id":"cebpf4jnsgd1na2vs0mg"},{"bike_id":"1338eecf-4d1b-4d5a-95a3-5c130fca609b","system_id":"levelo_inurba_marseille","lat":43.25099,"lon":5.39511,"is_reserved":false,"is_disabled":true,"rental_uris":{"android":"levelo://app?vid=1338eecf-4d1b-4d5a-95a3-5c130fca609b","ios":"levelo://app?vid=1338eecf-4d1b-4d5a-95a3-5c130fca609b"},"vehicle_type_id":"4","last_reported":1774217661,"current_range_meters":13600,"station_id":"ce4bhm12rcd13ifvqgkg","pricing_plan_id":"cebpf4jnsgd1na2vs0mg"},{"bike_id":"6f69505a-ffb8-4d5c-99e2-26785a89e171","system_id":"levelo_inurba_marseille","lat":43.28232,"lon":5.39077,"is_reserved":false,"is_disabled":false,"rental_uris":{"android":"levelo://app?vid=6f69505a-ffb8-4d5c-99e2-26785a89e171","ios":"levelo://app?vid=6f69505a-ffb8-4d5c-99e2-26785a89e171"},"vehicle_type_id":"4","last_reported":1774217661,"current_range_meters":13600,"station_id":"ce4bhn92rcd13ifvqgsg","pricing_plan_id":"cebpf4jnsgd1na2vs0mg"},{"bike_id":"4b521a40-6daa-431a-a9e0-67d8a71b2488","system_id":"levelo_inurba_marseille","lat":43.28496,"lon":5.47279,"is_reserved":false,"is_disabled":false,"rental_uris":{"android":"levelo://app?vid=4b521a40-6daa-431a-a9e0-67d8a71b2488","ios":"levelo://app?vid=4b521a40-6daa-431a-a9e0-67d8a71b2488"},"vehicle_type_id":"4","last_reported":1774217661,"current_range_meters":13600,"station_id":"","pricing_plan_id":"cebpf4jnsgd1na2vs0mg"},{"bike_id":"d029d612-3a50-43fe-82da-30f2196aaf6f","system_id":"levelo_inurba_marseille","lat":43.23896,"lon":5.37462,"is_reserved":false,"is_disabled":true,"rental_uris":{"android":"levelo://app?vid=d029d612-3a50-43fe-82da-30f2196aaf6f","ios":"levelo://app?vid=d029d612-3a50-43fe-82da-30f2196aaf6f"},"vehicle_type_id":"4","last_reported":1774217661,"current_range_meters":13600,"station_id":"st_d6sm7csbq4hs73f8fpjg","pricing_plan_id":"cebpf4jnsgd1na2vs0mg"},{"bike_id":"fba4745a-4c8a-4704-aad5-f8cadfa349ba","system_id":"levelo_inurba_marseille","lat":43.23144,"lon":5.4374,"is_reserved":false,"is_disabled":false,"rental_uris":{"android":"levelo://app?vid=fba4745a-4c8a-4704-aad5-f8cadfa349ba","ios":"levelo://app?vid=fba4745a-4c8a-4704-aad5-f8cadfa349ba"},"vehicle_type_id":"4","last_reported":1774217661,"current_range_meters":13600,"station_id":"ce4bhmp2rcd13ifvqgog","pricing_plan_id":"cebpf4jnsgd1na2vs0mg"},{"bike_id":"a31b3fd9-51f0-4bf1-89a8-a151cddaa752","system_id":"levelo_inurba_marseille","lat":43.2962,"lon":5.39323,"is_reserved":false,"is_disabled":false,"rental_uris":{"android":"levelo://app?vid=a31b3fd9-51f0-4bf1-89a8-a151cddaa752","ios":"levelo://app?vid=a31b3fd9-51f0-4bf1-89a8-a151cddaa752"},"vehicle_type_id":"4","last_reported":1774217661,"current_range_meters":13600,"station_id":"ce4bh292rcd13ifvqdf0","pricing_plan_id":"cebpf4jnsgd1na2vs0mg"},{"bike_id":"53e43cf5-e876-46a3-99a6-1f74b924154e","system_id":"levelo_inurba_marseille","lat":43.24476,"lon":5.42479,"is_reserved":false,"is_disabled":false,"rental_uris":{"android":"levelo://app?vid=53e43cf5-e876-46a3-99a6-1f74b924154e","ios":"levelo://app?vid=53e43cf5-e876-46a3-99a6-1f74b924154e"},"vehicle_type_id":"4","last_reported":1774217661,"current_range_meters":14000,"station_id":"st_d4a3vfp97mjs738cd8kg","pricing_plan_id":"cebpf4jnsgd1na2vs0mg"},{"bike_id":"ce69e0b7-52da-49a9-bb7f-7bed4f712f47","system_id":"levelo_inurba_marseille","lat":43.28491,"lon":5.48379,"is_reserved":false,"is_disabled":false,"rental_uris":{"android":"levelo://app?vid=ce69e0b7-52da-49a9-bb7f-7bed4f712f47","ios":"levelo://app?vid=ce69e0b7-52da-49a9-bb7f-7bed4f712f47"},"vehicle_type_id":"4","last_reported":1774217661,"current_range_meters":14000,"station_id":"","pricing_plan_id":"cebpf4jnsgd1na2vs0mg"},{"bike_id":"e6f78af1-1ef3-49f5-bad5-1a433948906d","system_id":"levelo_inurba_marseille","lat":43.29572,"lon":5.42278,"is_reserved":false,"is_disabled":false,"rental_uris":{"android":"levelo://app?vid=e6f78af1-1ef3-49f5-bad5-1a433948906d","ios":"levelo://app?vid=e6f78af1-1ef3-49f5-bad5-1a433948906d"},"vehicle_type_id":"4","last_reported":1774217661,"current_range_meters":14000,"station_id":"ce4bhph2rcd13ifvqhdg","pricing_plan_id":"cebpf4jnsgd1na2vs0mg"},{"bike_id":"411bd76b-e014-4875-9beb-8ff4e5d4611f","system_id":"levelo_inurba_marseille","lat":43.30325,"lon":5.45057,"is_reserved":false,"is_disabled":false,"rental_uris":{"android":"levelo://app?vid=411bd76b-e014-4875-9beb-8ff4e5d4611f","ios":"levelo://app?vid=411bd76b-e014-4875-9beb-8ff4e5d4611f"},"vehicle_type_id":"4","last_reported":1774217661,"current_range_meters":14000,"station_id":"","pricing_plan_id":"cebpf4jnsgd1na2vs0mg"},{"bike_id":"a4765a01-3ed5-4567-92b6-d84c1032ef0b","system_id":"levelo_inurba_marseille","lat":43.23802,"lon":5.36633,"is_reserved":false,"is_disabled":true,"rental_uris":{"android":"levelo://app?vid=a4765a01-3ed5-4567-92b6-d84c1032ef0b","ios":"levelo://app?vid=a4765a01-3ed5-4567-92b6-d84c1032ef0b"},"vehicle_type_id":"4","last_reported":1774217661,"current_range_meters":14000,"station_id":"st_d3nk18o9ro0c73en2l3g","pricing_plan_id":"cebpf4jnsgd1na2vs0mg"},{"bike_id":"21cb3f6b-9644-46db-b05e-356f7ef081d1","system_id":"levelo_inurba_marseille","lat":43.26382,"lon":5.4108,"is_reserved":false,"is_disabled":false,"rental_uris":{"android":"levelo://app?vid=21cb3f6b-9644-46db-b05e-356f7ef081d1","ios":"levelo://app?vid=21cb3f6b-9644-46db-b05e-356f7ef081d1"},"vehicle_type_id":"4","last_reported":1774217661,"current_range_meters":14000,"station_id":"st_d4e5ca6na9uc73bfl5fg","pricing_plan_id":"cebpf4jnsgd1na2vs0mg"},{"bike_id":"0d6d4b87-e5e3-4f3f-820f-a76fdbaed05c","system_id":"levelo_inurba_marseille","lat":43.2379,"lon":5.36633,"is_reserved":false,"is_disabled":false,"rental_uris":{"android":"levelo://app?vid=0d6d4b87-e5e3-4f3f-820f-a76fdbaed05c","ios":"levelo://app?vid=0d6d4b87-e5e3-4f3f-820f-a76fdbaed05c"},"vehicle_type_id":"4","last_reported":1774217661,"current_range_meters":14000,"station_id":"st_d3nk18o9ro0c73en2l3g","pricing_plan_id":"cebpf4jnsgd1na2vs0mg"},{"bike_id":"6f616d45-75e0-4f5d-a2aa-376fe0d706e7","system_id":"levelo_inurba_marseille","lat":43.31335,"lon":5.39707,"is_reserved":false,"is_disabled":false,"rental_uris":{"android":"levelo://app?vid=6f616d45-75e0-4f5d-a2aa-376fe0d706e7","ios":"levelo://app?vid=6f616d45-75e0-4f5d-a2aa-376fe0d706e7"},"vehicle_type_id":"4","last_reported":1774217661,"current_range_meters":14000,"station_id":"ce4bgvp2rcd13ifvqcu0","pricing_plan_id":"cebpf4jnsgd1na2vs0mg"},{"bike_id":"83e79050-4b9d-473f-9fce-e045151a1dfd","system_id":"levelo_inurba_marseille","lat":43.27936,"lon":5.41057,"is_reserved":false,"is_disabled":false,"rental_uris":{"android":"levelo://app?vid=83e79050-4b9d-473f-9fce-e045151a1dfd","ios":"levelo://app?vid=83e79050-4b9d-473f-9fce-e045151a1dfd"},"vehicle_type_id":"4","last_reported":1774217661,"current_range_meters":14000,"station_id":"ce4bhnp2rcd13ifvqh0g","pricing_plan_id":"cebpf4jnsgd1na2vs0mg"},{"bike_id":"92213428-05a5-4302-80b3-0661ec9fc4b5","system_id":"levelo_inurba_marseille","lat":43.2316,"lon":5.43698,"is_reserved":false,"is_disabled":true,"rental_uris":{"android":"levelo://app?vid=92213428-05a5-4302-80b3-0661ec9fc4b5","ios":"levelo://app?vid=92213428-05a5-4302-80b3-0661ec9fc4b5"},"vehicle_type_id":"4","last_reported":1774217661,"current_range_meters":14000,"station_id":"ce4bhmp2rcd13ifvqgog","pricing_plan_id":"cebpf4jnsgd1na2vs0mg"},{"bike_id":"c26770c7-8746-4294-8719-f354bfbbd5ee","system_id":"levelo_inurba_marseille","lat":43.23394,"lon":5.41239,"is_reserved":false,"is_disabled":false,"rental_uris":{"android":"levelo://app?vid=c26770c7-8746-4294-8719-f354bfbbd5ee","ios":"levelo://app?vid=c26770c7-8746-4294-8719-f354bfbbd5ee"},"vehicle_type_id":"4","last_reported":1774217661,"current_range_meters":14000,"station_id":"","pricing_plan_id":"cebpf4jnsgd1na2vs0mg"},{"bike_id":"add95445-deb0-4674-b3eb-4df8d9cd7952","system_id":"levelo_inurba_marseille","lat":43.32338,"lon":5.36739,"is_reserved":false,"is_disabled":false,"rental_uris":{"android":"levelo://app?vid=add95445-deb0-4674-b3eb-4df8d9cd7952","ios":"levelo://app?vid=add95445-deb0-4674-b3eb-4df8d9cd7952"},"vehicle_type_id":"4","last_reported":1774217661,"current_range_meters":14400,"station_id":"ce4bhsh2rcd13ifvqi2g","pricing_plan_id":"cebpf4jnsgd1na2vs0mg"},{"bike_id":"75ac2003-33ec-42ee-8836-1e356dbe8e37","system_id":"levelo_inurba_marseille","lat":43.29618,"lon":5.37142,"is_reserved":false,"is_disabled":false,"rental_uris":{"android":"levelo://app?vid=75ac2003-33ec-42ee-8836-1e356dbe8e37","ios":"levelo://app?vid=75ac2003-33ec-42ee-8836-1e356dbe8e37"},"vehicle_type_id":"4","last_reported":1774217661,"current_range_meters":14400,"station_id":"ce4bgnh2rcd13ifvqc0g","pricing_plan_id":"cebpf4jnsgd1na2vs0mg"},{"bike_id":"2a89624e-e8a5-4728-a258-f96278e1e013","system_id":"levelo_inurba_marseille","lat":43.25016,"lon":5.38921,"is_reserved":false,"is_disabled":true,"rental_uris":{"android":"levelo://app?vid=2a89624e-e8a5-4728-a258-f96278e1e013","ios":"levelo://app?vid=2a89624e-e8a5-4728-a258-f96278e1e013"},"vehicle_type_id":"4","last_reported":1774217661,"current_range_meters":14400,"station_id":"ce4bhgp2rcd13ifvqfd0","pricing_plan_id":"cebpf4jnsgd1na2vs0mg"},{"bike_id":"5025beec-5ce0-434c-800d-850c7bc7dd2d","system_id":"levelo_inurba_marseille","lat":43.28479,"lon":5.48398,"is_reserved":false,"is_disabled":false,"rental_uris":{"android":"levelo://app?vid=5025beec-5ce0-434c-800d-850c7bc7dd2d","ios":"levelo://app?vid=5025beec-5ce0-434c-800d-850c7bc7dd2d"},"vehicle_type_id":"4","last_reported":1774217661,"current_range_meters":14400,"station_id":"","pricing_plan_id":"cebpf4jnsgd1na2vs0mg"},{"bike_id":"cbe37100-e0a2-4f2a-864b-5550c57d2cd7","system_id":"levelo_inurba_marseille","lat":43.29903,"lon":5.39738,"is_reserved":false,"is_disabled":false,"rental_uris":{"android":"levelo://app?vid=cbe37100-e0a2-4f2a-864b-5550c57d2cd7","ios":"levelo://app?vid=cbe37100-e0a2-4f2a-864b-5550c57d2cd7"},"vehicle_type_id":"4","last_reported":1774217661,"current_range_meters":14400,"station_id":"ce4bh0h2rcd13ifvqd50","pricing_plan_id":"cebpf4jnsgd1na2vs0mg"},{"bike_id":"8bd04e76-673c-49b7-8a1f-d0e9999791db","system_id":"levelo_inurba_marseille","lat":43.28465,"lon":5.35886,"is_reserved":false,"is_disabled":false,"rental_uris":{"android":"levelo://app?vid=8bd04e76-673c-49b7-8a1f-d0e9999791db","ios":"levelo://app?vid=8bd04e76-673c-49b7-8a1f-d0e9999791db"},"vehicle_type_id":"4","last_reported":1774217661,"current_range_meters":14400,"station_id":"ce4bhah2rcd13ifvqei0","pricing_plan_id":"cebpf4jnsgd1na2vs0mg"},{"bike_id":"eff0b4ae-52c2-4b9d-866e-c84252681067","system_id":"levelo_inurba_marseille","lat":43.30282,"lon":5.36932,"is_reserved":false,"is_disabled":false,"rental_uris":{"android":"levelo://app?vid=eff0b4ae-52c2-4b9d-866e-c84252681067","ios":"levelo://app?vid=eff0b4ae-52c2-4b9d-866e-c84252681067"},"vehicle_type_id":"4","last_reported":1774217661,"current_range_meters":14400,"station_id":"ce4bgqh2rcd13ifvqc5g","pricing_plan_id":"cebpf4jnsgd1na2vs0mg"},{"bike_id":"ac6b51f8-1de3-4a47-8e51-e47ca750f1a7","system_id":"levelo_inurba_marseille","lat":43.22536,"lon":5.34839,"is_reserved":false,"is_disabled":true,"rental_uris":{"android":"levelo://app?vid=ac6b51f8-1de3-4a47-8e51-e47ca750f1a7","ios":"levelo://app?vid=ac6b51f8-1de3-4a47-8e51-e47ca750f1a7"},"vehicle_type_id":"4","last_reported":1774217661,"current_range_meters":14400,"station_id":"st_cvj5dfep6f1abm77gieg","pricing_plan_id":"cebpf4jnsgd1na2vs0mg"},{"bike_id":"265b69f4-91ac-47d2-a9fc-1ebab35db240","system_id":"levelo_inurba_marseille","lat":43.31414,"lon":5.40391,"is_reserved":false,"is_disabled":false,"rental_uris":{"android":"levelo://app?vid=265b69f4-91ac-47d2-a9fc-1ebab35db240","ios":"levelo://app?vid=265b69f4-91ac-47d2-a9fc-1ebab35db240"},"vehicle_type_id":"4","last_reported":1774217661,"current_range_meters":14400,"station_id":"","pricing_plan_id":"cebpf4jnsgd1na2vs0mg"},{"bike_id":"fa323aaf-41af-4f1b-84de-b60d0e429fed","system_id":"levelo_inurba_marseille","lat":43.28568,"lon":5.44058,"is_reserved":false,"is_disabled":false,"rental_uris":{"android":"levelo://app?vid=fa323aaf-41af-4f1b-84de-b60d0e429fed","ios":"levelo://app?vid=fa323aaf-41af-4f1b-84de-b60d0e429fed"},"vehicle_type_id":"4","last_reported":1774217661,"current_range_meters":14800,"station_id":"st_d3j3df2ikq2c7380ej80","pricing_plan_id":"cebpf4jnsgd1na2vs0mg"},