{"last_updated":1704301603,"ttl":30,"version":"2.2","data":{"bikes":[{"bike_id":"6afe66fd-d2ff-4126-8630-8f6e01c0a883","system_id":"levelo_inurba_marseille","lat":43.309076,"lon":5.368465,"is_reserved":false,"is_disabled":false,"rental_uris":{"android":"levelo://app?vid=6afe66fd-d2ff-4126-8630-8f6e01c0a883","ios":"levelo://app?vid=6afe66fd-d2ff-4126-8630-8f6e01c0a883"},"vehicle_type_id":"4","last_reported":1704301603,"current_range_meters":18000,"station_id":"ce4bgn92rcd13ifvqbvg","pricing_plan_id":"free"},{"bike_id":"136183f5-f474-4e6c-a7c4-4f6b42421cf9","system_id":"levelo_inurba_marseille","lat":43.309039,"lon":5.371797,"is_reserved":false,"is_disabled":false,"rental_uris":{"android":"levelo://app?vid=136183f5-f474-4e6c-a7c4-4f6b42421cf9","ios":"levelo://app?vid=136183f5-f474-4e6c-a7c4-4f6b42421cf9"},"vehicle_type_id":"4","last_reported":1704301603,"current_range_meters":20800,"station_id":"ce4bguh2rcd13ifvqckg","pricing_plan_id":"free"},{"bike_id":"d31766e6-9985-4530-9870-f414d30574ef","system_id":"levelo_inurba_marseille","lat":43.311131,"lon":5.377651,"is_reserved":false,"is_disabled":false,"rental_uris":{"android":"levelo://app?vid=d31766e6-9985-4530-9870-f414d30574ef","ios":"levelo://app?vid=d31766e6-9985-4530-9870-f414d30574ef"},"vehicle_type_id":"4","last_reported":1704301603,"current_range_meters":5200,"station_id":"ce4bgt92rcd13ifvqcg0","pricing_plan_id":"free"},{"bike_id":"03a942eb-d971-4ce9-b475-f71b422b176b","system_id":"levelo_inurba_marseille","lat":43.311131,"lon":5.377651,"is_reserved":false,"is_disabled":false,"rental_uris":{"android":"levelo://app?vid=03a942eb-d971-4ce9-b475-f71b422b176b","ios":"levelo://app?vid=03a942eb-d971-4ce9-b475-f71b422b176b"},"vehicle_type_id":"4","last_reported":1704301603,"current_range_meters":2800,"station_id":"ce4bgt92rcd13ifvqcg0","pricing_plan_id":"free"},{"bike_id":"bf061781-984c-4f85-8a5f-5e8d9b7ab55c","system_id":"levelo_inurba_marseille","lat":43.311131,"lon":5.377651,"is_reserved":false,"is_disabled":false,"rental_uris":{"android":"levelo://app?vid=bf061781-984c-4f85-8a5f-5e8d9b7ab55c","ios":"levelo://app?vid=bf061781-984c-4f85-8a5f-5e8d9b7ab55c"},"vehicle_type_id":"4","last_reported":1704301603,"current_range_meters":25200,"station_id":"ce4bgt92rcd13ifvqcg0","pricing_plan_id":"free"},{"bike_id":"ea05a02c-1f0f-46f8-a1a2-2888b64c2b16","system_id":"levelo_inurba_marseille","lat":43.31116,"lon":5.37774,"is_reserved":false,"is_disabled":false,"rental_uris":{"android":"levelo://app?vid=ea05a02c-1f0f-46f8-a1a2-2888b64c2b16","ios":"levelo://app?vid=ea05a02c-1f0f-46f8-a1a2-2888b64c2b16"},"vehicle_type_id":"4","last_reported":1704301603,"current_range_meters":5600,"station_id":"ce4bgt92rcd13ifvqcg0","pricing_plan_id":"free"},{"bike_id":"cae67600-cb4b-4e57-9326-ff2da8f9ab4c","system_id":"levelo_inurba_marseille","lat":43.307945,"lon":5.376487,"is_reserved":false,"is_disabled":false,"rental_uris":{"android":"levelo://app?vid=cae67600-cb4b-4e57-9326-ff2da8f9ab4c","ios":"levelo://app?vid=cae67600-cb4b-4e57-9326-ff2da8f9ab4c"},"vehicle_type_id":"4","last_reported":1704301603,"current_range_meters":10400,"station_id":"ce4bgv92rcd13ifvqcq0","pricing_plan_id":"free"},{"bike_id":"c2775606-fc04-48a8-8700-1cc14f96a7e9","system_id":"levelo_inurba_marseille","lat":43.31055,"lon":5.37867,"is_reserved":false,"is_disabled":false,"rental_uris":{"android":"levelo://app?vid=c2775606-fc04-48a8-8700-1cc14f96a7e9","ios":"levelo://app?vid=c2775606-fc04-48a8-8700-1cc14f96a7e9"},"vehicle_type_id":"4","last_reported":1704301603,"current_range_meters":16400,"station_id":"","pricing_plan_id":"free"},{"bike_id":"c4e90871-bb94-4085-82dc-ccbd997a22ca","system_id":"levelo_inurba_marseille","lat":43.31529,"lon":5.37907,"is_reserved":false,"is_disabled":false,"rental_uris":{"android":"levelo://app?vid=c4e90871-bb94-4085-82dc-ccbd997a22ca","ios":"levelo://app?vid=c4e90871-bb94-4085-82dc-ccbd997a22ca"},"vehicle_type_id":"4","last_reported":1704301603,"current_range_meters":22400,"station_id":"","pricing_plan_id":"free"},{"bike_id":"a07874e0-8e6c-486f-9ba3-73cff57a6a79","system_id":"levelo_inurba_marseille","lat":43.308012,"lon":5.381511,"is_reserved":false,"is_disabled":false,"rental_uris":{"android":"levelo://app?vid=a07874e0-8e6c-486f-9ba3-73cff57a6a79","ios":"levelo://app?vid=a07874e0-8e6c-486f-9ba3-73cff57a6a79"},"vehicle_type_id":"4","last_reported":1704301603,"current_range_meters":4000,"station_id":"ce4bgt12rcd13ifvqce0","pricing_plan_id":"free"},{"bike_id":"580ba7d6-a6f0-4b2e-865e-c88ed06683a3","system_id":"levelo_inurba_marseille","lat":43.308012,"lon":5.381511,"is_reserved":false,"is_disabled":false,"rental_uris":{"android":"levelo://app?vid=580ba7d6-a6f0-4b2e-865e-c88ed06683a3","ios":"levelo://app?vid=580ba7d6-a6f0-4b2e-865e-c88ed06683a3"},"vehicle_type_id":"4","last_reported":1704301603,"current_range_meters":6800,"station_id":"ce4bgt12rcd13ifvqce0","pricing_plan_id":"free"},{"bike_id":"c7b04ad9-b80b-40de-8e5d-a5c15fbf95d0","system_id":"levelo_inurba_marseille","lat":43.308012,"lon":5.381511,"is_reserved":false,"is_disabled":false,"rental_uris":{"android":"levelo://app?vid=c7b04ad9-b80b-40de-8e5d-a5c15fbf95d0","ios":"levelo://app?vid=c7b04ad9-b80b-40de-8e5d-a5c15fbf95d0"},"vehicle_type_id":"4","last_reported":1704301603,"current_range_meters":15200,"station_id":"ce4bgt12rcd13ifvqce0","pricing_plan_id":"free"},{"bike_id":"24fac2fd-96e0-495e-9a3a-317e2bdb78f1","system_id":"levelo_inurba_marseille","lat":43.308012,"lon":5.381511,"is_reserved":false,"is_disabled":false,"rental_uris":{"android":"levelo://app?vid=24fac2fd-96e0-495e-9a3a-317e2bdb78f1","ios":"levelo://app?vid=24fac2fd-96e0-495e-9a3a-317e2bdb78f1"},"vehicle_type_id":"4","last_reported":1704301603,"current_range_meters":6000,"station_id":"ce4bgt12rcd13ifvqce0","pricing_plan_id":"free"},{"bike_id":"2c9de222-01f9-43f4-bc5d-2dc78df54bce","system_id":"levelo_inurba_marseille","lat":43.308012,"lon":5.381511,"is_reserved":false,"is_disabled":false,"rental_uris":{"android":"levelo://app?vid=2c9de222-01f9-43f4-bc5d-2dc78df54bce","ios":"levelo://app?vid=2c9de222-01f9-43f4-bc5d-2dc78df54bce"},"vehicle_type_id":"4","last_reported":1704301603,"current_range_meters":9200,"station_id":"ce4bgt12rcd13ifvqce0","pricing_plan_id":"free"},{"bike_id":"8d0f6955-0a0b-42c2-82ac-9535dcab578a","system_id":"levelo_inurba_marseille","lat":43.308012,"lon":5.381511,"is_reserved":false,"is_disabled":false,"rental_uris":{"android":"levelo://app?vid=8d0f6955-0a0b-42c2-82ac-9535dcab578a","ios":"levelo://app?vid=8d0f6955-0a0b-42c2-82ac-9535dcab578a"},"vehicle_type_id":"4","last_reported":1704301603,"current_range_meters":6800,"station_id":"ce4bgt12rcd13ifvqce0","pricing_plan_id":"free"},{"bike_id":"5377074b-30e2-4d67-825b-9deb3b1dbed3","system_id":"levelo_inurba_marseille","lat":43.304708,"lon":5.379039,"is_reserved":false,"is_disabled":false,"rental_uris":{"android":"levelo://app?vid=5377074b-30e2-4d67-825b-9deb3b1dbed3","ios":"levelo://app?vid=5377074b-30e2-4d67-825b-9deb3b1dbed3"},"vehicle_type_id":"4","last_reported":1704301603,"current_range_meters":6400,"station_id":"","pricing_plan_id":"free"},{"bike_id":"b5cb62bb-03e8-4afb-8bce-9c83d15e72f7","system_id":"levelo_inurba_marseille","lat":43.304606,"lon":5.379026,"is_reserved":false,"is_disabled":false,"rental_uris":{"android":"levelo://app?vid=b5cb62bb-03e8-4afb-8bce-9c83d15e72f7","ios":"levelo://app?vid=b5cb62bb-03e8-4afb-8bce-9c83d15e72f7"},"vehicle_type_id":"4","last_reported":1704301603,"current_range_meters":17200,"station_id":"ce4bgup2rcd13ifvqcn0","pricing_plan_id":"free"},{"bike_id":"3c9b09b7-84dc-4734-9859-930c8fde6743","system_id":"levelo_inurba_marseille","lat":43.324771,"lon":5.36557,"is_reserved":false,"is_disabled":false,"rental_uris":{"android":"levelo://app?vid=3c9b09b7-84dc-4734-9859-930c8fde6743","ios":"levelo://app?vid=3c9b09b7-84dc-4734-9859-930c8fde6743"},"vehicle_type_id":"4","last_reported":1704301603,"current_range_meters":16400,"station_id":"ce4bhs12rcd13ifvqhvg","pricing_plan_id":"free"},{"bike_id":"688569fa-81a1-4322-8300-c299ae5152f3","system_id":"levelo_inurba_marseille","lat":43.324771,"lon":5.36557,"is_reserved":false,"is_disabled":false,"rental_uris":{"android":"levelo://app?vid=688569fa-81a1-4322-8300-c299ae5152f3","ios":"levelo://app?vid=688569fa-81a1-4322-8300-c299ae5152f3"},"vehicle_type_id":"4","last_reported":1704301603,"current_range_meters":17200,"station_id":"ce4bhs12rcd13ifvqhvg","pricing_plan_id":"free"},{"bike_id":"05033d6b-820d-4c0f-b542-b0a5c6766086","system_id":"levelo_inurba_marseille","lat":43.302885,"lon":5.376985,"is_reserved":false,"is_disabled":false,"rental_uris":{"android":"levelo://app?vid=05033d6b-820d-4c0f-b542-b0a5c6766086","ios":"levelo://app?vid=05033d6b-820d-4c0f-b542-b0a5c6766086"},"vehicle_type_id":"4","last_reported":1704301603,"current_range_meters":18800,"station_id":"","pricing_plan_id":"free"},{"bike_id":"63cbeba6-6cfe-40ba-8a9c-acc9281d0118","system_id":"levelo_inurba_marseille","lat":43.302779,"lon":5.377033,"is_reserved":false,"is_disabled":false,"rental_uris":{"android":"levelo://app?vid=63cbeba6-6cfe-40ba-8a9c-acc9281d0118","ios":"levelo://app?vid=63cbeba6-6cfe-40ba-8a9c-acc9281d0118"},"vehicle_type_id":"4","last_reported":1704301603,"current_range_meters":14800,"station_id":"","pricing_plan_id":"free"},{"bike_id":"27edb422-b229-4387-add4-61283ee33a39","system_id":"levelo_inurba_marseille","lat":43.30143,"lon":5.37413,"is_reserved":false,"is_disabled":false,"rental_uris":{"android":"levelo://app?vid=27edb422-b229-4387-add4-61283ee33a39","ios":"levelo://app?vid=27edb422-b229-4387-add4-61283ee33a39"},"vehicle_type_id":"4","last_reported":1704301603,"current_range_meters":14800,"station_id":"ce4bgs92rcd13ifvqcc0","pricing_plan_id":"free"},{"bike_id":"a512f993-b9dc-413c-be59-f44567b01314","system_id":"levelo_inurba_marseille","lat":43.30268,"lon":5.3773,"is_reserved":false,"is_disabled":false,"rental_uris":{"android":"levelo://app?vid=a512f993-b9dc-413c-be59-f44567b01314","ios":"levelo://app?vid=a512f993-b9dc-413c-be59-f44567b01314"},"vehicle_type_id":"4","last_reported":1704301603,"current_range_meters":10400,"station_id":"","pricing_plan_id":"free"},{"bike_id":"bfa46d25-9cf5-421a-8946-8a4d57d0f05f","system_id":"levelo_inurba_marseille","lat":43.319935,"lon":5.381699,"is_reserved":false,"is_disabled":false,"rental_uris":{"android":"levelo://app?vid=bfa46d25-9cf5-421a-8946-8a4d57d0f05f","ios":"levelo://app?vid=bfa46d25-9cf5-421a-8946-8a4d57d0f05f"},"vehicle_type_id":"4","last_reported":1704301603,"current_range_meters":4400,"station_id":"ce4bhr12rcd13ifvqhpg","pricing_plan_id":"free"},{"bike_id":"442c1b48-0c9d-41d7-80ff-51493b8682d0","system_id":"levelo_inurba_marseille","lat":43.319935,"lon":5.381699,"is_reserved":false,"is_disabled":false,"rental_uris":{"android":"levelo://app?vid=442c1b48-0c9d-41d7-80ff-51493b8682d0","ios":"levelo://app?vid=442c1b48-0c9d-41d7-80ff-51493b8682d0"},"vehicle_type_id":"4","last_reported":1704301603,"current_range_meters":16800,"station_id":"ce4bhr12rcd13ifvqhpg","pricing_plan_id":"free"},{"bike_id":"17504bde-947a-4cd6-98b3-9a4c66aca99b","system_id":"levelo_inurba_marseille","lat":43.313827,"lon":5.385007,"is_reserved":false,"is_disabled":false,"rental_uris":{"android":"levelo://app?vid=17504bde-947a-4cd6-98b3-9a4c66aca99b","ios":"levelo://app?vid=17504bde-947a-4cd6-98b3-9a4c66aca99b"},"vehicle_type_id":"4","last_reported":1704301603,"current_range_meters":16400,"station_id":"ce4bgt92rcd13ifvqcf0","pricing_plan_id":"free"},{"bike_id":"a930e640-78e8-4b58-8411-c4ec23c37477","system_id":"levelo_inurba_marseille","lat":43.299222,"lon":5.365554,"is_reserved":false,"is_disabled":false,"rental_uris":{"android":"levelo://app?vid=a930e640-78e8-4b58-8411-c4ec23c37477","ios":"levelo://app?vid=a930e640-78e8-4b58-8411-c4ec23c37477"},"vehicle_type_id":"4","last_reported":1704301603,"current_range_meters":0,"station_id":"ce4bgm92rcd13ifvqbr0","pricing_plan_id":"free"},{"bike_id":"8de6b188-8f23-4cdc-9ca9-625c1a58aa2c","system_id":"levelo_inurba_marseille","lat":43.299724,"lon":5.371829,"is_reserved":false,"is_disabled":false,"rental_uris":{"android":"levelo://app?vid=8de6b188-8f23-4cdc-9ca9-625c1a58aa2c","ios":"levelo://app?vid=8de6b188-8f23-4cdc-9ca9-625c1a58aa2c"},"vehicle_type_id":"4","last_reported":1704301603,"current_range_meters":29200,"station_id":"ce4bgr92rcd13ifvqc7g","pricing_plan_id":"free"},{"bike_id":"8975c8c2-a024-4692-9a3d-4e0aa8622e95","system_id":"levelo_inurba_marseille","lat":43.311722,"lon":5.387247,"is_reserved":false,"is_disabled":false,"rental_uris":{"android":"levelo://app?vid=8975c8c2-a024-4692-9a3d-4e0aa8622e95","ios":"levelo://app?vid=8975c8c2-a024-4692-9a3d-4e0aa8622e95"},"vehicle_type_id":"4","last_reported":1704301603,"current_range_meters":17600,"station_id":"ce4bgv12rcd13ifvqcp0","pricing_plan_id":"free"},{"bike_id":"f9367c49-919c-49e8-8b02-a0bd68d9ad1d","system_id":"levelo_inurba_marseille","lat":43.311722,"lon":5.387247,"is_reserved":false,"is_disabled":false,"rental_uris":{"android":"levelo://app?vid=f9367c49-919c-49e8-8b02-a0bd68d9ad1d","ios":"levelo://app?vid=f9367c49-919c-49e8-8b02-a0bd68d9ad1d"},"vehicle_type_id":"4","last_reported":1704301603,"current_range_meters":25200,"station_id":"ce4bgv12rcd13ifvqcp0","pricing_plan_id":"free"},{"bike_id":"f53e7a9d-7ee6-4428-85bd-3db5d7cc3975","system_id":"levelo_inurba_marseille","lat":43.322872,"lon":5.382756,"is_reserved":false,"is_disabled":false,"rental_uris":{"android":"levelo://app?vid=f53e7a9d-7ee6-4428-85bd-3db5d7cc3975","ios":"levelo://app?vid=f53e7a9d-7ee6-4428-85bd-3db5d7cc3975"},"vehicle_type_id":"4","last_reported":1704301603,"current_range_meters":24000,"station_id":"ce4bhr12rcd13ifvqhqg","pricing_plan_id":"free"},{"bike_id":"b1b531a6-b271-457f-a47c-b5f17d57c6b0","system_id":"levelo_inurba_marseille","lat":43.322872,"lon":5.382756,"is_reserved":false,"is_disabled":false,"rental_uris":{"android":"levelo://app?vid=b1b531a6-b271-457f-a47c-b5f17d57c6b0","ios":"levelo://app?vid=b1b531a6-b271-457f-a47c-b5f17d57c6b0"},"vehicle_type_id":"4","last_reported":1704301603,"current_range_meters":5200,"station_id":"ce4bhr12rcd13ifvqhqg","pricing_plan_id":"free"},{"bike_id":"0fd1a754-34d0-4db5-92ef-c7d51180155b","system_id":"levelo_inurba_marseille","lat":43.322872,"lon":5.382756,"is_reserved":false,"is_disabled":false,"rental_uris":{"android":"levelo://app?vid=0fd1a754-34d0-4db5-92ef-c7d51180155b","ios":"levelo://app?vid=0fd1a754-34d0-4db5-92ef-c7d51180155b"},"vehicle_type_id":"4","last_reported":1704301603,"current_range_meters":20800,"station_id":"ce4bhr12rcd13ifvqhqg","pricing_plan_id":"free"},{"bike_id":"e344a4f8-37b0-4824-b7de-a9d0470bf846","system_id":"levelo_inurba_marseille","lat":43.322872,"lon":5.382756,"is_reserved":false,"is_disabled":false,"rental_uris":{"android":"levelo://app?vid=e344a4f8-37b0-4824-b7de-a9d0470bf846","ios":"levelo://app?vid=e344a4f8-37b0-4824-b7de-a9d0470bf846"},"vehicle_type_id":"4","last_reported":1704301603,"current_range_meters":27200,"station_id":"ce4bhr12rcd13ifvqhqg","pricing_plan_id":"free"},{"bike_id":"108ce918-b7b7-41d5-968a-6405b5e614b1","system_id":"levelo_inurba_marseille","lat":43.32821,"lon":5.36691,"is_reserved":false,"is_disabled":false,"rental_uris":{"android":"levelo://app?vid=108ce918-b7b7-41d5-968a-6405b5e614b1","ios":"levelo://app?vid=108ce918-b7b7-41d5-968a-6405b5e614b1"},"vehicle_type_id":"4","last_reported":1704301603,"current_range_meters":24400,"station_id":"ce4bhs92rcd13ifvqi0g","pricing_plan_id":"free"},{"bike_id":"106cfb23-e7c0-4528-8caf-a329f2c62988","system_id":"levelo_inurba_marseille","lat":43.328371,"lon":5.366909,"is_reserved":false,"is_disabled":false,"rental_uris":{"android":"levelo://app?vid=106cfb23-e7c0-4528-8caf-a329f2c62988","ios":"levelo://app?vid=106cfb23-e7c0-4528-8caf-a329f2c62988"},"vehicle_type_id":"4","last_reported":1704301603,"current_range_meters":11200,"station_id":"ce4bhs92rcd13ifvqi0g","pricing_plan_id":"free"},{"bike_id":"0f5b3cdf-df82-42cb-9086-af0f50b1e0fd","system_id":"levelo_inurba_marseille","lat":43.328371,"lon":5.366909,"is_reserved":false,"is_disabled":false,"rental_uris":{"android":"levelo://app?vid=0f5b3cdf-df82-42cb-9086-af0f50b1e0fd","ios":"levelo://app?vid=0f5b3cdf-df82-42cb-9086-af0f50b1e0fd"},"vehicle_type_id":"4","last_reported":1704301603,"current_range_meters":27600,"station_id":"ce4bhs92rcd13ifvqi0g","pricing_plan_id":"free"},{"bike_id":"5f74c51c-6210-4ad0-865c-d637c18269b9","system_id":"levelo_inurba_marseille","lat":43.32833,"lon":5.36692,"is_reserved":false,"is_disabled":false,"rental_uris":{"android":"levelo://app?vid=5f74c51c-6210-4ad0-865c-d637c18269b9","ios":"levelo://app?vid=5f74c51c-6210-4ad0-865c-d637c18269b9"},"vehicle_type_id":"4","last_reported":1704301603,"current_range_meters":28000,"station_id":"ce4bhs92rcd13ifvqi0g","pricing_plan_id":"free"},{"bike_id":"9a71c31e-a65f-4a84-82db-3d8b900b3e6b","system_id":"levelo_inurba_marseille","lat":43.297163,"lon":5.365866,"is_reserved":false,"is_disabled":false,"rental_uris":{"android":"levelo://app?vid=9a71c31e-a65f-4a84-82db-3d8b900b3e6b","ios":"levelo://app?vid=9a71c31e-a65f-4a84-82db-3d8b900b3e6b"},"vehicle_type_id":"4","last_reported":1704301603,"current_range_meters":23600,"station_id":"ce4bgn12rcd13ifvqbt0","pricing_plan_id":"free"},{"bike_id":"370cccf7-c9ba-46c2-819b-c8e8cacc4c21","system_id":"levelo_inurba_marseille","lat":43.3277,"lon":5.37458,"is_reserved":false,"is_disabled":false,"rental_uris":{"android":"levelo://app?vid=370cccf7-c9ba-46c2-819b-c8e8cacc4c21","ios":"levelo://app?vid=370cccf7-c9ba-46c2-819b-c8e8cacc4c21"},"vehicle_type_id":"4","last_reported":1704301603,"current_range_meters":4400,"station_id":"","pricing_plan_id":"free"},{"bike_id":"42df1185-1a97-44ba-bd2f-fdb0cc5a7b80","system_id":"levelo_inurba_marseille","lat":43.2968,"lon":5.37291,"is_reserved":false,"is_disabled":false,"rental_uris":{"android":"levelo://app?vid=42df1185-1a97-44ba-bd2f-fdb0cc5a7b80","ios":"levelo://app?vid=42df1185-1a97-44ba-bd2f-fdb0cc5a7b80"},"vehicle_type_id":"4","last_reported":1704301603,"current_range_meters":26800,"station_id":"ce4bgk12rcd13ifvqbj0","pricing_plan_id":"free"},{"bike_id":"b4b0072a-d044-4748-9033-f7fa33c220ca","system_id":"levelo_inurba_marseille","lat":43.296129,"lon":5.370777,"is_reserved":false,"is_disabled":false,"rental_uris":{"android":"levelo://app?vid=b4b0072a-d044-4748-9033-f7fa33c220ca","ios":"levelo://app?vid=b4b0072a-d044-4748-9033-f7fa33c220ca"},"vehicle_type_id":"4","last_reported":1704301603,"current_range_meters":16400,"station_id":"ce4bgnh2rcd13ifvqc0g","pricing_plan_id":"free"},{"bike_id":"d4f55c46-ab65-43f6-95d1-11f077ac148a","system_id":"levelo_inurba_marseille","lat":43.299028,"lon":5.381509,"is_reserved":false,"is_disabled":false,"rental_uris":{"android":"levelo://app?vid=d4f55c46-ab65-43f6-95d1-11f077ac148a","ios":"levelo://app?vid=d4f55c46-ab65-43f6-95d1-11f077ac148a"},"vehicle_type_id":"4","last_reported":1704301603,"current_range_meters":10000,"station_id":"ce4bgj12rcd13ifvqbc0","pricing_plan_id":"free"},{"bike_id":"e59f2f11-0c96-4866-82c0-b19259aa8f5c","system_id":"levelo_inurba_marseille","lat":43.29788,"lon":5.380845,"is_reserved":false,"is_disabled":false,"rental_uris":{"android":"levelo://app?vid=e59f2f11-0c96-4866-82c0-b19259aa8f5c","ios":"levelo://app?vid=e59f2f11-0c96-4866-82c0-b19259aa8f5c"},"vehicle_type_id":"4","last_reported":1704301603,"current_range_meters":0,"station_id":"ce4bgip2rcd13ifvqbb0","pricing_plan_id":"free"},{"bike_id":"8cfb0be2-1443-4d4d-b256-4116c944bae9","system_id":"levelo_inurba_marseille","lat":43.298037,"lon":5.381066,"is_reserved":false,"is_disabled":false,"rental_uris":{"android":"levelo://app?vid=8cfb0be2-1443-4d4d-b256-4116c944bae9","ios":"levelo://app?vid=8cfb0be2-1443-4d4d-b256-4116c944bae9"},"vehicle_type_id":"4","last_reported":1704301603,"current_range_meters":27200,"station_id":"ce4bgip2rcd13ifvqbb0","pricing_plan_id":"free"},{"bike_id":"7674545c-b054-4a99-8194-ba1c3a4b3725","system_id":"levelo_inurba_marseille","lat":43.304274,"lon":5.388873,"is_reserved":false,"is_disabled":false,"rental_uris":{"android":"levelo://app?vid=7674545c-b054-4a99-8194-ba1c3a4b3725","ios":"levelo://app?vid=7674545c-b054-4a99-8194-ba1c3a4b3725"},"vehicle_type_id":"4","last_reported":1704301603,"current_range_meters":18400,"station_id":"ce4bgk12rcd13ifvqbi0","pricing_plan_id":"free"},{"bike_id":"05899742-db8b-4218-94f4-fc779404cf2e","system_id":"levelo_inurba_marseille","lat":43.295748,"lon":5.37522,"is_reserved":false,"is_disabled":false,"rental_uris":{"android":"levelo://app?vid=05899742-db8b-4218-94f4-fc779404cf2e","ios":"levelo://app?vid=05899742-db8b-4218-94f4-fc779404cf2e"},"vehicle_type_id":"4","last_reported":1704301603,"current_range_meters":22800,"station_id":"ce4bgh92rcd13ifvqb50","pricing_plan_id":"free"},{"bike_id":"d60802d6-4f47-444a-b234-883690eec05b","system_id":"levelo_inurba_marseille","lat":43.33062,"lon":5.3627,"is_reserved":false,"is_disabled":false,"rental_uris":{"android":"levelo://app?vid=d60802d6-4f47-444a-b234-883690eec05b","ios":"levelo://app?vid=d60802d6-4f47-444a-b234-883690eec05b"},"vehicle_type_id":"4","last_reported":1704301603,"current_range_meters":11200,"station_id":"","pricing_plan_id":"free"},{"bike_id":"c46f112d-f42a-47e2-87b5-9d53e0c6aa56","system_id":"levelo_inurba_marseille","lat":43.292642,"lon":5.384254,"is_reserved":false,"is_disabled":false,"rental_uris":{"android":"levelo://app?vid=c46f112d-f42a-47e2-87b5-9d53e0c6aa56","ios":"levelo://app?vid=c46f112d-f42a-47e2-87b5-9d53e0c6aa56"},"vehicle_type_id":"4","last_reported":1704301603,"current_range_meters":14400,"station_id":"ce4bh692rcd13ifvqea0","pricing_plan_id":"free"},{"bike_id":"7119845d-00aa-4d9f-be8c-fc97d41f1380","system_id":"levelo_inurba_marseille","lat":43.297594,"lon":5.381134,"is_reserved":false,"is_disabled":false,"rental_uris":{"android":"levelo://app?vid=7119845d-00aa-4d9f-be8c-fc97d41f1380","ios":"levelo://app?vid=7119845d-00aa-4d9f-be8c-fc97d41f1380"},"vehicle_type_id":"4","last_reported":1704301603,"current_range_meters":0,"station_id":"ce4bgip2rcd13ifvqbb0","pricing_plan_id":"free"},{"bike_id":"4a9311c4-4db5-4367-b1f7-d435bd185033","system_id":"levelo_inurba_marseille","lat":43.32668,"lon":5.38406,"is_reserved":false,"is_disabled":false,"rental_uris":{"android":"levelo://app?vid=4a9311c4-4db5-4367-b1f7-d435bd185033","ios":"levelo://app?vid=4a9311c4-4db5-4367-b1f7-d435bd185033"},"vehicle_type_id":"4","last_reported":1704301603,"current_range_meters":10400,"station_id":"","pricing_plan_id":"free"},{"bike_id":"72c167da-a4b1-4690-a69c-dba56aa67da4","system_id":"levelo_inurba_marseille","lat":43.32367,"lon":5.388836,"is_reserved":false,"is_disabled":false,"rental_uris":{"android":"levelo://app?vid=72c167da-a4b1-4690-a69c-dba56aa67da4","ios":"levelo://app?vid=72c167da-a4b1-4690-a69c-dba56aa67da4"},"vehicle_type_id":"4","last_reported":1704301603,"current_range_meters":13600,"station_id":"ce4bhqp2rcd13ifvqhog","pricing_plan_id":"free"},{"bike_id":"a082d93e-a2f1-41b2-af8f-b1546d9caff3","system_id":"levelo_inurba_marseille","lat":43.304278,"lon":5.388868,"is_reserved":false,"is_disabled":false,"rental_uris":{"android":"levelo://app?vid=a082d93e-a2f1-41b2-af8f-b1546d9caff3","ios":"levelo://app?vid=a082d93e-a2f1-41b2-af8f-b1546d9caff3"},"vehicle_type_id":"4","last_reported":1704301603,"current_range_meters":0,"station_id":"ce4bgk12rcd13ifvqbi0","pricing_plan_id":"free"},{"bike_id":"91c42bd7-d0c5-4d0a-a2f4-e60e0cd28141","system_id":"levelo_inurba_marseille","lat":43.293009,"lon":5.374584,"is_reserved":false,"is_disabled":false,"rental_uris":{"android":"levelo://app?vid=91c42bd7-d0c5-4d0a-a2f4-e60e0cd28141","ios":"levelo://app?vid=91c42bd7-d0c5-4d0a-a2f4-e60e0cd28141"},"vehicle_type_id":"4","last_reported":1704301603,"current_range_meters":24800,"station_id":"ce4bgi12rcd13ifvqb70","pricing_plan_id":"free"},{"bike_id":"f40977a9-fade-4078-8628-a75e5b832882","system_id":"levelo_inurba_marseille","lat":43.293009,"lon":5.374584,"is_reserved":false,"is_disabled":false,"rental_uris":{"android":"levelo://app?vid=f40977a9-fade-4078-8628-a75e5b832882","ios":"levelo://app?vid=f40977a9-fade-4078-8628-a75e5b832882"},"vehicle_type_id":"4","last_reported":1704301603,"current_range_meters":5600,"station_id":"ce4bgi12rcd13ifvqb70","pricing_plan_id":"free"},{"bike_id":"b27c0930-de23-4634-b7dd-e3b9263f8aff","system_id":"levelo_inurba_marseille","lat":43.305994,"lon":5.393687,"is_reserved":false,"is_disabled":false,"rental_uris":{"android":"levelo://app?vid=b27c0930-de23-4634-b7dd-e3b9263f8aff","ios":"levelo://app?vid=b27c0930-de23-4634-b7dd-e3b9263f8aff"},"vehicle_type_id":"4","last_reported":1704301603,"current_range_meters":16800,"station_id":"ce4bh0p2rcd13ifvqd80","pricing_plan_id":"free"},{"bike_id":"46408279-ca9a-4498-b54f-f2df7272cbf6","system_id":"levelo_inurba_marseille","lat":43.2936,"lon":5.37835,"is_reserved":false,"is_disabled":false,"rental_uris":{"android":"levelo://app?vid=46408279-ca9a-4498-b54f-f2df7272cbf6","ios":"levelo://app?vid=46408279-ca9a-4498-b54f-f2df7272cbf6"},"vehicle_type_id":"4","last_reported":1704301603,"current_range_meters":26800,"station_id":"ce4bgjh2rcd13ifvqbf0","pricing_plan_id":"free"},{"bike_id":"e205de6d-c98b-4306-b1dc-d93cb8351d2f","system_id":"levelo_inurba_marseille","lat":43.2936,"lon":5.37835,"is_reserved":false,"is_disabled":false,"rental_uris":{"android":"levelo://app?vid=e205de6d-c98b-4306-b1dc-d93cb8351d2f","ios":"levelo://app?vid=e205de6d-c98b-4306-b1dc-d93cb8351d2f"},"vehicle_type_id":"4","last_reported":1704301603,"current_range_meters":27600,"station_id":"ce4bgjh2rcd13ifvqbf0","pricing_plan_id":"free"},{"bike_id":"6155a6a5-a55a-422c-a7f8-4f481db6e418","system_id":"levelo_inurba_marseille","lat":43.292311,"lon":5.360731,"is_reserved":false,"is_disabled":false,"rental_uris":{"android":"levelo://app?vid=6155a6a5-a55a-422c-a7f8-4f481db6e418","ios":"levelo://app?vid=6155a6a5-a55a-422c-a7f8-4f481db6e418"},"vehicle_type_id":"4","last_reported":1704301603,"current_range_meters":0,"station_id":"ce4bhbh2rcd13ifvqeqg","pricing_plan_id":"free"},{"bike_id":"db68d0c1-9640-45c2-a1da-e67c600b9178","system_id":"levelo_inurba_marseille","lat":43.28856,"lon":5.358371,"is_reserved":false,"is_disabled":false,"rental_uris":{"android":"levelo://app?vid=db68d0c1-9640-45c2-a1da-e67c600b9178","ios":"levelo://app?vid=db68d0c1-9640-45c2-a1da-e67c600b9178"},"vehicle_type_id":"4","last_reported":1704301603,"current_range_meters":24400,"station_id":"ce4bhb12rcd13ifvqem0","pricing_plan_id":"free"},{"bike_id":"bee0d25e-5928-4166-a427-6e32ca8691d8","system_id":"levelo_inurba_marseille","lat":43.292604,"lon":5.376181,"is_reserved":false,"is_disabled":false,"rental_uris":{"android":"levelo://app?vid=bee0d25e-5928-4166-a427-6e32ca8691d8","ios":"levelo://app?vid=bee0d25e-5928-4166-a427-6e32ca8691d8"},"vehicle_type_id":"4","last_reported":1704301603,"current_range_meters":15200,"station_id":"","pricing_plan_id":"free"},{"bike_id":"81907ea5-b8c8-4355-8ca5-141248750eb2","system_id":"levelo_inurba_marseille","lat":43.291675,"lon":5.371583,"is_reserved":false,"is_disabled":false,"rental_uris":{"android":"levelo://app?vid=81907ea5-b8c8-4355-8ca5-141248750eb2","ios":"levelo://app?vid=81907ea5-b8c8-4355-8ca5-141248750eb2"},"vehicle_type_id":"4","last_reported":1704301603,"current_range_meters":23600,"station_id":"ce4bha92rcd13ifvqeh0","pricing_plan_id":"free"},{"bike_id":"7b812371-1eb1-42dc-a5b1-d8570736d800","system_id":"levelo_inurba_marseille","lat":43.313291,"lon":5.396838,"is_reserved":false,"is_disabled":false,"rental_uris":{"android":"levelo://app?vid=7b812371-1eb1-42dc-a5b1-d8570736d800","ios":"levelo://app?vid=7b812371-1eb1-42dc-a5b1-d8570736d800"},"vehicle_type_id":"4","last_reported":1704301603,"current_range_meters":18800,"station_id":"ce4bgvp2rcd13ifvqcu0","pricing_plan_id":"free"},{"bike_id":"db0b473c-b957-4b85-92d4-070515c92a07","system_id":"levelo_inurba_marseille","lat":43.309038,"lon":5.396546,"is_reserved":false,"is_disabled":false,"rental_uris":{"android":"levelo://app?vid=db0b473c-b957-4b85-92d4-070515c92a07","ios":"levelo://app?vid=db0b473c-b957-4b85-92d4-070515c92a07"},"vehicle_type_id":"4","last_reported":1704301603,"current_range_meters":22000,"station_id":"ce4bh012rcd13ifvqcv0","pricing_plan_id":"free"},{"bike_id":"da64c4ef-e9c9-4af7-aba6-4cf29e034f1d","system_id":"levelo_inurba_marseille","lat":43.313291,"lon":5.396838,"is_reserved":false,"is_disabled":false,"rental_uris":{"android":"levelo://app?vid=da64c4ef-e9c9-4af7-aba6-4cf29e034f1d","ios":"levelo://app?vid=da64c4ef-e9c9-4af7-aba6-4cf29e034f1d"},"vehicle_type_id":"4","last_reported":1704301603,"current_range_meters":3200,"station_id":"ce4bgvp2rcd13ifvqcu0","pricing_plan_id":"free"},{"bike_id":"21cde0c2-6d0f-4587-969b-ac7a0c9ae065","system_id":"levelo_inurba_marseille","lat":43.309038,"lon":5.396546,"is_reserved":false,"is_disabled":false,"rental_uris":{"android":"levelo://app?vid=21cde0c2-6d0f-4587-969b-ac7a0c9ae065","ios":"levelo://app?vid=21cde0c2-6d0f-4587-969b-ac7a0c9ae065"},"vehicle_type_id":"4","last_reported":1704301603,"current_range_meters":6000,"station_id":"ce4bh012rcd13ifvqcv0","pricing_plan_id":"free"},{"bike_id":"b5cba516-c571-4662-8fe3-9b34aa3510c9","system_id":"levelo_inurba_marseille","lat":43.30886,"lon":5.3965,"is_reserved":false,"is_disabled":false,"rental_uris":{"android":"levelo://app?vid=b5cba516-c571-4662-8fe3-9b34aa3510c9","ios":"levelo://app?vid=b5cba516-c571-4662-8fe3-9b34aa3510c9"},"vehicle_type_id":"4","last_reported":1704301603,"current_range_meters":17200,"station_id":"ce4bh012rcd13ifvqcv0","pricing_plan_id":"free"},{"bike_id":"52cb9422-bdda-444e-acf8-53ea52ac4c8d","system_id":"levelo_inurba_marseille","lat":43.309047,"lon":5.396551,"is_reserved":false,"is_disabled":false,"rental_uris":{"android":"levelo://app?vid=52cb9422-bdda-444e-acf8-53ea52ac4c8d","ios":"levelo://app?vid=52cb9422-bdda-444e-acf8-53ea52ac4c8d"},"vehicle_type_id":"4","last_reported":1704301603,"current_range_meters":17600,"station_id":"ce4bh012rcd13ifvqcv0","pricing_plan_id":"free"},{"bike_id":"bcfa8101-8549-4290-95ee-c9ef9f526b61","system_id":"levelo_inurba_marseille","lat":43.309038,"lon":5.396546,"is_reserved":false,"is_disabled":false,"rental_uris":{"android":"levelo://app?vid=bcfa8101-8549-4290-95ee-c9ef9f526b61","ios":"levelo://app?vid=bcfa8101-8549-4290-95ee-c9ef9f526b61"},"vehicle_type_id":"4","last_reported":1704301603,"current_range_meters":12800,"station_id":"ce4bh012rcd13ifvqcv0","pricing_plan_id":"free"},{"bike_id":"e26b20ba-30ad-43ba-859a-b09de2b4c356","system_id":"levelo_inurba_marseille","lat":43.309038,"lon":5.396546,"is_reserved":false,"is_disabled":false,"rental_uris":{"android":"levelo://app?vid=e26b20ba-30ad-43ba-859a-b09de2b4c356","ios":"levelo://app?vid=e26b20ba-30ad-43ba-859a-b09de2b4c356"},"vehicle_type_id":"4","last_reported":1704301603,"current_range_meters":12400,"station_id":"ce4bh012rcd13ifvqcv0","pricing_plan_id":"free"},{"bike_id":"8f86e043-0dac-4467-b8ef-615961dba736","system_id":"levelo_inurba_marseille","lat":43.29769,"lon":5.38887,"is_reserved":false,"is_disabled":false,"rental_uris":{"android":"levelo://app?vid=8f86e043-0dac-4467-b8ef-615961dba736","ios":"levelo://app?vid=8f86e043-0dac-4467-b8ef-615961dba736"},"vehicle_type_id":"4","last_reported":1704301603,"current_range_meters":25200,"station_id":"","pricing_plan_id":"free"},{"bike_id":"31361286-2cac-4459-af7c-94abe9b7a69d","system_id":"levelo_inurba_marseille","lat":43.309047,"lon":5.396551,"is_reserved":false,"is_disabled":false,"rental_uris":{"android":"levelo://app?vid=31361286-2cac-4459-af7c-94abe9b7a69d","ios":"levelo://app?vid=31361286-2cac-4459-af7c-94abe9b7a69d"},"vehicle_type_id":"4","last_reported":1704301603,"current_range_meters":16800,"station_id":"ce4bh012rcd13ifvqcv0","pricing_plan_id":"free"},{"bike_id":"8ddeeb61-8cf1-4054-b239-4ae907534a45","system_id":"levelo_inurba_marseille","lat":43.29529,"lon":5.385581,"is_reserved":false,"is_disabled":false,"rental_uris":{"android":"levelo://app?vid=8ddeeb61-8cf1-4054-b239-4ae907534a45","ios":"levelo://app?vid=8ddeeb61-8cf1-4054-b239-4ae907534a45"},"vehicle_type_id":"4","last_reported":1704301603,"current_range_meters":20400,"station_id":"ce4bgih2rcd13ifvqba0","pricing_plan_id":"free"},{"bike_id":"7a4d3688-2af8-44ac-91a9-11c15b1fe6a3","system_id":"levelo_inurba_marseille","lat":43.29529,"lon":5.385581,"is_reserved":false,"is_disabled":false,"rental_uris":{"android":"levelo://app?vid=7a4d3688-2af8-44ac-91a9-11c15b1fe6a3","ios":"levelo://app?vid=7a4d3688-2af8-44ac-91a9-11c15b1fe6a3"},"vehicle_type_id":"4","last_reported":1704301603,"current_range_meters":2000,"station_id":"ce4bgih2rcd13ifvqba0","pricing_plan_id":"free"},{"bike_id":"d9dbbec2-6027-4742-806b-be3cacb9633c","system_id":"levelo_inurba_marseille","lat":43.290779,"lon":5.371482,"is_reserved":false,"is_disabled":false,"rental_uris":{"android":"levelo://app?vid=d9dbbec2-6027-4742-806b-be3cacb9633c","ios":"levelo://app?vid=d9dbbec2-6027-4742-806b-be3cacb9633c"},"vehicle_type_id":"4","last_reported":1704301603,"current_range_meters":10800,"station_id":"ce4bh5p2rcd13ifvqe4g","pricing_plan_id":"free"},{"bike_id":"e812170f-9259-4bb5-8241-882c59f80715","system_id":"levelo_inurba_marseille","lat":43.302008,"lon":5.394694,"is_reserved":false,"is_disabled":false,"rental_uris":{"android":"levelo://app?vid=e812170f-9259-4bb5-8241-882c59f80715","ios":"levelo://app?vid=e812170f-9259-4bb5-8241-882c59f80715"},"vehicle_type_id":"4","last_reported":1704301603,"current_range_meters":16000,"station_id":"ce4bh0p2rcd13ifvqd70","pricing_plan_id":"free"},{"bike_id":"eae8814e-2b83-4d90-bd89-e7151449f7c4","system_id":"levelo_inurba_marseille","lat":43.294153,"lon":5.386305,"is_reserved":false,"is_disabled":false,"rental_uris":{"android":"levelo://app?vid=eae8814e-2b83-4d90-bd89-e7151449f7c4","ios":"levelo://app?vid=eae8814e-2b83-4d90-bd89-e7151449f7c4"},"vehicle_type_id":"4","last_reported":1704301603,"current_range_meters":20400,"station_id":"ce4bh2h2rcd13ifvqdh0","pricing_plan_id":"free"},{"bike_id":"2de42fad-148e-407b-a869-3c2526395551","system_id":"levelo_inurba_marseille","lat":43.294153,"lon":5.386305,"is_reserved":false,"is_disabled":false,"rental_uris":{"android":"levelo://app?vid=2de42fad-148e-407b-a869-3c2526395551","ios":"levelo://app?vid=2de42fad-148e-407b-a869-3c2526395551"},"vehicle_type_id":"4","last_reported":1704301603,"current_range_meters":9600,"station_id":"ce4bh2h2rcd13ifvqdh0","pricing_plan_id":"free"},{"bike_id":"fc4df2a4-2eda-44ab-b226-75facb68d773","system_id":"levelo_inurba_marseille","lat":43.289468,"lon":5.363719,"is_reserved":false,"is_disabled":false,"rental_uris":{"android":"levelo://app?vid=fc4df2a4-2eda-44ab-b226-75facb68d773","ios":"levelo://app?vid=fc4df2a4-2eda-44ab-b226-75facb68d773"},"vehicle_type_id":"4","last_reported":1704301603,"current_range_meters":26000,"station_id":"ce4bhc92rcd13ifvqetg","pricing_plan_id":"free"},{"bike_id":"b481b45f-0a1c-4f1e-a47b-3420d1556ac7","system_id":"levelo_inurba_marseille","lat":43.289184,"lon":5.366408,"is_reserved":false,"is_disabled":false,"rental_uris":{"android":"levelo://app?vid=b481b45f-0a1c-4f1e-a47b-3420d1556ac7","ios":"levelo://app?vid=b481b45f-0a1c-4f1e-a47b-3420d1556ac7"},"vehicle_type_id":"4","last_reported":1704301603,"current_range_meters":2800,"station_id":"ce4bhap2rcd13ifvqek0","pricing_plan_id":"free"},{"bike_id":"0c437dcb-5577-4cd3-8d8c-ab3cd599e1f1","system_id":"levelo_inurba_marseille","lat":43.292565,"lon":5.38324,"is_reserved":false,"is_disabled":false,"rental_uris":{"android":"levelo://app?vid=0c437dcb-5577-4cd3-8d8c-ab3cd599e1f1","ios":"levelo://app?vid=0c437dcb-5577-4cd3-8d8c-ab3cd599e1f1"},"vehicle_type_id":"4","last_reported":1704301603,"current_range_meters":21600,"station_id":"","pricing_plan_id":"free"},{"bike_id":"ed409e8a-cf1b-48f1-9397-05ed1895a6da","system_id":"levelo_inurba_marseille","lat":43.290327,"lon":5.375711,"is_reserved":false,"is_disabled":false,"rental_uris":{"android":"levelo://app?vid=ed409e8a-cf1b-48f1-9397-05ed1895a6da","ios":"levelo://app?vid=ed409e8a-cf1b-48f1-9397-05ed1895a6da"},"vehicle_type_id":"4","last_reported":1704301603,"current_range_meters":10800,"station_id":"ce4bh692rcd13ifvqe90","pricing_plan_id":"free"},{"bike_id":"85bbd670-741c-4e41-af79-d6921934f023","system_id":"levelo_inurba_marseille","lat":43.289184,"lon":5.366408,"is_reserved":false,"is_disabled":false,"rental_uris":{"android":"levelo://app?vid=85bbd670-741c-4e41-af79-d6921934f023","ios":"levelo://app?vid=85bbd670-741c-4e41-af79-d6921934f023"},"vehicle_type_id":"4","last_reported":1704301603,"current_range_meters":18000,"station_id":"ce4bhap2rcd13ifvqek0","pricing_plan_id":"free"},{"bike_id":"68d4e34f-09b6-4c68-b061-1bef05f8cd8e","system_id":"levelo_inurba_marseille","lat":43.292644,"lon":5.384257,"is_reserved":false,"is_disabled":false,"rental_uris":{"android":"levelo://app?vid=68d4e34f-09b6-4c68-b061-1bef05f8cd8e","ios":"levelo://app?vid=68d4e34f-09b6-4c68-b061-1bef05f8cd8e"},"vehicle_type_id":"4","last_reported":1704301603,"current_range_meters":4400,"station_id":"ce4bh692rcd13ifvqea0","pricing_plan_id":"free"},{"bike_id":"7bb06ab6-e483-44f0-a993-0a6b13be89b1","system_id":"levelo_inurba_marseille","lat":43.292644,"lon":5.384257,"is_reserved":false,"is_disabled":false,"rental_uris":{"android":"levelo://app?vid=7bb06ab6-e483-44f0-a993-0a6b13be89b1","ios":"levelo://app?vid=7bb06ab6-e483-44f0-a993-0a6b13be89b1"},"vehicle_type_id":"4","last_reported":1704301603,"current_range_meters":18000,"station_id":"ce4bh692rcd13ifvqea0","pricing_plan_id":"free"},{"bike_id":"ea421a04-ea26-4007-94fa-7a8ff90409fc","system_id":"levelo_inurba_marseille","lat":43.292642,"lon":5.384254,"is_reserved":false,"is_disabled":false,"rental_uris":{"android":"levelo://app?vid=ea421a04-ea26-4007-94fa-7a8ff90409fc","ios":"levelo://app?vid=ea421a04-ea26-4007-94fa-7a8ff90409fc"},"vehicle_type_id":"4","last_reported":1704301603,"current_range_meters":9600,"station_id":"ce4bh692rcd13ifvqea0","pricing_plan_id":"free"},{"bike_id":"c9b750da-7f61-4465-83dd-5a668f41d20f","system_id":"levelo_inurba_marseille","lat":43.292644,"lon":5.384257,"is_reserved":false,"is_disabled":false,"rental_uris":{"android":"levelo://app?vid=c9b750da-7f61-4465-83dd-5a668f41d20f","ios":"levelo://app?vid=c9b750da-7f61-4465-83dd-5a668f41d20f"},"vehicle_type_id":"4","last_reported":1704301603,"current_range_meters":6800,"station_id":"ce4bh692rcd13ifvqea0","pricing_plan_id":"free"},{"bike_id":"233e7b70-1e54-4827-9cda-72cb798a11f7","system_id":"levelo_inurba_marseille","lat":43.292644,"lon":5.384257,"is_reserved":false,"is_disabled":false,"rental_uris":{"android":"levelo://app?vid=233e7b70-1e54-4827-9cda-72cb798a11f7","ios":"levelo://app?vid=233e7b70-1e54-4827-9cda-72cb798a11f7"},"vehicle_type_id":"4","last_reported":1704301603,"current_range_meters":9600,"station_id":"ce4bh692rcd13ifvqea0","pricing_plan_id":"free"},{"bike_id":"011b7eb7-a955-4486-8d16-a4f383b19d00","system_id":"levelo_inurba_marseille","lat":43.292644,"lon":5.384257,"is_reserved":false,"is_disabled":false,"rental_uris":{"android":"levelo://app?vid=011b7eb7-a955-4486-8d16-a4f383b19d00","ios":"levelo://app?vid=011b7eb7-a955-4486-8d16-a4f383b19d00"},"vehicle_type_id":"4","last_reported":1704301603,"current_range_meters":22000,"station_id":"ce4bh692rcd13ifvqea0","pricing_plan_id":"free"},{"bike_id":"200a315d-4631-4800-8d20-905edbbf87d1","system_id":"levelo_inurba_marseille","lat":43.290104,"lon":5.356111,"is_reserved":false,"is_disabled":false,"rental_uris":{"android":"levelo://app?vid=200a315d-4631-4800-8d20-905edbbf87d1","ios":"levelo://app?vid=200a315d-4631-4800-8d20-905edbbf87d1"},"vehicle_type_id":"4","last_reported":1704301603,"current_range_meters":24800,"station_id":"ce4bhb92rcd13ifvqen0","pricing_plan_id":"free"},{"bike_id":"f1ecaa65-6547-421c-87c8-2be0d844707e","system_id":"levelo_inurba_marseille","lat":43.290103,"lon":5.356114,"is_reserved":false,"is_disabled":false,"rental_uris":{"android":"levelo://app?vid=f1ecaa65-6547-421c-87c8-2be0d844707e","ios":"levelo://app?vid=f1ecaa65-6547-421c-87c8-2be0d844707e"},"vehicle_type_id":"4","last_reported":1704301603,"current_range_meters":0,"station_id":"ce4bhb92rcd13ifvqen0","pricing_plan_id":"free"},{"bike_id":"10247770-883b-40dc-a0ae-be2ee7faed9a","system_id":"levelo_inurba_marseille","lat":43.29804,"lon":5.39338,"is_reserved":false,"is_disabled":false,"rental_uris":{"android":"levelo://app?vid=10247770-883b-40dc-a0ae-be2ee7faed9a","ios":"levelo://app?vid=10247770-883b-40dc-a0ae-be2ee7faed9a"},"vehicle_type_id":"4","last_reported":1704301603,"current_range_meters":4400,"station_id":"chh1huq6cuj3fo74tm60","pricing_plan_id":"free"},{"bike_id":"148aaf6d-5ec8-4301-aa5a-09f26a4ac025","system_id":"levelo_inurba_marseille","lat":43.29785,"lon":5.39331,"is_reserved":false,"is_disabled":false,"rental_uris":{"android":"levelo://app?vid=148aaf6d-5ec8-4301-aa5a-09f26a4ac025","ios":"levelo://app?vid=148aaf6d-5ec8-4301-aa5a-09f26a4ac025"},"vehicle_type_id":"4","last_reported":1704301603,"current_range_meters":8000,"station_id":"chh1huq6cuj3fo74tm60","pricing_plan_id":"free"},{"bike_id":"f26a019a-1215-4dea-a0ea-7b72c11dc4e7","system_id":"levelo_inurba_marseille","lat":43.297815,"lon":5.393548,"is_reserved":false,"is_disabled":false,"rental_uris":{"android":"levelo://app?vid=f26a019a-1215-4dea-a0ea-7b72c11dc4e7","ios":"levelo://app?vid=f26a019a-1215-4dea-a0ea-7b72c11dc4e7"},"vehicle_type_id":"4","last_reported":1704301603,"current_range_meters":30000,"station_id":"chh1huq6cuj3fo74tm60","pricing_plan_id":"free"},{"bike_id":"6c475a8b-dc96-44af-be01-d236686c7fdb","system_id":"levelo_inurba_marseille","lat":43.28984,"lon":5.378413,"is_reserved":false,"is_disabled":false,"rental_uris":{"android":"levelo://app?vid=6c475a8b-dc96-44af-be01-d236686c7fdb","ios":"levelo://app?vid=6c475a8b-dc96-44af-be01-d236686c7fdb"},"vehicle_type_id":"4","last_reported":1704301603,"current_range_meters":26000,"station_id":"ce4bh9p2rcd13ifvqed0","pricing_plan_id":"free"},{"bike_id":"2a6911e4-99f7-4853-9039-ac05cf0c6d2a","system_id":"levelo_inurba_marseille","lat":43.330442,"lon":5.389148,"is_reserved":false,"is_disabled":false,"rental_uris":{"android":"levelo://app?vid=2a6911e4-99f7-4853-9039-ac05cf0c6d2a","ios":"levelo://app?vid=2a6911e4-99f7-4853-9039-ac05cf0c6d2a"},"vehicle_type_id":"4","last_reported":1704301603,"current_range_meters":10000,"station_id":"ce4bhr92rcd13ifvqhrg","pricing_plan_id":"free"},{"bike_id":"b9f1870d-91b7-4991-8da2-fb88515c5d8e","system_id":"levelo_inurba_marseille","lat":43.330442,"lon":5.389148,"is_reserved":false,"is_disabled":false,"rental_uris":{"android":"levelo://app?vid=b9f1870d-91b7-4991-8da2-fb88515c5d8e","ios":"levelo://app?vid=b9f1870d-91b7-4991-8da2-fb88515c5d8e"},"vehicle_type_id":"4","last_reported":1704301603,"current_range_meters":18400,"station_id":"ce4bhr92rcd13ifvqhrg","pricing_plan_id":"free"},{"bike_id":"1c6e55bf-6b0c-4848-96ae-9e712df180c6","system_id":"levelo_inurba_marseille","lat":43.330442,"lon":5.389148,"is_reserved":false,"is_disabled":false,"rental_uris":{"android":"levelo://app?vid=1c6e55bf-6b0c-4848-96ae-9e712df180c6","ios":"levelo://app?vid=1c6e55bf-6b0c-4848-96ae-9e712df180c6"},"vehicle_type_id":"4","last_reported":1704301603,"current_range_meters":2000,"station_id":"ce4bhr92rcd13ifvqhrg","pricing_plan_id":"free"},{"bike_id":"a4544299-4117-4ba4-98ad-2dcd1cebe1e8","system_id":"levelo_inurba_marseille","lat":43.330442,"lon":5.389148,"is_reserved":false,"is_disabled":false,"rental_uris":{"android":"levelo://app?vid=a4544299-4117-4ba4-98ad-2dcd1cebe1e8","ios":"levelo://app?vid=a4544299-4117-4ba4-98ad-2dcd1cebe1e8"},"vehicle_type_id":"4","last_reported":1704301603,"current_range_meters":24000,"station_id":"ce4bhr92rcd13ifvqhrg","pricing_plan_id":"free"},{"bike_id":"a45508dc-3e20-4dc2-a3f2-c48092cac22d","system_id":"levelo_inurba_marseille","lat":43.330442,"lon":5.389148,"is_reserved":false,"is_disabled":false,"rental_uris":{"android":"levelo://app?vid=a45508dc-3e20-4dc2-a3f2-c48092cac22d","ios":"levelo://app?vid=a45508dc-3e20-4dc2-a3f2-c48092cac22d"},"vehicle_type_id":"4","last_reported":1704301603,"current_range_meters":6800,"station_id":"ce4bhr92rcd13ifvqhrg","pricing_plan_id":"free"},{"bike_id":"b4dc5f58-d698-47e4-9d04-a65a1aac924a","system_id":"levelo_inurba_marseille","lat":43.330442,"lon":5.389148,"is_reserved":false,"is_disabled":false,"rental_uris":{"android":"levelo://app?vid=b4dc5f58-d698-47e4-9d04-a65a1aac924a","ios":"levelo://app?vid=b4dc5f58-d698-47e4-9d04-a65a1aac924a"},"vehicle_type_id":"4","last_reported":1704301603,"current_range_meters":12800,"station_id":"ce4bhr92rcd13ifvqhrg","pricing_plan_id":"free"},{"bike_id":"3b47fb58-219d-4204-80e6-5df2d57adaec","system_id":"levelo_inurba_marseille","lat":43.297371,"lon":5.393864,"is_reserved":false,"is_disabled":false,"rental_uris":{"android":"levelo://app?vid=3b47fb58-219d-4204-80e6-5df2d57adaec","ios":"levelo://app?vid=3b47fb58-219d-4204-80e6-5df2d57adaec"},"vehicle_type_id":"4","last_reported":1704301603,"current_range_meters":15200,"station_id":"","pricing_plan_id":"free"},{"bike_id":"2c0d1c7a-52d6-45c8-b950-66774576aada","system_id":"levelo_inurba_marseille","lat":43.33739,"lon":5.37441,"is_reserved":false,"is_disabled":false,"rental_uris":{"android":"levelo://app?vid=2c0d1c7a-52d6-45c8-b950-66774576aada","ios":"levelo://app?vid=2c0d1c7a-52d6-45c8-b950-66774576aada"},"vehicle_type_id":"4","last_reported":1704301603,"current_range_meters":28800,"station_id":"","pricing_plan_id":"free"},{"bike_id":"be4fe3d1-4943-42e5-a369-1c61d8171648","system_id":"levelo_inurba_marseille","lat":43.309371,"lon":5.401449,"is_reserved":false,"is_disabled":false,"rental_uris":{"android":"levelo://app?vid=be4fe3d1-4943-42e5-a369-1c61d8171648","ios":"levelo://app?vid=be4fe3d1-4943-42e5-a369-1c61d8171648"},"vehicle_type_id":"4","last_reported":1704301603,"current_range_meters":22800,"station_id":"ce4bgvp2rcd13ifvqct0","pricing_plan_id":"free"},{"bike_id":"01f0d064-df89-4775-95dc-e9431f275ae7","system_id":"levelo_inurba_marseille","lat":43.312609,"lon":5.401662,"is_reserved":false,"is_disabled":false,"rental_uris":{"android":"levelo://app?vid=01f0d064-df89-4775-95dc-e9431f275ae7","ios":"levelo://app?vid=01f0d064-df89-4775-95dc-e9431f275ae7"},"vehicle_type_id":"4","last_reported":1704301603,"current_range_meters":12000,"station_id":"ce4bh092rcd13ifvqd30","pricing_plan_id":"free"},{"bike_id":"94e5ba8c-353b-4122-936b-74a057e48147","system_id":"levelo_inurba_marseille","lat":43.309371,"lon":5.401449,"is_reserved":false,"is_disabled":false,"rental_uris":{"android":"levelo://app?vid=94e5ba8c-353b-4122-936b-74a057e48147","ios":"levelo://app?vid=94e5ba8c-353b-4122-936b-74a057e48147"},"vehicle_type_id":"4","last_reported":1704301603,"current_range_meters":8400,"station_id":"ce4bgvp2rcd13ifvqct0","pricing_plan_id":"free"},{"bike_id":"87ec8c0d-76ac-4cab-ad9f-87edd892726b","system_id":"levelo_inurba_marseille","lat":43.309371,"lon":5.401449,"is_reserved":false,"is_disabled":false,"rental_uris":{"android":"levelo://app?vid=87ec8c0d-76ac-4cab-ad9f-87edd892726b","ios":"levelo://app?vid=87ec8c0d-76ac-4cab-ad9f-87edd892726b"},"vehicle_type_id":"4","last_reported":1704301603,"current_range_meters":0,"station_id":"ce4bgvp2rcd13ifvqct0","pricing_plan_id":"free"},{"bike_id":"6069690a-def7-4c71-bf26-af034701e395","system_id":"levelo_inurba_marseille","lat":43.309371,"lon":5.401449,"is_reserved":false,"is_disabled":false,"rental_uris":{"android":"levelo://app?vid=6069690a-def7-4c71-bf26-af034701e395","ios":"levelo://app?vid=6069690a-def7-4c71-bf26-af034701e395"},"vehicle_type_id":"4","last_reported":1704301603,"current_range_meters":26800,"station_id":"ce4bgvp2rcd13ifvqct0","pricing_plan_id":"free"},{"bike_id":"c473dc02-8994-4174-a9e4-3a30dad995ff","system_id":"levelo_inurba_marseille","lat":43.33754,"lon":5.3745,"is_reserved":false,"is_disabled":false,"rental_uris":{"android":"levelo://app?vid=c473dc02-8994-4174-a9e4-3a30dad995ff","ios":"levelo://app?vid=c473dc02-8994-4174-a9e4-3a30dad995ff"},"vehicle_type_id":"4","last_reported":1704301603,"current_range_meters":30800,"station_id":"","pricing_plan_id":"free"},{"bike_id":"8436be69-9835-4bbb-8e22-574227ba5ba1","system_id":"levelo_inurba_marseille","lat":43.3376,"lon":5.37448,"is_reserved":false,"is_disabled":false,"rental_uris":{"android":"levelo://app?vid=8436be69-9835-4bbb-8e22-574227ba5ba1","ios":"levelo://app?vid=8436be69-9835-4bbb-8e22-574227ba5ba1"},"vehicle_type_id":"4","last_reported":1704301603,"current_range_meters":30000,"station_id":"","pricing_plan_id":"free"},{"bike_id":"cf21f113-3dc6-4a4d-beda-1c56139d5517","system_id":"levelo_inurba_marseille","lat":43.33758,"lon":5.37466,"is_reserved":false,"is_disabled":false,"rental_uris":{"android":"levelo://app?vid=cf21f113-3dc6-4a4d-beda-1c56139d5517","ios":"levelo://app?vid=cf21f113-3dc6-4a4d-beda-1c56139d5517"},"vehicle_type_id":"4","last_reported":1704301603,"current_range_meters":31200,"station_id":"","pricing_plan_id":"free"},{"bike_id":"d678275e-668b-4e64-ae77-467386b91e4f","system_id":"levelo_inurba_marseille","lat":43.337604,"lon":5.374569,"is_reserved":false,"is_disabled":false,"rental_uris":{"android":"levelo://app?vid=d678275e-668b-4e64-ae77-467386b91e4f","ios":"levelo://app?vid=d678275e-668b-4e64-ae77-467386b91e4f"},"vehicle_type_id":"4","last_reported":1704301603,"current_range_meters":26800,"station_id":"","pricing_plan_id":"free"},{"bike_id":"09ce7fb7-4335-44d7-b90b-f32176154a00","system_id":"levelo_inurba_marseille","lat":43.301117,"lon":5.398795,"is_reserved":false,"is_disabled":false,"rental_uris":{"android":"levelo://app?vid=09ce7fb7-4335-44d7-b90b-f32176154a00","ios":"levelo://app?vid=09ce7fb7-4335-44d7-b90b-f32176154a00"},"vehicle_type_id":"4","last_reported":1704301603,"current_range_meters":4800,"station_id":"ce4bh0h2rcd13ifvqd40","pricing_plan_id":"free"},{"bike_id":"8606257f-3887-4011-ac81-d96fb5f4fce8","system_id":"levelo_inurba_marseille","lat":43.301117,"lon":5.398795,"is_reserved":false,"is_disabled":false,"rental_uris":{"android":"levelo://app?vid=8606257f-3887-4011-ac81-d96fb5f4fce8","ios":"levelo://app?vid=8606257f-3887-4011-ac81-d96fb5f4fce8"},"vehicle_type_id":"4","last_reported":1704301603,"current_range_meters":5200,"station_id":"ce4bh0h2rcd13ifvqd40","pricing_plan_id":"free"},{"bike_id":"c625ba99-5d24-4d30-9f12-e15d039c4036","system_id":"levelo_inurba_marseille","lat":43.301117,"lon":5.398795,"is_reserved":false,"is_disabled":false,"rental_uris":{"android":"levelo://app?vid=c625ba99-5d24-4d30-9f12-e15d039c4036","ios":"levelo://app?vid=c625ba99-5d24-4d30-9f12-e15d039c4036"},"vehicle_type_id":"4","last_reported":1704301603,"current_range_meters":27200,"station_id":"ce4bh0h2rcd13ifvqd40","pricing_plan_id":"free"},{"bike_id":"d2fcdc53-46e6-4b5c-99ff-835c6850e7fe","system_id":"levelo_inurba_marseille","lat":43.301117,"lon":5.398795,"is_reserved":false,"is_disabled":false,"rental_uris":{"android":"levelo://app?vid=d2fcdc53-46e6-4b5c-99ff-835c6850e7fe","ios":"levelo://app?vid=d2fcdc53-46e6-4b5c-99ff-835c6850e7fe"},"vehicle_type_id":"4","last_reported":1704301603,"current_range_meters":12800,"station_id":"ce4bh0h2rcd13ifvqd40","pricing_plan_id":"free"},{"bike_id":"b896c28b-8222-419c-94f7-2c9bc6c4b90e","system_id":"levelo_inurba_marseille","lat":43.28674,"lon":5.3635,"is_reserved":false,"is_disabled":false,"rental_uris":{"android":"levelo://app?vid=b896c28b-8222-419c-94f7-2c9bc6c4b90e","ios":"levelo://app?vid=b896c28b-8222-419c-94f7-2c9bc6c4b90e"},"vehicle_type_id":"4","last_reported":1704301603,"current_range_meters":10800,"station_id":"ce4bhah2rcd13ifvqej0","pricing_plan_id":"free"},{"bike_id":"c869bb2a-de31-45a8-a6c4-28019e5162c8","system_id":"levelo_inurba_marseille","lat":43.298681,"lon":5.397225,"is_reserved":false,"is_disabled":false,"rental_uris":{"android":"levelo://app?vid=c869bb2a-de31-45a8-a6c4-28019e5162c8","ios":"levelo://app?vid=c869bb2a-de31-45a8-a6c4-28019e5162c8"},"vehicle_type_id":"4","last_reported":1704301603,"current_range_meters":6400,"station_id":"ce4bh0h2rcd13ifvqd50","pricing_plan_id":"free"},{"bike_id":"e21abbd1-07c1-468b-a6bb-d8f44d038c58","system_id":"levelo_inurba_marseille","lat":43.298681,"lon":5.397225,"is_reserved":false,"is_disabled":false,"rental_uris":{"android":"levelo://app?vid=e21abbd1-07c1-468b-a6bb-d8f44d038c58","ios":"levelo://app?vid=e21abbd1-07c1-468b-a6bb-d8f44d038c58"},"vehicle_type_id":"4","last_reported":1704301603,"current_range_meters":10000,"station_id":"ce4bh0h2rcd13ifvqd50","pricing_plan_id":"free"},{"bike_id":"3a361d87-e9bd-4f25-88f0-2a7c78163e75","system_id":"levelo_inurba_marseille","lat":43.286961,"lon":5.373785,"is_reserved":false,"is_disabled":false,"rental_uris":{"android":"levelo://app?vid=3a361d87-e9bd-4f25-88f0-2a7c78163e75","ios":"levelo://app?vid=3a361d87-e9bd-4f25-88f0-2a7c78163e75"},"vehicle_type_id":"4","last_reported":1704301603,"current_range_meters":12800,"station_id":"ce4bh3p2rcd13ifvqdq0","pricing_plan_id":"free"},{"bike_id":"2012353f-bdd6-4d60-a461-229b5778945a","system_id":"levelo_inurba_marseille","lat":43.28659,"lon":5.36342,"is_reserved":false,"is_disabled":false,"rental_uris":{"android":"levelo://app?vid=2012353f-bdd6-4d60-a461-229b5778945a","ios":"levelo://app?vid=2012353f-bdd6-4d60-a461-229b5778945a"},"vehicle_type_id":"4","last_reported":1704301603,"current_range_meters":20000,"station_id":"ce4bhah2rcd13ifvqej0","pricing_plan_id":"free"},{"bike_id":"5ad3f457-9b25-4c94-871e-6a5b0d74dd19","system_id":"levelo_inurba_marseille","lat":43.295196,"lon":5.39397,"is_reserved":false,"is_disabled":false,"rental_uris":{"android":"levelo://app?vid=5ad3f457-9b25-4c94-871e-6a5b0d74dd19","ios":"levelo://app?vid=5ad3f457-9b25-4c94-871e-6a5b0d74dd19"},"vehicle_type_id":"4","last_reported":1704301603,"current_range_meters":9600,"station_id":"ce4bh292rcd13ifvqdf0","pricing_plan_id":"free"},{"bike_id":"7276ea27-1dad-4a44-a1d7-8fa31205c513","system_id":"levelo_inurba_marseille","lat":43.286961,"lon":5.373785,"is_reserved":false,"is_disabled":false,"rental_uris":{"android":"levelo://app?vid=7276ea27-1dad-4a44-a1d7-8fa31205c513","ios":"levelo://app?vid=7276ea27-1dad-4a44-a1d7-8fa31205c513"},"vehicle_type_id":"4","last_reported":1704301603,"current_range_meters":2800,"station_id":"ce4bh3p2rcd13ifvqdq0","pricing_plan_id":"free"},{"bike_id":"827f8148-b5b4-417a-8f0e-b97bdc30d757","system_id":"levelo_inurba_marseille","lat":43.295196,"lon":5.39397,"is_reserved":false,"is_disabled":false,"rental_uris":{"android":"levelo://app?vid=827f8148-b5b4-417a-8f0e-b97bdc30d757","ios":"levelo://app?vid=827f8148-b5b4-417a-8f0e-b97bdc30d757"},"vehicle_type_id":"4","last_reported":1704301603,"current_range_meters":12800,"station_id":"ce4bh292rcd13ifvqdf0","pricing_plan_id":"free"},{"bike_id":"05853efe-5e4e-44bb-b905-8051d22299a8","system_id":"levelo_inurba_marseille","lat":43.295194,"lon":5.39397,"is_reserved":false,"is_disabled":false,"rental_uris":{"android":"levelo://app?vid=05853efe-5e4e-44bb-b905-8051d22299a8","ios":"levelo://app?vid=05853efe-5e4e-44bb-b905-8051d22299a8"},"vehicle_type_id":"4","last_reported":1704301603,"current_range_meters":13600,"station_id":"ce4bh292rcd13ifvqdf0","pricing_plan_id":"free"},{"bike_id":"7f2365ad-4054-4aef-9d6a-277241efe940","system_id":"levelo_inurba_marseille","lat":43.289307,"lon":5.38406,"is_reserved":false,"is_disabled":false,"rental_uris":{"android":"levelo://app?vid=7f2365ad-4054-4aef-9d6a-277241efe940","ios":"levelo://app?vid=7f2365ad-4054-4aef-9d6a-277241efe940"},"vehicle_type_id":"4","last_reported":1704301603,"current_range_meters":22400,"station_id":"ce4bh612rcd13ifvqe6g","pricing_plan_id":"free"},{"bike_id":"f3d17997-493c-4bca-9973-adaad84c80d6","system_id":"levelo_inurba_marseille","lat":43.290336,"lon":5.386425,"is_reserved":false,"is_disabled":false,"rental_uris":{"android":"levelo://app?vid=f3d17997-493c-4bca-9973-adaad84c80d6","ios":"levelo://app?vid=f3d17997-493c-4bca-9973-adaad84c80d6"},"vehicle_type_id":"4","last_reported":1704301603,"current_range_meters":0,"station_id":"ce4bh4p2rcd13ifvqe0g","pricing_plan_id":"free"},{"bike_id":"f7dbe395-fd9d-448b-9510-0eceeb111fc6","system_id":"levelo_inurba_marseille","lat":43.302759,"lon":5.400793,"is_reserved":false,"is_disabled":false,"rental_uris":{"android":"levelo://app?vid=f7dbe395-fd9d-448b-9510-0eceeb111fc6","ios":"levelo://app?vid=f7dbe395-fd9d-448b-9510-0eceeb111fc6"},"vehicle_type_id":"4","last_reported":1704301603,"current_range_meters":17600,"station_id":"ce4bgvh2rcd13ifvqcs0","pricing_plan_id":"free"},{"bike_id":"0175dd92-510d-4136-904c-4d56a2c46f3d","system_id":"levelo_inurba_marseille","lat":43.286039,"lon":5.370679,"is_reserved":false,"is_disabled":false,"rental_uris":{"android":"levelo://app?vid=0175dd92-510d-4136-904c-4d56a2c46f3d","ios":"levelo://app?vid=0175dd92-510d-4136-904c-4d56a2c46f3d"},"vehicle_type_id":"4","last_reported":1704301603,"current_range_meters":26800,"station_id":"ce4bht12rcd13ifvqi60","pricing_plan_id":"free"},{"bike_id":"9f7113b3-1728-4c68-81ba-7d16231fba75","system_id":"levelo_inurba_marseille","lat":43.284534,"lon":5.358662,"is_reserved":false,"is_disabled":false,"rental_uris":{"android":"levelo://app?vid=9f7113b3-1728-4c68-81ba-7d16231fba75","ios":"levelo://app?vid=9f7113b3-1728-4c68-81ba-7d16231fba75"},"vehicle_type_id":"4","last_reported":1704301603,"current_range_meters":17200,"station_id":"ce4bhah2rcd13ifvqei0","pricing_plan_id":"free"},{"bike_id":"86527182-a4df-4855-97c9-13ecd16873eb","system_id":"levelo_inurba_marseille","lat":43.295713,"lon":5.399639,"is_reserved":false,"is_disabled":false,"rental_uris":{"android":"levelo://app?vid=86527182-a4df-4855-97c9-13ecd16873eb","ios":"levelo://app?vid=86527182-a4df-4855-97c9-13ecd16873eb"},"vehicle_type_id":"4","last_reported":1704301603,"current_range_meters":15600,"station_id":"ce4bh312rcd13ifvqdj0","pricing_plan_id":"free"},{"bike_id":"ad2a5991-3832-4a27-9d86-9b301a0c299d","system_id":"levelo_inurba_marseille","lat":43.295713,"lon":5.399639,"is_reserved":false,"is_disabled":false,"rental_uris":{"android":"levelo://app?vid=ad2a5991-3832-4a27-9d86-9b301a0c299d","ios":"levelo://app?vid=ad2a5991-3832-4a27-9d86-9b301a0c299d"},"vehicle_type_id":"4","last_reported":1704301603,"current_range_meters":18000,"station_id":"ce4bh312rcd13ifvqdj0","pricing_plan_id":"free"},{"bike_id":"fbce2263-6017-4ca1-a6ce-e9a4202418f5","system_id":"levelo_inurba_marseille","lat":43.295713,"lon":5.399639,"is_reserved":false,"is_disabled":false,"rental_uris":{"android":"levelo://app?vid=fbce2263-6017-4ca1-a6ce-e9a4202418f5","ios":"levelo://app?vid=fbce2263-6017-4ca1-a6ce-e9a4202418f5"},"vehicle_type_id":"4","last_reported":1704301603,"current_range_meters":21600,"station_id":"ce4bh312rcd13ifvqdj0","pricing_plan_id":"free"},{"bike_id":"e699887f-c9e3-4c65-aa8b-745cf97c6267","system_id":"levelo_inurba_marseille","lat":43.286595,"lon":5.386795,"is_reserved":false,"is_disabled":false,"rental_uris":{"android":"levelo://app?vid=e699887f-c9e3-4c65-aa8b-745cf97c6267","ios":"levelo://app?vid=e699887f-c9e3-4c65-aa8b-745cf97c6267"},"vehicle_type_id":"4","last_reported":1704301603,"current_range_meters":13600,"station_id":"ce4bh492rcd13ifvqdug","pricing_plan_id":"free"},{"bike_id":"7a4ba136-41a0-4ab3-aba0-40f4e761e611","system_id":"levelo_inurba_marseille","lat":43.286595,"lon":5.386795,"is_reserved":false,"is_disabled":false,"rental_uris":{"android":"levelo://app?vid=7a4ba136-41a0-4ab3-aba0-40f4e761e611","ios":"levelo://app?vid=7a4ba136-41a0-4ab3-aba0-40f4e761e611"},"vehicle_type_id":"4","last_reported":1704301603,"current_range_meters":800,"station_id":"ce4bh492rcd13ifvqdug","pricing_plan_id":"free"},{"bike_id":"541c20ee-763f-4697-b50a-7c17d2dbd70d","system_id":"levelo_inurba_marseille","lat":43.323464,"lon":5.406297,"is_reserved":false,"is_disabled":false,"rental_uris":{"android":"levelo://app?vid=541c20ee-763f-4697-b50a-7c17d2dbd70d","ios":"levelo://app?vid=541c20ee-763f-4697-b50a-7c17d2dbd70d"},"vehicle_type_id":"4","last_reported":1704301603,"current_range_meters":27200,"station_id":"ce4bhq92rcd13ifvqhjg","pricing_plan_id":"free"},{"bike_id":"5534ebea-59ca-446e-9317-5f4a72b3600e","system_id":"levelo_inurba_marseille","lat":43.284787,"lon":5.384116,"is_reserved":false,"is_disabled":false,"rental_uris":{"android":"levelo://app?vid=5534ebea-59ca-446e-9317-5f4a72b3600e","ios":"levelo://app?vid=5534ebea-59ca-446e-9317-5f4a72b3600e"},"vehicle_type_id":"4","last_reported":1704301603,"current_range_meters":23200,"station_id":"ce4bh512rcd13ifvqe3g","pricing_plan_id":"free"},{"bike_id":"6e6b0830-d3db-4121-8b7b-12115eaedf2c","system_id":"levelo_inurba_marseille","lat":43.297946,"lon":5.404063,"is_reserved":false,"is_disabled":false,"rental_uris":{"android":"levelo://app?vid=6e6b0830-d3db-4121-8b7b-12115eaedf2c","ios":"levelo://app?vid=6e6b0830-d3db-4121-8b7b-12115eaedf2c"},"vehicle_type_id":"4","last_reported":1704301603,"current_range_meters":21200,"station_id":"ce4bh112rcd13ifvqd90","pricing_plan_id":"free"},{"bike_id":"506b1794-62de-4ed3-850d-ba62696b3a76","system_id":"levelo_inurba_marseille","lat":43.29795,"lon":5.404086,"is_reserved":false,"is_disabled":false,"rental_uris":{"android":"levelo://app?vid=506b1794-62de-4ed3-850d-ba62696b3a76","ios":"levelo://app?vid=506b1794-62de-4ed3-850d-ba62696b3a76"},"vehicle_type_id":"4","last_reported":1704301603,"current_range_meters":21200,"station_id":"ce4bh112rcd13ifvqd90","pricing_plan_id":"free"},{"bike_id":"a98304e0-e3a2-4748-90c0-981767c54353","system_id":"levelo_inurba_marseille","lat":43.283494,"lon":5.380945,"is_reserved":false,"is_disabled":false,"rental_uris":{"android":"levelo://app?vid=a98304e0-e3a2-4748-90c0-981767c54353","ios":"levelo://app?vid=a98304e0-e3a2-4748-90c0-981767c54353"},"vehicle_type_id":"4","last_reported":1704301603,"current_range_meters":31200,"station_id":"ce4bh412rcd13ifvqdr0","pricing_plan_id":"free"},{"bike_id":"4cc32faf-c266-4535-bdff-c42098dbefc9","system_id":"levelo_inurba_marseille","lat":43.321547,"lon":5.408017,"is_reserved":false,"is_disabled":false,"rental_uris":{"android":"levelo://app?vid=4cc32faf-c266-4535-bdff-c42098dbefc9","ios":"levelo://app?vid=4cc32faf-c266-4535-bdff-c42098dbefc9"},"vehicle_type_id":"4","last_reported":1704301603,"current_range_meters":19200,"station_id":"","pricing_plan_id":"free"},{"bike_id":"b7262614-79eb-4039-a53c-18a70baffbd3","system_id":"levelo_inurba_marseille","lat":43.289363,"lon":5.396322,"is_reserved":false,"is_disabled":false,"rental_uris":{"android":"levelo://app?vid=b7262614-79eb-4039-a53c-18a70baffbd3","ios":"levelo://app?vid=b7262614-79eb-4039-a53c-18a70baffbd3"},"vehicle_type_id":"4","last_reported":1704301603,"current_range_meters":13200,"station_id":"ce4bh3h2rcd13ifvqdn0","pricing_plan_id":"free"},{"bike_id":"b7099ea0-43e7-460c-b086-8b5e6245e440","system_id":"levelo_inurba_marseille","lat":43.289363,"lon":5.396322,"is_reserved":false,"is_disabled":false,"rental_uris":{"android":"levelo://app?vid=b7099ea0-43e7-460c-b086-8b5e6245e440","ios":"levelo://app?vid=b7099ea0-43e7-460c-b086-8b5e6245e440"},"vehicle_type_id":"4","last_reported":1704301603,"current_range_meters":23200,"station_id":"ce4bh3h2rcd13ifvqdn0","pricing_plan_id":"free"},{"bike_id":"fe6cb77b-8ab4-4271-8c19-533d2ba30560","system_id":"levelo_inurba_marseille","lat":43.28272,"lon":5.35073,"is_reserved":false,"is_disabled":false,"rental_uris":{"android":"levelo://app?vid=fe6cb77b-8ab4-4271-8c19-533d2ba30560","ios":"levelo://app?vid=fe6cb77b-8ab4-4271-8c19-533d2ba30560"},"vehicle_type_id":"4","last_reported":1704301603,"current_range_meters":4800,"station_id":"ce4bhbp2rcd13ifvqerg","pricing_plan_id":"free"},{"bike_id":"a5d490dc-f41f-4da5-aa9b-9700848b00b4","system_id":"levelo_inurba_marseille","lat":43.282754,"lon":5.350519,"is_reserved":false,"is_disabled":false,"rental_uris":{"android":"levelo://app?vid=a5d490dc-f41f-4da5-aa9b-9700848b00b4","ios":"levelo://app?vid=a5d490dc-f41f-4da5-aa9b-9700848b00b4"},"vehicle_type_id":"4","last_reported":1704301603,"current_range_meters":8800,"station_id":"ce4bhbp2rcd13ifvqerg","pricing_plan_id":"free"},{"bike_id":"9388f739-7b33-45f9-a2bb-ebe1367c4770","system_id":"levelo_inurba_marseille","lat":43.28039,"lon":5.369297,"is_reserved":false,"is_disabled":false,"rental_uris":{"android":"levelo://app?vid=9388f739-7b33-45f9-a2bb-ebe1367c4770","ios":"levelo://app?vid=9388f739-7b33-45f9-a2bb-ebe1367c4770"},"vehicle_type_id":"4","last_reported":1704301603,"current_range_meters":17200,"station_id":"ce4bha12rcd13ifvqef0","pricing_plan_id":"free"},{"bike_id":"ef97aa5a-e3f7-40bd-9e67-237bf7855f3b","system_id":"levelo_inurba_marseille","lat":43.29042,"lon":5.39974,"is_reserved":false,"is_disabled":false,"rental_uris":{"android":"levelo://app?vid=ef97aa5a-e3f7-40bd-9e67-237bf7855f3b","ios":"levelo://app?vid=ef97aa5a-e3f7-40bd-9e67-237bf7855f3b"},"vehicle_type_id":"4","last_reported":1704301603,"current_range_meters":18800,"station_id":"ce4bh392rcd13ifvqdm0","pricing_plan_id":"free"},{"bike_id":"6a4f60f9-f9a0-4f08-883e-2ecf4051c23f","system_id":"levelo_inurba_marseille","lat":43.296323,"lon":5.405867,"is_reserved":false,"is_disabled":false,"rental_uris":{"android":"levelo://app?vid=6a4f60f9-f9a0-4f08-883e-2ecf4051c23f","ios":"levelo://app?vid=6a4f60f9-f9a0-4f08-883e-2ecf4051c23f"},"vehicle_type_id":"4","last_reported":1704301603,"current_range_meters":7600,"station_id":"ce4bh0h2rcd13ifvqd60","pricing_plan_id":"free"},{"bike_id":"0f6268a7-1b82-4bee-9221-618d05016f24","system_id":"levelo_inurba_marseille","lat":43.296263,"lon":5.40601,"is_reserved":false,"is_disabled":false,"rental_uris":{"android":"levelo://app?vid=0f6268a7-1b82-4bee-9221-618d05016f24","ios":"levelo://app?vid=0f6268a7-1b82-4bee-9221-618d05016f24"},"vehicle_type_id":"4","last_reported":1704301603,"current_range_meters":4800,"station_id":"ce4bh0h2rcd13ifvqd60","pricing_plan_id":"free"},{"bike_id":"a4eb3120-4634-4fc5-a331-bf81c67ce87c","system_id":"levelo_inurba_marseille","lat":43.284462,"lon":5.392121,"is_reserved":false,"is_disabled":false,"rental_uris":{"android":"levelo://app?vid=a4eb3120-4634-4fc5-a331-bf81c67ce87c","ios":"levelo://app?vid=a4eb3120-4634-4fc5-a331-bf81c67ce87c"},"vehicle_type_id":"4","last_reported":1704301603,"current_range_meters":27200,"station_id":"ce4bhoh2rcd13ifvqh5g","pricing_plan_id":"free"},{"bike_id":"e12d229b-8c8b-498e-abb8-b8936440b26e","system_id":"levelo_inurba_marseille","lat":43.284462,"lon":5.392121,"is_reserved":false,"is_disabled":false,"rental_uris":{"android":"levelo://app?vid=e12d229b-8c8b-498e-abb8-b8936440b26e","ios":"levelo://app?vid=e12d229b-8c8b-498e-abb8-b8936440b26e"},"vehicle_type_id":"4","last_reported":1704301603,"current_range_meters":2000,"station_id":"ce4bhoh2rcd13ifvqh5g","pricing_plan_id":"free"},{"bike_id":"e69b4d55-a64d-4cb3-94d1-8d64a6bf7958","system_id":"levelo_inurba_marseille","lat":43.284462,"lon":5.392121,"is_reserved":false,"is_disabled":false,"rental_uris":{"android":"levelo://app?vid=e69b4d55-a64d-4cb3-94d1-8d64a6bf7958","ios":"levelo://app?vid=e69b4d55-a64d-4cb3-94d1-8d64a6bf7958"},"vehicle_type_id":"4","last_reported":1704301603,"current_range_meters":14800,"station_id":"ce4bhoh2rcd13ifvqh5g","pricing_plan_id":"free"},{"bike_id":"7001f7b2-08bc-4b89-826e-286daa0f7ff4","system_id":"levelo_inurba_marseille","lat":43.304188,"lon":5.412904,"is_reserved":false,"is_disabled":false,"rental_uris":{"android":"levelo://app?vid=7001f7b2-08bc-4b89-826e-286daa0f7ff4","ios":"levelo://app?vid=7001f7b2-08bc-4b89-826e-286daa0f7ff4"},"vehicle_type_id":"4","last_reported":1704301603,"current_range_meters":22400,"station_id":"ce4bhop2rcd13ifvqh8g","pricing_plan_id":"free"},{"bike_id":"8b32f731-9a8c-4c2b-9a2a-8108ef4979e2","system_id":"levelo_inurba_marseille","lat":43.304188,"lon":5.412904,"is_reserved":false,"is_disabled":false,"rental_uris":{"android":"levelo://app?vid=8b32f731-9a8c-4c2b-9a2a-8108ef4979e2","ios":"levelo://app?vid=8b32f731-9a8c-4c2b-9a2a-8108ef4979e2"},"vehicle_type_id":"4","last_reported":1704301603,"current_range_meters":24400,"station_id":"ce4bhop2rcd13ifvqh8g","pricing_plan_id":"free"},{"bike_id":"5acb9355-89a2-47b3-87c4-a4f17bb5357e","system_id":"levelo_inurba_marseille","lat":43.279087,"lon":5.380114,"is_reserved":false,"is_disabled":false,"rental_uris":{"android":"levelo://app?vid=5acb9355-89a2-47b3-87c4-a4f17bb5357e","ios":"levelo://app?vid=5acb9355-89a2-47b3-87c4-a4f17bb5357e"},"vehicle_type_id":"4","last_reported":1704301603,"current_range_meters":26000,"station_id":"ce4bhf92rcd13ifvqf50","pricing_plan_id":"free"},{"bike_id":"e791362a-ffdb-4605-8412-94c539988ae6","system_id":"levelo_inurba_marseille","lat":43.287154,"lon":5.399979,"is_reserved":false,"is_disabled":false,"rental_uris":{"android":"levelo://app?vid=e791362a-ffdb-4605-8412-94c539988ae6","ios":"levelo://app?vid=e791362a-ffdb-4605-8412-94c539988ae6"},"vehicle_type_id":"4","last_reported":1704301603,"current_range_meters":14000,"station_id":"ce4bho92rcd13ifvqh3g","pricing_plan_id":"free"},{"bike_id":"36176871-6889-4fc9-9b9e-3941cddddf51","system_id":"levelo_inurba_marseille","lat":43.287154,"lon":5.399979,"is_reserved":false,"is_disabled":false,"rental_uris":{"android":"levelo://app?vid=36176871-6889-4fc9-9b9e-3941cddddf51","ios":"levelo://app?vid=36176871-6889-4fc9-9b9e-3941cddddf51"},"vehicle_type_id":"4","last_reported":1704301603,"current_range_meters":0,"station_id":"ce4bho92rcd13ifvqh3g","pricing_plan_id":"free"},{"bike_id":"99b971ef-24e7-4418-a422-06f2333f702f","system_id":"levelo_inurba_marseille","lat":43.320045,"lon":5.415046,"is_reserved":false,"is_disabled":false,"rental_uris":{"android":"levelo://app?vid=99b971ef-24e7-4418-a422-06f2333f702f","ios":"levelo://app?vid=99b971ef-24e7-4418-a422-06f2333f702f"},"vehicle_type_id":"4","last_reported":1704301603,"current_range_meters":8800,"station_id":"ce4bhq92rcd13ifvqhkg","pricing_plan_id":"free"},{"bike_id":"1d7d0b44-395f-4e21-af9d-8af1ed86a5aa","system_id":"levelo_inurba_marseille","lat":43.299579,"lon":5.413255,"is_reserved":false,"is_disabled":false,"rental_uris":{"android":"levelo://app?vid=1d7d0b44-395f-4e21-af9d-8af1ed86a5aa","ios":"levelo://app?vid=1d7d0b44-395f-4e21-af9d-8af1ed86a5aa"},"vehicle_type_id":"4","last_reported":1704301603,"current_range_meters":26000,"station_id":"ce4bhp12rcd13ifvqh9g","pricing_plan_id":"free"},{"bike_id":"ef81a718-0266-431d-a9e8-5e651fe1bed3","system_id":"levelo_inurba_marseille","lat":43.279742,"lon":5.38744,"is_reserved":false,"is_disabled":false,"rental_uris":{"android":"levelo://app?vid=ef81a718-0266-431d-a9e8-5e651fe1bed3","ios":"levelo://app?vid=ef81a718-0266-431d-a9e8-5e651fe1bed3"},"vehicle_type_id":"4","last_reported":1704301603,"current_range_meters":12000,"station_id":"ce4bhg12rcd13ifvqf80","pricing_plan_id":"free"},{"bike_id":"e9e71dc1-09f0-44fd-9b13-80335639d1fc","system_id":"levelo_inurba_marseille","lat":43.292571,"lon":5.409107,"is_reserved":false,"is_disabled":false,"rental_uris":{"android":"levelo://app?vid=e9e71dc1-09f0-44fd-9b13-80335639d1fc","ios":"levelo://app?vid=e9e71dc1-09f0-44fd-9b13-80335639d1fc"},"vehicle_type_id":"4","last_reported":1704301603,"current_range_meters":8000,"station_id":"ce4bh192rcd13ifvqdc0","pricing_plan_id":"free"},{"bike_id":"4c7f4829-27bf-44ad-b4ff-99eba7fde8b1","system_id":"levelo_inurba_marseille","lat":43.292569,"lon":5.409107,"is_reserved":false,"is_disabled":false,"rental_uris":{"android":"levelo://app?vid=4c7f4829-27bf-44ad-b4ff-99eba7fde8b1","ios":"levelo://app?vid=4c7f4829-27bf-44ad-b4ff-99eba7fde8b1"},"vehicle_type_id":"4","last_reported":1704301603,"current_range_meters":20400,"station_id":"ce4bh192rcd13ifvqdc0","pricing_plan_id":"free"},{"bike_id":"878989f4-64e5-45eb-97fd-e2c865789826","system_id":"levelo_inurba_marseille","lat":43.280784,"lon":5.396622,"is_reserved":false,"is_disabled":false,"rental_uris":{"android":"levelo://app?vid=878989f4-64e5-45eb-97fd-e2c865789826","ios":"levelo://app?vid=878989f4-64e5-45eb-97fd-e2c865789826"},"vehicle_type_id":"4","last_reported":1704301603,"current_range_meters":21200,"station_id":"ce4bho12rcd13ifvqh2g","pricing_plan_id":"free"},{"bike_id":"b88d2ed7-d740-4925-a974-3ff2907646d6","system_id":"levelo_inurba_marseille","lat":43.278401,"lon":5.392152,"is_reserved":false,"is_disabled":false,"rental_uris":{"android":"levelo://app?vid=b88d2ed7-d740-4925-a974-3ff2907646d6","ios":"levelo://app?vid=b88d2ed7-d740-4925-a974-3ff2907646d6"},"vehicle_type_id":"4","last_reported":1704301603,"current_range_meters":7200,"station_id":"ce4bhjp2rcd13ifvqga0","pricing_plan_id":"free"},{"bike_id":"381ad4e2-e147-44d8-ae64-99365033102f","system_id":"levelo_inurba_marseille","lat":43.278401,"lon":5.392152,"is_reserved":false,"is_disabled":false,"rental_uris":{"android":"levelo://app?vid=381ad4e2-e147-44d8-ae64-99365033102f","ios":"levelo://app?vid=381ad4e2-e147-44d8-ae64-99365033102f"},"vehicle_type_id":"4","last_reported":1704301603,"current_range_meters":1200,"station_id":"ce4bhjp2rcd13ifvqga0","pricing_plan_id":"free"},{"bike_id":"95b4375b-a1a8-4788-bdf9-5245b47e35c5","system_id":"levelo_inurba_marseille","lat":43.273613,"lon":5.362705,"is_reserved":false,"is_disabled":false,"rental_uris":{"android":"levelo://app?vid=95b4375b-a1a8-4788-bdf9-5245b47e35c5","ios":"levelo://app?vid=95b4375b-a1a8-4788-bdf9-5245b47e35c5"},"vehicle_type_id":"4","last_reported":1704301603,"current_range_meters":31200,"station_id":"ce4bhbh2rcd13ifvqeo0","pricing_plan_id":"free"},{"bike_id":"720c32fb-a16c-4e5f-9f42-a32d4a8fee3a","system_id":"levelo_inurba_marseille","lat":43.273613,"lon":5.362705,"is_reserved":false,"is_disabled":false,"rental_uris":{"android":"levelo://app?vid=720c32fb-a16c-4e5f-9f42-a32d4a8fee3a","ios":"levelo://app?vid=720c32fb-a16c-4e5f-9f42-a32d4a8fee3a"},"vehicle_type_id":"4","last_reported":1704301603,"current_range_meters":18400,"station_id":"ce4bhbh2rcd13ifvqeo0","pricing_plan_id":"free"},{"bike_id":"e78550f4-0f79-488b-9230-e22ac20d652b","system_id":"levelo_inurba_marseille","lat":43.310706,"lon":5.423461,"is_reserved":false,"is_disabled":false,"rental_uris":{"android":"levelo://app?vid=e78550f4-0f79-488b-9230-e22ac20d652b","ios":"levelo://app?vid=e78550f4-0f79-488b-9230-e22ac20d652b"},"vehicle_type_id":"4","last_reported":1704301603,"current_range_meters":10000,"station_id":"","pricing_plan_id":"free"},{"bike_id":"5e3452d0-bbc8-463b-8852-ec98e809d5a0","system_id":"levelo_inurba_marseille","lat":43.317121,"lon":5.423936,"is_reserved":false,"is_disabled":false,"rental_uris":{"android":"levelo://app?vid=5e3452d0-bbc8-463b-8852-ec98e809d5a0","ios":"levelo://app?vid=5e3452d0-bbc8-463b-8852-ec98e809d5a0"},"vehicle_type_id":"4","last_reported":1704301603,"current_range_meters":31200,"station_id":"ce4bhp92rcd13ifvqhbg","pricing_plan_id":"free"},{"bike_id":"d77951a7-3cab-4a7a-920c-f716d44755f3","system_id":"levelo_inurba_marseille","lat":43.317121,"lon":5.423936,"is_reserved":false,"is_disabled":false,"rental_uris":{"android":"levelo://app?vid=d77951a7-3cab-4a7a-920c-f716d44755f3","ios":"levelo://app?vid=d77951a7-3cab-4a7a-920c-f716d44755f3"},"vehicle_type_id":"4","last_reported":1704301603,"current_range_meters":20000,"station_id":"ce4bhp92rcd13ifvqhbg","pricing_plan_id":"free"},{"bike_id":"e920f369-09be-4ca3-951b-777826d116a5","system_id":"levelo_inurba_marseille","lat":43.340804,"lon":5.410219,"is_reserved":false,"is_disabled":false,"rental_uris":{"android":"levelo://app?vid=e920f369-09be-4ca3-951b-777826d116a5","ios":"levelo://app?vid=e920f369-09be-4ca3-951b-777826d116a5"},"vehicle_type_id":"4","last_reported":1704301603,"current_range_meters":31200,"station_id":"ce4bhqh2rcd13ifvqhlg","pricing_plan_id":"free"},{"bike_id":"80514927-1566-4f1d-8fa1-c2b0908e41d0","system_id":"levelo_inurba_marseille","lat":43.30418,"lon":5.4254,"is_reserved":false,"is_disabled":false,"rental_uris":{"android":"levelo://app?vid=80514927-1566-4f1d-8fa1-c2b0908e41d0","ios":"levelo://app?vid=80514927-1566-4f1d-8fa1-c2b0908e41d0"},"vehicle_type_id":"4","last_reported":1704301603,"current_range_meters":0,"station_id":"ce4bhoh2rcd13ifvqh6g","pricing_plan_id":"free"},{"bike_id":"d001c259-c883-4952-903f-1e76874c0e3e","system_id":"levelo_inurba_marseille","lat":43.273125,"lon":5.390731,"is_reserved":false,"is_disabled":false,"rental_uris":{"android":"levelo://app?vid=d001c259-c883-4952-903f-1e76874c0e3e","ios":"levelo://app?vid=d001c259-c883-4952-903f-1e76874c0e3e"},"vehicle_type_id":"4","last_reported":1704301603,"current_range_meters":30400,"station_id":"ce4bhgp2rcd13ifvqfe0","pricing_plan_id":"free"},{"bike_id":"2eb83be1-7a3b-4f0a-a21d-adfaf5c57b60","system_id":"levelo_inurba_marseille","lat":43.295511,"lon":5.422926,"is_reserved":false,"is_disabled":false,"rental_uris":{"android":"levelo://app?vid=2eb83be1-7a3b-4f0a-a21d-adfaf5c57b60","ios":"levelo://app?vid=2eb83be1-7a3b-4f0a-a21d-adfaf5c57b60"},"vehicle_type_id":"4","last_reported":1704301603,"current_range_meters":11200,"station_id":"ce4bhph2rcd13ifvqhdg","pricing_plan_id":"free"},{"bike_id":"3417b14e-7e79-42c2-bed7-b98f778f7933","system_id":"levelo_inurba_marseille","lat":43.295511,"lon":5.422926,"is_reserved":false,"is_disabled":false,"rental_uris":{"android":"levelo://app?vid=3417b14e-7e79-42c2-bed7-b98f778f7933","ios":"levelo://app?vid=3417b14e-7e79-42c2-bed7-b98f778f7933"},"vehicle_type_id":"4","last_reported":1704301603,"current_range_meters":11200,"station_id":"ce4bhph2rcd13ifvqhdg","pricing_plan_id":"free"},{"bike_id":"abc17d46-4496-40c8-9b77-0b70c632170e","system_id":"levelo_inurba_marseille","lat":43.27208,"lon":5.39181,"is_reserved":false,"is_disabled":false,"rental_uris":{"android":"levelo://app?vid=abc17d46-4496-40c8-9b77-0b70c632170e","ios":"levelo://app?vid=abc17d46-4496-40c8-9b77-0b70c632170e"},"vehicle_type_id":"4","last_reported":1704301603,"current_range_meters":0,"station_id":"ce4bhhp2rcd13ifvqfm0","pricing_plan_id":"free"},{"bike_id":"5f1de015-53a8-48b6-bfee-be00f696d103","system_id":"levelo_inurba_marseille","lat":43.278128,"lon":5.407195,"is_reserved":false,"is_disabled":false,"rental_uris":{"android":"levelo://app?vid=5f1de015-53a8-48b6-bfee-be00f696d103","ios":"levelo://app?vid=5f1de015-53a8-48b6-bfee-be00f696d103"},"vehicle_type_id":"4","last_reported":1704301603,"current_range_meters":27200,"station_id":"ce4bhnh2rcd13ifvqgtg","pricing_plan_id":"free"},{"bike_id":"7520ee0c-d241-4b63-85eb-fe15975fadbe","system_id":"levelo_inurba_marseille","lat":43.278128,"lon":5.407195,"is_reserved":false,"is_disabled":false,"rental_uris":{"android":"levelo://app?vid=7520ee0c-d241-4b63-85eb-fe15975fadbe","ios":"levelo://app?vid=7520ee0c-d241-4b63-85eb-fe15975fadbe"},"vehicle_type_id":"4","last_reported":1704301603,"current_range_meters":17600,"station_id":"ce4bhnh2rcd13ifvqgtg","pricing_plan_id":"free"},{"bike_id":"20654629-b5ee-4e98-8864-50d0d2be908b","system_id":"levelo_inurba_marseille","lat":43.278128,"lon":5.407195,"is_reserved":false,"is_disabled":false,"rental_uris":{"android":"levelo://app?vid=20654629-b5ee-4e98-8864-50d0d2be908b","ios":"levelo://app?vid=20654629-b5ee-4e98-8864-50d0d2be908b"},"vehicle_type_id":"4","last_reported":1704301603,"current_range_meters":20000,"station_id":"ce4bhnh2rcd13ifvqgtg","pricing_plan_id":"free"},{"bike_id":"8f16b211-e9b0-4cda-a210-d95b32e22e9b","system_id":"levelo_inurba_marseille","lat":43.27949,"lon":5.41039,"is_reserved":false,"is_disabled":false,"rental_uris":{"android":"levelo://app?vid=8f16b211-e9b0-4cda-a210-d95b32e22e9b","ios":"levelo://app?vid=8f16b211-e9b0-4cda-a210-d95b32e22e9b"},"vehicle_type_id":"4","last_reported":1704301603,"current_range_meters":20400,"station_id":"ce4bhnp2rcd13ifvqh0g","pricing_plan_id":"free"},{"bike_id":"f7655d05-a37a-4bf1-a7c7-0fcfd1e8693a","system_id":"levelo_inurba_marseille","lat":43.279465,"lon":5.410561,"is_reserved":false,"is_disabled":false,"rental_uris":{"android":"levelo://app?vid=f7655d05-a37a-4bf1-a7c7-0fcfd1e8693a","ios":"levelo://app?vid=f7655d05-a37a-4bf1-a7c7-0fcfd1e8693a"},"vehicle_type_id":"4","last_reported":1704301603,"current_range_meters":27200,"station_id":"ce4bhnp2rcd13ifvqh0g","pricing_plan_id":"free"},{"bike_id":"ab3ab1bc-0676-4392-aa76-6d79e76a20ec","system_id":"levelo_inurba_marseille","lat":43.265714,"lon":5.372891,"is_reserved":false,"is_disabled":false,"rental_uris":{"android":"levelo://app?vid=ab3ab1bc-0676-4392-aa76-6d79e76a20ec","ios":"levelo://app?vid=ab3ab1bc-0676-4392-aa76-6d79e76a20ec"},"vehicle_type_id":"4","last_reported":1704301603,"current_range_meters":20800,"station_id":"ce4bhg12rcd13ifvqf70","pricing_plan_id":"free"},{"bike_id":"1b1059ed-fd1d-4381-9472-0cb6808d2bf9","system_id":"levelo_inurba_marseille","lat":43.265714,"lon":5.372891,"is_reserved":false,"is_disabled":false,"rental_uris":{"android":"levelo://app?vid=1b1059ed-fd1d-4381-9472-0cb6808d2bf9","ios":"levelo://app?vid=1b1059ed-fd1d-4381-9472-0cb6808d2bf9"},"vehicle_type_id":"4","last_reported":1704301603,"current_range_meters":30000,"station_id":"ce4bhg12rcd13ifvqf70","pricing_plan_id":"free"},{"bike_id":"41f160ee-9d8e-4960-8721-b5dc7ef09b3a","system_id":"levelo_inurba_marseille","lat":43.289307,"lon":5.38406,"is_reserved":false,"is_disabled":false,"rental_uris":{"android":"levelo://app?vid=41f160ee-9d8e-4960-8721-b5dc7ef09b3a","ios":"levelo://app?vid=41f160ee-9d8e-4960-8721-b5dc7ef09b3a"},"vehicle_type_id":"4","last_reported":1704301603,"current_range_meters":30800,"station_id":"ce4bh612rcd13ifvqe6g","pricing_plan_id":"free"},{"bike_id":"39d62807-d4b8-4819-a7b3-e4158674b2e2","system_id":"levelo_inurba_marseille","lat":43.26839,"lon":5.39431,"is_reserved":false,"is_disabled":false,"rental_uris":{"android":"levelo://app?vid=39d62807-d4b8-4819-a7b3-e4158674b2e2","ios":"levelo://app?vid=39d62807-d4b8-4819-a7b3-e4158674b2e2"},"vehicle_type_id":"4","last_reported":1704301603,"current_range_meters":18000,"station_id":"","pricing_plan_id":"free"},{"bike_id":"c8467f24-6510-4c95-bdcd-ca858533e184","system_id":"levelo_inurba_marseille","lat":43.27996,"lon":5.416624,"is_reserved":false,"is_disabled":false,"rental_uris":{"android":"levelo://app?vid=c8467f24-6510-4c95-bdcd-ca858533e184","ios":"levelo://app?vid=c8467f24-6510-4c95-bdcd-ca858533e184"},"vehicle_type_id":"4","last_reported":1704301603,"current_range_meters":18400,"station_id":"ce4bho12rcd13ifvqh1g","pricing_plan_id":"free"},{"bike_id":"c7570391-77c0-4934-8f66-462cdf05b333","system_id":"levelo_inurba_marseille","lat":43.27996,"lon":5.416624,"is_reserved":false,"is_disabled":false,"rental_uris":{"android":"levelo://app?vid=c7570391-77c0-4934-8f66-462cdf05b333","ios":"levelo://app?vid=c7570391-77c0-4934-8f66-462cdf05b333"},"vehicle_type_id":"4","last_reported":1704301603,"current_range_meters":31200,"station_id":"ce4bho12rcd13ifvqh1g","pricing_plan_id":"free"},{"bike_id":"4e7b82a4-f271-4a72-bdbd-460d1cfbd58d","system_id":"levelo_inurba_marseille","lat":43.27181,"lon":5.404997,"is_reserved":false,"is_disabled":false,"rental_uris":{"android":"levelo://app?vid=4e7b82a4-f271-4a72-bdbd-460d1cfbd58d","ios":"levelo://app?vid=4e7b82a4-f271-4a72-bdbd-460d1cfbd58d"},"vehicle_type_id":"4","last_reported":1704301603,"current_range_meters":800,"station_id":"ce4bhl12rcd13ifvqgf0","pricing_plan_id":"free"},{"bike_id":"c8a147d9-7221-45e7-ac71-c22f39bea382","system_id":"levelo_inurba_marseille","lat":43.308051,"lon":5.43527,"is_reserved":false,"is_disabled":false,"rental_uris":{"android":"levelo://app?vid=c8a147d9-7221-45e7-ac71-c22f39bea382","ios":"levelo://app?vid=c8a147d9-7221-45e7-ac71-c22f39bea382"},"vehicle_type_id":"4","last_reported":1704301603,"current_range_meters":800,"station_id":"ce4bhph2rcd13ifvqheg","pricing_plan_id":"free"},{"bike_id":"14d1a239-5139-47c9-8c95-02fd11400c11","system_id":"levelo_inurba_marseille","lat":43.265571,"lon":5.390032,"is_reserved":false,"is_disabled":false,"rental_uris":{"android":"levelo://app?vid=14d1a239-5139-47c9-8c95-02fd11400c11","ios":"levelo://app?vid=14d1a239-5139-47c9-8c95-02fd11400c11"},"vehicle_type_id":"4","last_reported":1704301603,"current_range_meters":24400,"station_id":"ce4bhe12rcd13ifvqf30","pricing_plan_id":"free"},{"bike_id":"e7c9ecba-33b1-453a-8003-a8e1ec8d62a3","system_id":"levelo_inurba_marseille","lat":43.308051,"lon":5.43527,"is_reserved":false,"is_disabled":false,"rental_uris":{"android":"levelo://app?vid=e7c9ecba-33b1-453a-8003-a8e1ec8d62a3","ios":"levelo://app?vid=e7c9ecba-33b1-453a-8003-a8e1ec8d62a3"},"vehicle_type_id":"4","last_reported":1704301603,"current_range_meters":31600,"station_id":"ce4bhph2rcd13ifvqheg","pricing_plan_id":"free"},{"bike_id":"9e48449f-2df0-437d-ba83-cf271e55812d","system_id":"levelo_inurba_marseille","lat":43.265571,"lon":5.390032,"is_reserved":false,"is_disabled":false,"rental_uris":{"android":"levelo://app?vid=9e48449f-2df0-437d-ba83-cf271e55812d","ios":"levelo://app?vid=9e48449f-2df0-437d-ba83-cf271e55812d"},"vehicle_type_id":"4","last_reported":1704301603,"current_range_meters":28000,"station_id":"ce4bhe12rcd13ifvqf30","pricing_plan_id":"free"},{"bike_id":"30ed2cb3-897e-4788-bee2-d0718a634754","system_id":"levelo_inurba_marseille","lat":43.308051,"lon":5.43527,"is_reserved":false,"is_disabled":false,"rental_uris":{"android":"levelo://app?vid=30ed2cb3-897e-4788-bee2-d0718a634754","ios":"levelo://app?vid=30ed2cb3-897e-4788-bee2-d0718a634754"},"vehicle_type_id":"4","last_reported":1704301603,"current_range_meters":1600,"station_id":"ce4bhph2rcd13ifvqheg","pricing_plan_id":"free"},{"bike_id":"aa3161c3-82fb-4037-a553-db4be2468684","system_id":"levelo_inurba_marseille","lat":43.26949,"lon":5.40262,"is_reserved":false,"is_disabled":false,"rental_uris":{"android":"levelo://app?vid=aa3161c3-82fb-4037-a553-db4be2468684","ios":"levelo://app?vid=aa3161c3-82fb-4037-a553-db4be2468684"},"vehicle_type_id":"4","last_reported":1704301603,"current_range_meters":800,"station_id":"cjm6bp8fraef2m0cb0m0","pricing_plan_id":"free"},{"bike_id":"dac5ea74-92f7-462e-b536-31f322bb01c0","system_id":"levelo_inurba_marseille","lat":43.331893,"lon":5.431791,"is_reserved":false,"is_disabled":false,"rental_uris":{"android":"levelo://app?vid=dac5ea74-92f7-462e-b536-31f322bb01c0","ios":"levelo://app?vid=dac5ea74-92f7-462e-b536-31f322bb01c0"},"vehicle_type_id":"4","last_reported":1704301603,"current_range_meters":0,"station_id":"","pricing_plan_id":"free"},{"bike_id":"019f0330-68a7-4387-a934-8980aff537fe","system_id":"levelo_inurba_marseille","lat":43.261782,"lon":5.374515,"is_reserved":false,"is_disabled":false,"rental_uris":{"android":"levelo://app?vid=019f0330-68a7-4387-a934-8980aff537fe","ios":"levelo://app?vid=019f0330-68a7-4387-a934-8980aff537fe"},"vehicle_type_id":"4","last_reported":1704301603,"current_range_meters":800,"station_id":"ce4bhgp2rcd13ifvqfc0","pricing_plan_id":"free"},{"bike_id":"c3049aed-e654-43c7-bc44-b84362a959c0","system_id":"levelo_inurba_marseille","lat":43.261782,"lon":5.374515,"is_reserved":false,"is_disabled":false,"rental_uris":{"android":"levelo://app?vid=c3049aed-e654-43c7-bc44-b84362a959c0","ios":"levelo://app?vid=c3049aed-e654-43c7-bc44-b84362a959c0"},"vehicle_type_id":"4","last_reported":1704301603,"current_range_meters":17200,"station_id":"ce4bhgp2rcd13ifvqfc0","pricing_plan_id":"free"},{"bike_id":"a3856c02-83b2-424a-8de2-25198868578b","system_id":"levelo_inurba_marseille","lat":43.31711,"lon":5.43707,"is_reserved":false,"is_disabled":false,"rental_uris":{"android":"levelo://app?vid=a3856c02-83b2-424a-8de2-25198868578b","ios":"levelo://app?vid=a3856c02-83b2-424a-8de2-25198868578b"},"vehicle_type_id":"4","last_reported":1704301603,"current_range_meters":31200,"station_id":"ce4bhp92rcd13ifvqhcg","pricing_plan_id":"free"},{"bike_id":"9b7bbf7d-4e0b-4227-b5a3-3608d809d9ed","system_id":"levelo_inurba_marseille","lat":43.317104,"lon":5.436818,"is_reserved":false,"is_disabled":false,"rental_uris":{"android":"levelo://app?vid=9b7bbf7d-4e0b-4227-b5a3-3608d809d9ed","ios":"levelo://app?vid=9b7bbf7d-4e0b-4227-b5a3-3608d809d9ed"},"vehicle_type_id":"4","last_reported":1704301603,"current_range_meters":1200,"station_id":"ce4bhp92rcd13ifvqhcg","pricing_plan_id":"free"},{"bike_id":"92428b0f-c87a-4962-8b77-d9a6678adb8c","system_id":"levelo_inurba_marseille","lat":43.31713,"lon":5.43712,"is_reserved":false,"is_disabled":false,"rental_uris":{"android":"levelo://app?vid=92428b0f-c87a-4962-8b77-d9a6678adb8c","ios":"levelo://app?vid=92428b0f-c87a-4962-8b77-d9a6678adb8c"},"vehicle_type_id":"4","last_reported":1704301603,"current_range_meters":26800,"station_id":"ce4bhp92rcd13ifvqhcg","pricing_plan_id":"free"},{"bike_id":"31659388-d8dd-4433-ad51-6a376ebfa6e0","system_id":"levelo_inurba_marseille","lat":43.271368,"lon":5.40928,"is_reserved":false,"is_disabled":false,"rental_uris":{"android":"levelo://app?vid=31659388-d8dd-4433-ad51-6a376ebfa6e0","ios":"levelo://app?vid=31659388-d8dd-4433-ad51-6a376ebfa6e0"},"vehicle_type_id":"4","last_reported":1704301603,"current_range_meters":26000,"station_id":"ce4bhl12rcd13ifvqgf0","pricing_plan_id":"free"},{"bike_id":"a065eb38-f2f4-4e8b-821b-201753f1478a","system_id":"levelo_inurba_marseille","lat":43.261782,"lon":5.374515,"is_reserved":false,"is_disabled":false,"rental_uris":{"android":"levelo://app?vid=a065eb38-f2f4-4e8b-821b-201753f1478a","ios":"levelo://app?vid=a065eb38-f2f4-4e8b-821b-201753f1478a"},"vehicle_type_id":"4","last_reported":1704301603,"current_range_meters":21200,"station_id":"ce4bhgp2rcd13ifvqfc0","pricing_plan_id":"free"},{"bike_id":"8f57b2b0-ebff-4ab1-91df-afa73631a1dc","system_id":"levelo_inurba_marseille","lat":43.262012,"lon":5.379307,"is_reserved":false,"is_disabled":false,"rental_uris":{"android":"levelo://app?vid=8f57b2b0-ebff-4ab1-91df-afa73631a1dc","ios":"levelo://app?vid=8f57b2b0-ebff-4ab1-91df-afa73631a1dc"},"vehicle_type_id":"4","last_reported":1704301603,"current_range_meters":28400,"station_id":"ce4bhjp2rcd13ifvqg90","pricing_plan_id":"free"},{"bike_id":"f20caa36-5b40-4ee8-ab9d-d56ce19cf853","system_id":"levelo_inurba_marseille","lat":43.26202,"lon":5.379299,"is_reserved":false,"is_disabled":false,"rental_uris":{"android":"levelo://app?vid=f20caa36-5b40-4ee8-ab9d-d56ce19cf853","ios":"levelo://app?vid=f20caa36-5b40-4ee8-ab9d-d56ce19cf853"},"vehicle_type_id":"4","last_reported":1704301603,"current_range_meters":11600,"station_id":"ce4bhjp2rcd13ifvqg90","pricing_plan_id":"free"},{"bike_id":"6fbe6fb7-c793-4236-85f1-f5e492d9abf4","system_id":"levelo_inurba_marseille","lat":43.26807,"lon":5.40264,"is_reserved":false,"is_disabled":false,"rental_uris":{"android":"levelo://app?vid=6fbe6fb7-c793-4236-85f1-f5e492d9abf4","ios":"levelo://app?vid=6fbe6fb7-c793-4236-85f1-f5e492d9abf4"},"vehicle_type_id":"4","last_reported":1704301603,"current_range_meters":29200,"station_id":"ce501612rcd8frsf0b60","pricing_plan_id":"free"},{"bike_id":"9e79ebbd-8b93-4b65-ab2b-5fb82f1c880a","system_id":"levelo_inurba_marseille","lat":43.29892,"lon":5.4366,"is_reserved":false,"is_disabled":false,"rental_uris":{"android":"levelo://app?vid=9e79ebbd-8b93-4b65-ab2b-5fb82f1c880a","ios":"levelo://app?vid=9e79ebbd-8b93-4b65-ab2b-5fb82f1c880a"},"vehicle_type_id":"4","last_reported":1704301603,"current_range_meters":27600,"station_id":"ce4bhpp2rcd13ifvqhfg","pricing_plan_id":"free"},{"bike_id":"050a07db-c236-43f6-82d2-e1adff903c68","system_id":"levelo_inurba_marseille","lat":43.260219,"lon":5.37546,"is_reserved":false,"is_disabled":false,"rental_uris":{"android":"levelo://app?vid=050a07db-c236-43f6-82d2-e1adff903c68","ios":"levelo://app?vid=050a07db-c236-43f6-82d2-e1adff903c68"},"vehicle_type_id":"4","last_reported":1704301603,"current_range_meters":21200,"station_id":"ce4bhgh2rcd13ifvqfa0","pricing_plan_id":"free"},{"bike_id":"72a62e1f-1955-498b-b2a4-9c4adb58d6c2","system_id":"levelo_inurba_marseille","lat":43.260219,"lon":5.37546,"is_reserved":false,"is_disabled":false,"rental_uris":{"android":"levelo://app?vid=72a62e1f-1955-498b-b2a4-9c4adb58d6c2","ios":"levelo://app?vid=72a62e1f-1955-498b-b2a4-9c4adb58d6c2"},"vehicle_type_id":"4","last_reported":1704301603,"current_range_meters":11600,"station_id":"ce4bhgh2rcd13ifvqfa0","pricing_plan_id":"free"},{"bike_id":"8f11ba04-eec0-4df9-96e8-fe3b5f598f50","system_id":"levelo_inurba_marseille","lat":43.28153,"lon":5.42638,"is_reserved":false,"is_disabled":false,"rental_uris":{"android":"levelo://app?vid=8f11ba04-eec0-4df9-96e8-fe3b5f598f50","ios":"levelo://app?vid=8f11ba04-eec0-4df9-96e8-fe3b5f598f50"},"vehicle_type_id":"4","last_reported":1704301603,"current_range_meters":16000,"station_id":"ce4bhnh2rcd13ifvqgug","pricing_plan_id":"free"},{"bike_id":"d7214fbb-bc69-46da-92b0-9b2cbe582498","system_id":"levelo_inurba_marseille","lat":43.281548,"lon":5.42643,"is_reserved":false,"is_disabled":false,"rental_uris":{"android":"levelo://app?vid=d7214fbb-bc69-46da-92b0-9b2cbe582498","ios":"levelo://app?vid=d7214fbb-bc69-46da-92b0-9b2cbe582498"},"vehicle_type_id":"4","last_reported":1704301603,"current_range_meters":6800,"station_id":"ce4bhnh2rcd13ifvqgug","pricing_plan_id":"free"},{"bike_id":"1bacb750-8387-4675-a445-77f7232c32e9","system_id":"levelo_inurba_marseille","lat":43.281548,"lon":5.42643,"is_reserved":false,"is_disabled":false,"rental_uris":{"android":"levelo://app?vid=1bacb750-8387-4675-a445-77f7232c32e9","ios":"levelo://app?vid=1bacb750-8387-4675-a445-77f7232c32e9"},"vehicle_type_id":"4","last_reported":1704301603,"current_range_meters":25600,"station_id":"ce4bhnh2rcd13ifvqgug","pricing_plan_id":"free"},{"bike_id":"9a04d653-18d4-4789-adf8-a79eda64d1d2","system_id":"levelo_inurba_marseille","lat":43.28157,"lon":5.42645,"is_reserved":false,"is_disabled":false,"rental_uris":{"android":"levelo://app?vid=9a04d653-18d4-4789-adf8-a79eda64d1d2","ios":"levelo://app?vid=9a04d653-18d4-4789-adf8-a79eda64d1d2"},"vehicle_type_id":"4","last_reported":1704301603,"current_range_meters":2800,"station_id":"ce4bhnh2rcd13ifvqgug","pricing_plan_id":"free"},{"bike_id":"86241554-6014-4d59-9b87-f7d8d23b8db5","system_id":"levelo_inurba_marseille","lat":43.281548,"lon":5.42643,"is_reserved":false,"is_disabled":false,"rental_uris":{"android":"levelo://app?vid=86241554-6014-4d59-9b87-f7d8d23b8db5","ios":"levelo://app?vid=86241554-6014-4d59-9b87-f7d8d23b8db5"},"vehicle_type_id":"4","last_reported":1704301603,"current_range_meters":20400,"station_id":"ce4bhnh2rcd13ifvqgug","pricing_plan_id":"free"},{"bike_id":"f3a3cac7-5076-4285-82fc-b547987724a7","system_id":"levelo_inurba_marseille","lat":43.28156,"lon":5.42647,"is_reserved":false,"is_disabled":false,"rental_uris":{"android":"levelo://app?vid=f3a3cac7-5076-4285-82fc-b547987724a7","ios":"levelo://app?vid=f3a3cac7-5076-4285-82fc-b547987724a7"},"vehicle_type_id":"4","last_reported":1704301603,"current_range_meters":20000,"station_id":"ce4bhnh2rcd13ifvqgug","pricing_plan_id":"free"},{"bike_id":"37ac300b-a0ec-4809-a71b-87d97a6e8db2","system_id":"levelo_inurba_marseille","lat":43.28154,"lon":5.4265,"is_reserved":false,"is_disabled":false,"rental_uris":{"android":"levelo://app?vid=37ac300b-a0ec-4809-a71b-87d97a6e8db2","ios":"levelo://app?vid=37ac300b-a0ec-4809-a71b-87d97a6e8db2"},"vehicle_type_id":"4","last_reported":1704301603,"current_range_meters":8400,"station_id":"ce4bhnh2rcd13ifvqgug","pricing_plan_id":"free"},{"bike_id":"7be442ed-0e08-4561-8dd6-4c7c61e18b77","system_id":"levelo_inurba_marseille","lat":43.28151,"lon":5.42649,"is_reserved":false,"is_disabled":false,"rental_uris":{"android":"levelo://app?vid=7be442ed-0e08-4561-8dd6-4c7c61e18b77","ios":"levelo://app?vid=7be442ed-0e08-4561-8dd6-4c7c61e18b77"},"vehicle_type_id":"4","last_reported":1704301603,"current_range_meters":14800,"station_id":"ce4bhnh2rcd13ifvqgug","pricing_plan_id":"free"},{"bike_id":"abf0d7e5-085a-4701-aa06-86e1a84f51d3","system_id":"levelo_inurba_marseille","lat":43.27497,"lon":5.4245,"is_reserved":false,"is_disabled":false,"rental_uris":{"android":"levelo://app?vid=abf0d7e5-085a-4701-aa06-86e1a84f51d3","ios":"levelo://app?vid=abf0d7e5-085a-4701-aa06-86e1a84f51d3"},"vehicle_type_id":"4","last_reported":1704301603,"current_range_meters":14400,"station_id":"ce4bhn92rcd13ifvqgrg","pricing_plan_id":"free"},{"bike_id":"c802ee24-89e2-4800-915d-3db366160752","system_id":"levelo_inurba_marseille","lat":43.27492,"lon":5.42449,"is_reserved":false,"is_disabled":false,"rental_uris":{"android":"levelo://app?vid=c802ee24-89e2-4800-915d-3db366160752","ios":"levelo://app?vid=c802ee24-89e2-4800-915d-3db366160752"},"vehicle_type_id":"4","last_reported":1704301603,"current_range_meters":6800,"station_id":"ce4bhn92rcd13ifvqgrg","pricing_plan_id":"free"},{"bike_id":"c6e1d669-4b40-4bf6-a5f7-2ef90ad928f9","system_id":"levelo_inurba_marseille","lat":43.27494,"lon":5.42456,"is_reserved":false,"is_disabled":false,"rental_uris":{"android":"levelo://app?vid=c6e1d669-4b40-4bf6-a5f7-2ef90ad928f9","ios":"levelo://app?vid=c6e1d669-4b40-4bf6-a5f7-2ef90ad928f9"},"vehicle_type_id":"4","last_reported":1704301603,"current_range_meters":22800,"station_id":"ce4bhn92rcd13ifvqgrg","pricing_plan_id":"free"},{"bike_id":"57c2cd57-3900-46ce-aa45-9f8a20619c14","system_id":"levelo_inurba_marseille","lat":43.255756,"lon":5.382303,"is_reserved":false,"is_disabled":false,"rental_uris":{"android":"levelo://app?vid=57c2cd57-3900-46ce-aa45-9f8a20619c14","ios":"levelo://app?vid=57c2cd57-3900-46ce-aa45-9f8a20619c14"},"vehicle_type_id":"4","last_reported":1704301603,"current_range_meters":19600,"station_id":"ce4bhih2rcd13ifvqfs0","pricing_plan_id":"free"},{"bike_id":"eb4cd7ed-b34e-4512-89e9-a4953f025fdb","system_id":"levelo_inurba_marseille","lat":43.255756,"lon":5.382303,"is_reserved":false,"is_disabled":false,"rental_uris":{"android":"levelo://app?vid=eb4cd7ed-b34e-4512-89e9-a4953f025fdb","ios":"levelo://app?vid=eb4cd7ed-b34e-4512-89e9-a4953f025fdb"},"vehicle_type_id":"4","last_reported":1704301603,"current_range_meters":15200,"station_id":"ce4bhih2rcd13ifvqfs0","pricing_plan_id":"free"},{"bike_id":"501ad144-ae97-47d2-ac84-17b4f88f7d51","system_id":"levelo_inurba_marseille","lat":43.255756,"lon":5.382303,"is_reserved":false,"is_disabled":false,"rental_uris":{"android":"levelo://app?vid=501ad144-ae97-47d2-ac84-17b4f88f7d51","ios":"levelo://app?vid=501ad144-ae97-47d2-ac84-17b4f88f7d51"},"vehicle_type_id":"4","last_reported":1704301603,"current_range_meters":28400,"station_id":"ce4bhih2rcd13ifvqfs0","pricing_plan_id":"free"},{"bike_id":"57beae6b-655b-4e64-976b-79639ef21a6e","system_id":"levelo_inurba_marseille","lat":43.254945,"lon":5.376454,"is_reserved":false,"is_disabled":false,"rental_uris":{"android":"levelo://app?vid=57beae6b-655b-4e64-976b-79639ef21a6e","ios":"levelo://app?vid=57beae6b-655b-4e64-976b-79639ef21a6e"},"vehicle_type_id":"4","last_reported":1704301603,"current_range_meters":31200,"station_id":"ce4bhh12rcd13ifvqff0","pricing_plan_id":"free"},{"bike_id":"9f9a94fd-e3a4-4bf6-93a4-4f9ab44d413c","system_id":"levelo_inurba_marseille","lat":43.25494,"lon":5.37634,"is_reserved":false,"is_disabled":false,"rental_uris":{"android":"levelo://app?vid=9f9a94fd-e3a4-4bf6-93a4-4f9ab44d413c","ios":"levelo://app?vid=9f9a94fd-e3a4-4bf6-93a4-4f9ab44d413c"},"vehicle_type_id":"4","last_reported":1704301603,"current_range_meters":29200,"station_id":"ce4bhh12rcd13ifvqff0","pricing_plan_id":"free"},{"bike_id":"09f54bff-f41d-40f1-96ff-519057bb9c2f","system_id":"levelo_inurba_marseille","lat":43.254947,"lon":5.376454,"is_reserved":false,"is_disabled":false,"rental_uris":{"android":"levelo://app?vid=09f54bff-f41d-40f1-96ff-519057bb9c2f","ios":"levelo://app?vid=09f54bff-f41d-40f1-96ff-519057bb9c2f"},"vehicle_type_id":"4","last_reported":1704301603,"current_range_meters":19200,"station_id":"ce4bhh12rcd13ifvqff0","pricing_plan_id":"free"},{"bike_id":"ba2a2393-82ef-486f-b3d4-6ddd4bd59e9f","system_id":"levelo_inurba_marseille","lat":43.270721,"lon":5.422764,"is_reserved":false,"is_disabled":false,"rental_uris":{"android":"levelo://app?vid=ba2a2393-82ef-486f-b3d4-6ddd4bd59e9f","ios":"levelo://app?vid=ba2a2393-82ef-486f-b3d4-6ddd4bd59e9f"},"vehicle_type_id":"4","last_reported":1704301603,"current_range_meters":31200,"station_id":"ce4bhk92rcd13ifvqgb0","pricing_plan_id":"free"},{"bike_id":"221802a2-dd5d-4d29-9925-80da00c421c1","system_id":"levelo_inurba_marseille","lat":43.270697,"lon":5.4228,"is_reserved":false,"is_disabled":false,"rental_uris":{"android":"levelo://app?vid=221802a2-dd5d-4d29-9925-80da00c421c1","ios":"levelo://app?vid=221802a2-dd5d-4d29-9925-80da00c421c1"},"vehicle_type_id":"4","last_reported":1704301603,"current_range_meters":12000,"station_id":"ce4bhk92rcd13ifvqgb0","pricing_plan_id":"free"},