{"last_updated":1731240905,"ttl":60,"version":"2.2","data":{"bikes":[{"bike_id":"dcd8b508-2c18-4839-ab68-7b52cc2d3fb7","system_id":"levelo_inurba_marseille","lat":43.2707,"lon":5.42274,"is_reserved":false,"is_disabled":false,"rental_uris":{"android":"levelo://app?vid=dcd8b508-2c18-4839-ab68-7b52cc2d3fb7","ios":"levelo://app?vid=dcd8b508-2c18-4839-ab68-7b52cc2d3fb7"},"vehicle_type_id":"4","last_reported":1731240905,"current_range_meters":30800,"station_id":"ce4bhk92rcd13ifvqgb0","pricing_plan_id":"cebpf4jnsgd1na2vs0mg"},{"bike_id":"417b1b24-9d8f-4872-a930-ff009e47f1ed","system_id":"levelo_inurba_marseille","lat":43.3372,"lon":5.39184,"is_reserved":false,"is_disabled":false,"rental_uris":{"android":"levelo://app?vid=417b1b24-9d8f-4872-a930-ff009e47f1ed","ios":"levelo://app?vid=417b1b24-9d8f-4872-a930-ff009e47f1ed"},"vehicle_type_id":"4","last_reported":1731240905,"current_range_meters":9200,"station_id":"ce4bhr92rcd13ifvqhsg","pricing_plan_id":"cebpf4jnsgd1na2vs0mg"},{"bike_id":"3f98d5bc-8cba-45da-9b18-d2bbd2d31032","system_id":"levelo_inurba_marseille","lat":43.29012,"lon":5.35613,"is_reserved":false,"is_disabled":false,"rental_uris":{"android":"levelo://app?vid=3f98d5bc-8cba-45da-9b18-d2bbd2d31032","ios":"levelo://app?vid=3f98d5bc-8cba-45da-9b18-d2bbd2d31032"},"vehicle_type_id":"4","last_reported":1731240905,"current_range_meters":14000,"station_id":"ce4bhb92rcd13ifvqen0","pricing_plan_id":"cebpf4jnsgd1na2vs0mg"},{"bike_id":"03b21e3c-734f-4951-bf01-23147218d4fc","system_id":"levelo_inurba_marseille","lat":43.29213,"lon":5.36061,"is_reserved":false,"is_disabled":false,"rental_uris":{"android":"levelo://app?vid=03b21e3c-734f-4951-bf01-23147218d4fc","ios":"levelo://app?vid=03b21e3c-734f-4951-bf01-23147218d4fc"},"vehicle_type_id":"4","last_reported":1731240905,"current_range_meters":9600,"station_id":"ce4bhbh2rcd13ifvqeqg","pricing_plan_id":"cebpf4jnsgd1na2vs0mg"},{"bike_id":"4d807e1d-e928-4f4e-a3d6-537ea1b965f5","system_id":"levelo_inurba_marseille","lat":43.27376,"lon":5.36264,"is_reserved":false,"is_disabled":false,"rental_uris":{"android":"levelo://app?vid=4d807e1d-e928-4f4e-a3d6-537ea1b965f5","ios":"levelo://app?vid=4d807e1d-e928-4f4e-a3d6-537ea1b965f5"},"vehicle_type_id":"4","last_reported":1731240905,"current_range_meters":38800,"station_id":"ce4bhbh2rcd13ifvqeo0","pricing_plan_id":"cebpf4jnsgd1na2vs0mg"},{"bike_id":"68bb9078-c705-4e4c-81de-7ae7c7d86c43","system_id":"levelo_inurba_marseille","lat":43.31677,"lon":5.37645,"is_reserved":false,"is_disabled":false,"rental_uris":{"android":"levelo://app?vid=68bb9078-c705-4e4c-81de-7ae7c7d86c43","ios":"levelo://app?vid=68bb9078-c705-4e4c-81de-7ae7c7d86c43"},"vehicle_type_id":"4","last_reported":1731240905,"current_range_meters":24400,"station_id":"ce4bgth2rcd13ifvqch0","pricing_plan_id":"cebpf4jnsgd1na2vs0mg"},{"bike_id":"c6b038d2-a4f9-4f51-8fef-2fcb411854df","system_id":"levelo_inurba_marseille","lat":43.29294,"lon":5.37451,"is_reserved":false,"is_disabled":false,"rental_uris":{"android":"levelo://app?vid=c6b038d2-a4f9-4f51-8fef-2fcb411854df","ios":"levelo://app?vid=c6b038d2-a4f9-4f51-8fef-2fcb411854df"},"vehicle_type_id":"4","last_reported":1731240905,"current_range_meters":36400,"station_id":"ce4bgi12rcd13ifvqb70","pricing_plan_id":"cebpf4jnsgd1na2vs0mg"},{"bike_id":"5daf7e81-adca-4c69-ac49-7439dac41928","system_id":"levelo_inurba_marseille","lat":43.29556,"lon":5.42265,"is_reserved":false,"is_disabled":false,"rental_uris":{"android":"levelo://app?vid=5daf7e81-adca-4c69-ac49-7439dac41928","ios":"levelo://app?vid=5daf7e81-adca-4c69-ac49-7439dac41928"},"vehicle_type_id":"4","last_reported":1731240905,"current_range_meters":39200,"station_id":"ce4bhph2rcd13ifvqhdg","pricing_plan_id":"cebpf4jnsgd1na2vs0mg"},{"bike_id":"bab7e8bf-3dd9-4ba8-ae9e-1d78dcf614a2","system_id":"levelo_inurba_marseille","lat":43.25084,"lon":5.39519,"is_reserved":false,"is_disabled":false,"rental_uris":{"android":"levelo://app?vid=bab7e8bf-3dd9-4ba8-ae9e-1d78dcf614a2","ios":"levelo://app?vid=bab7e8bf-3dd9-4ba8-ae9e-1d78dcf614a2"},"vehicle_type_id":"4","last_reported":1731240905,"current_range_meters":35200,"station_id":"ce4bhm12rcd13ifvqgkg","pricing_plan_id":"cebpf4jnsgd1na2vs0mg"},{"bike_id":"39d45009-c847-43d6-b7cb-7399cdf413c3","system_id":"levelo_inurba_marseille","lat":43.23192,"lon":5.39989,"is_reserved":false,"is_disabled":false,"rental_uris":{"android":"levelo://app?vid=39d45009-c847-43d6-b7cb-7399cdf413c3","ios":"levelo://app?vid=39d45009-c847-43d6-b7cb-7399cdf413c3"},"vehicle_type_id":"4","last_reported":1731240905,"current_range_meters":10800,"station_id":"ce4bhn12rcd13ifvqgqg","pricing_plan_id":"cebpf4jnsgd1na2vs0mg"},{"bike_id":"fc7a04b3-3bcc-43cd-ac1f-db69c333388d","system_id":"levelo_inurba_marseille","lat":43.28617,"lon":5.35104,"is_reserved":false,"is_disabled":false,"rental_uris":{"android":"levelo://app?vid=fc7a04b3-3bcc-43cd-ac1f-db69c333388d","ios":"levelo://app?vid=fc7a04b3-3bcc-43cd-ac1f-db69c333388d"},"vehicle_type_id":"4","last_reported":1731240905,"current_range_meters":20000,"station_id":"ce4bhch2rcd13ifvqeug","pricing_plan_id":"cebpf4jnsgd1na2vs0mg"},{"bike_id":"4a54ee2b-70c3-48fc-a993-d567e0317c43","system_id":"levelo_inurba_marseille","lat":43.28431,"lon":5.34986,"is_reserved":false,"is_disabled":false,"rental_uris":{"android":"levelo://app?vid=4a54ee2b-70c3-48fc-a993-d567e0317c43","ios":"levelo://app?vid=4a54ee2b-70c3-48fc-a993-d567e0317c43"},"vehicle_type_id":"4","last_reported":1731240905,"current_range_meters":27600,"station_id":"ce4bhbh2rcd13ifvqepg","pricing_plan_id":"cebpf4jnsgd1na2vs0mg"},{"bike_id":"5d9d809a-3047-4be2-b474-42330af92d31","system_id":"levelo_inurba_marseille","lat":43.284485,"lon":5.350293,"is_reserved":false,"is_disabled":false,"rental_uris":{"android":"levelo://app?vid=5d9d809a-3047-4be2-b474-42330af92d31","ios":"levelo://app?vid=5d9d809a-3047-4be2-b474-42330af92d31"},"vehicle_type_id":"4","last_reported":1731240905,"current_range_meters":13600,"station_id":"","pricing_plan_id":"cebpf4jnsgd1na2vs0mg"},{"bike_id":"605308ae-e328-49e6-83af-5dad5f553481","system_id":"levelo_inurba_marseille","lat":43.23962,"lon":5.36637,"is_reserved":false,"is_disabled":false,"rental_uris":{"android":"levelo://app?vid=605308ae-e328-49e6-83af-5dad5f553481","ios":"levelo://app?vid=605308ae-e328-49e6-83af-5dad5f553481"},"vehicle_type_id":"4","last_reported":1731240905,"current_range_meters":30000,"station_id":"ce4bhi12rcd13ifvqfp0","pricing_plan_id":"cebpf4jnsgd1na2vs0mg"},{"bike_id":"b2291f4a-6095-4314-8fa8-7042736ad727","system_id":"levelo_inurba_marseille","lat":43.25581,"lon":5.38226,"is_reserved":false,"is_disabled":false,"rental_uris":{"android":"levelo://app?vid=b2291f4a-6095-4314-8fa8-7042736ad727","ios":"levelo://app?vid=b2291f4a-6095-4314-8fa8-7042736ad727"},"vehicle_type_id":"4","last_reported":1731240905,"current_range_meters":23200,"station_id":"ce4bhih2rcd13ifvqfs0","pricing_plan_id":"cebpf4jnsgd1na2vs0mg"},{"bike_id":"30037827-8659-4cce-803b-88835fb3f6b5","system_id":"levelo_inurba_marseille","lat":43.25506,"lon":5.37647,"is_reserved":false,"is_disabled":false,"rental_uris":{"android":"levelo://app?vid=30037827-8659-4cce-803b-88835fb3f6b5","ios":"levelo://app?vid=30037827-8659-4cce-803b-88835fb3f6b5"},"vehicle_type_id":"4","last_reported":1731240905,"current_range_meters":39200,"station_id":"ce4bhh12rcd13ifvqff0","pricing_plan_id":"cebpf4jnsgd1na2vs0mg"},{"bike_id":"5812d5f1-a60f-473b-aee7-979906885a65","system_id":"levelo_inurba_marseille","lat":43.23061,"lon":5.35488,"is_reserved":false,"is_disabled":false,"rental_uris":{"android":"levelo://app?vid=5812d5f1-a60f-473b-aee7-979906885a65","ios":"levelo://app?vid=5812d5f1-a60f-473b-aee7-979906885a65"},"vehicle_type_id":"4","last_reported":1731240905,"current_range_meters":16800,"station_id":"cpo3342slgdg3j2ifvpg","pricing_plan_id":"cebpf4jnsgd1na2vs0mg"},{"bike_id":"eb280453-261a-4450-a2fd-1da204e75092","system_id":"levelo_inurba_marseille","lat":43.23152,"lon":5.43719,"is_reserved":false,"is_disabled":false,"rental_uris":{"android":"levelo://app?vid=eb280453-261a-4450-a2fd-1da204e75092","ios":"levelo://app?vid=eb280453-261a-4450-a2fd-1da204e75092"},"vehicle_type_id":"4","last_reported":1731240905,"current_range_meters":25600,"station_id":"ce4bhmp2rcd13ifvqgog","pricing_plan_id":"cebpf4jnsgd1na2vs0mg"},{"bike_id":"1ef33047-fb34-449c-b343-a510bb452c28","system_id":"levelo_inurba_marseille","lat":43.30786,"lon":5.37656,"is_reserved":false,"is_disabled":false,"rental_uris":{"android":"levelo://app?vid=1ef33047-fb34-449c-b343-a510bb452c28","ios":"levelo://app?vid=1ef33047-fb34-449c-b343-a510bb452c28"},"vehicle_type_id":"4","last_reported":1731240905,"current_range_meters":25200,"station_id":"ce4bgv92rcd13ifvqcq0","pricing_plan_id":"cebpf4jnsgd1na2vs0mg"},{"bike_id":"b9059161-bc2a-4853-8231-de961bd5f1e7","system_id":"levelo_inurba_marseille","lat":43.33721,"lon":5.39179,"is_reserved":false,"is_disabled":false,"rental_uris":{"android":"levelo://app?vid=b9059161-bc2a-4853-8231-de961bd5f1e7","ios":"levelo://app?vid=b9059161-bc2a-4853-8231-de961bd5f1e7"},"vehicle_type_id":"4","last_reported":1731240905,"current_range_meters":17600,"station_id":"ce4bhr92rcd13ifvqhsg","pricing_plan_id":"cebpf4jnsgd1na2vs0mg"},{"bike_id":"03138513-4748-4b97-8c43-a5b9574d8a2d","system_id":"levelo_inurba_marseille","lat":43.23058,"lon":5.35489,"is_reserved":false,"is_disabled":false,"rental_uris":{"android":"levelo://app?vid=03138513-4748-4b97-8c43-a5b9574d8a2d","ios":"levelo://app?vid=03138513-4748-4b97-8c43-a5b9574d8a2d"},"vehicle_type_id":"4","last_reported":1731240905,"current_range_meters":9600,"station_id":"cpo3342slgdg3j2ifvpg","pricing_plan_id":"cebpf4jnsgd1na2vs0mg"},{"bike_id":"9e00ae8d-b3a9-4d4b-a691-62debbf0e14c","system_id":"levelo_inurba_marseille","lat":43.23189,"lon":5.39989,"is_reserved":false,"is_disabled":false,"rental_uris":{"android":"levelo://app?vid=9e00ae8d-b3a9-4d4b-a691-62debbf0e14c","ios":"levelo://app?vid=9e00ae8d-b3a9-4d4b-a691-62debbf0e14c"},"vehicle_type_id":"4","last_reported":1731240905,"current_range_meters":36800,"station_id":"ce4bhn12rcd13ifvqgqg","pricing_plan_id":"cebpf4jnsgd1na2vs0mg"},{"bike_id":"6027106f-a998-41e8-b0e8-ca119a0cc741","system_id":"levelo_inurba_marseille","lat":43.29556,"lon":5.42283,"is_reserved":false,"is_disabled":false,"rental_uris":{"android":"levelo://app?vid=6027106f-a998-41e8-b0e8-ca119a0cc741","ios":"levelo://app?vid=6027106f-a998-41e8-b0e8-ca119a0cc741"},"vehicle_type_id":"4","last_reported":1731240905,"current_range_meters":38000,"station_id":"ce4bhph2rcd13ifvqhdg","pricing_plan_id":"cebpf4jnsgd1na2vs0mg"},{"bike_id":"662b60df-1c79-4b9e-be92-361dcc77ed86","system_id":"levelo_inurba_marseille","lat":43.24388,"lon":5.37061,"is_reserved":false,"is_disabled":false,"rental_uris":{"android":"levelo://app?vid=662b60df-1c79-4b9e-be92-361dcc77ed86","ios":"levelo://app?vid=662b60df-1c79-4b9e-be92-361dcc77ed86"},"vehicle_type_id":"4","last_reported":1731240905,"current_range_meters":4400,"station_id":"ce4bhhh2rcd13ifvqfk0","pricing_plan_id":"cebpf4jnsgd1na2vs0mg"},{"bike_id":"d1750fdf-23a9-4a94-bba6-da0251ac1ca0","system_id":"levelo_inurba_marseille","lat":43.27922,"lon":5.39575,"is_reserved":false,"is_disabled":false,"rental_uris":{"android":"levelo://app?vid=d1750fdf-23a9-4a94-bba6-da0251ac1ca0","ios":"levelo://app?vid=d1750fdf-23a9-4a94-bba6-da0251ac1ca0"},"vehicle_type_id":"4","last_reported":1731240905,"current_range_meters":8000,"station_id":"ce4bhf92rcd13ifvqf40","pricing_plan_id":"cebpf4jnsgd1na2vs0mg"},{"bike_id":"0f7ef8f2-c091-420e-be1a-8c1e2421ea9d","system_id":"levelo_inurba_marseille","lat":43.23058,"lon":5.35501,"is_reserved":false,"is_disabled":false,"rental_uris":{"android":"levelo://app?vid=0f7ef8f2-c091-420e-be1a-8c1e2421ea9d","ios":"levelo://app?vid=0f7ef8f2-c091-420e-be1a-8c1e2421ea9d"},"vehicle_type_id":"4","last_reported":1731240905,"current_range_meters":9600,"station_id":"cpo3342slgdg3j2ifvpg","pricing_plan_id":"cebpf4jnsgd1na2vs0mg"},{"bike_id":"4d8a39f0-cf9b-4574-b4b3-d359660c3302","system_id":"levelo_inurba_marseille","lat":43.24389,"lon":5.37064,"is_reserved":false,"is_disabled":false,"rental_uris":{"android":"levelo://app?vid=4d8a39f0-cf9b-4574-b4b3-d359660c3302","ios":"levelo://app?vid=4d8a39f0-cf9b-4574-b4b3-d359660c3302"},"vehicle_type_id":"4","last_reported":1731240905,"current_range_meters":38400,"station_id":"ce4bhhh2rcd13ifvqfk0","pricing_plan_id":"cebpf4jnsgd1na2vs0mg"},{"bike_id":"26e55983-f261-40b1-b1a0-30eef97145b0","system_id":"levelo_inurba_marseille","lat":43.25505,"lon":5.3765,"is_reserved":false,"is_disabled":false,"rental_uris":{"android":"levelo://app?vid=26e55983-f261-40b1-b1a0-30eef97145b0","ios":"levelo://app?vid=26e55983-f261-40b1-b1a0-30eef97145b0"},"vehicle_type_id":"4","last_reported":1731240905,"current_range_meters":24000,"station_id":"ce4bhh12rcd13ifvqff0","pricing_plan_id":"cebpf4jnsgd1na2vs0mg"},{"bike_id":"32c29b50-e3b2-494a-8417-18400536c1ea","system_id":"levelo_inurba_marseille","lat":43.23058,"lon":5.35489,"is_reserved":false,"is_disabled":false,"rental_uris":{"android":"levelo://app?vid=32c29b50-e3b2-494a-8417-18400536c1ea","ios":"levelo://app?vid=32c29b50-e3b2-494a-8417-18400536c1ea"},"vehicle_type_id":"4","last_reported":1731240905,"current_range_meters":3200,"station_id":"cpo3342slgdg3j2ifvpg","pricing_plan_id":"cebpf4jnsgd1na2vs0mg"},{"bike_id":"cb2dbbfd-9818-4be6-9c15-4b74b2a96086","system_id":"levelo_inurba_marseille","lat":43.26202,"lon":5.37928,"is_reserved":false,"is_disabled":false,"rental_uris":{"android":"levelo://app?vid=cb2dbbfd-9818-4be6-9c15-4b74b2a96086","ios":"levelo://app?vid=cb2dbbfd-9818-4be6-9c15-4b74b2a96086"},"vehicle_type_id":"4","last_reported":1731240905,"current_range_meters":37600,"station_id":"ce4bhjp2rcd13ifvqg90","pricing_plan_id":"cebpf4jnsgd1na2vs0mg"},{"bike_id":"223e84e5-a2a4-46db-ab05-945d26b7a89b","system_id":"levelo_inurba_marseille","lat":43.3113,"lon":5.3778,"is_reserved":false,"is_disabled":false,"rental_uris":{"android":"levelo://app?vid=223e84e5-a2a4-46db-ab05-945d26b7a89b","ios":"levelo://app?vid=223e84e5-a2a4-46db-ab05-945d26b7a89b"},"vehicle_type_id":"4","last_reported":1731240905,"current_range_meters":8800,"station_id":"ce4bgt92rcd13ifvqcg0","pricing_plan_id":"cebpf4jnsgd1na2vs0mg"},{"bike_id":"ed0eb062-a32a-42a0-9b52-f47a1d0c648f","system_id":"levelo_inurba_marseille","lat":43.25867,"lon":5.39902,"is_reserved":false,"is_disabled":false,"rental_uris":{"android":"levelo://app?vid=ed0eb062-a32a-42a0-9b52-f47a1d0c648f","ios":"levelo://app?vid=ed0eb062-a32a-42a0-9b52-f47a1d0c648f"},"vehicle_type_id":"4","last_reported":1731240905,"current_range_meters":25200,"station_id":"ce4bhl92rcd13ifvqghg","pricing_plan_id":"cebpf4jnsgd1na2vs0mg"},{"bike_id":"018cdcf7-93ec-4e24-8e3e-3f9d0d08d718","system_id":"levelo_inurba_marseille","lat":43.23969,"lon":5.36628,"is_reserved":false,"is_disabled":false,"rental_uris":{"android":"levelo://app?vid=018cdcf7-93ec-4e24-8e3e-3f9d0d08d718","ios":"levelo://app?vid=018cdcf7-93ec-4e24-8e3e-3f9d0d08d718"},"vehicle_type_id":"4","last_reported":1731240905,"current_range_meters":38800,"station_id":"ce4bhi12rcd13ifvqfp0","pricing_plan_id":"cebpf4jnsgd1na2vs0mg"},{"bike_id":"5474522c-ab23-48ff-8d4f-608ca8b7c65a","system_id":"levelo_inurba_marseille","lat":43.28273,"lon":5.35071,"is_reserved":false,"is_disabled":false,"rental_uris":{"android":"levelo://app?vid=5474522c-ab23-48ff-8d4f-608ca8b7c65a","ios":"levelo://app?vid=5474522c-ab23-48ff-8d4f-608ca8b7c65a"},"vehicle_type_id":"4","last_reported":1731240905,"current_range_meters":36000,"station_id":"ce4bhbp2rcd13ifvqerg","pricing_plan_id":"cebpf4jnsgd1na2vs0mg"},{"bike_id":"2d0a890a-414c-4ce8-9fcd-5ae2fa3ca79c","system_id":"levelo_inurba_marseille","lat":43.231948,"lon":5.355848,"is_reserved":false,"is_disabled":false,"rental_uris":{"android":"levelo://app?vid=2d0a890a-414c-4ce8-9fcd-5ae2fa3ca79c","ios":"levelo://app?vid=2d0a890a-414c-4ce8-9fcd-5ae2fa3ca79c"},"vehicle_type_id":"4","last_reported":1731240905,"current_range_meters":38800,"station_id":"cpo3532slgdg3j2ikp40","pricing_plan_id":"cebpf4jnsgd1na2vs0mg"},{"bike_id":"d753b6d4-5f3b-49b9-ace5-440e059af3b0","system_id":"levelo_inurba_marseille","lat":43.24389,"lon":5.37066,"is_reserved":false,"is_disabled":false,"rental_uris":{"android":"levelo://app?vid=d753b6d4-5f3b-49b9-ace5-440e059af3b0","ios":"levelo://app?vid=d753b6d4-5f3b-49b9-ace5-440e059af3b0"},"vehicle_type_id":"4","last_reported":1731240905,"current_range_meters":13600,"station_id":"ce4bhhh2rcd13ifvqfk0","pricing_plan_id":"cebpf4jnsgd1na2vs0mg"},{"bike_id":"5f319783-1b13-402b-8a75-2cb431d95622","system_id":"levelo_inurba_marseille","lat":43.29579,"lon":5.36741,"is_reserved":false,"is_disabled":false,"rental_uris":{"android":"levelo://app?vid=5f319783-1b13-402b-8a75-2cb431d95622","ios":"levelo://app?vid=5f319783-1b13-402b-8a75-2cb431d95622"},"vehicle_type_id":"4","last_reported":1731240905,"current_range_meters":38000,"station_id":"ce4bgph2rcd13ifvqc2g","pricing_plan_id":"cebpf4jnsgd1na2vs0mg"},{"bike_id":"4bb9a85a-0d0c-4d55-8773-a9f717071e71","system_id":"levelo_inurba_marseille","lat":43.316921,"lon":5.377384,"is_reserved":false,"is_disabled":false,"rental_uris":{"android":"levelo://app?vid=4bb9a85a-0d0c-4d55-8773-a9f717071e71","ios":"levelo://app?vid=4bb9a85a-0d0c-4d55-8773-a9f717071e71"},"vehicle_type_id":"4","last_reported":1731240905,"current_range_meters":38800,"station_id":"ce4bgth2rcd13ifvqch0","pricing_plan_id":"cebpf4jnsgd1na2vs0mg"},{"bike_id":"efbfd49e-590d-4cd9-af99-72a85309b119","system_id":"levelo_inurba_marseille","lat":43.27905,"lon":5.38007,"is_reserved":false,"is_disabled":false,"rental_uris":{"android":"levelo://app?vid=efbfd49e-590d-4cd9-af99-72a85309b119","ios":"levelo://app?vid=efbfd49e-590d-4cd9-af99-72a85309b119"},"vehicle_type_id":"4","last_reported":1731240905,"current_range_meters":8000,"station_id":"ce4bhf92rcd13ifvqf50","pricing_plan_id":"cebpf4jnsgd1na2vs0mg"},{"bike_id":"c221efe7-efcb-49b8-a1b0-1dd8d171a453","system_id":"levelo_inurba_marseille","lat":43.33738,"lon":5.39177,"is_reserved":false,"is_disabled":false,"rental_uris":{"android":"levelo://app?vid=c221efe7-efcb-49b8-a1b0-1dd8d171a453","ios":"levelo://app?vid=c221efe7-efcb-49b8-a1b0-1dd8d171a453"},"vehicle_type_id":"4","last_reported":1731240905,"current_range_meters":38800,"station_id":"ce4bhr92rcd13ifvqhsg","pricing_plan_id":"cebpf4jnsgd1na2vs0mg"},{"bike_id":"b8fdd341-0697-41ca-82c9-e4253415f4e6","system_id":"levelo_inurba_marseille","lat":43.23055,"lon":5.3549,"is_reserved":false,"is_disabled":false,"rental_uris":{"android":"levelo://app?vid=b8fdd341-0697-41ca-82c9-e4253415f4e6","ios":"levelo://app?vid=b8fdd341-0697-41ca-82c9-e4253415f4e6"},"vehicle_type_id":"4","last_reported":1731240905,"current_range_meters":28000,"station_id":"cpo3342slgdg3j2ifvpg","pricing_plan_id":"cebpf4jnsgd1na2vs0mg"},{"bike_id":"cf9daf46-3bd1-47e7-80ac-0de06577c598","system_id":"levelo_inurba_marseille","lat":43.24389,"lon":5.37049,"is_reserved":false,"is_disabled":false,"rental_uris":{"android":"levelo://app?vid=cf9daf46-3bd1-47e7-80ac-0de06577c598","ios":"levelo://app?vid=cf9daf46-3bd1-47e7-80ac-0de06577c598"},"vehicle_type_id":"4","last_reported":1731240905,"current_range_meters":38800,"station_id":"ce4bhhh2rcd13ifvqfk0","pricing_plan_id":"cebpf4jnsgd1na2vs0mg"},{"bike_id":"47946660-daf9-4ca5-a1e4-51244474ad8c","system_id":"levelo_inurba_marseille","lat":43.23182,"lon":5.39993,"is_reserved":false,"is_disabled":false,"rental_uris":{"android":"levelo://app?vid=47946660-daf9-4ca5-a1e4-51244474ad8c","ios":"levelo://app?vid=47946660-daf9-4ca5-a1e4-51244474ad8c"},"vehicle_type_id":"4","last_reported":1731240905,"current_range_meters":38800,"station_id":"ce4bhn12rcd13ifvqgqg","pricing_plan_id":"cebpf4jnsgd1na2vs0mg"},{"bike_id":"da79eb51-0ec3-4e2b-b70f-0a88f0a378be","system_id":"levelo_inurba_marseille","lat":43.29015,"lon":5.38135,"is_reserved":false,"is_disabled":false,"rental_uris":{"android":"levelo://app?vid=da79eb51-0ec3-4e2b-b70f-0a88f0a378be","ios":"levelo://app?vid=da79eb51-0ec3-4e2b-b70f-0a88f0a378be"},"vehicle_type_id":"4","last_reported":1731240905,"current_range_meters":6400,"station_id":"ce4bh4p2rcd13ifvqe1g","pricing_plan_id":"cebpf4jnsgd1na2vs0mg"},{"bike_id":"53a48f7c-d981-4a68-a8d0-0d729c859afb","system_id":"levelo_inurba_marseille","lat":43.28567,"lon":5.39504,"is_reserved":false,"is_disabled":false,"rental_uris":{"android":"levelo://app?vid=53a48f7c-d981-4a68-a8d0-0d729c859afb","ios":"levelo://app?vid=53a48f7c-d981-4a68-a8d0-0d729c859afb"},"vehicle_type_id":"4","last_reported":1731240905,"current_range_meters":31200,"station_id":"ce4bh292rcd13ifvqdg0","pricing_plan_id":"cebpf4jnsgd1na2vs0mg"},{"bike_id":"4e72c028-8eb6-45c9-948f-592264d3d6d7","system_id":"levelo_inurba_marseille","lat":43.23059,"lon":5.35495,"is_reserved":false,"is_disabled":false,"rental_uris":{"android":"levelo://app?vid=4e72c028-8eb6-45c9-948f-592264d3d6d7","ios":"levelo://app?vid=4e72c028-8eb6-45c9-948f-592264d3d6d7"},"vehicle_type_id":"4","last_reported":1731240905,"current_range_meters":36400,"station_id":"cpo3342slgdg3j2ifvpg","pricing_plan_id":"cebpf4jnsgd1na2vs0mg"},{"bike_id":"1082c28a-9fb3-4143-8bad-756c7ce3d600","system_id":"levelo_inurba_marseille","lat":43.29188,"lon":5.35793,"is_reserved":false,"is_disabled":false,"rental_uris":{"android":"levelo://app?vid=1082c28a-9fb3-4143-8bad-756c7ce3d600","ios":"levelo://app?vid=1082c28a-9fb3-4143-8bad-756c7ce3d600"},"vehicle_type_id":"4","last_reported":1731240905,"current_range_meters":30000,"station_id":"ce4bhb12rcd13ifvqel0","pricing_plan_id":"cebpf4jnsgd1na2vs0mg"},{"bike_id":"45da62df-7f80-44a3-ba8e-1acd781a5f69","system_id":"levelo_inurba_marseille","lat":43.29551,"lon":5.42279,"is_reserved":false,"is_disabled":false,"rental_uris":{"android":"levelo://app?vid=45da62df-7f80-44a3-ba8e-1acd781a5f69","ios":"levelo://app?vid=45da62df-7f80-44a3-ba8e-1acd781a5f69"},"vehicle_type_id":"4","last_reported":1731240905,"current_range_meters":25200,"station_id":"ce4bhph2rcd13ifvqhdg","pricing_plan_id":"cebpf4jnsgd1na2vs0mg"},{"bike_id":"a2c94e1a-3858-41e6-aa7e-97346fb4829e","system_id":"levelo_inurba_marseille","lat":43.2306,"lon":5.35488,"is_reserved":false,"is_disabled":false,"rental_uris":{"android":"levelo://app?vid=a2c94e1a-3858-41e6-aa7e-97346fb4829e","ios":"levelo://app?vid=a2c94e1a-3858-41e6-aa7e-97346fb4829e"},"vehicle_type_id":"4","last_reported":1731240905,"current_range_meters":19200,"station_id":"cpo3342slgdg3j2ifvpg","pricing_plan_id":"cebpf4jnsgd1na2vs0mg"},{"bike_id":"2972f759-c98e-4fe7-9758-85d215895273","system_id":"levelo_inurba_marseille","lat":43.23961,"lon":5.36621,"is_reserved":false,"is_disabled":false,"rental_uris":{"android":"levelo://app?vid=2972f759-c98e-4fe7-9758-85d215895273","ios":"levelo://app?vid=2972f759-c98e-4fe7-9758-85d215895273"},"vehicle_type_id":"4","last_reported":1731240905,"current_range_meters":36400,"station_id":"ce4bhi12rcd13ifvqfp0","pricing_plan_id":"cebpf4jnsgd1na2vs0mg"},{"bike_id":"010d3bc6-1da9-4e2e-9558-6436a5780c21","system_id":"levelo_inurba_marseille","lat":43.23196,"lon":5.35548,"is_reserved":false,"is_disabled":false,"rental_uris":{"android":"levelo://app?vid=010d3bc6-1da9-4e2e-9558-6436a5780c21","ios":"levelo://app?vid=010d3bc6-1da9-4e2e-9558-6436a5780c21"},"vehicle_type_id":"4","last_reported":1731240905,"current_range_meters":39200,"station_id":"ce4bhu92rcd13ifvqi70","pricing_plan_id":"cebpf4jnsgd1na2vs0mg"},{"bike_id":"a10e14f2-f48b-49be-82ef-fb31b06c0f83","system_id":"levelo_inurba_marseille","lat":43.28659,"lon":5.3635,"is_reserved":false,"is_disabled":false,"rental_uris":{"android":"levelo://app?vid=a10e14f2-f48b-49be-82ef-fb31b06c0f83","ios":"levelo://app?vid=a10e14f2-f48b-49be-82ef-fb31b06c0f83"},"vehicle_type_id":"4","last_reported":1731240905,"current_range_meters":32800,"station_id":"ce4bhah2rcd13ifvqej0","pricing_plan_id":"cebpf4jnsgd1na2vs0mg"},{"bike_id":"662385fc-63f9-4a4f-87db-2e58a1f015e0","system_id":"levelo_inurba_marseille","lat":43.23964,"lon":5.36625,"is_reserved":false,"is_disabled":false,"rental_uris":{"android":"levelo://app?vid=662385fc-63f9-4a4f-87db-2e58a1f015e0","ios":"levelo://app?vid=662385fc-63f9-4a4f-87db-2e58a1f015e0"},"vehicle_type_id":"4","last_reported":1731240905,"current_range_meters":33200,"station_id":"ce4bhi12rcd13ifvqfp0","pricing_plan_id":"cebpf4jnsgd1na2vs0mg"},{"bike_id":"1a366d13-87fa-4c79-be4c-283f2bc932cd","system_id":"levelo_inurba_marseille","lat":43.28268,"lon":5.35062,"is_reserved":false,"is_disabled":false,"rental_uris":{"android":"levelo://app?vid=1a366d13-87fa-4c79-be4c-283f2bc932cd","ios":"levelo://app?vid=1a366d13-87fa-4c79-be4c-283f2bc932cd"},"vehicle_type_id":"4","last_reported":1731240905,"current_range_meters":17200,"station_id":"ce4bhbp2rcd13ifvqerg","pricing_plan_id":"cebpf4jnsgd1na2vs0mg"},{"bike_id":"0a11ffea-6ccf-45d5-8ce9-b6dd253b1ff7","system_id":"levelo_inurba_marseille","lat":43.31887,"lon":5.40729,"is_reserved":false,"is_disabled":false,"rental_uris":{"android":"levelo://app?vid=0a11ffea-6ccf-45d5-8ce9-b6dd253b1ff7","ios":"levelo://app?vid=0a11ffea-6ccf-45d5-8ce9-b6dd253b1ff7"},"vehicle_type_id":"4","last_reported":1731240905,"current_range_meters":38800,"station_id":"ce4bhq12rcd13ifvqhig","pricing_plan_id":"cebpf4jnsgd1na2vs0mg"},{"bike_id":"d41fb0f1-e480-4160-8e49-a6b72f7db271","system_id":"levelo_inurba_marseille","lat":43.27949,"lon":5.41033,"is_reserved":false,"is_disabled":false,"rental_uris":{"android":"levelo://app?vid=d41fb0f1-e480-4160-8e49-a6b72f7db271","ios":"levelo://app?vid=d41fb0f1-e480-4160-8e49-a6b72f7db271"},"vehicle_type_id":"4","last_reported":1731240905,"current_range_meters":25200,"station_id":"ce4bhnp2rcd13ifvqh0g","pricing_plan_id":"cebpf4jnsgd1na2vs0mg"},{"bike_id":"2ad361b6-540e-4873-9e5b-6b5de9b52523","system_id":"levelo_inurba_marseille","lat":43.2396,"lon":5.36622,"is_reserved":false,"is_disabled":false,"rental_uris":{"android":"levelo://app?vid=2ad361b6-540e-4873-9e5b-6b5de9b52523","ios":"levelo://app?vid=2ad361b6-540e-4873-9e5b-6b5de9b52523"},"vehicle_type_id":"4","last_reported":1731240905,"current_range_meters":38400,"station_id":"ce4bhi12rcd13ifvqfp0","pricing_plan_id":"cebpf4jnsgd1na2vs0mg"},{"bike_id":"8110b48b-ed77-4bb9-9a00-c638f9fbff60","system_id":"levelo_inurba_marseille","lat":43.29192,"lon":5.35803,"is_reserved":false,"is_disabled":false,"rental_uris":{"android":"levelo://app?vid=8110b48b-ed77-4bb9-9a00-c638f9fbff60","ios":"levelo://app?vid=8110b48b-ed77-4bb9-9a00-c638f9fbff60"},"vehicle_type_id":"4","last_reported":1731240905,"current_range_meters":38800,"station_id":"ce4bhb12rcd13ifvqel0","pricing_plan_id":"cebpf4jnsgd1na2vs0mg"},{"bike_id":"243689ad-9b98-40ad-ab32-28c8954ac3d1","system_id":"levelo_inurba_marseille","lat":43.28943,"lon":5.36638,"is_reserved":false,"is_disabled":false,"rental_uris":{"android":"levelo://app?vid=243689ad-9b98-40ad-ab32-28c8954ac3d1","ios":"levelo://app?vid=243689ad-9b98-40ad-ab32-28c8954ac3d1"},"vehicle_type_id":"4","last_reported":1731240905,"current_range_meters":8400,"station_id":"ce4bhap2rcd13ifvqek0","pricing_plan_id":"cebpf4jnsgd1na2vs0mg"},{"bike_id":"99060342-4048-4e5b-bf86-f706f338c74e","system_id":"levelo_inurba_marseille","lat":43.295715,"lon":5.367426,"is_reserved":false,"is_disabled":false,"rental_uris":{"android":"levelo://app?vid=99060342-4048-4e5b-bf86-f706f338c74e","ios":"levelo://app?vid=99060342-4048-4e5b-bf86-f706f338c74e"},"vehicle_type_id":"4","last_reported":1731240905,"current_range_meters":32000,"station_id":"ce4bgph2rcd13ifvqc2g","pricing_plan_id":"cebpf4jnsgd1na2vs0mg"},{"bike_id":"b9478b1d-79e3-44c9-ae60-496dd5151f62","system_id":"levelo_inurba_marseille","lat":43.29163,"lon":5.37142,"is_reserved":false,"is_disabled":false,"rental_uris":{"android":"levelo://app?vid=b9478b1d-79e3-44c9-ae60-496dd5151f62","ios":"levelo://app?vid=b9478b1d-79e3-44c9-ae60-496dd5151f62"},"vehicle_type_id":"4","last_reported":1731240905,"current_range_meters":31200,"station_id":"ce4bha92rcd13ifvqeh0","pricing_plan_id":"cebpf4jnsgd1na2vs0mg"},{"bike_id":"a6662f96-7914-4568-9644-1c4ba1cb159a","system_id":"levelo_inurba_marseille","lat":43.2842,"lon":5.34982,"is_reserved":false,"is_disabled":false,"rental_uris":{"android":"levelo://app?vid=a6662f96-7914-4568-9644-1c4ba1cb159a","ios":"levelo://app?vid=a6662f96-7914-4568-9644-1c4ba1cb159a"},"vehicle_type_id":"4","last_reported":1731240905,"current_range_meters":9200,"station_id":"ce4bhbh2rcd13ifvqepg","pricing_plan_id":"cebpf4jnsgd1na2vs0mg"},{"bike_id":"4204c697-9142-4d6f-a64b-20f319f8c9a7","system_id":"levelo_inurba_marseille","lat":43.27073,"lon":5.42276,"is_reserved":false,"is_disabled":false,"rental_uris":{"android":"levelo://app?vid=4204c697-9142-4d6f-a64b-20f319f8c9a7","ios":"levelo://app?vid=4204c697-9142-4d6f-a64b-20f319f8c9a7"},"vehicle_type_id":"4","last_reported":1731240905,"current_range_meters":38800,"station_id":"ce4bhk92rcd13ifvqgb0","pricing_plan_id":"cebpf4jnsgd1na2vs0mg"},{"bike_id":"bbdbe748-0538-490a-aace-9255033a933e","system_id":"levelo_inurba_marseille","lat":43.24993,"lon":5.38933,"is_reserved":false,"is_disabled":false,"rental_uris":{"android":"levelo://app?vid=bbdbe748-0538-490a-aace-9255033a933e","ios":"levelo://app?vid=bbdbe748-0538-490a-aace-9255033a933e"},"vehicle_type_id":"4","last_reported":1731240905,"current_range_meters":10000,"station_id":"ce4bhgp2rcd13ifvqfd0","pricing_plan_id":"cebpf4jnsgd1na2vs0mg"},{"bike_id":"be24835d-0225-40fd-a74f-9d14a911f0fc","system_id":"levelo_inurba_marseille","lat":43.2293,"lon":5.35372,"is_reserved":false,"is_disabled":false,"rental_uris":{"android":"levelo://app?vid=be24835d-0225-40fd-a74f-9d14a911f0fc","ios":"levelo://app?vid=be24835d-0225-40fd-a74f-9d14a911f0fc"},"vehicle_type_id":"4","last_reported":1731240905,"current_range_meters":20400,"station_id":"cpo3532slgdg3j2ikp40","pricing_plan_id":"cebpf4jnsgd1na2vs0mg"},{"bike_id":"16764bfe-0c3c-4b99-8a8d-f1e8af560809","system_id":"levelo_inurba_marseille","lat":43.30555,"lon":5.36559,"is_reserved":false,"is_disabled":false,"rental_uris":{"android":"levelo://app?vid=16764bfe-0c3c-4b99-8a8d-f1e8af560809","ios":"levelo://app?vid=16764bfe-0c3c-4b99-8a8d-f1e8af560809"},"vehicle_type_id":"4","last_reported":1731240905,"current_range_meters":16800,"station_id":"ce4bgs12rcd13ifvqcag","pricing_plan_id":"cebpf4jnsgd1na2vs0mg"},{"bike_id":"1d0c8d0f-cf43-49ad-9deb-0a58ca2f9f08","system_id":"levelo_inurba_marseille","lat":43.29191,"lon":5.35803,"is_reserved":false,"is_disabled":false,"rental_uris":{"android":"levelo://app?vid=1d0c8d0f-cf43-49ad-9deb-0a58ca2f9f08","ios":"levelo://app?vid=1d0c8d0f-cf43-49ad-9deb-0a58ca2f9f08"},"vehicle_type_id":"4","last_reported":1731240905,"current_range_meters":29600,"station_id":"ce4bhb12rcd13ifvqel0","pricing_plan_id":"cebpf4jnsgd1na2vs0mg"},{"bike_id":"43f75537-9f15-44ea-ba7b-449940d02c9e","system_id":"levelo_inurba_marseille","lat":43.31886,"lon":5.40735,"is_reserved":false,"is_disabled":false,"rental_uris":{"android":"levelo://app?vid=43f75537-9f15-44ea-ba7b-449940d02c9e","ios":"levelo://app?vid=43f75537-9f15-44ea-ba7b-449940d02c9e"},"vehicle_type_id":"4","last_reported":1731240905,"current_range_meters":38800,"station_id":"ce4bhq12rcd13ifvqhig","pricing_plan_id":"cebpf4jnsgd1na2vs0mg"},{"bike_id":"5b1ecbe0-a0fe-45b3-b0ea-f76e5b19652b","system_id":"levelo_inurba_marseille","lat":43.23197,"lon":5.35543,"is_reserved":false,"is_disabled":false,"rental_uris":{"android":"levelo://app?vid=5b1ecbe0-a0fe-45b3-b0ea-f76e5b19652b","ios":"levelo://app?vid=5b1ecbe0-a0fe-45b3-b0ea-f76e5b19652b"},"vehicle_type_id":"4","last_reported":1731240905,"current_range_meters":8000,"station_id":"ce4bhu92rcd13ifvqi70","pricing_plan_id":"cebpf4jnsgd1na2vs0mg"},{"bike_id":"e6dc57cf-44da-4102-9d69-7c7b35161e11","system_id":"levelo_inurba_marseille","lat":43.24169,"lon":5.36399,"is_reserved":false,"is_disabled":false,"rental_uris":{"android":"levelo://app?vid=e6dc57cf-44da-4102-9d69-7c7b35161e11","ios":"levelo://app?vid=e6dc57cf-44da-4102-9d69-7c7b35161e11"},"vehicle_type_id":"4","last_reported":1731240905,"current_range_meters":36400,"station_id":"cpo36qri1sfpv3e86is0","pricing_plan_id":"cebpf4jnsgd1na2vs0mg"},{"bike_id":"eea89b14-e5f3-4242-9fbf-52d861894071","system_id":"levelo_inurba_marseille","lat":43.23193,"lon":5.35551,"is_reserved":false,"is_disabled":false,"rental_uris":{"android":"levelo://app?vid=eea89b14-e5f3-4242-9fbf-52d861894071","ios":"levelo://app?vid=eea89b14-e5f3-4242-9fbf-52d861894071"},"vehicle_type_id":"4","last_reported":1731240905,"current_range_meters":28400,"station_id":"ce4bhu92rcd13ifvqi70","pricing_plan_id":"cebpf4jnsgd1na2vs0mg"},{"bike_id":"32664ebb-c8e4-47fd-8959-c6c639243f65","system_id":"levelo_inurba_marseille","lat":43.24548,"lon":5.39522,"is_reserved":false,"is_disabled":false,"rental_uris":{"android":"levelo://app?vid=32664ebb-c8e4-47fd-8959-c6c639243f65","ios":"levelo://app?vid=32664ebb-c8e4-47fd-8959-c6c639243f65"},"vehicle_type_id":"4","last_reported":1731240905,"current_range_meters":28400,"station_id":"ce4bhlp2rcd13ifvqgjg","pricing_plan_id":"cebpf4jnsgd1na2vs0mg"},{"bike_id":"19008cd2-6d2b-4b7d-ac46-e89cb37ab51a","system_id":"levelo_inurba_marseille","lat":43.23154,"lon":5.43718,"is_reserved":false,"is_disabled":false,"rental_uris":{"android":"levelo://app?vid=19008cd2-6d2b-4b7d-ac46-e89cb37ab51a","ios":"levelo://app?vid=19008cd2-6d2b-4b7d-ac46-e89cb37ab51a"},"vehicle_type_id":"4","last_reported":1731240905,"current_range_meters":8400,"station_id":"ce4bhmp2rcd13ifvqgog","pricing_plan_id":"cebpf4jnsgd1na2vs0mg"},{"bike_id":"eab98335-8399-4b8f-bbaa-12f7938c9fcb","system_id":"levelo_inurba_marseille","lat":43.29224,"lon":5.36058,"is_reserved":false,"is_disabled":false,"rental_uris":{"android":"levelo://app?vid=eab98335-8399-4b8f-bbaa-12f7938c9fcb","ios":"levelo://app?vid=eab98335-8399-4b8f-bbaa-12f7938c9fcb"},"vehicle_type_id":"4","last_reported":1731240905,"current_range_meters":8000,"station_id":"ce4bhbh2rcd13ifvqeqg","pricing_plan_id":"cebpf4jnsgd1na2vs0mg"},{"bike_id":"b863af4e-5889-42b8-9d88-6c43c369b832","system_id":"levelo_inurba_marseille","lat":43.30309,"lon":5.36896,"is_reserved":false,"is_disabled":false,"rental_uris":{"android":"levelo://app?vid=b863af4e-5889-42b8-9d88-6c43c369b832","ios":"levelo://app?vid=b863af4e-5889-42b8-9d88-6c43c369b832"},"vehicle_type_id":"4","last_reported":1731240905,"current_range_meters":13600,"station_id":"ce4bgqh2rcd13ifvqc5g","pricing_plan_id":"cebpf4jnsgd1na2vs0mg"},{"bike_id":"05819f3e-9845-420d-81a3-a92604f3c8ca","system_id":"levelo_inurba_marseille","lat":43.24165,"lon":5.36389,"is_reserved":false,"is_disabled":false,"rental_uris":{"android":"levelo://app?vid=05819f3e-9845-420d-81a3-a92604f3c8ca","ios":"levelo://app?vid=05819f3e-9845-420d-81a3-a92604f3c8ca"},"vehicle_type_id":"4","last_reported":1731240905,"current_range_meters":36400,"station_id":"cpo36qri1sfpv3e86is0","pricing_plan_id":"cebpf4jnsgd1na2vs0mg"},{"bike_id":"032dd39b-492f-40cd-a52c-7cfb77c27b0b","system_id":"levelo_inurba_marseille","lat":43.29222,"lon":5.36286,"is_reserved":false,"is_disabled":false,"rental_uris":{"android":"levelo://app?vid=032dd39b-492f-40cd-a52c-7cfb77c27b0b","ios":"levelo://app?vid=032dd39b-492f-40cd-a52c-7cfb77c27b0b"},"vehicle_type_id":"4","last_reported":1731240905,"current_range_meters":38800,"station_id":"ce4bhbh2rcd13ifvqeqg","pricing_plan_id":"cebpf4jnsgd1na2vs0mg"},{"bike_id":"d2a974a2-88bc-4638-8d41-7f094635c91a","system_id":"levelo_inurba_marseille","lat":43.27101,"lon":5.38175,"is_reserved":false,"is_disabled":false,"rental_uris":{"android":"levelo://app?vid=d2a974a2-88bc-4638-8d41-7f094635c91a","ios":"levelo://app?vid=d2a974a2-88bc-4638-8d41-7f094635c91a"},"vehicle_type_id":"4","last_reported":1731240905,"current_range_meters":6400,"station_id":"","pricing_plan_id":"cebpf4jnsgd1na2vs0mg"},{"bike_id":"f0730e13-11c4-4020-956a-ca204d2dd6c0","system_id":"levelo_inurba_marseille","lat":43.29558,"lon":5.42281,"is_reserved":false,"is_disabled":false,"rental_uris":{"android":"levelo://app?vid=f0730e13-11c4-4020-956a-ca204d2dd6c0","ios":"levelo://app?vid=f0730e13-11c4-4020-956a-ca204d2dd6c0"},"vehicle_type_id":"4","last_reported":1731240905,"current_range_meters":38800,"station_id":"ce4bhph2rcd13ifvqhdg","pricing_plan_id":"cebpf4jnsgd1na2vs0mg"},{"bike_id":"7426164d-4448-455f-97d5-a4c30ef80203","system_id":"levelo_inurba_marseille","lat":43.2707,"lon":5.42275,"is_reserved":false,"is_disabled":false,"rental_uris":{"android":"levelo://app?vid=7426164d-4448-455f-97d5-a4c30ef80203","ios":"levelo://app?vid=7426164d-4448-455f-97d5-a4c30ef80203"},"vehicle_type_id":"4","last_reported":1731240905,"current_range_meters":6000,"station_id":"ce4bhk92rcd13ifvqgb0","pricing_plan_id":"cebpf4jnsgd1na2vs0mg"},{"bike_id":"d8b069df-29e1-4273-99b0-c9104446d9c3","system_id":"levelo_inurba_marseille","lat":43.23191,"lon":5.3555,"is_reserved":false,"is_disabled":false,"rental_uris":{"android":"levelo://app?vid=d8b069df-29e1-4273-99b0-c9104446d9c3","ios":"levelo://app?vid=d8b069df-29e1-4273-99b0-c9104446d9c3"},"vehicle_type_id":"4","last_reported":1731240905,"current_range_meters":4800,"station_id":"ce4bhu92rcd13ifvqi70","pricing_plan_id":"cebpf4jnsgd1na2vs0mg"},{"bike_id":"de29582d-83f5-437e-85ef-578514d4f1c7","system_id":"levelo_inurba_marseille","lat":43.28276,"lon":5.35079,"is_reserved":false,"is_disabled":false,"rental_uris":{"android":"levelo://app?vid=de29582d-83f5-437e-85ef-578514d4f1c7","ios":"levelo://app?vid=de29582d-83f5-437e-85ef-578514d4f1c7"},"vehicle_type_id":"4","last_reported":1731240905,"current_range_meters":38800,"station_id":"ce4bhbp2rcd13ifvqerg","pricing_plan_id":"cebpf4jnsgd1na2vs0mg"},{"bike_id":"aed49dd4-304d-4222-a024-c67cec1bcce7","system_id":"levelo_inurba_marseille","lat":43.25727,"lon":5.41109,"is_reserved":false,"is_disabled":false,"rental_uris":{"android":"levelo://app?vid=aed49dd4-304d-4222-a024-c67cec1bcce7","ios":"levelo://app?vid=aed49dd4-304d-4222-a024-c67cec1bcce7"},"vehicle_type_id":"4","last_reported":1731240905,"current_range_meters":37600,"station_id":"ce4bhkp2rcd13ifvqgd0","pricing_plan_id":"cebpf4jnsgd1na2vs0mg"},{"bike_id":"0df0aee9-60eb-40de-987d-051cd1a103c4","system_id":"levelo_inurba_marseille","lat":43.25494,"lon":5.37646,"is_reserved":false,"is_disabled":false,"rental_uris":{"android":"levelo://app?vid=0df0aee9-60eb-40de-987d-051cd1a103c4","ios":"levelo://app?vid=0df0aee9-60eb-40de-987d-051cd1a103c4"},"vehicle_type_id":"4","last_reported":1731240905,"current_range_meters":8000,"station_id":"ce4bhh12rcd13ifvqff0","pricing_plan_id":"cebpf4jnsgd1na2vs0mg"},{"bike_id":"93244a5b-b6ff-48e7-8a09-24115fcdd375","system_id":"levelo_inurba_marseille","lat":43.25492,"lon":5.37651,"is_reserved":false,"is_disabled":false,"rental_uris":{"android":"levelo://app?vid=93244a5b-b6ff-48e7-8a09-24115fcdd375","ios":"levelo://app?vid=93244a5b-b6ff-48e7-8a09-24115fcdd375"},"vehicle_type_id":"4","last_reported":1731240905,"current_range_meters":26800,"station_id":"ce4bhh12rcd13ifvqff0","pricing_plan_id":"cebpf4jnsgd1na2vs0mg"},{"bike_id":"33cfdaf5-1149-4e00-a91b-cac110204c39","system_id":"levelo_inurba_marseille","lat":43.25502,"lon":5.37651,"is_reserved":false,"is_disabled":false,"rental_uris":{"android":"levelo://app?vid=33cfdaf5-1149-4e00-a91b-cac110204c39","ios":"levelo://app?vid=33cfdaf5-1149-4e00-a91b-cac110204c39"},"vehicle_type_id":"4","last_reported":1731240905,"current_range_meters":18800,"station_id":"ce4bhh12rcd13ifvqff0","pricing_plan_id":"cebpf4jnsgd1na2vs0mg"},{"bike_id":"4b72668e-c38b-4a2f-a70f-fdd3fa1c2b2b","system_id":"levelo_inurba_marseille","lat":43.29165,"lon":5.37149,"is_reserved":false,"is_disabled":false,"rental_uris":{"android":"levelo://app?vid=4b72668e-c38b-4a2f-a70f-fdd3fa1c2b2b","ios":"levelo://app?vid=4b72668e-c38b-4a2f-a70f-fdd3fa1c2b2b"},"vehicle_type_id":"4","last_reported":1731240905,"current_range_meters":37600,"station_id":"ce4bha92rcd13ifvqeh0","pricing_plan_id":"cebpf4jnsgd1na2vs0mg"},{"bike_id":"f9aeacdd-bf01-432f-bf4e-03e65cef4bbd","system_id":"levelo_inurba_marseille","lat":43.29554,"lon":5.42289,"is_reserved":false,"is_disabled":false,"rental_uris":{"android":"levelo://app?vid=f9aeacdd-bf01-432f-bf4e-03e65cef4bbd","ios":"levelo://app?vid=f9aeacdd-bf01-432f-bf4e-03e65cef4bbd"},"vehicle_type_id":"4","last_reported":1731240905,"current_range_meters":38800,"station_id":"ce4bhph2rcd13ifvqhdg","pricing_plan_id":"cebpf4jnsgd1na2vs0mg"},{"bike_id":"21b698aa-c273-467d-8ee8-9ca0763fcd67","system_id":"levelo_inurba_marseille","lat":43.30803,"lon":5.43525,"is_reserved":false,"is_disabled":false,"rental_uris":{"android":"levelo://app?vid=21b698aa-c273-467d-8ee8-9ca0763fcd67","ios":"levelo://app?vid=21b698aa-c273-467d-8ee8-9ca0763fcd67"},"vehicle_type_id":"4","last_reported":1731240905,"current_range_meters":34000,"station_id":"ce4bhph2rcd13ifvqheg","pricing_plan_id":"cebpf4jnsgd1na2vs0mg"},{"bike_id":"ece6c1ac-b0f6-41b1-a4ea-cdc77068020d","system_id":"levelo_inurba_marseille","lat":43.29005,"lon":5.35601,"is_reserved":false,"is_disabled":false,"rental_uris":{"android":"levelo://app?vid=ece6c1ac-b0f6-41b1-a4ea-cdc77068020d","ios":"levelo://app?vid=ece6c1ac-b0f6-41b1-a4ea-cdc77068020d"},"vehicle_type_id":"4","last_reported":1731240905,"current_range_meters":25600,"station_id":"ce4bhb92rcd13ifvqen0","pricing_plan_id":"cebpf4jnsgd1na2vs0mg"},{"bike_id":"3cd036b1-82b2-4728-9c4f-a57fb25f0cb6","system_id":"levelo_inurba_marseille","lat":43.24079,"lon":5.37754,"is_reserved":false,"is_disabled":false,"rental_uris":{"android":"levelo://app?vid=3cd036b1-82b2-4728-9c4f-a57fb25f0cb6","ios":"levelo://app?vid=3cd036b1-82b2-4728-9c4f-a57fb25f0cb6"},"vehicle_type_id":"4","last_reported":1731240905,"current_range_meters":19200,"station_id":"ce4bhnp2rcd13ifvqgvg","pricing_plan_id":"cebpf4jnsgd1na2vs0mg"},{"bike_id":"bc99d58a-88e6-48ba-aec4-082f80ed5fe6","system_id":"levelo_inurba_marseille","lat":43.33026,"lon":5.39032,"is_reserved":false,"is_disabled":false,"rental_uris":{"android":"levelo://app?vid=bc99d58a-88e6-48ba-aec4-082f80ed5fe6","ios":"levelo://app?vid=bc99d58a-88e6-48ba-aec4-082f80ed5fe6"},"vehicle_type_id":"4","last_reported":1731240905,"current_range_meters":24800,"station_id":"ce4bhr92rcd13ifvqhrg","pricing_plan_id":"cebpf4jnsgd1na2vs0mg"},{"bike_id":"91159c09-9195-4483-a6be-99230f9de272","system_id":"levelo_inurba_marseille","lat":43.34142,"lon":5.40905,"is_reserved":false,"is_disabled":false,"rental_uris":{"android":"levelo://app?vid=91159c09-9195-4483-a6be-99230f9de272","ios":"levelo://app?vid=91159c09-9195-4483-a6be-99230f9de272"},"vehicle_type_id":"4","last_reported":1731240905,"current_range_meters":38400,"station_id":"ce4bhqh2rcd13ifvqhlg","pricing_plan_id":"cebpf4jnsgd1na2vs0mg"},{"bike_id":"e8f004f4-0b0a-4e8e-8b24-71c995987ab6","system_id":"levelo_inurba_marseille","lat":43.26804,"lon":5.40267,"is_reserved":false,"is_disabled":false,"rental_uris":{"android":"levelo://app?vid=e8f004f4-0b0a-4e8e-8b24-71c995987ab6","ios":"levelo://app?vid=e8f004f4-0b0a-4e8e-8b24-71c995987ab6"},"vehicle_type_id":"4","last_reported":1731240905,"current_range_meters":32800,"station_id":"ce501612rcd8frsf0b60","pricing_plan_id":"cebpf4jnsgd1na2vs0mg"},{"bike_id":"c948b120-0b81-4c64-a307-45b2aed7acfb","system_id":"levelo_inurba_marseille","lat":43.29181,"lon":5.35797,"is_reserved":false,"is_disabled":false,"rental_uris":{"android":"levelo://app?vid=c948b120-0b81-4c64-a307-45b2aed7acfb","ios":"levelo://app?vid=c948b120-0b81-4c64-a307-45b2aed7acfb"},"vehicle_type_id":"4","last_reported":1731240905,"current_range_meters":31200,"station_id":"ce4bhb12rcd13ifvqel0","pricing_plan_id":"cebpf4jnsgd1na2vs0mg"},{"bike_id":"58ddda71-db93-4d65-bfe5-0e25811a1ce7","system_id":"levelo_inurba_marseille","lat":43.29225,"lon":5.36051,"is_reserved":false,"is_disabled":false,"rental_uris":{"android":"levelo://app?vid=58ddda71-db93-4d65-bfe5-0e25811a1ce7","ios":"levelo://app?vid=58ddda71-db93-4d65-bfe5-0e25811a1ce7"},"vehicle_type_id":"4","last_reported":1731240905,"current_range_meters":24000,"station_id":"ce4bhbh2rcd13ifvqeqg","pricing_plan_id":"cebpf4jnsgd1na2vs0mg"},{"bike_id":"55700614-4820-43a5-871e-d1005d570930","system_id":"levelo_inurba_marseille","lat":43.24076,"lon":5.37748,"is_reserved":false,"is_disabled":false,"rental_uris":{"android":"levelo://app?vid=55700614-4820-43a5-871e-d1005d570930","ios":"levelo://app?vid=55700614-4820-43a5-871e-d1005d570930"},"vehicle_type_id":"4","last_reported":1731240905,"current_range_meters":39200,"station_id":"ce4bhnp2rcd13ifvqgvg","pricing_plan_id":"cebpf4jnsgd1na2vs0mg"},{"bike_id":"da6cd7c7-5524-466f-bc18-d935b19bc5bf","system_id":"levelo_inurba_marseille","lat":43.2919,"lon":5.35806,"is_reserved":false,"is_disabled":false,"rental_uris":{"android":"levelo://app?vid=da6cd7c7-5524-466f-bc18-d935b19bc5bf","ios":"levelo://app?vid=da6cd7c7-5524-466f-bc18-d935b19bc5bf"},"vehicle_type_id":"4","last_reported":1731240905,"current_range_meters":17200,"station_id":"ce4bhb12rcd13ifvqel0","pricing_plan_id":"cebpf4jnsgd1na2vs0mg"},{"bike_id":"8751662e-12f9-4138-b922-dbb3cb1c7f30","system_id":"levelo_inurba_marseille","lat":43.28272,"lon":5.35077,"is_reserved":false,"is_disabled":false,"rental_uris":{"android":"levelo://app?vid=8751662e-12f9-4138-b922-dbb3cb1c7f30","ios":"levelo://app?vid=8751662e-12f9-4138-b922-dbb3cb1c7f30"},"vehicle_type_id":"4","last_reported":1731240905,"current_range_meters":26800,"station_id":"ce4bhbp2rcd13ifvqerg","pricing_plan_id":"cebpf4jnsgd1na2vs0mg"},{"bike_id":"0a64ed50-8cfc-463a-acb6-61f6f9203091","system_id":"levelo_inurba_marseille","lat":43.29897,"lon":5.43666,"is_reserved":false,"is_disabled":false,"rental_uris":{"android":"levelo://app?vid=0a64ed50-8cfc-463a-acb6-61f6f9203091","ios":"levelo://app?vid=0a64ed50-8cfc-463a-acb6-61f6f9203091"},"vehicle_type_id":"4","last_reported":1731240905,"current_range_meters":39200,"station_id":"ce4bhpp2rcd13ifvqhfg","pricing_plan_id":"cebpf4jnsgd1na2vs0mg"},{"bike_id":"96aef8c1-f007-442e-b872-036e6f6c58ad","system_id":"levelo_inurba_marseille","lat":43.31757,"lon":5.3902,"is_reserved":false,"is_disabled":false,"rental_uris":{"android":"levelo://app?vid=96aef8c1-f007-442e-b872-036e6f6c58ad","ios":"levelo://app?vid=96aef8c1-f007-442e-b872-036e6f6c58ad"},"vehicle_type_id":"4","last_reported":1731240905,"current_range_meters":38800,"station_id":"ce4bhqp2rcd13ifvqhng","pricing_plan_id":"cebpf4jnsgd1na2vs0mg"},{"bike_id":"a31846f7-d82e-460e-832b-c327077c492c","system_id":"levelo_inurba_marseille","lat":43.30416,"lon":5.41298,"is_reserved":false,"is_disabled":false,"rental_uris":{"android":"levelo://app?vid=a31846f7-d82e-460e-832b-c327077c492c","ios":"levelo://app?vid=a31846f7-d82e-460e-832b-c327077c492c"},"vehicle_type_id":"4","last_reported":1731240905,"current_range_meters":24400,"station_id":"ce4bhop2rcd13ifvqh8g","pricing_plan_id":"cebpf4jnsgd1na2vs0mg"},{"bike_id":"134ce1ce-579d-4d82-bde6-b146c0c11c11","system_id":"levelo_inurba_marseille","lat":43.29895,"lon":5.43677,"is_reserved":false,"is_disabled":false,"rental_uris":{"android":"levelo://app?vid=134ce1ce-579d-4d82-bde6-b146c0c11c11","ios":"levelo://app?vid=134ce1ce-579d-4d82-bde6-b146c0c11c11"},"vehicle_type_id":"4","last_reported":1731240905,"current_range_meters":36800,"station_id":"ce4bhpp2rcd13ifvqhfg","pricing_plan_id":"cebpf4jnsgd1na2vs0mg"},{"bike_id":"e3ea0a77-8f83-4797-99b7-dbc4d5d51bbe","system_id":"levelo_inurba_marseille","lat":43.29975,"lon":5.37176,"is_reserved":false,"is_disabled":false,"rental_uris":{"android":"levelo://app?vid=e3ea0a77-8f83-4797-99b7-dbc4d5d51bbe","ios":"levelo://app?vid=e3ea0a77-8f83-4797-99b7-dbc4d5d51bbe"},"vehicle_type_id":"4","last_reported":1731240905,"current_range_meters":14800,"station_id":"ce4bgr92rcd13ifvqc7g","pricing_plan_id":"cebpf4jnsgd1na2vs0mg"},{"bike_id":"582ad0de-94e6-44c4-b41a-57f6d9dee39e","system_id":"levelo_inurba_marseille","lat":43.27972,"lon":5.38751,"is_reserved":false,"is_disabled":false,"rental_uris":{"android":"levelo://app?vid=582ad0de-94e6-44c4-b41a-57f6d9dee39e","ios":"levelo://app?vid=582ad0de-94e6-44c4-b41a-57f6d9dee39e"},"vehicle_type_id":"4","last_reported":1731240905,"current_range_meters":28400,"station_id":"ce4bhg12rcd13ifvqf80","pricing_plan_id":"cebpf4jnsgd1na2vs0mg"},{"bike_id":"181fa628-fd06-4339-88f4-5d411c857699","system_id":"levelo_inurba_marseille","lat":43.27066,"lon":5.42277,"is_reserved":false,"is_disabled":false,"rental_uris":{"android":"levelo://app?vid=181fa628-fd06-4339-88f4-5d411c857699","ios":"levelo://app?vid=181fa628-fd06-4339-88f4-5d411c857699"},"vehicle_type_id":"4","last_reported":1731240905,"current_range_meters":8800,"station_id":"ce4bhk92rcd13ifvqgb0","pricing_plan_id":"cebpf4jnsgd1na2vs0mg"},{"bike_id":"c3b787e6-f251-4105-9b43-4560137740b3","system_id":"levelo_inurba_marseille","lat":43.29027,"lon":5.38651,"is_reserved":false,"is_disabled":false,"rental_uris":{"android":"levelo://app?vid=c3b787e6-f251-4105-9b43-4560137740b3","ios":"levelo://app?vid=c3b787e6-f251-4105-9b43-4560137740b3"},"vehicle_type_id":"4","last_reported":1731240905,"current_range_meters":32400,"station_id":"ce4bh4p2rcd13ifvqe0g","pricing_plan_id":"cebpf4jnsgd1na2vs0mg"},{"bike_id":"e621ab12-17c4-4c4d-bc12-f24f16dcb402","system_id":"levelo_inurba_marseille","lat":43.31356,"lon":5.36697,"is_reserved":false,"is_disabled":false,"rental_uris":{"android":"levelo://app?vid=e621ab12-17c4-4c4d-bc12-f24f16dcb402","ios":"levelo://app?vid=e621ab12-17c4-4c4d-bc12-f24f16dcb402"},"vehicle_type_id":"4","last_reported":1731240905,"current_range_meters":38800,"station_id":"ce4bgr92rcd13ifvqc6g","pricing_plan_id":"cebpf4jnsgd1na2vs0mg"},{"bike_id":"64f1e304-55fc-4bb7-bb27-4faaf7cf65c1","system_id":"levelo_inurba_marseille","lat":43.27545,"lon":5.40914,"is_reserved":false,"is_disabled":false,"rental_uris":{"android":"levelo://app?vid=64f1e304-55fc-4bb7-bb27-4faaf7cf65c1","ios":"levelo://app?vid=64f1e304-55fc-4bb7-bb27-4faaf7cf65c1"},"vehicle_type_id":"4","last_reported":1731240905,"current_range_meters":6800,"station_id":"","pricing_plan_id":"cebpf4jnsgd1na2vs0mg"},{"bike_id":"9a5eb101-92a2-4eeb-93bd-8d070d90c1ea","system_id":"levelo_inurba_marseille","lat":43.30433,"lon":5.42528,"is_reserved":false,"is_disabled":false,"rental_uris":{"android":"levelo://app?vid=9a5eb101-92a2-4eeb-93bd-8d070d90c1ea","ios":"levelo://app?vid=9a5eb101-92a2-4eeb-93bd-8d070d90c1ea"},"vehicle_type_id":"4","last_reported":1731240905,"current_range_meters":12000,"station_id":"","pricing_plan_id":"cebpf4jnsgd1na2vs0mg"},{"bike_id":"968f2119-d9d8-46dc-848a-c9325661aef9","system_id":"levelo_inurba_marseille","lat":43.27912,"lon":5.38018,"is_reserved":false,"is_disabled":false,"rental_uris":{"android":"levelo://app?vid=968f2119-d9d8-46dc-848a-c9325661aef9","ios":"levelo://app?vid=968f2119-d9d8-46dc-848a-c9325661aef9"},"vehicle_type_id":"4","last_reported":1731240905,"current_range_meters":7200,"station_id":"ce4bhf92rcd13ifvqf50","pricing_plan_id":"cebpf4jnsgd1na2vs0mg"},{"bike_id":"27e15419-d9b0-4647-890e-e21a7149b1cd","system_id":"levelo_inurba_marseille","lat":43.27067,"lon":5.42275,"is_reserved":false,"is_disabled":false,"rental_uris":{"android":"levelo://app?vid=27e15419-d9b0-4647-890e-e21a7149b1cd","ios":"levelo://app?vid=27e15419-d9b0-4647-890e-e21a7149b1cd"},"vehicle_type_id":"4","last_reported":1731240905,"current_range_meters":7200,"station_id":"ce4bhk92rcd13ifvqgb0","pricing_plan_id":"cebpf4jnsgd1na2vs0mg"},{"bike_id":"55f47cbb-4cd2-4214-9965-9e0698b16e2e","system_id":"levelo_inurba_marseille","lat":43.32392,"lon":5.37004,"is_reserved":false,"is_disabled":false,"rental_uris":{"android":"levelo://app?vid=55f47cbb-4cd2-4214-9965-9e0698b16e2e","ios":"levelo://app?vid=55f47cbb-4cd2-4214-9965-9e0698b16e2e"},"vehicle_type_id":"4","last_reported":1731240905,"current_range_meters":36400,"station_id":"","pricing_plan_id":"cebpf4jnsgd1na2vs0mg"},{"bike_id":"be66bdb0-f383-45ac-9b19-ef26788342e6","system_id":"levelo_inurba_marseille","lat":43.28717,"lon":5.36085,"is_reserved":false,"is_disabled":false,"rental_uris":{"android":"levelo://app?vid=be66bdb0-f383-45ac-9b19-ef26788342e6","ios":"levelo://app?vid=be66bdb0-f383-45ac-9b19-ef26788342e6"},"vehicle_type_id":"4","last_reported":1731240905,"current_range_meters":38400,"station_id":"cki0cbj6b192h4jlfktg","pricing_plan_id":"cebpf4jnsgd1na2vs0mg"},{"bike_id":"6bdc82f0-033d-42c4-bb56-2a6ba26055a8","system_id":"levelo_inurba_marseille","lat":43.24396,"lon":5.37055,"is_reserved":false,"is_disabled":false,"rental_uris":{"android":"levelo://app?vid=6bdc82f0-033d-42c4-bb56-2a6ba26055a8","ios":"levelo://app?vid=6bdc82f0-033d-42c4-bb56-2a6ba26055a8"},"vehicle_type_id":"4","last_reported":1731240905,"current_range_meters":8400,"station_id":"ce4bhhh2rcd13ifvqfk0","pricing_plan_id":"cebpf4jnsgd1na2vs0mg"},{"bike_id":"3df3ae5c-e0fa-4a17-8a0c-23881e022c6c","system_id":"levelo_inurba_marseille","lat":43.29197,"lon":5.39324,"is_reserved":false,"is_disabled":false,"rental_uris":{"android":"levelo://app?vid=3df3ae5c-e0fa-4a17-8a0c-23881e022c6c","ios":"levelo://app?vid=3df3ae5c-e0fa-4a17-8a0c-23881e022c6c"},"vehicle_type_id":"4","last_reported":1731240905,"current_range_meters":27600,"station_id":"ce4bh192rcd13ifvqdd0","pricing_plan_id":"cebpf4jnsgd1na2vs0mg"},{"bike_id":"0d93b31b-854a-4c31-b287-70df5cbe7d07","system_id":"levelo_inurba_marseille","lat":43.24083,"lon":5.37741,"is_reserved":false,"is_disabled":false,"rental_uris":{"android":"levelo://app?vid=0d93b31b-854a-4c31-b287-70df5cbe7d07","ios":"levelo://app?vid=0d93b31b-854a-4c31-b287-70df5cbe7d07"},"vehicle_type_id":"4","last_reported":1731240905,"current_range_meters":10800,"station_id":"ce4bhnp2rcd13ifvqgvg","pricing_plan_id":"cebpf4jnsgd1na2vs0mg"},{"bike_id":"2f5023c1-156e-43b3-bc01-5fdc7cb8e888","system_id":"levelo_inurba_marseille","lat":43.29041,"lon":5.39958,"is_reserved":false,"is_disabled":false,"rental_uris":{"android":"levelo://app?vid=2f5023c1-156e-43b3-bc01-5fdc7cb8e888","ios":"levelo://app?vid=2f5023c1-156e-43b3-bc01-5fdc7cb8e888"},"vehicle_type_id":"4","last_reported":1731240905,"current_range_meters":24800,"station_id":"ce4bh392rcd13ifvqdm0","pricing_plan_id":"cebpf4jnsgd1na2vs0mg"},{"bike_id":"88064f05-2264-4852-b057-30e37fdabce1","system_id":"levelo_inurba_marseille","lat":43.230615,"lon":5.354857,"is_reserved":false,"is_disabled":false,"rental_uris":{"android":"levelo://app?vid=88064f05-2264-4852-b057-30e37fdabce1","ios":"levelo://app?vid=88064f05-2264-4852-b057-30e37fdabce1"},"vehicle_type_id":"4","last_reported":1731240905,"current_range_meters":38800,"station_id":"cpo3342slgdg3j2ifvpg","pricing_plan_id":"cebpf4jnsgd1na2vs0mg"},{"bike_id":"59d0d7c1-7c14-4c64-a4ac-dcabb27475a6","system_id":"levelo_inurba_marseille","lat":43.24393,"lon":5.37063,"is_reserved":false,"is_disabled":false,"rental_uris":{"android":"levelo://app?vid=59d0d7c1-7c14-4c64-a4ac-dcabb27475a6","ios":"levelo://app?vid=59d0d7c1-7c14-4c64-a4ac-dcabb27475a6"},"vehicle_type_id":"4","last_reported":1731240905,"current_range_meters":16800,"station_id":"ce4bhhh2rcd13ifvqfk0","pricing_plan_id":"cebpf4jnsgd1na2vs0mg"},{"bike_id":"0e83ce01-6760-4f0a-b2cd-0dccbba565b3","system_id":"levelo_inurba_marseille","lat":43.28422,"lon":5.34986,"is_reserved":false,"is_disabled":false,"rental_uris":{"android":"levelo://app?vid=0e83ce01-6760-4f0a-b2cd-0dccbba565b3","ios":"levelo://app?vid=0e83ce01-6760-4f0a-b2cd-0dccbba565b3"},"vehicle_type_id":"4","last_reported":1731240905,"current_range_meters":19600,"station_id":"ce4bhbh2rcd13ifvqepg","pricing_plan_id":"cebpf4jnsgd1na2vs0mg"},{"bike_id":"058b3f25-0123-46f5-9b59-216b6ef86bea","system_id":"levelo_inurba_marseille","lat":43.3118,"lon":5.38726,"is_reserved":false,"is_disabled":false,"rental_uris":{"android":"levelo://app?vid=058b3f25-0123-46f5-9b59-216b6ef86bea","ios":"levelo://app?vid=058b3f25-0123-46f5-9b59-216b6ef86bea"},"vehicle_type_id":"4","last_reported":1731240905,"current_range_meters":30800,"station_id":"ce4bgv12rcd13ifvqcp0","pricing_plan_id":"cebpf4jnsgd1na2vs0mg"},{"bike_id":"c6ae65bf-8d5e-4ea9-a3a9-adc79d0ebafe","system_id":"levelo_inurba_marseille","lat":43.24392,"lon":5.37057,"is_reserved":false,"is_disabled":false,"rental_uris":{"android":"levelo://app?vid=c6ae65bf-8d5e-4ea9-a3a9-adc79d0ebafe","ios":"levelo://app?vid=c6ae65bf-8d5e-4ea9-a3a9-adc79d0ebafe"},"vehicle_type_id":"4","last_reported":1731240905,"current_range_meters":23200,"station_id":"ce4bhhh2rcd13ifvqfk0","pricing_plan_id":"cebpf4jnsgd1na2vs0mg"},{"bike_id":"1b641421-2e55-46f2-aa52-a5bd61345632","system_id":"levelo_inurba_marseille","lat":43.24168,"lon":5.36392,"is_reserved":false,"is_disabled":false,"rental_uris":{"android":"levelo://app?vid=1b641421-2e55-46f2-aa52-a5bd61345632","ios":"levelo://app?vid=1b641421-2e55-46f2-aa52-a5bd61345632"},"vehicle_type_id":"4","last_reported":1731240905,"current_range_meters":11200,"station_id":"cpo36qri1sfpv3e86is0","pricing_plan_id":"cebpf4jnsgd1na2vs0mg"},{"bike_id":"3e1272c4-6452-4bf5-9eaf-4e9420c7bbeb","system_id":"levelo_inurba_marseille","lat":43.25113,"lon":5.40323,"is_reserved":false,"is_disabled":false,"rental_uris":{"android":"levelo://app?vid=3e1272c4-6452-4bf5-9eaf-4e9420c7bbeb","ios":"levelo://app?vid=3e1272c4-6452-4bf5-9eaf-4e9420c7bbeb"},"vehicle_type_id":"4","last_reported":1731240905,"current_range_meters":17200,"station_id":"ce4bhlh2rcd13ifvqgig","pricing_plan_id":"cebpf4jnsgd1na2vs0mg"},{"bike_id":"bd107d40-34a8-40f9-8610-97fdcd404745","system_id":"levelo_inurba_marseille","lat":43.25496,"lon":5.37655,"is_reserved":false,"is_disabled":false,"rental_uris":{"android":"levelo://app?vid=bd107d40-34a8-40f9-8610-97fdcd404745","ios":"levelo://app?vid=bd107d40-34a8-40f9-8610-97fdcd404745"},"vehicle_type_id":"4","last_reported":1731240905,"current_range_meters":38000,"station_id":"ce4bhh12rcd13ifvqff0","pricing_plan_id":"cebpf4jnsgd1na2vs0mg"},{"bike_id":"8ab21f45-a2fc-420e-85fc-7d62c749390e","system_id":"levelo_inurba_marseille","lat":43.29005,"lon":5.35617,"is_reserved":false,"is_disabled":false,"rental_uris":{"android":"levelo://app?vid=8ab21f45-a2fc-420e-85fc-7d62c749390e","ios":"levelo://app?vid=8ab21f45-a2fc-420e-85fc-7d62c749390e"},"vehicle_type_id":"4","last_reported":1731240905,"current_range_meters":24800,"station_id":"ce4bhb92rcd13ifvqen0","pricing_plan_id":"cebpf4jnsgd1na2vs0mg"},{"bike_id":"0d0ef880-2434-4d1b-be5b-12320ed92e83","system_id":"levelo_inurba_marseille","lat":43.25728,"lon":5.41105,"is_reserved":false,"is_disabled":false,"rental_uris":{"android":"levelo://app?vid=0d0ef880-2434-4d1b-be5b-12320ed92e83","ios":"levelo://app?vid=0d0ef880-2434-4d1b-be5b-12320ed92e83"},"vehicle_type_id":"4","last_reported":1731240905,"current_range_meters":25600,"station_id":"ce4bhkp2rcd13ifvqgd0","pricing_plan_id":"cebpf4jnsgd1na2vs0mg"},{"bike_id":"07704a86-dbed-425a-854d-11b1a4e3d84c","system_id":"levelo_inurba_marseille","lat":43.33766,"lon":5.37453,"is_reserved":false,"is_disabled":false,"rental_uris":{"android":"levelo://app?vid=07704a86-dbed-425a-854d-11b1a4e3d84c","ios":"levelo://app?vid=07704a86-dbed-425a-854d-11b1a4e3d84c"},"vehicle_type_id":"4","last_reported":1731240905,"current_range_meters":30800,"station_id":"","pricing_plan_id":"cebpf4jnsgd1na2vs0mg"},{"bike_id":"e711ef1e-57ba-40e4-a61e-4e29ff38b950","system_id":"levelo_inurba_marseille","lat":43.29222,"lon":5.36054,"is_reserved":false,"is_disabled":false,"rental_uris":{"android":"levelo://app?vid=e711ef1e-57ba-40e4-a61e-4e29ff38b950","ios":"levelo://app?vid=e711ef1e-57ba-40e4-a61e-4e29ff38b950"},"vehicle_type_id":"4","last_reported":1731240905,"current_range_meters":27600,"station_id":"ce4bhbh2rcd13ifvqeqg","pricing_plan_id":"cebpf4jnsgd1na2vs0mg"},{"bike_id":"0b74ce83-e6b1-4485-8ca6-3897f29a426e","system_id":"levelo_inurba_marseille","lat":43.23957,"lon":5.36625,"is_reserved":false,"is_disabled":false,"rental_uris":{"android":"levelo://app?vid=0b74ce83-e6b1-4485-8ca6-3897f29a426e","ios":"levelo://app?vid=0b74ce83-e6b1-4485-8ca6-3897f29a426e"},"vehicle_type_id":"4","last_reported":1731240905,"current_range_meters":9200,"station_id":"ce4bhi12rcd13ifvqfp0","pricing_plan_id":"cebpf4jnsgd1na2vs0mg"},{"bike_id":"e740b1f1-3e44-47fc-852f-327d109d7b35","system_id":"levelo_inurba_marseille","lat":43.27996,"lon":5.41666,"is_reserved":false,"is_disabled":false,"rental_uris":{"android":"levelo://app?vid=e740b1f1-3e44-47fc-852f-327d109d7b35","ios":"levelo://app?vid=e740b1f1-3e44-47fc-852f-327d109d7b35"},"vehicle_type_id":"4","last_reported":1731240905,"current_range_meters":25200,"station_id":"ce4bho12rcd13ifvqh1g","pricing_plan_id":"cebpf4jnsgd1na2vs0mg"},{"bike_id":"bef879e7-f166-401b-a0c0-2829dd929c29","system_id":"levelo_inurba_marseille","lat":43.28278,"lon":5.35083,"is_reserved":false,"is_disabled":false,"rental_uris":{"android":"levelo://app?vid=bef879e7-f166-401b-a0c0-2829dd929c29","ios":"levelo://app?vid=bef879e7-f166-401b-a0c0-2829dd929c29"},"vehicle_type_id":"4","last_reported":1731240905,"current_range_meters":38800,"station_id":"ce4bhbp2rcd13ifvqerg","pricing_plan_id":"cebpf4jnsgd1na2vs0mg"},{"bike_id":"6c667f5f-b7e9-4c69-8c31-28fbbcdde478","system_id":"levelo_inurba_marseille","lat":43.23193,"lon":5.35558,"is_reserved":false,"is_disabled":false,"rental_uris":{"android":"levelo://app?vid=6c667f5f-b7e9-4c69-8c31-28fbbcdde478","ios":"levelo://app?vid=6c667f5f-b7e9-4c69-8c31-28fbbcdde478"},"vehicle_type_id":"4","last_reported":1731240905,"current_range_meters":14800,"station_id":"ce4bhu92rcd13ifvqi70","pricing_plan_id":"cebpf4jnsgd1na2vs0mg"},{"bike_id":"1bc42c89-6add-4f12-91a8-df4a8034b2db","system_id":"levelo_inurba_marseille","lat":43.23064,"lon":5.35491,"is_reserved":false,"is_disabled":false,"rental_uris":{"android":"levelo://app?vid=1bc42c89-6add-4f12-91a8-df4a8034b2db","ios":"levelo://app?vid=1bc42c89-6add-4f12-91a8-df4a8034b2db"},"vehicle_type_id":"4","last_reported":1731240905,"current_range_meters":8000,"station_id":"cpo3342slgdg3j2ifvpg","pricing_plan_id":"cebpf4jnsgd1na2vs0mg"},{"bike_id":"90fe466d-60f7-4cb7-b2d6-c1f73bc7cd7a","system_id":"levelo_inurba_marseille","lat":43.32052,"lon":5.41557,"is_reserved":false,"is_disabled":false,"rental_uris":{"android":"levelo://app?vid=90fe466d-60f7-4cb7-b2d6-c1f73bc7cd7a","ios":"levelo://app?vid=90fe466d-60f7-4cb7-b2d6-c1f73bc7cd7a"},"vehicle_type_id":"4","last_reported":1731240905,"current_range_meters":38800,"station_id":"ce4bhq92rcd13ifvqhkg","pricing_plan_id":"cebpf4jnsgd1na2vs0mg"},{"bike_id":"2a927cf2-1ec8-440d-8c9b-26258bd9b46e","system_id":"levelo_inurba_marseille","lat":43.29717,"lon":5.36619,"is_reserved":false,"is_disabled":false,"rental_uris":{"android":"levelo://app?vid=2a927cf2-1ec8-440d-8c9b-26258bd9b46e","ios":"levelo://app?vid=2a927cf2-1ec8-440d-8c9b-26258bd9b46e"},"vehicle_type_id":"4","last_reported":1731240905,"current_range_meters":39200,"station_id":"ce4bgn12rcd13ifvqbt0","pricing_plan_id":"cebpf4jnsgd1na2vs0mg"},{"bike_id":"eecb002f-ad23-4ea0-b2e0-33b3a1f5891d","system_id":"levelo_inurba_marseille","lat":43.29221,"lon":5.36053,"is_reserved":false,"is_disabled":false,"rental_uris":{"android":"levelo://app?vid=eecb002f-ad23-4ea0-b2e0-33b3a1f5891d","ios":"levelo://app?vid=eecb002f-ad23-4ea0-b2e0-33b3a1f5891d"},"vehicle_type_id":"4","last_reported":1731240905,"current_range_meters":24800,"station_id":"ce4bhbh2rcd13ifvqeqg","pricing_plan_id":"cebpf4jnsgd1na2vs0mg"},{"bike_id":"36c5ff9c-46cc-4c47-bdd2-03ca7a0be1ae","system_id":"levelo_inurba_marseille","lat":43.23965,"lon":5.3663,"is_reserved":false,"is_disabled":false,"rental_uris":{"android":"levelo://app?vid=36c5ff9c-46cc-4c47-bdd2-03ca7a0be1ae","ios":"levelo://app?vid=36c5ff9c-46cc-4c47-bdd2-03ca7a0be1ae"},"vehicle_type_id":"4","last_reported":1731240905,"current_range_meters":30000,"station_id":"ce4bhi12rcd13ifvqfp0","pricing_plan_id":"cebpf4jnsgd1na2vs0mg"},{"bike_id":"2c42f401-8588-45b2-801d-41b9137e6000","system_id":"levelo_inurba_marseille","lat":43.31693,"lon":5.40471,"is_reserved":false,"is_disabled":false,"rental_uris":{"android":"levelo://app?vid=2c42f401-8588-45b2-801d-41b9137e6000","ios":"levelo://app?vid=2c42f401-8588-45b2-801d-41b9137e6000"},"vehicle_type_id":"4","last_reported":1731240905,"current_range_meters":25600,"station_id":"ce4bh012rcd13ifvqd00","pricing_plan_id":"cebpf4jnsgd1na2vs0mg"},{"bike_id":"baac3be3-010c-4ab7-b814-2af962c842f8","system_id":"levelo_inurba_marseille","lat":43.28368,"lon":5.37515,"is_reserved":false,"is_disabled":false,"rental_uris":{"android":"levelo://app?vid=baac3be3-010c-4ab7-b814-2af962c842f8","ios":"levelo://app?vid=baac3be3-010c-4ab7-b814-2af962c842f8"},"vehicle_type_id":"4","last_reported":1731240905,"current_range_meters":26800,"station_id":"ce4bh412rcd13ifvqds0","pricing_plan_id":"cebpf4jnsgd1na2vs0mg"},{"bike_id":"b03edbc5-3e8c-4460-830a-1ba2d457f95d","system_id":"levelo_inurba_marseille","lat":43.30544,"lon":5.36551,"is_reserved":false,"is_disabled":false,"rental_uris":{"android":"levelo://app?vid=b03edbc5-3e8c-4460-830a-1ba2d457f95d","ios":"levelo://app?vid=b03edbc5-3e8c-4460-830a-1ba2d457f95d"},"vehicle_type_id":"4","last_reported":1731240905,"current_range_meters":36800,"station_id":"ce4bgs12rcd13ifvqcag","pricing_plan_id":"cebpf4jnsgd1na2vs0mg"},{"bike_id":"d17d14b6-bd39-4f6f-860c-b6baae4afc33","system_id":"levelo_inurba_marseille","lat":43.2606,"lon":5.39396,"is_reserved":false,"is_disabled":false,"rental_uris":{"android":"levelo://app?vid=d17d14b6-bd39-4f6f-860c-b6baae4afc33","ios":"levelo://app?vid=d17d14b6-bd39-4f6f-860c-b6baae4afc33"},"vehicle_type_id":"4","last_reported":1731240905,"current_range_meters":14800,"station_id":"ce4bhh92rcd13ifvqfj0","pricing_plan_id":"cebpf4jnsgd1na2vs0mg"},{"bike_id":"e96d136f-09b4-4b33-853f-0c77e3c18f27","system_id":"levelo_inurba_marseille","lat":43.29279,"lon":5.40121,"is_reserved":false,"is_disabled":false,"rental_uris":{"android":"levelo://app?vid=e96d136f-09b4-4b33-853f-0c77e3c18f27","ios":"levelo://app?vid=e96d136f-09b4-4b33-853f-0c77e3c18f27"},"vehicle_type_id":"4","last_reported":1731240905,"current_range_meters":11200,"station_id":"ce4bh312rcd13ifvqdk0","pricing_plan_id":"cebpf4jnsgd1na2vs0mg"},{"bike_id":"f5e0302e-0e0a-4f38-b317-23060985283d","system_id":"levelo_inurba_marseille","lat":43.29247,"lon":5.40183,"is_reserved":false,"is_disabled":false,"rental_uris":{"android":"levelo://app?vid=f5e0302e-0e0a-4f38-b317-23060985283d","ios":"levelo://app?vid=f5e0302e-0e0a-4f38-b317-23060985283d"},"vehicle_type_id":"4","last_reported":1731240905,"current_range_meters":8000,"station_id":"ce4bh312rcd13ifvqdk0","pricing_plan_id":"cebpf4jnsgd1na2vs0mg"},{"bike_id":"f8502dec-7345-46d3-a54a-d031b0a2eea6","system_id":"levelo_inurba_marseille","lat":43.23965,"lon":5.36629,"is_reserved":false,"is_disabled":false,"rental_uris":{"android":"levelo://app?vid=f8502dec-7345-46d3-a54a-d031b0a2eea6","ios":"levelo://app?vid=f8502dec-7345-46d3-a54a-d031b0a2eea6"},"vehicle_type_id":"4","last_reported":1731240905,"current_range_meters":38800,"station_id":"ce4bhi12rcd13ifvqfp0","pricing_plan_id":"cebpf4jnsgd1na2vs0mg"},{"bike_id":"b4eb30bc-dd09-4cbf-8ece-3b8ada662aaf","system_id":"levelo_inurba_marseille","lat":43.25008,"lon":5.3891,"is_reserved":false,"is_disabled":false,"rental_uris":{"android":"levelo://app?vid=b4eb30bc-dd09-4cbf-8ece-3b8ada662aaf","ios":"levelo://app?vid=b4eb30bc-dd09-4cbf-8ece-3b8ada662aaf"},"vehicle_type_id":"4","last_reported":1731240905,"current_range_meters":13600,"station_id":"ce4bhgp2rcd13ifvqfd0","pricing_plan_id":"cebpf4jnsgd1na2vs0mg"},{"bike_id":"35c9866e-9095-49c5-ba06-72a672a0ce24","system_id":"levelo_inurba_marseille","lat":43.22932,"lon":5.35373,"is_reserved":false,"is_disabled":false,"rental_uris":{"android":"levelo://app?vid=35c9866e-9095-49c5-ba06-72a672a0ce24","ios":"levelo://app?vid=35c9866e-9095-49c5-ba06-72a672a0ce24"},"vehicle_type_id":"4","last_reported":1731240905,"current_range_meters":24800,"station_id":"cpo3532slgdg3j2ikp40","pricing_plan_id":"cebpf4jnsgd1na2vs0mg"},{"bike_id":"c931e854-f671-4eae-be17-c754dc3c9917","system_id":"levelo_inurba_marseille","lat":43.29559,"lon":5.42288,"is_reserved":false,"is_disabled":false,"rental_uris":{"android":"levelo://app?vid=c931e854-f671-4eae-be17-c754dc3c9917","ios":"levelo://app?vid=c931e854-f671-4eae-be17-c754dc3c9917"},"vehicle_type_id":"4","last_reported":1731240905,"current_range_meters":8400,"station_id":"ce4bhph2rcd13ifvqhdg","pricing_plan_id":"cebpf4jnsgd1na2vs0mg"},{"bike_id":"70525020-4b03-4824-9916-eec647312a17","system_id":"levelo_inurba_marseille","lat":43.29626,"lon":5.406,"is_reserved":false,"is_disabled":false,"rental_uris":{"android":"levelo://app?vid=70525020-4b03-4824-9916-eec647312a17","ios":"levelo://app?vid=70525020-4b03-4824-9916-eec647312a17"},"vehicle_type_id":"4","last_reported":1731240905,"current_range_meters":10800,"station_id":"ce4bh0h2rcd13ifvqd60","pricing_plan_id":"cebpf4jnsgd1na2vs0mg"},{"bike_id":"110cf750-d933-48ee-868c-94a0d2c3f544","system_id":"levelo_inurba_marseille","lat":43.22932,"lon":5.35377,"is_reserved":false,"is_disabled":false,"rental_uris":{"android":"levelo://app?vid=110cf750-d933-48ee-868c-94a0d2c3f544","ios":"levelo://app?vid=110cf750-d933-48ee-868c-94a0d2c3f544"},"vehicle_type_id":"4","last_reported":1731240905,"current_range_meters":38800,"station_id":"cpo3532slgdg3j2ikp40","pricing_plan_id":"cebpf4jnsgd1na2vs0mg"},{"bike_id":"d1a67810-cfd5-428f-b08b-fc720b2a9921","system_id":"levelo_inurba_marseille","lat":43.30187,"lon":5.36625,"is_reserved":false,"is_disabled":false,"rental_uris":{"android":"levelo://app?vid=d1a67810-cfd5-428f-b08b-fc720b2a9921","ios":"levelo://app?vid=d1a67810-cfd5-428f-b08b-fc720b2a9921"},"vehicle_type_id":"4","last_reported":1731240905,"current_range_meters":10800,"station_id":"ce4bgrh2rcd13ifvqc8g","pricing_plan_id":"cebpf4jnsgd1na2vs0mg"},{"bike_id":"7945d036-eefd-48fb-b750-b39933d82e36","system_id":"levelo_inurba_marseille","lat":43.3036,"lon":5.4188,"is_reserved":false,"is_disabled":false,"rental_uris":{"android":"levelo://app?vid=7945d036-eefd-48fb-b750-b39933d82e36","ios":"levelo://app?vid=7945d036-eefd-48fb-b750-b39933d82e36"},"vehicle_type_id":"4","last_reported":1731240905,"current_range_meters":9600,"station_id":"ce4bhop2rcd13ifvqh7g","pricing_plan_id":"cebpf4jnsgd1na2vs0mg"},{"bike_id":"961f3708-c589-4143-8e95-6f61ad74d927","system_id":"levelo_inurba_marseille","lat":43.32057,"lon":5.4153,"is_reserved":false,"is_disabled":false,"rental_uris":{"android":"levelo://app?vid=961f3708-c589-4143-8e95-6f61ad74d927","ios":"levelo://app?vid=961f3708-c589-4143-8e95-6f61ad74d927"},"vehicle_type_id":"4","last_reported":1731240905,"current_range_meters":38000,"station_id":"ce4bhq92rcd13ifvqhkg","pricing_plan_id":"cebpf4jnsgd1na2vs0mg"},{"bike_id":"799051fd-d983-438d-b1a6-f94aa3428752","system_id":"levelo_inurba_marseille","lat":43.29546,"lon":5.42282,"is_reserved":false,"is_disabled":false,"rental_uris":{"android":"levelo://app?vid=799051fd-d983-438d-b1a6-f94aa3428752","ios":"levelo://app?vid=799051fd-d983-438d-b1a6-f94aa3428752"},"vehicle_type_id":"4","last_reported":1731240905,"current_range_meters":36800,"station_id":"ce4bhph2rcd13ifvqhdg","pricing_plan_id":"cebpf4jnsgd1na2vs0mg"},{"bike_id":"34b046ac-5776-4eae-ad1d-7287cb7dcbe9","system_id":"levelo_inurba_marseille","lat":43.23961,"lon":5.36629,"is_reserved":false,"is_disabled":false,"rental_uris":{"android":"levelo://app?vid=34b046ac-5776-4eae-ad1d-7287cb7dcbe9","ios":"levelo://app?vid=34b046ac-5776-4eae-ad1d-7287cb7dcbe9"},"vehicle_type_id":"4","last_reported":1731240905,"current_range_meters":20400,"station_id":"ce4bhi12rcd13ifvqfp0","pricing_plan_id":"cebpf4jnsgd1na2vs0mg"},{"bike_id":"833460e0-9d37-4af7-940d-9666a1955e2b","system_id":"levelo_inurba_marseille","lat":43.28455,"lon":5.35889,"is_reserved":false,"is_disabled":false,"rental_uris":{"android":"levelo://app?vid=833460e0-9d37-4af7-940d-9666a1955e2b","ios":"levelo://app?vid=833460e0-9d37-4af7-940d-9666a1955e2b"},"vehicle_type_id":"4","last_reported":1731240905,"current_range_meters":24400,"station_id":"ce4bhah2rcd13ifvqei0","pricing_plan_id":"cebpf4jnsgd1na2vs0mg"},{"bike_id":"cf54f6ba-aee2-4ad1-8205-055ed1540788","system_id":"levelo_inurba_marseille","lat":43.299354,"lon":5.365629,"is_reserved":false,"is_disabled":false,"rental_uris":{"android":"levelo://app?vid=cf54f6ba-aee2-4ad1-8205-055ed1540788","ios":"levelo://app?vid=cf54f6ba-aee2-4ad1-8205-055ed1540788"},"vehicle_type_id":"4","last_reported":1731240905,"current_range_meters":10800,"station_id":"ce4bgm92rcd13ifvqbr0","pricing_plan_id":"cebpf4jnsgd1na2vs0mg"},{"bike_id":"de5516c7-e28f-4aa5-83c3-75893b66ae41","system_id":"levelo_inurba_marseille","lat":43.286102,"lon":5.351055,"is_reserved":false,"is_disabled":false,"rental_uris":{"android":"levelo://app?vid=de5516c7-e28f-4aa5-83c3-75893b66ae41","ios":"levelo://app?vid=de5516c7-e28f-4aa5-83c3-75893b66ae41"},"vehicle_type_id":"4","last_reported":1731240905,"current_range_meters":6400,"station_id":"ce4bhch2rcd13ifvqeug","pricing_plan_id":"cebpf4jnsgd1na2vs0mg"},{"bike_id":"c43bfbe6-2bf2-47fb-80a7-057f382a90aa","system_id":"levelo_inurba_marseille","lat":43.23193,"lon":5.35544,"is_reserved":false,"is_disabled":false,"rental_uris":{"android":"levelo://app?vid=c43bfbe6-2bf2-47fb-80a7-057f382a90aa","ios":"levelo://app?vid=c43bfbe6-2bf2-47fb-80a7-057f382a90aa"},"vehicle_type_id":"4","last_reported":1731240905,"current_range_meters":24800,"station_id":"ce4bhu92rcd13ifvqi70","pricing_plan_id":"cebpf4jnsgd1na2vs0mg"},{"bike_id":"d604bdcf-1c29-4955-a92a-983bad3f66b9","system_id":"levelo_inurba_marseille","lat":43.28423,"lon":5.34982,"is_reserved":false,"is_disabled":false,"rental_uris":{"android":"levelo://app?vid=d604bdcf-1c29-4955-a92a-983bad3f66b9","ios":"levelo://app?vid=d604bdcf-1c29-4955-a92a-983bad3f66b9"},"vehicle_type_id":"4","last_reported":1731240905,"current_range_meters":35200,"station_id":"ce4bhbh2rcd13ifvqepg","pricing_plan_id":"cebpf4jnsgd1na2vs0mg"},{"bike_id":"8279b086-92a2-4597-99d1-bb1506ddd6d2","system_id":"levelo_inurba_marseille","lat":43.22933,"lon":5.35381,"is_reserved":false,"is_disabled":false,"rental_uris":{"android":"levelo://app?vid=8279b086-92a2-4597-99d1-bb1506ddd6d2","ios":"levelo://app?vid=8279b086-92a2-4597-99d1-bb1506ddd6d2"},"vehicle_type_id":"4","last_reported":1731240905,"current_range_meters":16800,"station_id":"cpo3532slgdg3j2ikp40","pricing_plan_id":"cebpf4jnsgd1na2vs0mg"},{"bike_id":"e61e0940-c088-4879-95f6-2eeeebf20835","system_id":"levelo_inurba_marseille","lat":43.31705,"lon":5.37757,"is_reserved":false,"is_disabled":false,"rental_uris":{"android":"levelo://app?vid=e61e0940-c088-4879-95f6-2eeeebf20835","ios":"levelo://app?vid=e61e0940-c088-4879-95f6-2eeeebf20835"},"vehicle_type_id":"4","last_reported":1731240905,"current_range_meters":14400,"station_id":"ce4bgth2rcd13ifvqch0","pricing_plan_id":"cebpf4jnsgd1na2vs0mg"},{"bike_id":"e420b0d1-02ee-4a6a-99fa-119843161849","system_id":"levelo_inurba_marseille","lat":43.25111,"lon":5.40327,"is_reserved":false,"is_disabled":false,"rental_uris":{"android":"levelo://app?vid=e420b0d1-02ee-4a6a-99fa-119843161849","ios":"levelo://app?vid=e420b0d1-02ee-4a6a-99fa-119843161849"},"vehicle_type_id":"4","last_reported":1731240905,"current_range_meters":30000,"station_id":"ce4bhlh2rcd13ifvqgig","pricing_plan_id":"cebpf4jnsgd1na2vs0mg"},{"bike_id":"a00c8272-9e50-48e8-9d96-920e1c63c815","system_id":"levelo_inurba_marseille","lat":43.286987,"lon":5.373862,"is_reserved":false,"is_disabled":false,"rental_uris":{"android":"levelo://app?vid=a00c8272-9e50-48e8-9d96-920e1c63c815","ios":"levelo://app?vid=a00c8272-9e50-48e8-9d96-920e1c63c815"},"vehicle_type_id":"4","last_reported":1731240905,"current_range_meters":38800,"station_id":"ce4bh3p2rcd13ifvqdq0","pricing_plan_id":"cebpf4jnsgd1na2vs0mg"},{"bike_id":"daed64dd-02f6-4c40-9325-b28b46a59db3","system_id":"levelo_inurba_marseille","lat":43.23061,"lon":5.35488,"is_reserved":false,"is_disabled":false,"rental_uris":{"android":"levelo://app?vid=daed64dd-02f6-4c40-9325-b28b46a59db3","ios":"levelo://app?vid=daed64dd-02f6-4c40-9325-b28b46a59db3"},"vehicle_type_id":"4","last_reported":1731240905,"current_range_meters":25200,"station_id":"cpo3342slgdg3j2ifvpg","pricing_plan_id":"cebpf4jnsgd1na2vs0mg"},{"bike_id":"73f45b8b-6c16-4e88-9a89-9f595ecbe7b1","system_id":"levelo_inurba_marseille","lat":43.24075,"lon":5.37759,"is_reserved":false,"is_disabled":false,"rental_uris":{"android":"levelo://app?vid=73f45b8b-6c16-4e88-9a89-9f595ecbe7b1","ios":"levelo://app?vid=73f45b8b-6c16-4e88-9a89-9f595ecbe7b1"},"vehicle_type_id":"4","last_reported":1731240905,"current_range_meters":38000,"station_id":"ce4bhnp2rcd13ifvqgvg","pricing_plan_id":"cebpf4jnsgd1na2vs0mg"},{"bike_id":"e2eb1328-9293-48ae-acc9-97574aba30a6","system_id":"levelo_inurba_marseille","lat":43.31169,"lon":5.38711,"is_reserved":false,"is_disabled":false,"rental_uris":{"android":"levelo://app?vid=e2eb1328-9293-48ae-acc9-97574aba30a6","ios":"levelo://app?vid=e2eb1328-9293-48ae-acc9-97574aba30a6"},"vehicle_type_id":"4","last_reported":1731240905,"current_range_meters":36400,"station_id":"ce4bgv12rcd13ifvqcp0","pricing_plan_id":"cebpf4jnsgd1na2vs0mg"},{"bike_id":"ceee4538-2fc5-4fe2-a1a4-9a1632900621","system_id":"levelo_inurba_marseille","lat":43.3302,"lon":5.39042,"is_reserved":false,"is_disabled":false,"rental_uris":{"android":"levelo://app?vid=ceee4538-2fc5-4fe2-a1a4-9a1632900621","ios":"levelo://app?vid=ceee4538-2fc5-4fe2-a1a4-9a1632900621"},"vehicle_type_id":"4","last_reported":1731240905,"current_range_meters":38800,"station_id":"ce4bhr92rcd13ifvqhrg","pricing_plan_id":"cebpf4jnsgd1na2vs0mg"},{"bike_id":"edef5d6f-e327-4e17-9056-4a44da3da1ba","system_id":"levelo_inurba_marseille","lat":43.23188,"lon":5.39979,"is_reserved":false,"is_disabled":false,"rental_uris":{"android":"levelo://app?vid=edef5d6f-e327-4e17-9056-4a44da3da1ba","ios":"levelo://app?vid=edef5d6f-e327-4e17-9056-4a44da3da1ba"},"vehicle_type_id":"4","last_reported":1731240905,"current_range_meters":36800,"station_id":"ce4bhn12rcd13ifvqgqg","pricing_plan_id":"cebpf4jnsgd1na2vs0mg"},{"bike_id":"2ba681b1-c2b3-4287-8c1d-b6b7d820cb6c","system_id":"levelo_inurba_marseille","lat":43.24815,"lon":5.37463,"is_reserved":false,"is_disabled":false,"rental_uris":{"android":"levelo://app?vid=2ba681b1-c2b3-4287-8c1d-b6b7d820cb6c","ios":"levelo://app?vid=2ba681b1-c2b3-4287-8c1d-b6b7d820cb6c"},"vehicle_type_id":"4","last_reported":1731240905,"current_range_meters":14000,"station_id":"ce4bhgh2rcd13ifvqfb0","pricing_plan_id":"cebpf4jnsgd1na2vs0mg"},{"bike_id":"48822364-7efb-4efd-945a-cea2ff571d1e","system_id":"levelo_inurba_marseille","lat":43.31716,"lon":5.3778,"is_reserved":false,"is_disabled":false,"rental_uris":{"android":"levelo://app?vid=48822364-7efb-4efd-945a-cea2ff571d1e","ios":"levelo://app?vid=48822364-7efb-4efd-945a-cea2ff571d1e"},"vehicle_type_id":"4","last_reported":1731240905,"current_range_meters":17600,"station_id":"ce4bgth2rcd13ifvqch0","pricing_plan_id":"cebpf4jnsgd1na2vs0mg"},{"bike_id":"7e7be88e-2387-4ac1-8672-4e3f2accb589","system_id":"levelo_inurba_marseille","lat":43.23192,"lon":5.35553,"is_reserved":false,"is_disabled":false,"rental_uris":{"android":"levelo://app?vid=7e7be88e-2387-4ac1-8672-4e3f2accb589","ios":"levelo://app?vid=7e7be88e-2387-4ac1-8672-4e3f2accb589"},"vehicle_type_id":"4","last_reported":1731240905,"current_range_meters":10000,"station_id":"ce4bhu92rcd13ifvqi70","pricing_plan_id":"cebpf4jnsgd1na2vs0mg"},{"bike_id":"e2f539b2-1c9a-4c53-8dc2-a41bd1a14b91","system_id":"levelo_inurba_marseille","lat":43.28269,"lon":5.35063,"is_reserved":false,"is_disabled":false,"rental_uris":{"android":"levelo://app?vid=e2f539b2-1c9a-4c53-8dc2-a41bd1a14b91","ios":"levelo://app?vid=e2f539b2-1c9a-4c53-8dc2-a41bd1a14b91"},"vehicle_type_id":"4","last_reported":1731240905,"current_range_meters":30000,"station_id":"ce4bhbp2rcd13ifvqerg","pricing_plan_id":"cebpf4jnsgd1na2vs0mg"},{"bike_id":"8f176852-51d8-4ea9-943f-c539a472ae88","system_id":"levelo_inurba_marseille","lat":43.2827,"lon":5.35064,"is_reserved":false,"is_disabled":false,"rental_uris":{"android":"levelo://app?vid=8f176852-51d8-4ea9-943f-c539a472ae88","ios":"levelo://app?vid=8f176852-51d8-4ea9-943f-c539a472ae88"},"vehicle_type_id":"4","last_reported":1731240905,"current_range_meters":18000,"station_id":"ce4bhbp2rcd13ifvqerg","pricing_plan_id":"cebpf4jnsgd1na2vs0mg"},{"bike_id":"c2bf881a-f020-4e0e-819d-ec6a7c5dac04","system_id":"levelo_inurba_marseille","lat":43.31665,"lon":5.37741,"is_reserved":false,"is_disabled":false,"rental_uris":{"android":"levelo://app?vid=c2bf881a-f020-4e0e-819d-ec6a7c5dac04","ios":"levelo://app?vid=c2bf881a-f020-4e0e-819d-ec6a7c5dac04"},"vehicle_type_id":"4","last_reported":1731240905,"current_range_meters":18800,"station_id":"ce4bgth2rcd13ifvqch0","pricing_plan_id":"cebpf4jnsgd1na2vs0mg"},{"bike_id":"6fa19e17-bdec-4054-9042-0b23d398250d","system_id":"levelo_inurba_marseille","lat":43.29225,"lon":5.36033,"is_reserved":false,"is_disabled":false,"rental_uris":{"android":"levelo://app?vid=6fa19e17-bdec-4054-9042-0b23d398250d","ios":"levelo://app?vid=6fa19e17-bdec-4054-9042-0b23d398250d"},"vehicle_type_id":"4","last_reported":1731240905,"current_range_meters":32000,"station_id":"ce4bhbh2rcd13ifvqeqg","pricing_plan_id":"cebpf4jnsgd1na2vs0mg"},{"bike_id":"5cc21f71-ae98-48bc-87d8-468c4da23c85","system_id":"levelo_inurba_marseille","lat":43.31693,"lon":5.37755,"is_reserved":false,"is_disabled":false,"rental_uris":{"android":"levelo://app?vid=5cc21f71-ae98-48bc-87d8-468c4da23c85","ios":"levelo://app?vid=5cc21f71-ae98-48bc-87d8-468c4da23c85"},"vehicle_type_id":"4","last_reported":1731240905,"current_range_meters":20800,"station_id":"ce4bgth2rcd13ifvqch0","pricing_plan_id":"cebpf4jnsgd1na2vs0mg"},{"bike_id":"6a382b3e-46a5-47d8-8f2a-79f38274ae1c","system_id":"levelo_inurba_marseille","lat":43.23966,"lon":5.36635,"is_reserved":false,"is_disabled":false,"rental_uris":{"android":"levelo://app?vid=6a382b3e-46a5-47d8-8f2a-79f38274ae1c","ios":"levelo://app?vid=6a382b3e-46a5-47d8-8f2a-79f38274ae1c"},"vehicle_type_id":"4","last_reported":1731240905,"current_range_meters":33200,"station_id":"ce4bhi12rcd13ifvqfp0","pricing_plan_id":"cebpf4jnsgd1na2vs0mg"},{"bike_id":"0d4284d5-6c2a-4ead-92fd-8d35fe9b1480","system_id":"levelo_inurba_marseille","lat":43.29224,"lon":5.36058,"is_reserved":false,"is_disabled":false,"rental_uris":{"android":"levelo://app?vid=0d4284d5-6c2a-4ead-92fd-8d35fe9b1480","ios":"levelo://app?vid=0d4284d5-6c2a-4ead-92fd-8d35fe9b1480"},"vehicle_type_id":"4","last_reported":1731240905,"current_range_meters":34800,"station_id":"ce4bhbh2rcd13ifvqeqg","pricing_plan_id":"cebpf4jnsgd1na2vs0mg"},{"bike_id":"e6970ce9-b289-47fa-8459-924af2fe66a3","system_id":"levelo_inurba_marseille","lat":43.23154,"lon":5.43703,"is_reserved":false,"is_disabled":false,"rental_uris":{"android":"levelo://app?vid=e6970ce9-b289-47fa-8459-924af2fe66a3","ios":"levelo://app?vid=e6970ce9-b289-47fa-8459-924af2fe66a3"},"vehicle_type_id":"4","last_reported":1731240905,"current_range_meters":22800,"station_id":"ce4bhmp2rcd13ifvqgog","pricing_plan_id":"cebpf4jnsgd1na2vs0mg"},{"bike_id":"3b66d3b6-cdcd-4d31-9366-8e6f1e8ca47a","system_id":"levelo_inurba_marseille","lat":43.3211,"lon":5.36773,"is_reserved":false,"is_disabled":false,"rental_uris":{"android":"levelo://app?vid=3b66d3b6-cdcd-4d31-9366-8e6f1e8ca47a","ios":"levelo://app?vid=3b66d3b6-cdcd-4d31-9366-8e6f1e8ca47a"},"vehicle_type_id":"4","last_reported":1731240905,"current_range_meters":33600,"station_id":"ce4bhrh2rcd13ifvqhug","pricing_plan_id":"cebpf4jnsgd1na2vs0mg"},{"bike_id":"b42c0d0c-e899-48c3-bc4e-0ea09d4bc70a","system_id":"levelo_inurba_marseille","lat":43.2319,"lon":5.39989,"is_reserved":false,"is_disabled":false,"rental_uris":{"android":"levelo://app?vid=b42c0d0c-e899-48c3-bc4e-0ea09d4bc70a","ios":"levelo://app?vid=b42c0d0c-e899-48c3-bc4e-0ea09d4bc70a"},"vehicle_type_id":"4","last_reported":1731240905,"current_range_meters":19200,"station_id":"ce4bhn12rcd13ifvqgqg","pricing_plan_id":"cebpf4jnsgd1na2vs0mg"},{"bike_id":"6c55c68c-8072-4a7a-8968-0f76e76b364b","system_id":"levelo_inurba_marseille","lat":43.28427,"lon":5.34985,"is_reserved":false,"is_disabled":false,"rental_uris":{"android":"levelo://app?vid=6c55c68c-8072-4a7a-8968-0f76e76b364b","ios":"levelo://app?vid=6c55c68c-8072-4a7a-8968-0f76e76b364b"},"vehicle_type_id":"4","last_reported":1731240905,"current_range_meters":36800,"station_id":"ce4bhbh2rcd13ifvqepg","pricing_plan_id":"cebpf4jnsgd1na2vs0mg"},{"bike_id":"3ec3550b-0b0a-423a-846d-c6e23f763e6c","system_id":"levelo_inurba_marseille","lat":43.231948,"lon":5.355848,"is_reserved":false,"is_disabled":false,"rental_uris":{"android":"levelo://app?vid=3ec3550b-0b0a-423a-846d-c6e23f763e6c","ios":"levelo://app?vid=3ec3550b-0b0a-423a-846d-c6e23f763e6c"},"vehicle_type_id":"4","last_reported":1731240905,"current_range_meters":38800,"station_id":"ce4bhu92rcd13ifvqi70","pricing_plan_id":"cebpf4jnsgd1na2vs0mg"},{"bike_id":"8606dd30-fd6e-4b79-9c73-acace12c2d0d","system_id":"levelo_inurba_marseille","lat":43.30448,"lon":5.36754,"is_reserved":false,"is_disabled":false,"rental_uris":{"android":"levelo://app?vid=8606dd30-fd6e-4b79-9c73-acace12c2d0d","ios":"levelo://app?vid=8606dd30-fd6e-4b79-9c73-acace12c2d0d"},"vehicle_type_id":"4","last_reported":1731240905,"current_range_meters":34800,"station_id":"","pricing_plan_id":"cebpf4jnsgd1na2vs0mg"},{"bike_id":"b0ca4af2-a5d4-4df3-bbff-48880d0c5875","system_id":"levelo_inurba_marseille","lat":43.23065,"lon":5.35487,"is_reserved":false,"is_disabled":false,"rental_uris":{"android":"levelo://app?vid=b0ca4af2-a5d4-4df3-bbff-48880d0c5875","ios":"levelo://app?vid=b0ca4af2-a5d4-4df3-bbff-48880d0c5875"},"vehicle_type_id":"4","last_reported":1731240905,"current_range_meters":34000,"station_id":"cpo3342slgdg3j2ifvpg","pricing_plan_id":"cebpf4jnsgd1na2vs0mg"},{"bike_id":"3e39b74c-b81c-44fa-9015-b450730db8ba","system_id":"levelo_inurba_marseille","lat":43.29325,"lon":5.40418,"is_reserved":false,"is_disabled":false,"rental_uris":{"android":"levelo://app?vid=3e39b74c-b81c-44fa-9015-b450730db8ba","ios":"levelo://app?vid=3e39b74c-b81c-44fa-9015-b450730db8ba"},"vehicle_type_id":"4","last_reported":1731240905,"current_range_meters":37600,"station_id":"ce4bh312rcd13ifvqdk0","pricing_plan_id":"cebpf4jnsgd1na2vs0mg"},{"bike_id":"f09fe9b8-c4a4-4ee6-bb4f-7429abbc053b","system_id":"levelo_inurba_marseille","lat":43.29192,"lon":5.35797,"is_reserved":false,"is_disabled":false,"rental_uris":{"android":"levelo://app?vid=f09fe9b8-c4a4-4ee6-bb4f-7429abbc053b","ios":"levelo://app?vid=f09fe9b8-c4a4-4ee6-bb4f-7429abbc053b"},"vehicle_type_id":"4","last_reported":1731240905,"current_range_meters":20400,"station_id":"ce4bhb12rcd13ifvqel0","pricing_plan_id":"cebpf4jnsgd1na2vs0mg"},{"bike_id":"02bcfd7c-6a8e-42d7-be69-fea230859e5c","system_id":"levelo_inurba_marseille","lat":43.23156,"lon":5.43703,"is_reserved":false,"is_disabled":false,"rental_uris":{"android":"levelo://app?vid=02bcfd7c-6a8e-42d7-be69-fea230859e5c","ios":"levelo://app?vid=02bcfd7c-6a8e-42d7-be69-fea230859e5c"},"vehicle_type_id":"4","last_reported":1731240905,"current_range_meters":10000,"station_id":"ce4bhmp2rcd13ifvqgog","pricing_plan_id":"cebpf4jnsgd1na2vs0mg"},{"bike_id":"26563081-f5dd-4613-b100-48c7e8867ffd","system_id":"levelo_inurba_marseille","lat":43.24391,"lon":5.37052,"is_reserved":false,"is_disabled":false,"rental_uris":{"android":"levelo://app?vid=26563081-f5dd-4613-b100-48c7e8867ffd","ios":"levelo://app?vid=26563081-f5dd-4613-b100-48c7e8867ffd"},"vehicle_type_id":"4","last_reported":1731240905,"current_range_meters":38800,"station_id":"ce4bhhh2rcd13ifvqfk0","pricing_plan_id":"cebpf4jnsgd1na2vs0mg"},{"bike_id":"9fe0a992-01e9-4753-b924-f3836644a6bd","system_id":"levelo_inurba_marseille","lat":43.26493,"lon":5.39549,"is_reserved":false,"is_disabled":false,"rental_uris":{"android":"levelo://app?vid=9fe0a992-01e9-4753-b924-f3836644a6bd","ios":"levelo://app?vid=9fe0a992-01e9-4753-b924-f3836644a6bd"},"vehicle_type_id":"4","last_reported":1731240905,"current_range_meters":26000,"station_id":"ce4bhi12rcd13ifvqfq0","pricing_plan_id":"cebpf4jnsgd1na2vs0mg"},{"bike_id":"16edd5e5-0497-4831-bb6b-d18eb7e92293","system_id":"levelo_inurba_marseille","lat":43.24812,"lon":5.37457,"is_reserved":false,"is_disabled":false,"rental_uris":{"android":"levelo://app?vid=16edd5e5-0497-4831-bb6b-d18eb7e92293","ios":"levelo://app?vid=16edd5e5-0497-4831-bb6b-d18eb7e92293"},"vehicle_type_id":"4","last_reported":1731240905,"current_range_meters":30000,"station_id":"ce4bhgh2rcd13ifvqfb0","pricing_plan_id":"cebpf4jnsgd1na2vs0mg"},{"bike_id":"df815577-1be6-4fee-8a6a-60a66c6b5aa3","system_id":"levelo_inurba_marseille","lat":43.23151,"lon":5.43713,"is_reserved":false,"is_disabled":false,"rental_uris":{"android":"levelo://app?vid=df815577-1be6-4fee-8a6a-60a66c6b5aa3","ios":"levelo://app?vid=df815577-1be6-4fee-8a6a-60a66c6b5aa3"},"vehicle_type_id":"4","last_reported":1731240905,"current_range_meters":2000,"station_id":"ce4bhmp2rcd13ifvqgog","pricing_plan_id":"cebpf4jnsgd1na2vs0mg"},{"bike_id":"7b41cb72-e5a7-4522-afc0-478f7da18d1a","system_id":"levelo_inurba_marseille","lat":43.23965,"lon":5.36631,"is_reserved":false,"is_disabled":false,"rental_uris":{"android":"levelo://app?vid=7b41cb72-e5a7-4522-afc0-478f7da18d1a","ios":"levelo://app?vid=7b41cb72-e5a7-4522-afc0-478f7da18d1a"},"vehicle_type_id":"4","last_reported":1731240905,"current_range_meters":33600,"station_id":"ce4bhi12rcd13ifvqfp0","pricing_plan_id":"cebpf4jnsgd1na2vs0mg"},{"bike_id":"07601670-eb7f-4f0e-b9f6-627fce47aada","system_id":"levelo_inurba_marseille","lat":43.23194,"lon":5.39987,"is_reserved":false,"is_disabled":false,"rental_uris":{"android":"levelo://app?vid=07601670-eb7f-4f0e-b9f6-627fce47aada","ios":"levelo://app?vid=07601670-eb7f-4f0e-b9f6-627fce47aada"},"vehicle_type_id":"4","last_reported":1731240905,"current_range_meters":36800,"station_id":"ce4bhn12rcd13ifvqgqg","pricing_plan_id":"cebpf4jnsgd1na2vs0mg"},{"bike_id":"1cb9b11b-ab7a-4ec7-aaf3-27cc692ef09b","system_id":"levelo_inurba_marseille","lat":43.27371,"lon":5.36262,"is_reserved":false,"is_disabled":false,"rental_uris":{"android":"levelo://app?vid=1cb9b11b-ab7a-4ec7-aaf3-27cc692ef09b","ios":"levelo://app?vid=1cb9b11b-ab7a-4ec7-aaf3-27cc692ef09b"},"vehicle_type_id":"4","last_reported":1731240905,"current_range_meters":19200,"station_id":"ce4bhbh2rcd13ifvqeo0","pricing_plan_id":"cebpf4jnsgd1na2vs0mg"},{"bike_id":"e9802a84-405e-4ad3-8d22-dbd83363f66a","system_id":"levelo_inurba_marseille","lat":43.280975,"lon":5.351961,"is_reserved":false,"is_disabled":false,"rental_uris":{"android":"levelo://app?vid=e9802a84-405e-4ad3-8d22-dbd83363f66a","ios":"levelo://app?vid=e9802a84-405e-4ad3-8d22-dbd83363f66a"},"vehicle_type_id":"4","last_reported":1731240905,"current_range_meters":23200,"station_id":"","pricing_plan_id":"cebpf4jnsgd1na2vs0mg"},{"bike_id":"60d1f72c-ee7a-4c46-b255-9afed313f66a","system_id":"levelo_inurba_marseille","lat":43.24074,"lon":5.37748,"is_reserved":false,"is_disabled":false,"rental_uris":{"android":"levelo://app?vid=60d1f72c-ee7a-4c46-b255-9afed313f66a","ios":"levelo://app?vid=60d1f72c-ee7a-4c46-b255-9afed313f66a"},"vehicle_type_id":"4","last_reported":1731240905,"current_range_meters":38800,"station_id":"ce4bhnp2rcd13ifvqgvg","pricing_plan_id":"cebpf4jnsgd1na2vs0mg"},{"bike_id":"3afe71be-4f71-4789-be9e-12150afa4010","system_id":"levelo_inurba_marseille","lat":43.22935,"lon":5.35371,"is_reserved":false,"is_disabled":false,"rental_uris":{"android":"levelo://app?vid=3afe71be-4f71-4789-be9e-12150afa4010","ios":"levelo://app?vid=3afe71be-4f71-4789-be9e-12150afa4010"},"vehicle_type_id":"4","last_reported":1731240905,"current_range_meters":39200,"station_id":"cpo3532slgdg3j2ikp40","pricing_plan_id":"cebpf4jnsgd1na2vs0mg"},{"bike_id":"cf7b1d25-e513-4b53-b794-cf324de6bb64","system_id":"levelo_inurba_marseille","lat":43.2603,"lon":5.37548,"is_reserved":false,"is_disabled":false,"rental_uris":{"android":"levelo://app?vid=cf7b1d25-e513-4b53-b794-cf324de6bb64","ios":"levelo://app?vid=cf7b1d25-e513-4b53-b794-cf324de6bb64"},"vehicle_type_id":"4","last_reported":1731240905,"current_range_meters":32800,"station_id":"ce4bhgh2rcd13ifvqfa0","pricing_plan_id":"cebpf4jnsgd1na2vs0mg"},{"bike_id":"a672c2ef-c813-4e06-b21a-38d83e20314d","system_id":"levelo_inurba_marseille","lat":43.28417,"lon":5.34992,"is_reserved":false,"is_disabled":false,"rental_uris":{"android":"levelo://app?vid=a672c2ef-c813-4e06-b21a-38d83e20314d","ios":"levelo://app?vid=a672c2ef-c813-4e06-b21a-38d83e20314d"},"vehicle_type_id":"4","last_reported":1731240905,"current_range_meters":22000,"station_id":"ce4bhbh2rcd13ifvqepg","pricing_plan_id":"cebpf4jnsgd1na2vs0mg"},{"bike_id":"78188c58-680a-4bb4-917a-afe39a18c51f","system_id":"levelo_inurba_marseille","lat":43.22928,"lon":5.35374,"is_reserved":false,"is_disabled":false,"rental_uris":{"android":"levelo://app?vid=78188c58-680a-4bb4-917a-afe39a18c51f","ios":"levelo://app?vid=78188c58-680a-4bb4-917a-afe39a18c51f"},"vehicle_type_id":"4","last_reported":1731240905,"current_range_meters":12000,"station_id":"cpo3532slgdg3j2ikp40","pricing_plan_id":"cebpf4jnsgd1na2vs0mg"},{"bike_id":"e6878fc2-0be2-48f6-a0c2-a9de9bef592a","system_id":"levelo_inurba_marseille","lat":43.27812,"lon":5.40703,"is_reserved":false,"is_disabled":false,"rental_uris":{"android":"levelo://app?vid=e6878fc2-0be2-48f6-a0c2-a9de9bef592a","ios":"levelo://app?vid=e6878fc2-0be2-48f6-a0c2-a9de9bef592a"},"vehicle_type_id":"4","last_reported":1731240905,"current_range_meters":38000,"station_id":"ce4bhnh2rcd13ifvqgtg","pricing_plan_id":"cebpf4jnsgd1na2vs0mg"},{"bike_id":"121f8611-9883-4cfb-9e9d-56f8a445f52f","system_id":"levelo_inurba_marseille","lat":43.29602,"lon":5.38098,"is_reserved":false,"is_disabled":false,"rental_uris":{"android":"levelo://app?vid=121f8611-9883-4cfb-9e9d-56f8a445f52f","ios":"levelo://app?vid=121f8611-9883-4cfb-9e9d-56f8a445f52f"},"vehicle_type_id":"4","last_reported":1731240905,"current_range_meters":16800,"station_id":"ce4bgl12rcd13ifvqbo0","pricing_plan_id":"cebpf4jnsgd1na2vs0mg"},{"bike_id":"ff35fdff-13e5-4a86-81fe-98f2eb3dd6c1","system_id":"levelo_inurba_marseille","lat":43.27811,"lon":5.40711,"is_reserved":false,"is_disabled":false,"rental_uris":{"android":"levelo://app?vid=ff35fdff-13e5-4a86-81fe-98f2eb3dd6c1","ios":"levelo://app?vid=ff35fdff-13e5-4a86-81fe-98f2eb3dd6c1"},"vehicle_type_id":"4","last_reported":1731240905,"current_range_meters":25600,"station_id":"ce4bhnh2rcd13ifvqgtg","pricing_plan_id":"cebpf4jnsgd1na2vs0mg"},{"bike_id":"0f034e7e-0ef1-4a96-a627-9da43bb57f60","system_id":"levelo_inurba_marseille","lat":43.2439,"lon":5.37061,"is_reserved":false,"is_disabled":false,"rental_uris":{"android":"levelo://app?vid=0f034e7e-0ef1-4a96-a627-9da43bb57f60","ios":"levelo://app?vid=0f034e7e-0ef1-4a96-a627-9da43bb57f60"},"vehicle_type_id":"4","last_reported":1731240905,"current_range_meters":6800,"station_id":"ce4bhhh2rcd13ifvqfk0","pricing_plan_id":"cebpf4jnsgd1na2vs0mg"},{"bike_id":"ef017b49-3349-4197-a933-35d5ad85fdf2","system_id":"levelo_inurba_marseille","lat":43.255,"lon":5.37651,"is_reserved":false,"is_disabled":false,"rental_uris":{"android":"levelo://app?vid=ef017b49-3349-4197-a933-35d5ad85fdf2","ios":"levelo://app?vid=ef017b49-3349-4197-a933-35d5ad85fdf2"},"vehicle_type_id":"4","last_reported":1731240905,"current_range_meters":22400,"station_id":"ce4bhh12rcd13ifvqff0","pricing_plan_id":"cebpf4jnsgd1na2vs0mg"},{"bike_id":"92d10030-6bbf-4b13-8747-6eaf1d5803ed","system_id":"levelo_inurba_marseille","lat":43.24083,"lon":5.37741,"is_reserved":false,"is_disabled":false,"rental_uris":{"android":"levelo://app?vid=92d10030-6bbf-4b13-8747-6eaf1d5803ed","ios":"levelo://app?vid=92d10030-6bbf-4b13-8747-6eaf1d5803ed"},"vehicle_type_id":"4","last_reported":1731240905,"current_range_meters":20000,"station_id":"ce4bhnp2rcd13ifvqgvg","pricing_plan_id":"cebpf4jnsgd1na2vs0mg"},{"bike_id":"9fc31810-b0cb-4a56-8050-48a48075c363","system_id":"levelo_inurba_marseille","lat":43.23196,"lon":5.35544,"is_reserved":false,"is_disabled":false,"rental_uris":{"android":"levelo://app?vid=9fc31810-b0cb-4a56-8050-48a48075c363","ios":"levelo://app?vid=9fc31810-b0cb-4a56-8050-48a48075c363"},"vehicle_type_id":"4","last_reported":1731240905,"current_range_meters":27200,"station_id":"ce4bhu92rcd13ifvqi70","pricing_plan_id":"cebpf4jnsgd1na2vs0mg"},{"bike_id":"f9f91076-2111-4779-9ea7-4b689454123e","system_id":"levelo_inurba_marseille","lat":43.33024,"lon":5.3904,"is_reserved":false,"is_disabled":false,"rental_uris":{"android":"levelo://app?vid=f9f91076-2111-4779-9ea7-4b689454123e","ios":"levelo://app?vid=f9f91076-2111-4779-9ea7-4b689454123e"},"vehicle_type_id":"4","last_reported":1731240905,"current_range_meters":38800,"station_id":"ce4bhr92rcd13ifvqhrg","pricing_plan_id":"cebpf4jnsgd1na2vs0mg"},{"bike_id":"de92ef8d-d5f8-497c-8ba6-2cbf4ce79ae3","system_id":"levelo_inurba_marseille","lat":43.31284,"lon":5.40155,"is_reserved":false,"is_disabled":false,"rental_uris":{"android":"levelo://app?vid=de92ef8d-d5f8-497c-8ba6-2cbf4ce79ae3","ios":"levelo://app?vid=de92ef8d-d5f8-497c-8ba6-2cbf4ce79ae3"},"vehicle_type_id":"4","last_reported":1731240905,"current_range_meters":37600,"station_id":"ce4bh092rcd13ifvqd30","pricing_plan_id":"cebpf4jnsgd1na2vs0mg"},{"bike_id":"884af005-1c9c-438b-b950-9e7eb819ba2a","system_id":"levelo_inurba_marseille","lat":43.24172,"lon":5.36395,"is_reserved":false,"is_disabled":false,"rental_uris":{"android":"levelo://app?vid=884af005-1c9c-438b-b950-9e7eb819ba2a","ios":"levelo://app?vid=884af005-1c9c-438b-b950-9e7eb819ba2a"},"vehicle_type_id":"4","last_reported":1731240905,"current_range_meters":17600,"station_id":"cpo36qri1sfpv3e86is0","pricing_plan_id":"cebpf4jnsgd1na2vs0mg"},{"bike_id":"f6309a84-763b-4662-8d6f-c6b810c1afbb","system_id":"levelo_inurba_marseille","lat":43.254883,"lon":5.376507,"is_reserved":false,"is_disabled":false,"rental_uris":{"android":"levelo://app?vid=f6309a84-763b-4662-8d6f-c6b810c1afbb","ios":"levelo://app?vid=f6309a84-763b-4662-8d6f-c6b810c1afbb"},"vehicle_type_id":"4","last_reported":1731240905,"current_range_meters":22000,"station_id":"ce4bhh12rcd13ifvqff0","pricing_plan_id":"cebpf4jnsgd1na2vs0mg"},{"bike_id":"9bf507bd-3fde-4821-81dd-275b2a4b4e9a","system_id":"levelo_inurba_marseille","lat":43.286163,"lon":5.351075,"is_reserved":false,"is_disabled":false,"rental_uris":{"android":"levelo://app?vid=9bf507bd-3fde-4821-81dd-275b2a4b4e9a","ios":"levelo://app?vid=9bf507bd-3fde-4821-81dd-275b2a4b4e9a"},"vehicle_type_id":"4","last_reported":1731240905,"current_range_meters":10000,"station_id":"ce4bhch2rcd13ifvqeug","pricing_plan_id":"cebpf4jnsgd1na2vs0mg"},{"bike_id":"b066a3ba-8b24-40cf-b799-ebebf0c629b0","system_id":"levelo_inurba_marseille","lat":43.32338,"lon":5.40624,"is_reserved":false,"is_disabled":false,"rental_uris":{"android":"levelo://app?vid=b066a3ba-8b24-40cf-b799-ebebf0c629b0","ios":"levelo://app?vid=b066a3ba-8b24-40cf-b799-ebebf0c629b0"},"vehicle_type_id":"4","last_reported":1731240905,"current_range_meters":37600,"station_id":"ce4bhq92rcd13ifvqhjg","pricing_plan_id":"cebpf4jnsgd1na2vs0mg"},{"bike_id":"8a8655c3-0446-49f4-b251-2961912bcbfb","system_id":"levelo_inurba_marseille","lat":43.22935,"lon":5.35379,"is_reserved":false,"is_disabled":false,"rental_uris":{"android":"levelo://app?vid=8a8655c3-0446-49f4-b251-2961912bcbfb","ios":"levelo://app?vid=8a8655c3-0446-49f4-b251-2961912bcbfb"},"vehicle_type_id":"4","last_reported":1731240905,"current_range_meters":33200,"station_id":"cpo3532slgdg3j2ikp40","pricing_plan_id":"cebpf4jnsgd1na2vs0mg"},{"bike_id":"9eef85da-07fa-4b97-823a-a71425c3f9f0","system_id":"levelo_inurba_marseille","lat":43.27955,"lon":5.4103,"is_reserved":false,"is_disabled":false,"rental_uris":{"android":"levelo://app?vid=9eef85da-07fa-4b97-823a-a71425c3f9f0","ios":"levelo://app?vid=9eef85da-07fa-4b97-823a-a71425c3f9f0"},"vehicle_type_id":"4","last_reported":1731240905,"current_range_meters":13600,"station_id":"ce4bhnp2rcd13ifvqh0g","pricing_plan_id":"cebpf4jnsgd1na2vs0mg"},{"bike_id":"6e8e2a29-f28b-4d99-8b71-88f5f9d46bc7","system_id":"levelo_inurba_marseille","lat":43.22928,"lon":5.35368,"is_reserved":false,"is_disabled":false,"rental_uris":{"android":"levelo://app?vid=6e8e2a29-f28b-4d99-8b71-88f5f9d46bc7","ios":"levelo://app?vid=6e8e2a29-f28b-4d99-8b71-88f5f9d46bc7"},"vehicle_type_id":"4","last_reported":1731240905,"current_range_meters":16400,"station_id":"cpo3532slgdg3j2ikp40","pricing_plan_id":"cebpf4jnsgd1na2vs0mg"},