{"last_updated":1759152136,"ttl":60,"version":"2.2","data":{"bikes":[{"bike_id":"850a665f-9557-4d8e-aada-587d52799326","system_id":"levelo_inurba_marseille","lat":43.3205,"lon":5.41537,"is_reserved":false,"is_disabled":false,"rental_uris":{"android":"levelo://app?vid=850a665f-9557-4d8e-aada-587d52799326","ios":"levelo://app?vid=850a665f-9557-4d8e-aada-587d52799326"},"vehicle_type_id":"4","last_reported":1759152136,"current_range_meters":2800,"station_id":"ce4bhq92rcd13ifvqhkg","pricing_plan_id":"cebpf4jnsgd1na2vs0mg"},{"bike_id":"01bf55f2-4ac6-46f6-8504-3267bf31e1a6","system_id":"levelo_inurba_marseille","lat":43.2973,"lon":5.381787,"is_reserved":false,"is_disabled":false,"rental_uris":{"android":"levelo://app?vid=01bf55f2-4ac6-46f6-8504-3267bf31e1a6","ios":"levelo://app?vid=01bf55f2-4ac6-46f6-8504-3267bf31e1a6"},"vehicle_type_id":"4","last_reported":1759152136,"current_range_meters":2800,"station_id":"","pricing_plan_id":"cebpf4jnsgd1na2vs0mg"},{"bike_id":"dcf56f09-9948-4099-bec3-c96b083f5834","system_id":"levelo_inurba_marseille","lat":43.2315,"lon":5.43694,"is_reserved":false,"is_disabled":false,"rental_uris":{"android":"levelo://app?vid=dcf56f09-9948-4099-bec3-c96b083f5834","ios":"levelo://app?vid=dcf56f09-9948-4099-bec3-c96b083f5834"},"vehicle_type_id":"4","last_reported":1759152136,"current_range_meters":2800,"station_id":"ce4bhmp2rcd13ifvqgog","pricing_plan_id":"cebpf4jnsgd1na2vs0mg"},{"bike_id":"181e8e4d-0b63-4678-b2d8-34cb1f4298d7","system_id":"levelo_inurba_marseille","lat":43.25501,"lon":5.37652,"is_reserved":false,"is_disabled":false,"rental_uris":{"android":"levelo://app?vid=181e8e4d-0b63-4678-b2d8-34cb1f4298d7","ios":"levelo://app?vid=181e8e4d-0b63-4678-b2d8-34cb1f4298d7"},"vehicle_type_id":"4","last_reported":1759152136,"current_range_meters":2800,"station_id":"ce4bhh12rcd13ifvqff0","pricing_plan_id":"cebpf4jnsgd1na2vs0mg"},{"bike_id":"bff61d8d-a3ed-47e8-a908-144b57254a2e","system_id":"levelo_inurba_marseille","lat":43.266282,"lon":5.381298,"is_reserved":false,"is_disabled":false,"rental_uris":{"android":"levelo://app?vid=bff61d8d-a3ed-47e8-a908-144b57254a2e","ios":"levelo://app?vid=bff61d8d-a3ed-47e8-a908-144b57254a2e"},"vehicle_type_id":"4","last_reported":1759152136,"current_range_meters":3200,"station_id":"","pricing_plan_id":"cebpf4jnsgd1na2vs0mg"},{"bike_id":"03b3dc36-e0bc-4b1e-ae53-a0e0cf805916","system_id":"levelo_inurba_marseille","lat":43.2885,"lon":5.3931,"is_reserved":false,"is_disabled":false,"rental_uris":{"android":"levelo://app?vid=03b3dc36-e0bc-4b1e-ae53-a0e0cf805916","ios":"levelo://app?vid=03b3dc36-e0bc-4b1e-ae53-a0e0cf805916"},"vehicle_type_id":"4","last_reported":1759152136,"current_range_meters":3200,"station_id":"ce4bh2p2rcd13ifvqdi0","pricing_plan_id":"cebpf4jnsgd1na2vs0mg"},{"bike_id":"934ea1ec-b7f6-49a1-9efa-287317d4eb22","system_id":"levelo_inurba_marseille","lat":43.29048,"lon":5.35914,"is_reserved":false,"is_disabled":false,"rental_uris":{"android":"levelo://app?vid=934ea1ec-b7f6-49a1-9efa-287317d4eb22","ios":"levelo://app?vid=934ea1ec-b7f6-49a1-9efa-287317d4eb22"},"vehicle_type_id":"4","last_reported":1759152136,"current_range_meters":3600,"station_id":"","pricing_plan_id":"cebpf4jnsgd1na2vs0mg"},{"bike_id":"8bca3482-a153-4ba2-bde8-e385dd63bb76","system_id":"levelo_inurba_marseille","lat":43.29896,"lon":5.43664,"is_reserved":false,"is_disabled":false,"rental_uris":{"android":"levelo://app?vid=8bca3482-a153-4ba2-bde8-e385dd63bb76","ios":"levelo://app?vid=8bca3482-a153-4ba2-bde8-e385dd63bb76"},"vehicle_type_id":"4","last_reported":1759152136,"current_range_meters":3600,"station_id":"ce4bhpp2rcd13ifvqhfg","pricing_plan_id":"cebpf4jnsgd1na2vs0mg"},{"bike_id":"b34614a0-3989-4007-a327-8fb82764f458","system_id":"levelo_inurba_marseille","lat":43.31493,"lon":5.3729,"is_reserved":false,"is_disabled":false,"rental_uris":{"android":"levelo://app?vid=b34614a0-3989-4007-a327-8fb82764f458","ios":"levelo://app?vid=b34614a0-3989-4007-a327-8fb82764f458"},"vehicle_type_id":"4","last_reported":1759152136,"current_range_meters":4000,"station_id":"ce4bgt12rcd13ifvqcd0","pricing_plan_id":"cebpf4jnsgd1na2vs0mg"},{"bike_id":"bdd6566a-56fd-40d4-8110-b23337e01aa2","system_id":"levelo_inurba_marseille","lat":43.26569,"lon":5.40317,"is_reserved":false,"is_disabled":false,"rental_uris":{"android":"levelo://app?vid=bdd6566a-56fd-40d4-8110-b23337e01aa2","ios":"levelo://app?vid=bdd6566a-56fd-40d4-8110-b23337e01aa2"},"vehicle_type_id":"4","last_reported":1759152136,"current_range_meters":4000,"station_id":"ce4bhmp2rcd13ifvqgng","pricing_plan_id":"cebpf4jnsgd1na2vs0mg"},{"bike_id":"3450b471-c033-46f7-a53d-eb48bc1c365a","system_id":"levelo_inurba_marseille","lat":43.30549,"lon":5.38426,"is_reserved":false,"is_disabled":false,"rental_uris":{"android":"levelo://app?vid=3450b471-c033-46f7-a53d-eb48bc1c365a","ios":"levelo://app?vid=3450b471-c033-46f7-a53d-eb48bc1c365a"},"vehicle_type_id":"4","last_reported":1759152136,"current_range_meters":6400,"station_id":"ce4bgg92rcd13ifvqb30","pricing_plan_id":"cebpf4jnsgd1na2vs0mg"},{"bike_id":"9d7b5bdd-36d1-46f0-a314-f518df4765c3","system_id":"levelo_inurba_marseille","lat":43.286409,"lon":5.399518,"is_reserved":false,"is_disabled":false,"rental_uris":{"android":"levelo://app?vid=9d7b5bdd-36d1-46f0-a314-f518df4765c3","ios":"levelo://app?vid=9d7b5bdd-36d1-46f0-a314-f518df4765c3"},"vehicle_type_id":"4","last_reported":1759152136,"current_range_meters":3600,"station_id":"ce4bho92rcd13ifvqh3g","pricing_plan_id":"cebpf4jnsgd1na2vs0mg"},{"bike_id":"15feb32b-5356-4bf4-be77-db06c7b095fb","system_id":"levelo_inurba_marseille","lat":43.24809,"lon":5.37458,"is_reserved":false,"is_disabled":false,"rental_uris":{"android":"levelo://app?vid=15feb32b-5356-4bf4-be77-db06c7b095fb","ios":"levelo://app?vid=15feb32b-5356-4bf4-be77-db06c7b095fb"},"vehicle_type_id":"4","last_reported":1759152136,"current_range_meters":4400,"station_id":"ce4bhgh2rcd13ifvqfb0","pricing_plan_id":"cebpf4jnsgd1na2vs0mg"},{"bike_id":"dcd1e255-4bbc-44c0-873e-ff7b6821d66f","system_id":"levelo_inurba_marseille","lat":43.29284,"lon":5.3685,"is_reserved":false,"is_disabled":false,"rental_uris":{"android":"levelo://app?vid=dcd1e255-4bbc-44c0-873e-ff7b6821d66f","ios":"levelo://app?vid=dcd1e255-4bbc-44c0-873e-ff7b6821d66f"},"vehicle_type_id":"4","last_reported":1759152136,"current_range_meters":4400,"station_id":"ce4bhbp2rcd13ifvqesg","pricing_plan_id":"cebpf4jnsgd1na2vs0mg"},{"bike_id":"6a30fb30-222d-4a8c-aed7-5f7e42220ff3","system_id":"levelo_inurba_marseille","lat":43.30164,"lon":5.37419,"is_reserved":false,"is_disabled":false,"rental_uris":{"android":"levelo://app?vid=6a30fb30-222d-4a8c-aed7-5f7e42220ff3","ios":"levelo://app?vid=6a30fb30-222d-4a8c-aed7-5f7e42220ff3"},"vehicle_type_id":"4","last_reported":1759152136,"current_range_meters":4800,"station_id":"ce4bgs92rcd13ifvqcc0","pricing_plan_id":"cebpf4jnsgd1na2vs0mg"},{"bike_id":"1a5615d2-7cae-4f6a-98b2-6537312ef114","system_id":"levelo_inurba_marseille","lat":43.30533,"lon":5.36554,"is_reserved":false,"is_disabled":false,"rental_uris":{"android":"levelo://app?vid=1a5615d2-7cae-4f6a-98b2-6537312ef114","ios":"levelo://app?vid=1a5615d2-7cae-4f6a-98b2-6537312ef114"},"vehicle_type_id":"4","last_reported":1759152136,"current_range_meters":5600,"station_id":"ce4bgs12rcd13ifvqcag","pricing_plan_id":"cebpf4jnsgd1na2vs0mg"},{"bike_id":"7cdd6f40-65dc-4b21-8cc4-b8f71f7c9afb","system_id":"levelo_inurba_marseille","lat":43.21195,"lon":5.35076,"is_reserved":false,"is_disabled":false,"rental_uris":{"android":"levelo://app?vid=7cdd6f40-65dc-4b21-8cc4-b8f71f7c9afb","ios":"levelo://app?vid=7cdd6f40-65dc-4b21-8cc4-b8f71f7c9afb"},"vehicle_type_id":"4","last_reported":1759152136,"current_range_meters":5600,"station_id":"st_cvj6sg6p6f1abm77japg","pricing_plan_id":"cebpf4jnsgd1na2vs0mg"},{"bike_id":"d20f760c-df4a-4973-9aa8-da983df97c2c","system_id":"levelo_inurba_marseille","lat":43.2417,"lon":5.36405,"is_reserved":false,"is_disabled":false,"rental_uris":{"android":"levelo://app?vid=d20f760c-df4a-4973-9aa8-da983df97c2c","ios":"levelo://app?vid=d20f760c-df4a-4973-9aa8-da983df97c2c"},"vehicle_type_id":"4","last_reported":1759152136,"current_range_meters":5600,"station_id":"cpo36qri1sfpv3e86is0","pricing_plan_id":"cebpf4jnsgd1na2vs0mg"},{"bike_id":"6e8fef26-9cbc-40f7-921f-fd2217ce0617","system_id":"levelo_inurba_marseille","lat":43.29101,"lon":5.38147,"is_reserved":false,"is_disabled":false,"rental_uris":{"android":"levelo://app?vid=6e8fef26-9cbc-40f7-921f-fd2217ce0617","ios":"levelo://app?vid=6e8fef26-9cbc-40f7-921f-fd2217ce0617"},"vehicle_type_id":"4","last_reported":1759152136,"current_range_meters":4800,"station_id":"ce4bh512rcd13ifvqe2g","pricing_plan_id":"cebpf4jnsgd1na2vs0mg"},{"bike_id":"1c196d29-30a2-4002-8183-850a368f5e9c","system_id":"levelo_inurba_marseille","lat":43.27562,"lon":5.38413,"is_reserved":false,"is_disabled":false,"rental_uris":{"android":"levelo://app?vid=1c196d29-30a2-4002-8183-850a368f5e9c","ios":"levelo://app?vid=1c196d29-30a2-4002-8183-850a368f5e9c"},"vehicle_type_id":"4","last_reported":1759152136,"current_range_meters":5600,"station_id":"ce4bhh92rcd13ifvqfi0","pricing_plan_id":"cebpf4jnsgd1na2vs0mg"},{"bike_id":"41d7fe6d-9aeb-4287-8009-c31094f4cd05","system_id":"levelo_inurba_marseille","lat":43.2707,"lon":5.42276,"is_reserved":false,"is_disabled":false,"rental_uris":{"android":"levelo://app?vid=41d7fe6d-9aeb-4287-8009-c31094f4cd05","ios":"levelo://app?vid=41d7fe6d-9aeb-4287-8009-c31094f4cd05"},"vehicle_type_id":"4","last_reported":1759152136,"current_range_meters":5600,"station_id":"ce4bhk92rcd13ifvqgb0","pricing_plan_id":"cebpf4jnsgd1na2vs0mg"},{"bike_id":"846b9ad1-a37c-4e96-83a1-cfe56d80f0d2","system_id":"levelo_inurba_marseille","lat":43.26281,"lon":5.39849,"is_reserved":false,"is_disabled":false,"rental_uris":{"android":"levelo://app?vid=846b9ad1-a37c-4e96-83a1-cfe56d80f0d2","ios":"levelo://app?vid=846b9ad1-a37c-4e96-83a1-cfe56d80f0d2"},"vehicle_type_id":"4","last_reported":1759152136,"current_range_meters":5600,"station_id":"","pricing_plan_id":"cebpf4jnsgd1na2vs0mg"},{"bike_id":"26172944-106b-4b4e-9e3c-562a87d00a0c","system_id":"levelo_inurba_marseille","lat":43.290321,"lon":5.376542,"is_reserved":false,"is_disabled":false,"rental_uris":{"android":"levelo://app?vid=26172944-106b-4b4e-9e3c-562a87d00a0c","ios":"levelo://app?vid=26172944-106b-4b4e-9e3c-562a87d00a0c"},"vehicle_type_id":"4","last_reported":1759152136,"current_range_meters":5600,"station_id":"","pricing_plan_id":"cebpf4jnsgd1na2vs0mg"},{"bike_id":"35e12f99-764b-465d-b30e-4afef271db5b","system_id":"levelo_inurba_marseille","lat":43.29191,"lon":5.39315,"is_reserved":false,"is_disabled":false,"rental_uris":{"android":"levelo://app?vid=35e12f99-764b-465d-b30e-4afef271db5b","ios":"levelo://app?vid=35e12f99-764b-465d-b30e-4afef271db5b"},"vehicle_type_id":"4","last_reported":1759152136,"current_range_meters":5600,"station_id":"ce4bh192rcd13ifvqdd0","pricing_plan_id":"cebpf4jnsgd1na2vs0mg"},{"bike_id":"2fa51b80-bf8d-47be-a690-42b1756dc06a","system_id":"levelo_inurba_marseille","lat":43.274971,"lon":5.424501,"is_reserved":false,"is_disabled":false,"rental_uris":{"android":"levelo://app?vid=2fa51b80-bf8d-47be-a690-42b1756dc06a","ios":"levelo://app?vid=2fa51b80-bf8d-47be-a690-42b1756dc06a"},"vehicle_type_id":"4","last_reported":1759152136,"current_range_meters":5600,"station_id":"ce4bhn92rcd13ifvqgrg","pricing_plan_id":"cebpf4jnsgd1na2vs0mg"},{"bike_id":"1d988d48-4abb-4636-977c-34358db2fd33","system_id":"levelo_inurba_marseille","lat":43.30902,"lon":5.36853,"is_reserved":false,"is_disabled":false,"rental_uris":{"android":"levelo://app?vid=1d988d48-4abb-4636-977c-34358db2fd33","ios":"levelo://app?vid=1d988d48-4abb-4636-977c-34358db2fd33"},"vehicle_type_id":"4","last_reported":1759152136,"current_range_meters":6400,"station_id":"","pricing_plan_id":"cebpf4jnsgd1na2vs0mg"},{"bike_id":"6cb10c1b-9696-40f1-b8d1-2ba974a155c5","system_id":"levelo_inurba_marseille","lat":43.2917,"lon":5.37158,"is_reserved":false,"is_disabled":false,"rental_uris":{"android":"levelo://app?vid=6cb10c1b-9696-40f1-b8d1-2ba974a155c5","ios":"levelo://app?vid=6cb10c1b-9696-40f1-b8d1-2ba974a155c5"},"vehicle_type_id":"4","last_reported":1759152136,"current_range_meters":6000,"station_id":"ce4bha92rcd13ifvqeh0","pricing_plan_id":"cebpf4jnsgd1na2vs0mg"},{"bike_id":"697470c7-1e7d-47fa-9bf3-69454528a61d","system_id":"levelo_inurba_marseille","lat":43.30551,"lon":5.36719,"is_reserved":false,"is_disabled":false,"rental_uris":{"android":"levelo://app?vid=697470c7-1e7d-47fa-9bf3-69454528a61d","ios":"levelo://app?vid=697470c7-1e7d-47fa-9bf3-69454528a61d"},"vehicle_type_id":"4","last_reported":1759152136,"current_range_meters":6400,"station_id":"ce4bgrp2rcd13ifvqc9g","pricing_plan_id":"cebpf4jnsgd1na2vs0mg"},{"bike_id":"f5e6cbff-1444-43c6-835c-303354ed82ba","system_id":"levelo_inurba_marseille","lat":43.33729,"lon":5.39182,"is_reserved":false,"is_disabled":false,"rental_uris":{"android":"levelo://app?vid=f5e6cbff-1444-43c6-835c-303354ed82ba","ios":"levelo://app?vid=f5e6cbff-1444-43c6-835c-303354ed82ba"},"vehicle_type_id":"4","last_reported":1759152136,"current_range_meters":7200,"station_id":"ce4bhr92rcd13ifvqhsg","pricing_plan_id":"cebpf4jnsgd1na2vs0mg"},{"bike_id":"541ba6c7-e743-4679-9394-be2b808cf5a3","system_id":"levelo_inurba_marseille","lat":43.25582,"lon":5.38233,"is_reserved":false,"is_disabled":false,"rental_uris":{"android":"levelo://app?vid=541ba6c7-e743-4679-9394-be2b808cf5a3","ios":"levelo://app?vid=541ba6c7-e743-4679-9394-be2b808cf5a3"},"vehicle_type_id":"4","last_reported":1759152136,"current_range_meters":7200,"station_id":"ce4bhih2rcd13ifvqfs0","pricing_plan_id":"cebpf4jnsgd1na2vs0mg"},{"bike_id":"5d087a60-134c-4df2-8aab-88bbf6ad4e1a","system_id":"levelo_inurba_marseille","lat":43.23162,"lon":5.43725,"is_reserved":false,"is_disabled":false,"rental_uris":{"android":"levelo://app?vid=5d087a60-134c-4df2-8aab-88bbf6ad4e1a","ios":"levelo://app?vid=5d087a60-134c-4df2-8aab-88bbf6ad4e1a"},"vehicle_type_id":"4","last_reported":1759152136,"current_range_meters":7200,"station_id":"ce4bhmp2rcd13ifvqgog","pricing_plan_id":"cebpf4jnsgd1na2vs0mg"},{"bike_id":"d16f46f5-3d43-4933-b088-bc397093924a","system_id":"levelo_inurba_marseille","lat":43.29855,"lon":5.3628,"is_reserved":false,"is_disabled":false,"rental_uris":{"android":"levelo://app?vid=d16f46f5-3d43-4933-b088-bc397093924a","ios":"levelo://app?vid=d16f46f5-3d43-4933-b088-bc397093924a"},"vehicle_type_id":"4","last_reported":1759152136,"current_range_meters":7200,"station_id":"ce4bgpp2rcd13ifvqc3g","pricing_plan_id":"cebpf4jnsgd1na2vs0mg"},{"bike_id":"bc85c2b7-fb13-477a-bbd7-01f47d27e6a2","system_id":"levelo_inurba_marseille","lat":43.23196,"lon":5.3555,"is_reserved":false,"is_disabled":false,"rental_uris":{"android":"levelo://app?vid=bc85c2b7-fb13-477a-bbd7-01f47d27e6a2","ios":"levelo://app?vid=bc85c2b7-fb13-477a-bbd7-01f47d27e6a2"},"vehicle_type_id":"4","last_reported":1759152136,"current_range_meters":8000,"station_id":"ce4bhu92rcd13ifvqi70","pricing_plan_id":"cebpf4jnsgd1na2vs0mg"},{"bike_id":"cd2ba454-69c3-4dc7-8275-740abe4f97f8","system_id":"levelo_inurba_marseille","lat":43.2737,"lon":5.36255,"is_reserved":false,"is_disabled":false,"rental_uris":{"android":"levelo://app?vid=cd2ba454-69c3-4dc7-8275-740abe4f97f8","ios":"levelo://app?vid=cd2ba454-69c3-4dc7-8275-740abe4f97f8"},"vehicle_type_id":"4","last_reported":1759152136,"current_range_meters":7200,"station_id":"ce4bhbh2rcd13ifvqeo0","pricing_plan_id":"cebpf4jnsgd1na2vs0mg"},{"bike_id":"0ebba2fa-062f-4239-a327-ce776c3a5f95","system_id":"levelo_inurba_marseille","lat":43.24401,"lon":5.37062,"is_reserved":false,"is_disabled":false,"rental_uris":{"android":"levelo://app?vid=0ebba2fa-062f-4239-a327-ce776c3a5f95","ios":"levelo://app?vid=0ebba2fa-062f-4239-a327-ce776c3a5f95"},"vehicle_type_id":"4","last_reported":1759152136,"current_range_meters":8000,"station_id":"ce4bhhh2rcd13ifvqfk0","pricing_plan_id":"cebpf4jnsgd1na2vs0mg"},{"bike_id":"c9916796-5f07-4d22-aceb-87882fb08ac5","system_id":"levelo_inurba_marseille","lat":43.30601,"lon":5.3656,"is_reserved":false,"is_disabled":false,"rental_uris":{"android":"levelo://app?vid=c9916796-5f07-4d22-aceb-87882fb08ac5","ios":"levelo://app?vid=c9916796-5f07-4d22-aceb-87882fb08ac5"},"vehicle_type_id":"4","last_reported":1759152136,"current_range_meters":8000,"station_id":"ce4bgs12rcd13ifvqcag","pricing_plan_id":"cebpf4jnsgd1na2vs0mg"},{"bike_id":"3cf5268c-86da-45d6-bf71-ed65c562ba2a","system_id":"levelo_inurba_marseille","lat":43.29966,"lon":5.38504,"is_reserved":false,"is_disabled":false,"rental_uris":{"android":"levelo://app?vid=3cf5268c-86da-45d6-bf71-ed65c562ba2a","ios":"levelo://app?vid=3cf5268c-86da-45d6-bf71-ed65c562ba2a"},"vehicle_type_id":"4","last_reported":1759152136,"current_range_meters":7200,"station_id":"ce4bgj92rcd13ifvqbd0","pricing_plan_id":"cebpf4jnsgd1na2vs0mg"},{"bike_id":"8a4a8404-2223-404b-b9d6-fda388efd3eb","system_id":"levelo_inurba_marseille","lat":43.225399,"lon":5.348524,"is_reserved":false,"is_disabled":false,"rental_uris":{"android":"levelo://app?vid=8a4a8404-2223-404b-b9d6-fda388efd3eb","ios":"levelo://app?vid=8a4a8404-2223-404b-b9d6-fda388efd3eb"},"vehicle_type_id":"4","last_reported":1759152136,"current_range_meters":8000,"station_id":"","pricing_plan_id":"cebpf4jnsgd1na2vs0mg"},{"bike_id":"61a76e0c-266c-48c2-8dda-057075ad01b8","system_id":"levelo_inurba_marseille","lat":43.25962,"lon":5.41367,"is_reserved":false,"is_disabled":false,"rental_uris":{"android":"levelo://app?vid=61a76e0c-266c-48c2-8dda-057075ad01b8","ios":"levelo://app?vid=61a76e0c-266c-48c2-8dda-057075ad01b8"},"vehicle_type_id":"4","last_reported":1759152136,"current_range_meters":8000,"station_id":"","pricing_plan_id":"cebpf4jnsgd1na2vs0mg"},{"bike_id":"0c6f233a-3f54-4c8f-9f83-bf554aac619d","system_id":"levelo_inurba_marseille","lat":43.2989,"lon":5.43671,"is_reserved":false,"is_disabled":false,"rental_uris":{"android":"levelo://app?vid=0c6f233a-3f54-4c8f-9f83-bf554aac619d","ios":"levelo://app?vid=0c6f233a-3f54-4c8f-9f83-bf554aac619d"},"vehicle_type_id":"4","last_reported":1759152136,"current_range_meters":8000,"station_id":"ce4bhpp2rcd13ifvqhfg","pricing_plan_id":"cebpf4jnsgd1na2vs0mg"},{"bike_id":"258ab053-1083-4ca9-a32a-1e85f085fc22","system_id":"levelo_inurba_marseille","lat":43.337444,"lon":5.374475,"is_reserved":false,"is_disabled":false,"rental_uris":{"android":"levelo://app?vid=258ab053-1083-4ca9-a32a-1e85f085fc22","ios":"levelo://app?vid=258ab053-1083-4ca9-a32a-1e85f085fc22"},"vehicle_type_id":"4","last_reported":1759152136,"current_range_meters":8000,"station_id":"","pricing_plan_id":"cebpf4jnsgd1na2vs0mg"},{"bike_id":"6eeea41b-aa60-4f14-a3fb-55ba3b641da2","system_id":"levelo_inurba_marseille","lat":43.2987,"lon":5.38895,"is_reserved":false,"is_disabled":true,"rental_uris":{"android":"levelo://app?vid=6eeea41b-aa60-4f14-a3fb-55ba3b641da2","ios":"levelo://app?vid=6eeea41b-aa60-4f14-a3fb-55ba3b641da2"},"vehicle_type_id":"4","last_reported":1759152136,"current_range_meters":8400,"station_id":"ce4bh392rcd13ifvqdl0","pricing_plan_id":"cebpf4jnsgd1na2vs0mg"},{"bike_id":"559ded15-561f-4ab0-af50-60f670641c7c","system_id":"levelo_inurba_marseille","lat":43.30546,"lon":5.36542,"is_reserved":false,"is_disabled":false,"rental_uris":{"android":"levelo://app?vid=559ded15-561f-4ab0-af50-60f670641c7c","ios":"levelo://app?vid=559ded15-561f-4ab0-af50-60f670641c7c"},"vehicle_type_id":"4","last_reported":1759152136,"current_range_meters":8400,"station_id":"ce4bgs12rcd13ifvqcag","pricing_plan_id":"cebpf4jnsgd1na2vs0mg"},{"bike_id":"6200c1f9-647b-4d39-9e68-160bfb2a16b3","system_id":"levelo_inurba_marseille","lat":43.31315,"lon":5.39699,"is_reserved":false,"is_disabled":false,"rental_uris":{"android":"levelo://app?vid=6200c1f9-647b-4d39-9e68-160bfb2a16b3","ios":"levelo://app?vid=6200c1f9-647b-4d39-9e68-160bfb2a16b3"},"vehicle_type_id":"4","last_reported":1759152136,"current_range_meters":8800,"station_id":"ce4bgvp2rcd13ifvqcu0","pricing_plan_id":"cebpf4jnsgd1na2vs0mg"},{"bike_id":"8b353c9e-13c5-42ee-a76f-ccbd6269a3dc","system_id":"levelo_inurba_marseille","lat":43.30424,"lon":5.366666,"is_reserved":false,"is_disabled":false,"rental_uris":{"android":"levelo://app?vid=8b353c9e-13c5-42ee-a76f-ccbd6269a3dc","ios":"levelo://app?vid=8b353c9e-13c5-42ee-a76f-ccbd6269a3dc"},"vehicle_type_id":"4","last_reported":1759152136,"current_range_meters":8800,"station_id":"","pricing_plan_id":"cebpf4jnsgd1na2vs0mg"},{"bike_id":"883fc31a-7ef2-4211-9c4a-8f469a27bf17","system_id":"levelo_inurba_marseille","lat":43.29744,"lon":5.37699,"is_reserved":false,"is_disabled":false,"rental_uris":{"android":"levelo://app?vid=883fc31a-7ef2-4211-9c4a-8f469a27bf17","ios":"levelo://app?vid=883fc31a-7ef2-4211-9c4a-8f469a27bf17"},"vehicle_type_id":"4","last_reported":1759152136,"current_range_meters":8800,"station_id":"ce4bgkh2rcd13ifvqbl0","pricing_plan_id":"cebpf4jnsgd1na2vs0mg"},{"bike_id":"36d807e3-1fbe-4a3a-952a-eb7b039556e3","system_id":"levelo_inurba_marseille","lat":43.33605,"lon":5.41034,"is_reserved":false,"is_disabled":false,"rental_uris":{"android":"levelo://app?vid=36d807e3-1fbe-4a3a-952a-eb7b039556e3","ios":"levelo://app?vid=36d807e3-1fbe-4a3a-952a-eb7b039556e3"},"vehicle_type_id":"4","last_reported":1759152136,"current_range_meters":8800,"station_id":"ce4bhqh2rcd13ifvqhmg","pricing_plan_id":"cebpf4jnsgd1na2vs0mg"},{"bike_id":"c464e7d7-4c9a-4ce0-8532-fd7dcf30d56c","system_id":"levelo_inurba_marseille","lat":43.30891,"lon":5.39661,"is_reserved":false,"is_disabled":false,"rental_uris":{"android":"levelo://app?vid=c464e7d7-4c9a-4ce0-8532-fd7dcf30d56c","ios":"levelo://app?vid=c464e7d7-4c9a-4ce0-8532-fd7dcf30d56c"},"vehicle_type_id":"4","last_reported":1759152136,"current_range_meters":8800,"station_id":"ce4bh012rcd13ifvqcv0","pricing_plan_id":"cebpf4jnsgd1na2vs0mg"},{"bike_id":"088e1a77-c30c-4e14-bccd-40a5dbac1e2e","system_id":"levelo_inurba_marseille","lat":43.31352,"lon":5.36716,"is_reserved":false,"is_disabled":false,"rental_uris":{"android":"levelo://app?vid=088e1a77-c30c-4e14-bccd-40a5dbac1e2e","ios":"levelo://app?vid=088e1a77-c30c-4e14-bccd-40a5dbac1e2e"},"vehicle_type_id":"4","last_reported":1759152136,"current_range_meters":8800,"station_id":"ce4bgr92rcd13ifvqc6g","pricing_plan_id":"cebpf4jnsgd1na2vs0mg"},{"bike_id":"ee96a502-9b76-492e-840a-498b02aefe72","system_id":"levelo_inurba_marseille","lat":43.32355,"lon":5.39217,"is_reserved":false,"is_disabled":false,"rental_uris":{"android":"levelo://app?vid=ee96a502-9b76-492e-840a-498b02aefe72","ios":"levelo://app?vid=ee96a502-9b76-492e-840a-498b02aefe72"},"vehicle_type_id":"4","last_reported":1759152136,"current_range_meters":8800,"station_id":"","pricing_plan_id":"cebpf4jnsgd1na2vs0mg"},{"bike_id":"5947016f-1aa7-4e3b-8756-0c3376b6d2c6","system_id":"levelo_inurba_marseille","lat":43.246596,"lon":5.381699,"is_reserved":false,"is_disabled":false,"rental_uris":{"android":"levelo://app?vid=5947016f-1aa7-4e3b-8756-0c3376b6d2c6","ios":"levelo://app?vid=5947016f-1aa7-4e3b-8756-0c3376b6d2c6"},"vehicle_type_id":"4","last_reported":1759152136,"current_range_meters":8800,"station_id":"ce4bhih2rcd13ifvqfr0","pricing_plan_id":"cebpf4jnsgd1na2vs0mg"},{"bike_id":"52ec8cdd-f478-4063-a660-7ece07608648","system_id":"levelo_inurba_marseille","lat":43.27497,"lon":5.42448,"is_reserved":false,"is_disabled":false,"rental_uris":{"android":"levelo://app?vid=52ec8cdd-f478-4063-a660-7ece07608648","ios":"levelo://app?vid=52ec8cdd-f478-4063-a660-7ece07608648"},"vehicle_type_id":"4","last_reported":1759152136,"current_range_meters":8800,"station_id":"ce4bhn92rcd13ifvqgrg","pricing_plan_id":"cebpf4jnsgd1na2vs0mg"},{"bike_id":"194c5d4c-fbd9-4708-a942-8c2fd95a720e","system_id":"levelo_inurba_marseille","lat":43.2998,"lon":5.3717,"is_reserved":false,"is_disabled":false,"rental_uris":{"android":"levelo://app?vid=194c5d4c-fbd9-4708-a942-8c2fd95a720e","ios":"levelo://app?vid=194c5d4c-fbd9-4708-a942-8c2fd95a720e"},"vehicle_type_id":"4","last_reported":1759152136,"current_range_meters":8800,"station_id":"ce4bgr92rcd13ifvqc7g","pricing_plan_id":"cebpf4jnsgd1na2vs0mg"},{"bike_id":"03350417-1098-4d6c-b8fe-9e64358744bf","system_id":"levelo_inurba_marseille","lat":43.33229,"lon":5.41302,"is_reserved":false,"is_disabled":false,"rental_uris":{"android":"levelo://app?vid=03350417-1098-4d6c-b8fe-9e64358744bf","ios":"levelo://app?vid=03350417-1098-4d6c-b8fe-9e64358744bf"},"vehicle_type_id":"4","last_reported":1759152136,"current_range_meters":8800,"station_id":"","pricing_plan_id":"cebpf4jnsgd1na2vs0mg"},{"bike_id":"1dad2113-89e2-44fc-a0b6-ddd6a09baff1","system_id":"levelo_inurba_marseille","lat":43.337444,"lon":5.374475,"is_reserved":false,"is_disabled":false,"rental_uris":{"android":"levelo://app?vid=1dad2113-89e2-44fc-a0b6-ddd6a09baff1","ios":"levelo://app?vid=1dad2113-89e2-44fc-a0b6-ddd6a09baff1"},"vehicle_type_id":"4","last_reported":1759152136,"current_range_meters":8800,"station_id":"","pricing_plan_id":"cebpf4jnsgd1na2vs0mg"},{"bike_id":"e6e27dfb-44a5-49b1-85be-30ebda5a88f0","system_id":"levelo_inurba_marseille","lat":43.31871,"lon":5.39997,"is_reserved":false,"is_disabled":false,"rental_uris":{"android":"levelo://app?vid=e6e27dfb-44a5-49b1-85be-30ebda5a88f0","ios":"levelo://app?vid=e6e27dfb-44a5-49b1-85be-30ebda5a88f0"},"vehicle_type_id":"4","last_reported":1759152136,"current_range_meters":9200,"station_id":"","pricing_plan_id":"cebpf4jnsgd1na2vs0mg"},{"bike_id":"abb1e6ae-bcf0-448c-95c5-a2fff152806d","system_id":"levelo_inurba_marseille","lat":43.29194,"lon":5.39294,"is_reserved":false,"is_disabled":false,"rental_uris":{"android":"levelo://app?vid=abb1e6ae-bcf0-448c-95c5-a2fff152806d","ios":"levelo://app?vid=abb1e6ae-bcf0-448c-95c5-a2fff152806d"},"vehicle_type_id":"4","last_reported":1759152136,"current_range_meters":9200,"station_id":"ce4bh192rcd13ifvqdd0","pricing_plan_id":"cebpf4jnsgd1na2vs0mg"},{"bike_id":"29eec4df-8ee5-4205-aef1-3f9e9af24cdb","system_id":"levelo_inurba_marseille","lat":43.2314,"lon":5.4371,"is_reserved":false,"is_disabled":false,"rental_uris":{"android":"levelo://app?vid=29eec4df-8ee5-4205-aef1-3f9e9af24cdb","ios":"levelo://app?vid=29eec4df-8ee5-4205-aef1-3f9e9af24cdb"},"vehicle_type_id":"4","last_reported":1759152136,"current_range_meters":10800,"station_id":"ce4bhmp2rcd13ifvqgog","pricing_plan_id":"cebpf4jnsgd1na2vs0mg"},{"bike_id":"2c6518be-b3f0-42d2-93c9-c1de9e54885f","system_id":"levelo_inurba_marseille","lat":43.29227,"lon":5.38219,"is_reserved":false,"is_disabled":false,"rental_uris":{"android":"levelo://app?vid=2c6518be-b3f0-42d2-93c9-c1de9e54885f","ios":"levelo://app?vid=2c6518be-b3f0-42d2-93c9-c1de9e54885f"},"vehicle_type_id":"4","last_reported":1759152136,"current_range_meters":9200,"station_id":"","pricing_plan_id":"cebpf4jnsgd1na2vs0mg"},{"bike_id":"495d3978-63a6-4ee5-a026-0847d3aca687","system_id":"levelo_inurba_marseille","lat":43.23965,"lon":5.36641,"is_reserved":false,"is_disabled":false,"rental_uris":{"android":"levelo://app?vid=495d3978-63a6-4ee5-a026-0847d3aca687","ios":"levelo://app?vid=495d3978-63a6-4ee5-a026-0847d3aca687"},"vehicle_type_id":"4","last_reported":1759152136,"current_range_meters":9200,"station_id":"ce4bhi12rcd13ifvqfp0","pricing_plan_id":"cebpf4jnsgd1na2vs0mg"},{"bike_id":"5f2fe553-a3fb-4db8-90ec-d80c5da60c5c","system_id":"levelo_inurba_marseille","lat":43.32468,"lon":5.36574,"is_reserved":false,"is_disabled":false,"rental_uris":{"android":"levelo://app?vid=5f2fe553-a3fb-4db8-90ec-d80c5da60c5c","ios":"levelo://app?vid=5f2fe553-a3fb-4db8-90ec-d80c5da60c5c"},"vehicle_type_id":"4","last_reported":1759152136,"current_range_meters":9600,"station_id":"ce4bhs12rcd13ifvqhvg","pricing_plan_id":"cebpf4jnsgd1na2vs0mg"},{"bike_id":"5fe7f407-3191-4d84-bcf8-5bce6d58e56d","system_id":"levelo_inurba_marseille","lat":43.22943,"lon":5.35361,"is_reserved":false,"is_disabled":false,"rental_uris":{"android":"levelo://app?vid=5fe7f407-3191-4d84-bcf8-5bce6d58e56d","ios":"levelo://app?vid=5fe7f407-3191-4d84-bcf8-5bce6d58e56d"},"vehicle_type_id":"4","last_reported":1759152136,"current_range_meters":9600,"station_id":"cpo3532slgdg3j2ikp40","pricing_plan_id":"cebpf4jnsgd1na2vs0mg"},{"bike_id":"e7a07ee7-ff27-4e97-adec-6f7b9b9085bf","system_id":"levelo_inurba_marseille","lat":43.288685,"lon":5.425099,"is_reserved":false,"is_disabled":false,"rental_uris":{"android":"levelo://app?vid=e7a07ee7-ff27-4e97-adec-6f7b9b9085bf","ios":"levelo://app?vid=e7a07ee7-ff27-4e97-adec-6f7b9b9085bf"},"vehicle_type_id":"4","last_reported":1759152136,"current_range_meters":9600,"station_id":"st_d3b462108ojc7389ooeg","pricing_plan_id":"cebpf4jnsgd1na2vs0mg"},{"bike_id":"5a84f2be-e99f-41e5-90fe-f48ab59f8840","system_id":"levelo_inurba_marseille","lat":43.29851,"lon":5.3626,"is_reserved":false,"is_disabled":false,"rental_uris":{"android":"levelo://app?vid=5a84f2be-e99f-41e5-90fe-f48ab59f8840","ios":"levelo://app?vid=5a84f2be-e99f-41e5-90fe-f48ab59f8840"},"vehicle_type_id":"4","last_reported":1759152136,"current_range_meters":9200,"station_id":"ce4bgpp2rcd13ifvqc3g","pricing_plan_id":"cebpf4jnsgd1na2vs0mg"},{"bike_id":"5fb6bf0d-5e73-4899-9dcb-6a9a1fa6134a","system_id":"levelo_inurba_marseille","lat":43.33602,"lon":5.41022,"is_reserved":false,"is_disabled":false,"rental_uris":{"android":"levelo://app?vid=5fb6bf0d-5e73-4899-9dcb-6a9a1fa6134a","ios":"levelo://app?vid=5fb6bf0d-5e73-4899-9dcb-6a9a1fa6134a"},"vehicle_type_id":"4","last_reported":1759152136,"current_range_meters":9600,"station_id":"ce4bhqh2rcd13ifvqhmg","pricing_plan_id":"cebpf4jnsgd1na2vs0mg"},{"bike_id":"0e262708-f7eb-482f-9ffc-55e62184adc6","system_id":"levelo_inurba_marseille","lat":43.28351,"lon":5.38628,"is_reserved":false,"is_disabled":false,"rental_uris":{"android":"levelo://app?vid=0e262708-f7eb-482f-9ffc-55e62184adc6","ios":"levelo://app?vid=0e262708-f7eb-482f-9ffc-55e62184adc6"},"vehicle_type_id":"4","last_reported":1759152136,"current_range_meters":9600,"station_id":"ce4bh492rcd13ifvqdvg","pricing_plan_id":"cebpf4jnsgd1na2vs0mg"},{"bike_id":"6bf09d5d-c7a1-4138-83d7-b7019a9da9d3","system_id":"levelo_inurba_marseille","lat":43.301771,"lon":5.366299,"is_reserved":false,"is_disabled":false,"rental_uris":{"android":"levelo://app?vid=6bf09d5d-c7a1-4138-83d7-b7019a9da9d3","ios":"levelo://app?vid=6bf09d5d-c7a1-4138-83d7-b7019a9da9d3"},"vehicle_type_id":"4","last_reported":1759152136,"current_range_meters":9600,"station_id":"ce4bgrh2rcd13ifvqc8g","pricing_plan_id":"cebpf4jnsgd1na2vs0mg"},{"bike_id":"d7d09523-34bb-44d2-9695-02f0abea9b47","system_id":"levelo_inurba_marseille","lat":43.29731,"lon":5.37876,"is_reserved":false,"is_disabled":false,"rental_uris":{"android":"levelo://app?vid=d7d09523-34bb-44d2-9695-02f0abea9b47","ios":"levelo://app?vid=d7d09523-34bb-44d2-9695-02f0abea9b47"},"vehicle_type_id":"4","last_reported":1759152136,"current_range_meters":10000,"station_id":"","pricing_plan_id":"cebpf4jnsgd1na2vs0mg"},{"bike_id":"35e8f722-b82a-4247-beb8-7e2827829ce6","system_id":"levelo_inurba_marseille","lat":43.32405,"lon":5.3911,"is_reserved":false,"is_disabled":false,"rental_uris":{"android":"levelo://app?vid=35e8f722-b82a-4247-beb8-7e2827829ce6","ios":"levelo://app?vid=35e8f722-b82a-4247-beb8-7e2827829ce6"},"vehicle_type_id":"4","last_reported":1759152136,"current_range_meters":10000,"station_id":"","pricing_plan_id":"cebpf4jnsgd1na2vs0mg"},{"bike_id":"e5378695-fba9-432a-9cfb-3b5b05e40fec","system_id":"levelo_inurba_marseille","lat":43.337986,"lon":5.374304,"is_reserved":false,"is_disabled":false,"rental_uris":{"android":"levelo://app?vid=e5378695-fba9-432a-9cfb-3b5b05e40fec","ios":"levelo://app?vid=e5378695-fba9-432a-9cfb-3b5b05e40fec"},"vehicle_type_id":"4","last_reported":1759152136,"current_range_meters":10000,"station_id":"","pricing_plan_id":"cebpf4jnsgd1na2vs0mg"},{"bike_id":"6a5ca590-06b0-41f0-8eb5-7714f288470a","system_id":"levelo_inurba_marseille","lat":43.27376,"lon":5.36257,"is_reserved":false,"is_disabled":false,"rental_uris":{"android":"levelo://app?vid=6a5ca590-06b0-41f0-8eb5-7714f288470a","ios":"levelo://app?vid=6a5ca590-06b0-41f0-8eb5-7714f288470a"},"vehicle_type_id":"4","last_reported":1759152136,"current_range_meters":10800,"station_id":"ce4bhbh2rcd13ifvqeo0","pricing_plan_id":"cebpf4jnsgd1na2vs0mg"},{"bike_id":"2a80076c-3944-48b1-96b3-f2e8b18b987e","system_id":"levelo_inurba_marseille","lat":43.27942,"lon":5.41045,"is_reserved":false,"is_disabled":false,"rental_uris":{"android":"levelo://app?vid=2a80076c-3944-48b1-96b3-f2e8b18b987e","ios":"levelo://app?vid=2a80076c-3944-48b1-96b3-f2e8b18b987e"},"vehicle_type_id":"4","last_reported":1759152136,"current_range_meters":10800,"station_id":"ce4bhnp2rcd13ifvqh0g","pricing_plan_id":"cebpf4jnsgd1na2vs0mg"},{"bike_id":"3a7da303-8550-4f15-a6ea-1ef9938a52f1","system_id":"levelo_inurba_marseille","lat":43.27809,"lon":5.40708,"is_reserved":false,"is_disabled":false,"rental_uris":{"android":"levelo://app?vid=3a7da303-8550-4f15-a6ea-1ef9938a52f1","ios":"levelo://app?vid=3a7da303-8550-4f15-a6ea-1ef9938a52f1"},"vehicle_type_id":"4","last_reported":1759152136,"current_range_meters":10800,"station_id":"ce4bhnh2rcd13ifvqgtg","pricing_plan_id":"cebpf4jnsgd1na2vs0mg"},{"bike_id":"ff44b84b-ade1-491f-8eb3-fca9ae319555","system_id":"levelo_inurba_marseille","lat":43.2764,"lon":5.36148,"is_reserved":false,"is_disabled":false,"rental_uris":{"android":"levelo://app?vid=ff44b84b-ade1-491f-8eb3-fca9ae319555","ios":"levelo://app?vid=ff44b84b-ade1-491f-8eb3-fca9ae319555"},"vehicle_type_id":"4","last_reported":1759152136,"current_range_meters":10000,"station_id":"ce4bgj92rcd13ifvqbe0","pricing_plan_id":"cebpf4jnsgd1na2vs0mg"},{"bike_id":"c74023ed-5283-4375-bfd9-df793df9a207","system_id":"levelo_inurba_marseille","lat":43.231835,"lon":5.399774,"is_reserved":false,"is_disabled":false,"rental_uris":{"android":"levelo://app?vid=c74023ed-5283-4375-bfd9-df793df9a207","ios":"levelo://app?vid=c74023ed-5283-4375-bfd9-df793df9a207"},"vehicle_type_id":"4","last_reported":1759152136,"current_range_meters":10800,"station_id":"ce4bhn12rcd13ifvqgqg","pricing_plan_id":"cebpf4jnsgd1na2vs0mg"},{"bike_id":"f6277ba7-4d0f-44ac-96db-754d11e041e4","system_id":"levelo_inurba_marseille","lat":43.27376,"lon":5.36255,"is_reserved":false,"is_disabled":false,"rental_uris":{"android":"levelo://app?vid=f6277ba7-4d0f-44ac-96db-754d11e041e4","ios":"levelo://app?vid=f6277ba7-4d0f-44ac-96db-754d11e041e4"},"vehicle_type_id":"4","last_reported":1759152136,"current_range_meters":11200,"station_id":"ce4bhbh2rcd13ifvqeo0","pricing_plan_id":"cebpf4jnsgd1na2vs0mg"},{"bike_id":"ec021ffa-3048-49e2-80a8-645eb0241089","system_id":"levelo_inurba_marseille","lat":43.30543,"lon":5.36699,"is_reserved":false,"is_disabled":false,"rental_uris":{"android":"levelo://app?vid=ec021ffa-3048-49e2-80a8-645eb0241089","ios":"levelo://app?vid=ec021ffa-3048-49e2-80a8-645eb0241089"},"vehicle_type_id":"4","last_reported":1759152136,"current_range_meters":11200,"station_id":"ce4bgrp2rcd13ifvqc9g","pricing_plan_id":"cebpf4jnsgd1na2vs0mg"},{"bike_id":"4822dd99-56ec-44f6-a9b9-ee0ae5dcc1bf","system_id":"levelo_inurba_marseille","lat":43.30009,"lon":5.39994,"is_reserved":false,"is_disabled":false,"rental_uris":{"android":"levelo://app?vid=4822dd99-56ec-44f6-a9b9-ee0ae5dcc1bf","ios":"levelo://app?vid=4822dd99-56ec-44f6-a9b9-ee0ae5dcc1bf"},"vehicle_type_id":"4","last_reported":1759152136,"current_range_meters":11200,"station_id":"ce4bh0h2rcd13ifvqd40","pricing_plan_id":"cebpf4jnsgd1na2vs0mg"},{"bike_id":"d4fadfe3-07cc-4678-a84b-558221af8c4d","system_id":"levelo_inurba_marseille","lat":43.29302,"lon":5.37461,"is_reserved":false,"is_disabled":false,"rental_uris":{"android":"levelo://app?vid=d4fadfe3-07cc-4678-a84b-558221af8c4d","ios":"levelo://app?vid=d4fadfe3-07cc-4678-a84b-558221af8c4d"},"vehicle_type_id":"4","last_reported":1759152136,"current_range_meters":11200,"station_id":"ce4bgi12rcd13ifvqb70","pricing_plan_id":"cebpf4jnsgd1na2vs0mg"},{"bike_id":"9c4235da-d3d0-4056-aa6b-c6aa6e8e7367","system_id":"levelo_inurba_marseille","lat":43.306911,"lon":5.375229,"is_reserved":false,"is_disabled":false,"rental_uris":{"android":"levelo://app?vid=9c4235da-d3d0-4056-aa6b-c6aa6e8e7367","ios":"levelo://app?vid=9c4235da-d3d0-4056-aa6b-c6aa6e8e7367"},"vehicle_type_id":"4","last_reported":1759152136,"current_range_meters":11200,"station_id":"","pricing_plan_id":"cebpf4jnsgd1na2vs0mg"},{"bike_id":"f060d515-f268-4371-95a2-f04eea0ad05f","system_id":"levelo_inurba_marseille","lat":43.246291,"lon":5.431483,"is_reserved":false,"is_disabled":false,"rental_uris":{"android":"levelo://app?vid=f060d515-f268-4371-95a2-f04eea0ad05f","ios":"levelo://app?vid=f060d515-f268-4371-95a2-f04eea0ad05f"},"vehicle_type_id":"4","last_reported":1759152136,"current_range_meters":11200,"station_id":"st_d2m6c4gdas8pm72e190g","pricing_plan_id":"cebpf4jnsgd1na2vs0mg"},{"bike_id":"0dc0e189-1350-424c-9497-52719aa2d2d2","system_id":"levelo_inurba_marseille","lat":43.30149,"lon":5.37358,"is_reserved":false,"is_disabled":false,"rental_uris":{"android":"levelo://app?vid=0dc0e189-1350-424c-9497-52719aa2d2d2","ios":"levelo://app?vid=0dc0e189-1350-424c-9497-52719aa2d2d2"},"vehicle_type_id":"4","last_reported":1759152136,"current_range_meters":11200,"station_id":"ce4bgs92rcd13ifvqcc0","pricing_plan_id":"cebpf4jnsgd1na2vs0mg"},{"bike_id":"06b0584b-5445-47e0-830c-0e312ded5846","system_id":"levelo_inurba_marseille","lat":43.27075,"lon":5.42282,"is_reserved":false,"is_disabled":false,"rental_uris":{"android":"levelo://app?vid=06b0584b-5445-47e0-830c-0e312ded5846","ios":"levelo://app?vid=06b0584b-5445-47e0-830c-0e312ded5846"},"vehicle_type_id":"4","last_reported":1759152136,"current_range_meters":11600,"station_id":"ce4bhk92rcd13ifvqgb0","pricing_plan_id":"cebpf4jnsgd1na2vs0mg"},{"bike_id":"0ac3194a-e6ae-4ed6-aad9-4160ae2e4233","system_id":"levelo_inurba_marseille","lat":43.30786,"lon":5.37647,"is_reserved":false,"is_disabled":false,"rental_uris":{"android":"levelo://app?vid=0ac3194a-e6ae-4ed6-aad9-4160ae2e4233","ios":"levelo://app?vid=0ac3194a-e6ae-4ed6-aad9-4160ae2e4233"},"vehicle_type_id":"4","last_reported":1759152136,"current_range_meters":11600,"station_id":"ce4bgv92rcd13ifvqcq0","pricing_plan_id":"cebpf4jnsgd1na2vs0mg"},{"bike_id":"d6c734f5-0e13-46a8-8e3e-fda40abe4b7d","system_id":"levelo_inurba_marseille","lat":43.302139,"lon":5.394708,"is_reserved":false,"is_disabled":false,"rental_uris":{"android":"levelo://app?vid=d6c734f5-0e13-46a8-8e3e-fda40abe4b7d","ios":"levelo://app?vid=d6c734f5-0e13-46a8-8e3e-fda40abe4b7d"},"vehicle_type_id":"4","last_reported":1759152136,"current_range_meters":11600,"station_id":"ce4bhgh2rcd13ifvqfa0","pricing_plan_id":"cebpf4jnsgd1na2vs0mg"},{"bike_id":"80b98ce0-3233-47ce-84db-722943723d1e","system_id":"levelo_inurba_marseille","lat":43.269329,"lon":5.38928,"is_reserved":false,"is_disabled":false,"rental_uris":{"android":"levelo://app?vid=80b98ce0-3233-47ce-84db-722943723d1e","ios":"levelo://app?vid=80b98ce0-3233-47ce-84db-722943723d1e"},"vehicle_type_id":"4","last_reported":1759152136,"current_range_meters":11600,"station_id":"","pricing_plan_id":"cebpf4jnsgd1na2vs0mg"},{"bike_id":"ee6406f7-9f33-4935-a835-0f3904e54bc4","system_id":"levelo_inurba_marseille","lat":43.31875,"lon":5.37317,"is_reserved":false,"is_disabled":false,"rental_uris":{"android":"levelo://app?vid=ee6406f7-9f33-4935-a835-0f3904e54bc4","ios":"levelo://app?vid=ee6406f7-9f33-4935-a835-0f3904e54bc4"},"vehicle_type_id":"4","last_reported":1759152136,"current_range_meters":12000,"station_id":"ce4bgt12rcd13ifvqcd0","pricing_plan_id":"cebpf4jnsgd1na2vs0mg"},{"bike_id":"72421f43-0017-4d45-81d0-8a9e3d248181","system_id":"levelo_inurba_marseille","lat":43.29721,"lon":5.37698,"is_reserved":false,"is_disabled":false,"rental_uris":{"android":"levelo://app?vid=72421f43-0017-4d45-81d0-8a9e3d248181","ios":"levelo://app?vid=72421f43-0017-4d45-81d0-8a9e3d248181"},"vehicle_type_id":"4","last_reported":1759152136,"current_range_meters":12000,"station_id":"ce4bgkh2rcd13ifvqbl0","pricing_plan_id":"cebpf4jnsgd1na2vs0mg"},{"bike_id":"f87ed56f-29e1-4944-9419-bd9ff6de186b","system_id":"levelo_inurba_marseille","lat":43.28446,"lon":5.39205,"is_reserved":false,"is_disabled":false,"rental_uris":{"android":"levelo://app?vid=f87ed56f-29e1-4944-9419-bd9ff6de186b","ios":"levelo://app?vid=f87ed56f-29e1-4944-9419-bd9ff6de186b"},"vehicle_type_id":"4","last_reported":1759152136,"current_range_meters":12000,"station_id":"ce4bhoh2rcd13ifvqh5g","pricing_plan_id":"cebpf4jnsgd1na2vs0mg"},{"bike_id":"51987757-2bb7-45fa-a7a3-25c1bfc6af86","system_id":"levelo_inurba_marseille","lat":43.26922,"lon":5.3892,"is_reserved":false,"is_disabled":false,"rental_uris":{"android":"levelo://app?vid=51987757-2bb7-45fa-a7a3-25c1bfc6af86","ios":"levelo://app?vid=51987757-2bb7-45fa-a7a3-25c1bfc6af86"},"vehicle_type_id":"4","last_reported":1759152136,"current_range_meters":11600,"station_id":"ce4bhhh2rcd13ifvqfl0","pricing_plan_id":"cebpf4jnsgd1na2vs0mg"},{"bike_id":"ade00133-316a-486b-ad8e-40009b44a891","system_id":"levelo_inurba_marseille","lat":43.26677,"lon":5.38259,"is_reserved":false,"is_disabled":false,"rental_uris":{"android":"levelo://app?vid=ade00133-316a-486b-ad8e-40009b44a891","ios":"levelo://app?vid=ade00133-316a-486b-ad8e-40009b44a891"},"vehicle_type_id":"4","last_reported":1759152136,"current_range_meters":12400,"station_id":"ce4bhg92rcd13ifvqf90","pricing_plan_id":"cebpf4jnsgd1na2vs0mg"},{"bike_id":"8e22cf14-b2b4-4b09-90a7-6c182d85a696","system_id":"levelo_inurba_marseille","lat":43.30555,"lon":5.36622,"is_reserved":false,"is_disabled":false,"rental_uris":{"android":"levelo://app?vid=8e22cf14-b2b4-4b09-90a7-6c182d85a696","ios":"levelo://app?vid=8e22cf14-b2b4-4b09-90a7-6c182d85a696"},"vehicle_type_id":"4","last_reported":1759152136,"current_range_meters":12400,"station_id":"ce4bgs12rcd13ifvqcag","pricing_plan_id":"cebpf4jnsgd1na2vs0mg"},{"bike_id":"ad110631-50f5-4554-92a2-58dfaca32d68","system_id":"levelo_inurba_marseille","lat":43.3061,"lon":5.37214,"is_reserved":false,"is_disabled":false,"rental_uris":{"android":"levelo://app?vid=ad110631-50f5-4554-92a2-58dfaca32d68","ios":"levelo://app?vid=ad110631-50f5-4554-92a2-58dfaca32d68"},"vehicle_type_id":"4","last_reported":1759152136,"current_range_meters":12400,"station_id":"ce4bgqh2rcd13ifvqc4g","pricing_plan_id":"cebpf4jnsgd1na2vs0mg"},{"bike_id":"e254d7bf-19d8-4099-8210-8c0dd3fc6ec2","system_id":"levelo_inurba_marseille","lat":43.26679,"lon":5.38263,"is_reserved":false,"is_disabled":false,"rental_uris":{"android":"levelo://app?vid=e254d7bf-19d8-4099-8210-8c0dd3fc6ec2","ios":"levelo://app?vid=e254d7bf-19d8-4099-8210-8c0dd3fc6ec2"},"vehicle_type_id":"4","last_reported":1759152136,"current_range_meters":12400,"station_id":"ce4bhg92rcd13ifvqf90","pricing_plan_id":"cebpf4jnsgd1na2vs0mg"},{"bike_id":"50f25dea-1a09-4b9f-be9a-d8112caced57","system_id":"levelo_inurba_marseille","lat":43.31993,"lon":5.38158,"is_reserved":false,"is_disabled":false,"rental_uris":{"android":"levelo://app?vid=50f25dea-1a09-4b9f-be9a-d8112caced57","ios":"levelo://app?vid=50f25dea-1a09-4b9f-be9a-d8112caced57"},"vehicle_type_id":"4","last_reported":1759152136,"current_range_meters":12400,"station_id":"ce4bhr12rcd13ifvqhpg","pricing_plan_id":"cebpf4jnsgd1na2vs0mg"},{"bike_id":"92eaf995-eb2d-4368-bdd2-6bfe0ae0ca7c","system_id":"levelo_inurba_marseille","lat":43.29026,"lon":5.38626,"is_reserved":false,"is_disabled":false,"rental_uris":{"android":"levelo://app?vid=92eaf995-eb2d-4368-bdd2-6bfe0ae0ca7c","ios":"levelo://app?vid=92eaf995-eb2d-4368-bdd2-6bfe0ae0ca7c"},"vehicle_type_id":"4","last_reported":1759152136,"current_range_meters":12400,"station_id":"ce4bh4p2rcd13ifvqe0g","pricing_plan_id":"cebpf4jnsgd1na2vs0mg"},{"bike_id":"ea59b303-6900-42ad-9e79-5b0f95bedd6c","system_id":"levelo_inurba_marseille","lat":43.30438,"lon":5.36864,"is_reserved":false,"is_disabled":false,"rental_uris":{"android":"levelo://app?vid=ea59b303-6900-42ad-9e79-5b0f95bedd6c","ios":"levelo://app?vid=ea59b303-6900-42ad-9e79-5b0f95bedd6c"},"vehicle_type_id":"4","last_reported":1759152136,"current_range_meters":12800,"station_id":"","pricing_plan_id":"cebpf4jnsgd1na2vs0mg"},{"bike_id":"0eda2527-f3ce-4552-96df-04220f592c11","system_id":"levelo_inurba_marseille","lat":43.212,"lon":5.35064,"is_reserved":false,"is_disabled":false,"rental_uris":{"android":"levelo://app?vid=0eda2527-f3ce-4552-96df-04220f592c11","ios":"levelo://app?vid=0eda2527-f3ce-4552-96df-04220f592c11"},"vehicle_type_id":"4","last_reported":1759152136,"current_range_meters":12800,"station_id":"st_cvj6sg6p6f1abm77japg","pricing_plan_id":"cebpf4jnsgd1na2vs0mg"},{"bike_id":"a07a513e-e5a9-4481-8592-d991379bc662","system_id":"levelo_inurba_marseille","lat":43.33735,"lon":5.37481,"is_reserved":false,"is_disabled":false,"rental_uris":{"android":"levelo://app?vid=a07a513e-e5a9-4481-8592-d991379bc662","ios":"levelo://app?vid=a07a513e-e5a9-4481-8592-d991379bc662"},"vehicle_type_id":"4","last_reported":1759152136,"current_range_meters":12800,"station_id":"","pricing_plan_id":"cebpf4jnsgd1na2vs0mg"},{"bike_id":"8c0227e3-55e8-4994-aa0c-9b6ee99b7e26","system_id":"levelo_inurba_marseille","lat":43.230517,"lon":5.354886,"is_reserved":false,"is_disabled":false,"rental_uris":{"android":"levelo://app?vid=8c0227e3-55e8-4994-aa0c-9b6ee99b7e26","ios":"levelo://app?vid=8c0227e3-55e8-4994-aa0c-9b6ee99b7e26"},"vehicle_type_id":"4","last_reported":1759152136,"current_range_meters":13600,"station_id":"cpo3342slgdg3j2ifvpg","pricing_plan_id":"cebpf4jnsgd1na2vs0mg"},{"bike_id":"4621c2d8-3b69-40cd-aef6-27ac0817d415","system_id":"levelo_inurba_marseille","lat":43.27841,"lon":5.39215,"is_reserved":false,"is_disabled":false,"rental_uris":{"android":"levelo://app?vid=4621c2d8-3b69-40cd-aef6-27ac0817d415","ios":"levelo://app?vid=4621c2d8-3b69-40cd-aef6-27ac0817d415"},"vehicle_type_id":"4","last_reported":1759152136,"current_range_meters":12800,"station_id":"ce4bhjp2rcd13ifvqga0","pricing_plan_id":"cebpf4jnsgd1na2vs0mg"},{"bike_id":"7dc10ae7-7366-4aef-afb3-946c513f88ef","system_id":"levelo_inurba_marseille","lat":43.27996,"lon":5.36394,"is_reserved":false,"is_disabled":false,"rental_uris":{"android":"levelo://app?vid=7dc10ae7-7366-4aef-afb3-946c513f88ef","ios":"levelo://app?vid=7dc10ae7-7366-4aef-afb3-946c513f88ef"},"vehicle_type_id":"4","last_reported":1759152136,"current_range_meters":13600,"station_id":"ce4bha12rcd13ifvqef0","pricing_plan_id":"cebpf4jnsgd1na2vs0mg"},{"bike_id":"a4c5d46e-6998-40de-acf5-3159f3df2a7a","system_id":"levelo_inurba_marseille","lat":43.27812,"lon":5.40714,"is_reserved":false,"is_disabled":false,"rental_uris":{"android":"levelo://app?vid=a4c5d46e-6998-40de-acf5-3159f3df2a7a","ios":"levelo://app?vid=a4c5d46e-6998-40de-acf5-3159f3df2a7a"},"vehicle_type_id":"4","last_reported":1759152136,"current_range_meters":13600,"station_id":"ce4bhnh2rcd13ifvqgtg","pricing_plan_id":"cebpf4jnsgd1na2vs0mg"},{"bike_id":"7af5060d-1837-4090-8999-a19863c37d45","system_id":"levelo_inurba_marseille","lat":43.30176,"lon":5.36602,"is_reserved":false,"is_disabled":false,"rental_uris":{"android":"levelo://app?vid=7af5060d-1837-4090-8999-a19863c37d45","ios":"levelo://app?vid=7af5060d-1837-4090-8999-a19863c37d45"},"vehicle_type_id":"4","last_reported":1759152136,"current_range_meters":14000,"station_id":"ce4bgrh2rcd13ifvqc8g","pricing_plan_id":"cebpf4jnsgd1na2vs0mg"},{"bike_id":"8c986307-df22-41f8-9c2d-42ccabc665aa","system_id":"levelo_inurba_marseille","lat":43.30193,"lon":5.36605,"is_reserved":false,"is_disabled":false,"rental_uris":{"android":"levelo://app?vid=8c986307-df22-41f8-9c2d-42ccabc665aa","ios":"levelo://app?vid=8c986307-df22-41f8-9c2d-42ccabc665aa"},"vehicle_type_id":"4","last_reported":1759152136,"current_range_meters":13600,"station_id":"ce4bgrh2rcd13ifvqc8g","pricing_plan_id":"cebpf4jnsgd1na2vs0mg"},{"bike_id":"055320a6-895c-4f00-b0fd-7cb560611640","system_id":"levelo_inurba_marseille","lat":43.2797,"lon":5.41072,"is_reserved":false,"is_disabled":false,"rental_uris":{"android":"levelo://app?vid=055320a6-895c-4f00-b0fd-7cb560611640","ios":"levelo://app?vid=055320a6-895c-4f00-b0fd-7cb560611640"},"vehicle_type_id":"4","last_reported":1759152136,"current_range_meters":13600,"station_id":"ce4bhnp2rcd13ifvqh0g","pricing_plan_id":"cebpf4jnsgd1na2vs0mg"},{"bike_id":"5bc706f5-2fff-47d7-b0c1-893539c1eb6c","system_id":"levelo_inurba_marseille","lat":43.282679,"lon":5.350729,"is_reserved":false,"is_disabled":false,"rental_uris":{"android":"levelo://app?vid=5bc706f5-2fff-47d7-b0c1-893539c1eb6c","ios":"levelo://app?vid=5bc706f5-2fff-47d7-b0c1-893539c1eb6c"},"vehicle_type_id":"4","last_reported":1759152136,"current_range_meters":13600,"station_id":"ce4bhbp2rcd13ifvqerg","pricing_plan_id":"cebpf4jnsgd1na2vs0mg"},{"bike_id":"da3388e0-b172-4ed8-a08d-107956183ee7","system_id":"levelo_inurba_marseille","lat":43.29269,"lon":5.3844,"is_reserved":false,"is_disabled":false,"rental_uris":{"android":"levelo://app?vid=da3388e0-b172-4ed8-a08d-107956183ee7","ios":"levelo://app?vid=da3388e0-b172-4ed8-a08d-107956183ee7"},"vehicle_type_id":"4","last_reported":1759152136,"current_range_meters":13600,"station_id":"ce4bh692rcd13ifvqea0","pricing_plan_id":"cebpf4jnsgd1na2vs0mg"},{"bike_id":"c627b34a-8e81-4438-af3b-4fd0aab1c160","system_id":"levelo_inurba_marseille","lat":43.29673,"lon":5.3601,"is_reserved":false,"is_disabled":false,"rental_uris":{"android":"levelo://app?vid=c627b34a-8e81-4438-af3b-4fd0aab1c160","ios":"levelo://app?vid=c627b34a-8e81-4438-af3b-4fd0aab1c160"},"vehicle_type_id":"4","last_reported":1759152136,"current_range_meters":13600,"station_id":"","pricing_plan_id":"cebpf4jnsgd1na2vs0mg"},{"bike_id":"a63906d9-70e3-4694-a19f-f783d775e9bb","system_id":"levelo_inurba_marseille","lat":43.3129,"lon":5.37388,"is_reserved":false,"is_disabled":false,"rental_uris":{"android":"levelo://app?vid=a63906d9-70e3-4694-a19f-f783d775e9bb","ios":"levelo://app?vid=a63906d9-70e3-4694-a19f-f783d775e9bb"},"vehicle_type_id":"4","last_reported":1759152136,"current_range_meters":13600,"station_id":"","pricing_plan_id":"cebpf4jnsgd1na2vs0mg"},{"bike_id":"6208b55e-5829-429c-bbd4-b74a6a76be82","system_id":"levelo_inurba_marseille","lat":43.33603,"lon":5.40988,"is_reserved":false,"is_disabled":false,"rental_uris":{"android":"levelo://app?vid=6208b55e-5829-429c-bbd4-b74a6a76be82","ios":"levelo://app?vid=6208b55e-5829-429c-bbd4-b74a6a76be82"},"vehicle_type_id":"4","last_reported":1759152136,"current_range_meters":14000,"station_id":"ce4bhqh2rcd13ifvqhmg","pricing_plan_id":"cebpf4jnsgd1na2vs0mg"},{"bike_id":"852663b9-a58d-4e19-83df-d778562c8c40","system_id":"levelo_inurba_marseille","lat":43.290002,"lon":5.356209,"is_reserved":false,"is_disabled":false,"rental_uris":{"android":"levelo://app?vid=852663b9-a58d-4e19-83df-d778562c8c40","ios":"levelo://app?vid=852663b9-a58d-4e19-83df-d778562c8c40"},"vehicle_type_id":"4","last_reported":1759152136,"current_range_meters":14000,"station_id":"ce4bhb92rcd13ifvqen0","pricing_plan_id":"cebpf4jnsgd1na2vs0mg"},{"bike_id":"e9789c59-2fe2-4f51-8a64-e1d3cc3bcad5","system_id":"levelo_inurba_marseille","lat":43.26214,"lon":5.37435,"is_reserved":false,"is_disabled":false,"rental_uris":{"android":"levelo://app?vid=e9789c59-2fe2-4f51-8a64-e1d3cc3bcad5","ios":"levelo://app?vid=e9789c59-2fe2-4f51-8a64-e1d3cc3bcad5"},"vehicle_type_id":"4","last_reported":1759152136,"current_range_meters":14000,"station_id":"ce4bhgp2rcd13ifvqfc0","pricing_plan_id":"cebpf4jnsgd1na2vs0mg"},{"bike_id":"83b68f6f-e600-4974-9262-16991adb2683","system_id":"levelo_inurba_marseille","lat":43.29981,"lon":5.37161,"is_reserved":false,"is_disabled":false,"rental_uris":{"android":"levelo://app?vid=83b68f6f-e600-4974-9262-16991adb2683","ios":"levelo://app?vid=83b68f6f-e600-4974-9262-16991adb2683"},"vehicle_type_id":"4","last_reported":1759152136,"current_range_meters":14000,"station_id":"ce4bgr92rcd13ifvqc7g","pricing_plan_id":"cebpf4jnsgd1na2vs0mg"},{"bike_id":"d60dc148-253b-4625-ae0c-8c88dcdb4260","system_id":"levelo_inurba_marseille","lat":43.272127,"lon":5.391798,"is_reserved":false,"is_disabled":false,"rental_uris":{"android":"levelo://app?vid=d60dc148-253b-4625-ae0c-8c88dcdb4260","ios":"levelo://app?vid=d60dc148-253b-4625-ae0c-8c88dcdb4260"},"vehicle_type_id":"4","last_reported":1759152136,"current_range_meters":14400,"station_id":"","pricing_plan_id":"cebpf4jnsgd1na2vs0mg"},{"bike_id":"0030cf69-75f8-4719-a372-efc52bdb748a","system_id":"levelo_inurba_marseille","lat":43.328647,"lon":5.453677,"is_reserved":false,"is_disabled":false,"rental_uris":{"android":"levelo://app?vid=0030cf69-75f8-4719-a372-efc52bdb748a","ios":"levelo://app?vid=0030cf69-75f8-4719-a372-efc52bdb748a"},"vehicle_type_id":"4","last_reported":1759152136,"current_range_meters":14400,"station_id":"","pricing_plan_id":"cebpf4jnsgd1na2vs0mg"},{"bike_id":"a9cd5665-4575-420b-bb7e-e441349a406a","system_id":"levelo_inurba_marseille","lat":43.284213,"lon":5.349722,"is_reserved":false,"is_disabled":true,"rental_uris":{"android":"levelo://app?vid=a9cd5665-4575-420b-bb7e-e441349a406a","ios":"levelo://app?vid=a9cd5665-4575-420b-bb7e-e441349a406a"},"vehicle_type_id":"4","last_reported":1759152136,"current_range_meters":14400,"station_id":"ce4bhbh2rcd13ifvqepg","pricing_plan_id":"cebpf4jnsgd1na2vs0mg"},{"bike_id":"1f30e39d-2318-4b01-ba28-e25071b2d822","system_id":"levelo_inurba_marseille","lat":43.29271,"lon":5.38445,"is_reserved":false,"is_disabled":false,"rental_uris":{"android":"levelo://app?vid=1f30e39d-2318-4b01-ba28-e25071b2d822","ios":"levelo://app?vid=1f30e39d-2318-4b01-ba28-e25071b2d822"},"vehicle_type_id":"4","last_reported":1759152136,"current_range_meters":14400,"station_id":"ce4bh692rcd13ifvqea0","pricing_plan_id":"cebpf4jnsgd1na2vs0mg"},{"bike_id":"aa123961-c527-4db0-9350-7d548f67905a","system_id":"levelo_inurba_marseille","lat":43.27946,"lon":5.38753,"is_reserved":false,"is_disabled":false,"rental_uris":{"android":"levelo://app?vid=aa123961-c527-4db0-9350-7d548f67905a","ios":"levelo://app?vid=aa123961-c527-4db0-9350-7d548f67905a"},"vehicle_type_id":"4","last_reported":1759152136,"current_range_meters":14400,"station_id":"ce4bh492rcd13ifvqdvg","pricing_plan_id":"cebpf4jnsgd1na2vs0mg"},{"bike_id":"ba1cfbb3-555c-4e6c-85db-b50e9395062e","system_id":"levelo_inurba_marseille","lat":43.246877,"lon":5.381936,"is_reserved":false,"is_disabled":false,"rental_uris":{"android":"levelo://app?vid=ba1cfbb3-555c-4e6c-85db-b50e9395062e","ios":"levelo://app?vid=ba1cfbb3-555c-4e6c-85db-b50e9395062e"},"vehicle_type_id":"4","last_reported":1759152136,"current_range_meters":14400,"station_id":"","pricing_plan_id":"cebpf4jnsgd1na2vs0mg"},{"bike_id":"70a4ad13-b2a7-4e26-ae69-2b4550ddafb5","system_id":"levelo_inurba_marseille","lat":43.289401,"lon":5.366452,"is_reserved":false,"is_disabled":false,"rental_uris":{"android":"levelo://app?vid=70a4ad13-b2a7-4e26-ae69-2b4550ddafb5","ios":"levelo://app?vid=70a4ad13-b2a7-4e26-ae69-2b4550ddafb5"},"vehicle_type_id":"4","last_reported":1759152136,"current_range_meters":14400,"station_id":"ce4bhap2rcd13ifvqek0","pricing_plan_id":"cebpf4jnsgd1na2vs0mg"},{"bike_id":"8163e3ac-fd5a-4fa7-824b-dde4e1e28f73","system_id":"levelo_inurba_marseille","lat":43.30135,"lon":5.37418,"is_reserved":false,"is_disabled":false,"rental_uris":{"android":"levelo://app?vid=8163e3ac-fd5a-4fa7-824b-dde4e1e28f73","ios":"levelo://app?vid=8163e3ac-fd5a-4fa7-824b-dde4e1e28f73"},"vehicle_type_id":"4","last_reported":1759152136,"current_range_meters":14400,"station_id":"ce4bgs92rcd13ifvqcc0","pricing_plan_id":"cebpf4jnsgd1na2vs0mg"},{"bike_id":"ce5e157e-4ef2-4c41-9b3b-54d3eecbfa45","system_id":"levelo_inurba_marseille","lat":43.225355,"lon":5.348444,"is_reserved":false,"is_disabled":false,"rental_uris":{"android":"levelo://app?vid=ce5e157e-4ef2-4c41-9b3b-54d3eecbfa45","ios":"levelo://app?vid=ce5e157e-4ef2-4c41-9b3b-54d3eecbfa45"},"vehicle_type_id":"4","last_reported":1759152136,"current_range_meters":14400,"station_id":"","pricing_plan_id":"cebpf4jnsgd1na2vs0mg"},{"bike_id":"aebf0e68-ba27-412a-9ce2-11cc42127dee","system_id":"levelo_inurba_marseille","lat":43.337444,"lon":5.374475,"is_reserved":false,"is_disabled":false,"rental_uris":{"android":"levelo://app?vid=aebf0e68-ba27-412a-9ce2-11cc42127dee","ios":"levelo://app?vid=aebf0e68-ba27-412a-9ce2-11cc42127dee"},"vehicle_type_id":"4","last_reported":1759152136,"current_range_meters":14400,"station_id":"","pricing_plan_id":"cebpf4jnsgd1na2vs0mg"},{"bike_id":"385fa573-6758-43e7-a2f4-f27be30ea572","system_id":"levelo_inurba_marseille","lat":43.32112,"lon":5.3678,"is_reserved":false,"is_disabled":false,"rental_uris":{"android":"levelo://app?vid=385fa573-6758-43e7-a2f4-f27be30ea572","ios":"levelo://app?vid=385fa573-6758-43e7-a2f4-f27be30ea572"},"vehicle_type_id":"4","last_reported":1759152136,"current_range_meters":14800,"station_id":"ce4bhrh2rcd13ifvqhug","pricing_plan_id":"cebpf4jnsgd1na2vs0mg"},{"bike_id":"a408d320-bf90-449d-ac32-8786a8647ad5","system_id":"levelo_inurba_marseille","lat":43.28267,"lon":5.35068,"is_reserved":false,"is_disabled":false,"rental_uris":{"android":"levelo://app?vid=a408d320-bf90-449d-ac32-8786a8647ad5","ios":"levelo://app?vid=a408d320-bf90-449d-ac32-8786a8647ad5"},"vehicle_type_id":"4","last_reported":1759152136,"current_range_meters":14800,"station_id":"ce4bhbp2rcd13ifvqerg","pricing_plan_id":"cebpf4jnsgd1na2vs0mg"},{"bike_id":"14a3f0a0-90f3-46d9-8d60-42e197c98c4f","system_id":"levelo_inurba_marseille","lat":43.26557,"lon":5.37287,"is_reserved":false,"is_disabled":false,"rental_uris":{"android":"levelo://app?vid=14a3f0a0-90f3-46d9-8d60-42e197c98c4f","ios":"levelo://app?vid=14a3f0a0-90f3-46d9-8d60-42e197c98c4f"},"vehicle_type_id":"4","last_reported":1759152136,"current_range_meters":14800,"station_id":"ce4bhg12rcd13ifvqf70","pricing_plan_id":"cebpf4jnsgd1na2vs0mg"},{"bike_id":"1a04738a-bd05-4e7f-b716-ba8d78a51904","system_id":"levelo_inurba_marseille","lat":43.287074,"lon":5.393096,"is_reserved":false,"is_disabled":false,"rental_uris":{"android":"levelo://app?vid=1a04738a-bd05-4e7f-b716-ba8d78a51904","ios":"levelo://app?vid=1a04738a-bd05-4e7f-b716-ba8d78a51904"},"vehicle_type_id":"4","last_reported":1759152136,"current_range_meters":14800,"station_id":"","pricing_plan_id":"cebpf4jnsgd1na2vs0mg"},{"bike_id":"0a8b0e4e-4151-4511-9a3e-a22258611e90","system_id":"levelo_inurba_marseille","lat":43.23967,"lon":5.36631,"is_reserved":false,"is_disabled":false,"rental_uris":{"android":"levelo://app?vid=0a8b0e4e-4151-4511-9a3e-a22258611e90","ios":"levelo://app?vid=0a8b0e4e-4151-4511-9a3e-a22258611e90"},"vehicle_type_id":"4","last_reported":1759152136,"current_range_meters":14800,"station_id":"","pricing_plan_id":"cebpf4jnsgd1na2vs0mg"},{"bike_id":"71fb4166-4b92-4e50-bfa8-ebbc29aa1b65","system_id":"levelo_inurba_marseille","lat":43.28463,"lon":5.35875,"is_reserved":false,"is_disabled":false,"rental_uris":{"android":"levelo://app?vid=71fb4166-4b92-4e50-bfa8-ebbc29aa1b65","ios":"levelo://app?vid=71fb4166-4b92-4e50-bfa8-ebbc29aa1b65"},"vehicle_type_id":"4","last_reported":1759152136,"current_range_meters":14800,"station_id":"ce4bhah2rcd13ifvqei0","pricing_plan_id":"cebpf4jnsgd1na2vs0mg"},{"bike_id":"56d6a008-a903-4bd5-8ee3-1cec5d05c634","system_id":"levelo_inurba_marseille","lat":43.31749,"lon":5.39024,"is_reserved":false,"is_disabled":false,"rental_uris":{"android":"levelo://app?vid=56d6a008-a903-4bd5-8ee3-1cec5d05c634","ios":"levelo://app?vid=56d6a008-a903-4bd5-8ee3-1cec5d05c634"},"vehicle_type_id":"4","last_reported":1759152136,"current_range_meters":14800,"station_id":"ce4bhqp2rcd13ifvqhng","pricing_plan_id":"cebpf4jnsgd1na2vs0mg"},{"bike_id":"71e1d072-e9a0-48ec-8952-5f450bc303dc","system_id":"levelo_inurba_marseille","lat":43.30792,"lon":5.37641,"is_reserved":false,"is_disabled":false,"rental_uris":{"android":"levelo://app?vid=71e1d072-e9a0-48ec-8952-5f450bc303dc","ios":"levelo://app?vid=71e1d072-e9a0-48ec-8952-5f450bc303dc"},"vehicle_type_id":"4","last_reported":1759152136,"current_range_meters":14800,"station_id":"ce4bgv92rcd13ifvqcq0","pricing_plan_id":"cebpf4jnsgd1na2vs0mg"},{"bike_id":"9f8016d4-7cfd-4da9-98fe-979484415ac7","system_id":"levelo_inurba_marseille","lat":43.30541,"lon":5.36703,"is_reserved":false,"is_disabled":false,"rental_uris":{"android":"levelo://app?vid=9f8016d4-7cfd-4da9-98fe-979484415ac7","ios":"levelo://app?vid=9f8016d4-7cfd-4da9-98fe-979484415ac7"},"vehicle_type_id":"4","last_reported":1759152136,"current_range_meters":14800,"station_id":"ce4bgrp2rcd13ifvqc9g","pricing_plan_id":"cebpf4jnsgd1na2vs0mg"},{"bike_id":"19db827e-8838-40be-ba7a-1ee0d4aa85f9","system_id":"levelo_inurba_marseille","lat":43.211964,"lon":5.350689,"is_reserved":false,"is_disabled":false,"rental_uris":{"android":"levelo://app?vid=19db827e-8838-40be-ba7a-1ee0d4aa85f9","ios":"levelo://app?vid=19db827e-8838-40be-ba7a-1ee0d4aa85f9"},"vehicle_type_id":"4","last_reported":1759152136,"current_range_meters":15200,"station_id":"st_cvj6sg6p6f1abm77japg","pricing_plan_id":"cebpf4jnsgd1na2vs0mg"},{"bike_id":"e18b0798-8d8e-4b05-bfef-0e7a989f1f56","system_id":"levelo_inurba_marseille","lat":43.30605,"lon":5.37204,"is_reserved":false,"is_disabled":false,"rental_uris":{"android":"levelo://app?vid=e18b0798-8d8e-4b05-bfef-0e7a989f1f56","ios":"levelo://app?vid=e18b0798-8d8e-4b05-bfef-0e7a989f1f56"},"vehicle_type_id":"4","last_reported":1759152136,"current_range_meters":15200,"station_id":"ce4bgqh2rcd13ifvqc4g","pricing_plan_id":"cebpf4jnsgd1na2vs0mg"},{"bike_id":"3634d4eb-e2d9-4dab-85f1-a5fe512e1c98","system_id":"levelo_inurba_marseille","lat":43.31346,"lon":5.36713,"is_reserved":false,"is_disabled":false,"rental_uris":{"android":"levelo://app?vid=3634d4eb-e2d9-4dab-85f1-a5fe512e1c98","ios":"levelo://app?vid=3634d4eb-e2d9-4dab-85f1-a5fe512e1c98"},"vehicle_type_id":"4","last_reported":1759152136,"current_range_meters":15200,"station_id":"ce4bgr92rcd13ifvqc6g","pricing_plan_id":"cebpf4jnsgd1na2vs0mg"},{"bike_id":"8cbcf5e7-b804-4925-bbed-5f57e8580ccf","system_id":"levelo_inurba_marseille","lat":43.31519,"lon":5.36803,"is_reserved":false,"is_disabled":false,"rental_uris":{"android":"levelo://app?vid=8cbcf5e7-b804-4925-bbed-5f57e8580ccf","ios":"levelo://app?vid=8cbcf5e7-b804-4925-bbed-5f57e8580ccf"},"vehicle_type_id":"4","last_reported":1759152136,"current_range_meters":15200,"station_id":"","pricing_plan_id":"cebpf4jnsgd1na2vs0mg"},{"bike_id":"224bc697-1248-4c6a-8f24-f19ae0f03a6d","system_id":"levelo_inurba_marseille","lat":43.287142,"lon":5.379459,"is_reserved":false,"is_disabled":false,"rental_uris":{"android":"levelo://app?vid=224bc697-1248-4c6a-8f24-f19ae0f03a6d","ios":"levelo://app?vid=224bc697-1248-4c6a-8f24-f19ae0f03a6d"},"vehicle_type_id":"4","last_reported":1759152136,"current_range_meters":14800,"station_id":"ce4bh9p2rcd13ifvqec0","pricing_plan_id":"cebpf4jnsgd1na2vs0mg"},{"bike_id":"f75f4641-7789-414e-a2ca-8fa1f055cf25","system_id":"levelo_inurba_marseille","lat":43.28269,"lon":5.35056,"is_reserved":false,"is_disabled":false,"rental_uris":{"android":"levelo://app?vid=f75f4641-7789-414e-a2ca-8fa1f055cf25","ios":"levelo://app?vid=f75f4641-7789-414e-a2ca-8fa1f055cf25"},"vehicle_type_id":"4","last_reported":1759152136,"current_range_meters":15200,"station_id":"ce4bhbp2rcd13ifvqerg","pricing_plan_id":"cebpf4jnsgd1na2vs0mg"},{"bike_id":"99ce2063-5dfb-4ed3-a4a6-8fc3a54c4890","system_id":"levelo_inurba_marseille","lat":43.337444,"lon":5.374475,"is_reserved":false,"is_disabled":false,"rental_uris":{"android":"levelo://app?vid=99ce2063-5dfb-4ed3-a4a6-8fc3a54c4890","ios":"levelo://app?vid=99ce2063-5dfb-4ed3-a4a6-8fc3a54c4890"},"vehicle_type_id":"4","last_reported":1759152136,"current_range_meters":15200,"station_id":"","pricing_plan_id":"cebpf4jnsgd1na2vs0mg"},{"bike_id":"0d9c40ec-031a-4831-b45d-0985976c931c","system_id":"levelo_inurba_marseille","lat":43.24071,"lon":5.3774,"is_reserved":false,"is_disabled":false,"rental_uris":{"android":"levelo://app?vid=0d9c40ec-031a-4831-b45d-0985976c931c","ios":"levelo://app?vid=0d9c40ec-031a-4831-b45d-0985976c931c"},"vehicle_type_id":"4","last_reported":1759152136,"current_range_meters":16000,"station_id":"ce4bhnp2rcd13ifvqgvg","pricing_plan_id":"cebpf4jnsgd1na2vs0mg"},{"bike_id":"f4ad2316-8e4e-4196-ab18-e613bd6527e8","system_id":"levelo_inurba_marseille","lat":43.28948,"lon":5.36389,"is_reserved":false,"is_disabled":false,"rental_uris":{"android":"levelo://app?vid=f4ad2316-8e4e-4196-ab18-e613bd6527e8","ios":"levelo://app?vid=f4ad2316-8e4e-4196-ab18-e613bd6527e8"},"vehicle_type_id":"4","last_reported":1759152136,"current_range_meters":16000,"station_id":"ce4bhc92rcd13ifvqetg","pricing_plan_id":"cebpf4jnsgd1na2vs0mg"},{"bike_id":"78edd212-3bd8-4a45-bced-089e3907902a","system_id":"levelo_inurba_marseille","lat":43.32747,"lon":5.42376,"is_reserved":false,"is_disabled":false,"rental_uris":{"android":"levelo://app?vid=78edd212-3bd8-4a45-bced-089e3907902a","ios":"levelo://app?vid=78edd212-3bd8-4a45-bced-089e3907902a"},"vehicle_type_id":"4","last_reported":1759152136,"current_range_meters":16000,"station_id":"","pricing_plan_id":"cebpf4jnsgd1na2vs0mg"},{"bike_id":"d0b9c708-a4f1-4c58-8831-1c40289b24d4","system_id":"levelo_inurba_marseille","lat":43.34141,"lon":5.4088,"is_reserved":false,"is_disabled":false,"rental_uris":{"android":"levelo://app?vid=d0b9c708-a4f1-4c58-8831-1c40289b24d4","ios":"levelo://app?vid=d0b9c708-a4f1-4c58-8831-1c40289b24d4"},"vehicle_type_id":"4","last_reported":1759152136,"current_range_meters":16000,"station_id":"ce4bhqh2rcd13ifvqhlg","pricing_plan_id":"cebpf4jnsgd1na2vs0mg"},{"bike_id":"56542928-319d-4c71-9ab2-64f47bc90370","system_id":"levelo_inurba_marseille","lat":43.3361,"lon":5.41027,"is_reserved":false,"is_disabled":false,"rental_uris":{"android":"levelo://app?vid=56542928-319d-4c71-9ab2-64f47bc90370","ios":"levelo://app?vid=56542928-319d-4c71-9ab2-64f47bc90370"},"vehicle_type_id":"4","last_reported":1759152136,"current_range_meters":15200,"station_id":"ce4bhqh2rcd13ifvqhmg","pricing_plan_id":"cebpf4jnsgd1na2vs0mg"},{"bike_id":"da9e5ae8-2092-42b1-b6f3-70d2618fd848","system_id":"levelo_inurba_marseille","lat":43.23966,"lon":5.36627,"is_reserved":false,"is_disabled":false,"rental_uris":{"android":"levelo://app?vid=da9e5ae8-2092-42b1-b6f3-70d2618fd848","ios":"levelo://app?vid=da9e5ae8-2092-42b1-b6f3-70d2618fd848"},"vehicle_type_id":"4","last_reported":1759152136,"current_range_meters":15200,"station_id":"ce4bhi12rcd13ifvqfp0","pricing_plan_id":"cebpf4jnsgd1na2vs0mg"},{"bike_id":"f0d94024-ce8d-4fa5-94e5-b39b16b0fa09","system_id":"levelo_inurba_marseille","lat":43.32367,"lon":5.3888,"is_reserved":false,"is_disabled":false,"rental_uris":{"android":"levelo://app?vid=f0d94024-ce8d-4fa5-94e5-b39b16b0fa09","ios":"levelo://app?vid=f0d94024-ce8d-4fa5-94e5-b39b16b0fa09"},"vehicle_type_id":"4","last_reported":1759152136,"current_range_meters":16000,"station_id":"ce4bhqp2rcd13ifvqhog","pricing_plan_id":"cebpf4jnsgd1na2vs0mg"},{"bike_id":"91658db2-d6ae-4346-bb4d-02353c95c4ab","system_id":"levelo_inurba_marseille","lat":43.25339,"lon":5.42174,"is_reserved":false,"is_disabled":false,"rental_uris":{"android":"levelo://app?vid=91658db2-d6ae-4346-bb4d-02353c95c4ab","ios":"levelo://app?vid=91658db2-d6ae-4346-bb4d-02353c95c4ab"},"vehicle_type_id":"4","last_reported":1759152136,"current_range_meters":16000,"station_id":"st_d2m65c5bi1j21697t3ng","pricing_plan_id":"cebpf4jnsgd1na2vs0mg"},{"bike_id":"8384dd5a-5cf5-4774-afff-2dd30b3b2435","system_id":"levelo_inurba_marseille","lat":43.26575,"lon":5.3725,"is_reserved":false,"is_disabled":false,"rental_uris":{"android":"levelo://app?vid=8384dd5a-5cf5-4774-afff-2dd30b3b2435","ios":"levelo://app?vid=8384dd5a-5cf5-4774-afff-2dd30b3b2435"},"vehicle_type_id":"4","last_reported":1759152136,"current_range_meters":16000,"station_id":"ce4bhg12rcd13ifvqf70","pricing_plan_id":"cebpf4jnsgd1na2vs0mg"},{"bike_id":"681f4752-558e-47f7-bc8f-c374f47c5fa2","system_id":"levelo_inurba_marseille","lat":43.29617,"lon":5.38099,"is_reserved":false,"is_disabled":false,"rental_uris":{"android":"levelo://app?vid=681f4752-558e-47f7-bc8f-c374f47c5fa2","ios":"levelo://app?vid=681f4752-558e-47f7-bc8f-c374f47c5fa2"},"vehicle_type_id":"4","last_reported":1759152136,"current_range_meters":16000,"station_id":"ce4bgl12rcd13ifvqbo0","pricing_plan_id":"cebpf4jnsgd1na2vs0mg"},{"bike_id":"872b098e-8d73-4e68-9657-856be53a7655","system_id":"levelo_inurba_marseille","lat":43.309281,"lon":5.368346,"is_reserved":false,"is_disabled":false,"rental_uris":{"android":"levelo://app?vid=872b098e-8d73-4e68-9657-856be53a7655","ios":"levelo://app?vid=872b098e-8d73-4e68-9657-856be53a7655"},"vehicle_type_id":"4","last_reported":1759152136,"current_range_meters":16000,"station_id":"ce4bgn92rcd13ifvqbvg","pricing_plan_id":"cebpf4jnsgd1na2vs0mg"},{"bike_id":"de2ec564-4867-438e-a87e-748daefffa73","system_id":"levelo_inurba_marseille","lat":43.24948,"lon":5.40495,"is_reserved":false,"is_disabled":false,"rental_uris":{"android":"levelo://app?vid=de2ec564-4867-438e-a87e-748daefffa73","ios":"levelo://app?vid=de2ec564-4867-438e-a87e-748daefffa73"},"vehicle_type_id":"4","last_reported":1759152136,"current_range_meters":16000,"station_id":"st_d2ngiaodas8pm72gd1h0","pricing_plan_id":"cebpf4jnsgd1na2vs0mg"},{"bike_id":"072c8944-a250-4146-8017-a5fbe5e6738b","system_id":"levelo_inurba_marseille","lat":43.2176,"lon":5.34603,"is_reserved":false,"is_disabled":false,"rental_uris":{"android":"levelo://app?vid=072c8944-a250-4146-8017-a5fbe5e6738b","ios":"levelo://app?vid=072c8944-a250-4146-8017-a5fbe5e6738b"},"vehicle_type_id":"4","last_reported":1759152136,"current_range_meters":16000,"station_id":"st_cvj6r9ubvosntc0bgbag","pricing_plan_id":"cebpf4jnsgd1na2vs0mg"},{"bike_id":"debfb271-4075-4682-ab16-7fec655566f6","system_id":"levelo_inurba_marseille","lat":43.29741,"lon":5.3765,"is_reserved":false,"is_disabled":false,"rental_uris":{"android":"levelo://app?vid=debfb271-4075-4682-ab16-7fec655566f6","ios":"levelo://app?vid=debfb271-4075-4682-ab16-7fec655566f6"},"vehicle_type_id":"4","last_reported":1759152136,"current_range_meters":15200,"station_id":"ce4bgkh2rcd13ifvqbl0","pricing_plan_id":"cebpf4jnsgd1na2vs0mg"},{"bike_id":"36c1f0d4-98d0-441d-8881-74948ad6e7cc","system_id":"levelo_inurba_marseille","lat":43.33559,"lon":5.41109,"is_reserved":false,"is_disabled":false,"rental_uris":{"android":"levelo://app?vid=36c1f0d4-98d0-441d-8881-74948ad6e7cc","ios":"levelo://app?vid=36c1f0d4-98d0-441d-8881-74948ad6e7cc"},"vehicle_type_id":"4","last_reported":1759152136,"current_range_meters":16000,"station_id":"","pricing_plan_id":"cebpf4jnsgd1na2vs0mg"},{"bike_id":"60439a97-5dd2-4616-ad31-e3dd28bda889","system_id":"levelo_inurba_marseille","lat":43.311053,"lon":5.385775,"is_reserved":false,"is_disabled":false,"rental_uris":{"android":"levelo://app?vid=60439a97-5dd2-4616-ad31-e3dd28bda889","ios":"levelo://app?vid=60439a97-5dd2-4616-ad31-e3dd28bda889"},"vehicle_type_id":"4","last_reported":1759152136,"current_range_meters":16000,"station_id":"","pricing_plan_id":"cebpf4jnsgd1na2vs0mg"},{"bike_id":"b8cc1bf1-694a-46a8-8c23-3d70e540df3d","system_id":"levelo_inurba_marseille","lat":43.258434,"lon":5.410193,"is_reserved":false,"is_disabled":false,"rental_uris":{"android":"levelo://app?vid=b8cc1bf1-694a-46a8-8c23-3d70e540df3d","ios":"levelo://app?vid=b8cc1bf1-694a-46a8-8c23-3d70e540df3d"},"vehicle_type_id":"4","last_reported":1759152136,"current_range_meters":16000,"station_id":"","pricing_plan_id":"cebpf4jnsgd1na2vs0mg"},{"bike_id":"9b31b632-8007-4bcc-97fc-dffeb5e73334","system_id":"levelo_inurba_marseille","lat":43.23198,"lon":5.35555,"is_reserved":false,"is_disabled":false,"rental_uris":{"android":"levelo://app?vid=9b31b632-8007-4bcc-97fc-dffeb5e73334","ios":"levelo://app?vid=9b31b632-8007-4bcc-97fc-dffeb5e73334"},"vehicle_type_id":"4","last_reported":1759152136,"current_range_meters":15200,"station_id":"ce4bhu92rcd13ifvqi70","pricing_plan_id":"cebpf4jnsgd1na2vs0mg"},{"bike_id":"00b3c5d5-9ad5-4872-b372-089fa3a04914","system_id":"levelo_inurba_marseille","lat":43.286376,"lon":5.354934,"is_reserved":false,"is_disabled":false,"rental_uris":{"android":"levelo://app?vid=00b3c5d5-9ad5-4872-b372-089fa3a04914","ios":"levelo://app?vid=00b3c5d5-9ad5-4872-b372-089fa3a04914"},"vehicle_type_id":"4","last_reported":1759152136,"current_range_meters":16000,"station_id":"","pricing_plan_id":"cebpf4jnsgd1na2vs0mg"},{"bike_id":"92662833-c6ac-4b02-b7df-1638b54b1972","system_id":"levelo_inurba_marseille","lat":43.33742,"lon":5.37449,"is_reserved":false,"is_disabled":false,"rental_uris":{"android":"levelo://app?vid=92662833-c6ac-4b02-b7df-1638b54b1972","ios":"levelo://app?vid=92662833-c6ac-4b02-b7df-1638b54b1972"},"vehicle_type_id":"4","last_reported":1759152136,"current_range_meters":16000,"station_id":"","pricing_plan_id":"cebpf4jnsgd1na2vs0mg"},{"bike_id":"f8d78e5f-60e1-4623-939f-49e76ff16505","system_id":"levelo_inurba_marseille","lat":43.33742,"lon":5.37448,"is_reserved":false,"is_disabled":false,"rental_uris":{"android":"levelo://app?vid=f8d78e5f-60e1-4623-939f-49e76ff16505","ios":"levelo://app?vid=f8d78e5f-60e1-4623-939f-49e76ff16505"},"vehicle_type_id":"4","last_reported":1759152136,"current_range_meters":16000,"station_id":"","pricing_plan_id":"cebpf4jnsgd1na2vs0mg"},{"bike_id":"cd170905-765c-4d7e-b362-aece577e492d","system_id":"levelo_inurba_marseille","lat":43.27517,"lon":5.42501,"is_reserved":false,"is_disabled":false,"rental_uris":{"android":"levelo://app?vid=cd170905-765c-4d7e-b362-aece577e492d","ios":"levelo://app?vid=cd170905-765c-4d7e-b362-aece577e492d"},"vehicle_type_id":"4","last_reported":1759152136,"current_range_meters":16400,"station_id":"ce4bhn92rcd13ifvqgrg","pricing_plan_id":"cebpf4jnsgd1na2vs0mg"},{"bike_id":"aa761cc9-200b-4ea5-b1e6-2a9971f22436","system_id":"levelo_inurba_marseille","lat":43.26557,"lon":5.37285,"is_reserved":false,"is_disabled":false,"rental_uris":{"android":"levelo://app?vid=aa761cc9-200b-4ea5-b1e6-2a9971f22436","ios":"levelo://app?vid=aa761cc9-200b-4ea5-b1e6-2a9971f22436"},"vehicle_type_id":"4","last_reported":1759152136,"current_range_meters":16400,"station_id":"ce4bhg12rcd13ifvqf70","pricing_plan_id":"cebpf4jnsgd1na2vs0mg"},{"bike_id":"35674f30-45d2-4192-a400-f0f8445d4437","system_id":"levelo_inurba_marseille","lat":43.31056,"lon":5.40073,"is_reserved":false,"is_disabled":false,"rental_uris":{"android":"levelo://app?vid=35674f30-45d2-4192-a400-f0f8445d4437","ios":"levelo://app?vid=35674f30-45d2-4192-a400-f0f8445d4437"},"vehicle_type_id":"4","last_reported":1759152136,"current_range_meters":16400,"station_id":"","pricing_plan_id":"cebpf4jnsgd1na2vs0mg"},{"bike_id":"3c3ca4cf-a810-44fa-8a2f-81388177e0d3","system_id":"levelo_inurba_marseille","lat":43.30123,"lon":5.39843,"is_reserved":false,"is_disabled":false,"rental_uris":{"android":"levelo://app?vid=3c3ca4cf-a810-44fa-8a2f-81388177e0d3","ios":"levelo://app?vid=3c3ca4cf-a810-44fa-8a2f-81388177e0d3"},"vehicle_type_id":"4","last_reported":1759152136,"current_range_meters":16400,"station_id":"ce4bh0h2rcd13ifvqd40","pricing_plan_id":"cebpf4jnsgd1na2vs0mg"},{"bike_id":"892e70c6-af11-4c9f-9662-661ea36c448c","system_id":"levelo_inurba_marseille","lat":43.30554,"lon":5.36734,"is_reserved":false,"is_disabled":false,"rental_uris":{"android":"levelo://app?vid=892e70c6-af11-4c9f-9662-661ea36c448c","ios":"levelo://app?vid=892e70c6-af11-4c9f-9662-661ea36c448c"},"vehicle_type_id":"4","last_reported":1759152136,"current_range_meters":16400,"station_id":"ce4bgrp2rcd13ifvqc9g","pricing_plan_id":"cebpf4jnsgd1na2vs0mg"},{"bike_id":"b2cf005e-1bc5-4616-9e17-028539dbf7b3","system_id":"levelo_inurba_marseille","lat":43.28619,"lon":5.35105,"is_reserved":false,"is_disabled":false,"rental_uris":{"android":"levelo://app?vid=b2cf005e-1bc5-4616-9e17-028539dbf7b3","ios":"levelo://app?vid=b2cf005e-1bc5-4616-9e17-028539dbf7b3"},"vehicle_type_id":"4","last_reported":1759152136,"current_range_meters":16400,"station_id":"ce4bhch2rcd13ifvqeug","pricing_plan_id":"cebpf4jnsgd1na2vs0mg"},{"bike_id":"3692b188-2237-41fd-ae2d-6f577d00391e","system_id":"levelo_inurba_marseille","lat":43.28621,"lon":5.35102,"is_reserved":false,"is_disabled":false,"rental_uris":{"android":"levelo://app?vid=3692b188-2237-41fd-ae2d-6f577d00391e","ios":"levelo://app?vid=3692b188-2237-41fd-ae2d-6f577d00391e"},"vehicle_type_id":"4","last_reported":1759152136,"current_range_meters":16400,"station_id":"ce4bhch2rcd13ifvqeug","pricing_plan_id":"cebpf4jnsgd1na2vs0mg"},{"bike_id":"80b5fb73-136e-4680-8036-58f330815653","system_id":"levelo_inurba_marseille","lat":43.3092,"lon":5.36846,"is_reserved":false,"is_disabled":false,"rental_uris":{"android":"levelo://app?vid=80b5fb73-136e-4680-8036-58f330815653","ios":"levelo://app?vid=80b5fb73-136e-4680-8036-58f330815653"},"vehicle_type_id":"4","last_reported":1759152136,"current_range_meters":16400,"station_id":"ce4bgn92rcd13ifvqbvg","pricing_plan_id":"cebpf4jnsgd1na2vs0mg"},{"bike_id":"32cde428-cce8-4938-a912-5fe9e357d66c","system_id":"levelo_inurba_marseille","lat":43.29689,"lon":5.36592,"is_reserved":false,"is_disabled":false,"rental_uris":{"android":"levelo://app?vid=32cde428-cce8-4938-a912-5fe9e357d66c","ios":"levelo://app?vid=32cde428-cce8-4938-a912-5fe9e357d66c"},"vehicle_type_id":"4","last_reported":1759152136,"current_range_meters":16400,"station_id":"ce4bgn12rcd13ifvqbt0","pricing_plan_id":"cebpf4jnsgd1na2vs0mg"},{"bike_id":"d310fb3c-51fd-428a-947a-97a053af481f","system_id":"levelo_inurba_marseille","lat":43.313433,"lon":5.367273,"is_reserved":false,"is_disabled":false,"rental_uris":{"android":"levelo://app?vid=d310fb3c-51fd-428a-947a-97a053af481f","ios":"levelo://app?vid=d310fb3c-51fd-428a-947a-97a053af481f"},"vehicle_type_id":"4","last_reported":1759152136,"current_range_meters":16400,"station_id":"ce4bgr92rcd13ifvqc6g","pricing_plan_id":"cebpf4jnsgd1na2vs0mg"},{"bike_id":"56ca0258-bee9-4eb2-b3c5-63b5cd0b9e67","system_id":"levelo_inurba_marseille","lat":43.33737,"lon":5.37445,"is_reserved":false,"is_disabled":false,"rental_uris":{"android":"levelo://app?vid=56ca0258-bee9-4eb2-b3c5-63b5cd0b9e67","ios":"levelo://app?vid=56ca0258-bee9-4eb2-b3c5-63b5cd0b9e67"},"vehicle_type_id":"4","last_reported":1759152136,"current_range_meters":16400,"station_id":"","pricing_plan_id":"cebpf4jnsgd1na2vs0mg"},{"bike_id":"abeec67d-baf9-4647-8576-859cc18e3cb1","system_id":"levelo_inurba_marseille","lat":43.28854,"lon":5.35852,"is_reserved":false,"is_disabled":false,"rental_uris":{"android":"levelo://app?vid=abeec67d-baf9-4647-8576-859cc18e3cb1","ios":"levelo://app?vid=abeec67d-baf9-4647-8576-859cc18e3cb1"},"vehicle_type_id":"4","last_reported":1759152136,"current_range_meters":16800,"station_id":"ce4bhb12rcd13ifvqem0","pricing_plan_id":"cebpf4jnsgd1na2vs0mg"},{"bike_id":"96520869-d013-4e0c-a355-f7bbd728ba84","system_id":"levelo_inurba_marseille","lat":43.32357,"lon":5.36769,"is_reserved":false,"is_disabled":false,"rental_uris":{"android":"levelo://app?vid=96520869-d013-4e0c-a355-f7bbd728ba84","ios":"levelo://app?vid=96520869-d013-4e0c-a355-f7bbd728ba84"},"vehicle_type_id":"4","last_reported":1759152136,"current_range_meters":16800,"station_id":"ce4bhsh2rcd13ifvqi2g","pricing_plan_id":"cebpf4jnsgd1na2vs0mg"},{"bike_id":"823968c5-6c9b-4fc4-b277-e5fcb919fdc2","system_id":"levelo_inurba_marseille","lat":43.28282,"lon":5.35066,"is_reserved":false,"is_disabled":false,"rental_uris":{"android":"levelo://app?vid=823968c5-6c9b-4fc4-b277-e5fcb919fdc2","ios":"levelo://app?vid=823968c5-6c9b-4fc4-b277-e5fcb919fdc2"},"vehicle_type_id":"4","last_reported":1759152136,"current_range_meters":16800,"station_id":"ce4bhbp2rcd13ifvqerg","pricing_plan_id":"cebpf4jnsgd1na2vs0mg"},{"bike_id":"738a51a6-02d0-4def-8f3f-9c82f6a6dd05","system_id":"levelo_inurba_marseille","lat":43.323625,"lon":5.367415,"is_reserved":false,"is_disabled":false,"rental_uris":{"android":"levelo://app?vid=738a51a6-02d0-4def-8f3f-9c82f6a6dd05","ios":"levelo://app?vid=738a51a6-02d0-4def-8f3f-9c82f6a6dd05"},"vehicle_type_id":"4","last_reported":1759152136,"current_range_meters":16800,"station_id":"ce4bhsh2rcd13ifvqi2g","pricing_plan_id":"cebpf4jnsgd1na2vs0mg"},{"bike_id":"9174e38a-f6c5-4657-8d7b-aa4f7ece4421","system_id":"levelo_inurba_marseille","lat":43.25337,"lon":5.42172,"is_reserved":false,"is_disabled":false,"rental_uris":{"android":"levelo://app?vid=9174e38a-f6c5-4657-8d7b-aa4f7ece4421","ios":"levelo://app?vid=9174e38a-f6c5-4657-8d7b-aa4f7ece4421"},"vehicle_type_id":"4","last_reported":1759152136,"current_range_meters":16800,"station_id":"st_d2m65c5bi1j21697t3ng","pricing_plan_id":"cebpf4jnsgd1na2vs0mg"},{"bike_id":"5c3b4228-b227-402c-a874-06485013760e","system_id":"levelo_inurba_marseille","lat":43.23149,"lon":5.43717,"is_reserved":false,"is_disabled":false,"rental_uris":{"android":"levelo://app?vid=5c3b4228-b227-402c-a874-06485013760e","ios":"levelo://app?vid=5c3b4228-b227-402c-a874-06485013760e"},"vehicle_type_id":"4","last_reported":1759152136,"current_range_meters":16800,"station_id":"ce4bhmp2rcd13ifvqgog","pricing_plan_id":"cebpf4jnsgd1na2vs0mg"},{"bike_id":"a5c6eb85-29a2-4a9e-bfee-0bd9b6a73c72","system_id":"levelo_inurba_marseille","lat":43.25003,"lon":5.38928,"is_reserved":false,"is_disabled":false,"rental_uris":{"android":"levelo://app?vid=a5c6eb85-29a2-4a9e-bfee-0bd9b6a73c72","ios":"levelo://app?vid=a5c6eb85-29a2-4a9e-bfee-0bd9b6a73c72"},"vehicle_type_id":"4","last_reported":1759152136,"current_range_meters":16800,"station_id":"ce4bhgp2rcd13ifvqfd0","pricing_plan_id":"cebpf4jnsgd1na2vs0mg"},{"bike_id":"eff87eec-f56a-4fa3-96c2-d4aa6e0695b8","system_id":"levelo_inurba_marseille","lat":43.28387,"lon":5.37521,"is_reserved":false,"is_disabled":false,"rental_uris":{"android":"levelo://app?vid=eff87eec-f56a-4fa3-96c2-d4aa6e0695b8","ios":"levelo://app?vid=eff87eec-f56a-4fa3-96c2-d4aa6e0695b8"},"vehicle_type_id":"4","last_reported":1759152136,"current_range_meters":16800,"station_id":"ce4bh412rcd13ifvqds0","pricing_plan_id":"cebpf4jnsgd1na2vs0mg"},{"bike_id":"25925e12-644e-4d51-9d41-1c59d0ff7501","system_id":"levelo_inurba_marseille","lat":43.28487,"lon":5.38551,"is_reserved":false,"is_disabled":false,"rental_uris":{"android":"levelo://app?vid=25925e12-644e-4d51-9d41-1c59d0ff7501","ios":"levelo://app?vid=25925e12-644e-4d51-9d41-1c59d0ff7501"},"vehicle_type_id":"4","last_reported":1759152136,"current_range_meters":16800,"station_id":"ce4bh8p2rcd13ifvqeb0","pricing_plan_id":"cebpf4jnsgd1na2vs0mg"},{"bike_id":"c64842eb-0f04-44f0-ab7e-8a910d80de06","system_id":"levelo_inurba_marseille","lat":43.30918,"lon":5.36859,"is_reserved":false,"is_disabled":false,"rental_uris":{"android":"levelo://app?vid=c64842eb-0f04-44f0-ab7e-8a910d80de06","ios":"levelo://app?vid=c64842eb-0f04-44f0-ab7e-8a910d80de06"},"vehicle_type_id":"4","last_reported":1759152136,"current_range_meters":17200,"station_id":"ce4bgn92rcd13ifvqbvg","pricing_plan_id":"cebpf4jnsgd1na2vs0mg"},{"bike_id":"7f11b587-c2c7-4b8d-a912-edf32429e6a4","system_id":"levelo_inurba_marseille","lat":43.30188,"lon":5.3663,"is_reserved":false,"is_disabled":false,"rental_uris":{"android":"levelo://app?vid=7f11b587-c2c7-4b8d-a912-edf32429e6a4","ios":"levelo://app?vid=7f11b587-c2c7-4b8d-a912-edf32429e6a4"},"vehicle_type_id":"4","last_reported":1759152136,"current_range_meters":17200,"station_id":"ce4bgrh2rcd13ifvqc8g","pricing_plan_id":"cebpf4jnsgd1na2vs0mg"},{"bike_id":"8f8c7399-2d47-4c85-9a91-750d0793552e","system_id":"levelo_inurba_marseille","lat":43.3053,"lon":5.36702,"is_reserved":false,"is_disabled":false,"rental_uris":{"android":"levelo://app?vid=8f8c7399-2d47-4c85-9a91-750d0793552e","ios":"levelo://app?vid=8f8c7399-2d47-4c85-9a91-750d0793552e"},"vehicle_type_id":"4","last_reported":1759152136,"current_range_meters":17200,"station_id":"ce4bgrp2rcd13ifvqc9g","pricing_plan_id":"cebpf4jnsgd1na2vs0mg"},{"bike_id":"0aba4fe3-5dca-4d79-8b9d-2fc77d6e7d70","system_id":"levelo_inurba_marseille","lat":43.28418,"lon":5.349815,"is_reserved":false,"is_disabled":false,"rental_uris":{"android":"levelo://app?vid=0aba4fe3-5dca-4d79-8b9d-2fc77d6e7d70","ios":"levelo://app?vid=0aba4fe3-5dca-4d79-8b9d-2fc77d6e7d70"},"vehicle_type_id":"4","last_reported":1759152136,"current_range_meters":17200,"station_id":"","pricing_plan_id":"cebpf4jnsgd1na2vs0mg"},{"bike_id":"33ae8c7f-5ec5-4b6d-a1b8-1173a0cce44f","system_id":"levelo_inurba_marseille","lat":43.29913,"lon":5.37468,"is_reserved":false,"is_disabled":false,"rental_uris":{"android":"levelo://app?vid=33ae8c7f-5ec5-4b6d-a1b8-1173a0cce44f","ios":"levelo://app?vid=33ae8c7f-5ec5-4b6d-a1b8-1173a0cce44f"},"vehicle_type_id":"4","last_reported":1759152136,"current_range_meters":17200,"station_id":"ce4bgjh2rcd13ifvqbg0","pricing_plan_id":"cebpf4jnsgd1na2vs0mg"},{"bike_id":"6f316bf5-0c4d-41b9-8230-84bf4487f34f","system_id":"levelo_inurba_marseille","lat":43.23984,"lon":5.36597,"is_reserved":false,"is_disabled":false,"rental_uris":{"android":"levelo://app?vid=6f316bf5-0c4d-41b9-8230-84bf4487f34f","ios":"levelo://app?vid=6f316bf5-0c4d-41b9-8230-84bf4487f34f"},"vehicle_type_id":"4","last_reported":1759152136,"current_range_meters":17200,"station_id":"ce4bhi12rcd13ifvqfp0","pricing_plan_id":"cebpf4jnsgd1na2vs0mg"},{"bike_id":"f44df0c8-3c0a-4103-982e-900169d96e81","system_id":"levelo_inurba_marseille","lat":43.32093,"lon":5.36759,"is_reserved":false,"is_disabled":false,"rental_uris":{"android":"levelo://app?vid=f44df0c8-3c0a-4103-982e-900169d96e81","ios":"levelo://app?vid=f44df0c8-3c0a-4103-982e-900169d96e81"},"vehicle_type_id":"4","last_reported":1759152136,"current_range_meters":17200,"station_id":"ce4bhrh2rcd13ifvqhug","pricing_plan_id":"cebpf4jnsgd1na2vs0mg"},{"bike_id":"13604148-437a-4148-9ed9-019ca4e03ec3","system_id":"levelo_inurba_marseille","lat":43.24657,"lon":5.43127,"is_reserved":false,"is_disabled":false,"rental_uris":{"android":"levelo://app?vid=13604148-437a-4148-9ed9-019ca4e03ec3","ios":"levelo://app?vid=13604148-437a-4148-9ed9-019ca4e03ec3"},"vehicle_type_id":"4","last_reported":1759152136,"current_range_meters":17200,"station_id":"st_d2m6c4gdas8pm72e190g","pricing_plan_id":"cebpf4jnsgd1na2vs0mg"},{"bike_id":"71dda01b-364c-4c0a-947d-85163b4f5f54","system_id":"levelo_inurba_marseille","lat":43.30932,"lon":5.40147,"is_reserved":false,"is_disabled":false,"rental_uris":{"android":"levelo://app?vid=71dda01b-364c-4c0a-947d-85163b4f5f54","ios":"levelo://app?vid=71dda01b-364c-4c0a-947d-85163b4f5f54"},"vehicle_type_id":"4","last_reported":1759152136,"current_range_meters":17200,"station_id":"ce4bgvp2rcd13ifvqct0","pricing_plan_id":"cebpf4jnsgd1na2vs0mg"},{"bike_id":"797689f9-404f-47ce-8502-a563ab8a5dc0","system_id":"levelo_inurba_marseille","lat":43.24388,"lon":5.37052,"is_reserved":false,"is_disabled":false,"rental_uris":{"android":"levelo://app?vid=797689f9-404f-47ce-8502-a563ab8a5dc0","ios":"levelo://app?vid=797689f9-404f-47ce-8502-a563ab8a5dc0"},"vehicle_type_id":"4","last_reported":1759152136,"current_range_meters":17600,"station_id":"ce4bhhh2rcd13ifvqfk0","pricing_plan_id":"cebpf4jnsgd1na2vs0mg"},{"bike_id":"6199221e-cb34-4ffc-a4c2-2cb3a099145c","system_id":"levelo_inurba_marseille","lat":43.23958,"lon":5.36633,"is_reserved":false,"is_disabled":false,"rental_uris":{"android":"levelo://app?vid=6199221e-cb34-4ffc-a4c2-2cb3a099145c","ios":"levelo://app?vid=6199221e-cb34-4ffc-a4c2-2cb3a099145c"},"vehicle_type_id":"4","last_reported":1759152136,"current_range_meters":17600,"station_id":"ce4bhi12rcd13ifvqfp0","pricing_plan_id":"cebpf4jnsgd1na2vs0mg"},{"bike_id":"30d094b1-4585-4bc7-96ac-e016ef23b639","system_id":"levelo_inurba_marseille","lat":43.3016,"lon":5.37416,"is_reserved":false,"is_disabled":false,"rental_uris":{"android":"levelo://app?vid=30d094b1-4585-4bc7-96ac-e016ef23b639","ios":"levelo://app?vid=30d094b1-4585-4bc7-96ac-e016ef23b639"},"vehicle_type_id":"4","last_reported":1759152136,"current_range_meters":17600,"station_id":"ce4bgs92rcd13ifvqcc0","pricing_plan_id":"cebpf4jnsgd1na2vs0mg"},{"bike_id":"bc1875da-bbc2-4246-b70e-c8eadcfdd1e9","system_id":"levelo_inurba_marseille","lat":43.24071,"lon":5.37758,"is_reserved":false,"is_disabled":false,"rental_uris":{"android":"levelo://app?vid=bc1875da-bbc2-4246-b70e-c8eadcfdd1e9","ios":"levelo://app?vid=bc1875da-bbc2-4246-b70e-c8eadcfdd1e9"},"vehicle_type_id":"4","last_reported":1759152136,"current_range_meters":17600,"station_id":"ce4bhnp2rcd13ifvqgvg","pricing_plan_id":"cebpf4jnsgd1na2vs0mg"},{"bike_id":"b1f50093-2e11-4283-86a0-13302b5a1c02","system_id":"levelo_inurba_marseille","lat":43.26038,"lon":5.37544,"is_reserved":false,"is_disabled":false,"rental_uris":{"android":"levelo://app?vid=b1f50093-2e11-4283-86a0-13302b5a1c02","ios":"levelo://app?vid=b1f50093-2e11-4283-86a0-13302b5a1c02"},"vehicle_type_id":"4","last_reported":1759152136,"current_range_meters":17600,"station_id":"ce4bhgh2rcd13ifvqfa0","pricing_plan_id":"cebpf4jnsgd1na2vs0mg"},{"bike_id":"7d360dc3-ce58-4e0b-9aae-e94865bf9dd7","system_id":"levelo_inurba_marseille","lat":43.24155,"lon":5.36378,"is_reserved":false,"is_disabled":false,"rental_uris":{"android":"levelo://app?vid=7d360dc3-ce58-4e0b-9aae-e94865bf9dd7","ios":"levelo://app?vid=7d360dc3-ce58-4e0b-9aae-e94865bf9dd7"},"vehicle_type_id":"4","last_reported":1759152136,"current_range_meters":17600,"station_id":"cpo36qri1sfpv3e86is0","pricing_plan_id":"cebpf4jnsgd1na2vs0mg"},{"bike_id":"e62d0b11-3ab5-4d4f-afe5-ddf1e0e826e3","system_id":"levelo_inurba_marseille","lat":43.30283,"lon":5.37727,"is_reserved":false,"is_disabled":false,"rental_uris":{"android":"levelo://app?vid=e62d0b11-3ab5-4d4f-afe5-ddf1e0e826e3","ios":"levelo://app?vid=e62d0b11-3ab5-4d4f-afe5-ddf1e0e826e3"},"vehicle_type_id":"4","last_reported":1759152136,"current_range_meters":17200,"station_id":"ce4bguh2rcd13ifvqcj0","pricing_plan_id":"cebpf4jnsgd1na2vs0mg"},{"bike_id":"055451a7-8a0c-49ed-9e82-8947a23ec06f","system_id":"levelo_inurba_marseille","lat":43.30142,"lon":5.37415,"is_reserved":false,"is_disabled":false,"rental_uris":{"android":"levelo://app?vid=055451a7-8a0c-49ed-9e82-8947a23ec06f","ios":"levelo://app?vid=055451a7-8a0c-49ed-9e82-8947a23ec06f"},"vehicle_type_id":"4","last_reported":1759152136,"current_range_meters":17600,"station_id":"ce4bgs92rcd13ifvqcc0","pricing_plan_id":"cebpf4jnsgd1na2vs0mg"},{"bike_id":"52f0823a-12f8-4380-b31f-4f20b6b5fd3e","system_id":"levelo_inurba_marseille","lat":43.28616,"lon":5.35087,"is_reserved":false,"is_disabled":false,"rental_uris":{"android":"levelo://app?vid=52f0823a-12f8-4380-b31f-4f20b6b5fd3e","ios":"levelo://app?vid=52f0823a-12f8-4380-b31f-4f20b6b5fd3e"},"vehicle_type_id":"4","last_reported":1759152136,"current_range_meters":17600,"station_id":"ce4bhch2rcd13ifvqeug","pricing_plan_id":"cebpf4jnsgd1na2vs0mg"},{"bike_id":"33c22d45-451e-4404-877b-8de38f6e4e67","system_id":"levelo_inurba_marseille","lat":43.29877,"lon":5.3765,"is_reserved":false,"is_disabled":false,"rental_uris":{"android":"levelo://app?vid=33c22d45-451e-4404-877b-8de38f6e4e67","ios":"levelo://app?vid=33c22d45-451e-4404-877b-8de38f6e4e67"},"vehicle_type_id":"4","last_reported":1759152136,"current_range_meters":17600,"station_id":"","pricing_plan_id":"cebpf4jnsgd1na2vs0mg"},{"bike_id":"972a2ae6-f1ec-4918-ae5b-c2dae18aa92f","system_id":"levelo_inurba_marseille","lat":43.29577,"lon":5.37514,"is_reserved":false,"is_disabled":false,"rental_uris":{"android":"levelo://app?vid=972a2ae6-f1ec-4918-ae5b-c2dae18aa92f","ios":"levelo://app?vid=972a2ae6-f1ec-4918-ae5b-c2dae18aa92f"},"vehicle_type_id":"4","last_reported":1759152136,"current_range_meters":17600,"station_id":"ce4bgh92rcd13ifvqb50","pricing_plan_id":"cebpf4jnsgd1na2vs0mg"},{"bike_id":"211afd9f-58b0-436e-9b6b-1acbadc34392","system_id":"levelo_inurba_marseille","lat":43.323642,"lon":5.367439,"is_reserved":false,"is_disabled":false,"rental_uris":{"android":"levelo://app?vid=211afd9f-58b0-436e-9b6b-1acbadc34392","ios":"levelo://app?vid=211afd9f-58b0-436e-9b6b-1acbadc34392"},"vehicle_type_id":"4","last_reported":1759152136,"current_range_meters":17600,"station_id":"ce4bhsh2rcd13ifvqi2g","pricing_plan_id":"cebpf4jnsgd1na2vs0mg"},{"bike_id":"17bbf4dd-fba9-4826-8c7d-9be0609a6e2f","system_id":"levelo_inurba_marseille","lat":43.31139,"lon":5.377154,"is_reserved":false,"is_disabled":false,"rental_uris":{"android":"levelo://app?vid=17bbf4dd-fba9-4826-8c7d-9be0609a6e2f","ios":"levelo://app?vid=17bbf4dd-fba9-4826-8c7d-9be0609a6e2f"},"vehicle_type_id":"4","last_reported":1759152136,"current_range_meters":17600,"station_id":"","pricing_plan_id":"cebpf4jnsgd1na2vs0mg"},{"bike_id":"8cdf72a1-7c51-4cb6-889a-6cf13f86cdae","system_id":"levelo_inurba_marseille","lat":43.26541,"lon":5.37339,"is_reserved":false,"is_disabled":false,"rental_uris":{"android":"levelo://app?vid=8cdf72a1-7c51-4cb6-889a-6cf13f86cdae","ios":"levelo://app?vid=8cdf72a1-7c51-4cb6-889a-6cf13f86cdae"},"vehicle_type_id":"4","last_reported":1759152136,"current_range_meters":17600,"station_id":"ce4bhg12rcd13ifvqf70","pricing_plan_id":"cebpf4jnsgd1na2vs0mg"},{"bike_id":"d2f46c9e-a53c-42a7-ad54-fd7c896f4565","system_id":"levelo_inurba_marseille","lat":43.33797,"lon":5.37428,"is_reserved":false,"is_disabled":false,"rental_uris":{"android":"levelo://app?vid=d2f46c9e-a53c-42a7-ad54-fd7c896f4565","ios":"levelo://app?vid=d2f46c9e-a53c-42a7-ad54-fd7c896f4565"},"vehicle_type_id":"4","last_reported":1759152136,"current_range_meters":17600,"station_id":"","pricing_plan_id":"cebpf4jnsgd1na2vs0mg"},{"bike_id":"c47f5c3e-1ff3-43b7-b740-1c081ef57305","system_id":"levelo_inurba_marseille","lat":43.296089,"lon":5.377258,"is_reserved":false,"is_disabled":false,"rental_uris":{"android":"levelo://app?vid=c47f5c3e-1ff3-43b7-b740-1c081ef57305","ios":"levelo://app?vid=c47f5c3e-1ff3-43b7-b740-1c081ef57305"},"vehicle_type_id":"4","last_reported":1759152136,"current_range_meters":18000,"station_id":"","pricing_plan_id":"cebpf4jnsgd1na2vs0mg"},{"bike_id":"d114d50d-5f3b-41cd-9b2e-5e32b29d0004","system_id":"levelo_inurba_marseille","lat":43.25505,"lon":5.37653,"is_reserved":false,"is_disabled":false,"rental_uris":{"android":"levelo://app?vid=d114d50d-5f3b-41cd-9b2e-5e32b29d0004","ios":"levelo://app?vid=d114d50d-5f3b-41cd-9b2e-5e32b29d0004"},"vehicle_type_id":"4","last_reported":1759152136,"current_range_meters":17600,"station_id":"ce4bhh12rcd13ifvqff0","pricing_plan_id":"cebpf4jnsgd1na2vs0mg"},{"bike_id":"4a80dacb-327e-4bfa-9469-99ab9cc2bdd3","system_id":"levelo_inurba_marseille","lat":43.26804,"lon":5.40271,"is_reserved":false,"is_disabled":false,"rental_uris":{"android":"levelo://app?vid=4a80dacb-327e-4bfa-9469-99ab9cc2bdd3","ios":"levelo://app?vid=4a80dacb-327e-4bfa-9469-99ab9cc2bdd3"},"vehicle_type_id":"4","last_reported":1759152136,"current_range_meters":17600,"station_id":"ce501612rcd8frsf0b60","pricing_plan_id":"cebpf4jnsgd1na2vs0mg"},{"bike_id":"4a32ca82-f23b-4f1c-990f-c8e5505ca5a6","system_id":"levelo_inurba_marseille","lat":43.30127,"lon":5.3741,"is_reserved":false,"is_disabled":false,"rental_uris":{"android":"levelo://app?vid=4a32ca82-f23b-4f1c-990f-c8e5505ca5a6","ios":"levelo://app?vid=4a32ca82-f23b-4f1c-990f-c8e5505ca5a6"},"vehicle_type_id":"4","last_reported":1759152136,"current_range_meters":18000,"station_id":"ce4bgs92rcd13ifvqcc0","pricing_plan_id":"cebpf4jnsgd1na2vs0mg"},{"bike_id":"4f6c225c-2f41-4430-b894-aea1cc32d949","system_id":"levelo_inurba_marseille","lat":43.2534,"lon":5.42198,"is_reserved":false,"is_disabled":false,"rental_uris":{"android":"levelo://app?vid=4f6c225c-2f41-4430-b894-aea1cc32d949","ios":"levelo://app?vid=4f6c225c-2f41-4430-b894-aea1cc32d949"},"vehicle_type_id":"4","last_reported":1759152136,"current_range_meters":18000,"station_id":"st_d2m65c5bi1j21697t3ng","pricing_plan_id":"cebpf4jnsgd1na2vs0mg"},{"bike_id":"614ee31e-6eb2-4afc-bbea-4479b692a051","system_id":"levelo_inurba_marseille","lat":43.24548,"lon":5.39523,"is_reserved":false,"is_disabled":false,"rental_uris":{"android":"levelo://app?vid=614ee31e-6eb2-4afc-bbea-4479b692a051","ios":"levelo://app?vid=614ee31e-6eb2-4afc-bbea-4479b692a051"},"vehicle_type_id":"4","last_reported":1759152136,"current_range_meters":17600,"station_id":"ce4bhlp2rcd13ifvqgjg","pricing_plan_id":"cebpf4jnsgd1na2vs0mg"},{"bike_id":"f9574d5b-4a67-43fc-9668-2c2e41a8a8b8","system_id":"levelo_inurba_marseille","lat":43.23166,"lon":5.43728,"is_reserved":false,"is_disabled":false,"rental_uris":{"android":"levelo://app?vid=f9574d5b-4a67-43fc-9668-2c2e41a8a8b8","ios":"levelo://app?vid=f9574d5b-4a67-43fc-9668-2c2e41a8a8b8"},"vehicle_type_id":"4","last_reported":1759152136,"current_range_meters":18000,"station_id":"ce4bhmp2rcd13ifvqgog","pricing_plan_id":"cebpf4jnsgd1na2vs0mg"},{"bike_id":"8a039b52-fd27-4b2b-827f-a8f3f8c2e243","system_id":"levelo_inurba_marseille","lat":43.32487,"lon":5.36582,"is_reserved":false,"is_disabled":false,"rental_uris":{"android":"levelo://app?vid=8a039b52-fd27-4b2b-827f-a8f3f8c2e243","ios":"levelo://app?vid=8a039b52-fd27-4b2b-827f-a8f3f8c2e243"},"vehicle_type_id":"4","last_reported":1759152136,"current_range_meters":18000,"station_id":"ce4bhs12rcd13ifvqhvg","pricing_plan_id":"cebpf4jnsgd1na2vs0mg"},{"bike_id":"12316060-3ead-4d60-ba03-a2c6e4184f2e","system_id":"levelo_inurba_marseille","lat":43.30187,"lon":5.36597,"is_reserved":false,"is_disabled":false,"rental_uris":{"android":"levelo://app?vid=12316060-3ead-4d60-ba03-a2c6e4184f2e","ios":"levelo://app?vid=12316060-3ead-4d60-ba03-a2c6e4184f2e"},"vehicle_type_id":"4","last_reported":1759152136,"current_range_meters":18000,"station_id":"ce4bgrh2rcd13ifvqc8g","pricing_plan_id":"cebpf4jnsgd1na2vs0mg"},{"bike_id":"9fd241b9-b868-4c50-929d-6ce1ec81c9f8","system_id":"levelo_inurba_marseille","lat":43.26813,"lon":5.39433,"is_reserved":false,"is_disabled":false,"rental_uris":{"android":"levelo://app?vid=9fd241b9-b868-4c50-929d-6ce1ec81c9f8","ios":"levelo://app?vid=9fd241b9-b868-4c50-929d-6ce1ec81c9f8"},"vehicle_type_id":"4","last_reported":1759152136,"current_range_meters":17600,"station_id":"ce4bhh12rcd13ifvqfg0","pricing_plan_id":"cebpf4jnsgd1na2vs0mg"},{"bike_id":"32c39961-808b-44e8-97fa-dd1646c3e5d1","system_id":"levelo_inurba_marseille","lat":43.29909,"lon":5.38315,"is_reserved":false,"is_disabled":false,"rental_uris":{"android":"levelo://app?vid=32c39961-808b-44e8-97fa-dd1646c3e5d1","ios":"levelo://app?vid=32c39961-808b-44e8-97fa-dd1646c3e5d1"},"vehicle_type_id":"4","last_reported":1759152136,"current_range_meters":18000,"station_id":"","pricing_plan_id":"cebpf4jnsgd1na2vs0mg"},{"bike_id":"2ab535df-4c2c-40d8-af4f-189047a67c11","system_id":"levelo_inurba_marseille","lat":43.246362,"lon":5.431451,"is_reserved":false,"is_disabled":false,"rental_uris":{"android":"levelo://app?vid=2ab535df-4c2c-40d8-af4f-189047a67c11","ios":"levelo://app?vid=2ab535df-4c2c-40d8-af4f-189047a67c11"},"vehicle_type_id":"4","last_reported":1759152136,"current_range_meters":18000,"station_id":"st_d2m6c4gdas8pm72e190g","pricing_plan_id":"cebpf4jnsgd1na2vs0mg"},{"bike_id":"b8b6bfc5-e55c-4190-b037-d293318f15f8","system_id":"levelo_inurba_marseille","lat":43.31662,"lon":5.37792,"is_reserved":false,"is_disabled":false,"rental_uris":{"android":"levelo://app?vid=b8b6bfc5-e55c-4190-b037-d293318f15f8","ios":"levelo://app?vid=b8b6bfc5-e55c-4190-b037-d293318f15f8"},"vehicle_type_id":"4","last_reported":1759152136,"current_range_meters":18000,"station_id":"ce4bgth2rcd13ifvqch0","pricing_plan_id":"cebpf4jnsgd1na2vs0mg"},{"bike_id":"7415eda4-5c58-41d3-868b-586a067ca5b8","system_id":"levelo_inurba_marseille","lat":43.28625,"lon":5.35101,"is_reserved":false,"is_disabled":false,"rental_uris":{"android":"levelo://app?vid=7415eda4-5c58-41d3-868b-586a067ca5b8","ios":"levelo://app?vid=7415eda4-5c58-41d3-868b-586a067ca5b8"},"vehicle_type_id":"4","last_reported":1759152136,"current_range_meters":18000,"station_id":"ce4bhch2rcd13ifvqeug","pricing_plan_id":"cebpf4jnsgd1na2vs0mg"},{"bike_id":"7a6c0948-5252-493c-9be4-491a684b98ae","system_id":"levelo_inurba_marseille","lat":43.28414,"lon":5.34978,"is_reserved":false,"is_disabled":false,"rental_uris":{"android":"levelo://app?vid=7a6c0948-5252-493c-9be4-491a684b98ae","ios":"levelo://app?vid=7a6c0948-5252-493c-9be4-491a684b98ae"},"vehicle_type_id":"4","last_reported":1759152136,"current_range_meters":18800,"station_id":"ce4bhbh2rcd13ifvqepg","pricing_plan_id":"cebpf4jnsgd1na2vs0mg"},{"bike_id":"f752559e-e357-41d0-b0e1-06afd32411be","system_id":"levelo_inurba_marseille","lat":43.27467,"lon":5.40776,"is_reserved":false,"is_disabled":false,"rental_uris":{"android":"levelo://app?vid=f752559e-e357-41d0-b0e1-06afd32411be","ios":"levelo://app?vid=f752559e-e357-41d0-b0e1-06afd32411be"},