{"last_updated":1735697884,"ttl":60,"version":"2.2","data":{"bikes":[{"bike_id":"2f56c5dc-0755-4629-adf9-4349a3b8ebb1","system_id":"levelo_inurba_marseille","lat":43.28154,"lon":5.42647,"is_reserved":false,"is_disabled":false,"rental_uris":{"android":"levelo://app?vid=2f56c5dc-0755-4629-adf9-4349a3b8ebb1","ios":"levelo://app?vid=2f56c5dc-0755-4629-adf9-4349a3b8ebb1"},"vehicle_type_id":"4","last_reported":1735697884,"current_range_meters":25200,"station_id":"ce4bhnh2rcd13ifvqgug","pricing_plan_id":"cebpf4jnsgd1na2vs0mg"},{"bike_id":"eebc4850-6ef9-46e6-b48b-57b8c062b998","system_id":"levelo_inurba_marseille","lat":43.287086,"lon":5.379402,"is_reserved":false,"is_disabled":true,"rental_uris":{"android":"levelo://app?vid=eebc4850-6ef9-46e6-b48b-57b8c062b998","ios":"levelo://app?vid=eebc4850-6ef9-46e6-b48b-57b8c062b998"},"vehicle_type_id":"4","last_reported":1735697884,"current_range_meters":19600,"station_id":"ce4bh9p2rcd13ifvqec0","pricing_plan_id":"cebpf4jnsgd1na2vs0mg"},{"bike_id":"d06b5da1-2f20-4593-9d79-0cd21b76f9bd","system_id":"levelo_inurba_marseille","lat":43.2782,"lon":5.39217,"is_reserved":false,"is_disabled":false,"rental_uris":{"android":"levelo://app?vid=d06b5da1-2f20-4593-9d79-0cd21b76f9bd","ios":"levelo://app?vid=d06b5da1-2f20-4593-9d79-0cd21b76f9bd"},"vehicle_type_id":"4","last_reported":1735697884,"current_range_meters":38800,"station_id":"ce4bhjp2rcd13ifvqga0","pricing_plan_id":"cebpf4jnsgd1na2vs0mg"},{"bike_id":"6ec40623-f57f-4981-a0a8-43b609215dd8","system_id":"levelo_inurba_marseille","lat":43.288462,"lon":5.393005,"is_reserved":false,"is_disabled":false,"rental_uris":{"android":"levelo://app?vid=6ec40623-f57f-4981-a0a8-43b609215dd8","ios":"levelo://app?vid=6ec40623-f57f-4981-a0a8-43b609215dd8"},"vehicle_type_id":"4","last_reported":1735697884,"current_range_meters":38400,"station_id":"ce4bh2p2rcd13ifvqdi0","pricing_plan_id":"cebpf4jnsgd1na2vs0mg"},{"bike_id":"30675ccc-9ef1-40b1-963e-228cee2b4741","system_id":"levelo_inurba_marseille","lat":43.27958,"lon":5.4104,"is_reserved":false,"is_disabled":true,"rental_uris":{"android":"levelo://app?vid=30675ccc-9ef1-40b1-963e-228cee2b4741","ios":"levelo://app?vid=30675ccc-9ef1-40b1-963e-228cee2b4741"},"vehicle_type_id":"4","last_reported":1735697884,"current_range_meters":22800,"station_id":"ce4bhnp2rcd13ifvqh0g","pricing_plan_id":"cebpf4jnsgd1na2vs0mg"},{"bike_id":"071b3015-16c7-4ddd-bbee-f44a92d6240d","system_id":"levelo_inurba_marseille","lat":43.30882,"lon":5.39656,"is_reserved":false,"is_disabled":false,"rental_uris":{"android":"levelo://app?vid=071b3015-16c7-4ddd-bbee-f44a92d6240d","ios":"levelo://app?vid=071b3015-16c7-4ddd-bbee-f44a92d6240d"},"vehicle_type_id":"4","last_reported":1735697884,"current_range_meters":6000,"station_id":"ce4bh012rcd13ifvqcv0","pricing_plan_id":"cebpf4jnsgd1na2vs0mg"},{"bike_id":"919d90ff-217d-42a9-bd04-cc1f8e2a42b8","system_id":"levelo_inurba_marseille","lat":43.32512,"lon":5.41485,"is_reserved":false,"is_disabled":false,"rental_uris":{"android":"levelo://app?vid=919d90ff-217d-42a9-bd04-cc1f8e2a42b8","ios":"levelo://app?vid=919d90ff-217d-42a9-bd04-cc1f8e2a42b8"},"vehicle_type_id":"4","last_reported":1735697884,"current_range_meters":19600,"station_id":"ce4bhq12rcd13ifvqhhg","pricing_plan_id":"cebpf4jnsgd1na2vs0mg"},{"bike_id":"3991aac2-ec7f-43c8-801f-23e11845f2d6","system_id":"levelo_inurba_marseille","lat":43.28176,"lon":5.42625,"is_reserved":false,"is_disabled":false,"rental_uris":{"android":"levelo://app?vid=3991aac2-ec7f-43c8-801f-23e11845f2d6","ios":"levelo://app?vid=3991aac2-ec7f-43c8-801f-23e11845f2d6"},"vehicle_type_id":"4","last_reported":1735697884,"current_range_meters":38800,"station_id":"ce4bhnh2rcd13ifvqgug","pricing_plan_id":"cebpf4jnsgd1na2vs0mg"},{"bike_id":"412465e4-bc53-4332-80a4-5c0b3a5dd3c3","system_id":"levelo_inurba_marseille","lat":43.24396,"lon":5.37065,"is_reserved":false,"is_disabled":false,"rental_uris":{"android":"levelo://app?vid=412465e4-bc53-4332-80a4-5c0b3a5dd3c3","ios":"levelo://app?vid=412465e4-bc53-4332-80a4-5c0b3a5dd3c3"},"vehicle_type_id":"4","last_reported":1735697884,"current_range_meters":10800,"station_id":"ce4bhhh2rcd13ifvqfk0","pricing_plan_id":"cebpf4jnsgd1na2vs0mg"},{"bike_id":"a84c903a-16f0-44ed-becd-c6849674ff70","system_id":"levelo_inurba_marseille","lat":43.22925,"lon":5.35375,"is_reserved":false,"is_disabled":false,"rental_uris":{"android":"levelo://app?vid=a84c903a-16f0-44ed-becd-c6849674ff70","ios":"levelo://app?vid=a84c903a-16f0-44ed-becd-c6849674ff70"},"vehicle_type_id":"4","last_reported":1735697884,"current_range_meters":7200,"station_id":"cpo3532slgdg3j2ikp40","pricing_plan_id":"cebpf4jnsgd1na2vs0mg"},{"bike_id":"fd8f4633-afe2-4be6-b0e9-8ae7cf81f111","system_id":"levelo_inurba_marseille","lat":43.28846,"lon":5.35852,"is_reserved":false,"is_disabled":false,"rental_uris":{"android":"levelo://app?vid=fd8f4633-afe2-4be6-b0e9-8ae7cf81f111","ios":"levelo://app?vid=fd8f4633-afe2-4be6-b0e9-8ae7cf81f111"},"vehicle_type_id":"4","last_reported":1735697884,"current_range_meters":34000,"station_id":"ce4bhb12rcd13ifvqem0","pricing_plan_id":"cebpf4jnsgd1na2vs0mg"},{"bike_id":"8ad09b60-3a79-4fc1-9f8d-63dc687108f3","system_id":"levelo_inurba_marseille","lat":43.337444,"lon":5.374475,"is_reserved":false,"is_disabled":false,"rental_uris":{"android":"levelo://app?vid=8ad09b60-3a79-4fc1-9f8d-63dc687108f3","ios":"levelo://app?vid=8ad09b60-3a79-4fc1-9f8d-63dc687108f3"},"vehicle_type_id":"4","last_reported":1735697884,"current_range_meters":36800,"station_id":"","pricing_plan_id":"cebpf4jnsgd1na2vs0mg"},{"bike_id":"aaf2847c-1c33-449a-8a3d-243e799ec2b1","system_id":"levelo_inurba_marseille","lat":43.23962,"lon":5.36605,"is_reserved":false,"is_disabled":false,"rental_uris":{"android":"levelo://app?vid=aaf2847c-1c33-449a-8a3d-243e799ec2b1","ios":"levelo://app?vid=aaf2847c-1c33-449a-8a3d-243e799ec2b1"},"vehicle_type_id":"4","last_reported":1735697884,"current_range_meters":38800,"station_id":"ce4bhi12rcd13ifvqfp0","pricing_plan_id":"cebpf4jnsgd1na2vs0mg"},{"bike_id":"68b69d72-ad09-41dc-8ff7-dcced0cf6d09","system_id":"levelo_inurba_marseille","lat":43.27421,"lon":5.3942,"is_reserved":false,"is_disabled":false,"rental_uris":{"android":"levelo://app?vid=68b69d72-ad09-41dc-8ff7-dcced0cf6d09","ios":"levelo://app?vid=68b69d72-ad09-41dc-8ff7-dcced0cf6d09"},"vehicle_type_id":"4","last_reported":1735697884,"current_range_meters":28400,"station_id":"ce4bhdp2rcd13ifvqf20","pricing_plan_id":"cebpf4jnsgd1na2vs0mg"},{"bike_id":"5430a545-a0f1-45ad-a500-b4193006fdcf","system_id":"levelo_inurba_marseille","lat":43.23196,"lon":5.35564,"is_reserved":false,"is_disabled":false,"rental_uris":{"android":"levelo://app?vid=5430a545-a0f1-45ad-a500-b4193006fdcf","ios":"levelo://app?vid=5430a545-a0f1-45ad-a500-b4193006fdcf"},"vehicle_type_id":"4","last_reported":1735697884,"current_range_meters":28000,"station_id":"ce4bhu92rcd13ifvqi70","pricing_plan_id":"cebpf4jnsgd1na2vs0mg"},{"bike_id":"aa4fcdb8-7919-4e96-9fad-bb7045a210c7","system_id":"levelo_inurba_marseille","lat":43.30886,"lon":5.39644,"is_reserved":false,"is_disabled":false,"rental_uris":{"android":"levelo://app?vid=aa4fcdb8-7919-4e96-9fad-bb7045a210c7","ios":"levelo://app?vid=aa4fcdb8-7919-4e96-9fad-bb7045a210c7"},"vehicle_type_id":"4","last_reported":1735697884,"current_range_meters":38800,"station_id":"ce4bh012rcd13ifvqcv0","pricing_plan_id":"cebpf4jnsgd1na2vs0mg"},{"bike_id":"ebb56956-e2e2-4f51-8f7a-80ccc26c078c","system_id":"levelo_inurba_marseille","lat":43.28156,"lon":5.42655,"is_reserved":false,"is_disabled":false,"rental_uris":{"android":"levelo://app?vid=ebb56956-e2e2-4f51-8f7a-80ccc26c078c","ios":"levelo://app?vid=ebb56956-e2e2-4f51-8f7a-80ccc26c078c"},"vehicle_type_id":"4","last_reported":1735697884,"current_range_meters":38800,"station_id":"ce4bhnh2rcd13ifvqgug","pricing_plan_id":"cebpf4jnsgd1na2vs0mg"},{"bike_id":"07ef6868-86d3-4992-90cd-05e75dd5f6b9","system_id":"levelo_inurba_marseille","lat":43.32043,"lon":5.41548,"is_reserved":false,"is_disabled":false,"rental_uris":{"android":"levelo://app?vid=07ef6868-86d3-4992-90cd-05e75dd5f6b9","ios":"levelo://app?vid=07ef6868-86d3-4992-90cd-05e75dd5f6b9"},"vehicle_type_id":"4","last_reported":1735697884,"current_range_meters":16800,"station_id":"ce4bhq92rcd13ifvqhkg","pricing_plan_id":"cebpf4jnsgd1na2vs0mg"},{"bike_id":"7298264b-332b-4cd6-9585-222dbe95a1ae","system_id":"levelo_inurba_marseille","lat":43.28934,"lon":5.36633,"is_reserved":false,"is_disabled":false,"rental_uris":{"android":"levelo://app?vid=7298264b-332b-4cd6-9585-222dbe95a1ae","ios":"levelo://app?vid=7298264b-332b-4cd6-9585-222dbe95a1ae"},"vehicle_type_id":"4","last_reported":1735697884,"current_range_meters":21600,"station_id":"ce4bhap2rcd13ifvqek0","pricing_plan_id":"cebpf4jnsgd1na2vs0mg"},{"bike_id":"130216fe-4347-436d-a9ad-8cc79303e7ce","system_id":"levelo_inurba_marseille","lat":43.23228,"lon":5.39966,"is_reserved":false,"is_disabled":false,"rental_uris":{"android":"levelo://app?vid=130216fe-4347-436d-a9ad-8cc79303e7ce","ios":"levelo://app?vid=130216fe-4347-436d-a9ad-8cc79303e7ce"},"vehicle_type_id":"4","last_reported":1735697884,"current_range_meters":28000,"station_id":"ce4bhn12rcd13ifvqgqg","pricing_plan_id":"cebpf4jnsgd1na2vs0mg"},{"bike_id":"406c72fc-c815-4840-861a-36d7f7f2fd01","system_id":"levelo_inurba_marseille","lat":43.23174,"lon":5.35565,"is_reserved":false,"is_disabled":false,"rental_uris":{"android":"levelo://app?vid=406c72fc-c815-4840-861a-36d7f7f2fd01","ios":"levelo://app?vid=406c72fc-c815-4840-861a-36d7f7f2fd01"},"vehicle_type_id":"4","last_reported":1735697884,"current_range_meters":37600,"station_id":"ce4bhu92rcd13ifvqi70","pricing_plan_id":"cebpf4jnsgd1na2vs0mg"},{"bike_id":"b62d856a-c9ee-4455-8fa3-9afa95319596","system_id":"levelo_inurba_marseille","lat":43.28474,"lon":5.38405,"is_reserved":false,"is_disabled":false,"rental_uris":{"android":"levelo://app?vid=b62d856a-c9ee-4455-8fa3-9afa95319596","ios":"levelo://app?vid=b62d856a-c9ee-4455-8fa3-9afa95319596"},"vehicle_type_id":"4","last_reported":1735697884,"current_range_meters":36000,"station_id":"ce4bh512rcd13ifvqe3g","pricing_plan_id":"cebpf4jnsgd1na2vs0mg"},{"bike_id":"d08aed72-c4aa-4b14-9e94-1554d28646fc","system_id":"levelo_inurba_marseille","lat":43.23962,"lon":5.36679,"is_reserved":false,"is_disabled":false,"rental_uris":{"android":"levelo://app?vid=d08aed72-c4aa-4b14-9e94-1554d28646fc","ios":"levelo://app?vid=d08aed72-c4aa-4b14-9e94-1554d28646fc"},"vehicle_type_id":"4","last_reported":1735697884,"current_range_meters":38800,"station_id":"ce4bhi12rcd13ifvqfp0","pricing_plan_id":"cebpf4jnsgd1na2vs0mg"},{"bike_id":"76443485-bcd6-4607-9286-3a71978e6eb5","system_id":"levelo_inurba_marseille","lat":43.24393,"lon":5.3706,"is_reserved":false,"is_disabled":false,"rental_uris":{"android":"levelo://app?vid=76443485-bcd6-4607-9286-3a71978e6eb5","ios":"levelo://app?vid=76443485-bcd6-4607-9286-3a71978e6eb5"},"vehicle_type_id":"4","last_reported":1735697884,"current_range_meters":10800,"station_id":"ce4bhhh2rcd13ifvqfk0","pricing_plan_id":"cebpf4jnsgd1na2vs0mg"},{"bike_id":"21346747-618c-4407-9937-8eca779a33f5","system_id":"levelo_inurba_marseille","lat":43.30801,"lon":5.38157,"is_reserved":false,"is_disabled":false,"rental_uris":{"android":"levelo://app?vid=21346747-618c-4407-9937-8eca779a33f5","ios":"levelo://app?vid=21346747-618c-4407-9937-8eca779a33f5"},"vehicle_type_id":"4","last_reported":1735697884,"current_range_meters":37600,"station_id":"ce4bgt12rcd13ifvqce0","pricing_plan_id":"cebpf4jnsgd1na2vs0mg"},{"bike_id":"cfe106c9-317a-4dfe-a370-65e124f77347","system_id":"levelo_inurba_marseille","lat":43.25728,"lon":5.41107,"is_reserved":false,"is_disabled":false,"rental_uris":{"android":"levelo://app?vid=cfe106c9-317a-4dfe-a370-65e124f77347","ios":"levelo://app?vid=cfe106c9-317a-4dfe-a370-65e124f77347"},"vehicle_type_id":"4","last_reported":1735697884,"current_range_meters":34000,"station_id":"ce4bhkp2rcd13ifvqgd0","pricing_plan_id":"cebpf4jnsgd1na2vs0mg"},{"bike_id":"29e41b02-be52-4633-b267-4292f5ed1d1a","system_id":"levelo_inurba_marseille","lat":43.25878,"lon":5.39916,"is_reserved":false,"is_disabled":false,"rental_uris":{"android":"levelo://app?vid=29e41b02-be52-4633-b267-4292f5ed1d1a","ios":"levelo://app?vid=29e41b02-be52-4633-b267-4292f5ed1d1a"},"vehicle_type_id":"4","last_reported":1735697884,"current_range_meters":6400,"station_id":"ce4bhl92rcd13ifvqghg","pricing_plan_id":"cebpf4jnsgd1na2vs0mg"},{"bike_id":"e83098ce-a623-4404-a1d7-d6c28c6aafc7","system_id":"levelo_inurba_marseille","lat":43.30892,"lon":5.39627,"is_reserved":false,"is_disabled":false,"rental_uris":{"android":"levelo://app?vid=e83098ce-a623-4404-a1d7-d6c28c6aafc7","ios":"levelo://app?vid=e83098ce-a623-4404-a1d7-d6c28c6aafc7"},"vehicle_type_id":"4","last_reported":1735697884,"current_range_meters":8000,"station_id":"ce4bh012rcd13ifvqcv0","pricing_plan_id":"cebpf4jnsgd1na2vs0mg"},{"bike_id":"46b5f36f-eca4-4e80-9d52-993cd0f33e71","system_id":"levelo_inurba_marseille","lat":43.32458,"lon":5.36572,"is_reserved":false,"is_disabled":false,"rental_uris":{"android":"levelo://app?vid=46b5f36f-eca4-4e80-9d52-993cd0f33e71","ios":"levelo://app?vid=46b5f36f-eca4-4e80-9d52-993cd0f33e71"},"vehicle_type_id":"4","last_reported":1735697884,"current_range_meters":7200,"station_id":"ce4bhs12rcd13ifvqhvg","pricing_plan_id":"cebpf4jnsgd1na2vs0mg"},{"bike_id":"8a8d2384-33d6-4e3f-befc-59293242646b","system_id":"levelo_inurba_marseille","lat":43.30809,"lon":5.3765,"is_reserved":false,"is_disabled":false,"rental_uris":{"android":"levelo://app?vid=8a8d2384-33d6-4e3f-befc-59293242646b","ios":"levelo://app?vid=8a8d2384-33d6-4e3f-befc-59293242646b"},"vehicle_type_id":"4","last_reported":1735697884,"current_range_meters":38400,"station_id":"ce4bgv92rcd13ifvqcq0","pricing_plan_id":"cebpf4jnsgd1na2vs0mg"},{"bike_id":"e8f618f1-15fd-499b-ad4d-89ab6231d56b","system_id":"levelo_inurba_marseille","lat":43.27825,"lon":5.39207,"is_reserved":false,"is_disabled":false,"rental_uris":{"android":"levelo://app?vid=e8f618f1-15fd-499b-ad4d-89ab6231d56b","ios":"levelo://app?vid=e8f618f1-15fd-499b-ad4d-89ab6231d56b"},"vehicle_type_id":"4","last_reported":1735697884,"current_range_meters":20000,"station_id":"ce4bhjp2rcd13ifvqga0","pricing_plan_id":"cebpf4jnsgd1na2vs0mg"},{"bike_id":"ff49d49a-53c3-499a-b296-89a67f332a8a","system_id":"levelo_inurba_marseille","lat":43.24155,"lon":5.36428,"is_reserved":false,"is_disabled":false,"rental_uris":{"android":"levelo://app?vid=ff49d49a-53c3-499a-b296-89a67f332a8a","ios":"levelo://app?vid=ff49d49a-53c3-499a-b296-89a67f332a8a"},"vehicle_type_id":"4","last_reported":1735697884,"current_range_meters":35600,"station_id":"cpo36qri1sfpv3e86is0","pricing_plan_id":"cebpf4jnsgd1na2vs0mg"},{"bike_id":"f060fe60-43b5-4c23-8bc7-369e88e1b658","system_id":"levelo_inurba_marseille","lat":43.32359,"lon":5.38877,"is_reserved":false,"is_disabled":false,"rental_uris":{"android":"levelo://app?vid=f060fe60-43b5-4c23-8bc7-369e88e1b658","ios":"levelo://app?vid=f060fe60-43b5-4c23-8bc7-369e88e1b658"},"vehicle_type_id":"4","last_reported":1735697884,"current_range_meters":9600,"station_id":"ce4bhqp2rcd13ifvqhog","pricing_plan_id":"cebpf4jnsgd1na2vs0mg"},{"bike_id":"ed7d9e0f-da0c-4e3b-92b3-fd3afce87e08","system_id":"levelo_inurba_marseille","lat":43.32461,"lon":5.36586,"is_reserved":false,"is_disabled":false,"rental_uris":{"android":"levelo://app?vid=ed7d9e0f-da0c-4e3b-92b3-fd3afce87e08","ios":"levelo://app?vid=ed7d9e0f-da0c-4e3b-92b3-fd3afce87e08"},"vehicle_type_id":"4","last_reported":1735697884,"current_range_meters":30800,"station_id":"ce4bhs12rcd13ifvqhvg","pricing_plan_id":"cebpf4jnsgd1na2vs0mg"},{"bike_id":"11ff4cbd-0420-4fcb-8deb-7f681c104725","system_id":"levelo_inurba_marseille","lat":43.25502,"lon":5.37651,"is_reserved":false,"is_disabled":false,"rental_uris":{"android":"levelo://app?vid=11ff4cbd-0420-4fcb-8deb-7f681c104725","ios":"levelo://app?vid=11ff4cbd-0420-4fcb-8deb-7f681c104725"},"vehicle_type_id":"4","last_reported":1735697884,"current_range_meters":14400,"station_id":"ce4bhh12rcd13ifvqff0","pricing_plan_id":"cebpf4jnsgd1na2vs0mg"},{"bike_id":"c3ba5b5b-015c-4689-95a9-abcb1279b90e","system_id":"levelo_inurba_marseille","lat":43.24647,"lon":5.38913,"is_reserved":false,"is_disabled":false,"rental_uris":{"android":"levelo://app?vid=c3ba5b5b-015c-4689-95a9-abcb1279b90e","ios":"levelo://app?vid=c3ba5b5b-015c-4689-95a9-abcb1279b90e"},"vehicle_type_id":"4","last_reported":1735697884,"current_range_meters":38800,"station_id":"ce4bhg12rcd13ifvqf60","pricing_plan_id":"cebpf4jnsgd1na2vs0mg"},{"bike_id":"027085de-3c06-4c90-8099-b9537f78e863","system_id":"levelo_inurba_marseille","lat":43.23168,"lon":5.43669,"is_reserved":false,"is_disabled":false,"rental_uris":{"android":"levelo://app?vid=027085de-3c06-4c90-8099-b9537f78e863","ios":"levelo://app?vid=027085de-3c06-4c90-8099-b9537f78e863"},"vehicle_type_id":"4","last_reported":1735697884,"current_range_meters":36800,"station_id":"ce4bhmp2rcd13ifvqgog","pricing_plan_id":"cebpf4jnsgd1na2vs0mg"},{"bike_id":"924b8338-4a40-42e8-8ff9-5a56a6ed9db8","system_id":"levelo_inurba_marseille","lat":43.28712,"lon":5.39977,"is_reserved":false,"is_disabled":false,"rental_uris":{"android":"levelo://app?vid=924b8338-4a40-42e8-8ff9-5a56a6ed9db8","ios":"levelo://app?vid=924b8338-4a40-42e8-8ff9-5a56a6ed9db8"},"vehicle_type_id":"4","last_reported":1735697884,"current_range_meters":39200,"station_id":"ce4bho92rcd13ifvqh3g","pricing_plan_id":"cebpf4jnsgd1na2vs0mg"},{"bike_id":"5fb71962-045d-4d2d-bd9c-00e982228eaa","system_id":"levelo_inurba_marseille","lat":43.29874,"lon":5.3975,"is_reserved":false,"is_disabled":false,"rental_uris":{"android":"levelo://app?vid=5fb71962-045d-4d2d-bd9c-00e982228eaa","ios":"levelo://app?vid=5fb71962-045d-4d2d-bd9c-00e982228eaa"},"vehicle_type_id":"4","last_reported":1735697884,"current_range_meters":37600,"station_id":"ce4bh0h2rcd13ifvqd50","pricing_plan_id":"cebpf4jnsgd1na2vs0mg"},{"bike_id":"dd43ec1a-328a-4f14-a1c5-2dfbd492ab23","system_id":"levelo_inurba_marseille","lat":43.31341,"lon":5.3972,"is_reserved":false,"is_disabled":true,"rental_uris":{"android":"levelo://app?vid=dd43ec1a-328a-4f14-a1c5-2dfbd492ab23","ios":"levelo://app?vid=dd43ec1a-328a-4f14-a1c5-2dfbd492ab23"},"vehicle_type_id":"4","last_reported":1735697884,"current_range_meters":36400,"station_id":"ce4bgvp2rcd13ifvqcu0","pricing_plan_id":"cebpf4jnsgd1na2vs0mg"},{"bike_id":"9de51f91-7b89-4a90-83aa-597d21189152","system_id":"levelo_inurba_marseille","lat":43.30147,"lon":5.39886,"is_reserved":false,"is_disabled":false,"rental_uris":{"android":"levelo://app?vid=9de51f91-7b89-4a90-83aa-597d21189152","ios":"levelo://app?vid=9de51f91-7b89-4a90-83aa-597d21189152"},"vehicle_type_id":"4","last_reported":1735697884,"current_range_meters":9600,"station_id":"ce4bh0h2rcd13ifvqd40","pricing_plan_id":"cebpf4jnsgd1na2vs0mg"},{"bike_id":"317bbece-85f5-4709-8e50-643ba25a75ff","system_id":"levelo_inurba_marseille","lat":43.33757,"lon":5.37451,"is_reserved":false,"is_disabled":false,"rental_uris":{"android":"levelo://app?vid=317bbece-85f5-4709-8e50-643ba25a75ff","ios":"levelo://app?vid=317bbece-85f5-4709-8e50-643ba25a75ff"},"vehicle_type_id":"4","last_reported":1735697884,"current_range_meters":33200,"station_id":"","pricing_plan_id":"cebpf4jnsgd1na2vs0mg"},{"bike_id":"e7774da4-c308-4bfa-aba8-31efca07b3a0","system_id":"levelo_inurba_marseille","lat":43.33741,"lon":5.37467,"is_reserved":false,"is_disabled":false,"rental_uris":{"android":"levelo://app?vid=e7774da4-c308-4bfa-aba8-31efca07b3a0","ios":"levelo://app?vid=e7774da4-c308-4bfa-aba8-31efca07b3a0"},"vehicle_type_id":"4","last_reported":1735697884,"current_range_meters":10000,"station_id":"","pricing_plan_id":"cebpf4jnsgd1na2vs0mg"},{"bike_id":"e4175cfc-38a5-43ed-9767-8b1ef3183563","system_id":"levelo_inurba_marseille","lat":43.29247,"lon":5.38321,"is_reserved":false,"is_disabled":false,"rental_uris":{"android":"levelo://app?vid=e4175cfc-38a5-43ed-9767-8b1ef3183563","ios":"levelo://app?vid=e4175cfc-38a5-43ed-9767-8b1ef3183563"},"vehicle_type_id":"4","last_reported":1735697884,"current_range_meters":30400,"station_id":"","pricing_plan_id":"cebpf4jnsgd1na2vs0mg"},{"bike_id":"e2432f7d-a271-4664-8931-6bb3f109c416","system_id":"levelo_inurba_marseille","lat":43.29789,"lon":5.38079,"is_reserved":false,"is_disabled":false,"rental_uris":{"android":"levelo://app?vid=e2432f7d-a271-4664-8931-6bb3f109c416","ios":"levelo://app?vid=e2432f7d-a271-4664-8931-6bb3f109c416"},"vehicle_type_id":"4","last_reported":1735697884,"current_range_meters":4400,"station_id":"ce4bgip2rcd13ifvqbb0","pricing_plan_id":"cebpf4jnsgd1na2vs0mg"},{"bike_id":"ad09079b-2a66-443a-a13d-b1f84ab569d5","system_id":"levelo_inurba_marseille","lat":43.25003,"lon":5.38926,"is_reserved":false,"is_disabled":false,"rental_uris":{"android":"levelo://app?vid=ad09079b-2a66-443a-a13d-b1f84ab569d5","ios":"levelo://app?vid=ad09079b-2a66-443a-a13d-b1f84ab569d5"},"vehicle_type_id":"4","last_reported":1735697884,"current_range_meters":38800,"station_id":"ce4bhgp2rcd13ifvqfd0","pricing_plan_id":"cebpf4jnsgd1na2vs0mg"},{"bike_id":"55cdd24f-9e2e-41e5-9590-d69333b5dd4a","system_id":"levelo_inurba_marseille","lat":43.28854,"lon":5.35842,"is_reserved":false,"is_disabled":false,"rental_uris":{"android":"levelo://app?vid=55cdd24f-9e2e-41e5-9590-d69333b5dd4a","ios":"levelo://app?vid=55cdd24f-9e2e-41e5-9590-d69333b5dd4a"},"vehicle_type_id":"4","last_reported":1735697884,"current_range_meters":11600,"station_id":"ce4bhb12rcd13ifvqem0","pricing_plan_id":"cebpf4jnsgd1na2vs0mg"},{"bike_id":"ed3aff3a-e938-4ed3-8a76-bf3232c13559","system_id":"levelo_inurba_marseille","lat":43.30909,"lon":5.37215,"is_reserved":false,"is_disabled":false,"rental_uris":{"android":"levelo://app?vid=ed3aff3a-e938-4ed3-8a76-bf3232c13559","ios":"levelo://app?vid=ed3aff3a-e938-4ed3-8a76-bf3232c13559"},"vehicle_type_id":"4","last_reported":1735697884,"current_range_meters":28800,"station_id":"ce4bguh2rcd13ifvqckg","pricing_plan_id":"cebpf4jnsgd1na2vs0mg"},{"bike_id":"72e1b65d-a46f-4c86-b862-3c4d7dc0c067","system_id":"levelo_inurba_marseille","lat":43.3055,"lon":5.38408,"is_reserved":false,"is_disabled":false,"rental_uris":{"android":"levelo://app?vid=72e1b65d-a46f-4c86-b862-3c4d7dc0c067","ios":"levelo://app?vid=72e1b65d-a46f-4c86-b862-3c4d7dc0c067"},"vehicle_type_id":"4","last_reported":1735697884,"current_range_meters":36400,"station_id":"ce4bgg92rcd13ifvqb30","pricing_plan_id":"cebpf4jnsgd1na2vs0mg"},{"bike_id":"c54c9753-688e-4386-820c-662e86a4c55d","system_id":"levelo_inurba_marseille","lat":43.286645,"lon":5.38677,"is_reserved":false,"is_disabled":false,"rental_uris":{"android":"levelo://app?vid=c54c9753-688e-4386-820c-662e86a4c55d","ios":"levelo://app?vid=c54c9753-688e-4386-820c-662e86a4c55d"},"vehicle_type_id":"4","last_reported":1735697884,"current_range_meters":29600,"station_id":"ce4bh492rcd13ifvqdug","pricing_plan_id":"cebpf4jnsgd1na2vs0mg"},{"bike_id":"8aee6e51-ec03-4d1e-a7f9-0bc033449db3","system_id":"levelo_inurba_marseille","lat":43.28404,"lon":5.37502,"is_reserved":false,"is_disabled":false,"rental_uris":{"android":"levelo://app?vid=8aee6e51-ec03-4d1e-a7f9-0bc033449db3","ios":"levelo://app?vid=8aee6e51-ec03-4d1e-a7f9-0bc033449db3"},"vehicle_type_id":"4","last_reported":1735697884,"current_range_meters":34800,"station_id":"ce4bh412rcd13ifvqds0","pricing_plan_id":"cebpf4jnsgd1na2vs0mg"},{"bike_id":"fc9ca4dc-eb81-4943-ba4c-9803a0a93bbb","system_id":"levelo_inurba_marseille","lat":43.3248,"lon":5.36551,"is_reserved":false,"is_disabled":false,"rental_uris":{"android":"levelo://app?vid=fc9ca4dc-eb81-4943-ba4c-9803a0a93bbb","ios":"levelo://app?vid=fc9ca4dc-eb81-4943-ba4c-9803a0a93bbb"},"vehicle_type_id":"4","last_reported":1735697884,"current_range_meters":31200,"station_id":"ce4bhs12rcd13ifvqhvg","pricing_plan_id":"cebpf4jnsgd1na2vs0mg"},{"bike_id":"da3075ee-8070-42f9-8350-58e475a60c82","system_id":"levelo_inurba_marseille","lat":43.27567,"lon":5.38431,"is_reserved":false,"is_disabled":false,"rental_uris":{"android":"levelo://app?vid=da3075ee-8070-42f9-8350-58e475a60c82","ios":"levelo://app?vid=da3075ee-8070-42f9-8350-58e475a60c82"},"vehicle_type_id":"4","last_reported":1735697884,"current_range_meters":39200,"station_id":"ce4bhh92rcd13ifvqfi0","pricing_plan_id":"cebpf4jnsgd1na2vs0mg"},{"bike_id":"201d3095-2daa-41b3-a3b9-f477b54ffd04","system_id":"levelo_inurba_marseille","lat":43.30873,"lon":5.3965,"is_reserved":false,"is_disabled":false,"rental_uris":{"android":"levelo://app?vid=201d3095-2daa-41b3-a3b9-f477b54ffd04","ios":"levelo://app?vid=201d3095-2daa-41b3-a3b9-f477b54ffd04"},"vehicle_type_id":"4","last_reported":1735697884,"current_range_meters":30800,"station_id":"ce4bh012rcd13ifvqcv0","pricing_plan_id":"cebpf4jnsgd1na2vs0mg"},{"bike_id":"ad273259-a224-41a3-9b5d-5e8c7208e410","system_id":"levelo_inurba_marseille","lat":43.28468,"lon":5.38417,"is_reserved":false,"is_disabled":false,"rental_uris":{"android":"levelo://app?vid=ad273259-a224-41a3-9b5d-5e8c7208e410","ios":"levelo://app?vid=ad273259-a224-41a3-9b5d-5e8c7208e410"},"vehicle_type_id":"4","last_reported":1735697884,"current_range_meters":29600,"station_id":"ce4bh512rcd13ifvqe3g","pricing_plan_id":"cebpf4jnsgd1na2vs0mg"},{"bike_id":"d27ad45b-c080-4dac-ab72-b435d85d57f0","system_id":"levelo_inurba_marseille","lat":43.2926,"lon":5.409,"is_reserved":false,"is_disabled":false,"rental_uris":{"android":"levelo://app?vid=d27ad45b-c080-4dac-ab72-b435d85d57f0","ios":"levelo://app?vid=d27ad45b-c080-4dac-ab72-b435d85d57f0"},"vehicle_type_id":"4","last_reported":1735697884,"current_range_meters":8400,"station_id":"ce4bh192rcd13ifvqdc0","pricing_plan_id":"cebpf4jnsgd1na2vs0mg"},{"bike_id":"c754264e-2257-42b1-89f9-0bf9a740ba42","system_id":"levelo_inurba_marseille","lat":43.27568,"lon":5.38413,"is_reserved":false,"is_disabled":false,"rental_uris":{"android":"levelo://app?vid=c754264e-2257-42b1-89f9-0bf9a740ba42","ios":"levelo://app?vid=c754264e-2257-42b1-89f9-0bf9a740ba42"},"vehicle_type_id":"4","last_reported":1735697884,"current_range_meters":28400,"station_id":"ce4bhh92rcd13ifvqfi0","pricing_plan_id":"cebpf4jnsgd1na2vs0mg"},{"bike_id":"e5fc90b8-f4d7-48fe-9b1b-e04042412667","system_id":"levelo_inurba_marseille","lat":43.32,"lon":5.38151,"is_reserved":false,"is_disabled":false,"rental_uris":{"android":"levelo://app?vid=e5fc90b8-f4d7-48fe-9b1b-e04042412667","ios":"levelo://app?vid=e5fc90b8-f4d7-48fe-9b1b-e04042412667"},"vehicle_type_id":"4","last_reported":1735697884,"current_range_meters":39200,"station_id":"ce4bhr12rcd13ifvqhpg","pricing_plan_id":"cebpf4jnsgd1na2vs0mg"},{"bike_id":"153a191c-c472-4cba-bc69-68d338935f0b","system_id":"levelo_inurba_marseille","lat":43.30884,"lon":5.37191,"is_reserved":false,"is_disabled":false,"rental_uris":{"android":"levelo://app?vid=153a191c-c472-4cba-bc69-68d338935f0b","ios":"levelo://app?vid=153a191c-c472-4cba-bc69-68d338935f0b"},"vehicle_type_id":"4","last_reported":1735697884,"current_range_meters":9200,"station_id":"ce4bguh2rcd13ifvqckg","pricing_plan_id":"cebpf4jnsgd1na2vs0mg"},{"bike_id":"7add671d-5e32-4737-af6b-5785e58f0d91","system_id":"levelo_inurba_marseille","lat":43.31128,"lon":5.37757,"is_reserved":false,"is_disabled":false,"rental_uris":{"android":"levelo://app?vid=7add671d-5e32-4737-af6b-5785e58f0d91","ios":"levelo://app?vid=7add671d-5e32-4737-af6b-5785e58f0d91"},"vehicle_type_id":"4","last_reported":1735697884,"current_range_meters":11600,"station_id":"ce4bgt92rcd13ifvqcg0","pricing_plan_id":"cebpf4jnsgd1na2vs0mg"},{"bike_id":"b6c8d252-a8ce-43b1-a60c-c58406833311","system_id":"levelo_inurba_marseille","lat":43.27167,"lon":5.40996,"is_reserved":false,"is_disabled":false,"rental_uris":{"android":"levelo://app?vid=b6c8d252-a8ce-43b1-a60c-c58406833311","ios":"levelo://app?vid=b6c8d252-a8ce-43b1-a60c-c58406833311"},"vehicle_type_id":"4","last_reported":1735697884,"current_range_meters":13600,"station_id":"ce4bhl12rcd13ifvqgf0","pricing_plan_id":"cebpf4jnsgd1na2vs0mg"},{"bike_id":"b6daf7f7-9e92-49f6-9bd6-324d01a67477","system_id":"levelo_inurba_marseille","lat":43.30182,"lon":5.36637,"is_reserved":false,"is_disabled":false,"rental_uris":{"android":"levelo://app?vid=b6daf7f7-9e92-49f6-9bd6-324d01a67477","ios":"levelo://app?vid=b6daf7f7-9e92-49f6-9bd6-324d01a67477"},"vehicle_type_id":"4","last_reported":1735697884,"current_range_meters":38400,"station_id":"ce4bgrh2rcd13ifvqc8g","pricing_plan_id":"cebpf4jnsgd1na2vs0mg"},{"bike_id":"6611339c-c6f1-4ce8-9613-d42f5088a636","system_id":"levelo_inurba_marseille","lat":43.26813,"lon":5.40229,"is_reserved":false,"is_disabled":false,"rental_uris":{"android":"levelo://app?vid=6611339c-c6f1-4ce8-9613-d42f5088a636","ios":"levelo://app?vid=6611339c-c6f1-4ce8-9613-d42f5088a636"},"vehicle_type_id":"4","last_reported":1735697884,"current_range_meters":38800,"station_id":"ce501612rcd8frsf0b60","pricing_plan_id":"cebpf4jnsgd1na2vs0mg"},{"bike_id":"b29e6f20-8cee-47fa-909d-1ea34c4aaaa0","system_id":"levelo_inurba_marseille","lat":43.2559,"lon":5.41243,"is_reserved":false,"is_disabled":false,"rental_uris":{"android":"levelo://app?vid=b29e6f20-8cee-47fa-909d-1ea34c4aaaa0","ios":"levelo://app?vid=b29e6f20-8cee-47fa-909d-1ea34c4aaaa0"},"vehicle_type_id":"4","last_reported":1735697884,"current_range_meters":20800,"station_id":"","pricing_plan_id":"cebpf4jnsgd1na2vs0mg"},{"bike_id":"f1ae0bf8-0350-41dd-95ca-65a425c0e4b6","system_id":"levelo_inurba_marseille","lat":43.30302,"lon":5.36896,"is_reserved":false,"is_disabled":false,"rental_uris":{"android":"levelo://app?vid=f1ae0bf8-0350-41dd-95ca-65a425c0e4b6","ios":"levelo://app?vid=f1ae0bf8-0350-41dd-95ca-65a425c0e4b6"},"vehicle_type_id":"4","last_reported":1735697884,"current_range_meters":38800,"station_id":"ce4bgqh2rcd13ifvqc5g","pricing_plan_id":"cebpf4jnsgd1na2vs0mg"},{"bike_id":"d90adfee-d912-47a2-9df9-f69d5b341815","system_id":"levelo_inurba_marseille","lat":43.29191,"lon":5.35802,"is_reserved":false,"is_disabled":false,"rental_uris":{"android":"levelo://app?vid=d90adfee-d912-47a2-9df9-f69d5b341815","ios":"levelo://app?vid=d90adfee-d912-47a2-9df9-f69d5b341815"},"vehicle_type_id":"4","last_reported":1735697884,"current_range_meters":34800,"station_id":"ce4bhb12rcd13ifvqel0","pricing_plan_id":"cebpf4jnsgd1na2vs0mg"},{"bike_id":"73951743-e2d8-48c8-9b4b-49f6b638eeb5","system_id":"levelo_inurba_marseille","lat":43.31103,"lon":5.37766,"is_reserved":false,"is_disabled":false,"rental_uris":{"android":"levelo://app?vid=73951743-e2d8-48c8-9b4b-49f6b638eeb5","ios":"levelo://app?vid=73951743-e2d8-48c8-9b4b-49f6b638eeb5"},"vehicle_type_id":"4","last_reported":1735697884,"current_range_meters":34800,"station_id":"ce4bgt92rcd13ifvqcg0","pricing_plan_id":"cebpf4jnsgd1na2vs0mg"},{"bike_id":"2958545c-c42f-40c6-b109-d7dd39b54efc","system_id":"levelo_inurba_marseille","lat":43.27811,"lon":5.40715,"is_reserved":false,"is_disabled":false,"rental_uris":{"android":"levelo://app?vid=2958545c-c42f-40c6-b109-d7dd39b54efc","ios":"levelo://app?vid=2958545c-c42f-40c6-b109-d7dd39b54efc"},"vehicle_type_id":"4","last_reported":1735697884,"current_range_meters":31200,"station_id":"ce4bhnh2rcd13ifvqgtg","pricing_plan_id":"cebpf4jnsgd1na2vs0mg"},{"bike_id":"d625e588-11c3-4fb0-bbf8-82531f0a858d","system_id":"levelo_inurba_marseille","lat":43.28853,"lon":5.39317,"is_reserved":false,"is_disabled":false,"rental_uris":{"android":"levelo://app?vid=d625e588-11c3-4fb0-bbf8-82531f0a858d","ios":"levelo://app?vid=d625e588-11c3-4fb0-bbf8-82531f0a858d"},"vehicle_type_id":"4","last_reported":1735697884,"current_range_meters":38800,"station_id":"ce4bh2p2rcd13ifvqdi0","pricing_plan_id":"cebpf4jnsgd1na2vs0mg"},{"bike_id":"4e946ccd-6648-4aaa-ac0d-746ef34c5d06","system_id":"levelo_inurba_marseille","lat":43.30873,"lon":5.39677,"is_reserved":false,"is_disabled":false,"rental_uris":{"android":"levelo://app?vid=4e946ccd-6648-4aaa-ac0d-746ef34c5d06","ios":"levelo://app?vid=4e946ccd-6648-4aaa-ac0d-746ef34c5d06"},"vehicle_type_id":"4","last_reported":1735697884,"current_range_meters":14400,"station_id":"ce4bh012rcd13ifvqcv0","pricing_plan_id":"cebpf4jnsgd1na2vs0mg"},{"bike_id":"8cc07e4e-1218-41f4-a42d-7749547ad64d","system_id":"levelo_inurba_marseille","lat":43.3136,"lon":5.38513,"is_reserved":false,"is_disabled":false,"rental_uris":{"android":"levelo://app?vid=8cc07e4e-1218-41f4-a42d-7749547ad64d","ios":"levelo://app?vid=8cc07e4e-1218-41f4-a42d-7749547ad64d"},"vehicle_type_id":"4","last_reported":1735697884,"current_range_meters":39200,"station_id":"ce4bgt92rcd13ifvqcf0","pricing_plan_id":"cebpf4jnsgd1na2vs0mg"},{"bike_id":"ba936ddb-3421-4c87-83fc-05fd5470238a","system_id":"levelo_inurba_marseille","lat":43.29445,"lon":5.3974,"is_reserved":false,"is_disabled":false,"rental_uris":{"android":"levelo://app?vid=ba936ddb-3421-4c87-83fc-05fd5470238a","ios":"levelo://app?vid=ba936ddb-3421-4c87-83fc-05fd5470238a"},"vehicle_type_id":"4","last_reported":1735697884,"current_range_meters":39200,"station_id":"ce4bh3h2rcd13ifvqdo0","pricing_plan_id":"cebpf4jnsgd1na2vs0mg"},{"bike_id":"f9c1c4fc-2798-4fd0-84bf-4718013819e1","system_id":"levelo_inurba_marseille","lat":43.28938,"lon":5.38412,"is_reserved":false,"is_disabled":false,"rental_uris":{"android":"levelo://app?vid=f9c1c4fc-2798-4fd0-84bf-4718013819e1","ios":"levelo://app?vid=f9c1c4fc-2798-4fd0-84bf-4718013819e1"},"vehicle_type_id":"4","last_reported":1735697884,"current_range_meters":28800,"station_id":"ce4bh612rcd13ifvqe6g","pricing_plan_id":"cebpf4jnsgd1na2vs0mg"},{"bike_id":"ddd55fce-9a6a-4592-9cd2-9a1785ff7b1f","system_id":"levelo_inurba_marseille","lat":43.33006,"lon":5.39033,"is_reserved":false,"is_disabled":false,"rental_uris":{"android":"levelo://app?vid=ddd55fce-9a6a-4592-9cd2-9a1785ff7b1f","ios":"levelo://app?vid=ddd55fce-9a6a-4592-9cd2-9a1785ff7b1f"},"vehicle_type_id":"4","last_reported":1735697884,"current_range_meters":37600,"station_id":"ce4bhr92rcd13ifvqhrg","pricing_plan_id":"cebpf4jnsgd1na2vs0mg"},{"bike_id":"2f46ed5f-d621-4960-be21-137d8f9ca518","system_id":"levelo_inurba_marseille","lat":43.2926,"lon":5.38437,"is_reserved":false,"is_disabled":true,"rental_uris":{"android":"levelo://app?vid=2f46ed5f-d621-4960-be21-137d8f9ca518","ios":"levelo://app?vid=2f46ed5f-d621-4960-be21-137d8f9ca518"},"vehicle_type_id":"4","last_reported":1735697884,"current_range_meters":38800,"station_id":"ce4bh692rcd13ifvqea0","pricing_plan_id":"cebpf4jnsgd1na2vs0mg"},{"bike_id":"859c5837-2063-45b3-b43a-868f0feac573","system_id":"levelo_inurba_marseille","lat":43.28579,"lon":5.39495,"is_reserved":false,"is_disabled":false,"rental_uris":{"android":"levelo://app?vid=859c5837-2063-45b3-b43a-868f0feac573","ios":"levelo://app?vid=859c5837-2063-45b3-b43a-868f0feac573"},"vehicle_type_id":"4","last_reported":1735697884,"current_range_meters":9600,"station_id":"ce4bh292rcd13ifvqdg0","pricing_plan_id":"cebpf4jnsgd1na2vs0mg"},{"bike_id":"2db45e43-1098-4400-b99c-1b568a07e128","system_id":"levelo_inurba_marseille","lat":43.30602,"lon":5.39362,"is_reserved":false,"is_disabled":false,"rental_uris":{"android":"levelo://app?vid=2db45e43-1098-4400-b99c-1b568a07e128","ios":"levelo://app?vid=2db45e43-1098-4400-b99c-1b568a07e128"},"vehicle_type_id":"4","last_reported":1735697884,"current_range_meters":32400,"station_id":"ce4bh0p2rcd13ifvqd80","pricing_plan_id":"cebpf4jnsgd1na2vs0mg"},{"bike_id":"f92e0b80-cd61-42c7-82b0-cf418b51b985","system_id":"levelo_inurba_marseille","lat":43.29898,"lon":5.43669,"is_reserved":false,"is_disabled":false,"rental_uris":{"android":"levelo://app?vid=f92e0b80-cd61-42c7-82b0-cf418b51b985","ios":"levelo://app?vid=f92e0b80-cd61-42c7-82b0-cf418b51b985"},"vehicle_type_id":"4","last_reported":1735697884,"current_range_meters":6400,"station_id":"ce4bhpp2rcd13ifvqhfg","pricing_plan_id":"cebpf4jnsgd1na2vs0mg"},{"bike_id":"21348762-b24d-4b2d-bc68-84e9f0125c38","system_id":"levelo_inurba_marseille","lat":43.22936,"lon":5.35378,"is_reserved":false,"is_disabled":false,"rental_uris":{"android":"levelo://app?vid=21348762-b24d-4b2d-bc68-84e9f0125c38","ios":"levelo://app?vid=21348762-b24d-4b2d-bc68-84e9f0125c38"},"vehicle_type_id":"4","last_reported":1735697884,"current_range_meters":37600,"station_id":"cpo3532slgdg3j2ikp40","pricing_plan_id":"cebpf4jnsgd1na2vs0mg"},{"bike_id":"d358c29f-6972-45d9-ab88-d417f38017f7","system_id":"levelo_inurba_marseille","lat":43.28731,"lon":5.36068,"is_reserved":false,"is_disabled":false,"rental_uris":{"android":"levelo://app?vid=d358c29f-6972-45d9-ab88-d417f38017f7","ios":"levelo://app?vid=d358c29f-6972-45d9-ab88-d417f38017f7"},"vehicle_type_id":"4","last_reported":1735697884,"current_range_meters":30000,"station_id":"cki0cbj6b192h4jlfktg","pricing_plan_id":"cebpf4jnsgd1na2vs0mg"},{"bike_id":"9c017f86-baf5-4f45-8d53-2d2982a0c140","system_id":"levelo_inurba_marseille","lat":43.28097,"lon":5.37844,"is_reserved":false,"is_disabled":false,"rental_uris":{"android":"levelo://app?vid=9c017f86-baf5-4f45-8d53-2d2982a0c140","ios":"levelo://app?vid=9c017f86-baf5-4f45-8d53-2d2982a0c140"},"vehicle_type_id":"4","last_reported":1735697884,"current_range_meters":36800,"station_id":"ce4bha12rcd13ifvqee0","pricing_plan_id":"cebpf4jnsgd1na2vs0mg"},{"bike_id":"30a49652-d136-44e4-a4d9-d7c1b83f0627","system_id":"levelo_inurba_marseille","lat":43.337444,"lon":5.374475,"is_reserved":false,"is_disabled":false,"rental_uris":{"android":"levelo://app?vid=30a49652-d136-44e4-a4d9-d7c1b83f0627","ios":"levelo://app?vid=30a49652-d136-44e4-a4d9-d7c1b83f0627"},"vehicle_type_id":"4","last_reported":1735697884,"current_range_meters":16400,"station_id":"","pricing_plan_id":"cebpf4jnsgd1na2vs0mg"},{"bike_id":"8e43fa85-9764-4a8e-9f3b-20e1a8b81057","system_id":"levelo_inurba_marseille","lat":43.33838,"lon":5.42283,"is_reserved":false,"is_disabled":false,"rental_uris":{"android":"levelo://app?vid=8e43fa85-9764-4a8e-9f3b-20e1a8b81057","ios":"levelo://app?vid=8e43fa85-9764-4a8e-9f3b-20e1a8b81057"},"vehicle_type_id":"4","last_reported":1735697884,"current_range_meters":10000,"station_id":"","pricing_plan_id":"cebpf4jnsgd1na2vs0mg"},{"bike_id":"72f25b4b-9ef6-4559-a874-28754cbe15c9","system_id":"levelo_inurba_marseille","lat":43.30585,"lon":5.39348,"is_reserved":false,"is_disabled":false,"rental_uris":{"android":"levelo://app?vid=72f25b4b-9ef6-4559-a874-28754cbe15c9","ios":"levelo://app?vid=72f25b4b-9ef6-4559-a874-28754cbe15c9"},"vehicle_type_id":"4","last_reported":1735697884,"current_range_meters":38800,"station_id":"ce4bh0p2rcd13ifvqd80","pricing_plan_id":"cebpf4jnsgd1na2vs0mg"},{"bike_id":"5b744b90-1060-437b-b3d1-3a60c6232327","system_id":"levelo_inurba_marseille","lat":43.27913,"lon":5.39583,"is_reserved":false,"is_disabled":false,"rental_uris":{"android":"levelo://app?vid=5b744b90-1060-437b-b3d1-3a60c6232327","ios":"levelo://app?vid=5b744b90-1060-437b-b3d1-3a60c6232327"},"vehicle_type_id":"4","last_reported":1735697884,"current_range_meters":17600,"station_id":"ce4bhf92rcd13ifvqf40","pricing_plan_id":"cebpf4jnsgd1na2vs0mg"},{"bike_id":"2e0947ef-11e1-465d-926a-5de3258b5af4","system_id":"levelo_inurba_marseille","lat":43.28341,"lon":5.38105,"is_reserved":false,"is_disabled":false,"rental_uris":{"android":"levelo://app?vid=2e0947ef-11e1-465d-926a-5de3258b5af4","ios":"levelo://app?vid=2e0947ef-11e1-465d-926a-5de3258b5af4"},"vehicle_type_id":"4","last_reported":1735697884,"current_range_meters":29600,"station_id":"ce4bh412rcd13ifvqdr0","pricing_plan_id":"cebpf4jnsgd1na2vs0mg"},{"bike_id":"d80e9bec-0f8d-442d-adeb-8a9f45ad9450","system_id":"levelo_inurba_marseille","lat":43.28347,"lon":5.38107,"is_reserved":false,"is_disabled":false,"rental_uris":{"android":"levelo://app?vid=d80e9bec-0f8d-442d-adeb-8a9f45ad9450","ios":"levelo://app?vid=d80e9bec-0f8d-442d-adeb-8a9f45ad9450"},"vehicle_type_id":"4","last_reported":1735697884,"current_range_meters":22800,"station_id":"ce4bh412rcd13ifvqdr0","pricing_plan_id":"cebpf4jnsgd1na2vs0mg"},{"bike_id":"9965033c-8b8a-4b3a-853b-785e6ed02405","system_id":"levelo_inurba_marseille","lat":43.31058,"lon":5.38142,"is_reserved":false,"is_disabled":false,"rental_uris":{"android":"levelo://app?vid=9965033c-8b8a-4b3a-853b-785e6ed02405","ios":"levelo://app?vid=9965033c-8b8a-4b3a-853b-785e6ed02405"},"vehicle_type_id":"4","last_reported":1735697884,"current_range_meters":24800,"station_id":"","pricing_plan_id":"cebpf4jnsgd1na2vs0mg"},{"bike_id":"cd74a333-9a1d-4930-b287-4902bed467c1","system_id":"levelo_inurba_marseille","lat":43.30835,"lon":5.38124,"is_reserved":false,"is_disabled":false,"rental_uris":{"android":"levelo://app?vid=cd74a333-9a1d-4930-b287-4902bed467c1","ios":"levelo://app?vid=cd74a333-9a1d-4930-b287-4902bed467c1"},"vehicle_type_id":"4","last_reported":1735697884,"current_range_meters":6400,"station_id":"ce4bgt12rcd13ifvqce0","pricing_plan_id":"cebpf4jnsgd1na2vs0mg"},{"bike_id":"602066a0-2260-4df6-91ea-a3f6be32a7d2","system_id":"levelo_inurba_marseille","lat":43.3175,"lon":5.39011,"is_reserved":false,"is_disabled":false,"rental_uris":{"android":"levelo://app?vid=602066a0-2260-4df6-91ea-a3f6be32a7d2","ios":"levelo://app?vid=602066a0-2260-4df6-91ea-a3f6be32a7d2"},"vehicle_type_id":"4","last_reported":1735697884,"current_range_meters":38800,"station_id":"ce4bhqp2rcd13ifvqhng","pricing_plan_id":"cebpf4jnsgd1na2vs0mg"},{"bike_id":"d996ebe6-a085-4671-8aef-57e91ba860dc","system_id":"levelo_inurba_marseille","lat":43.26805,"lon":5.4026,"is_reserved":false,"is_disabled":false,"rental_uris":{"android":"levelo://app?vid=d996ebe6-a085-4671-8aef-57e91ba860dc","ios":"levelo://app?vid=d996ebe6-a085-4671-8aef-57e91ba860dc"},"vehicle_type_id":"4","last_reported":1735697884,"current_range_meters":30400,"station_id":"ce501612rcd8frsf0b60","pricing_plan_id":"cebpf4jnsgd1na2vs0mg"},{"bike_id":"1fa11319-427d-42b2-8f07-2d78d11bd9fa","system_id":"levelo_inurba_marseille","lat":43.31149,"lon":5.4228,"is_reserved":false,"is_disabled":false,"rental_uris":{"android":"levelo://app?vid=1fa11319-427d-42b2-8f07-2d78d11bd9fa","ios":"levelo://app?vid=1fa11319-427d-42b2-8f07-2d78d11bd9fa"},"vehicle_type_id":"4","last_reported":1735697884,"current_range_meters":26000,"station_id":"","pricing_plan_id":"cebpf4jnsgd1na2vs0mg"},{"bike_id":"7f9e49d8-8213-48ff-8267-1347961734e7","system_id":"levelo_inurba_marseille","lat":43.27826,"lon":5.39212,"is_reserved":false,"is_disabled":false,"rental_uris":{"android":"levelo://app?vid=7f9e49d8-8213-48ff-8267-1347961734e7","ios":"levelo://app?vid=7f9e49d8-8213-48ff-8267-1347961734e7"},"vehicle_type_id":"4","last_reported":1735697884,"current_range_meters":38400,"station_id":"ce4bhjp2rcd13ifvqga0","pricing_plan_id":"cebpf4jnsgd1na2vs0mg"},{"bike_id":"737ef40e-a86b-4f85-a60b-fd1719a16354","system_id":"levelo_inurba_marseille","lat":43.28713,"lon":5.40006,"is_reserved":false,"is_disabled":false,"rental_uris":{"android":"levelo://app?vid=737ef40e-a86b-4f85-a60b-fd1719a16354","ios":"levelo://app?vid=737ef40e-a86b-4f85-a60b-fd1719a16354"},"vehicle_type_id":"4","last_reported":1735697884,"current_range_meters":7200,"station_id":"ce4bho92rcd13ifvqh3g","pricing_plan_id":"cebpf4jnsgd1na2vs0mg"},{"bike_id":"a80ab412-c52a-467a-8ae8-b33a83691fc0","system_id":"levelo_inurba_marseille","lat":43.295283,"lon":5.385417,"is_reserved":false,"is_disabled":false,"rental_uris":{"android":"levelo://app?vid=a80ab412-c52a-467a-8ae8-b33a83691fc0","ios":"levelo://app?vid=a80ab412-c52a-467a-8ae8-b33a83691fc0"},"vehicle_type_id":"4","last_reported":1735697884,"current_range_meters":28000,"station_id":"ce4bgih2rcd13ifvqba0","pricing_plan_id":"cebpf4jnsgd1na2vs0mg"},{"bike_id":"ea990fc9-5f95-4acd-a2be-29105099e24e","system_id":"levelo_inurba_marseille","lat":43.23063,"lon":5.35489,"is_reserved":false,"is_disabled":false,"rental_uris":{"android":"levelo://app?vid=ea990fc9-5f95-4acd-a2be-29105099e24e","ios":"levelo://app?vid=ea990fc9-5f95-4acd-a2be-29105099e24e"},"vehicle_type_id":"4","last_reported":1735697884,"current_range_meters":32800,"station_id":"cpo3342slgdg3j2ifvpg","pricing_plan_id":"cebpf4jnsgd1na2vs0mg"},{"bike_id":"9c969c7e-74bc-4e10-a4da-07b7bc4fad80","system_id":"levelo_inurba_marseille","lat":43.32482,"lon":5.36572,"is_reserved":false,"is_disabled":false,"rental_uris":{"android":"levelo://app?vid=9c969c7e-74bc-4e10-a4da-07b7bc4fad80","ios":"levelo://app?vid=9c969c7e-74bc-4e10-a4da-07b7bc4fad80"},"vehicle_type_id":"4","last_reported":1735697884,"current_range_meters":20400,"station_id":"ce4bhs12rcd13ifvqhvg","pricing_plan_id":"cebpf4jnsgd1na2vs0mg"},{"bike_id":"711f1fd4-0cad-4b01-a65d-e868b4eef140","system_id":"levelo_inurba_marseille","lat":43.29254,"lon":5.40904,"is_reserved":false,"is_disabled":false,"rental_uris":{"android":"levelo://app?vid=711f1fd4-0cad-4b01-a65d-e868b4eef140","ios":"levelo://app?vid=711f1fd4-0cad-4b01-a65d-e868b4eef140"},"vehicle_type_id":"4","last_reported":1735697884,"current_range_meters":39200,"station_id":"ce4bh192rcd13ifvqdc0","pricing_plan_id":"cebpf4jnsgd1na2vs0mg"},{"bike_id":"875a1f95-fa28-45eb-8a15-cb8df7fccf00","system_id":"levelo_inurba_marseille","lat":43.32472,"lon":5.3656,"is_reserved":false,"is_disabled":false,"rental_uris":{"android":"levelo://app?vid=875a1f95-fa28-45eb-8a15-cb8df7fccf00","ios":"levelo://app?vid=875a1f95-fa28-45eb-8a15-cb8df7fccf00"},"vehicle_type_id":"4","last_reported":1735697884,"current_range_meters":36400,"station_id":"ce4bhs12rcd13ifvqhvg","pricing_plan_id":"cebpf4jnsgd1na2vs0mg"},{"bike_id":"818c2676-53ba-497a-8a78-5aed69c6a753","system_id":"levelo_inurba_marseille","lat":43.25862,"lon":5.39894,"is_reserved":false,"is_disabled":false,"rental_uris":{"android":"levelo://app?vid=818c2676-53ba-497a-8a78-5aed69c6a753","ios":"levelo://app?vid=818c2676-53ba-497a-8a78-5aed69c6a753"},"vehicle_type_id":"4","last_reported":1735697884,"current_range_meters":38400,"station_id":"ce4bhl92rcd13ifvqghg","pricing_plan_id":"cebpf4jnsgd1na2vs0mg"},{"bike_id":"d13b199e-e620-4f52-ae43-9a360f46ed32","system_id":"levelo_inurba_marseille","lat":43.27996,"lon":5.39985,"is_reserved":false,"is_disabled":false,"rental_uris":{"android":"levelo://app?vid=d13b199e-e620-4f52-ae43-9a360f46ed32","ios":"levelo://app?vid=d13b199e-e620-4f52-ae43-9a360f46ed32"},"vehicle_type_id":"4","last_reported":1735697884,"current_range_meters":8000,"station_id":"ce4bho92rcd13ifvqh4g","pricing_plan_id":"cebpf4jnsgd1na2vs0mg"},{"bike_id":"062bd3e7-a1b0-4a7b-be3e-67845610f912","system_id":"levelo_inurba_marseille","lat":43.31281,"lon":5.4017,"is_reserved":false,"is_disabled":false,"rental_uris":{"android":"levelo://app?vid=062bd3e7-a1b0-4a7b-be3e-67845610f912","ios":"levelo://app?vid=062bd3e7-a1b0-4a7b-be3e-67845610f912"},"vehicle_type_id":"4","last_reported":1735697884,"current_range_meters":30400,"station_id":"ce4bh092rcd13ifvqd30","pricing_plan_id":"cebpf4jnsgd1na2vs0mg"},{"bike_id":"5166e169-7d79-47b6-9758-40473fb0b378","system_id":"levelo_inurba_marseille","lat":43.296855,"lon":5.372915,"is_reserved":false,"is_disabled":false,"rental_uris":{"android":"levelo://app?vid=5166e169-7d79-47b6-9758-40473fb0b378","ios":"levelo://app?vid=5166e169-7d79-47b6-9758-40473fb0b378"},"vehicle_type_id":"4","last_reported":1735697884,"current_range_meters":38000,"station_id":"ce4bgk12rcd13ifvqbj0","pricing_plan_id":"cebpf4jnsgd1na2vs0mg"},{"bike_id":"32afc6cc-1544-4f88-ab5c-34496cc35b04","system_id":"levelo_inurba_marseille","lat":43.23071,"lon":5.35493,"is_reserved":false,"is_disabled":false,"rental_uris":{"android":"levelo://app?vid=32afc6cc-1544-4f88-ab5c-34496cc35b04","ios":"levelo://app?vid=32afc6cc-1544-4f88-ab5c-34496cc35b04"},"vehicle_type_id":"4","last_reported":1735697884,"current_range_meters":14000,"station_id":"cpo3342slgdg3j2ifvpg","pricing_plan_id":"cebpf4jnsgd1na2vs0mg"},{"bike_id":"34d20bf1-6aea-4179-808b-978c64e28d8c","system_id":"levelo_inurba_marseille","lat":43.27815,"lon":5.4071,"is_reserved":false,"is_disabled":false,"rental_uris":{"android":"levelo://app?vid=34d20bf1-6aea-4179-808b-978c64e28d8c","ios":"levelo://app?vid=34d20bf1-6aea-4179-808b-978c64e28d8c"},"vehicle_type_id":"4","last_reported":1735697884,"current_range_meters":39200,"station_id":"ce4bhnh2rcd13ifvqgtg","pricing_plan_id":"cebpf4jnsgd1na2vs0mg"},{"bike_id":"b2838581-a430-4e92-a319-537c0694319a","system_id":"levelo_inurba_marseille","lat":43.3086,"lon":5.39637,"is_reserved":false,"is_disabled":false,"rental_uris":{"android":"levelo://app?vid=b2838581-a430-4e92-a319-537c0694319a","ios":"levelo://app?vid=b2838581-a430-4e92-a319-537c0694319a"},"vehicle_type_id":"4","last_reported":1735697884,"current_range_meters":26000,"station_id":"","pricing_plan_id":"cebpf4jnsgd1na2vs0mg"},{"bike_id":"868e4c2a-10d2-43b5-a6ed-154465ab00a6","system_id":"levelo_inurba_marseille","lat":43.30327,"lon":5.40424,"is_reserved":false,"is_disabled":false,"rental_uris":{"android":"levelo://app?vid=868e4c2a-10d2-43b5-a6ed-154465ab00a6","ios":"levelo://app?vid=868e4c2a-10d2-43b5-a6ed-154465ab00a6"},"vehicle_type_id":"4","last_reported":1735697884,"current_range_meters":13600,"station_id":"ce4bh012rcd13ifvqd10","pricing_plan_id":"cebpf4jnsgd1na2vs0mg"},{"bike_id":"e5967929-b43d-4a0a-924e-13dc4eba2a6f","system_id":"levelo_inurba_marseille","lat":43.31761,"lon":5.3901,"is_reserved":false,"is_disabled":false,"rental_uris":{"android":"levelo://app?vid=e5967929-b43d-4a0a-924e-13dc4eba2a6f","ios":"levelo://app?vid=e5967929-b43d-4a0a-924e-13dc4eba2a6f"},"vehicle_type_id":"4","last_reported":1735697884,"current_range_meters":30000,"station_id":"ce4bhqp2rcd13ifvqhng","pricing_plan_id":"cebpf4jnsgd1na2vs0mg"},{"bike_id":"f0d45c44-2f67-4d12-863a-7c41f1f48a22","system_id":"levelo_inurba_marseille","lat":43.292351,"lon":5.3606,"is_reserved":false,"is_disabled":false,"rental_uris":{"android":"levelo://app?vid=f0d45c44-2f67-4d12-863a-7c41f1f48a22","ios":"levelo://app?vid=f0d45c44-2f67-4d12-863a-7c41f1f48a22"},"vehicle_type_id":"4","last_reported":1735697884,"current_range_meters":28400,"station_id":"ce4bhbh2rcd13ifvqeqg","pricing_plan_id":"cebpf4jnsgd1na2vs0mg"},{"bike_id":"b1e5eb72-81e6-47c8-81f0-5df7140b8a5b","system_id":"levelo_inurba_marseille","lat":43.31069,"lon":5.42453,"is_reserved":false,"is_disabled":false,"rental_uris":{"android":"levelo://app?vid=b1e5eb72-81e6-47c8-81f0-5df7140b8a5b","ios":"levelo://app?vid=b1e5eb72-81e6-47c8-81f0-5df7140b8a5b"},"vehicle_type_id":"4","last_reported":1735697884,"current_range_meters":38800,"station_id":"ce4bhp92rcd13ifvqhag","pricing_plan_id":"cebpf4jnsgd1na2vs0mg"},{"bike_id":"d9039fb6-1526-43a5-ab47-bf6c74051347","system_id":"levelo_inurba_marseille","lat":43.28154,"lon":5.42643,"is_reserved":false,"is_disabled":false,"rental_uris":{"android":"levelo://app?vid=d9039fb6-1526-43a5-ab47-bf6c74051347","ios":"levelo://app?vid=d9039fb6-1526-43a5-ab47-bf6c74051347"},"vehicle_type_id":"4","last_reported":1735697884,"current_range_meters":8800,"station_id":"ce4bhnh2rcd13ifvqgug","pricing_plan_id":"cebpf4jnsgd1na2vs0mg"},{"bike_id":"a433092e-b5db-42a1-877d-fb44f3443d8d","system_id":"levelo_inurba_marseille","lat":43.28558,"lon":5.39496,"is_reserved":false,"is_disabled":false,"rental_uris":{"android":"levelo://app?vid=a433092e-b5db-42a1-877d-fb44f3443d8d","ios":"levelo://app?vid=a433092e-b5db-42a1-877d-fb44f3443d8d"},"vehicle_type_id":"4","last_reported":1735697884,"current_range_meters":38000,"station_id":"ce4bh292rcd13ifvqdg0","pricing_plan_id":"cebpf4jnsgd1na2vs0mg"},{"bike_id":"41f82925-3aff-4ae8-bef1-2e85a078111b","system_id":"levelo_inurba_marseille","lat":43.30889,"lon":5.39627,"is_reserved":false,"is_disabled":false,"rental_uris":{"android":"levelo://app?vid=41f82925-3aff-4ae8-bef1-2e85a078111b","ios":"levelo://app?vid=41f82925-3aff-4ae8-bef1-2e85a078111b"},"vehicle_type_id":"4","last_reported":1735697884,"current_range_meters":37600,"station_id":"ce4bh012rcd13ifvqcv0","pricing_plan_id":"cebpf4jnsgd1na2vs0mg"},{"bike_id":"ce872ff4-1114-4dbb-a1cd-0587f9a75e23","system_id":"levelo_inurba_marseille","lat":43.24821,"lon":5.37447,"is_reserved":false,"is_disabled":false,"rental_uris":{"android":"levelo://app?vid=ce872ff4-1114-4dbb-a1cd-0587f9a75e23","ios":"levelo://app?vid=ce872ff4-1114-4dbb-a1cd-0587f9a75e23"},"vehicle_type_id":"4","last_reported":1735697884,"current_range_meters":38800,"station_id":"ce4bhgh2rcd13ifvqfb0","pricing_plan_id":"cebpf4jnsgd1na2vs0mg"},{"bike_id":"022d826a-d31d-48ef-b07e-f8dd0ceaa746","system_id":"levelo_inurba_marseille","lat":43.24996,"lon":5.38935,"is_reserved":false,"is_disabled":false,"rental_uris":{"android":"levelo://app?vid=022d826a-d31d-48ef-b07e-f8dd0ceaa746","ios":"levelo://app?vid=022d826a-d31d-48ef-b07e-f8dd0ceaa746"},"vehicle_type_id":"4","last_reported":1735697884,"current_range_meters":34800,"station_id":"ce4bhgp2rcd13ifvqfd0","pricing_plan_id":"cebpf4jnsgd1na2vs0mg"},{"bike_id":"1e06ab75-6607-435b-af1a-03caee3d14fb","system_id":"levelo_inurba_marseille","lat":43.28972,"lon":5.37845,"is_reserved":false,"is_disabled":false,"rental_uris":{"android":"levelo://app?vid=1e06ab75-6607-435b-af1a-03caee3d14fb","ios":"levelo://app?vid=1e06ab75-6607-435b-af1a-03caee3d14fb"},"vehicle_type_id":"4","last_reported":1735697884,"current_range_meters":30800,"station_id":"ce4bh9p2rcd13ifvqed0","pricing_plan_id":"cebpf4jnsgd1na2vs0mg"},{"bike_id":"04e7867a-1371-4222-a6db-9d80083cea73","system_id":"levelo_inurba_marseille","lat":43.28844,"lon":5.35846,"is_reserved":false,"is_disabled":true,"rental_uris":{"android":"levelo://app?vid=04e7867a-1371-4222-a6db-9d80083cea73","ios":"levelo://app?vid=04e7867a-1371-4222-a6db-9d80083cea73"},"vehicle_type_id":"4","last_reported":1735697884,"current_range_meters":35200,"station_id":"ce4bhb12rcd13ifvqem0","pricing_plan_id":"cebpf4jnsgd1na2vs0mg"},{"bike_id":"8a146b06-afc0-42cb-8186-7682971ad0d0","system_id":"levelo_inurba_marseille","lat":43.31487,"lon":5.37301,"is_reserved":false,"is_disabled":false,"rental_uris":{"android":"levelo://app?vid=8a146b06-afc0-42cb-8186-7682971ad0d0","ios":"levelo://app?vid=8a146b06-afc0-42cb-8186-7682971ad0d0"},"vehicle_type_id":"4","last_reported":1735697884,"current_range_meters":8400,"station_id":"ce4bgt12rcd13ifvqcd0","pricing_plan_id":"cebpf4jnsgd1na2vs0mg"},{"bike_id":"4d1a84a8-b869-4c6c-a789-022dd0dc51b8","system_id":"levelo_inurba_marseille","lat":43.31286,"lon":5.40168,"is_reserved":false,"is_disabled":false,"rental_uris":{"android":"levelo://app?vid=4d1a84a8-b869-4c6c-a789-022dd0dc51b8","ios":"levelo://app?vid=4d1a84a8-b869-4c6c-a789-022dd0dc51b8"},"vehicle_type_id":"4","last_reported":1735697884,"current_range_meters":39200,"station_id":"ce4bh092rcd13ifvqd30","pricing_plan_id":"cebpf4jnsgd1na2vs0mg"},{"bike_id":"dacb31f4-90b7-43f7-bc2e-c7ea69b2bb33","system_id":"levelo_inurba_marseille","lat":43.312208,"lon":5.368714,"is_reserved":false,"is_disabled":true,"rental_uris":{"android":"levelo://app?vid=dacb31f4-90b7-43f7-bc2e-c7ea69b2bb33","ios":"levelo://app?vid=dacb31f4-90b7-43f7-bc2e-c7ea69b2bb33"},"vehicle_type_id":"4","last_reported":1735697884,"current_range_meters":38800,"station_id":"ce4bgl92rcd13ifvqbq0","pricing_plan_id":"cebpf4jnsgd1na2vs0mg"},{"bike_id":"d3f50f36-86e3-47a7-88f1-c764fa66c884","system_id":"levelo_inurba_marseille","lat":43.3026,"lon":5.40072,"is_reserved":false,"is_disabled":false,"rental_uris":{"android":"levelo://app?vid=d3f50f36-86e3-47a7-88f1-c764fa66c884","ios":"levelo://app?vid=d3f50f36-86e3-47a7-88f1-c764fa66c884"},"vehicle_type_id":"4","last_reported":1735697884,"current_range_meters":14000,"station_id":"ce4bgvh2rcd13ifvqcs0","pricing_plan_id":"cebpf4jnsgd1na2vs0mg"},{"bike_id":"428d9846-0630-4f49-8fa8-8571caa761ea","system_id":"levelo_inurba_marseille","lat":43.30891,"lon":5.37197,"is_reserved":false,"is_disabled":false,"rental_uris":{"android":"levelo://app?vid=428d9846-0630-4f49-8fa8-8571caa761ea","ios":"levelo://app?vid=428d9846-0630-4f49-8fa8-8571caa761ea"},"vehicle_type_id":"4","last_reported":1735697884,"current_range_meters":30400,"station_id":"ce4bguh2rcd13ifvqckg","pricing_plan_id":"cebpf4jnsgd1na2vs0mg"},{"bike_id":"6bd3afe6-91ca-4d9c-9df4-f4d2d0202408","system_id":"levelo_inurba_marseille","lat":43.28695,"lon":5.39983,"is_reserved":false,"is_disabled":false,"rental_uris":{"android":"levelo://app?vid=6bd3afe6-91ca-4d9c-9df4-f4d2d0202408","ios":"levelo://app?vid=6bd3afe6-91ca-4d9c-9df4-f4d2d0202408"},"vehicle_type_id":"4","last_reported":1735697884,"current_range_meters":20400,"station_id":"ce4bho92rcd13ifvqh3g","pricing_plan_id":"cebpf4jnsgd1na2vs0mg"},{"bike_id":"bf654c11-a7e0-4cab-821c-d8bcb8858e68","system_id":"levelo_inurba_marseille","lat":43.287004,"lon":5.373966,"is_reserved":false,"is_disabled":false,"rental_uris":{"android":"levelo://app?vid=bf654c11-a7e0-4cab-821c-d8bcb8858e68","ios":"levelo://app?vid=bf654c11-a7e0-4cab-821c-d8bcb8858e68"},"vehicle_type_id":"4","last_reported":1735697884,"current_range_meters":33200,"station_id":"ce4bh3p2rcd13ifvqdq0","pricing_plan_id":"cebpf4jnsgd1na2vs0mg"},{"bike_id":"564a3d09-1ba5-4dd8-ba88-dab5b710821c","system_id":"levelo_inurba_marseille","lat":43.31997,"lon":5.38146,"is_reserved":false,"is_disabled":false,"rental_uris":{"android":"levelo://app?vid=564a3d09-1ba5-4dd8-ba88-dab5b710821c","ios":"levelo://app?vid=564a3d09-1ba5-4dd8-ba88-dab5b710821c"},"vehicle_type_id":"4","last_reported":1735697884,"current_range_meters":12000,"station_id":"ce4bhr12rcd13ifvqhpg","pricing_plan_id":"cebpf4jnsgd1na2vs0mg"},{"bike_id":"a005e1bf-2999-4035-942d-1957469d29ca","system_id":"levelo_inurba_marseille","lat":43.24691,"lon":5.38152,"is_reserved":false,"is_disabled":true,"rental_uris":{"android":"levelo://app?vid=a005e1bf-2999-4035-942d-1957469d29ca","ios":"levelo://app?vid=a005e1bf-2999-4035-942d-1957469d29ca"},"vehicle_type_id":"4","last_reported":1735697884,"current_range_meters":35200,"station_id":"ce4bhih2rcd13ifvqfr0","pricing_plan_id":"cebpf4jnsgd1na2vs0mg"},{"bike_id":"59aea15c-63a1-4bc3-8429-95a2a875a733","system_id":"levelo_inurba_marseille","lat":43.31698,"lon":5.43696,"is_reserved":false,"is_disabled":false,"rental_uris":{"android":"levelo://app?vid=59aea15c-63a1-4bc3-8429-95a2a875a733","ios":"levelo://app?vid=59aea15c-63a1-4bc3-8429-95a2a875a733"},"vehicle_type_id":"4","last_reported":1735697884,"current_range_meters":14800,"station_id":"ce4bhp92rcd13ifvqhcg","pricing_plan_id":"cebpf4jnsgd1na2vs0mg"},{"bike_id":"f6c3569e-efa4-4a1c-b75b-94ded8df3e64","system_id":"levelo_inurba_marseille","lat":43.27941,"lon":5.38718,"is_reserved":false,"is_disabled":false,"rental_uris":{"android":"levelo://app?vid=f6c3569e-efa4-4a1c-b75b-94ded8df3e64","ios":"levelo://app?vid=f6c3569e-efa4-4a1c-b75b-94ded8df3e64"},"vehicle_type_id":"4","last_reported":1735697884,"current_range_meters":30400,"station_id":"ce4bhg12rcd13ifvqf80","pricing_plan_id":"cebpf4jnsgd1na2vs0mg"},{"bike_id":"4588c936-68ab-4cfc-be17-6d719ce26ead","system_id":"levelo_inurba_marseille","lat":43.3106,"lon":5.38341,"is_reserved":false,"is_disabled":false,"rental_uris":{"android":"levelo://app?vid=4588c936-68ab-4cfc-be17-6d719ce26ead","ios":"levelo://app?vid=4588c936-68ab-4cfc-be17-6d719ce26ead"},"vehicle_type_id":"4","last_reported":1735697884,"current_range_meters":35600,"station_id":"ce4bgv92rcd13ifvqcr0","pricing_plan_id":"cebpf4jnsgd1na2vs0mg"},{"bike_id":"5510f670-eb3d-4a9d-951e-27e21575eef2","system_id":"levelo_inurba_marseille","lat":43.32446,"lon":5.36584,"is_reserved":false,"is_disabled":false,"rental_uris":{"android":"levelo://app?vid=5510f670-eb3d-4a9d-951e-27e21575eef2","ios":"levelo://app?vid=5510f670-eb3d-4a9d-951e-27e21575eef2"},"vehicle_type_id":"4","last_reported":1735697884,"current_range_meters":38800,"station_id":"ce4bhs12rcd13ifvqhvg","pricing_plan_id":"cebpf4jnsgd1na2vs0mg"},{"bike_id":"9903dfc1-17e3-43ac-8060-6811fe0c4142","system_id":"levelo_inurba_marseille","lat":43.29188,"lon":5.35813,"is_reserved":false,"is_disabled":false,"rental_uris":{"android":"levelo://app?vid=9903dfc1-17e3-43ac-8060-6811fe0c4142","ios":"levelo://app?vid=9903dfc1-17e3-43ac-8060-6811fe0c4142"},"vehicle_type_id":"4","last_reported":1735697884,"current_range_meters":28400,"station_id":"ce4bhb12rcd13ifvqel0","pricing_plan_id":"cebpf4jnsgd1na2vs0mg"},{"bike_id":"00138e32-e492-49ec-8baf-715fb2b9afd1","system_id":"levelo_inurba_marseille","lat":43.27379,"lon":5.36239,"is_reserved":false,"is_disabled":false,"rental_uris":{"android":"levelo://app?vid=00138e32-e492-49ec-8baf-715fb2b9afd1","ios":"levelo://app?vid=00138e32-e492-49ec-8baf-715fb2b9afd1"},"vehicle_type_id":"4","last_reported":1735697884,"current_range_meters":18800,"station_id":"ce4bhbh2rcd13ifvqeo0","pricing_plan_id":"cebpf4jnsgd1na2vs0mg"},{"bike_id":"24a97afc-4e34-4776-bd40-821b29958ac8","system_id":"levelo_inurba_marseille","lat":43.29301,"lon":5.37462,"is_reserved":false,"is_disabled":false,"rental_uris":{"android":"levelo://app?vid=24a97afc-4e34-4776-bd40-821b29958ac8","ios":"levelo://app?vid=24a97afc-4e34-4776-bd40-821b29958ac8"},"vehicle_type_id":"4","last_reported":1735697884,"current_range_meters":30400,"station_id":"ce4bgi12rcd13ifvqb70","pricing_plan_id":"cebpf4jnsgd1na2vs0mg"},{"bike_id":"5c0b8e2d-3798-47d3-8d52-adaafc71dcda","system_id":"levelo_inurba_marseille","lat":43.26698,"lon":5.38267,"is_reserved":false,"is_disabled":false,"rental_uris":{"android":"levelo://app?vid=5c0b8e2d-3798-47d3-8d52-adaafc71dcda","ios":"levelo://app?vid=5c0b8e2d-3798-47d3-8d52-adaafc71dcda"},"vehicle_type_id":"4","last_reported":1735697884,"current_range_meters":29600,"station_id":"ce4bhg92rcd13ifvqf90","pricing_plan_id":"cebpf4jnsgd1na2vs0mg"},{"bike_id":"e7f232e6-9751-45f4-a24f-005b95d10947","system_id":"levelo_inurba_marseille","lat":43.296129,"lon":5.376794,"is_reserved":false,"is_disabled":true,"rental_uris":{"android":"levelo://app?vid=e7f232e6-9751-45f4-a24f-005b95d10947","ios":"levelo://app?vid=e7f232e6-9751-45f4-a24f-005b95d10947"},"vehicle_type_id":"4","last_reported":1735697884,"current_range_meters":800,"station_id":"ce4bgi92rcd13ifvqb90","pricing_plan_id":"cebpf4jnsgd1na2vs0mg"},{"bike_id":"b8d2b4df-e756-4052-ae5f-6c435a118c99","system_id":"levelo_inurba_marseille","lat":43.33502,"lon":5.36101,"is_reserved":false,"is_disabled":false,"rental_uris":{"android":"levelo://app?vid=b8d2b4df-e756-4052-ae5f-6c435a118c99","ios":"levelo://app?vid=b8d2b4df-e756-4052-ae5f-6c435a118c99"},"vehicle_type_id":"4","last_reported":1735697884,"current_range_meters":3600,"station_id":"","pricing_plan_id":"cebpf4jnsgd1na2vs0mg"},{"bike_id":"fcc654c9-6ac2-491c-9f15-83351aa2a5be","system_id":"levelo_inurba_marseille","lat":43.2793,"lon":5.41072,"is_reserved":false,"is_disabled":false,"rental_uris":{"android":"levelo://app?vid=fcc654c9-6ac2-491c-9f15-83351aa2a5be","ios":"levelo://app?vid=fcc654c9-6ac2-491c-9f15-83351aa2a5be"},"vehicle_type_id":"4","last_reported":1735697884,"current_range_meters":28400,"station_id":"ce4bhnp2rcd13ifvqh0g","pricing_plan_id":"cebpf4jnsgd1na2vs0mg"},{"bike_id":"2241734e-29b7-4c37-ae32-2588a0ac3a7c","system_id":"levelo_inurba_marseille","lat":43.32476,"lon":5.36542,"is_reserved":false,"is_disabled":false,"rental_uris":{"android":"levelo://app?vid=2241734e-29b7-4c37-ae32-2588a0ac3a7c","ios":"levelo://app?vid=2241734e-29b7-4c37-ae32-2588a0ac3a7c"},"vehicle_type_id":"4","last_reported":1735697884,"current_range_meters":38800,"station_id":"ce4bhs12rcd13ifvqhvg","pricing_plan_id":"cebpf4jnsgd1na2vs0mg"},{"bike_id":"fbf0a5e4-8cad-4a92-ae3b-23473d649101","system_id":"levelo_inurba_marseille","lat":43.25578,"lon":5.38233,"is_reserved":false,"is_disabled":false,"rental_uris":{"android":"levelo://app?vid=fbf0a5e4-8cad-4a92-ae3b-23473d649101","ios":"levelo://app?vid=fbf0a5e4-8cad-4a92-ae3b-23473d649101"},"vehicle_type_id":"4","last_reported":1735697884,"current_range_meters":38800,"station_id":"ce4bhih2rcd13ifvqfs0","pricing_plan_id":"cebpf4jnsgd1na2vs0mg"},{"bike_id":"a04e4a66-ed1b-4040-83be-7003314592ab","system_id":"levelo_inurba_marseille","lat":43.24645,"lon":5.38899,"is_reserved":false,"is_disabled":false,"rental_uris":{"android":"levelo://app?vid=a04e4a66-ed1b-4040-83be-7003314592ab","ios":"levelo://app?vid=a04e4a66-ed1b-4040-83be-7003314592ab"},"vehicle_type_id":"4","last_reported":1735697884,"current_range_meters":30400,"station_id":"ce4bhg12rcd13ifvqf60","pricing_plan_id":"cebpf4jnsgd1na2vs0mg"},{"bike_id":"ecedc4f6-aeca-4b54-add7-057737c1c28c","system_id":"levelo_inurba_marseille","lat":43.29293,"lon":5.37452,"is_reserved":false,"is_disabled":true,"rental_uris":{"android":"levelo://app?vid=ecedc4f6-aeca-4b54-add7-057737c1c28c","ios":"levelo://app?vid=ecedc4f6-aeca-4b54-add7-057737c1c28c"},"vehicle_type_id":"4","last_reported":1735697884,"current_range_meters":37600,"station_id":"ce4bgi12rcd13ifvqb70","pricing_plan_id":"cebpf4jnsgd1na2vs0mg"},{"bike_id":"fbe8e10d-9efb-45e6-b150-3fec79e10f1d","system_id":"levelo_inurba_marseille","lat":43.31361,"lon":5.38488,"is_reserved":false,"is_disabled":false,"rental_uris":{"android":"levelo://app?vid=fbe8e10d-9efb-45e6-b150-3fec79e10f1d","ios":"levelo://app?vid=fbe8e10d-9efb-45e6-b150-3fec79e10f1d"},"vehicle_type_id":"4","last_reported":1735697884,"current_range_meters":39200,"station_id":"ce4bgt92rcd13ifvqcf0","pricing_plan_id":"cebpf4jnsgd1na2vs0mg"},{"bike_id":"e157af35-862f-4ff3-a971-0cec14143385","system_id":"levelo_inurba_marseille","lat":43.2795,"lon":5.41022,"is_reserved":false,"is_disabled":false,"rental_uris":{"android":"levelo://app?vid=e157af35-862f-4ff3-a971-0cec14143385","ios":"levelo://app?vid=e157af35-862f-4ff3-a971-0cec14143385"},"vehicle_type_id":"4","last_reported":1735697884,"current_range_meters":34800,"station_id":"ce4bhnp2rcd13ifvqh0g","pricing_plan_id":"cebpf4jnsgd1na2vs0mg"},{"bike_id":"5c2de9bd-86ba-44d1-aad3-0f54961df2b8","system_id":"levelo_inurba_marseille","lat":43.26834,"lon":5.4024,"is_reserved":false,"is_disabled":false,"rental_uris":{"android":"levelo://app?vid=5c2de9bd-86ba-44d1-aad3-0f54961df2b8","ios":"levelo://app?vid=5c2de9bd-86ba-44d1-aad3-0f54961df2b8"},"vehicle_type_id":"4","last_reported":1735697884,"current_range_meters":8000,"station_id":"ce501612rcd8frsf0b60","pricing_plan_id":"cebpf4jnsgd1na2vs0mg"},{"bike_id":"f5997a88-606e-48c9-933e-041b10894cea","system_id":"levelo_inurba_marseille","lat":43.27076,"lon":5.42268,"is_reserved":false,"is_disabled":false,"rental_uris":{"android":"levelo://app?vid=f5997a88-606e-48c9-933e-041b10894cea","ios":"levelo://app?vid=f5997a88-606e-48c9-933e-041b10894cea"},"vehicle_type_id":"4","last_reported":1735697884,"current_range_meters":20800,"station_id":"ce4bhk92rcd13ifvqgb0","pricing_plan_id":"cebpf4jnsgd1na2vs0mg"},{"bike_id":"be27c087-8760-4b20-a1b5-d6adf1caa60d","system_id":"levelo_inurba_marseille","lat":43.28021,"lon":5.36944,"is_reserved":false,"is_disabled":false,"rental_uris":{"android":"levelo://app?vid=be27c087-8760-4b20-a1b5-d6adf1caa60d","ios":"levelo://app?vid=be27c087-8760-4b20-a1b5-d6adf1caa60d"},"vehicle_type_id":"4","last_reported":1735697884,"current_range_meters":5600,"station_id":"ce4bha12rcd13ifvqef0","pricing_plan_id":"cebpf4jnsgd1na2vs0mg"},{"bike_id":"b2efc2c9-4c50-4ae0-9f7a-2ebbe60214c1","system_id":"levelo_inurba_marseille","lat":43.25118,"lon":5.40331,"is_reserved":false,"is_disabled":false,"rental_uris":{"android":"levelo://app?vid=b2efc2c9-4c50-4ae0-9f7a-2ebbe60214c1","ios":"levelo://app?vid=b2efc2c9-4c50-4ae0-9f7a-2ebbe60214c1"},"vehicle_type_id":"4","last_reported":1735697884,"current_range_meters":9200,"station_id":"ce4bhlh2rcd13ifvqgig","pricing_plan_id":"cebpf4jnsgd1na2vs0mg"},{"bike_id":"236b3030-26dc-4d31-a5ec-3e724cdce4e6","system_id":"levelo_inurba_marseille","lat":43.30894,"lon":5.39633,"is_reserved":false,"is_disabled":false,"rental_uris":{"android":"levelo://app?vid=236b3030-26dc-4d31-a5ec-3e724cdce4e6","ios":"levelo://app?vid=236b3030-26dc-4d31-a5ec-3e724cdce4e6"},"vehicle_type_id":"4","last_reported":1735697884,"current_range_meters":38800,"station_id":"ce4bh012rcd13ifvqcv0","pricing_plan_id":"cebpf4jnsgd1na2vs0mg"},{"bike_id":"feaee7f2-ad2c-4d64-9a6d-551b5c8ebcd4","system_id":"levelo_inurba_marseille","lat":43.3169,"lon":5.37696,"is_reserved":false,"is_disabled":false,"rental_uris":{"android":"levelo://app?vid=feaee7f2-ad2c-4d64-9a6d-551b5c8ebcd4","ios":"levelo://app?vid=feaee7f2-ad2c-4d64-9a6d-551b5c8ebcd4"},"vehicle_type_id":"4","last_reported":1735697884,"current_range_meters":10800,"station_id":"ce4bgth2rcd13ifvqch0","pricing_plan_id":"cebpf4jnsgd1na2vs0mg"},{"bike_id":"4ae90592-e920-400e-8a25-b327a1d3d78f","system_id":"levelo_inurba_marseille","lat":43.246573,"lon":5.381667,"is_reserved":false,"is_disabled":false,"rental_uris":{"android":"levelo://app?vid=4ae90592-e920-400e-8a25-b327a1d3d78f","ios":"levelo://app?vid=4ae90592-e920-400e-8a25-b327a1d3d78f"},"vehicle_type_id":"4","last_reported":1735697884,"current_range_meters":7200,"station_id":"ce4bhih2rcd13ifvqfr0","pricing_plan_id":"cebpf4jnsgd1na2vs0mg"},{"bike_id":"9724279d-bae3-49c0-8e3e-92ff9c0438be","system_id":"levelo_inurba_marseille","lat":43.28413,"lon":5.37525,"is_reserved":false,"is_disabled":false,"rental_uris":{"android":"levelo://app?vid=9724279d-bae3-49c0-8e3e-92ff9c0438be","ios":"levelo://app?vid=9724279d-bae3-49c0-8e3e-92ff9c0438be"},"vehicle_type_id":"4","last_reported":1735697884,"current_range_meters":34000,"station_id":"ce4bh412rcd13ifvqds0","pricing_plan_id":"cebpf4jnsgd1na2vs0mg"},{"bike_id":"2fc8e17d-9495-4922-8d89-7dea2e5ea943","system_id":"levelo_inurba_marseille","lat":43.27052,"lon":5.40271,"is_reserved":false,"is_disabled":false,"rental_uris":{"android":"levelo://app?vid=2fc8e17d-9495-4922-8d89-7dea2e5ea943","ios":"levelo://app?vid=2fc8e17d-9495-4922-8d89-7dea2e5ea943"},"vehicle_type_id":"4","last_reported":1735697884,"current_range_meters":9200,"station_id":"ce4bhk92rcd13ifvqgc0","pricing_plan_id":"cebpf4jnsgd1na2vs0mg"},{"bike_id":"eaf838b7-144d-4291-9d25-0dcea3a4b36c","system_id":"levelo_inurba_marseille","lat":43.31105,"lon":5.37767,"is_reserved":false,"is_disabled":false,"rental_uris":{"android":"levelo://app?vid=eaf838b7-144d-4291-9d25-0dcea3a4b36c","ios":"levelo://app?vid=eaf838b7-144d-4291-9d25-0dcea3a4b36c"},"vehicle_type_id":"4","last_reported":1735697884,"current_range_meters":26000,"station_id":"ce4bgt92rcd13ifvqcg0","pricing_plan_id":"cebpf4jnsgd1na2vs0mg"},{"bike_id":"84ff672c-254b-42d1-ad81-4f7d674dca47","system_id":"levelo_inurba_marseille","lat":43.24387,"lon":5.37054,"is_reserved":false,"is_disabled":false,"rental_uris":{"android":"levelo://app?vid=84ff672c-254b-42d1-ad81-4f7d674dca47","ios":"levelo://app?vid=84ff672c-254b-42d1-ad81-4f7d674dca47"},"vehicle_type_id":"4","last_reported":1735697884,"current_range_meters":35600,"station_id":"ce4bhhh2rcd13ifvqfk0","pricing_plan_id":"cebpf4jnsgd1na2vs0mg"},{"bike_id":"d42bc978-4b09-4a1a-a3f8-f73483d2bd7b","system_id":"levelo_inurba_marseille","lat":43.324785,"lon":5.36579,"is_reserved":false,"is_disabled":false,"rental_uris":{"android":"levelo://app?vid=d42bc978-4b09-4a1a-a3f8-f73483d2bd7b","ios":"levelo://app?vid=d42bc978-4b09-4a1a-a3f8-f73483d2bd7b"},"vehicle_type_id":"4","last_reported":1735697884,"current_range_meters":24000,"station_id":"ce4bhs12rcd13ifvqhvg","pricing_plan_id":"cebpf4jnsgd1na2vs0mg"},{"bike_id":"b12724c5-0cf6-4da0-8363-97e679d3a5cd","system_id":"levelo_inurba_marseille","lat":43.30885,"lon":5.37206,"is_reserved":false,"is_disabled":false,"rental_uris":{"android":"levelo://app?vid=b12724c5-0cf6-4da0-8363-97e679d3a5cd","ios":"levelo://app?vid=b12724c5-0cf6-4da0-8363-97e679d3a5cd"},"vehicle_type_id":"4","last_reported":1735697884,"current_range_meters":17600,"station_id":"ce4bguh2rcd13ifvqckg","pricing_plan_id":"cebpf4jnsgd1na2vs0mg"},{"bike_id":"913e749c-a796-4014-89da-7e2bdd46267c","system_id":"levelo_inurba_marseille","lat":43.32117,"lon":5.36766,"is_reserved":false,"is_disabled":false,"rental_uris":{"android":"levelo://app?vid=913e749c-a796-4014-89da-7e2bdd46267c","ios":"levelo://app?vid=913e749c-a796-4014-89da-7e2bdd46267c"},"vehicle_type_id":"4","last_reported":1735697884,"current_range_meters":30800,"station_id":"ce4bhrh2rcd13ifvqhug","pricing_plan_id":"cebpf4jnsgd1na2vs0mg"},{"bike_id":"ebbdb52f-ebba-4684-b557-d63f96169510","system_id":"levelo_inurba_marseille","lat":43.34147,"lon":5.40905,"is_reserved":false,"is_disabled":false,"rental_uris":{"android":"levelo://app?vid=ebbdb52f-ebba-4684-b557-d63f96169510","ios":"levelo://app?vid=ebbdb52f-ebba-4684-b557-d63f96169510"},"vehicle_type_id":"4","last_reported":1735697884,"current_range_meters":35200,"station_id":"ce4bhqh2rcd13ifvqhlg","pricing_plan_id":"cebpf4jnsgd1na2vs0mg"},{"bike_id":"fa129de5-e2a9-467c-ba6a-ea5de2069376","system_id":"levelo_inurba_marseille","lat":43.30411,"lon":5.39771,"is_reserved":false,"is_disabled":false,"rental_uris":{"android":"levelo://app?vid=fa129de5-e2a9-467c-ba6a-ea5de2069376","ios":"levelo://app?vid=fa129de5-e2a9-467c-ba6a-ea5de2069376"},"vehicle_type_id":"4","last_reported":1735697884,"current_range_meters":24400,"station_id":"ce4bh092rcd13ifvqd20","pricing_plan_id":"cebpf4jnsgd1na2vs0mg"},{"bike_id":"b6d52129-1c6f-42d4-970a-9e8c09f9dfe2","system_id":"levelo_inurba_marseille","lat":43.29805,"lon":5.40408,"is_reserved":false,"is_disabled":false,"rental_uris":{"android":"levelo://app?vid=b6d52129-1c6f-42d4-970a-9e8c09f9dfe2","ios":"levelo://app?vid=b6d52129-1c6f-42d4-970a-9e8c09f9dfe2"},"vehicle_type_id":"4","last_reported":1735697884,"current_range_meters":37600,"station_id":"ce4bh112rcd13ifvqd90","pricing_plan_id":"cebpf4jnsgd1na2vs0mg"},{"bike_id":"94e6dee2-3159-449e-9ee5-297188ebe26e","system_id":"levelo_inurba_marseille","lat":43.29912,"lon":5.37453,"is_reserved":false,"is_disabled":false,"rental_uris":{"android":"levelo://app?vid=94e6dee2-3159-449e-9ee5-297188ebe26e","ios":"levelo://app?vid=94e6dee2-3159-449e-9ee5-297188ebe26e"},"vehicle_type_id":"4","last_reported":1735697884,"current_range_meters":24000,"station_id":"ce4bgjh2rcd13ifvqbg0","pricing_plan_id":"cebpf4jnsgd1na2vs0mg"},{"bike_id":"abbfded5-56c2-44f5-8004-1e2a51b9d0ff","system_id":"levelo_inurba_marseille","lat":43.2815,"lon":5.4264,"is_reserved":false,"is_disabled":false,"rental_uris":{"android":"levelo://app?vid=abbfded5-56c2-44f5-8004-1e2a51b9d0ff","ios":"levelo://app?vid=abbfded5-56c2-44f5-8004-1e2a51b9d0ff"},"vehicle_type_id":"4","last_reported":1735697884,"current_range_meters":25600,"station_id":"ce4bhnh2rcd13ifvqgug","pricing_plan_id":"cebpf4jnsgd1na2vs0mg"},{"bike_id":"7c1efbd9-d379-4d3b-8e7d-fe42a912e0a1","system_id":"levelo_inurba_marseille","lat":43.29889,"lon":5.38885,"is_reserved":false,"is_disabled":false,"rental_uris":{"android":"levelo://app?vid=7c1efbd9-d379-4d3b-8e7d-fe42a912e0a1","ios":"levelo://app?vid=7c1efbd9-d379-4d3b-8e7d-fe42a912e0a1"},"vehicle_type_id":"4","last_reported":1735697884,"current_range_meters":24400,"station_id":"ce4bh392rcd13ifvqdl0","pricing_plan_id":"cebpf4jnsgd1na2vs0mg"},{"bike_id":"8cbc8b99-428c-4040-b86c-4e2c4fffea65","system_id":"levelo_inurba_marseille","lat":43.3379,"lon":5.3744,"is_reserved":false,"is_disabled":true,"rental_uris":{"android":"levelo://app?vid=8cbc8b99-428c-4040-b86c-4e2c4fffea65","ios":"levelo://app?vid=8cbc8b99-428c-4040-b86c-4e2c4fffea65"},"vehicle_type_id":"4","last_reported":1735697884,"current_range_meters":38000,"station_id":"","pricing_plan_id":"cebpf4jnsgd1na2vs0mg"},{"bike_id":"5098145a-de12-4723-8eeb-fdf1b4e4e884","system_id":"levelo_inurba_marseille","lat":43.28939,"lon":5.38374,"is_reserved":false,"is_disabled":false,"rental_uris":{"android":"levelo://app?vid=5098145a-de12-4723-8eeb-fdf1b4e4e884","ios":"levelo://app?vid=5098145a-de12-4723-8eeb-fdf1b4e4e884"},"vehicle_type_id":"4","last_reported":1735697884,"current_range_meters":39200,"station_id":"ce4bh612rcd13ifvqe6g","pricing_plan_id":"cebpf4jnsgd1na2vs0mg"},{"bike_id":"7cc7d65a-b957-4c8c-84a5-f9d97edb0047","system_id":"levelo_inurba_marseille","lat":43.302996,"lon":5.39197,"is_reserved":false,"is_disabled":true,"rental_uris":{"android":"levelo://app?vid=7cc7d65a-b957-4c8c-84a5-f9d97edb0047","ios":"levelo://app?vid=7cc7d65a-b957-4c8c-84a5-f9d97edb0047"},"vehicle_type_id":"4","last_reported":1735697884,"current_range_meters":35600,"station_id":"ce4bgkh2rcd13ifvqbk0","pricing_plan_id":"cebpf4jnsgd1na2vs0mg"},{"bike_id":"d1a68604-74b2-47e6-bcb0-5793a8d91ab0","system_id":"levelo_inurba_marseille","lat":43.31999,"lon":5.38168,"is_reserved":false,"is_disabled":false,"rental_uris":{"android":"levelo://app?vid=d1a68604-74b2-47e6-bcb0-5793a8d91ab0","ios":"levelo://app?vid=d1a68604-74b2-47e6-bcb0-5793a8d91ab0"},"vehicle_type_id":"4","last_reported":1735697884,"current_range_meters":36000,"station_id":"ce4bhr12rcd13ifvqhpg","pricing_plan_id":"cebpf4jnsgd1na2vs0mg"},{"bike_id":"62af83b8-0bcb-4a53-9c44-e8ad4810fed3","system_id":"levelo_inurba_marseille","lat":43.26494,"lon":5.39547,"is_reserved":false,"is_disabled":false,"rental_uris":{"android":"levelo://app?vid=62af83b8-0bcb-4a53-9c44-e8ad4810fed3","ios":"levelo://app?vid=62af83b8-0bcb-4a53-9c44-e8ad4810fed3"},"vehicle_type_id":"4","last_reported":1735697884,"current_range_meters":26800,"station_id":"ce4bhi12rcd13ifvqfq0","pricing_plan_id":"cebpf4jnsgd1na2vs0mg"},{"bike_id":"cfd9b0aa-0985-41bd-a744-766658df9439","system_id":"levelo_inurba_marseille","lat":43.29832,"lon":5.37696,"is_reserved":false,"is_disabled":true,"rental_uris":{"android":"levelo://app?vid=cfd9b0aa-0985-41bd-a744-766658df9439","ios":"levelo://app?vid=cfd9b0aa-0985-41bd-a744-766658df9439"},"vehicle_type_id":"4","last_reported":1735697884,"current_range_meters":0,"station_id":"","pricing_plan_id":"cebpf4jnsgd1na2vs0mg"},{"bike_id":"241064ff-27c5-4706-9532-739a8faf7045","system_id":"levelo_inurba_marseille","lat":43.31704,"lon":5.40461,"is_reserved":false,"is_disabled":false,"rental_uris":{"android":"levelo://app?vid=241064ff-27c5-4706-9532-739a8faf7045","ios":"levelo://app?vid=241064ff-27c5-4706-9532-739a8faf7045"},"vehicle_type_id":"4","last_reported":1735697884,"current_range_meters":4800,"station_id":"ce4bh012rcd13ifvqd00","pricing_plan_id":"cebpf4jnsgd1na2vs0mg"},{"bike_id":"d83b19dd-223a-44bd-a670-00c9c897bb1d","system_id":"levelo_inurba_marseille","lat":43.310773,"lon":5.383487,"is_reserved":false,"is_disabled":false,"rental_uris":{"android":"levelo://app?vid=d83b19dd-223a-44bd-a670-00c9c897bb1d","ios":"levelo://app?vid=d83b19dd-223a-44bd-a670-00c9c897bb1d"},"vehicle_type_id":"4","last_reported":1735697884,"current_range_meters":4000,"station_id":"ce4bgv92rcd13ifvqcr0","pricing_plan_id":"cebpf4jnsgd1na2vs0mg"},{"bike_id":"b1815487-383e-42be-8a0b-8b8db0c2ceef","system_id":"levelo_inurba_marseille","lat":43.323,"lon":5.38265,"is_reserved":false,"is_disabled":false,"rental_uris":{"android":"levelo://app?vid=b1815487-383e-42be-8a0b-8b8db0c2ceef","ios":"levelo://app?vid=b1815487-383e-42be-8a0b-8b8db0c2ceef"},"vehicle_type_id":"4","last_reported":1735697884,"current_range_meters":38800,"station_id":"ce4bhr12rcd13ifvqhqg","pricing_plan_id":"cebpf4jnsgd1na2vs0mg"},{"bike_id":"2f71d5d0-4248-4fd8-90b9-7615dc7e3077","system_id":"levelo_inurba_marseille","lat":43.2512,"lon":5.40319,"is_reserved":false,"is_disabled":false,"rental_uris":{"android":"levelo://app?vid=2f71d5d0-4248-4fd8-90b9-7615dc7e3077","ios":"levelo://app?vid=2f71d5d0-4248-4fd8-90b9-7615dc7e3077"},"vehicle_type_id":"4","last_reported":1735697884,"current_range_meters":39200,"station_id":"ce4bhlh2rcd13ifvqgig","pricing_plan_id":"cebpf4jnsgd1na2vs0mg"},{"bike_id":"f46bd378-e30f-485c-b539-9d29fba578aa","system_id":"levelo_inurba_marseille","lat":43.34143,"lon":5.40904,"is_reserved":false,"is_disabled":false,"rental_uris":{"android":"levelo://app?vid=f46bd378-e30f-485c-b539-9d29fba578aa","ios":"levelo://app?vid=f46bd378-e30f-485c-b539-9d29fba578aa"},"vehicle_type_id":"4","last_reported":1735697884,"current_range_meters":39200,"station_id":"ce4bhqh2rcd13ifvqhlg","pricing_plan_id":"cebpf4jnsgd1na2vs0mg"},{"bike_id":"7ec4d381-79e4-4c43-b132-77d2c6adbb98","system_id":"levelo_inurba_marseille","lat":43.30879,"lon":5.39642,"is_reserved":false,"is_disabled":false,"rental_uris":{"android":"levelo://app?vid=7ec4d381-79e4-4c43-b132-77d2c6adbb98","ios":"levelo://app?vid=7ec4d381-79e4-4c43-b132-77d2c6adbb98"},"vehicle_type_id":"4","last_reported":1735697884,"current_range_meters":38800,"station_id":"ce4bh012rcd13ifvqcv0","pricing_plan_id":"cebpf4jnsgd1na2vs0mg"},{"bike_id":"df334d50-4421-42a5-a762-fb7f39807cc1","system_id":"levelo_inurba_marseille","lat":43.337444,"lon":5.374475,"is_reserved":false,"is_disabled":false,"rental_uris":{"android":"levelo://app?vid=df334d50-4421-42a5-a762-fb7f39807cc1","ios":"levelo://app?vid=df334d50-4421-42a5-a762-fb7f39807cc1"},"vehicle_type_id":"4","last_reported":1735697884,"current_range_meters":36800,"station_id":"","pricing_plan_id":"cebpf4jnsgd1na2vs0mg"},{"bike_id":"b1ba8e46-6352-4028-bfeb-07e690b71bc4","system_id":"levelo_inurba_marseille","lat":43.31686,"lon":5.40471,"is_reserved":false,"is_disabled":false,"rental_uris":{"android":"levelo://app?vid=b1ba8e46-6352-4028-bfeb-07e690b71bc4","ios":"levelo://app?vid=b1ba8e46-6352-4028-bfeb-07e690b71bc4"},"vehicle_type_id":"4","last_reported":1735697884,"current_range_meters":38800,"station_id":"ce4bh012rcd13ifvqd00","pricing_plan_id":"cebpf4jnsgd1na2vs0mg"},{"bike_id":"35d7b981-f2f8-4e1f-bf58-6f3547d4e1f6","system_id":"levelo_inurba_marseille","lat":43.3031,"lon":5.36897,"is_reserved":false,"is_disabled":true,"rental_uris":{"android":"levelo://app?vid=35d7b981-f2f8-4e1f-bf58-6f3547d4e1f6","ios":"levelo://app?vid=35d7b981-f2f8-4e1f-bf58-6f3547d4e1f6"},"vehicle_type_id":"4","last_reported":1735697884,"current_range_meters":25200,"station_id":"ce4bgqh2rcd13ifvqc5g","pricing_plan_id":"cebpf4jnsgd1na2vs0mg"},{"bike_id":"01e3daf2-3dc3-42f0-a716-39b38bbee6f9","system_id":"levelo_inurba_marseille","lat":43.28703,"lon":5.3998,"is_reserved":false,"is_disabled":false,"rental_uris":{"android":"levelo://app?vid=01e3daf2-3dc3-42f0-a716-39b38bbee6f9","ios":"levelo://app?vid=01e3daf2-3dc3-42f0-a716-39b38bbee6f9"},"vehicle_type_id":"4","last_reported":1735697884,"current_range_meters":27200,"station_id":"ce4bho92rcd13ifvqh3g","pricing_plan_id":"cebpf4jnsgd1na2vs0mg"},{"bike_id":"847e09aa-0198-46d1-b907-778eecf50dd1","system_id":"levelo_inurba_marseille","lat":43.31191,"lon":5.36846,"is_reserved":false,"is_disabled":true,"rental_uris":{"android":"levelo://app?vid=847e09aa-0198-46d1-b907-778eecf50dd1","ios":"levelo://app?vid=847e09aa-0198-46d1-b907-778eecf50dd1"},"vehicle_type_id":"4","last_reported":1735697884,"current_range_meters":39200,"station_id":"ce4bgl92rcd13ifvqbq0","pricing_plan_id":"cebpf4jnsgd1na2vs0mg"},{"bike_id":"3aa51206-8b92-4b3a-aad7-f75e713670db","system_id":"levelo_inurba_marseille","lat":43.29091,"lon":5.38147,"is_reserved":false,"is_disabled":false,"rental_uris":{"android":"levelo://app?vid=3aa51206-8b92-4b3a-aad7-f75e713670db","ios":"levelo://app?vid=3aa51206-8b92-4b3a-aad7-f75e713670db"},"vehicle_type_id":"4","last_reported":1735697884,"current_range_meters":26800,"station_id":"ce4bh512rcd13ifvqe2g","pricing_plan_id":"cebpf4jnsgd1na2vs0mg"},{"bike_id":"5367a292-5564-4681-91cd-97babb89fc00","system_id":"levelo_inurba_marseille","lat":43.2293,"lon":5.35399,"is_reserved":false,"is_disabled":false,"rental_uris":{"android":"levelo://app?vid=5367a292-5564-4681-91cd-97babb89fc00","ios":"levelo://app?vid=5367a292-5564-4681-91cd-97babb89fc00"},"vehicle_type_id":"4","last_reported":1735697884,"current_range_meters":25200,"station_id":"cpo3532slgdg3j2ikp40","pricing_plan_id":"cebpf4jnsgd1na2vs0mg"},{"bike_id":"1d5543c4-1c87-4447-ad2e-0cc64903ea75","system_id":"levelo_inurba_marseille","lat":43.2587,"lon":5.39898,"is_reserved":false,"is_disabled":false,"rental_uris":{"android":"levelo://app?vid=1d5543c4-1c87-4447-ad2e-0cc64903ea75","ios":"levelo://app?vid=1d5543c4-1c87-4447-ad2e-0cc64903ea75"},"vehicle_type_id":"4","last_reported":1735697884,"current_range_meters":39200,"station_id":"ce4bhl92rcd13ifvqghg","pricing_plan_id":"cebpf4jnsgd1na2vs0mg"},{"bike_id":"0483d5a5-12c2-4b90-8e6c-47d6d5a4b82c","system_id":"levelo_inurba_marseille","lat":43.25824,"lon":5.39437,"is_reserved":false,"is_disabled":false,"rental_uris":{"android":"levelo://app?vid=0483d5a5-12c2-4b90-8e6c-47d6d5a4b82c","ios":"levelo://app?vid=0483d5a5-12c2-4b90-8e6c-47d6d5a4b82c"},"vehicle_type_id":"4","last_reported":1735697884,"current_range_meters":39200,"station_id":"ce4bhip2rcd13ifvqft0","pricing_plan_id":"cebpf4jnsgd1na2vs0mg"},{"bike_id":"523f53b8-d5fa-4c60-a25e-8902b398e89d","system_id":"levelo_inurba_marseille","lat":43.29574,"lon":5.42277,"is_reserved":false,"is_disabled":false,"rental_uris":{"android":"levelo://app?vid=523f53b8-d5fa-4c60-a25e-8902b398e89d","ios":"levelo://app?vid=523f53b8-d5fa-4c60-a25e-8902b398e89d"},"vehicle_type_id":"4","last_reported":1735697884,"current_range_meters":38800,"station_id":"ce4bhph2rcd13ifvqhdg","pricing_plan_id":"cebpf4jnsgd1na2vs0mg"},{"bike_id":"90ea32f2-8b16-412b-9028-e97b2dd7bfd3","system_id":"levelo_inurba_marseille","lat":43.31702,"lon":5.40465,"is_reserved":false,"is_disabled":false,"rental_uris":{"android":"levelo://app?vid=90ea32f2-8b16-412b-9028-e97b2dd7bfd3","ios":"levelo://app?vid=90ea32f2-8b16-412b-9028-e97b2dd7bfd3"},"vehicle_type_id":"4","last_reported":1735697884,"current_range_meters":38800,"station_id":"ce4bh012rcd13ifvqd00","pricing_plan_id":"cebpf4jnsgd1na2vs0mg"},{"bike_id":"6efc50cc-4611-4d8e-9840-7d4365485eb6","system_id":"levelo_inurba_marseille","lat":43.30817,"lon":5.3818,"is_reserved":false,"is_disabled":false,"rental_uris":{"android":"levelo://app?vid=6efc50cc-4611-4d8e-9840-7d4365485eb6","ios":"levelo://app?vid=6efc50cc-4611-4d8e-9840-7d4365485eb6"},"vehicle_type_id":"4","last_reported":1735697884,"current_range_meters":4800,"station_id":"ce4bgt12rcd13ifvqce0","pricing_plan_id":"cebpf4jnsgd1na2vs0mg"},{"bike_id":"1fcef3a5-fab4-4d5d-b761-a73434e66415","system_id":"levelo_inurba_marseille","lat":43.28928,"lon":5.36395,"is_reserved":false,"is_disabled":false,"rental_uris":{"android":"levelo://app?vid=1fcef3a5-fab4-4d5d-b761-a73434e66415","ios":"levelo://app?vid=1fcef3a5-fab4-4d5d-b761-a73434e66415"},"vehicle_type_id":"4","last_reported":1735697884,"current_range_meters":38800,"station_id":"ce4bhc92rcd13ifvqetg","pricing_plan_id":"cebpf4jnsgd1na2vs0mg"},{"bike_id":"fd43e90a-0d3f-4c01-9e7a-84edd9379a72","system_id":"levelo_inurba_marseille","lat":43.26557,"lon":5.39043,"is_reserved":false,"is_disabled":false,"rental_uris":{"android":"levelo://app?vid=fd43e90a-0d3f-4c01-9e7a-84edd9379a72","ios":"levelo://app?vid=fd43e90a-0d3f-4c01-9e7a-84edd9379a72"},"vehicle_type_id":"4","last_reported":1735697884,"current_range_meters":17200,"station_id":"ce4bhe12rcd13ifvqf30","pricing_plan_id":"cebpf4jnsgd1na2vs0mg"},{"bike_id":"6164fd70-bd1e-4bfa-b09a-6196d7e0229b","system_id":"levelo_inurba_marseille","lat":43.24376,"lon":5.37052,"is_reserved":false,"is_disabled":false,"rental_uris":{"android":"levelo://app?vid=6164fd70-bd1e-4bfa-b09a-6196d7e0229b","ios":"levelo://app?vid=6164fd70-bd1e-4bfa-b09a-6196d7e0229b"},"vehicle_type_id":"4","last_reported":1735697884,"current_range_meters":39200,"station_id":"ce4bhhh2rcd13ifvqfk0","pricing_plan_id":"cebpf4jnsgd1na2vs0mg"},{"bike_id":"63867230-2338-42eb-96b6-b18727d6caa4","system_id":"levelo_inurba_marseille","lat":43.29277,"lon":5.40122,"is_reserved":false,"is_disabled":false,"rental_uris":{"android":"levelo://app?vid=63867230-2338-42eb-96b6-b18727d6caa4","ios":"levelo://app?vid=63867230-2338-42eb-96b6-b18727d6caa4"},"vehicle_type_id":"4","last_reported":1735697884,"current_range_meters":36400,"station_id":"ce4bh312rcd13ifvqdk0","pricing_plan_id":"cebpf4jnsgd1na2vs0mg"},{"bike_id":"5600542f-1491-4294-bd76-258204cc22be","system_id":"levelo_inurba_marseille","lat":43.28342,"lon":5.38099,"is_reserved":false,"is_disabled":false,"rental_uris":{"android":"levelo://app?vid=5600542f-1491-4294-bd76-258204cc22be","ios":"levelo://app?vid=5600542f-1491-4294-bd76-258204cc22be"},"vehicle_type_id":"4","last_reported":1735697884,"current_range_meters":33600,"station_id":"ce4bh412rcd13ifvqdr0","pricing_plan_id":"cebpf4jnsgd1na2vs0mg"},{"bike_id":"f2415c22-2773-470e-860e-7ecf74630163","system_id":"levelo_inurba_marseille","lat":43.26485,"lon":5.39548,"is_reserved":false,"is_disabled":false,"rental_uris":{"android":"levelo://app?vid=f2415c22-2773-470e-860e-7ecf74630163","ios":"levelo://app?vid=f2415c22-2773-470e-860e-7ecf74630163"},"vehicle_type_id":"4","last_reported":1735697884,"current_range_meters":38800,"station_id":"ce4bhi12rcd13ifvqfq0","pricing_plan_id":"cebpf4jnsgd1na2vs0mg"},{"bike_id":"abc61994-5314-4d34-8615-1f3a9e17a34e","system_id":"levelo_inurba_marseille","lat":43.31144,"lon":5.37739,"is_reserved":false,"is_disabled":false,"rental_uris":{"android":"levelo://app?vid=abc61994-5314-4d34-8615-1f3a9e17a34e","ios":"levelo://app?vid=abc61994-5314-4d34-8615-1f3a9e17a34e"},"vehicle_type_id":"4","last_reported":1735697884,"current_range_meters":32800,"station_id":"ce4bgt92rcd13ifvqcg0","pricing_plan_id":"cebpf4jnsgd1na2vs0mg"},{"bike_id":"dbabe84f-1e8d-4444-bbd2-f0bdaeff74bc","system_id":"levelo_inurba_marseille","lat":43.30905,"lon":5.36849,"is_reserved":false,"is_disabled":false,"rental_uris":{"android":"levelo://app?vid=dbabe84f-1e8d-4444-bbd2-f0bdaeff74bc","ios":"levelo://app?vid=dbabe84f-1e8d-4444-bbd2-f0bdaeff74bc"},"vehicle_type_id":"4","last_reported":1735697884,"current_range_meters":34000,"station_id":"ce4bgn92rcd13ifvqbvg","pricing_plan_id":"cebpf4jnsgd1na2vs0mg"},{"bike_id":"21cba4ef-9636-4b81-a418-95db6be87b7d","system_id":"levelo_inurba_marseille","lat":43.31122,"lon":5.37759,"is_reserved":false,"is_disabled":false,"rental_uris":{"android":"levelo://app?vid=21cba4ef-9636-4b81-a418-95db6be87b7d","ios":"levelo://app?vid=21cba4ef-9636-4b81-a418-95db6be87b7d"},"vehicle_type_id":"4","last_reported":1735697884,"current_range_meters":37600,"station_id":"ce4bgt92rcd13ifvqcg0","pricing_plan_id":"cebpf4jnsgd1na2vs0mg"},{"bike_id":"bbfc5010-5ad1-478a-9bf0-def17e142c1c","system_id":"levelo_inurba_marseille","lat":43.28037,"lon":5.36943,"is_reserved":false,"is_disabled":true,"rental_uris":{"android":"levelo://app?vid=bbfc5010-5ad1-478a-9bf0-def17e142c1c","ios":"levelo://app?vid=bbfc5010-5ad1-478a-9bf0-def17e142c1c"},"vehicle_type_id":"4","last_reported":1735697884,"current_range_meters":3600,"station_id":"ce4bha12rcd13ifvqef0","pricing_plan_id":"cebpf4jnsgd1na2vs0mg"},{"bike_id":"d837bad5-c681-43b4-803d-4cc8c846b6a7","system_id":"levelo_inurba_marseille","lat":43.30136,"lon":5.39853,"is_reserved":false,"is_disabled":false,"rental_uris":{"android":"levelo://app?vid=d837bad5-c681-43b4-803d-4cc8c846b6a7","ios":"levelo://app?vid=d837bad5-c681-43b4-803d-4cc8c846b6a7"},"vehicle_type_id":"4","last_reported":1735697884,"current_range_meters":10000,"station_id":"ce4bh0h2rcd13ifvqd40","pricing_plan_id":"cebpf4jnsgd1na2vs0mg"},{"bike_id":"f4d31bdd-067d-44f1-8dce-9df56d6287d9","system_id":"levelo_inurba_marseille","lat":43.27898,"lon":5.41004,"is_reserved":false,"is_disabled":false,"rental_uris":{"android":"levelo://app?vid=f4d31bdd-067d-44f1-8dce-9df56d6287d9","ios":"levelo://app?vid=f4d31bdd-067d-44f1-8dce-9df56d6287d9"},"vehicle_type_id":"4","last_reported":1735697884,"current_range_meters":12000,"station_id":"","pricing_plan_id":"cebpf4jnsgd1na2vs0mg"},{"bike_id":"b169488b-c620-4d83-8d57-385b09c0f2c9","system_id":"levelo_inurba_marseille","lat":43.32472,"lon":5.36542,"is_reserved":false,"is_disabled":false,"rental_uris":{"android":"levelo://app?vid=b169488b-c620-4d83-8d57-385b09c0f2c9","ios":"levelo://app?vid=b169488b-c620-4d83-8d57-385b09c0f2c9"},"vehicle_type_id":"4","last_reported":1735697884,"current_range_meters":30400,"station_id":"ce4bhs12rcd13ifvqhvg","pricing_plan_id":"cebpf4jnsgd1na2vs0mg"},{"bike_id":"dac94ecf-3203-4c89-acc0-21c14e979588","system_id":"levelo_inurba_marseille","lat":43.26678,"lon":5.38257,"is_reserved":false,"is_disabled":false,"rental_uris":{"android":"levelo://app?vid=dac94ecf-3203-4c89-acc0-21c14e979588","ios":"levelo://app?vid=dac94ecf-3203-4c89-acc0-21c14e979588"},"vehicle_type_id":"4","last_reported":1735697884,"current_range_meters":11200,"station_id":"ce4bhg92rcd13ifvqf90","pricing_plan_id":"cebpf4jnsgd1na2vs0mg"},{"bike_id":"560a082e-860d-453b-bdd6-7a868105718c","system_id":"levelo_inurba_marseille","lat":43.26814,"lon":5.4028,"is_reserved":false,"is_disabled":false,"rental_uris":{"android":"levelo://app?vid=560a082e-860d-453b-bdd6-7a868105718c","ios":"levelo://app?vid=560a082e-860d-453b-bdd6-7a868105718c"},"vehicle_type_id":"4","last_reported":1735697884,"current_range_meters":38000,"station_id":"ce501612rcd8frsf0b60","pricing_plan_id":"cebpf4jnsgd1na2vs0mg"},{"bike_id":"34c94d6b-e825-45a5-a340-625525b8066e","system_id":"levelo_inurba_marseille","lat":43.32356,"lon":5.38889,"is_reserved":false,"is_disabled":false,"rental_uris":{"android":"levelo://app?vid=34c94d6b-e825-45a5-a340-625525b8066e","ios":"levelo://app?vid=34c94d6b-e825-45a5-a340-625525b8066e"},"vehicle_type_id":"4","last_reported":1735697884,"current_range_meters":20400,"station_id":"ce4bhqp2rcd13ifvqhog","pricing_plan_id":"cebpf4jnsgd1na2vs0mg"},{"bike_id":"9c42c59a-a990-48ee-91ac-32ebebcaabf5","system_id":"levelo_inurba_marseille","lat":43.27582,"lon":5.3841,"is_reserved":false,"is_disabled":false,"rental_uris":{"android":"levelo://app?vid=9c42c59a-a990-48ee-91ac-32ebebcaabf5","ios":"levelo://app?vid=9c42c59a-a990-48ee-91ac-32ebebcaabf5"},"vehicle_type_id":"4","last_reported":1735697884,"current_range_meters":39200,"station_id":"ce4bhh92rcd13ifvqfi0","pricing_plan_id":"cebpf4jnsgd1na2vs0mg"},{"bike_id":"1183fb3d-73ae-4779-a76c-d9eac4c3cf71","system_id":"levelo_inurba_marseille","lat":43.284963,"lon":5.384625,"is_reserved":false,"is_disabled":false,"rental_uris":{"android":"levelo://app?vid=1183fb3d-73ae-4779-a76c-d9eac4c3cf71","ios":"levelo://app?vid=1183fb3d-73ae-4779-a76c-d9eac4c3cf71"},"vehicle_type_id":"4","last_reported":1735697884,"current_range_meters":26800,"station_id":"ce4bh512rcd13ifvqe3g","pricing_plan_id":"cebpf4jnsgd1na2vs0mg"},{"bike_id":"257952b9-e033-4f44-8c86-0cbcf5c46b77","system_id":"levelo_inurba_marseille","lat":43.31119,"lon":5.37755,"is_reserved":false,"is_disabled":false,"rental_uris":{"android":"levelo://app?vid=257952b9-e033-4f44-8c86-0cbcf5c46b77","ios":"levelo://app?vid=257952b9-e033-4f44-8c86-0cbcf5c46b77"},"vehicle_type_id":"4","last_reported":1735697884,"current_range_meters":35600,"station_id":"ce4bgt92rcd13ifvqcg0","pricing_plan_id":"cebpf4jnsgd1na2vs0mg"},{"bike_id":"ce40bef7-4e5e-4e62-8b5b-de2dbbd7bf03","system_id":"levelo_inurba_marseille","lat":43.30597,"lon":5.37233,"is_reserved":false,"is_disabled":false,"rental_uris":{"android":"levelo://app?vid=ce40bef7-4e5e-4e62-8b5b-de2dbbd7bf03","ios":"levelo://app?vid=ce40bef7-4e5e-4e62-8b5b-de2dbbd7bf03"},"vehicle_type_id":"4","last_reported":1735697884,"current_range_meters":28400,"station_id":"ce4bgqh2rcd13ifvqc4g","pricing_plan_id":"cebpf4jnsgd1na2vs0mg"},{"bike_id":"6ab36650-f1a5-43bf-9236-abd33b3bd7be","system_id":"levelo_inurba_marseille","lat":43.29194,"lon":5.35798,"is_reserved":false,"is_disabled":false,"rental_uris":{"android":"levelo://app?vid=6ab36650-f1a5-43bf-9236-abd33b3bd7be","ios":"levelo://app?vid=6ab36650-f1a5-43bf-9236-abd33b3bd7be"},"vehicle_type_id":"4","last_reported":1735697884,"current_range_meters":14000,"station_id":"ce4bhb12rcd13ifvqel0","pricing_plan_id":"cebpf4jnsgd1na2vs0mg"},{"bike_id":"ab16d1bd-cc5a-492f-a523-fcc0f6376cad","system_id":"levelo_inurba_marseille","lat":43.24069,"lon":5.37766,"is_reserved":false,"is_disabled":false,"rental_uris":{"android":"levelo://app?vid=ab16d1bd-cc5a-492f-a523-fcc0f6376cad","ios":"levelo://app?vid=ab16d1bd-cc5a-492f-a523-fcc0f6376cad"},"vehicle_type_id":"4","last_reported":1735697884,"current_range_meters":22800,"station_id":"ce4bhnp2rcd13ifvqgvg","pricing_plan_id":"cebpf4jnsgd1na2vs0mg"},{"bike_id":"e1e92fa2-27c6-4d3a-a39e-c3735530c422","system_id":"levelo_inurba_marseille","lat":43.28477,"lon":5.38416,"is_reserved":false,"is_disabled":false,"rental_uris":{"android":"levelo://app?vid=e1e92fa2-27c6-4d3a-a39e-c3735530c422","ios":"levelo://app?vid=e1e92fa2-27c6-4d3a-a39e-c3735530c422"},"vehicle_type_id":"4","last_reported":1735697884,"current_range_meters":39200,"station_id":"ce4bh512rcd13ifvqe3g","pricing_plan_id":"cebpf4jnsgd1na2vs0mg"},{"bike_id":"4043670b-9157-450c-8d9b-0c5c1d824707","system_id":"levelo_inurba_marseille","lat":43.30309,"lon":5.39199,"is_reserved":false,"is_disabled":false,"rental_uris":{"android":"levelo://app?vid=4043670b-9157-450c-8d9b-0c5c1d824707","ios":"levelo://app?vid=4043670b-9157-450c-8d9b-0c5c1d824707"},"vehicle_type_id":"4","last_reported":1735697884,"current_range_meters":28000,"station_id":"ce4bgkh2rcd13ifvqbk0","pricing_plan_id":"cebpf4jnsgd1na2vs0mg"},{"bike_id":"35574f6b-4167-408b-abb1-f2bf64bbac3a","system_id":"levelo_inurba_marseille","lat":43.31123,"lon":5.37761,"is_reserved":false,"is_disabled":false,"rental_uris":{"android":"levelo://app?vid=35574f6b-4167-408b-abb1-f2bf64bbac3a","ios":"levelo://app?vid=35574f6b-4167-408b-abb1-f2bf64bbac3a"},"vehicle_type_id":"4","last_reported":1735697884,"current_range_meters":12800,"station_id":"ce4bgt92rcd13ifvqcg0","pricing_plan_id":"cebpf4jnsgd1na2vs0mg"},{"bike_id":"3a57489d-084f-4a3b-8c3f-01dbc466934f","system_id":"levelo_inurba_marseille","lat":43.29019,"lon":5.38142,"is_reserved":false,"is_disabled":false,"rental_uris":{"android":"levelo://app?vid=3a57489d-084f-4a3b-8c3f-01dbc466934f","ios":"levelo://app?vid=3a57489d-084f-4a3b-8c3f-01dbc466934f"},"vehicle_type_id":"4","last_reported":1735697884,"current_range_meters":38000,"station_id":"ce4bh4p2rcd13ifvqe1g","pricing_plan_id":"cebpf4jnsgd1na2vs0mg"},{"bike_id":"0d02c513-ca2e-4e40-9108-e87868ca0473","system_id":"levelo_inurba_marseille","lat":43.28159,"lon":5.42643,"is_reserved":false,"is_disabled":false,"rental_uris":{"android":"levelo://app?vid=0d02c513-ca2e-4e40-9108-e87868ca0473","ios":"levelo://app?vid=0d02c513-ca2e-4e40-9108-e87868ca0473"},"vehicle_type_id":"4","last_reported":1735697884,"current_range_meters":25600,"station_id":"ce4bhnh2rcd13ifvqgug","pricing_plan_id":"cebpf4jnsgd1na2vs0mg"},{"bike_id":"c14d1989-a72f-4241-a582-39661d0bcfcf","system_id":"levelo_inurba_marseille","lat":43.23189,"lon":5.35559,"is_reserved":false,"is_disabled":false,"rental_uris":{"android":"levelo://app?vid=c14d1989-a72f-4241-a582-39661d0bcfcf","ios":"levelo://app?vid=c14d1989-a72f-4241-a582-39661d0bcfcf"},"vehicle_type_id":"4","last_reported":1735697884,"current_range_meters":38800,"station_id":"ce4bhu92rcd13ifvqi70","pricing_plan_id":"cebpf4jnsgd1na2vs0mg"},{"bike_id":"4ad8fb0c-9d51-474b-b663-201965528dce","system_id":"levelo_inurba_marseille","lat":43.2704,"lon":5.40276,"is_reserved":false,"is_disabled":false,"rental_uris":{"android":"levelo://app?vid=4ad8fb0c-9d51-474b-b663-201965528dce","ios":"levelo://app?vid=4ad8fb0c-9d51-474b-b663-201965528dce"},"vehicle_type_id":"4","last_reported":1735697884,"current_range_meters":36800,"station_id":"ce4bhk92rcd13ifvqgc0","pricing_plan_id":"cebpf4jnsgd1na2vs0mg"},{"bike_id":"a74c2d12-b57a-4ffa-b46f-df1bdb7d8918","system_id":"levelo_inurba_marseille","lat":43.23067,"lon":5.35492,"is_reserved":false,"is_disabled":false,"rental_uris":{"android":"levelo://app?vid=a74c2d12-b57a-4ffa-b46f-df1bdb7d8918","ios":"levelo://app?vid=a74c2d12-b57a-4ffa-b46f-df1bdb7d8918"},"vehicle_type_id":"4","last_reported":1735697884,"current_range_meters":38800,"station_id":"cpo3342slgdg3j2ifvpg","pricing_plan_id":"cebpf4jnsgd1na2vs0mg"},{"bike_id":"3d5f108f-e7fa-4ab0-b3df-275ed439881b","system_id":"levelo_inurba_marseille","lat":43.28691,"lon":5.3739,"is_reserved":false,"is_disabled":false,"rental_uris":{"android":"levelo://app?vid=3d5f108f-e7fa-4ab0-b3df-275ed439881b","ios":"levelo://app?vid=3d5f108f-e7fa-4ab0-b3df-275ed439881b"},"vehicle_type_id":"4","last_reported":1735697884,"current_range_meters":38800,"station_id":"ce4bh3p2rcd13ifvqdq0","pricing_plan_id":"cebpf4jnsgd1na2vs0mg"},{"bike_id":"978b506e-3e3b-4608-af4b-fafdfbc56d3e","system_id":"levelo_inurba_marseille","lat":43.28341,"lon":5.38104,"is_reserved":false,"is_disabled":false,"rental_uris":{"android":"levelo://app?vid=978b506e-3e3b-4608-af4b-fafdfbc56d3e","ios":"levelo://app?vid=978b506e-3e3b-4608-af4b-fafdfbc56d3e"},"vehicle_type_id":"4","last_reported":1735697884,"current_range_meters":30000,"station_id":"ce4bh412rcd13ifvqdr0","pricing_plan_id":"cebpf4jnsgd1na2vs0mg"},