{"last_updated":1705439210,"ttl":30,"version":"2.2","data":{"bikes":[{"bike_id":"b971be56-0d34-41af-a304-2ab17fe49619","system_id":"levelo_inurba_marseille","lat":43.313391,"lon":5.36706,"is_reserved":false,"is_disabled":false,"rental_uris":{"android":"levelo://app?vid=b971be56-0d34-41af-a304-2ab17fe49619","ios":"levelo://app?vid=b971be56-0d34-41af-a304-2ab17fe49619"},"vehicle_type_id":"4","last_reported":1705439210,"current_range_meters":6800,"station_id":"ce4bgr92rcd13ifvqc6g","pricing_plan_id":"free"},{"bike_id":"b583a396-5034-4f77-a306-795f95f6e1aa","system_id":"levelo_inurba_marseille","lat":43.313391,"lon":5.36706,"is_reserved":false,"is_disabled":false,"rental_uris":{"android":"levelo://app?vid=b583a396-5034-4f77-a306-795f95f6e1aa","ios":"levelo://app?vid=b583a396-5034-4f77-a306-795f95f6e1aa"},"vehicle_type_id":"4","last_reported":1705439210,"current_range_meters":14000,"station_id":"ce4bgr92rcd13ifvqc6g","pricing_plan_id":"free"},{"bike_id":"2710a938-40ee-49ce-8aa6-466fc2b681d9","system_id":"levelo_inurba_marseille","lat":43.31341,"lon":5.367098,"is_reserved":false,"is_disabled":false,"rental_uris":{"android":"levelo://app?vid=2710a938-40ee-49ce-8aa6-466fc2b681d9","ios":"levelo://app?vid=2710a938-40ee-49ce-8aa6-466fc2b681d9"},"vehicle_type_id":"4","last_reported":1705439210,"current_range_meters":30000,"station_id":"ce4bgr92rcd13ifvqc6g","pricing_plan_id":"free"},{"bike_id":"1165976f-fec3-4232-a0b8-f356f5d580f9","system_id":"levelo_inurba_marseille","lat":43.309076,"lon":5.368465,"is_reserved":false,"is_disabled":false,"rental_uris":{"android":"levelo://app?vid=1165976f-fec3-4232-a0b8-f356f5d580f9","ios":"levelo://app?vid=1165976f-fec3-4232-a0b8-f356f5d580f9"},"vehicle_type_id":"4","last_reported":1705439210,"current_range_meters":29200,"station_id":"ce4bgn92rcd13ifvqbvg","pricing_plan_id":"free"},{"bike_id":"2751fe63-7b8e-4a23-aa70-8680c00ee2b6","system_id":"levelo_inurba_marseille","lat":43.31091,"lon":5.37274,"is_reserved":false,"is_disabled":false,"rental_uris":{"android":"levelo://app?vid=2751fe63-7b8e-4a23-aa70-8680c00ee2b6","ios":"levelo://app?vid=2751fe63-7b8e-4a23-aa70-8680c00ee2b6"},"vehicle_type_id":"4","last_reported":1705439210,"current_range_meters":1600,"station_id":"","pricing_plan_id":"free"},{"bike_id":"cecc1af2-b542-41f6-a86f-1f87a9853060","system_id":"levelo_inurba_marseille","lat":43.314811,"lon":5.373103,"is_reserved":false,"is_disabled":false,"rental_uris":{"android":"levelo://app?vid=cecc1af2-b542-41f6-a86f-1f87a9853060","ios":"levelo://app?vid=cecc1af2-b542-41f6-a86f-1f87a9853060"},"vehicle_type_id":"4","last_reported":1705439210,"current_range_meters":16000,"station_id":"ce4bgt12rcd13ifvqcd0","pricing_plan_id":"free"},{"bike_id":"5c710f97-8849-4a2b-a1fe-63833327c5b2","system_id":"levelo_inurba_marseille","lat":43.309039,"lon":5.371797,"is_reserved":false,"is_disabled":false,"rental_uris":{"android":"levelo://app?vid=5c710f97-8849-4a2b-a1fe-63833327c5b2","ios":"levelo://app?vid=5c710f97-8849-4a2b-a1fe-63833327c5b2"},"vehicle_type_id":"4","last_reported":1705439210,"current_range_meters":0,"station_id":"ce4bguh2rcd13ifvqckg","pricing_plan_id":"free"},{"bike_id":"f6bad580-c6fb-4202-a6d3-842c2e0fa5fb","system_id":"levelo_inurba_marseille","lat":43.305989,"lon":5.37225,"is_reserved":false,"is_disabled":false,"rental_uris":{"android":"levelo://app?vid=f6bad580-c6fb-4202-a6d3-842c2e0fa5fb","ios":"levelo://app?vid=f6bad580-c6fb-4202-a6d3-842c2e0fa5fb"},"vehicle_type_id":"4","last_reported":1705439210,"current_range_meters":30000,"station_id":"ce4bgqh2rcd13ifvqc4g","pricing_plan_id":"free"},{"bike_id":"195e1849-9b87-4bea-b97b-485f1d0a4dd6","system_id":"levelo_inurba_marseille","lat":43.305989,"lon":5.37225,"is_reserved":false,"is_disabled":false,"rental_uris":{"android":"levelo://app?vid=195e1849-9b87-4bea-b97b-485f1d0a4dd6","ios":"levelo://app?vid=195e1849-9b87-4bea-b97b-485f1d0a4dd6"},"vehicle_type_id":"4","last_reported":1705439210,"current_range_meters":5600,"station_id":"ce4bgqh2rcd13ifvqc4g","pricing_plan_id":"free"},{"bike_id":"ed0176ef-2292-4caf-8008-313fc09ad931","system_id":"levelo_inurba_marseille","lat":43.305989,"lon":5.37225,"is_reserved":false,"is_disabled":false,"rental_uris":{"android":"levelo://app?vid=ed0176ef-2292-4caf-8008-313fc09ad931","ios":"levelo://app?vid=ed0176ef-2292-4caf-8008-313fc09ad931"},"vehicle_type_id":"4","last_reported":1705439210,"current_range_meters":2800,"station_id":"ce4bgqh2rcd13ifvqc4g","pricing_plan_id":"free"},{"bike_id":"95d56360-ae3c-4d1a-a7eb-f0bf609f110f","system_id":"levelo_inurba_marseille","lat":43.305989,"lon":5.37225,"is_reserved":false,"is_disabled":false,"rental_uris":{"android":"levelo://app?vid=95d56360-ae3c-4d1a-a7eb-f0bf609f110f","ios":"levelo://app?vid=95d56360-ae3c-4d1a-a7eb-f0bf609f110f"},"vehicle_type_id":"4","last_reported":1705439210,"current_range_meters":9600,"station_id":"ce4bgqh2rcd13ifvqc4g","pricing_plan_id":"free"},{"bike_id":"bcbcf91b-0e4f-4416-91f5-b5637a08a01a","system_id":"levelo_inurba_marseille","lat":43.305989,"lon":5.37225,"is_reserved":false,"is_disabled":false,"rental_uris":{"android":"levelo://app?vid=bcbcf91b-0e4f-4416-91f5-b5637a08a01a","ios":"levelo://app?vid=bcbcf91b-0e4f-4416-91f5-b5637a08a01a"},"vehicle_type_id":"4","last_reported":1705439210,"current_range_meters":24800,"station_id":"ce4bgqh2rcd13ifvqc4g","pricing_plan_id":"free"},{"bike_id":"b7caad5d-4051-43d5-a2c4-f8f1a38569c0","system_id":"levelo_inurba_marseille","lat":43.305989,"lon":5.37225,"is_reserved":false,"is_disabled":false,"rental_uris":{"android":"levelo://app?vid=b7caad5d-4051-43d5-a2c4-f8f1a38569c0","ios":"levelo://app?vid=b7caad5d-4051-43d5-a2c4-f8f1a38569c0"},"vehicle_type_id":"4","last_reported":1705439210,"current_range_meters":6800,"station_id":"ce4bgqh2rcd13ifvqc4g","pricing_plan_id":"free"},{"bike_id":"6a553206-b1d0-4814-af78-2752e7f27645","system_id":"levelo_inurba_marseille","lat":43.305989,"lon":5.37225,"is_reserved":false,"is_disabled":false,"rental_uris":{"android":"levelo://app?vid=6a553206-b1d0-4814-af78-2752e7f27645","ios":"levelo://app?vid=6a553206-b1d0-4814-af78-2752e7f27645"},"vehicle_type_id":"4","last_reported":1705439210,"current_range_meters":15600,"station_id":"ce4bgqh2rcd13ifvqc4g","pricing_plan_id":"free"},{"bike_id":"c9c8b687-de58-4bd2-a820-5ba1f742a45f","system_id":"levelo_inurba_marseille","lat":43.31127,"lon":5.37763,"is_reserved":false,"is_disabled":false,"rental_uris":{"android":"levelo://app?vid=c9c8b687-de58-4bd2-a820-5ba1f742a45f","ios":"levelo://app?vid=c9c8b687-de58-4bd2-a820-5ba1f742a45f"},"vehicle_type_id":"4","last_reported":1705439210,"current_range_meters":8000,"station_id":"ce4bgt92rcd13ifvqcg0","pricing_plan_id":"free"},{"bike_id":"fd0809b1-323f-4145-8109-e2a7364931f2","system_id":"levelo_inurba_marseille","lat":43.311143,"lon":5.37766,"is_reserved":false,"is_disabled":false,"rental_uris":{"android":"levelo://app?vid=fd0809b1-323f-4145-8109-e2a7364931f2","ios":"levelo://app?vid=fd0809b1-323f-4145-8109-e2a7364931f2"},"vehicle_type_id":"4","last_reported":1705439210,"current_range_meters":16400,"station_id":"ce4bgt92rcd13ifvqcg0","pricing_plan_id":"free"},{"bike_id":"94f02d51-1fe1-4475-9412-48cfd175831a","system_id":"levelo_inurba_marseille","lat":43.31119,"lon":5.37768,"is_reserved":false,"is_disabled":false,"rental_uris":{"android":"levelo://app?vid=94f02d51-1fe1-4475-9412-48cfd175831a","ios":"levelo://app?vid=94f02d51-1fe1-4475-9412-48cfd175831a"},"vehicle_type_id":"4","last_reported":1705439210,"current_range_meters":2800,"station_id":"ce4bgt92rcd13ifvqcg0","pricing_plan_id":"free"},{"bike_id":"29de0205-2074-4d12-a979-af3a6c0b76b2","system_id":"levelo_inurba_marseille","lat":43.311246,"lon":5.377696,"is_reserved":false,"is_disabled":false,"rental_uris":{"android":"levelo://app?vid=29de0205-2074-4d12-a979-af3a6c0b76b2","ios":"levelo://app?vid=29de0205-2074-4d12-a979-af3a6c0b76b2"},"vehicle_type_id":"4","last_reported":1705439210,"current_range_meters":0,"station_id":"ce4bgt92rcd13ifvqcg0","pricing_plan_id":"free"},{"bike_id":"a36d65f2-ed0b-4592-bb6d-2387dc6025b3","system_id":"levelo_inurba_marseille","lat":43.31124,"lon":5.37779,"is_reserved":false,"is_disabled":false,"rental_uris":{"android":"levelo://app?vid=a36d65f2-ed0b-4592-bb6d-2387dc6025b3","ios":"levelo://app?vid=a36d65f2-ed0b-4592-bb6d-2387dc6025b3"},"vehicle_type_id":"4","last_reported":1705439210,"current_range_meters":24400,"station_id":"ce4bgt92rcd13ifvqcg0","pricing_plan_id":"free"},{"bike_id":"ccde4b81-ee7f-4f26-9ad2-b290b219476d","system_id":"levelo_inurba_marseille","lat":43.307945,"lon":5.376487,"is_reserved":false,"is_disabled":false,"rental_uris":{"android":"levelo://app?vid=ccde4b81-ee7f-4f26-9ad2-b290b219476d","ios":"levelo://app?vid=ccde4b81-ee7f-4f26-9ad2-b290b219476d"},"vehicle_type_id":"4","last_reported":1705439210,"current_range_meters":26000,"station_id":"ce4bgv92rcd13ifvqcq0","pricing_plan_id":"free"},{"bike_id":"c375c297-0260-43e0-9bf4-f1e24f13fa6a","system_id":"levelo_inurba_marseille","lat":43.307945,"lon":5.376487,"is_reserved":false,"is_disabled":false,"rental_uris":{"android":"levelo://app?vid=c375c297-0260-43e0-9bf4-f1e24f13fa6a","ios":"levelo://app?vid=c375c297-0260-43e0-9bf4-f1e24f13fa6a"},"vehicle_type_id":"4","last_reported":1705439210,"current_range_meters":23200,"station_id":"ce4bgv92rcd13ifvqcq0","pricing_plan_id":"free"},{"bike_id":"97f027ac-799c-4c75-9227-34daeb7e60f0","system_id":"levelo_inurba_marseille","lat":43.307945,"lon":5.376487,"is_reserved":false,"is_disabled":false,"rental_uris":{"android":"levelo://app?vid=97f027ac-799c-4c75-9227-34daeb7e60f0","ios":"levelo://app?vid=97f027ac-799c-4c75-9227-34daeb7e60f0"},"vehicle_type_id":"4","last_reported":1705439210,"current_range_meters":24800,"station_id":"ce4bgv92rcd13ifvqcq0","pricing_plan_id":"free"},{"bike_id":"5cebbca0-5d99-4746-8f14-71a904ec544c","system_id":"levelo_inurba_marseille","lat":43.303046,"lon":5.368981,"is_reserved":false,"is_disabled":false,"rental_uris":{"android":"levelo://app?vid=5cebbca0-5d99-4746-8f14-71a904ec544c","ios":"levelo://app?vid=5cebbca0-5d99-4746-8f14-71a904ec544c"},"vehicle_type_id":"4","last_reported":1705439210,"current_range_meters":4800,"station_id":"ce4bgqh2rcd13ifvqc5g","pricing_plan_id":"free"},{"bike_id":"90c8cb48-b362-4681-9d85-998c9c1bc5c8","system_id":"levelo_inurba_marseille","lat":43.303046,"lon":5.368981,"is_reserved":false,"is_disabled":false,"rental_uris":{"android":"levelo://app?vid=90c8cb48-b362-4681-9d85-998c9c1bc5c8","ios":"levelo://app?vid=90c8cb48-b362-4681-9d85-998c9c1bc5c8"},"vehicle_type_id":"4","last_reported":1705439210,"current_range_meters":8800,"station_id":"ce4bgqh2rcd13ifvqc5g","pricing_plan_id":"free"},{"bike_id":"6d979daf-43e4-432d-9a14-36a8365520f6","system_id":"levelo_inurba_marseille","lat":43.303046,"lon":5.368981,"is_reserved":false,"is_disabled":false,"rental_uris":{"android":"levelo://app?vid=6d979daf-43e4-432d-9a14-36a8365520f6","ios":"levelo://app?vid=6d979daf-43e4-432d-9a14-36a8365520f6"},"vehicle_type_id":"4","last_reported":1705439210,"current_range_meters":3200,"station_id":"ce4bgqh2rcd13ifvqc5g","pricing_plan_id":"free"},{"bike_id":"d9afa6bf-273e-4a81-9be8-5adac3ab06c1","system_id":"levelo_inurba_marseille","lat":43.301939,"lon":5.366286,"is_reserved":false,"is_disabled":false,"rental_uris":{"android":"levelo://app?vid=d9afa6bf-273e-4a81-9be8-5adac3ab06c1","ios":"levelo://app?vid=d9afa6bf-273e-4a81-9be8-5adac3ab06c1"},"vehicle_type_id":"4","last_reported":1705439210,"current_range_meters":7600,"station_id":"ce4bgrh2rcd13ifvqc8g","pricing_plan_id":"free"},{"bike_id":"49909fbd-4ba0-4bcb-900c-50564d5fa103","system_id":"levelo_inurba_marseille","lat":43.308012,"lon":5.381511,"is_reserved":false,"is_disabled":false,"rental_uris":{"android":"levelo://app?vid=49909fbd-4ba0-4bcb-900c-50564d5fa103","ios":"levelo://app?vid=49909fbd-4ba0-4bcb-900c-50564d5fa103"},"vehicle_type_id":"4","last_reported":1705439210,"current_range_meters":11600,"station_id":"ce4bgt12rcd13ifvqce0","pricing_plan_id":"free"},{"bike_id":"404c8e68-5c0a-43f3-b26f-cb2f8404f3cb","system_id":"levelo_inurba_marseille","lat":43.308012,"lon":5.381511,"is_reserved":false,"is_disabled":false,"rental_uris":{"android":"levelo://app?vid=404c8e68-5c0a-43f3-b26f-cb2f8404f3cb","ios":"levelo://app?vid=404c8e68-5c0a-43f3-b26f-cb2f8404f3cb"},"vehicle_type_id":"4","last_reported":1705439210,"current_range_meters":21200,"station_id":"ce4bgt12rcd13ifvqce0","pricing_plan_id":"free"},{"bike_id":"c95b35d5-27cb-4546-966e-af946a223ba4","system_id":"levelo_inurba_marseille","lat":43.308012,"lon":5.381511,"is_reserved":false,"is_disabled":false,"rental_uris":{"android":"levelo://app?vid=c95b35d5-27cb-4546-966e-af946a223ba4","ios":"levelo://app?vid=c95b35d5-27cb-4546-966e-af946a223ba4"},"vehicle_type_id":"4","last_reported":1705439210,"current_range_meters":11200,"station_id":"ce4bgt12rcd13ifvqce0","pricing_plan_id":"free"},{"bike_id":"e53ceb92-be11-486d-9cce-3c5b6cc74f1e","system_id":"levelo_inurba_marseille","lat":43.308012,"lon":5.381511,"is_reserved":false,"is_disabled":false,"rental_uris":{"android":"levelo://app?vid=e53ceb92-be11-486d-9cce-3c5b6cc74f1e","ios":"levelo://app?vid=e53ceb92-be11-486d-9cce-3c5b6cc74f1e"},"vehicle_type_id":"4","last_reported":1705439210,"current_range_meters":1600,"station_id":"ce4bgt12rcd13ifvqce0","pricing_plan_id":"free"},{"bike_id":"b8efe2c1-8a00-47f0-8776-da5670e54f64","system_id":"levelo_inurba_marseille","lat":43.304606,"lon":5.379026,"is_reserved":false,"is_disabled":false,"rental_uris":{"android":"levelo://app?vid=b8efe2c1-8a00-47f0-8776-da5670e54f64","ios":"levelo://app?vid=b8efe2c1-8a00-47f0-8776-da5670e54f64"},"vehicle_type_id":"4","last_reported":1705439210,"current_range_meters":0,"station_id":"ce4bgup2rcd13ifvqcn0","pricing_plan_id":"free"},{"bike_id":"b6665513-6ca2-42dc-9baf-3c5b43a49768","system_id":"levelo_inurba_marseille","lat":43.324771,"lon":5.36557,"is_reserved":false,"is_disabled":false,"rental_uris":{"android":"levelo://app?vid=b6665513-6ca2-42dc-9baf-3c5b43a49768","ios":"levelo://app?vid=b6665513-6ca2-42dc-9baf-3c5b43a49768"},"vehicle_type_id":"4","last_reported":1705439210,"current_range_meters":28000,"station_id":"ce4bhs12rcd13ifvqhvg","pricing_plan_id":"free"},{"bike_id":"61a6e069-1738-4fb4-914c-71544c263cb0","system_id":"levelo_inurba_marseille","lat":43.324771,"lon":5.36557,"is_reserved":false,"is_disabled":false,"rental_uris":{"android":"levelo://app?vid=61a6e069-1738-4fb4-914c-71544c263cb0","ios":"levelo://app?vid=61a6e069-1738-4fb4-914c-71544c263cb0"},"vehicle_type_id":"4","last_reported":1705439210,"current_range_meters":9200,"station_id":"ce4bhs12rcd13ifvqhvg","pricing_plan_id":"free"},{"bike_id":"fa464119-3865-4d78-914a-9227a851e6df","system_id":"levelo_inurba_marseille","lat":43.324771,"lon":5.36557,"is_reserved":false,"is_disabled":false,"rental_uris":{"android":"levelo://app?vid=fa464119-3865-4d78-914a-9227a851e6df","ios":"levelo://app?vid=fa464119-3865-4d78-914a-9227a851e6df"},"vehicle_type_id":"4","last_reported":1705439210,"current_range_meters":22000,"station_id":"ce4bhs12rcd13ifvqhvg","pricing_plan_id":"free"},{"bike_id":"46c6befd-1978-4025-b46c-362d658f43fa","system_id":"levelo_inurba_marseille","lat":43.324771,"lon":5.36557,"is_reserved":false,"is_disabled":false,"rental_uris":{"android":"levelo://app?vid=46c6befd-1978-4025-b46c-362d658f43fa","ios":"levelo://app?vid=46c6befd-1978-4025-b46c-362d658f43fa"},"vehicle_type_id":"4","last_reported":1705439210,"current_range_meters":30000,"station_id":"ce4bhs12rcd13ifvqhvg","pricing_plan_id":"free"},{"bike_id":"ce203f00-9b61-4792-a072-366e23c0f704","system_id":"levelo_inurba_marseille","lat":43.302798,"lon":5.377,"is_reserved":false,"is_disabled":false,"rental_uris":{"android":"levelo://app?vid=ce203f00-9b61-4792-a072-366e23c0f704","ios":"levelo://app?vid=ce203f00-9b61-4792-a072-366e23c0f704"},"vehicle_type_id":"4","last_reported":1705439210,"current_range_meters":30400,"station_id":"","pricing_plan_id":"free"},{"bike_id":"108030ef-e04f-40d2-aca4-48abb3cb5aa3","system_id":"levelo_inurba_marseille","lat":43.319935,"lon":5.381699,"is_reserved":false,"is_disabled":false,"rental_uris":{"android":"levelo://app?vid=108030ef-e04f-40d2-aca4-48abb3cb5aa3","ios":"levelo://app?vid=108030ef-e04f-40d2-aca4-48abb3cb5aa3"},"vehicle_type_id":"4","last_reported":1705439210,"current_range_meters":10400,"station_id":"ce4bhr12rcd13ifvqhpg","pricing_plan_id":"free"},{"bike_id":"d2edba53-b6fb-4937-aa17-e4cc1be26aea","system_id":"levelo_inurba_marseille","lat":43.319935,"lon":5.381699,"is_reserved":false,"is_disabled":false,"rental_uris":{"android":"levelo://app?vid=d2edba53-b6fb-4937-aa17-e4cc1be26aea","ios":"levelo://app?vid=d2edba53-b6fb-4937-aa17-e4cc1be26aea"},"vehicle_type_id":"4","last_reported":1705439210,"current_range_meters":17600,"station_id":"ce4bhr12rcd13ifvqhpg","pricing_plan_id":"free"},{"bike_id":"26fb0bd6-1ab7-43fe-824c-80f1a4097f4e","system_id":"levelo_inurba_marseille","lat":43.31997,"lon":5.38152,"is_reserved":false,"is_disabled":false,"rental_uris":{"android":"levelo://app?vid=26fb0bd6-1ab7-43fe-824c-80f1a4097f4e","ios":"levelo://app?vid=26fb0bd6-1ab7-43fe-824c-80f1a4097f4e"},"vehicle_type_id":"4","last_reported":1705439210,"current_range_meters":29200,"station_id":"ce4bhr12rcd13ifvqhpg","pricing_plan_id":"free"},{"bike_id":"05e7bf18-c01a-4d0f-af28-ec5522fcca76","system_id":"levelo_inurba_marseille","lat":43.319935,"lon":5.381699,"is_reserved":false,"is_disabled":false,"rental_uris":{"android":"levelo://app?vid=05e7bf18-c01a-4d0f-af28-ec5522fcca76","ios":"levelo://app?vid=05e7bf18-c01a-4d0f-af28-ec5522fcca76"},"vehicle_type_id":"4","last_reported":1705439210,"current_range_meters":10800,"station_id":"ce4bhr12rcd13ifvqhpg","pricing_plan_id":"free"},{"bike_id":"1654e7b0-0af2-4f46-8e4a-b119b0d39473","system_id":"levelo_inurba_marseille","lat":43.319935,"lon":5.381699,"is_reserved":false,"is_disabled":false,"rental_uris":{"android":"levelo://app?vid=1654e7b0-0af2-4f46-8e4a-b119b0d39473","ios":"levelo://app?vid=1654e7b0-0af2-4f46-8e4a-b119b0d39473"},"vehicle_type_id":"4","last_reported":1705439210,"current_range_meters":11200,"station_id":"ce4bhr12rcd13ifvqhpg","pricing_plan_id":"free"},{"bike_id":"8132332f-67fb-4b4d-b78d-90427948e058","system_id":"levelo_inurba_marseille","lat":43.32003,"lon":5.38157,"is_reserved":false,"is_disabled":false,"rental_uris":{"android":"levelo://app?vid=8132332f-67fb-4b4d-b78d-90427948e058","ios":"levelo://app?vid=8132332f-67fb-4b4d-b78d-90427948e058"},"vehicle_type_id":"4","last_reported":1705439210,"current_range_meters":18800,"station_id":"ce4bhr12rcd13ifvqhpg","pricing_plan_id":"free"},{"bike_id":"2b2fa4c3-6513-4039-b4c7-d49a15fe0c7d","system_id":"levelo_inurba_marseille","lat":43.32003,"lon":5.38158,"is_reserved":false,"is_disabled":false,"rental_uris":{"android":"levelo://app?vid=2b2fa4c3-6513-4039-b4c7-d49a15fe0c7d","ios":"levelo://app?vid=2b2fa4c3-6513-4039-b4c7-d49a15fe0c7d"},"vehicle_type_id":"4","last_reported":1705439210,"current_range_meters":26400,"station_id":"ce4bhr12rcd13ifvqhpg","pricing_plan_id":"free"},{"bike_id":"c98d78a3-68e6-4c31-9191-5f8d5879bbe0","system_id":"levelo_inurba_marseille","lat":43.319935,"lon":5.381699,"is_reserved":false,"is_disabled":false,"rental_uris":{"android":"levelo://app?vid=c98d78a3-68e6-4c31-9191-5f8d5879bbe0","ios":"levelo://app?vid=c98d78a3-68e6-4c31-9191-5f8d5879bbe0"},"vehicle_type_id":"4","last_reported":1705439210,"current_range_meters":18800,"station_id":"ce4bhr12rcd13ifvqhpg","pricing_plan_id":"free"},{"bike_id":"a0fb2695-d2a3-4f9d-a988-642f3599f5af","system_id":"levelo_inurba_marseille","lat":43.313571,"lon":5.384829,"is_reserved":false,"is_disabled":false,"rental_uris":{"android":"levelo://app?vid=a0fb2695-d2a3-4f9d-a988-642f3599f5af","ios":"levelo://app?vid=a0fb2695-d2a3-4f9d-a988-642f3599f5af"},"vehicle_type_id":"4","last_reported":1705439210,"current_range_meters":29600,"station_id":"ce4bgt92rcd13ifvqcf0","pricing_plan_id":"free"},{"bike_id":"421448e3-b192-4160-8e10-f8535f7bec53","system_id":"levelo_inurba_marseille","lat":43.313571,"lon":5.384829,"is_reserved":false,"is_disabled":false,"rental_uris":{"android":"levelo://app?vid=421448e3-b192-4160-8e10-f8535f7bec53","ios":"levelo://app?vid=421448e3-b192-4160-8e10-f8535f7bec53"},"vehicle_type_id":"4","last_reported":1705439210,"current_range_meters":24800,"station_id":"ce4bgt92rcd13ifvqcf0","pricing_plan_id":"free"},{"bike_id":"d05be7e6-caaa-4779-8fd5-fb8ec23c81a0","system_id":"levelo_inurba_marseille","lat":43.313571,"lon":5.384829,"is_reserved":false,"is_disabled":false,"rental_uris":{"android":"levelo://app?vid=d05be7e6-caaa-4779-8fd5-fb8ec23c81a0","ios":"levelo://app?vid=d05be7e6-caaa-4779-8fd5-fb8ec23c81a0"},"vehicle_type_id":"4","last_reported":1705439210,"current_range_meters":26000,"station_id":"ce4bgt92rcd13ifvqcf0","pricing_plan_id":"free"},{"bike_id":"98a0778f-e8cf-4d5d-ab26-5f5542599ec5","system_id":"levelo_inurba_marseille","lat":43.29944,"lon":5.365517,"is_reserved":false,"is_disabled":false,"rental_uris":{"android":"levelo://app?vid=98a0778f-e8cf-4d5d-ab26-5f5542599ec5","ios":"levelo://app?vid=98a0778f-e8cf-4d5d-ab26-5f5542599ec5"},"vehicle_type_id":"4","last_reported":1705439210,"current_range_meters":16400,"station_id":"ce4bgm92rcd13ifvqbr0","pricing_plan_id":"free"},{"bike_id":"27d224bc-e240-47a8-a8fa-999177c89891","system_id":"levelo_inurba_marseille","lat":43.299222,"lon":5.365554,"is_reserved":false,"is_disabled":false,"rental_uris":{"android":"levelo://app?vid=27d224bc-e240-47a8-a8fa-999177c89891","ios":"levelo://app?vid=27d224bc-e240-47a8-a8fa-999177c89891"},"vehicle_type_id":"4","last_reported":1705439210,"current_range_meters":20400,"station_id":"ce4bgm92rcd13ifvqbr0","pricing_plan_id":"free"},{"bike_id":"e9d48811-0301-47f9-b209-35b2add686ad","system_id":"levelo_inurba_marseille","lat":43.299222,"lon":5.365554,"is_reserved":false,"is_disabled":false,"rental_uris":{"android":"levelo://app?vid=e9d48811-0301-47f9-b209-35b2add686ad","ios":"levelo://app?vid=e9d48811-0301-47f9-b209-35b2add686ad"},"vehicle_type_id":"4","last_reported":1705439210,"current_range_meters":27200,"station_id":"ce4bgm92rcd13ifvqbr0","pricing_plan_id":"free"},{"bike_id":"3202f5a3-a344-481c-9bdc-a5265d5e0516","system_id":"levelo_inurba_marseille","lat":43.299222,"lon":5.365554,"is_reserved":false,"is_disabled":false,"rental_uris":{"android":"levelo://app?vid=3202f5a3-a344-481c-9bdc-a5265d5e0516","ios":"levelo://app?vid=3202f5a3-a344-481c-9bdc-a5265d5e0516"},"vehicle_type_id":"4","last_reported":1705439210,"current_range_meters":25600,"station_id":"ce4bgm92rcd13ifvqbr0","pricing_plan_id":"free"},{"bike_id":"33a1df11-82ca-4ffc-b978-a357253496e2","system_id":"levelo_inurba_marseille","lat":43.299222,"lon":5.365554,"is_reserved":false,"is_disabled":false,"rental_uris":{"android":"levelo://app?vid=33a1df11-82ca-4ffc-b978-a357253496e2","ios":"levelo://app?vid=33a1df11-82ca-4ffc-b978-a357253496e2"},"vehicle_type_id":"4","last_reported":1705439210,"current_range_meters":26400,"station_id":"ce4bgm92rcd13ifvqbr0","pricing_plan_id":"free"},{"bike_id":"ffadc66d-21c1-48c0-bb83-0911b55a5fd0","system_id":"levelo_inurba_marseille","lat":43.299222,"lon":5.365554,"is_reserved":false,"is_disabled":false,"rental_uris":{"android":"levelo://app?vid=ffadc66d-21c1-48c0-bb83-0911b55a5fd0","ios":"levelo://app?vid=ffadc66d-21c1-48c0-bb83-0911b55a5fd0"},"vehicle_type_id":"4","last_reported":1705439210,"current_range_meters":14400,"station_id":"ce4bgm92rcd13ifvqbr0","pricing_plan_id":"free"},{"bike_id":"282d4f24-ba10-48d9-86f1-50c2d2029589","system_id":"levelo_inurba_marseille","lat":43.299222,"lon":5.365554,"is_reserved":false,"is_disabled":false,"rental_uris":{"android":"levelo://app?vid=282d4f24-ba10-48d9-86f1-50c2d2029589","ios":"levelo://app?vid=282d4f24-ba10-48d9-86f1-50c2d2029589"},"vehicle_type_id":"4","last_reported":1705439210,"current_range_meters":30400,"station_id":"ce4bgm92rcd13ifvqbr0","pricing_plan_id":"free"},{"bike_id":"1d0b5427-c51a-4e6f-8185-4460f986a633","system_id":"levelo_inurba_marseille","lat":43.299724,"lon":5.371829,"is_reserved":false,"is_disabled":false,"rental_uris":{"android":"levelo://app?vid=1d0b5427-c51a-4e6f-8185-4460f986a633","ios":"levelo://app?vid=1d0b5427-c51a-4e6f-8185-4460f986a633"},"vehicle_type_id":"4","last_reported":1705439210,"current_range_meters":6000,"station_id":"ce4bgr92rcd13ifvqc7g","pricing_plan_id":"free"},{"bike_id":"4ae02a3e-676e-4843-a8b5-e44507e2f54a","system_id":"levelo_inurba_marseille","lat":43.305364,"lon":5.384119,"is_reserved":false,"is_disabled":false,"rental_uris":{"android":"levelo://app?vid=4ae02a3e-676e-4843-a8b5-e44507e2f54a","ios":"levelo://app?vid=4ae02a3e-676e-4843-a8b5-e44507e2f54a"},"vehicle_type_id":"4","last_reported":1705439210,"current_range_meters":30000,"station_id":"ce4bgg92rcd13ifvqb30","pricing_plan_id":"free"},{"bike_id":"c3215037-3497-49f4-bee6-6613bc90ff61","system_id":"levelo_inurba_marseille","lat":43.305364,"lon":5.384119,"is_reserved":false,"is_disabled":false,"rental_uris":{"android":"levelo://app?vid=c3215037-3497-49f4-bee6-6613bc90ff61","ios":"levelo://app?vid=c3215037-3497-49f4-bee6-6613bc90ff61"},"vehicle_type_id":"4","last_reported":1705439210,"current_range_meters":25200,"station_id":"ce4bgg92rcd13ifvqb30","pricing_plan_id":"free"},{"bike_id":"a0c26355-478d-42a5-b302-04a5a50a34a7","system_id":"levelo_inurba_marseille","lat":43.311722,"lon":5.387247,"is_reserved":false,"is_disabled":false,"rental_uris":{"android":"levelo://app?vid=a0c26355-478d-42a5-b302-04a5a50a34a7","ios":"levelo://app?vid=a0c26355-478d-42a5-b302-04a5a50a34a7"},"vehicle_type_id":"4","last_reported":1705439210,"current_range_meters":26000,"station_id":"ce4bgv12rcd13ifvqcp0","pricing_plan_id":"free"},{"bike_id":"0d666429-792d-477e-b03b-8d07152545bb","system_id":"levelo_inurba_marseille","lat":43.32288,"lon":5.38261,"is_reserved":false,"is_disabled":false,"rental_uris":{"android":"levelo://app?vid=0d666429-792d-477e-b03b-8d07152545bb","ios":"levelo://app?vid=0d666429-792d-477e-b03b-8d07152545bb"},"vehicle_type_id":"4","last_reported":1705439210,"current_range_meters":7200,"station_id":"ce4bhr12rcd13ifvqhqg","pricing_plan_id":"free"},{"bike_id":"f675b702-73f1-40c0-8188-e4784f2816f9","system_id":"levelo_inurba_marseille","lat":43.322872,"lon":5.382756,"is_reserved":false,"is_disabled":false,"rental_uris":{"android":"levelo://app?vid=f675b702-73f1-40c0-8188-e4784f2816f9","ios":"levelo://app?vid=f675b702-73f1-40c0-8188-e4784f2816f9"},"vehicle_type_id":"4","last_reported":1705439210,"current_range_meters":31600,"station_id":"ce4bhr12rcd13ifvqhqg","pricing_plan_id":"free"},{"bike_id":"34c8b400-5074-46e3-aa02-f5d274dfaa4f","system_id":"levelo_inurba_marseille","lat":43.32291,"lon":5.3826,"is_reserved":false,"is_disabled":false,"rental_uris":{"android":"levelo://app?vid=34c8b400-5074-46e3-aa02-f5d274dfaa4f","ios":"levelo://app?vid=34c8b400-5074-46e3-aa02-f5d274dfaa4f"},"vehicle_type_id":"4","last_reported":1705439210,"current_range_meters":19200,"station_id":"ce4bhr12rcd13ifvqhqg","pricing_plan_id":"free"},{"bike_id":"f85a4350-761e-4ac5-924d-f795e652d954","system_id":"levelo_inurba_marseille","lat":43.322882,"lon":5.38264,"is_reserved":false,"is_disabled":false,"rental_uris":{"android":"levelo://app?vid=f85a4350-761e-4ac5-924d-f795e652d954","ios":"levelo://app?vid=f85a4350-761e-4ac5-924d-f795e652d954"},"vehicle_type_id":"4","last_reported":1705439210,"current_range_meters":800,"station_id":"ce4bhr12rcd13ifvqhqg","pricing_plan_id":"free"},{"bike_id":"c59e915a-05cb-49b2-8b19-dcae4465ebcc","system_id":"levelo_inurba_marseille","lat":43.32291,"lon":5.38266,"is_reserved":false,"is_disabled":false,"rental_uris":{"android":"levelo://app?vid=c59e915a-05cb-49b2-8b19-dcae4465ebcc","ios":"levelo://app?vid=c59e915a-05cb-49b2-8b19-dcae4465ebcc"},"vehicle_type_id":"4","last_reported":1705439210,"current_range_meters":0,"station_id":"ce4bhr12rcd13ifvqhqg","pricing_plan_id":"free"},{"bike_id":"17ee7a8a-cd73-4eb8-b7e0-454634636574","system_id":"levelo_inurba_marseille","lat":43.322872,"lon":5.382756,"is_reserved":false,"is_disabled":false,"rental_uris":{"android":"levelo://app?vid=17ee7a8a-cd73-4eb8-b7e0-454634636574","ios":"levelo://app?vid=17ee7a8a-cd73-4eb8-b7e0-454634636574"},"vehicle_type_id":"4","last_reported":1705439210,"current_range_meters":24800,"station_id":"ce4bhr12rcd13ifvqhqg","pricing_plan_id":"free"},{"bike_id":"26f91de3-6627-4706-9d59-9aefca0a07fd","system_id":"levelo_inurba_marseille","lat":43.322872,"lon":5.382756,"is_reserved":false,"is_disabled":false,"rental_uris":{"android":"levelo://app?vid=26f91de3-6627-4706-9d59-9aefca0a07fd","ios":"levelo://app?vid=26f91de3-6627-4706-9d59-9aefca0a07fd"},"vehicle_type_id":"4","last_reported":1705439210,"current_range_meters":30800,"station_id":"ce4bhr12rcd13ifvqhqg","pricing_plan_id":"free"},{"bike_id":"98c634c7-bdbe-4fde-8a9e-66ae5ba58bf4","system_id":"levelo_inurba_marseille","lat":43.322872,"lon":5.382756,"is_reserved":false,"is_disabled":false,"rental_uris":{"android":"levelo://app?vid=98c634c7-bdbe-4fde-8a9e-66ae5ba58bf4","ios":"levelo://app?vid=98c634c7-bdbe-4fde-8a9e-66ae5ba58bf4"},"vehicle_type_id":"4","last_reported":1705439210,"current_range_meters":30400,"station_id":"ce4bhr12rcd13ifvqhqg","pricing_plan_id":"free"},{"bike_id":"2f96f75b-b819-4121-8a76-2302255b230e","system_id":"levelo_inurba_marseille","lat":43.297163,"lon":5.365866,"is_reserved":false,"is_disabled":false,"rental_uris":{"android":"levelo://app?vid=2f96f75b-b819-4121-8a76-2302255b230e","ios":"levelo://app?vid=2f96f75b-b819-4121-8a76-2302255b230e"},"vehicle_type_id":"4","last_reported":1705439210,"current_range_meters":27200,"station_id":"ce4bgn12rcd13ifvqbt0","pricing_plan_id":"free"},{"bike_id":"be5c14c2-d069-4824-b2b4-323fba6ab1b5","system_id":"levelo_inurba_marseille","lat":43.32822,"lon":5.36676,"is_reserved":false,"is_disabled":false,"rental_uris":{"android":"levelo://app?vid=be5c14c2-d069-4824-b2b4-323fba6ab1b5","ios":"levelo://app?vid=be5c14c2-d069-4824-b2b4-323fba6ab1b5"},"vehicle_type_id":"4","last_reported":1705439210,"current_range_meters":8400,"station_id":"ce4bhs92rcd13ifvqi0g","pricing_plan_id":"free"},{"bike_id":"eb82efee-7e46-4cef-a643-d731882b95f4","system_id":"levelo_inurba_marseille","lat":43.328221,"lon":5.36676,"is_reserved":false,"is_disabled":false,"rental_uris":{"android":"levelo://app?vid=eb82efee-7e46-4cef-a643-d731882b95f4","ios":"levelo://app?vid=eb82efee-7e46-4cef-a643-d731882b95f4"},"vehicle_type_id":"4","last_reported":1705439210,"current_range_meters":13200,"station_id":"ce4bhs92rcd13ifvqi0g","pricing_plan_id":"free"},{"bike_id":"85cedcff-9e9a-415d-8415-195178ea3cb7","system_id":"levelo_inurba_marseille","lat":43.328259,"lon":5.366801,"is_reserved":false,"is_disabled":false,"rental_uris":{"android":"levelo://app?vid=85cedcff-9e9a-415d-8415-195178ea3cb7","ios":"levelo://app?vid=85cedcff-9e9a-415d-8415-195178ea3cb7"},"vehicle_type_id":"4","last_reported":1705439210,"current_range_meters":24000,"station_id":"ce4bhs92rcd13ifvqi0g","pricing_plan_id":"free"},{"bike_id":"947a5c0b-0299-4cd2-aecd-5f351114aaf8","system_id":"levelo_inurba_marseille","lat":43.32828,"lon":5.36678,"is_reserved":false,"is_disabled":false,"rental_uris":{"android":"levelo://app?vid=947a5c0b-0299-4cd2-aecd-5f351114aaf8","ios":"levelo://app?vid=947a5c0b-0299-4cd2-aecd-5f351114aaf8"},"vehicle_type_id":"4","last_reported":1705439210,"current_range_meters":24800,"station_id":"ce4bhs92rcd13ifvqi0g","pricing_plan_id":"free"},{"bike_id":"6b4ea496-3016-42db-af64-ba8beb6e73fc","system_id":"levelo_inurba_marseille","lat":43.328371,"lon":5.366909,"is_reserved":false,"is_disabled":false,"rental_uris":{"android":"levelo://app?vid=6b4ea496-3016-42db-af64-ba8beb6e73fc","ios":"levelo://app?vid=6b4ea496-3016-42db-af64-ba8beb6e73fc"},"vehicle_type_id":"4","last_reported":1705439210,"current_range_meters":27200,"station_id":"ce4bhs92rcd13ifvqi0g","pricing_plan_id":"free"},{"bike_id":"02f97db8-1e1e-4f38-89f3-11868234f7c3","system_id":"levelo_inurba_marseille","lat":43.328281,"lon":5.366802,"is_reserved":false,"is_disabled":false,"rental_uris":{"android":"levelo://app?vid=02f97db8-1e1e-4f38-89f3-11868234f7c3","ios":"levelo://app?vid=02f97db8-1e1e-4f38-89f3-11868234f7c3"},"vehicle_type_id":"4","last_reported":1705439210,"current_range_meters":20800,"station_id":"ce4bhs92rcd13ifvqi0g","pricing_plan_id":"free"},{"bike_id":"09621f87-561a-4138-9bcf-5568c59432a9","system_id":"levelo_inurba_marseille","lat":43.328283,"lon":5.366752,"is_reserved":false,"is_disabled":false,"rental_uris":{"android":"levelo://app?vid=09621f87-561a-4138-9bcf-5568c59432a9","ios":"levelo://app?vid=09621f87-561a-4138-9bcf-5568c59432a9"},"vehicle_type_id":"4","last_reported":1705439210,"current_range_meters":4000,"station_id":"ce4bhs92rcd13ifvqi0g","pricing_plan_id":"free"},{"bike_id":"ea0178f3-2c6b-4af6-b062-91b0b8dde1df","system_id":"levelo_inurba_marseille","lat":43.328285,"lon":5.366818,"is_reserved":false,"is_disabled":false,"rental_uris":{"android":"levelo://app?vid=ea0178f3-2c6b-4af6-b062-91b0b8dde1df","ios":"levelo://app?vid=ea0178f3-2c6b-4af6-b062-91b0b8dde1df"},"vehicle_type_id":"4","last_reported":1705439210,"current_range_meters":9600,"station_id":"ce4bhs92rcd13ifvqi0g","pricing_plan_id":"free"},{"bike_id":"8463d0da-e03a-4a02-8a84-4dd7b137838e","system_id":"levelo_inurba_marseille","lat":43.328294,"lon":5.366764,"is_reserved":false,"is_disabled":false,"rental_uris":{"android":"levelo://app?vid=8463d0da-e03a-4a02-8a84-4dd7b137838e","ios":"levelo://app?vid=8463d0da-e03a-4a02-8a84-4dd7b137838e"},"vehicle_type_id":"4","last_reported":1705439210,"current_range_meters":23600,"station_id":"ce4bhs92rcd13ifvqi0g","pricing_plan_id":"free"},{"bike_id":"9cda7071-0b99-4f13-a66f-99ee8455accb","system_id":"levelo_inurba_marseille","lat":43.328294,"lon":5.366747,"is_reserved":false,"is_disabled":false,"rental_uris":{"android":"levelo://app?vid=9cda7071-0b99-4f13-a66f-99ee8455accb","ios":"levelo://app?vid=9cda7071-0b99-4f13-a66f-99ee8455accb"},"vehicle_type_id":"4","last_reported":1705439210,"current_range_meters":21600,"station_id":"ce4bhs92rcd13ifvqi0g","pricing_plan_id":"free"},{"bike_id":"641739e6-19de-47df-9491-35da26c3c9da","system_id":"levelo_inurba_marseille","lat":43.328371,"lon":5.366909,"is_reserved":false,"is_disabled":false,"rental_uris":{"android":"levelo://app?vid=641739e6-19de-47df-9491-35da26c3c9da","ios":"levelo://app?vid=641739e6-19de-47df-9491-35da26c3c9da"},"vehicle_type_id":"4","last_reported":1705439210,"current_range_meters":5200,"station_id":"ce4bhs92rcd13ifvqi0g","pricing_plan_id":"free"},{"bike_id":"db79623b-2d08-46cb-b464-e412386772a7","system_id":"levelo_inurba_marseille","lat":43.32832,"lon":5.36687,"is_reserved":false,"is_disabled":false,"rental_uris":{"android":"levelo://app?vid=db79623b-2d08-46cb-b464-e412386772a7","ios":"levelo://app?vid=db79623b-2d08-46cb-b464-e412386772a7"},"vehicle_type_id":"4","last_reported":1705439210,"current_range_meters":31200,"station_id":"ce4bhs92rcd13ifvqi0g","pricing_plan_id":"free"},{"bike_id":"1782ad4d-7cbc-4ac0-af82-b65688e9d34c","system_id":"levelo_inurba_marseille","lat":43.32834,"lon":5.36676,"is_reserved":false,"is_disabled":false,"rental_uris":{"android":"levelo://app?vid=1782ad4d-7cbc-4ac0-af82-b65688e9d34c","ios":"levelo://app?vid=1782ad4d-7cbc-4ac0-af82-b65688e9d34c"},"vehicle_type_id":"4","last_reported":1705439210,"current_range_meters":28800,"station_id":"ce4bhs92rcd13ifvqi0g","pricing_plan_id":"free"},{"bike_id":"88638e12-da12-4596-b7e2-600ab2f62219","system_id":"levelo_inurba_marseille","lat":43.32835,"lon":5.366747,"is_reserved":false,"is_disabled":false,"rental_uris":{"android":"levelo://app?vid=88638e12-da12-4596-b7e2-600ab2f62219","ios":"levelo://app?vid=88638e12-da12-4596-b7e2-600ab2f62219"},"vehicle_type_id":"4","last_reported":1705439210,"current_range_meters":13600,"station_id":"ce4bhs92rcd13ifvqi0g","pricing_plan_id":"free"},{"bike_id":"38082c03-fac1-44d3-a79f-5142b4a113a9","system_id":"levelo_inurba_marseille","lat":43.328373,"lon":5.366902,"is_reserved":false,"is_disabled":false,"rental_uris":{"android":"levelo://app?vid=38082c03-fac1-44d3-a79f-5142b4a113a9","ios":"levelo://app?vid=38082c03-fac1-44d3-a79f-5142b4a113a9"},"vehicle_type_id":"4","last_reported":1705439210,"current_range_meters":26400,"station_id":"ce4bhs92rcd13ifvqi0g","pricing_plan_id":"free"},{"bike_id":"2b663035-f36a-41e0-9f1f-b9beb7d577bf","system_id":"levelo_inurba_marseille","lat":43.32838,"lon":5.36681,"is_reserved":false,"is_disabled":false,"rental_uris":{"android":"levelo://app?vid=2b663035-f36a-41e0-9f1f-b9beb7d577bf","ios":"levelo://app?vid=2b663035-f36a-41e0-9f1f-b9beb7d577bf"},"vehicle_type_id":"4","last_reported":1705439210,"current_range_meters":20800,"station_id":"ce4bhs92rcd13ifvqi0g","pricing_plan_id":"free"},{"bike_id":"d91bc121-ba03-4a79-af47-a3f48344b0c9","system_id":"levelo_inurba_marseille","lat":43.29594,"lon":5.3679,"is_reserved":false,"is_disabled":false,"rental_uris":{"android":"levelo://app?vid=d91bc121-ba03-4a79-af47-a3f48344b0c9","ios":"levelo://app?vid=d91bc121-ba03-4a79-af47-a3f48344b0c9"},"vehicle_type_id":"4","last_reported":1705439210,"current_range_meters":23600,"station_id":"ce4bgph2rcd13ifvqc2g","pricing_plan_id":"free"},{"bike_id":"42f130fe-9d4b-450c-ada6-1a3d4cfb91fc","system_id":"levelo_inurba_marseille","lat":43.29573,"lon":5.367355,"is_reserved":false,"is_disabled":false,"rental_uris":{"android":"levelo://app?vid=42f130fe-9d4b-450c-ada6-1a3d4cfb91fc","ios":"levelo://app?vid=42f130fe-9d4b-450c-ada6-1a3d4cfb91fc"},"vehicle_type_id":"4","last_reported":1705439210,"current_range_meters":0,"station_id":"ce4bgph2rcd13ifvqc2g","pricing_plan_id":"free"},{"bike_id":"5ce4947f-be27-46da-b8d7-0257a1577151","system_id":"levelo_inurba_marseille","lat":43.309589,"lon":5.390258,"is_reserved":false,"is_disabled":false,"rental_uris":{"android":"levelo://app?vid=5ce4947f-be27-46da-b8d7-0257a1577151","ios":"levelo://app?vid=5ce4947f-be27-46da-b8d7-0257a1577151"},"vehicle_type_id":"4","last_reported":1705439210,"current_range_meters":27600,"station_id":"ce4bgup2rcd13ifvqco0","pricing_plan_id":"free"},{"bike_id":"dec9af05-3341-4728-8611-946f1c39a499","system_id":"levelo_inurba_marseille","lat":43.296935,"lon":5.376544,"is_reserved":false,"is_disabled":false,"rental_uris":{"android":"levelo://app?vid=dec9af05-3341-4728-8611-946f1c39a499","ios":"levelo://app?vid=dec9af05-3341-4728-8611-946f1c39a499"},"vehicle_type_id":"4","last_reported":1705439210,"current_range_meters":4800,"station_id":"ce4bgkh2rcd13ifvqbl0","pricing_plan_id":"free"},{"bike_id":"dbf135cb-cc3a-4b78-bad9-9dec16dc962a","system_id":"levelo_inurba_marseille","lat":43.298037,"lon":5.381066,"is_reserved":false,"is_disabled":false,"rental_uris":{"android":"levelo://app?vid=dbf135cb-cc3a-4b78-bad9-9dec16dc962a","ios":"levelo://app?vid=dbf135cb-cc3a-4b78-bad9-9dec16dc962a"},"vehicle_type_id":"4","last_reported":1705439210,"current_range_meters":11200,"station_id":"ce4bgip2rcd13ifvqbb0","pricing_plan_id":"free"},{"bike_id":"e75ebbfc-3133-4fbd-bebc-736b7cfec812","system_id":"levelo_inurba_marseille","lat":43.29579,"lon":5.37504,"is_reserved":false,"is_disabled":false,"rental_uris":{"android":"levelo://app?vid=e75ebbfc-3133-4fbd-bebc-736b7cfec812","ios":"levelo://app?vid=e75ebbfc-3133-4fbd-bebc-736b7cfec812"},"vehicle_type_id":"4","last_reported":1705439210,"current_range_meters":0,"station_id":"ce4bgh92rcd13ifvqb50","pricing_plan_id":"free"},{"bike_id":"a43dedbb-3ee6-4106-838f-fbceff00fa54","system_id":"levelo_inurba_marseille","lat":43.304274,"lon":5.388873,"is_reserved":false,"is_disabled":false,"rental_uris":{"android":"levelo://app?vid=a43dedbb-3ee6-4106-838f-fbceff00fa54","ios":"levelo://app?vid=a43dedbb-3ee6-4106-838f-fbceff00fa54"},"vehicle_type_id":"4","last_reported":1705439210,"current_range_meters":8400,"station_id":"ce4bgk12rcd13ifvqbi0","pricing_plan_id":"free"},{"bike_id":"60c47ae0-1da0-4409-b44e-02ff22fb9d5b","system_id":"levelo_inurba_marseille","lat":43.29789,"lon":5.38094,"is_reserved":false,"is_disabled":false,"rental_uris":{"android":"levelo://app?vid=60c47ae0-1da0-4409-b44e-02ff22fb9d5b","ios":"levelo://app?vid=60c47ae0-1da0-4409-b44e-02ff22fb9d5b"},"vehicle_type_id":"4","last_reported":1705439210,"current_range_meters":0,"station_id":"ce4bgip2rcd13ifvqbb0","pricing_plan_id":"free"},{"bike_id":"4c77978b-4e88-40c2-b3fc-83aaefb4edc7","system_id":"levelo_inurba_marseille","lat":43.304278,"lon":5.388868,"is_reserved":false,"is_disabled":false,"rental_uris":{"android":"levelo://app?vid=4c77978b-4e88-40c2-b3fc-83aaefb4edc7","ios":"levelo://app?vid=4c77978b-4e88-40c2-b3fc-83aaefb4edc7"},"vehicle_type_id":"4","last_reported":1705439210,"current_range_meters":19600,"station_id":"ce4bgk12rcd13ifvqbi0","pricing_plan_id":"free"},{"bike_id":"572bb3b3-ae24-4c07-a9f1-47c731453b3d","system_id":"levelo_inurba_marseille","lat":43.304278,"lon":5.388868,"is_reserved":false,"is_disabled":false,"rental_uris":{"android":"levelo://app?vid=572bb3b3-ae24-4c07-a9f1-47c731453b3d","ios":"levelo://app?vid=572bb3b3-ae24-4c07-a9f1-47c731453b3d"},"vehicle_type_id":"4","last_reported":1705439210,"current_range_meters":12400,"station_id":"ce4bgk12rcd13ifvqbi0","pricing_plan_id":"free"},{"bike_id":"09cd9af3-b417-4fbd-abd8-76b9b319b221","system_id":"levelo_inurba_marseille","lat":43.295748,"lon":5.37522,"is_reserved":false,"is_disabled":false,"rental_uris":{"android":"levelo://app?vid=09cd9af3-b417-4fbd-abd8-76b9b319b221","ios":"levelo://app?vid=09cd9af3-b417-4fbd-abd8-76b9b319b221"},"vehicle_type_id":"4","last_reported":1705439210,"current_range_meters":0,"station_id":"ce4bgh92rcd13ifvqb50","pricing_plan_id":"free"},{"bike_id":"0d6fe852-f320-48b3-bcea-1c15908df5c8","system_id":"levelo_inurba_marseille","lat":43.301117,"lon":5.398795,"is_reserved":false,"is_disabled":false,"rental_uris":{"android":"levelo://app?vid=0d6fe852-f320-48b3-bcea-1c15908df5c8","ios":"levelo://app?vid=0d6fe852-f320-48b3-bcea-1c15908df5c8"},"vehicle_type_id":"4","last_reported":1705439210,"current_range_meters":14000,"station_id":"ce4bh0h2rcd13ifvqd40","pricing_plan_id":"free"},{"bike_id":"61a4e093-2208-48e3-965e-8b45b96a48f7","system_id":"levelo_inurba_marseille","lat":43.29534,"lon":5.375,"is_reserved":false,"is_disabled":false,"rental_uris":{"android":"levelo://app?vid=61a4e093-2208-48e3-965e-8b45b96a48f7","ios":"levelo://app?vid=61a4e093-2208-48e3-965e-8b45b96a48f7"},"vehicle_type_id":"4","last_reported":1705439210,"current_range_meters":29200,"station_id":"ce4bgkp2rcd13ifvqbmg","pricing_plan_id":"free"},{"bike_id":"5d07a022-5c54-4267-a842-31315244e8a0","system_id":"levelo_inurba_marseille","lat":43.2953,"lon":5.37493,"is_reserved":false,"is_disabled":false,"rental_uris":{"android":"levelo://app?vid=5d07a022-5c54-4267-a842-31315244e8a0","ios":"levelo://app?vid=5d07a022-5c54-4267-a842-31315244e8a0"},"vehicle_type_id":"4","last_reported":1705439210,"current_range_meters":2000,"station_id":"ce4bgkp2rcd13ifvqbmg","pricing_plan_id":"free"},{"bike_id":"ae816877-1bc1-4b7b-b435-509a2e67dc6e","system_id":"levelo_inurba_marseille","lat":43.299717,"lon":5.384845,"is_reserved":false,"is_disabled":false,"rental_uris":{"android":"levelo://app?vid=ae816877-1bc1-4b7b-b435-509a2e67dc6e","ios":"levelo://app?vid=ae816877-1bc1-4b7b-b435-509a2e67dc6e"},"vehicle_type_id":"4","last_reported":1705439210,"current_range_meters":30000,"station_id":"ce4bgj92rcd13ifvqbd0","pricing_plan_id":"free"},{"bike_id":"e429cfb0-2508-4a09-8147-c75942bd46b6","system_id":"levelo_inurba_marseille","lat":43.299724,"lon":5.384848,"is_reserved":false,"is_disabled":false,"rental_uris":{"android":"levelo://app?vid=e429cfb0-2508-4a09-8147-c75942bd46b6","ios":"levelo://app?vid=e429cfb0-2508-4a09-8147-c75942bd46b6"},"vehicle_type_id":"4","last_reported":1705439210,"current_range_meters":9600,"station_id":"ce4bgj92rcd13ifvqbd0","pricing_plan_id":"free"},{"bike_id":"068bf126-c384-42bd-bc73-0dea2bf663be","system_id":"levelo_inurba_marseille","lat":43.299724,"lon":5.384848,"is_reserved":false,"is_disabled":false,"rental_uris":{"android":"levelo://app?vid=068bf126-c384-42bd-bc73-0dea2bf663be","ios":"levelo://app?vid=068bf126-c384-42bd-bc73-0dea2bf663be"},"vehicle_type_id":"4","last_reported":1705439210,"current_range_meters":5600,"station_id":"ce4bgj92rcd13ifvqbd0","pricing_plan_id":"free"},{"bike_id":"a4eeb908-619b-47fe-8e5b-c4c9538b360a","system_id":"levelo_inurba_marseille","lat":43.32364,"lon":5.38879,"is_reserved":false,"is_disabled":false,"rental_uris":{"android":"levelo://app?vid=a4eeb908-619b-47fe-8e5b-c4c9538b360a","ios":"levelo://app?vid=a4eeb908-619b-47fe-8e5b-c4c9538b360a"},"vehicle_type_id":"4","last_reported":1705439210,"current_range_meters":12800,"station_id":"ce4bhqp2rcd13ifvqhog","pricing_plan_id":"free"},{"bike_id":"33788cc1-a778-45f8-be13-0999bc971653","system_id":"levelo_inurba_marseille","lat":43.323648,"lon":5.388798,"is_reserved":false,"is_disabled":false,"rental_uris":{"android":"levelo://app?vid=33788cc1-a778-45f8-be13-0999bc971653","ios":"levelo://app?vid=33788cc1-a778-45f8-be13-0999bc971653"},"vehicle_type_id":"4","last_reported":1705439210,"current_range_meters":28000,"station_id":"ce4bhqp2rcd13ifvqhog","pricing_plan_id":"free"},{"bike_id":"4e1e9b11-3c6c-41ca-93a2-a6773594a990","system_id":"levelo_inurba_marseille","lat":43.32367,"lon":5.388836,"is_reserved":false,"is_disabled":false,"rental_uris":{"android":"levelo://app?vid=4e1e9b11-3c6c-41ca-93a2-a6773594a990","ios":"levelo://app?vid=4e1e9b11-3c6c-41ca-93a2-a6773594a990"},"vehicle_type_id":"4","last_reported":1705439210,"current_range_meters":1600,"station_id":"ce4bhqp2rcd13ifvqhog","pricing_plan_id":"free"},{"bike_id":"ae329723-b6cd-4f52-99af-83cccf370dd2","system_id":"levelo_inurba_marseille","lat":43.32367,"lon":5.388836,"is_reserved":false,"is_disabled":false,"rental_uris":{"android":"levelo://app?vid=ae329723-b6cd-4f52-99af-83cccf370dd2","ios":"levelo://app?vid=ae329723-b6cd-4f52-99af-83cccf370dd2"},"vehicle_type_id":"4","last_reported":1705439210,"current_range_meters":14400,"station_id":"ce4bhqp2rcd13ifvqhog","pricing_plan_id":"free"},{"bike_id":"4ed8488a-f05c-4119-bfec-f892cce04e14","system_id":"levelo_inurba_marseille","lat":43.323664,"lon":5.388837,"is_reserved":false,"is_disabled":false,"rental_uris":{"android":"levelo://app?vid=4ed8488a-f05c-4119-bfec-f892cce04e14","ios":"levelo://app?vid=4ed8488a-f05c-4119-bfec-f892cce04e14"},"vehicle_type_id":"4","last_reported":1705439210,"current_range_meters":2800,"station_id":"ce4bhqp2rcd13ifvqhog","pricing_plan_id":"free"},{"bike_id":"93a7541d-594c-4713-9c37-84d0b76dd655","system_id":"levelo_inurba_marseille","lat":43.3237,"lon":5.38881,"is_reserved":false,"is_disabled":false,"rental_uris":{"android":"levelo://app?vid=93a7541d-594c-4713-9c37-84d0b76dd655","ios":"levelo://app?vid=93a7541d-594c-4713-9c37-84d0b76dd655"},"vehicle_type_id":"4","last_reported":1705439210,"current_range_meters":22800,"station_id":"ce4bhqp2rcd13ifvqhog","pricing_plan_id":"free"},{"bike_id":"48d01839-1c06-4604-a1d2-ae1f8bd3df35","system_id":"levelo_inurba_marseille","lat":43.32367,"lon":5.388836,"is_reserved":false,"is_disabled":false,"rental_uris":{"android":"levelo://app?vid=48d01839-1c06-4604-a1d2-ae1f8bd3df35","ios":"levelo://app?vid=48d01839-1c06-4604-a1d2-ae1f8bd3df35"},"vehicle_type_id":"4","last_reported":1705439210,"current_range_meters":19200,"station_id":"ce4bhqp2rcd13ifvqhog","pricing_plan_id":"free"},{"bike_id":"2ec4001f-5cf2-4614-bbfc-ffc6c5b765c3","system_id":"levelo_inurba_marseille","lat":43.323664,"lon":5.388896,"is_reserved":false,"is_disabled":false,"rental_uris":{"android":"levelo://app?vid=2ec4001f-5cf2-4614-bbfc-ffc6c5b765c3","ios":"levelo://app?vid=2ec4001f-5cf2-4614-bbfc-ffc6c5b765c3"},"vehicle_type_id":"4","last_reported":1705439210,"current_range_meters":27600,"station_id":"ce4bhqp2rcd13ifvqhog","pricing_plan_id":"free"},{"bike_id":"65200528-92c8-43dc-a28c-65f22643d5f6","system_id":"levelo_inurba_marseille","lat":43.323674,"lon":5.388889,"is_reserved":false,"is_disabled":false,"rental_uris":{"android":"levelo://app?vid=65200528-92c8-43dc-a28c-65f22643d5f6","ios":"levelo://app?vid=65200528-92c8-43dc-a28c-65f22643d5f6"},"vehicle_type_id":"4","last_reported":1705439210,"current_range_meters":14000,"station_id":"ce4bhqp2rcd13ifvqhog","pricing_plan_id":"free"},{"bike_id":"b7beb6a5-b030-4fe2-a25b-ee6b5b88bebb","system_id":"levelo_inurba_marseille","lat":43.32372,"lon":5.38888,"is_reserved":false,"is_disabled":false,"rental_uris":{"android":"levelo://app?vid=b7beb6a5-b030-4fe2-a25b-ee6b5b88bebb","ios":"levelo://app?vid=b7beb6a5-b030-4fe2-a25b-ee6b5b88bebb"},"vehicle_type_id":"4","last_reported":1705439210,"current_range_meters":1600,"station_id":"ce4bhqp2rcd13ifvqhog","pricing_plan_id":"free"},{"bike_id":"444ba56e-94fd-4262-b990-7f040be82025","system_id":"levelo_inurba_marseille","lat":43.29602,"lon":5.381084,"is_reserved":false,"is_disabled":false,"rental_uris":{"android":"levelo://app?vid=444ba56e-94fd-4262-b990-7f040be82025","ios":"levelo://app?vid=444ba56e-94fd-4262-b990-7f040be82025"},"vehicle_type_id":"4","last_reported":1705439210,"current_range_meters":18400,"station_id":"ce4bgl12rcd13ifvqbo0","pricing_plan_id":"free"},{"bike_id":"83ab4445-a228-44df-b2c4-0fbe1cd3d0c5","system_id":"levelo_inurba_marseille","lat":43.296023,"lon":5.38099,"is_reserved":false,"is_disabled":false,"rental_uris":{"android":"levelo://app?vid=83ab4445-a228-44df-b2c4-0fbe1cd3d0c5","ios":"levelo://app?vid=83ab4445-a228-44df-b2c4-0fbe1cd3d0c5"},"vehicle_type_id":"4","last_reported":1705439210,"current_range_meters":12800,"station_id":"ce4bgl12rcd13ifvqbo0","pricing_plan_id":"free"},{"bike_id":"77d299e6-e6a7-4803-adf1-92340e51cd61","system_id":"levelo_inurba_marseille","lat":43.29602,"lon":5.381084,"is_reserved":false,"is_disabled":false,"rental_uris":{"android":"levelo://app?vid=77d299e6-e6a7-4803-adf1-92340e51cd61","ios":"levelo://app?vid=77d299e6-e6a7-4803-adf1-92340e51cd61"},"vehicle_type_id":"4","last_reported":1705439210,"current_range_meters":23600,"station_id":"ce4bgl12rcd13ifvqbo0","pricing_plan_id":"free"},{"bike_id":"3c163dcc-d5d4-445a-ae02-2a908792ae93","system_id":"levelo_inurba_marseille","lat":43.29308,"lon":5.37173,"is_reserved":false,"is_disabled":false,"rental_uris":{"android":"levelo://app?vid=3c163dcc-d5d4-445a-ae02-2a908792ae93","ios":"levelo://app?vid=3c163dcc-d5d4-445a-ae02-2a908792ae93"},"vehicle_type_id":"4","last_reported":1705439210,"current_range_meters":0,"station_id":"ce4bgh92rcd13ifvqb40","pricing_plan_id":"free"},{"bike_id":"9ad45b77-630e-499b-af62-44acb9e62b70","system_id":"levelo_inurba_marseille","lat":43.292749,"lon":5.368402,"is_reserved":false,"is_disabled":false,"rental_uris":{"android":"levelo://app?vid=9ad45b77-630e-499b-af62-44acb9e62b70","ios":"levelo://app?vid=9ad45b77-630e-499b-af62-44acb9e62b70"},"vehicle_type_id":"4","last_reported":1705439210,"current_range_meters":800,"station_id":"ce4bhbp2rcd13ifvqesg","pricing_plan_id":"free"},{"bike_id":"784ee925-7486-4b3d-888f-7fbbe7560338","system_id":"levelo_inurba_marseille","lat":43.293259,"lon":5.371586,"is_reserved":false,"is_disabled":false,"rental_uris":{"android":"levelo://app?vid=784ee925-7486-4b3d-888f-7fbbe7560338","ios":"levelo://app?vid=784ee925-7486-4b3d-888f-7fbbe7560338"},"vehicle_type_id":"4","last_reported":1705439210,"current_range_meters":21200,"station_id":"ce4bgh92rcd13ifvqb40","pricing_plan_id":"free"},{"bike_id":"53690c36-3da0-41f7-9a06-7382477a78fe","system_id":"levelo_inurba_marseille","lat":43.302992,"lon":5.392136,"is_reserved":false,"is_disabled":false,"rental_uris":{"android":"levelo://app?vid=53690c36-3da0-41f7-9a06-7382477a78fe","ios":"levelo://app?vid=53690c36-3da0-41f7-9a06-7382477a78fe"},"vehicle_type_id":"4","last_reported":1705439210,"current_range_meters":12000,"station_id":"ce4bgkh2rcd13ifvqbk0","pricing_plan_id":"free"},{"bike_id":"55d641e9-c29c-4fce-95d0-62b73fb747fb","system_id":"levelo_inurba_marseille","lat":43.2936,"lon":5.37835,"is_reserved":false,"is_disabled":false,"rental_uris":{"android":"levelo://app?vid=55d641e9-c29c-4fce-95d0-62b73fb747fb","ios":"levelo://app?vid=55d641e9-c29c-4fce-95d0-62b73fb747fb"},"vehicle_type_id":"4","last_reported":1705439210,"current_range_meters":26400,"station_id":"ce4bgjh2rcd13ifvqbf0","pricing_plan_id":"free"},{"bike_id":"c2dc5c82-bfc0-44f5-a6d5-ab43aabf9cba","system_id":"levelo_inurba_marseille","lat":43.30085,"lon":5.390856,"is_reserved":false,"is_disabled":false,"rental_uris":{"android":"levelo://app?vid=c2dc5c82-bfc0-44f5-a6d5-ab43aabf9cba","ios":"levelo://app?vid=c2dc5c82-bfc0-44f5-a6d5-ab43aabf9cba"},"vehicle_type_id":"4","last_reported":1705439210,"current_range_meters":26000,"station_id":"ce4bh192rcd13ifvqdb0","pricing_plan_id":"free"},{"bike_id":"c85a0f41-c307-4c40-bdaa-07b162170895","system_id":"levelo_inurba_marseille","lat":43.30085,"lon":5.390856,"is_reserved":false,"is_disabled":false,"rental_uris":{"android":"levelo://app?vid=c85a0f41-c307-4c40-bdaa-07b162170895","ios":"levelo://app?vid=c85a0f41-c307-4c40-bdaa-07b162170895"},"vehicle_type_id":"4","last_reported":1705439210,"current_range_meters":22800,"station_id":"ce4bh192rcd13ifvqdb0","pricing_plan_id":"free"},{"bike_id":"27e90322-af52-4f6c-b749-7e4fb42ea08d","system_id":"levelo_inurba_marseille","lat":43.300852,"lon":5.390859,"is_reserved":false,"is_disabled":false,"rental_uris":{"android":"levelo://app?vid=27e90322-af52-4f6c-b749-7e4fb42ea08d","ios":"levelo://app?vid=27e90322-af52-4f6c-b749-7e4fb42ea08d"},"vehicle_type_id":"4","last_reported":1705439210,"current_range_meters":2400,"station_id":"ce4bh192rcd13ifvqdb0","pricing_plan_id":"free"},{"bike_id":"8375cb35-49fc-4cbd-8a98-1da5fda5e313","system_id":"levelo_inurba_marseille","lat":43.298693,"lon":5.389037,"is_reserved":false,"is_disabled":false,"rental_uris":{"android":"levelo://app?vid=8375cb35-49fc-4cbd-8a98-1da5fda5e313","ios":"levelo://app?vid=8375cb35-49fc-4cbd-8a98-1da5fda5e313"},"vehicle_type_id":"4","last_reported":1705439210,"current_range_meters":11200,"station_id":"","pricing_plan_id":"free"},{"bike_id":"8ba2e180-3a9b-4b8f-b98b-99f6ac819262","system_id":"levelo_inurba_marseille","lat":43.309038,"lon":5.396546,"is_reserved":false,"is_disabled":false,"rental_uris":{"android":"levelo://app?vid=8ba2e180-3a9b-4b8f-b98b-99f6ac819262","ios":"levelo://app?vid=8ba2e180-3a9b-4b8f-b98b-99f6ac819262"},"vehicle_type_id":"4","last_reported":1705439210,"current_range_meters":0,"station_id":"ce4bh012rcd13ifvqcv0","pricing_plan_id":"free"},{"bike_id":"3c0b5e41-3dcd-45d9-9fa6-ae3b47bf37c4","system_id":"levelo_inurba_marseille","lat":43.291994,"lon":5.357886,"is_reserved":false,"is_disabled":false,"rental_uris":{"android":"levelo://app?vid=3c0b5e41-3dcd-45d9-9fa6-ae3b47bf37c4","ios":"levelo://app?vid=3c0b5e41-3dcd-45d9-9fa6-ae3b47bf37c4"},"vehicle_type_id":"4","last_reported":1705439210,"current_range_meters":19600,"station_id":"ce4bhb12rcd13ifvqel0","pricing_plan_id":"free"},{"bike_id":"19d12816-9bb0-429e-9f0a-3d3d80084153","system_id":"levelo_inurba_marseille","lat":43.309038,"lon":5.396546,"is_reserved":false,"is_disabled":false,"rental_uris":{"android":"levelo://app?vid=19d12816-9bb0-429e-9f0a-3d3d80084153","ios":"levelo://app?vid=19d12816-9bb0-429e-9f0a-3d3d80084153"},"vehicle_type_id":"4","last_reported":1705439210,"current_range_meters":26400,"station_id":"ce4bh012rcd13ifvqcv0","pricing_plan_id":"free"},{"bike_id":"c9ced1c5-9c12-4ac2-b822-25ba5aaf7eab","system_id":"levelo_inurba_marseille","lat":43.313291,"lon":5.396838,"is_reserved":false,"is_disabled":false,"rental_uris":{"android":"levelo://app?vid=c9ced1c5-9c12-4ac2-b822-25ba5aaf7eab","ios":"levelo://app?vid=c9ced1c5-9c12-4ac2-b822-25ba5aaf7eab"},"vehicle_type_id":"4","last_reported":1705439210,"current_range_meters":30000,"station_id":"ce4bgvp2rcd13ifvqcu0","pricing_plan_id":"free"},{"bike_id":"e4533126-6a51-4285-879d-7645d65234f6","system_id":"levelo_inurba_marseille","lat":43.291994,"lon":5.357886,"is_reserved":false,"is_disabled":false,"rental_uris":{"android":"levelo://app?vid=e4533126-6a51-4285-879d-7645d65234f6","ios":"levelo://app?vid=e4533126-6a51-4285-879d-7645d65234f6"},"vehicle_type_id":"4","last_reported":1705439210,"current_range_meters":28000,"station_id":"ce4bhb12rcd13ifvqel0","pricing_plan_id":"free"},{"bike_id":"f228ecbf-e691-4177-aeb0-0bae86b66cfb","system_id":"levelo_inurba_marseille","lat":43.313291,"lon":5.396838,"is_reserved":false,"is_disabled":false,"rental_uris":{"android":"levelo://app?vid=f228ecbf-e691-4177-aeb0-0bae86b66cfb","ios":"levelo://app?vid=f228ecbf-e691-4177-aeb0-0bae86b66cfb"},"vehicle_type_id":"4","last_reported":1705439210,"current_range_meters":12400,"station_id":"ce4bgvp2rcd13ifvqcu0","pricing_plan_id":"free"},{"bike_id":"5569cbd2-9bf2-4393-88a0-1e989251ac62","system_id":"levelo_inurba_marseille","lat":43.309047,"lon":5.396551,"is_reserved":false,"is_disabled":false,"rental_uris":{"android":"levelo://app?vid=5569cbd2-9bf2-4393-88a0-1e989251ac62","ios":"levelo://app?vid=5569cbd2-9bf2-4393-88a0-1e989251ac62"},"vehicle_type_id":"4","last_reported":1705439210,"current_range_meters":15600,"station_id":"ce4bh012rcd13ifvqcv0","pricing_plan_id":"free"},{"bike_id":"0fd8de78-b461-42d7-8983-47bd6bb2ea65","system_id":"levelo_inurba_marseille","lat":43.309038,"lon":5.396546,"is_reserved":false,"is_disabled":false,"rental_uris":{"android":"levelo://app?vid=0fd8de78-b461-42d7-8983-47bd6bb2ea65","ios":"levelo://app?vid=0fd8de78-b461-42d7-8983-47bd6bb2ea65"},"vehicle_type_id":"4","last_reported":1705439210,"current_range_meters":19200,"station_id":"ce4bh012rcd13ifvqcv0","pricing_plan_id":"free"},{"bike_id":"e503c6b0-b41c-49c4-88bb-9893af467514","system_id":"levelo_inurba_marseille","lat":43.309038,"lon":5.396546,"is_reserved":false,"is_disabled":false,"rental_uris":{"android":"levelo://app?vid=e503c6b0-b41c-49c4-88bb-9893af467514","ios":"levelo://app?vid=e503c6b0-b41c-49c4-88bb-9893af467514"},"vehicle_type_id":"4","last_reported":1705439210,"current_range_meters":19200,"station_id":"ce4bh012rcd13ifvqcv0","pricing_plan_id":"free"},{"bike_id":"d8335853-02f9-43e8-ab4d-d29a8e7121a1","system_id":"levelo_inurba_marseille","lat":43.309038,"lon":5.396546,"is_reserved":false,"is_disabled":false,"rental_uris":{"android":"levelo://app?vid=d8335853-02f9-43e8-ab4d-d29a8e7121a1","ios":"levelo://app?vid=d8335853-02f9-43e8-ab4d-d29a8e7121a1"},"vehicle_type_id":"4","last_reported":1705439210,"current_range_meters":3600,"station_id":"ce4bh012rcd13ifvqcv0","pricing_plan_id":"free"},{"bike_id":"6a88a36b-a047-4aba-9ece-6a2b5ee01870","system_id":"levelo_inurba_marseille","lat":43.309038,"lon":5.396546,"is_reserved":false,"is_disabled":false,"rental_uris":{"android":"levelo://app?vid=6a88a36b-a047-4aba-9ece-6a2b5ee01870","ios":"levelo://app?vid=6a88a36b-a047-4aba-9ece-6a2b5ee01870"},"vehicle_type_id":"4","last_reported":1705439210,"current_range_meters":25200,"station_id":"ce4bh012rcd13ifvqcv0","pricing_plan_id":"free"},{"bike_id":"b91ca71f-9878-4d2a-bbce-a2f84d2f8271","system_id":"levelo_inurba_marseille","lat":43.309047,"lon":5.396551,"is_reserved":false,"is_disabled":false,"rental_uris":{"android":"levelo://app?vid=b91ca71f-9878-4d2a-bbce-a2f84d2f8271","ios":"levelo://app?vid=b91ca71f-9878-4d2a-bbce-a2f84d2f8271"},"vehicle_type_id":"4","last_reported":1705439210,"current_range_meters":26400,"station_id":"ce4bh012rcd13ifvqcv0","pricing_plan_id":"free"},{"bike_id":"3e8f06e3-abf6-4bdf-a2f8-54723274d7a3","system_id":"levelo_inurba_marseille","lat":43.29529,"lon":5.385581,"is_reserved":false,"is_disabled":false,"rental_uris":{"android":"levelo://app?vid=3e8f06e3-abf6-4bdf-a2f8-54723274d7a3","ios":"levelo://app?vid=3e8f06e3-abf6-4bdf-a2f8-54723274d7a3"},"vehicle_type_id":"4","last_reported":1705439210,"current_range_meters":20800,"station_id":"ce4bgih2rcd13ifvqba0","pricing_plan_id":"free"},{"bike_id":"947affd4-4ffa-46e6-8cf5-cef7a0410c3f","system_id":"levelo_inurba_marseille","lat":43.309038,"lon":5.396546,"is_reserved":false,"is_disabled":false,"rental_uris":{"android":"levelo://app?vid=947affd4-4ffa-46e6-8cf5-cef7a0410c3f","ios":"levelo://app?vid=947affd4-4ffa-46e6-8cf5-cef7a0410c3f"},"vehicle_type_id":"4","last_reported":1705439210,"current_range_meters":21200,"station_id":"ce4bh012rcd13ifvqcv0","pricing_plan_id":"free"},{"bike_id":"b22d8170-d155-4c28-8312-1c4ebd1f4383","system_id":"levelo_inurba_marseille","lat":43.29529,"lon":5.385581,"is_reserved":false,"is_disabled":false,"rental_uris":{"android":"levelo://app?vid=b22d8170-d155-4c28-8312-1c4ebd1f4383","ios":"levelo://app?vid=b22d8170-d155-4c28-8312-1c4ebd1f4383"},"vehicle_type_id":"4","last_reported":1705439210,"current_range_meters":0,"station_id":"ce4bgih2rcd13ifvqba0","pricing_plan_id":"free"},{"bike_id":"3c09d25c-dc8f-4a2e-a952-8c805d8b12dc","system_id":"levelo_inurba_marseille","lat":43.302008,"lon":5.394694,"is_reserved":false,"is_disabled":false,"rental_uris":{"android":"levelo://app?vid=3c09d25c-dc8f-4a2e-a952-8c805d8b12dc","ios":"levelo://app?vid=3c09d25c-dc8f-4a2e-a952-8c805d8b12dc"},"vehicle_type_id":"4","last_reported":1705439210,"current_range_meters":0,"station_id":"ce4bh0p2rcd13ifvqd70","pricing_plan_id":"free"},{"bike_id":"30c16a15-5173-41a7-b2ab-ce8a9d167fb7","system_id":"levelo_inurba_marseille","lat":43.302008,"lon":5.394694,"is_reserved":false,"is_disabled":false,"rental_uris":{"android":"levelo://app?vid=30c16a15-5173-41a7-b2ab-ce8a9d167fb7","ios":"levelo://app?vid=30c16a15-5173-41a7-b2ab-ce8a9d167fb7"},"vehicle_type_id":"4","last_reported":1705439210,"current_range_meters":0,"station_id":"ce4bh0p2rcd13ifvqd70","pricing_plan_id":"free"},{"bike_id":"d045783d-eed0-47bf-b22a-0355f72c3b5f","system_id":"levelo_inurba_marseille","lat":43.302008,"lon":5.394694,"is_reserved":false,"is_disabled":false,"rental_uris":{"android":"levelo://app?vid=d045783d-eed0-47bf-b22a-0355f72c3b5f","ios":"levelo://app?vid=d045783d-eed0-47bf-b22a-0355f72c3b5f"},"vehicle_type_id":"4","last_reported":1705439210,"current_range_meters":15200,"station_id":"ce4bh0p2rcd13ifvqd70","pricing_plan_id":"free"},{"bike_id":"c739af84-65d9-4eb6-b353-96f961548a3c","system_id":"levelo_inurba_marseille","lat":43.302008,"lon":5.394694,"is_reserved":false,"is_disabled":false,"rental_uris":{"android":"levelo://app?vid=c739af84-65d9-4eb6-b353-96f961548a3c","ios":"levelo://app?vid=c739af84-65d9-4eb6-b353-96f961548a3c"},"vehicle_type_id":"4","last_reported":1705439210,"current_range_meters":11600,"station_id":"ce4bh0p2rcd13ifvqd70","pricing_plan_id":"free"},{"bike_id":"2d209de3-8192-4655-99c7-5161288498b4","system_id":"levelo_inurba_marseille","lat":43.290469,"lon":5.359199,"is_reserved":false,"is_disabled":false,"rental_uris":{"android":"levelo://app?vid=2d209de3-8192-4655-99c7-5161288498b4","ios":"levelo://app?vid=2d209de3-8192-4655-99c7-5161288498b4"},"vehicle_type_id":"4","last_reported":1705439210,"current_range_meters":29200,"station_id":"ce4bha92rcd13ifvqeg0","pricing_plan_id":"free"},{"bike_id":"9eb95b87-b2cf-4590-a50d-1e55140a3a72","system_id":"levelo_inurba_marseille","lat":43.290631,"lon":5.359244,"is_reserved":false,"is_disabled":false,"rental_uris":{"android":"levelo://app?vid=9eb95b87-b2cf-4590-a50d-1e55140a3a72","ios":"levelo://app?vid=9eb95b87-b2cf-4590-a50d-1e55140a3a72"},"vehicle_type_id":"4","last_reported":1705439210,"current_range_meters":30400,"station_id":"ce4bha92rcd13ifvqeg0","pricing_plan_id":"free"},{"bike_id":"ad0b7107-ce4b-4397-9ce9-6692d83486ee","system_id":"levelo_inurba_marseille","lat":43.290327,"lon":5.375711,"is_reserved":false,"is_disabled":false,"rental_uris":{"android":"levelo://app?vid=ad0b7107-ce4b-4397-9ce9-6692d83486ee","ios":"levelo://app?vid=ad0b7107-ce4b-4397-9ce9-6692d83486ee"},"vehicle_type_id":"4","last_reported":1705439210,"current_range_meters":30800,"station_id":"ce4bh692rcd13ifvqe90","pricing_plan_id":"free"},{"bike_id":"aea63ac9-289f-483b-bbdd-c26be86f0e5a","system_id":"levelo_inurba_marseille","lat":43.29428,"lon":5.38623,"is_reserved":false,"is_disabled":false,"rental_uris":{"android":"levelo://app?vid=aea63ac9-289f-483b-bbdd-c26be86f0e5a","ios":"levelo://app?vid=aea63ac9-289f-483b-bbdd-c26be86f0e5a"},"vehicle_type_id":"4","last_reported":1705439210,"current_range_meters":0,"station_id":"ce4bh2h2rcd13ifvqdh0","pricing_plan_id":"free"},{"bike_id":"e9e8393b-23b0-49f8-a1b0-d5cd54acf3a2","system_id":"levelo_inurba_marseille","lat":43.294153,"lon":5.386305,"is_reserved":false,"is_disabled":false,"rental_uris":{"android":"levelo://app?vid=e9e8393b-23b0-49f8-a1b0-d5cd54acf3a2","ios":"levelo://app?vid=e9e8393b-23b0-49f8-a1b0-d5cd54acf3a2"},"vehicle_type_id":"4","last_reported":1705439210,"current_range_meters":12800,"station_id":"ce4bh2h2rcd13ifvqdh0","pricing_plan_id":"free"},{"bike_id":"1919cf1c-62b2-47f9-9b6c-5e5d013aecc9","system_id":"levelo_inurba_marseille","lat":43.290327,"lon":5.375711,"is_reserved":false,"is_disabled":false,"rental_uris":{"android":"levelo://app?vid=1919cf1c-62b2-47f9-9b6c-5e5d013aecc9","ios":"levelo://app?vid=1919cf1c-62b2-47f9-9b6c-5e5d013aecc9"},"vehicle_type_id":"4","last_reported":1705439210,"current_range_meters":25600,"station_id":"ce4bh692rcd13ifvqe90","pricing_plan_id":"free"},{"bike_id":"f22e1aba-16cf-45c9-acee-ecd12552d534","system_id":"levelo_inurba_marseille","lat":43.294153,"lon":5.386305,"is_reserved":false,"is_disabled":false,"rental_uris":{"android":"levelo://app?vid=f22e1aba-16cf-45c9-acee-ecd12552d534","ios":"levelo://app?vid=f22e1aba-16cf-45c9-acee-ecd12552d534"},"vehicle_type_id":"4","last_reported":1705439210,"current_range_meters":24000,"station_id":"ce4bh2h2rcd13ifvqdh0","pricing_plan_id":"free"},{"bike_id":"49432989-15bf-406a-b931-9a4793d88319","system_id":"levelo_inurba_marseille","lat":43.294162,"lon":5.386292,"is_reserved":false,"is_disabled":false,"rental_uris":{"android":"levelo://app?vid=49432989-15bf-406a-b931-9a4793d88319","ios":"levelo://app?vid=49432989-15bf-406a-b931-9a4793d88319"},"vehicle_type_id":"4","last_reported":1705439210,"current_range_meters":25600,"station_id":"ce4bh2h2rcd13ifvqdh0","pricing_plan_id":"free"},{"bike_id":"a64bc397-2255-4fed-83fd-2af7e82ac02e","system_id":"levelo_inurba_marseille","lat":43.294153,"lon":5.386305,"is_reserved":false,"is_disabled":false,"rental_uris":{"android":"levelo://app?vid=a64bc397-2255-4fed-83fd-2af7e82ac02e","ios":"levelo://app?vid=a64bc397-2255-4fed-83fd-2af7e82ac02e"},"vehicle_type_id":"4","last_reported":1705439210,"current_range_meters":18400,"station_id":"ce4bh2h2rcd13ifvqdh0","pricing_plan_id":"free"},{"bike_id":"41813a54-4cf2-4103-ad29-7fdac2ee1ad5","system_id":"levelo_inurba_marseille","lat":43.289184,"lon":5.366408,"is_reserved":false,"is_disabled":false,"rental_uris":{"android":"levelo://app?vid=41813a54-4cf2-4103-ad29-7fdac2ee1ad5","ios":"levelo://app?vid=41813a54-4cf2-4103-ad29-7fdac2ee1ad5"},"vehicle_type_id":"4","last_reported":1705439210,"current_range_meters":19200,"station_id":"ce4bhap2rcd13ifvqek0","pricing_plan_id":"free"},{"bike_id":"aa8e78c8-a174-4214-afcb-0868cc80bdf2","system_id":"levelo_inurba_marseille","lat":43.289468,"lon":5.36405,"is_reserved":false,"is_disabled":false,"rental_uris":{"android":"levelo://app?vid=aa8e78c8-a174-4214-afcb-0868cc80bdf2","ios":"levelo://app?vid=aa8e78c8-a174-4214-afcb-0868cc80bdf2"},"vehicle_type_id":"4","last_reported":1705439210,"current_range_meters":4000,"station_id":"ce4bhc92rcd13ifvqetg","pricing_plan_id":"free"},{"bike_id":"9ce2fa38-9b9b-4a6c-a532-6fed718385ae","system_id":"levelo_inurba_marseille","lat":43.289363,"lon":5.366433,"is_reserved":false,"is_disabled":false,"rental_uris":{"android":"levelo://app?vid=9ce2fa38-9b9b-4a6c-a532-6fed718385ae","ios":"levelo://app?vid=9ce2fa38-9b9b-4a6c-a532-6fed718385ae"},"vehicle_type_id":"4","last_reported":1705439210,"current_range_meters":0,"station_id":"ce4bhap2rcd13ifvqek0","pricing_plan_id":"free"},{"bike_id":"09a23cd9-8323-4b6b-9308-ec6b5aa83a69","system_id":"levelo_inurba_marseille","lat":43.289468,"lon":5.363719,"is_reserved":false,"is_disabled":false,"rental_uris":{"android":"levelo://app?vid=09a23cd9-8323-4b6b-9308-ec6b5aa83a69","ios":"levelo://app?vid=09a23cd9-8323-4b6b-9308-ec6b5aa83a69"},"vehicle_type_id":"4","last_reported":1705439210,"current_range_meters":14000,"station_id":"ce4bhc92rcd13ifvqetg","pricing_plan_id":"free"},{"bike_id":"7d22122b-702b-44de-9c05-44d3d5ad5a98","system_id":"levelo_inurba_marseille","lat":43.289184,"lon":5.366408,"is_reserved":false,"is_disabled":false,"rental_uris":{"android":"levelo://app?vid=7d22122b-702b-44de-9c05-44d3d5ad5a98","ios":"levelo://app?vid=7d22122b-702b-44de-9c05-44d3d5ad5a98"},"vehicle_type_id":"4","last_reported":1705439210,"current_range_meters":13200,"station_id":"ce4bhap2rcd13ifvqek0","pricing_plan_id":"free"},{"bike_id":"514ba7be-d8cd-462a-b50e-cbead39e13ca","system_id":"levelo_inurba_marseille","lat":43.289468,"lon":5.363719,"is_reserved":false,"is_disabled":false,"rental_uris":{"android":"levelo://app?vid=514ba7be-d8cd-462a-b50e-cbead39e13ca","ios":"levelo://app?vid=514ba7be-d8cd-462a-b50e-cbead39e13ca"},"vehicle_type_id":"4","last_reported":1705439210,"current_range_meters":27200,"station_id":"ce4bhc92rcd13ifvqetg","pricing_plan_id":"free"},{"bike_id":"56646066-303b-4a06-ac06-97acb870a8bf","system_id":"levelo_inurba_marseille","lat":43.292642,"lon":5.384254,"is_reserved":false,"is_disabled":false,"rental_uris":{"android":"levelo://app?vid=56646066-303b-4a06-ac06-97acb870a8bf","ios":"levelo://app?vid=56646066-303b-4a06-ac06-97acb870a8bf"},"vehicle_type_id":"4","last_reported":1705439210,"current_range_meters":16000,"station_id":"ce4bh692rcd13ifvqea0","pricing_plan_id":"free"},{"bike_id":"ec0cf0a6-ca2e-4621-b1ad-ef39440c741f","system_id":"levelo_inurba_marseille","lat":43.292644,"lon":5.384257,"is_reserved":false,"is_disabled":false,"rental_uris":{"android":"levelo://app?vid=ec0cf0a6-ca2e-4621-b1ad-ef39440c741f","ios":"levelo://app?vid=ec0cf0a6-ca2e-4621-b1ad-ef39440c741f"},"vehicle_type_id":"4","last_reported":1705439210,"current_range_meters":26800,"station_id":"ce4bh692rcd13ifvqea0","pricing_plan_id":"free"},{"bike_id":"df2be777-73e4-4b94-9479-822bc911f878","system_id":"levelo_inurba_marseille","lat":43.292642,"lon":5.384254,"is_reserved":false,"is_disabled":false,"rental_uris":{"android":"levelo://app?vid=df2be777-73e4-4b94-9479-822bc911f878","ios":"levelo://app?vid=df2be777-73e4-4b94-9479-822bc911f878"},"vehicle_type_id":"4","last_reported":1705439210,"current_range_meters":9200,"station_id":"ce4bh692rcd13ifvqea0","pricing_plan_id":"free"},{"bike_id":"3b482bf9-5e6e-4f0b-9374-8e6b0cc03f44","system_id":"levelo_inurba_marseille","lat":43.304296,"lon":5.397513,"is_reserved":false,"is_disabled":false,"rental_uris":{"android":"levelo://app?vid=3b482bf9-5e6e-4f0b-9374-8e6b0cc03f44","ios":"levelo://app?vid=3b482bf9-5e6e-4f0b-9374-8e6b0cc03f44"},"vehicle_type_id":"4","last_reported":1705439210,"current_range_meters":25200,"station_id":"ce4bh092rcd13ifvqd20","pricing_plan_id":"free"},{"bike_id":"db5db023-f774-4e5d-8e30-45fba03a245e","system_id":"levelo_inurba_marseille","lat":43.292642,"lon":5.384254,"is_reserved":false,"is_disabled":false,"rental_uris":{"android":"levelo://app?vid=db5db023-f774-4e5d-8e30-45fba03a245e","ios":"levelo://app?vid=db5db023-f774-4e5d-8e30-45fba03a245e"},"vehicle_type_id":"4","last_reported":1705439210,"current_range_meters":0,"station_id":"ce4bh692rcd13ifvqea0","pricing_plan_id":"free"},{"bike_id":"827c7e9f-97c3-4f60-849e-050d0b1806cd","system_id":"levelo_inurba_marseille","lat":43.292721,"lon":5.384419,"is_reserved":false,"is_disabled":false,"rental_uris":{"android":"levelo://app?vid=827c7e9f-97c3-4f60-849e-050d0b1806cd","ios":"levelo://app?vid=827c7e9f-97c3-4f60-849e-050d0b1806cd"},"vehicle_type_id":"4","last_reported":1705439210,"current_range_meters":9200,"station_id":"ce4bh692rcd13ifvqea0","pricing_plan_id":"free"},{"bike_id":"fcffc2b9-909c-4da7-a60f-e5fd51dae9e2","system_id":"levelo_inurba_marseille","lat":43.292644,"lon":5.384257,"is_reserved":false,"is_disabled":false,"rental_uris":{"android":"levelo://app?vid=fcffc2b9-909c-4da7-a60f-e5fd51dae9e2","ios":"levelo://app?vid=fcffc2b9-909c-4da7-a60f-e5fd51dae9e2"},"vehicle_type_id":"4","last_reported":1705439210,"current_range_meters":4000,"station_id":"ce4bh692rcd13ifvqea0","pricing_plan_id":"free"},{"bike_id":"9f5b6f03-06a7-4262-bdf4-cf16d6c6c5f8","system_id":"levelo_inurba_marseille","lat":43.292644,"lon":5.384257,"is_reserved":false,"is_disabled":false,"rental_uris":{"android":"levelo://app?vid=9f5b6f03-06a7-4262-bdf4-cf16d6c6c5f8","ios":"levelo://app?vid=9f5b6f03-06a7-4262-bdf4-cf16d6c6c5f8"},"vehicle_type_id":"4","last_reported":1705439210,"current_range_meters":6000,"station_id":"ce4bh692rcd13ifvqea0","pricing_plan_id":"free"},{"bike_id":"d921949e-4e2c-4319-aee9-de534c9e1d10","system_id":"levelo_inurba_marseille","lat":43.292644,"lon":5.384257,"is_reserved":false,"is_disabled":false,"rental_uris":{"android":"levelo://app?vid=d921949e-4e2c-4319-aee9-de534c9e1d10","ios":"levelo://app?vid=d921949e-4e2c-4319-aee9-de534c9e1d10"},"vehicle_type_id":"4","last_reported":1705439210,"current_range_meters":3600,"station_id":"ce4bh692rcd13ifvqea0","pricing_plan_id":"free"},{"bike_id":"11c2c645-7ba1-4f66-a0df-44c3de62a72d","system_id":"levelo_inurba_marseille","lat":43.290122,"lon":5.356251,"is_reserved":false,"is_disabled":false,"rental_uris":{"android":"levelo://app?vid=11c2c645-7ba1-4f66-a0df-44c3de62a72d","ios":"levelo://app?vid=11c2c645-7ba1-4f66-a0df-44c3de62a72d"},"vehicle_type_id":"4","last_reported":1705439210,"current_range_meters":24000,"station_id":"","pricing_plan_id":"free"},{"bike_id":"6f5917e2-158e-4459-bf15-32555ccdf1e1","system_id":"levelo_inurba_marseille","lat":43.29008,"lon":5.35622,"is_reserved":false,"is_disabled":false,"rental_uris":{"android":"levelo://app?vid=6f5917e2-158e-4459-bf15-32555ccdf1e1","ios":"levelo://app?vid=6f5917e2-158e-4459-bf15-32555ccdf1e1"},"vehicle_type_id":"4","last_reported":1705439210,"current_range_meters":27600,"station_id":"ce4bhb92rcd13ifvqen0","pricing_plan_id":"free"},{"bike_id":"4238e2f6-40c1-4ae5-9ed1-213aee64ad82","system_id":"levelo_inurba_marseille","lat":43.290103,"lon":5.356114,"is_reserved":false,"is_disabled":false,"rental_uris":{"android":"levelo://app?vid=4238e2f6-40c1-4ae5-9ed1-213aee64ad82","ios":"levelo://app?vid=4238e2f6-40c1-4ae5-9ed1-213aee64ad82"},"vehicle_type_id":"4","last_reported":1705439210,"current_range_meters":24400,"station_id":"ce4bhb92rcd13ifvqen0","pricing_plan_id":"free"},{"bike_id":"a7eb26d4-37ee-43ee-adcb-ee135bf6f3a2","system_id":"levelo_inurba_marseille","lat":43.30465,"lon":5.39796,"is_reserved":false,"is_disabled":false,"rental_uris":{"android":"levelo://app?vid=a7eb26d4-37ee-43ee-adcb-ee135bf6f3a2","ios":"levelo://app?vid=a7eb26d4-37ee-43ee-adcb-ee135bf6f3a2"},"vehicle_type_id":"4","last_reported":1705439210,"current_range_meters":18000,"station_id":"","pricing_plan_id":"free"},{"bike_id":"aeb0357d-46be-4d4a-835b-64f4d2dd4d98","system_id":"levelo_inurba_marseille","lat":43.290103,"lon":5.356114,"is_reserved":false,"is_disabled":false,"rental_uris":{"android":"levelo://app?vid=aeb0357d-46be-4d4a-835b-64f4d2dd4d98","ios":"levelo://app?vid=aeb0357d-46be-4d4a-835b-64f4d2dd4d98"},"vehicle_type_id":"4","last_reported":1705439210,"current_range_meters":19600,"station_id":"ce4bhb92rcd13ifvqen0","pricing_plan_id":"free"},{"bike_id":"e9957a6f-5405-43fe-ac21-2aee4cf93ab0","system_id":"levelo_inurba_marseille","lat":43.290103,"lon":5.356114,"is_reserved":false,"is_disabled":false,"rental_uris":{"android":"levelo://app?vid=e9957a6f-5405-43fe-ac21-2aee4cf93ab0","ios":"levelo://app?vid=e9957a6f-5405-43fe-ac21-2aee4cf93ab0"},"vehicle_type_id":"4","last_reported":1705439210,"current_range_meters":12800,"station_id":"ce4bhb92rcd13ifvqen0","pricing_plan_id":"free"},{"bike_id":"2e417353-bbc2-4c7c-aff7-32752a384b8d","system_id":"levelo_inurba_marseille","lat":43.290995,"lon":5.381361,"is_reserved":false,"is_disabled":false,"rental_uris":{"android":"levelo://app?vid=2e417353-bbc2-4c7c-aff7-32752a384b8d","ios":"levelo://app?vid=2e417353-bbc2-4c7c-aff7-32752a384b8d"},"vehicle_type_id":"4","last_reported":1705439210,"current_range_meters":18400,"station_id":"ce4bh512rcd13ifvqe2g","pricing_plan_id":"free"},{"bike_id":"6e8abd30-0cb8-4690-8b12-01632bedda0f","system_id":"levelo_inurba_marseille","lat":43.29002,"lon":5.35608,"is_reserved":false,"is_disabled":false,"rental_uris":{"android":"levelo://app?vid=6e8abd30-0cb8-4690-8b12-01632bedda0f","ios":"levelo://app?vid=6e8abd30-0cb8-4690-8b12-01632bedda0f"},"vehicle_type_id":"4","last_reported":1705439210,"current_range_meters":22800,"station_id":"ce4bhb92rcd13ifvqen0","pricing_plan_id":"free"},{"bike_id":"1b8239f8-dc98-4a34-acc5-8043da1011c7","system_id":"levelo_inurba_marseille","lat":43.290995,"lon":5.381361,"is_reserved":false,"is_disabled":false,"rental_uris":{"android":"levelo://app?vid=1b8239f8-dc98-4a34-acc5-8043da1011c7","ios":"levelo://app?vid=1b8239f8-dc98-4a34-acc5-8043da1011c7"},"vehicle_type_id":"4","last_reported":1705439210,"current_range_meters":22800,"station_id":"ce4bh512rcd13ifvqe2g","pricing_plan_id":"free"},{"bike_id":"30cde034-f982-4efc-a52f-a003514192bb","system_id":"levelo_inurba_marseille","lat":43.290995,"lon":5.381361,"is_reserved":false,"is_disabled":false,"rental_uris":{"android":"levelo://app?vid=30cde034-f982-4efc-a52f-a003514192bb","ios":"levelo://app?vid=30cde034-f982-4efc-a52f-a003514192bb"},"vehicle_type_id":"4","last_reported":1705439210,"current_range_meters":31200,"station_id":"ce4bh512rcd13ifvqe2g","pricing_plan_id":"free"},{"bike_id":"8cec2b48-d2e1-482c-b2b3-2976ee612706","system_id":"levelo_inurba_marseille","lat":43.2979,"lon":5.39338,"is_reserved":false,"is_disabled":false,"rental_uris":{"android":"levelo://app?vid=8cec2b48-d2e1-482c-b2b3-2976ee612706","ios":"levelo://app?vid=8cec2b48-d2e1-482c-b2b3-2976ee612706"},"vehicle_type_id":"4","last_reported":1705439210,"current_range_meters":17600,"station_id":"chh1huq6cuj3fo74tm60","pricing_plan_id":"free"},{"bike_id":"9ed5fd63-f88f-4155-866e-489d7608feb2","system_id":"levelo_inurba_marseille","lat":43.297815,"lon":5.393548,"is_reserved":false,"is_disabled":false,"rental_uris":{"android":"levelo://app?vid=9ed5fd63-f88f-4155-866e-489d7608feb2","ios":"levelo://app?vid=9ed5fd63-f88f-4155-866e-489d7608feb2"},"vehicle_type_id":"4","last_reported":1705439210,"current_range_meters":14800,"station_id":"chh1huq6cuj3fo74tm60","pricing_plan_id":"free"},{"bike_id":"6f8d9a30-15c7-4217-978b-ced8df05fe05","system_id":"levelo_inurba_marseille","lat":43.297914,"lon":5.393439,"is_reserved":false,"is_disabled":false,"rental_uris":{"android":"levelo://app?vid=6f8d9a30-15c7-4217-978b-ced8df05fe05","ios":"levelo://app?vid=6f8d9a30-15c7-4217-978b-ced8df05fe05"},"vehicle_type_id":"4","last_reported":1705439210,"current_range_meters":15200,"station_id":"chh1huq6cuj3fo74tm60","pricing_plan_id":"free"},{"bike_id":"60da2c15-75df-4a2b-af64-74d195136da3","system_id":"levelo_inurba_marseille","lat":43.2978,"lon":5.3934,"is_reserved":false,"is_disabled":false,"rental_uris":{"android":"levelo://app?vid=60da2c15-75df-4a2b-af64-74d195136da3","ios":"levelo://app?vid=60da2c15-75df-4a2b-af64-74d195136da3"},"vehicle_type_id":"4","last_reported":1705439210,"current_range_meters":24400,"station_id":"chh1huq6cuj3fo74tm60","pricing_plan_id":"free"},{"bike_id":"226bb269-1d10-4f64-bdf3-296d273ae135","system_id":"levelo_inurba_marseille","lat":43.3302,"lon":5.39036,"is_reserved":false,"is_disabled":false,"rental_uris":{"android":"levelo://app?vid=226bb269-1d10-4f64-bdf3-296d273ae135","ios":"levelo://app?vid=226bb269-1d10-4f64-bdf3-296d273ae135"},"vehicle_type_id":"4","last_reported":1705439210,"current_range_meters":0,"station_id":"ce4bhr92rcd13ifvqhrg","pricing_plan_id":"free"},{"bike_id":"e862abba-2e63-430a-8d1e-8211ff1f7372","system_id":"levelo_inurba_marseille","lat":43.295169,"lon":5.390426,"is_reserved":false,"is_disabled":false,"rental_uris":{"android":"levelo://app?vid=e862abba-2e63-430a-8d1e-8211ff1f7372","ios":"levelo://app?vid=e862abba-2e63-430a-8d1e-8211ff1f7372"},"vehicle_type_id":"4","last_reported":1705439210,"current_range_meters":10400,"station_id":"ce4bh3p2rcd13ifvqdp0","pricing_plan_id":"free"},{"bike_id":"a2e41e28-cdf8-45ff-b1f3-5774fc9e5d5d","system_id":"levelo_inurba_marseille","lat":43.33023,"lon":5.39042,"is_reserved":false,"is_disabled":false,"rental_uris":{"android":"levelo://app?vid=a2e41e28-cdf8-45ff-b1f3-5774fc9e5d5d","ios":"levelo://app?vid=a2e41e28-cdf8-45ff-b1f3-5774fc9e5d5d"},"vehicle_type_id":"4","last_reported":1705439210,"current_range_meters":12000,"station_id":"ce4bhr92rcd13ifvqhrg","pricing_plan_id":"free"},{"bike_id":"086dad79-ac46-498b-975d-f78e2e21fe06","system_id":"levelo_inurba_marseille","lat":43.330249,"lon":5.390402,"is_reserved":false,"is_disabled":false,"rental_uris":{"android":"levelo://app?vid=086dad79-ac46-498b-975d-f78e2e21fe06","ios":"levelo://app?vid=086dad79-ac46-498b-975d-f78e2e21fe06"},"vehicle_type_id":"4","last_reported":1705439210,"current_range_meters":0,"station_id":"ce4bhr92rcd13ifvqhrg","pricing_plan_id":"free"},{"bike_id":"0dbbe99a-758c-424d-b19f-cbaa18c32977","system_id":"levelo_inurba_marseille","lat":43.33026,"lon":5.39042,"is_reserved":false,"is_disabled":false,"rental_uris":{"android":"levelo://app?vid=0dbbe99a-758c-424d-b19f-cbaa18c32977","ios":"levelo://app?vid=0dbbe99a-758c-424d-b19f-cbaa18c32977"},"vehicle_type_id":"4","last_reported":1705439210,"current_range_meters":0,"station_id":"ce4bhr92rcd13ifvqhrg","pricing_plan_id":"free"},{"bike_id":"03d574a9-71c3-4ffa-9eb0-1df72c6fdb4f","system_id":"levelo_inurba_marseille","lat":43.2901,"lon":5.381269,"is_reserved":false,"is_disabled":false,"rental_uris":{"android":"levelo://app?vid=03d574a9-71c3-4ffa-9eb0-1df72c6fdb4f","ios":"levelo://app?vid=03d574a9-71c3-4ffa-9eb0-1df72c6fdb4f"},"vehicle_type_id":"4","last_reported":1705439210,"current_range_meters":18400,"station_id":"ce4bh4p2rcd13ifvqe1g","pricing_plan_id":"free"},{"bike_id":"d73440dc-c778-477a-ae11-26fe0bc647a0","system_id":"levelo_inurba_marseille","lat":43.28856,"lon":5.358371,"is_reserved":false,"is_disabled":false,"rental_uris":{"android":"levelo://app?vid=d73440dc-c778-477a-ae11-26fe0bc647a0","ios":"levelo://app?vid=d73440dc-c778-477a-ae11-26fe0bc647a0"},"vehicle_type_id":"4","last_reported":1705439210,"current_range_meters":31600,"station_id":"ce4bhb12rcd13ifvqem0","pricing_plan_id":"free"},{"bike_id":"1e61b843-c9e6-4324-a37a-7aa88910fab6","system_id":"levelo_inurba_marseille","lat":43.28856,"lon":5.358371,"is_reserved":false,"is_disabled":false,"rental_uris":{"android":"levelo://app?vid=1e61b843-c9e6-4324-a37a-7aa88910fab6","ios":"levelo://app?vid=1e61b843-c9e6-4324-a37a-7aa88910fab6"},"vehicle_type_id":"4","last_reported":1705439210,"current_range_meters":14400,"station_id":"ce4bhb12rcd13ifvqem0","pricing_plan_id":"free"},{"bike_id":"7c15f66c-26cd-4814-85ba-37b06fc5fc0c","system_id":"levelo_inurba_marseille","lat":43.312609,"lon":5.401662,"is_reserved":false,"is_disabled":false,"rental_uris":{"android":"levelo://app?vid=7c15f66c-26cd-4814-85ba-37b06fc5fc0c","ios":"levelo://app?vid=7c15f66c-26cd-4814-85ba-37b06fc5fc0c"},"vehicle_type_id":"4","last_reported":1705439210,"current_range_meters":6400,"station_id":"ce4bh092rcd13ifvqd30","pricing_plan_id":"free"},{"bike_id":"4968ad16-256c-48e5-bc8a-5c3c299d49d8","system_id":"levelo_inurba_marseille","lat":43.312609,"lon":5.401662,"is_reserved":false,"is_disabled":false,"rental_uris":{"android":"levelo://app?vid=4968ad16-256c-48e5-bc8a-5c3c299d49d8","ios":"levelo://app?vid=4968ad16-256c-48e5-bc8a-5c3c299d49d8"},"vehicle_type_id":"4","last_reported":1705439210,"current_range_meters":800,"station_id":"ce4bh092rcd13ifvqd30","pricing_plan_id":"free"},{"bike_id":"034a1c99-1b20-444e-b820-d600efc95777","system_id":"levelo_inurba_marseille","lat":43.312609,"lon":5.401662,"is_reserved":false,"is_disabled":false,"rental_uris":{"android":"levelo://app?vid=034a1c99-1b20-444e-b820-d600efc95777","ios":"levelo://app?vid=034a1c99-1b20-444e-b820-d600efc95777"},"vehicle_type_id":"4","last_reported":1705439210,"current_range_meters":8800,"station_id":"ce4bh092rcd13ifvqd30","pricing_plan_id":"free"},{"bike_id":"6d850afc-6c16-4237-b9da-e5b80e68c146","system_id":"levelo_inurba_marseille","lat":43.30934,"lon":5.40136,"is_reserved":false,"is_disabled":false,"rental_uris":{"android":"levelo://app?vid=6d850afc-6c16-4237-b9da-e5b80e68c146","ios":"levelo://app?vid=6d850afc-6c16-4237-b9da-e5b80e68c146"},"vehicle_type_id":"4","last_reported":1705439210,"current_range_meters":25200,"station_id":"ce4bgvp2rcd13ifvqct0","pricing_plan_id":"free"},{"bike_id":"e66bd384-83a2-44c3-8224-a805f8b6f353","system_id":"levelo_inurba_marseille","lat":43.30936,"lon":5.40137,"is_reserved":false,"is_disabled":false,"rental_uris":{"android":"levelo://app?vid=e66bd384-83a2-44c3-8224-a805f8b6f353","ios":"levelo://app?vid=e66bd384-83a2-44c3-8224-a805f8b6f353"},"vehicle_type_id":"4","last_reported":1705439210,"current_range_meters":21600,"station_id":"ce4bgvp2rcd13ifvqct0","pricing_plan_id":"free"},{"bike_id":"b3bbbd8c-fefe-497f-856b-63a38c08d7c8","system_id":"levelo_inurba_marseille","lat":43.309371,"lon":5.401449,"is_reserved":false,"is_disabled":false,"rental_uris":{"android":"levelo://app?vid=b3bbbd8c-fefe-497f-856b-63a38c08d7c8","ios":"levelo://app?vid=b3bbbd8c-fefe-497f-856b-63a38c08d7c8"},"vehicle_type_id":"4","last_reported":1705439210,"current_range_meters":7200,"station_id":"ce4bgvp2rcd13ifvqct0","pricing_plan_id":"free"},{"bike_id":"2ffe6a10-8360-4eb3-8853-e5a93b2756e8","system_id":"levelo_inurba_marseille","lat":43.312818,"lon":5.401708,"is_reserved":false,"is_disabled":false,"rental_uris":{"android":"levelo://app?vid=2ffe6a10-8360-4eb3-8853-e5a93b2756e8","ios":"levelo://app?vid=2ffe6a10-8360-4eb3-8853-e5a93b2756e8"},"vehicle_type_id":"4","last_reported":1705439210,"current_range_meters":20000,"station_id":"ce4bh092rcd13ifvqd30","pricing_plan_id":"free"},{"bike_id":"2c654108-f3bf-462d-a5ab-344b0d6fb200","system_id":"levelo_inurba_marseille","lat":43.30935,"lon":5.40144,"is_reserved":false,"is_disabled":false,"rental_uris":{"android":"levelo://app?vid=2c654108-f3bf-462d-a5ab-344b0d6fb200","ios":"levelo://app?vid=2c654108-f3bf-462d-a5ab-344b0d6fb200"},"vehicle_type_id":"4","last_reported":1705439210,"current_range_meters":24800,"station_id":"ce4bgvp2rcd13ifvqct0","pricing_plan_id":"free"},{"bike_id":"a6a4c2ec-0058-4bbb-b438-5701ff314afc","system_id":"levelo_inurba_marseille","lat":43.30642,"lon":5.401031,"is_reserved":false,"is_disabled":false,"rental_uris":{"android":"levelo://app?vid=a6a4c2ec-0058-4bbb-b438-5701ff314afc","ios":"levelo://app?vid=a6a4c2ec-0058-4bbb-b438-5701ff314afc"},"vehicle_type_id":"4","last_reported":1705439210,"current_range_meters":15200,"station_id":"ce4bh112rcd13ifvqda0","pricing_plan_id":"free"},{"bike_id":"d3349fc2-f2d8-4600-b467-68b33f41db06","system_id":"levelo_inurba_marseille","lat":43.30138,"lon":5.39861,"is_reserved":false,"is_disabled":false,"rental_uris":{"android":"levelo://app?vid=d3349fc2-f2d8-4600-b467-68b33f41db06","ios":"levelo://app?vid=d3349fc2-f2d8-4600-b467-68b33f41db06"},"vehicle_type_id":"4","last_reported":1705439210,"current_range_meters":2800,"station_id":"ce4bh0h2rcd13ifvqd40","pricing_plan_id":"free"},{"bike_id":"43ab4e44-7406-44a1-beff-c0bc856cc7e9","system_id":"levelo_inurba_marseille","lat":43.301117,"lon":5.398795,"is_reserved":false,"is_disabled":false,"rental_uris":{"android":"levelo://app?vid=43ab4e44-7406-44a1-beff-c0bc856cc7e9","ios":"levelo://app?vid=43ab4e44-7406-44a1-beff-c0bc856cc7e9"},"vehicle_type_id":"4","last_reported":1705439210,"current_range_meters":5600,"station_id":"ce4bh0h2rcd13ifvqd40","pricing_plan_id":"free"},{"bike_id":"b250d6cc-ac95-4148-bb9c-058f86e5ac1b","system_id":"levelo_inurba_marseille","lat":43.30469,"lon":5.40061,"is_reserved":false,"is_disabled":false,"rental_uris":{"android":"levelo://app?vid=b250d6cc-ac95-4148-bb9c-058f86e5ac1b","ios":"levelo://app?vid=b250d6cc-ac95-4148-bb9c-058f86e5ac1b"},"vehicle_type_id":"4","last_reported":1705439210,"current_range_meters":22800,"station_id":"","pricing_plan_id":"free"},{"bike_id":"f254f05f-6117-400f-acf4-a9fbe72b0e06","system_id":"levelo_inurba_marseille","lat":43.28727,"lon":5.36078,"is_reserved":false,"is_disabled":false,"rental_uris":{"android":"levelo://app?vid=f254f05f-6117-400f-acf4-a9fbe72b0e06","ios":"levelo://app?vid=f254f05f-6117-400f-acf4-a9fbe72b0e06"},"vehicle_type_id":"4","last_reported":1705439210,"current_range_meters":17200,"station_id":"cki0cbj6b192h4jlfktg","pricing_plan_id":"free"},{"bike_id":"39f36516-97f1-4045-96c8-bbce33f58a4f","system_id":"levelo_inurba_marseille","lat":43.28727,"lon":5.36078,"is_reserved":false,"is_disabled":false,"rental_uris":{"android":"levelo://app?vid=39f36516-97f1-4045-96c8-bbce33f58a4f","ios":"levelo://app?vid=39f36516-97f1-4045-96c8-bbce33f58a4f"},"vehicle_type_id":"4","last_reported":1705439210,"current_range_meters":18800,"station_id":"cki0cbj6b192h4jlfktg","pricing_plan_id":"free"},{"bike_id":"f6c35de7-f33a-4251-a341-a1890e7c9944","system_id":"levelo_inurba_marseille","lat":43.28727,"lon":5.36078,"is_reserved":false,"is_disabled":false,"rental_uris":{"android":"levelo://app?vid=f6c35de7-f33a-4251-a341-a1890e7c9944","ios":"levelo://app?vid=f6c35de7-f33a-4251-a341-a1890e7c9944"},"vehicle_type_id":"4","last_reported":1705439210,"current_range_meters":3200,"station_id":"cki0cbj6b192h4jlfktg","pricing_plan_id":"free"},{"bike_id":"f66dcd2c-32e2-43e1-abbb-c6a857e36283","system_id":"levelo_inurba_marseille","lat":43.28727,"lon":5.36078,"is_reserved":false,"is_disabled":false,"rental_uris":{"android":"levelo://app?vid=f66dcd2c-32e2-43e1-abbb-c6a857e36283","ios":"levelo://app?vid=f66dcd2c-32e2-43e1-abbb-c6a857e36283"},"vehicle_type_id":"4","last_reported":1705439210,"current_range_meters":21200,"station_id":"cki0cbj6b192h4jlfktg","pricing_plan_id":"free"},{"bike_id":"d67ae179-a81b-4b2d-b208-60a16053446e","system_id":"levelo_inurba_marseille","lat":43.298681,"lon":5.397225,"is_reserved":false,"is_disabled":false,"rental_uris":{"android":"levelo://app?vid=d67ae179-a81b-4b2d-b208-60a16053446e","ios":"levelo://app?vid=d67ae179-a81b-4b2d-b208-60a16053446e"},"vehicle_type_id":"4","last_reported":1705439210,"current_range_meters":3600,"station_id":"ce4bh0h2rcd13ifvqd50","pricing_plan_id":"free"},{"bike_id":"14948be3-0cb0-4b54-99e7-34f42cae5207","system_id":"levelo_inurba_marseille","lat":43.298681,"lon":5.397225,"is_reserved":false,"is_disabled":false,"rental_uris":{"android":"levelo://app?vid=14948be3-0cb0-4b54-99e7-34f42cae5207","ios":"levelo://app?vid=14948be3-0cb0-4b54-99e7-34f42cae5207"},"vehicle_type_id":"4","last_reported":1705439210,"current_range_meters":24400,"station_id":"ce4bh0h2rcd13ifvqd50","pricing_plan_id":"free"},{"bike_id":"6b5bde50-f68e-4a9b-b836-946a7c2ba298","system_id":"levelo_inurba_marseille","lat":43.286961,"lon":5.373785,"is_reserved":false,"is_disabled":false,"rental_uris":{"android":"levelo://app?vid=6b5bde50-f68e-4a9b-b836-946a7c2ba298","ios":"levelo://app?vid=6b5bde50-f68e-4a9b-b836-946a7c2ba298"},"vehicle_type_id":"4","last_reported":1705439210,"current_range_meters":30400,"station_id":"ce4bh3p2rcd13ifvqdq0","pricing_plan_id":"free"},{"bike_id":"ff85328e-49c9-40ee-bf3d-c3fef4779fa4","system_id":"levelo_inurba_marseille","lat":43.29872,"lon":5.397272,"is_reserved":false,"is_disabled":false,"rental_uris":{"android":"levelo://app?vid=ff85328e-49c9-40ee-bf3d-c3fef4779fa4","ios":"levelo://app?vid=ff85328e-49c9-40ee-bf3d-c3fef4779fa4"},"vehicle_type_id":"4","last_reported":1705439210,"current_range_meters":31200,"station_id":"ce4bh0h2rcd13ifvqd50","pricing_plan_id":"free"},{"bike_id":"48dd445a-1b2f-405d-89c2-897eb1bdcf79","system_id":"levelo_inurba_marseille","lat":43.298736,"lon":5.397297,"is_reserved":false,"is_disabled":false,"rental_uris":{"android":"levelo://app?vid=48dd445a-1b2f-405d-89c2-897eb1bdcf79","ios":"levelo://app?vid=48dd445a-1b2f-405d-89c2-897eb1bdcf79"},"vehicle_type_id":"4","last_reported":1705439210,"current_range_meters":10400,"station_id":"ce4bh0h2rcd13ifvqd50","pricing_plan_id":"free"},{"bike_id":"e8e984c1-a948-4387-af48-a21e4f7020be","system_id":"levelo_inurba_marseille","lat":43.298681,"lon":5.397225,"is_reserved":false,"is_disabled":false,"rental_uris":{"android":"levelo://app?vid=e8e984c1-a948-4387-af48-a21e4f7020be","ios":"levelo://app?vid=e8e984c1-a948-4387-af48-a21e4f7020be"},"vehicle_type_id":"4","last_reported":1705439210,"current_range_meters":14400,"station_id":"ce4bh0h2rcd13ifvqd50","pricing_plan_id":"free"},{"bike_id":"ec121a7e-d48f-4868-81c9-ead89165b99d","system_id":"levelo_inurba_marseille","lat":43.286591,"lon":5.363346,"is_reserved":false,"is_disabled":false,"rental_uris":{"android":"levelo://app?vid=ec121a7e-d48f-4868-81c9-ead89165b99d","ios":"levelo://app?vid=ec121a7e-d48f-4868-81c9-ead89165b99d"},"vehicle_type_id":"4","last_reported":1705439210,"current_range_meters":29600,"station_id":"ce4bhah2rcd13ifvqej0","pricing_plan_id":"free"},{"bike_id":"26ad9247-1eef-4c44-a345-bf8daf81fbdd","system_id":"levelo_inurba_marseille","lat":43.286591,"lon":5.363346,"is_reserved":false,"is_disabled":false,"rental_uris":{"android":"levelo://app?vid=26ad9247-1eef-4c44-a345-bf8daf81fbdd","ios":"levelo://app?vid=26ad9247-1eef-4c44-a345-bf8daf81fbdd"},"vehicle_type_id":"4","last_reported":1705439210,"current_range_meters":9200,"station_id":"ce4bhah2rcd13ifvqej0","pricing_plan_id":"free"},{"bike_id":"15754fb9-fd1b-494c-a9ed-a48041cf5e87","system_id":"levelo_inurba_marseille","lat":43.286961,"lon":5.373785,"is_reserved":false,"is_disabled":false,"rental_uris":{"android":"levelo://app?vid=15754fb9-fd1b-494c-a9ed-a48041cf5e87","ios":"levelo://app?vid=15754fb9-fd1b-494c-a9ed-a48041cf5e87"},"vehicle_type_id":"4","last_reported":1705439210,"current_range_meters":8000,"station_id":"ce4bh3p2rcd13ifvqdq0","pricing_plan_id":"free"},{"bike_id":"baaa29f7-0241-4276-a942-4201b7824f07","system_id":"levelo_inurba_marseille","lat":43.286593,"lon":5.363346,"is_reserved":false,"is_disabled":false,"rental_uris":{"android":"levelo://app?vid=baaa29f7-0241-4276-a942-4201b7824f07","ios":"levelo://app?vid=baaa29f7-0241-4276-a942-4201b7824f07"},"vehicle_type_id":"4","last_reported":1705439210,"current_range_meters":24400,"station_id":"ce4bhah2rcd13ifvqej0","pricing_plan_id":"free"},{"bike_id":"bbe33a8d-e5e2-481e-af9a-127c13de04ca","system_id":"levelo_inurba_marseille","lat":43.287024,"lon":5.373844,"is_reserved":false,"is_disabled":false,"rental_uris":{"android":"levelo://app?vid=bbe33a8d-e5e2-481e-af9a-127c13de04ca","ios":"levelo://app?vid=bbe33a8d-e5e2-481e-af9a-127c13de04ca"},"vehicle_type_id":"4","last_reported":1705439210,"current_range_meters":2400,"station_id":"ce4bh3p2rcd13ifvqdq0","pricing_plan_id":"free"},{"bike_id":"a9eac4ac-d4df-4c7e-91ea-543648c669e0","system_id":"levelo_inurba_marseille","lat":43.286961,"lon":5.373785,"is_reserved":false,"is_disabled":false,"rental_uris":{"android":"levelo://app?vid=a9eac4ac-d4df-4c7e-91ea-543648c669e0","ios":"levelo://app?vid=a9eac4ac-d4df-4c7e-91ea-543648c669e0"},"vehicle_type_id":"4","last_reported":1705439210,"current_range_meters":30000,"station_id":"ce4bh3p2rcd13ifvqdq0","pricing_plan_id":"free"},{"bike_id":"6a4613f9-1220-446e-9937-0ad92a8ddb50","system_id":"levelo_inurba_marseille","lat":43.287003,"lon":5.373877,"is_reserved":false,"is_disabled":false,"rental_uris":{"android":"levelo://app?vid=6a4613f9-1220-446e-9937-0ad92a8ddb50","ios":"levelo://app?vid=6a4613f9-1220-446e-9937-0ad92a8ddb50"},"vehicle_type_id":"4","last_reported":1705439210,"current_range_meters":1600,"station_id":"ce4bh3p2rcd13ifvqdq0","pricing_plan_id":"free"},{"bike_id":"48938c97-478c-4c0a-9f60-27643bd2ab39","system_id":"levelo_inurba_marseille","lat":43.286961,"lon":5.373785,"is_reserved":false,"is_disabled":false,"rental_uris":{"android":"levelo://app?vid=48938c97-478c-4c0a-9f60-27643bd2ab39","ios":"levelo://app?vid=48938c97-478c-4c0a-9f60-27643bd2ab39"},"vehicle_type_id":"4","last_reported":1705439210,"current_range_meters":10000,"station_id":"ce4bh3p2rcd13ifvqdq0","pricing_plan_id":"free"},{"bike_id":"e5523e8b-6b2e-4dcd-9fc0-c2c9f85d59fd","system_id":"levelo_inurba_marseille","lat":43.286961,"lon":5.373785,"is_reserved":false,"is_disabled":false,"rental_uris":{"android":"levelo://app?vid=e5523e8b-6b2e-4dcd-9fc0-c2c9f85d59fd","ios":"levelo://app?vid=e5523e8b-6b2e-4dcd-9fc0-c2c9f85d59fd"},"vehicle_type_id":"4","last_reported":1705439210,"current_range_meters":9200,"station_id":"ce4bh3p2rcd13ifvqdq0","pricing_plan_id":"free"},{"bike_id":"5c24486b-028f-439b-bffe-9b03a91746ed","system_id":"levelo_inurba_marseille","lat":43.286961,"lon":5.373785,"is_reserved":false,"is_disabled":false,"rental_uris":{"android":"levelo://app?vid=5c24486b-028f-439b-bffe-9b03a91746ed","ios":"levelo://app?vid=5c24486b-028f-439b-bffe-9b03a91746ed"},"vehicle_type_id":"4","last_reported":1705439210,"current_range_meters":2000,"station_id":"ce4bh3p2rcd13ifvqdq0","pricing_plan_id":"free"},{"bike_id":"5e893bb1-5c1d-44d5-bedb-bb7c7bce12b9","system_id":"levelo_inurba_marseille","lat":43.286591,"lon":5.363346,"is_reserved":false,"is_disabled":false,"rental_uris":{"android":"levelo://app?vid=5e893bb1-5c1d-44d5-bedb-bb7c7bce12b9","ios":"levelo://app?vid=5e893bb1-5c1d-44d5-bedb-bb7c7bce12b9"},"vehicle_type_id":"4","last_reported":1705439210,"current_range_meters":22000,"station_id":"ce4bhah2rcd13ifvqej0","pricing_plan_id":"free"},{"bike_id":"cf56b8cc-a4f7-4eea-9f76-48ef4e201f43","system_id":"levelo_inurba_marseille","lat":43.286961,"lon":5.373785,"is_reserved":false,"is_disabled":false,"rental_uris":{"android":"levelo://app?vid=cf56b8cc-a4f7-4eea-9f76-48ef4e201f43","ios":"levelo://app?vid=cf56b8cc-a4f7-4eea-9f76-48ef4e201f43"},"vehicle_type_id":"4","last_reported":1705439210,"current_range_meters":3600,"station_id":"ce4bh3p2rcd13ifvqdq0","pricing_plan_id":"free"},{"bike_id":"e3351078-ef8f-42c9-bac2-fec4b862339b","system_id":"levelo_inurba_marseille","lat":43.28695,"lon":5.37398,"is_reserved":false,"is_disabled":false,"rental_uris":{"android":"levelo://app?vid=e3351078-ef8f-42c9-bac2-fec4b862339b","ios":"levelo://app?vid=e3351078-ef8f-42c9-bac2-fec4b862339b"},"vehicle_type_id":"4","last_reported":1705439210,"current_range_meters":0,"station_id":"ce4bh3p2rcd13ifvqdq0","pricing_plan_id":"free"},{"bike_id":"963c59e2-dd9f-495a-94b9-562dabbd7b70","system_id":"levelo_inurba_marseille","lat":43.295194,"lon":5.39397,"is_reserved":false,"is_disabled":false,"rental_uris":{"android":"levelo://app?vid=963c59e2-dd9f-495a-94b9-562dabbd7b70","ios":"levelo://app?vid=963c59e2-dd9f-495a-94b9-562dabbd7b70"},"vehicle_type_id":"4","last_reported":1705439210,"current_range_meters":8000,"station_id":"ce4bh292rcd13ifvqdf0","pricing_plan_id":"free"},{"bike_id":"26fe4d33-6298-4f3d-912f-198a802b6177","system_id":"levelo_inurba_marseille","lat":43.295196,"lon":5.39397,"is_reserved":false,"is_disabled":false,"rental_uris":{"android":"levelo://app?vid=26fe4d33-6298-4f3d-912f-198a802b6177","ios":"levelo://app?vid=26fe4d33-6298-4f3d-912f-198a802b6177"},"vehicle_type_id":"4","last_reported":1705439210,"current_range_meters":16800,"station_id":"ce4bh292rcd13ifvqdf0","pricing_plan_id":"free"},{"bike_id":"db7a511f-c6f1-4e42-b4e9-a562f85e1aa3","system_id":"levelo_inurba_marseille","lat":43.295196,"lon":5.39397,"is_reserved":false,"is_disabled":false,"rental_uris":{"android":"levelo://app?vid=db7a511f-c6f1-4e42-b4e9-a562f85e1aa3","ios":"levelo://app?vid=db7a511f-c6f1-4e42-b4e9-a562f85e1aa3"},"vehicle_type_id":"4","last_reported":1705439210,"current_range_meters":3600,"station_id":"ce4bh292rcd13ifvqdf0","pricing_plan_id":"free"},{"bike_id":"5a2aeea5-c651-4211-b61b-e0351b1c3371","system_id":"levelo_inurba_marseille","lat":43.295196,"lon":5.39397,"is_reserved":false,"is_disabled":false,"rental_uris":{"android":"levelo://app?vid=5a2aeea5-c651-4211-b61b-e0351b1c3371","ios":"levelo://app?vid=5a2aeea5-c651-4211-b61b-e0351b1c3371"},"vehicle_type_id":"4","last_reported":1705439210,"current_range_meters":21600,"station_id":"ce4bh292rcd13ifvqdf0","pricing_plan_id":"free"},