{"last_updated":1768479898,"ttl":60,"version":"2.2","data":{"bikes":[{"bike_id":"2dcbaafa-dc26-4d5a-9923-60da74220ab7","system_id":"levelo_inurba_marseille","lat":43.263705,"lon":5.410836,"is_reserved":false,"is_disabled":false,"rental_uris":{"android":"levelo://app?vid=2dcbaafa-dc26-4d5a-9923-60da74220ab7","ios":"levelo://app?vid=2dcbaafa-dc26-4d5a-9923-60da74220ab7"},"vehicle_type_id":"4","last_reported":1768479899,"current_range_meters":2800,"station_id":"","pricing_plan_id":"cebpf4jnsgd1na2vs0mg"},{"bike_id":"a2c3fda5-fb1e-4329-88c2-2e7960229574","system_id":"levelo_inurba_marseille","lat":43.31203,"lon":5.40305,"is_reserved":false,"is_disabled":false,"rental_uris":{"android":"levelo://app?vid=a2c3fda5-fb1e-4329-88c2-2e7960229574","ios":"levelo://app?vid=a2c3fda5-fb1e-4329-88c2-2e7960229574"},"vehicle_type_id":"4","last_reported":1768479899,"current_range_meters":2800,"station_id":"","pricing_plan_id":"cebpf4jnsgd1na2vs0mg"},{"bike_id":"f3775b51-ae39-4445-a18b-4147e6a99aec","system_id":"levelo_inurba_marseille","lat":43.28407,"lon":5.37526,"is_reserved":false,"is_disabled":false,"rental_uris":{"android":"levelo://app?vid=f3775b51-ae39-4445-a18b-4147e6a99aec","ios":"levelo://app?vid=f3775b51-ae39-4445-a18b-4147e6a99aec"},"vehicle_type_id":"4","last_reported":1768479899,"current_range_meters":2800,"station_id":"ce4bh412rcd13ifvqds0","pricing_plan_id":"cebpf4jnsgd1na2vs0mg"},{"bike_id":"2dfb6b27-1a9d-4365-8ea3-5579df8f7297","system_id":"levelo_inurba_marseille","lat":43.250036,"lon":5.389353,"is_reserved":false,"is_disabled":false,"rental_uris":{"android":"levelo://app?vid=2dfb6b27-1a9d-4365-8ea3-5579df8f7297","ios":"levelo://app?vid=2dfb6b27-1a9d-4365-8ea3-5579df8f7297"},"vehicle_type_id":"4","last_reported":1768479899,"current_range_meters":2800,"station_id":"ce4bhgp2rcd13ifvqfd0","pricing_plan_id":"cebpf4jnsgd1na2vs0mg"},{"bike_id":"7445f670-7827-4e99-80df-37c19e7cc9ec","system_id":"levelo_inurba_marseille","lat":43.3212,"lon":5.36772,"is_reserved":false,"is_disabled":false,"rental_uris":{"android":"levelo://app?vid=7445f670-7827-4e99-80df-37c19e7cc9ec","ios":"levelo://app?vid=7445f670-7827-4e99-80df-37c19e7cc9ec"},"vehicle_type_id":"4","last_reported":1768479899,"current_range_meters":3200,"station_id":"ce4bhrh2rcd13ifvqhug","pricing_plan_id":"cebpf4jnsgd1na2vs0mg"},{"bike_id":"f42ab945-6b46-4b23-ac0b-20e1fd002449","system_id":"levelo_inurba_marseille","lat":43.300324,"lon":5.388794,"is_reserved":false,"is_disabled":false,"rental_uris":{"android":"levelo://app?vid=f42ab945-6b46-4b23-ac0b-20e1fd002449","ios":"levelo://app?vid=f42ab945-6b46-4b23-ac0b-20e1fd002449"},"vehicle_type_id":"4","last_reported":1768479899,"current_range_meters":3200,"station_id":"","pricing_plan_id":"cebpf4jnsgd1na2vs0mg"},{"bike_id":"4e1946d2-ff32-48f3-8c06-bba521e3917a","system_id":"levelo_inurba_marseille","lat":43.282698,"lon":5.350597,"is_reserved":false,"is_disabled":false,"rental_uris":{"android":"levelo://app?vid=4e1946d2-ff32-48f3-8c06-bba521e3917a","ios":"levelo://app?vid=4e1946d2-ff32-48f3-8c06-bba521e3917a"},"vehicle_type_id":"4","last_reported":1768479899,"current_range_meters":3200,"station_id":"ce4bhbp2rcd13ifvqerg","pricing_plan_id":"cebpf4jnsgd1na2vs0mg"},{"bike_id":"cc43e081-46b1-4762-bb08-867f00b43c43","system_id":"levelo_inurba_marseille","lat":43.25087,"lon":5.39526,"is_reserved":false,"is_disabled":false,"rental_uris":{"android":"levelo://app?vid=cc43e081-46b1-4762-bb08-867f00b43c43","ios":"levelo://app?vid=cc43e081-46b1-4762-bb08-867f00b43c43"},"vehicle_type_id":"4","last_reported":1768479899,"current_range_meters":3200,"station_id":"ce4bhm12rcd13ifvqgkg","pricing_plan_id":"cebpf4jnsgd1na2vs0mg"},{"bike_id":"33f17554-2853-4954-b6db-ca98bd3bda6a","system_id":"levelo_inurba_marseille","lat":43.243857,"lon":5.370566,"is_reserved":false,"is_disabled":false,"rental_uris":{"android":"levelo://app?vid=33f17554-2853-4954-b6db-ca98bd3bda6a","ios":"levelo://app?vid=33f17554-2853-4954-b6db-ca98bd3bda6a"},"vehicle_type_id":"4","last_reported":1768479899,"current_range_meters":3200,"station_id":"ce4bhhh2rcd13ifvqfk0","pricing_plan_id":"cebpf4jnsgd1na2vs0mg"},{"bike_id":"b4fefb32-5918-412f-a09d-045e9646695b","system_id":"levelo_inurba_marseille","lat":43.2886,"lon":5.35845,"is_reserved":false,"is_disabled":false,"rental_uris":{"android":"levelo://app?vid=b4fefb32-5918-412f-a09d-045e9646695b","ios":"levelo://app?vid=b4fefb32-5918-412f-a09d-045e9646695b"},"vehicle_type_id":"4","last_reported":1768479899,"current_range_meters":3200,"station_id":"ce4bhb12rcd13ifvqem0","pricing_plan_id":"cebpf4jnsgd1na2vs0mg"},{"bike_id":"25b85b18-57fc-41e9-9a16-dc90f53ce58a","system_id":"levelo_inurba_marseille","lat":43.25577,"lon":5.38241,"is_reserved":false,"is_disabled":false,"rental_uris":{"android":"levelo://app?vid=25b85b18-57fc-41e9-9a16-dc90f53ce58a","ios":"levelo://app?vid=25b85b18-57fc-41e9-9a16-dc90f53ce58a"},"vehicle_type_id":"4","last_reported":1768479899,"current_range_meters":3600,"station_id":"ce4bhih2rcd13ifvqfs0","pricing_plan_id":"cebpf4jnsgd1na2vs0mg"},{"bike_id":"660f8d3d-996c-4d0c-a098-476ebc30f600","system_id":"levelo_inurba_marseille","lat":43.22556,"lon":5.41635,"is_reserved":false,"is_disabled":false,"rental_uris":{"android":"levelo://app?vid=660f8d3d-996c-4d0c-a098-476ebc30f600","ios":"levelo://app?vid=660f8d3d-996c-4d0c-a098-476ebc30f600"},"vehicle_type_id":"4","last_reported":1768479899,"current_range_meters":3600,"station_id":"st_d2o4gvlbi1j2169b742g","pricing_plan_id":"cebpf4jnsgd1na2vs0mg"},{"bike_id":"4ffff497-e642-4103-af13-3dc7617f2640","system_id":"levelo_inurba_marseille","lat":43.29027,"lon":5.38648,"is_reserved":false,"is_disabled":true,"rental_uris":{"android":"levelo://app?vid=4ffff497-e642-4103-af13-3dc7617f2640","ios":"levelo://app?vid=4ffff497-e642-4103-af13-3dc7617f2640"},"vehicle_type_id":"4","last_reported":1768479899,"current_range_meters":3600,"station_id":"ce4bh4p2rcd13ifvqe0g","pricing_plan_id":"cebpf4jnsgd1na2vs0mg"},{"bike_id":"a50c7459-5599-4a58-8d9b-08fca700f66b","system_id":"levelo_inurba_marseille","lat":43.29171,"lon":5.37152,"is_reserved":false,"is_disabled":false,"rental_uris":{"android":"levelo://app?vid=a50c7459-5599-4a58-8d9b-08fca700f66b","ios":"levelo://app?vid=a50c7459-5599-4a58-8d9b-08fca700f66b"},"vehicle_type_id":"4","last_reported":1768479899,"current_range_meters":3600,"station_id":"ce4bha92rcd13ifvqeh0","pricing_plan_id":"cebpf4jnsgd1na2vs0mg"},{"bike_id":"458b8111-0b4f-47b4-a25e-904a27733d5e","system_id":"levelo_inurba_marseille","lat":43.24176,"lon":5.39729,"is_reserved":false,"is_disabled":false,"rental_uris":{"android":"levelo://app?vid=458b8111-0b4f-47b4-a25e-904a27733d5e","ios":"levelo://app?vid=458b8111-0b4f-47b4-a25e-904a27733d5e"},"vehicle_type_id":"4","last_reported":1768479899,"current_range_meters":3600,"station_id":"","pricing_plan_id":"cebpf4jnsgd1na2vs0mg"},{"bike_id":"786b9a2c-95a8-4a94-96a2-8f0a3b6e254b","system_id":"levelo_inurba_marseille","lat":43.31487,"lon":5.37296,"is_reserved":false,"is_disabled":false,"rental_uris":{"android":"levelo://app?vid=786b9a2c-95a8-4a94-96a2-8f0a3b6e254b","ios":"levelo://app?vid=786b9a2c-95a8-4a94-96a2-8f0a3b6e254b"},"vehicle_type_id":"4","last_reported":1768479899,"current_range_meters":3600,"station_id":"ce4bgt12rcd13ifvqcd0","pricing_plan_id":"cebpf4jnsgd1na2vs0mg"},{"bike_id":"47e994b3-8de2-4eda-86db-6cfbc4c9a359","system_id":"levelo_inurba_marseille","lat":43.265785,"lon":5.389982,"is_reserved":false,"is_disabled":false,"rental_uris":{"android":"levelo://app?vid=47e994b3-8de2-4eda-86db-6cfbc4c9a359","ios":"levelo://app?vid=47e994b3-8de2-4eda-86db-6cfbc4c9a359"},"vehicle_type_id":"4","last_reported":1768479899,"current_range_meters":3600,"station_id":"ce4bhe12rcd13ifvqf30","pricing_plan_id":"cebpf4jnsgd1na2vs0mg"},{"bike_id":"ae1d99b1-82a1-460d-bd96-dc1d194fe893","system_id":"levelo_inurba_marseille","lat":43.29823,"lon":5.37648,"is_reserved":false,"is_disabled":false,"rental_uris":{"android":"levelo://app?vid=ae1d99b1-82a1-460d-bd96-dc1d194fe893","ios":"levelo://app?vid=ae1d99b1-82a1-460d-bd96-dc1d194fe893"},"vehicle_type_id":"4","last_reported":1768479899,"current_range_meters":3600,"station_id":"","pricing_plan_id":"cebpf4jnsgd1na2vs0mg"},{"bike_id":"091c8081-61de-43ac-bb2c-74077a5d4149","system_id":"levelo_inurba_marseille","lat":43.22552,"lon":5.41644,"is_reserved":false,"is_disabled":false,"rental_uris":{"android":"levelo://app?vid=091c8081-61de-43ac-bb2c-74077a5d4149","ios":"levelo://app?vid=091c8081-61de-43ac-bb2c-74077a5d4149"},"vehicle_type_id":"4","last_reported":1768479899,"current_range_meters":3600,"station_id":"st_d2o4gvlbi1j2169b742g","pricing_plan_id":"cebpf4jnsgd1na2vs0mg"},{"bike_id":"f462e936-749b-4584-8105-dd7f2d3dcdd5","system_id":"levelo_inurba_marseille","lat":43.29811,"lon":5.3809,"is_reserved":false,"is_disabled":false,"rental_uris":{"android":"levelo://app?vid=f462e936-749b-4584-8105-dd7f2d3dcdd5","ios":"levelo://app?vid=f462e936-749b-4584-8105-dd7f2d3dcdd5"},"vehicle_type_id":"4","last_reported":1768479899,"current_range_meters":3600,"station_id":"ce4bgip2rcd13ifvqbb0","pricing_plan_id":"cebpf4jnsgd1na2vs0mg"},{"bike_id":"9a5fbf1f-0437-41c2-b6e1-9b4f9884e63d","system_id":"levelo_inurba_marseille","lat":43.24056,"lon":5.3784,"is_reserved":false,"is_disabled":false,"rental_uris":{"android":"levelo://app?vid=9a5fbf1f-0437-41c2-b6e1-9b4f9884e63d","ios":"levelo://app?vid=9a5fbf1f-0437-41c2-b6e1-9b4f9884e63d"},"vehicle_type_id":"4","last_reported":1768479899,"current_range_meters":3600,"station_id":"","pricing_plan_id":"cebpf4jnsgd1na2vs0mg"},{"bike_id":"bd4b15a9-002c-4633-885a-3535a5835aff","system_id":"levelo_inurba_marseille","lat":43.273077,"lon":5.399529,"is_reserved":false,"is_disabled":false,"rental_uris":{"android":"levelo://app?vid=bd4b15a9-002c-4633-885a-3535a5835aff","ios":"levelo://app?vid=bd4b15a9-002c-4633-885a-3535a5835aff"},"vehicle_type_id":"4","last_reported":1768479899,"current_range_meters":3600,"station_id":"","pricing_plan_id":"cebpf4jnsgd1na2vs0mg"},{"bike_id":"87384fb8-33b0-438e-8b62-02166d183a2b","system_id":"levelo_inurba_marseille","lat":43.24953,"lon":5.40492,"is_reserved":false,"is_disabled":false,"rental_uris":{"android":"levelo://app?vid=87384fb8-33b0-438e-8b62-02166d183a2b","ios":"levelo://app?vid=87384fb8-33b0-438e-8b62-02166d183a2b"},"vehicle_type_id":"4","last_reported":1768479899,"current_range_meters":3600,"station_id":"","pricing_plan_id":"cebpf4jnsgd1na2vs0mg"},{"bike_id":"c75b139b-6977-457c-8fab-86c172554976","system_id":"levelo_inurba_marseille","lat":43.25103,"lon":5.40455,"is_reserved":false,"is_disabled":false,"rental_uris":{"android":"levelo://app?vid=c75b139b-6977-457c-8fab-86c172554976","ios":"levelo://app?vid=c75b139b-6977-457c-8fab-86c172554976"},"vehicle_type_id":"4","last_reported":1768479899,"current_range_meters":4000,"station_id":"","pricing_plan_id":"cebpf4jnsgd1na2vs0mg"},{"bike_id":"ceb79ba1-b9dc-445b-991b-6fc71d2d14bf","system_id":"levelo_inurba_marseille","lat":43.28221,"lon":5.3907,"is_reserved":false,"is_disabled":false,"rental_uris":{"android":"levelo://app?vid=ceb79ba1-b9dc-445b-991b-6fc71d2d14bf","ios":"levelo://app?vid=ceb79ba1-b9dc-445b-991b-6fc71d2d14bf"},"vehicle_type_id":"4","last_reported":1768479899,"current_range_meters":4000,"station_id":"ce4bhn92rcd13ifvqgsg","pricing_plan_id":"cebpf4jnsgd1na2vs0mg"},{"bike_id":"483c2569-5456-4e2b-a288-57d99b6d8c71","system_id":"levelo_inurba_marseille","lat":43.305952,"lon":5.393528,"is_reserved":false,"is_disabled":false,"rental_uris":{"android":"levelo://app?vid=483c2569-5456-4e2b-a288-57d99b6d8c71","ios":"levelo://app?vid=483c2569-5456-4e2b-a288-57d99b6d8c71"},"vehicle_type_id":"4","last_reported":1768479899,"current_range_meters":4000,"station_id":"ce4bh0p2rcd13ifvqd80","pricing_plan_id":"cebpf4jnsgd1na2vs0mg"},{"bike_id":"52dc7a23-02b1-49ea-88fe-a1d65ef8f548","system_id":"levelo_inurba_marseille","lat":43.22927,"lon":5.35383,"is_reserved":false,"is_disabled":false,"rental_uris":{"android":"levelo://app?vid=52dc7a23-02b1-49ea-88fe-a1d65ef8f548","ios":"levelo://app?vid=52dc7a23-02b1-49ea-88fe-a1d65ef8f548"},"vehicle_type_id":"4","last_reported":1768479899,"current_range_meters":4000,"station_id":"cpo3532slgdg3j2ikp40","pricing_plan_id":"cebpf4jnsgd1na2vs0mg"},{"bike_id":"6c710942-6f01-4cbf-bea5-e9cc295b5d4f","system_id":"levelo_inurba_marseille","lat":43.27055,"lon":5.40253,"is_reserved":false,"is_disabled":false,"rental_uris":{"android":"levelo://app?vid=6c710942-6f01-4cbf-bea5-e9cc295b5d4f","ios":"levelo://app?vid=6c710942-6f01-4cbf-bea5-e9cc295b5d4f"},"vehicle_type_id":"4","last_reported":1768479899,"current_range_meters":4000,"station_id":"ce4bhk92rcd13ifvqgc0","pricing_plan_id":"cebpf4jnsgd1na2vs0mg"},{"bike_id":"86aaef4b-aac1-4248-ac79-0d9f37b8c62f","system_id":"levelo_inurba_marseille","lat":43.27317,"lon":5.41682,"is_reserved":false,"is_disabled":false,"rental_uris":{"android":"levelo://app?vid=86aaef4b-aac1-4248-ac79-0d9f37b8c62f","ios":"levelo://app?vid=86aaef4b-aac1-4248-ac79-0d9f37b8c62f"},"vehicle_type_id":"4","last_reported":1768479899,"current_range_meters":4000,"station_id":"","pricing_plan_id":"cebpf4jnsgd1na2vs0mg"},{"bike_id":"95812071-1d38-4617-a44b-6d68986b8d1a","system_id":"levelo_inurba_marseille","lat":43.304635,"lon":5.379108,"is_reserved":false,"is_disabled":false,"rental_uris":{"android":"levelo://app?vid=95812071-1d38-4617-a44b-6d68986b8d1a","ios":"levelo://app?vid=95812071-1d38-4617-a44b-6d68986b8d1a"},"vehicle_type_id":"4","last_reported":1768479899,"current_range_meters":4000,"station_id":"ce4bgs12rcd13ifvqcag","pricing_plan_id":"cebpf4jnsgd1na2vs0mg"},{"bike_id":"a1a99edd-36ac-420f-8683-79018a4b11b7","system_id":"levelo_inurba_marseille","lat":43.30466,"lon":5.37911,"is_reserved":false,"is_disabled":false,"rental_uris":{"android":"levelo://app?vid=a1a99edd-36ac-420f-8683-79018a4b11b7","ios":"levelo://app?vid=a1a99edd-36ac-420f-8683-79018a4b11b7"},"vehicle_type_id":"4","last_reported":1768479899,"current_range_meters":4000,"station_id":"ce4bgup2rcd13ifvqcn0","pricing_plan_id":"cebpf4jnsgd1na2vs0mg"},{"bike_id":"2f317efe-a01b-468a-9036-21dfc4cc3358","system_id":"levelo_inurba_marseille","lat":43.25817,"lon":5.39435,"is_reserved":false,"is_disabled":false,"rental_uris":{"android":"levelo://app?vid=2f317efe-a01b-468a-9036-21dfc4cc3358","ios":"levelo://app?vid=2f317efe-a01b-468a-9036-21dfc4cc3358"},"vehicle_type_id":"4","last_reported":1768479899,"current_range_meters":4400,"station_id":"ce4bhip2rcd13ifvqft0","pricing_plan_id":"cebpf4jnsgd1na2vs0mg"},{"bike_id":"c38ce724-bdd8-4fc0-a3d2-a15a2487cee1","system_id":"levelo_inurba_marseille","lat":43.255828,"lon":5.382372,"is_reserved":false,"is_disabled":false,"rental_uris":{"android":"levelo://app?vid=c38ce724-bdd8-4fc0-a3d2-a15a2487cee1","ios":"levelo://app?vid=c38ce724-bdd8-4fc0-a3d2-a15a2487cee1"},"vehicle_type_id":"4","last_reported":1768479899,"current_range_meters":4400,"station_id":"ce4bhih2rcd13ifvqfs0","pricing_plan_id":"cebpf4jnsgd1na2vs0mg"},{"bike_id":"2a682e48-4901-4884-af44-aaa6a8d2add6","system_id":"levelo_inurba_marseille","lat":43.24072,"lon":5.37761,"is_reserved":false,"is_disabled":false,"rental_uris":{"android":"levelo://app?vid=2a682e48-4901-4884-af44-aaa6a8d2add6","ios":"levelo://app?vid=2a682e48-4901-4884-af44-aaa6a8d2add6"},"vehicle_type_id":"4","last_reported":1768479899,"current_range_meters":4400,"station_id":"ce4bhnp2rcd13ifvqgvg","pricing_plan_id":"cebpf4jnsgd1na2vs0mg"},{"bike_id":"5e8902a6-fa64-462d-a76c-0892b4629f66","system_id":"levelo_inurba_marseille","lat":43.266844,"lon":5.382717,"is_reserved":false,"is_disabled":false,"rental_uris":{"android":"levelo://app?vid=5e8902a6-fa64-462d-a76c-0892b4629f66","ios":"levelo://app?vid=5e8902a6-fa64-462d-a76c-0892b4629f66"},"vehicle_type_id":"4","last_reported":1768479899,"current_range_meters":4400,"station_id":"ce4bhg92rcd13ifvqf90","pricing_plan_id":"cebpf4jnsgd1na2vs0mg"},{"bike_id":"5410fd45-b8b4-470d-9bd7-ad1acafbc363","system_id":"levelo_inurba_marseille","lat":43.28477,"lon":5.48396,"is_reserved":false,"is_disabled":false,"rental_uris":{"android":"levelo://app?vid=5410fd45-b8b4-470d-9bd7-ad1acafbc363","ios":"levelo://app?vid=5410fd45-b8b4-470d-9bd7-ad1acafbc363"},"vehicle_type_id":"4","last_reported":1768479899,"current_range_meters":4400,"station_id":"","pricing_plan_id":"cebpf4jnsgd1na2vs0mg"},{"bike_id":"ab4c7e8d-c082-49f2-ad38-3b04b1436978","system_id":"levelo_inurba_marseille","lat":43.22569,"lon":5.41627,"is_reserved":false,"is_disabled":false,"rental_uris":{"android":"levelo://app?vid=ab4c7e8d-c082-49f2-ad38-3b04b1436978","ios":"levelo://app?vid=ab4c7e8d-c082-49f2-ad38-3b04b1436978"},"vehicle_type_id":"4","last_reported":1768479899,"current_range_meters":4400,"station_id":"st_d2o4gvlbi1j2169b742g","pricing_plan_id":"cebpf4jnsgd1na2vs0mg"},{"bike_id":"b16c0fde-3570-452f-a37a-d567538e6b84","system_id":"levelo_inurba_marseille","lat":43.29021,"lon":5.37562,"is_reserved":false,"is_disabled":false,"rental_uris":{"android":"levelo://app?vid=b16c0fde-3570-452f-a37a-d567538e6b84","ios":"levelo://app?vid=b16c0fde-3570-452f-a37a-d567538e6b84"},"vehicle_type_id":"4","last_reported":1768479899,"current_range_meters":4400,"station_id":"ce4bh692rcd13ifvqe90","pricing_plan_id":"cebpf4jnsgd1na2vs0mg"},{"bike_id":"b54d7711-f055-409c-950d-e2c8bc74d3bc","system_id":"levelo_inurba_marseille","lat":43.24806,"lon":5.37453,"is_reserved":false,"is_disabled":false,"rental_uris":{"android":"levelo://app?vid=b54d7711-f055-409c-950d-e2c8bc74d3bc","ios":"levelo://app?vid=b54d7711-f055-409c-950d-e2c8bc74d3bc"},"vehicle_type_id":"4","last_reported":1768479899,"current_range_meters":4400,"station_id":"ce4bhgh2rcd13ifvqfb0","pricing_plan_id":"cebpf4jnsgd1na2vs0mg"},{"bike_id":"699c6bb0-1655-47f0-86fb-78256d649744","system_id":"levelo_inurba_marseille","lat":43.27833,"lon":5.40708,"is_reserved":false,"is_disabled":false,"rental_uris":{"android":"levelo://app?vid=699c6bb0-1655-47f0-86fb-78256d649744","ios":"levelo://app?vid=699c6bb0-1655-47f0-86fb-78256d649744"},"vehicle_type_id":"4","last_reported":1768479899,"current_range_meters":4400,"station_id":"ce4bhnh2rcd13ifvqgtg","pricing_plan_id":"cebpf4jnsgd1na2vs0mg"},{"bike_id":"e2488757-5ad5-407b-9047-50027e916b17","system_id":"levelo_inurba_marseille","lat":43.27351,"lon":5.39119,"is_reserved":false,"is_disabled":false,"rental_uris":{"android":"levelo://app?vid=e2488757-5ad5-407b-9047-50027e916b17","ios":"levelo://app?vid=e2488757-5ad5-407b-9047-50027e916b17"},"vehicle_type_id":"4","last_reported":1768479899,"current_range_meters":4800,"station_id":"","pricing_plan_id":"cebpf4jnsgd1na2vs0mg"},{"bike_id":"1f6347a5-19e8-46a2-84f8-0cf775ac3dcd","system_id":"levelo_inurba_marseille","lat":43.26942,"lon":5.38641,"is_reserved":false,"is_disabled":false,"rental_uris":{"android":"levelo://app?vid=1f6347a5-19e8-46a2-84f8-0cf775ac3dcd","ios":"levelo://app?vid=1f6347a5-19e8-46a2-84f8-0cf775ac3dcd"},"vehicle_type_id":"4","last_reported":1768479899,"current_range_meters":4800,"station_id":"ce4bhh92rcd13ifvqfh0","pricing_plan_id":"cebpf4jnsgd1na2vs0mg"},{"bike_id":"6d05d8e2-3fcb-4612-b5ef-50514af528e9","system_id":"levelo_inurba_marseille","lat":43.324884,"lon":5.3656,"is_reserved":false,"is_disabled":false,"rental_uris":{"android":"levelo://app?vid=6d05d8e2-3fcb-4612-b5ef-50514af528e9","ios":"levelo://app?vid=6d05d8e2-3fcb-4612-b5ef-50514af528e9"},"vehicle_type_id":"4","last_reported":1768479899,"current_range_meters":5600,"station_id":"ce4bhs12rcd13ifvqhvg","pricing_plan_id":"cebpf4jnsgd1na2vs0mg"},{"bike_id":"e952da8e-9048-43f7-9fc2-32c004c50d8a","system_id":"levelo_inurba_marseille","lat":43.24093,"lon":5.37749,"is_reserved":false,"is_disabled":false,"rental_uris":{"android":"levelo://app?vid=e952da8e-9048-43f7-9fc2-32c004c50d8a","ios":"levelo://app?vid=e952da8e-9048-43f7-9fc2-32c004c50d8a"},"vehicle_type_id":"4","last_reported":1768479899,"current_range_meters":5600,"station_id":"ce4bhnp2rcd13ifvqgvg","pricing_plan_id":"cebpf4jnsgd1na2vs0mg"},{"bike_id":"e11889a7-dd00-4680-82ad-dc48c0a7f8b9","system_id":"levelo_inurba_marseille","lat":43.25504,"lon":5.37696,"is_reserved":false,"is_disabled":false,"rental_uris":{"android":"levelo://app?vid=e11889a7-dd00-4680-82ad-dc48c0a7f8b9","ios":"levelo://app?vid=e11889a7-dd00-4680-82ad-dc48c0a7f8b9"},"vehicle_type_id":"4","last_reported":1768479899,"current_range_meters":5600,"station_id":"","pricing_plan_id":"cebpf4jnsgd1na2vs0mg"},{"bike_id":"3b326f81-b0c4-4b16-a9c9-f528a517d078","system_id":"levelo_inurba_marseille","lat":43.23192,"lon":5.35547,"is_reserved":false,"is_disabled":false,"rental_uris":{"android":"levelo://app?vid=3b326f81-b0c4-4b16-a9c9-f528a517d078","ios":"levelo://app?vid=3b326f81-b0c4-4b16-a9c9-f528a517d078"},"vehicle_type_id":"4","last_reported":1768479899,"current_range_meters":5600,"station_id":"ce4bhu92rcd13ifvqi70","pricing_plan_id":"cebpf4jnsgd1na2vs0mg"},{"bike_id":"ecf4eb62-2530-4a75-be0b-61380b03d212","system_id":"levelo_inurba_marseille","lat":43.28231,"lon":5.39073,"is_reserved":false,"is_disabled":false,"rental_uris":{"android":"levelo://app?vid=ecf4eb62-2530-4a75-be0b-61380b03d212","ios":"levelo://app?vid=ecf4eb62-2530-4a75-be0b-61380b03d212"},"vehicle_type_id":"4","last_reported":1768479899,"current_range_meters":5600,"station_id":"ce4bhn92rcd13ifvqgsg","pricing_plan_id":"cebpf4jnsgd1na2vs0mg"},{"bike_id":"554c04e7-941a-4c22-b472-97e077e3a312","system_id":"levelo_inurba_marseille","lat":43.301337,"lon":5.403835,"is_reserved":false,"is_disabled":false,"rental_uris":{"android":"levelo://app?vid=554c04e7-941a-4c22-b472-97e077e3a312","ios":"levelo://app?vid=554c04e7-941a-4c22-b472-97e077e3a312"},"vehicle_type_id":"4","last_reported":1768479899,"current_range_meters":5600,"station_id":"","pricing_plan_id":"cebpf4jnsgd1na2vs0mg"},{"bike_id":"ecd03853-7b89-48ea-a6f5-17bc6f3e5f35","system_id":"levelo_inurba_marseille","lat":43.31342,"lon":5.36709,"is_reserved":false,"is_disabled":false,"rental_uris":{"android":"levelo://app?vid=ecd03853-7b89-48ea-a6f5-17bc6f3e5f35","ios":"levelo://app?vid=ecd03853-7b89-48ea-a6f5-17bc6f3e5f35"},"vehicle_type_id":"4","last_reported":1768479899,"current_range_meters":5600,"station_id":"ce4bgr92rcd13ifvqc6g","pricing_plan_id":"cebpf4jnsgd1na2vs0mg"},{"bike_id":"27f242f3-3ae7-4945-8a79-3968179ff814","system_id":"levelo_inurba_marseille","lat":43.32483,"lon":5.3657,"is_reserved":false,"is_disabled":false,"rental_uris":{"android":"levelo://app?vid=27f242f3-3ae7-4945-8a79-3968179ff814","ios":"levelo://app?vid=27f242f3-3ae7-4945-8a79-3968179ff814"},"vehicle_type_id":"4","last_reported":1768479899,"current_range_meters":5600,"station_id":"ce4bhs12rcd13ifvqhvg","pricing_plan_id":"cebpf4jnsgd1na2vs0mg"},{"bike_id":"52c94e2e-c16b-4f1b-8103-e65a18bcb918","system_id":"levelo_inurba_marseille","lat":43.29031,"lon":5.37574,"is_reserved":false,"is_disabled":false,"rental_uris":{"android":"levelo://app?vid=52c94e2e-c16b-4f1b-8103-e65a18bcb918","ios":"levelo://app?vid=52c94e2e-c16b-4f1b-8103-e65a18bcb918"},"vehicle_type_id":"4","last_reported":1768479899,"current_range_meters":5600,"station_id":"ce4bh692rcd13ifvqe90","pricing_plan_id":"cebpf4jnsgd1na2vs0mg"},{"bike_id":"26e05d3c-6761-4b77-951f-c864124fa018","system_id":"levelo_inurba_marseille","lat":43.250074,"lon":5.389116,"is_reserved":false,"is_disabled":true,"rental_uris":{"android":"levelo://app?vid=26e05d3c-6761-4b77-951f-c864124fa018","ios":"levelo://app?vid=26e05d3c-6761-4b77-951f-c864124fa018"},"vehicle_type_id":"4","last_reported":1768479899,"current_range_meters":5600,"station_id":"ce4bhlp2rcd13ifvqgjg","pricing_plan_id":"cebpf4jnsgd1na2vs0mg"},{"bike_id":"b1a624ea-8541-4523-81c0-215a8e272210","system_id":"levelo_inurba_marseille","lat":43.278832,"lon":5.38049,"is_reserved":false,"is_disabled":false,"rental_uris":{"android":"levelo://app?vid=b1a624ea-8541-4523-81c0-215a8e272210","ios":"levelo://app?vid=b1a624ea-8541-4523-81c0-215a8e272210"},"vehicle_type_id":"4","last_reported":1768479899,"current_range_meters":5600,"station_id":"ce4bhf92rcd13ifvqf50","pricing_plan_id":"cebpf4jnsgd1na2vs0mg"},{"bike_id":"fcb68c86-ffd2-420c-85ae-f616f828cbd4","system_id":"levelo_inurba_marseille","lat":43.259299,"lon":5.409155,"is_reserved":false,"is_disabled":false,"rental_uris":{"android":"levelo://app?vid=fcb68c86-ffd2-420c-85ae-f616f828cbd4","ios":"levelo://app?vid=fcb68c86-ffd2-420c-85ae-f616f828cbd4"},"vehicle_type_id":"4","last_reported":1768479899,"current_range_meters":5600,"station_id":"ce4bhm92rcd13ifvqglg","pricing_plan_id":"cebpf4jnsgd1na2vs0mg"},{"bike_id":"6e527d9a-9b2e-4ec4-9b9a-a4160f583068","system_id":"levelo_inurba_marseille","lat":43.3122,"lon":5.36879,"is_reserved":false,"is_disabled":false,"rental_uris":{"android":"levelo://app?vid=6e527d9a-9b2e-4ec4-9b9a-a4160f583068","ios":"levelo://app?vid=6e527d9a-9b2e-4ec4-9b9a-a4160f583068"},"vehicle_type_id":"4","last_reported":1768479899,"current_range_meters":5600,"station_id":"ce4bgl92rcd13ifvqbq0","pricing_plan_id":"cebpf4jnsgd1na2vs0mg"},{"bike_id":"5842028a-c129-4813-8242-97f19df98b95","system_id":"levelo_inurba_marseille","lat":43.284241,"lon":5.37499,"is_reserved":false,"is_disabled":false,"rental_uris":{"android":"levelo://app?vid=5842028a-c129-4813-8242-97f19df98b95","ios":"levelo://app?vid=5842028a-c129-4813-8242-97f19df98b95"},"vehicle_type_id":"4","last_reported":1768479899,"current_range_meters":5600,"station_id":"ce4bh412rcd13ifvqds0","pricing_plan_id":"cebpf4jnsgd1na2vs0mg"},{"bike_id":"14add131-a95b-4e57-b3b4-e864603e45d3","system_id":"levelo_inurba_marseille","lat":43.262319,"lon":5.404449,"is_reserved":false,"is_disabled":false,"rental_uris":{"android":"levelo://app?vid=14add131-a95b-4e57-b3b4-e864603e45d3","ios":"levelo://app?vid=14add131-a95b-4e57-b3b4-e864603e45d3"},"vehicle_type_id":"4","last_reported":1768479899,"current_range_meters":5600,"station_id":"ce4bhmh2rcd13ifvqgmg","pricing_plan_id":"cebpf4jnsgd1na2vs0mg"},{"bike_id":"b75816f0-8a22-47f7-9c3d-2ea29672369c","system_id":"levelo_inurba_marseille","lat":43.2827,"lon":5.35059,"is_reserved":false,"is_disabled":false,"rental_uris":{"android":"levelo://app?vid=b75816f0-8a22-47f7-9c3d-2ea29672369c","ios":"levelo://app?vid=b75816f0-8a22-47f7-9c3d-2ea29672369c"},"vehicle_type_id":"4","last_reported":1768479899,"current_range_meters":5600,"station_id":"ce4bhbp2rcd13ifvqerg","pricing_plan_id":"cebpf4jnsgd1na2vs0mg"},{"bike_id":"10e580fb-3a4d-48aa-a18d-73ca6a776e6c","system_id":"levelo_inurba_marseille","lat":43.26867,"lon":5.40682,"is_reserved":false,"is_disabled":false,"rental_uris":{"android":"levelo://app?vid=10e580fb-3a4d-48aa-a18d-73ca6a776e6c","ios":"levelo://app?vid=10e580fb-3a4d-48aa-a18d-73ca6a776e6c"},"vehicle_type_id":"4","last_reported":1768479899,"current_range_meters":5600,"station_id":"","pricing_plan_id":"cebpf4jnsgd1na2vs0mg"},{"bike_id":"b3817e2e-cdb9-4c8a-ac4e-2553b766e5fa","system_id":"levelo_inurba_marseille","lat":43.27803,"lon":5.4072,"is_reserved":false,"is_disabled":false,"rental_uris":{"android":"levelo://app?vid=b3817e2e-cdb9-4c8a-ac4e-2553b766e5fa","ios":"levelo://app?vid=b3817e2e-cdb9-4c8a-ac4e-2553b766e5fa"},"vehicle_type_id":"4","last_reported":1768479899,"current_range_meters":6000,"station_id":"ce4bhnh2rcd13ifvqgtg","pricing_plan_id":"cebpf4jnsgd1na2vs0mg"},{"bike_id":"87a1fc3a-bcb6-4a5c-877a-e3a1ba5af635","system_id":"levelo_inurba_marseille","lat":43.26483,"lon":5.39546,"is_reserved":false,"is_disabled":false,"rental_uris":{"android":"levelo://app?vid=87a1fc3a-bcb6-4a5c-877a-e3a1ba5af635","ios":"levelo://app?vid=87a1fc3a-bcb6-4a5c-877a-e3a1ba5af635"},"vehicle_type_id":"4","last_reported":1768479899,"current_range_meters":6000,"station_id":"ce4bhi12rcd13ifvqfq0","pricing_plan_id":"cebpf4jnsgd1na2vs0mg"},{"bike_id":"634a5032-07c2-4ad0-b886-0e21c013fdce","system_id":"levelo_inurba_marseille","lat":43.25565,"lon":5.38242,"is_reserved":false,"is_disabled":false,"rental_uris":{"android":"levelo://app?vid=634a5032-07c2-4ad0-b886-0e21c013fdce","ios":"levelo://app?vid=634a5032-07c2-4ad0-b886-0e21c013fdce"},"vehicle_type_id":"4","last_reported":1768479899,"current_range_meters":6000,"station_id":"ce4bhih2rcd13ifvqfs0","pricing_plan_id":"cebpf4jnsgd1na2vs0mg"},{"bike_id":"d8b52035-9107-4203-ba3b-8ab85229defc","system_id":"levelo_inurba_marseille","lat":43.25627,"lon":5.40029,"is_reserved":false,"is_disabled":false,"rental_uris":{"android":"levelo://app?vid=d8b52035-9107-4203-ba3b-8ab85229defc","ios":"levelo://app?vid=d8b52035-9107-4203-ba3b-8ab85229defc"},"vehicle_type_id":"4","last_reported":1768479899,"current_range_meters":6000,"station_id":"","pricing_plan_id":"cebpf4jnsgd1na2vs0mg"},{"bike_id":"e30cc9cc-7c16-4bf5-ae30-ef28b9e6ac22","system_id":"levelo_inurba_marseille","lat":43.26547,"lon":5.39047,"is_reserved":false,"is_disabled":false,"rental_uris":{"android":"levelo://app?vid=e30cc9cc-7c16-4bf5-ae30-ef28b9e6ac22","ios":"levelo://app?vid=e30cc9cc-7c16-4bf5-ae30-ef28b9e6ac22"},"vehicle_type_id":"4","last_reported":1768479899,"current_range_meters":6000,"station_id":"ce4bhe12rcd13ifvqf30","pricing_plan_id":"cebpf4jnsgd1na2vs0mg"},{"bike_id":"fb470c73-403f-49a0-9114-2fa419826a0d","system_id":"levelo_inurba_marseille","lat":43.29916,"lon":5.37485,"is_reserved":false,"is_disabled":false,"rental_uris":{"android":"levelo://app?vid=fb470c73-403f-49a0-9114-2fa419826a0d","ios":"levelo://app?vid=fb470c73-403f-49a0-9114-2fa419826a0d"},"vehicle_type_id":"4","last_reported":1768479899,"current_range_meters":6000,"station_id":"ce4bgjh2rcd13ifvqbg0","pricing_plan_id":"cebpf4jnsgd1na2vs0mg"},{"bike_id":"6d5b743f-0d0d-4728-9aac-92cae33bf20c","system_id":"levelo_inurba_marseille","lat":43.25578,"lon":5.38235,"is_reserved":false,"is_disabled":false,"rental_uris":{"android":"levelo://app?vid=6d5b743f-0d0d-4728-9aac-92cae33bf20c","ios":"levelo://app?vid=6d5b743f-0d0d-4728-9aac-92cae33bf20c"},"vehicle_type_id":"4","last_reported":1768479899,"current_range_meters":6000,"station_id":"ce4bhih2rcd13ifvqfs0","pricing_plan_id":"cebpf4jnsgd1na2vs0mg"},{"bike_id":"4c094f44-b184-44ac-94f5-f6c9aa19350c","system_id":"levelo_inurba_marseille","lat":43.24069,"lon":5.37761,"is_reserved":false,"is_disabled":false,"rental_uris":{"android":"levelo://app?vid=4c094f44-b184-44ac-94f5-f6c9aa19350c","ios":"levelo://app?vid=4c094f44-b184-44ac-94f5-f6c9aa19350c"},"vehicle_type_id":"4","last_reported":1768479899,"current_range_meters":6000,"station_id":"ce4bhnp2rcd13ifvqgvg","pricing_plan_id":"cebpf4jnsgd1na2vs0mg"},{"bike_id":"8bfc6f87-ba42-416e-bcc5-a75137158043","system_id":"levelo_inurba_marseille","lat":43.26368,"lon":5.41092,"is_reserved":false,"is_disabled":false,"rental_uris":{"android":"levelo://app?vid=8bfc6f87-ba42-416e-bcc5-a75137158043","ios":"levelo://app?vid=8bfc6f87-ba42-416e-bcc5-a75137158043"},"vehicle_type_id":"4","last_reported":1768479899,"current_range_meters":6000,"station_id":"st_d4e5ca6na9uc73bfl5fg","pricing_plan_id":"cebpf4jnsgd1na2vs0mg"},{"bike_id":"0b8efad4-8cd1-4bf1-98fb-69e1a43f49cd","system_id":"levelo_inurba_marseille","lat":43.28438,"lon":5.39196,"is_reserved":false,"is_disabled":false,"rental_uris":{"android":"levelo://app?vid=0b8efad4-8cd1-4bf1-98fb-69e1a43f49cd","ios":"levelo://app?vid=0b8efad4-8cd1-4bf1-98fb-69e1a43f49cd"},"vehicle_type_id":"4","last_reported":1768479899,"current_range_meters":6000,"station_id":"ce4bhoh2rcd13ifvqh5g","pricing_plan_id":"cebpf4jnsgd1na2vs0mg"},{"bike_id":"857df335-d6b3-4445-9b88-2ddd8f2c4a77","system_id":"levelo_inurba_marseille","lat":43.30505,"lon":5.37336,"is_reserved":false,"is_disabled":false,"rental_uris":{"android":"levelo://app?vid=857df335-d6b3-4445-9b88-2ddd8f2c4a77","ios":"levelo://app?vid=857df335-d6b3-4445-9b88-2ddd8f2c4a77"},"vehicle_type_id":"4","last_reported":1768479899,"current_range_meters":6000,"station_id":"","pricing_plan_id":"cebpf4jnsgd1na2vs0mg"},{"bike_id":"aac02660-451c-4466-97cc-03bd6873da26","system_id":"levelo_inurba_marseille","lat":43.24803,"lon":5.37465,"is_reserved":false,"is_disabled":false,"rental_uris":{"android":"levelo://app?vid=aac02660-451c-4466-97cc-03bd6873da26","ios":"levelo://app?vid=aac02660-451c-4466-97cc-03bd6873da26"},"vehicle_type_id":"4","last_reported":1768479899,"current_range_meters":6000,"station_id":"ce4bhgh2rcd13ifvqfb0","pricing_plan_id":"cebpf4jnsgd1na2vs0mg"},{"bike_id":"83b24877-4fa1-4cbc-9729-5d9b1f26a09d","system_id":"levelo_inurba_marseille","lat":43.29646,"lon":5.39173,"is_reserved":false,"is_disabled":false,"rental_uris":{"android":"levelo://app?vid=83b24877-4fa1-4cbc-9729-5d9b1f26a09d","ios":"levelo://app?vid=83b24877-4fa1-4cbc-9729-5d9b1f26a09d"},"vehicle_type_id":"4","last_reported":1768479899,"current_range_meters":6000,"station_id":"","pricing_plan_id":"cebpf4jnsgd1na2vs0mg"},{"bike_id":"03bea929-ded9-4f0a-b535-3ced67ddbf39","system_id":"levelo_inurba_marseille","lat":43.24636,"lon":5.43147,"is_reserved":false,"is_disabled":false,"rental_uris":{"android":"levelo://app?vid=03bea929-ded9-4f0a-b535-3ced67ddbf39","ios":"levelo://app?vid=03bea929-ded9-4f0a-b535-3ced67ddbf39"},"vehicle_type_id":"4","last_reported":1768479899,"current_range_meters":6000,"station_id":"st_d2m6c4gdas8pm72e190g","pricing_plan_id":"cebpf4jnsgd1na2vs0mg"},{"bike_id":"5622215a-332f-413b-8042-aa1adf741d2f","system_id":"levelo_inurba_marseille","lat":43.282674,"lon":5.350541,"is_reserved":false,"is_disabled":false,"rental_uris":{"android":"levelo://app?vid=5622215a-332f-413b-8042-aa1adf741d2f","ios":"levelo://app?vid=5622215a-332f-413b-8042-aa1adf741d2f"},"vehicle_type_id":"4","last_reported":1768479899,"current_range_meters":6000,"station_id":"ce4bhbp2rcd13ifvqerg","pricing_plan_id":"cebpf4jnsgd1na2vs0mg"},{"bike_id":"63538b81-0cf3-4b4f-b0ff-c2171fb07508","system_id":"levelo_inurba_marseille","lat":43.28268,"lon":5.3507,"is_reserved":false,"is_disabled":false,"rental_uris":{"android":"levelo://app?vid=63538b81-0cf3-4b4f-b0ff-c2171fb07508","ios":"levelo://app?vid=63538b81-0cf3-4b4f-b0ff-c2171fb07508"},"vehicle_type_id":"4","last_reported":1768479899,"current_range_meters":6000,"station_id":"ce4bhbp2rcd13ifvqerg","pricing_plan_id":"cebpf4jnsgd1na2vs0mg"},{"bike_id":"5468c630-a3ef-4249-ae77-0e2bb364ec25","system_id":"levelo_inurba_marseille","lat":43.272047,"lon":5.391859,"is_reserved":false,"is_disabled":false,"rental_uris":{"android":"levelo://app?vid=5468c630-a3ef-4249-ae77-0e2bb364ec25","ios":"levelo://app?vid=5468c630-a3ef-4249-ae77-0e2bb364ec25"},"vehicle_type_id":"4","last_reported":1768479899,"current_range_meters":6000,"station_id":"ce4bhhp2rcd13ifvqfm0","pricing_plan_id":"cebpf4jnsgd1na2vs0mg"},{"bike_id":"62f88f8a-2fa4-4dc7-b96b-5613aa23459e","system_id":"levelo_inurba_marseille","lat":43.25029,"lon":5.38951,"is_reserved":false,"is_disabled":false,"rental_uris":{"android":"levelo://app?vid=62f88f8a-2fa4-4dc7-b96b-5613aa23459e","ios":"levelo://app?vid=62f88f8a-2fa4-4dc7-b96b-5613aa23459e"},"vehicle_type_id":"4","last_reported":1768479899,"current_range_meters":6000,"station_id":"ce4bhgp2rcd13ifvqfd0","pricing_plan_id":"cebpf4jnsgd1na2vs0mg"},{"bike_id":"6da68625-e4b7-41aa-96a7-da86f228b8ba","system_id":"levelo_inurba_marseille","lat":43.30527,"lon":5.36714,"is_reserved":false,"is_disabled":false,"rental_uris":{"android":"levelo://app?vid=6da68625-e4b7-41aa-96a7-da86f228b8ba","ios":"levelo://app?vid=6da68625-e4b7-41aa-96a7-da86f228b8ba"},"vehicle_type_id":"4","last_reported":1768479899,"current_range_meters":6000,"station_id":"ce4bgrp2rcd13ifvqc9g","pricing_plan_id":"cebpf4jnsgd1na2vs0mg"},{"bike_id":"6858eccd-06f5-4b7f-a1b2-97c16452b7d5","system_id":"levelo_inurba_marseille","lat":43.22569,"lon":5.41642,"is_reserved":false,"is_disabled":false,"rental_uris":{"android":"levelo://app?vid=6858eccd-06f5-4b7f-a1b2-97c16452b7d5","ios":"levelo://app?vid=6858eccd-06f5-4b7f-a1b2-97c16452b7d5"},"vehicle_type_id":"4","last_reported":1768479899,"current_range_meters":6000,"station_id":"st_d2o4gvlbi1j2169b742g","pricing_plan_id":"cebpf4jnsgd1na2vs0mg"},{"bike_id":"68ae23aa-b332-4f3e-8a51-bb845df82b9e","system_id":"levelo_inurba_marseille","lat":43.25577,"lon":5.38236,"is_reserved":false,"is_disabled":false,"rental_uris":{"android":"levelo://app?vid=68ae23aa-b332-4f3e-8a51-bb845df82b9e","ios":"levelo://app?vid=68ae23aa-b332-4f3e-8a51-bb845df82b9e"},"vehicle_type_id":"4","last_reported":1768479899,"current_range_meters":6000,"station_id":"","pricing_plan_id":"cebpf4jnsgd1na2vs0mg"},{"bike_id":"896257ab-e036-460e-8595-b66201be0194","system_id":"levelo_inurba_marseille","lat":43.27497,"lon":5.42457,"is_reserved":false,"is_disabled":false,"rental_uris":{"android":"levelo://app?vid=896257ab-e036-460e-8595-b66201be0194","ios":"levelo://app?vid=896257ab-e036-460e-8595-b66201be0194"},"vehicle_type_id":"4","last_reported":1768479899,"current_range_meters":6400,"station_id":"ce4bhn92rcd13ifvqgrg","pricing_plan_id":"cebpf4jnsgd1na2vs0mg"},{"bike_id":"b02e7b3d-bfa1-4a73-bfb4-3a8d24b24cf4","system_id":"levelo_inurba_marseille","lat":43.25507,"lon":5.37657,"is_reserved":false,"is_disabled":false,"rental_uris":{"android":"levelo://app?vid=b02e7b3d-bfa1-4a73-bfb4-3a8d24b24cf4","ios":"levelo://app?vid=b02e7b3d-bfa1-4a73-bfb4-3a8d24b24cf4"},"vehicle_type_id":"4","last_reported":1768479899,"current_range_meters":6400,"station_id":"ce4bhh12rcd13ifvqff0","pricing_plan_id":"cebpf4jnsgd1na2vs0mg"},{"bike_id":"375af674-d438-4255-9b75-ff6fc63ee682","system_id":"levelo_inurba_marseille","lat":43.24676,"lon":5.38144,"is_reserved":false,"is_disabled":false,"rental_uris":{"android":"levelo://app?vid=375af674-d438-4255-9b75-ff6fc63ee682","ios":"levelo://app?vid=375af674-d438-4255-9b75-ff6fc63ee682"},"vehicle_type_id":"4","last_reported":1768479899,"current_range_meters":6400,"station_id":"ce4bhih2rcd13ifvqfr0","pricing_plan_id":"cebpf4jnsgd1na2vs0mg"},{"bike_id":"333678ab-48ed-467f-be49-f68e59ac50d3","system_id":"levelo_inurba_marseille","lat":43.28224,"lon":5.39064,"is_reserved":false,"is_disabled":false,"rental_uris":{"android":"levelo://app?vid=333678ab-48ed-467f-be49-f68e59ac50d3","ios":"levelo://app?vid=333678ab-48ed-467f-be49-f68e59ac50d3"},"vehicle_type_id":"4","last_reported":1768479899,"current_range_meters":6400,"station_id":"ce4bhn92rcd13ifvqgsg","pricing_plan_id":"cebpf4jnsgd1na2vs0mg"},{"bike_id":"5cfd03cf-24a1-4762-9fb7-26a053abe44f","system_id":"levelo_inurba_marseille","lat":43.25835,"lon":5.39443,"is_reserved":false,"is_disabled":false,"rental_uris":{"android":"levelo://app?vid=5cfd03cf-24a1-4762-9fb7-26a053abe44f","ios":"levelo://app?vid=5cfd03cf-24a1-4762-9fb7-26a053abe44f"},"vehicle_type_id":"4","last_reported":1768479899,"current_range_meters":6400,"station_id":"ce4bhip2rcd13ifvqft0","pricing_plan_id":"cebpf4jnsgd1na2vs0mg"},{"bike_id":"2bae9f67-b649-4326-9db5-076d835a5d1d","system_id":"levelo_inurba_marseille","lat":43.246305,"lon":5.431528,"is_reserved":false,"is_disabled":false,"rental_uris":{"android":"levelo://app?vid=2bae9f67-b649-4326-9db5-076d835a5d1d","ios":"levelo://app?vid=2bae9f67-b649-4326-9db5-076d835a5d1d"},"vehicle_type_id":"4","last_reported":1768479899,"current_range_meters":6400,"station_id":"st_d2m6c4gdas8pm72e190g","pricing_plan_id":"cebpf4jnsgd1na2vs0mg"},{"bike_id":"f70312eb-20fa-424a-aa5d-3f12acc2ca59","system_id":"levelo_inurba_marseille","lat":43.24384,"lon":5.37053,"is_reserved":false,"is_disabled":false,"rental_uris":{"android":"levelo://app?vid=f70312eb-20fa-424a-aa5d-3f12acc2ca59","ios":"levelo://app?vid=f70312eb-20fa-424a-aa5d-3f12acc2ca59"},"vehicle_type_id":"4","last_reported":1768479899,"current_range_meters":6400,"station_id":"ce4bhhh2rcd13ifvqfk0","pricing_plan_id":"cebpf4jnsgd1na2vs0mg"},{"bike_id":"3838cd4d-7c68-4b09-a88f-b6682996a626","system_id":"levelo_inurba_marseille","lat":43.26207,"lon":5.40452,"is_reserved":false,"is_disabled":false,"rental_uris":{"android":"levelo://app?vid=3838cd4d-7c68-4b09-a88f-b6682996a626","ios":"levelo://app?vid=3838cd4d-7c68-4b09-a88f-b6682996a626"},"vehicle_type_id":"4","last_reported":1768479899,"current_range_meters":6400,"station_id":"ce4bhmh2rcd13ifvqgmg","pricing_plan_id":"cebpf4jnsgd1na2vs0mg"},{"bike_id":"bed1d8ee-b3be-4fef-a8af-83b04fe39dc4","system_id":"levelo_inurba_marseille","lat":43.318878,"lon":5.407379,"is_reserved":false,"is_disabled":false,"rental_uris":{"android":"levelo://app?vid=bed1d8ee-b3be-4fef-a8af-83b04fe39dc4","ios":"levelo://app?vid=bed1d8ee-b3be-4fef-a8af-83b04fe39dc4"},"vehicle_type_id":"4","last_reported":1768479899,"current_range_meters":6400,"station_id":"ce4bhq12rcd13ifvqhig","pricing_plan_id":"cebpf4jnsgd1na2vs0mg"},{"bike_id":"45560b8c-0e05-4e12-aadd-6d4f84ae2310","system_id":"levelo_inurba_marseille","lat":43.2687,"lon":5.38911,"is_reserved":false,"is_disabled":false,"rental_uris":{"android":"levelo://app?vid=45560b8c-0e05-4e12-aadd-6d4f84ae2310","ios":"levelo://app?vid=45560b8c-0e05-4e12-aadd-6d4f84ae2310"},"vehicle_type_id":"4","last_reported":1768479899,"current_range_meters":6400,"station_id":"","pricing_plan_id":"cebpf4jnsgd1na2vs0mg"},{"bike_id":"f1d328ec-8a2c-4647-8162-9531bcbcb299","system_id":"levelo_inurba_marseille","lat":43.24456,"lon":5.41091,"is_reserved":false,"is_disabled":false,"rental_uris":{"android":"levelo://app?vid=f1d328ec-8a2c-4647-8162-9531bcbcb299","ios":"levelo://app?vid=f1d328ec-8a2c-4647-8162-9531bcbcb299"},"vehicle_type_id":"4","last_reported":1768479899,"current_range_meters":6400,"station_id":"","pricing_plan_id":"cebpf4jnsgd1na2vs0mg"},{"bike_id":"f26e9a9c-efcf-4817-ad70-c481de1d89b3","system_id":"levelo_inurba_marseille","lat":43.262142,"lon":5.374418,"is_reserved":false,"is_disabled":false,"rental_uris":{"android":"levelo://app?vid=f26e9a9c-efcf-4817-ad70-c481de1d89b3","ios":"levelo://app?vid=f26e9a9c-efcf-4817-ad70-c481de1d89b3"},"vehicle_type_id":"4","last_reported":1768479899,"current_range_meters":6800,"station_id":"ce4bhgp2rcd13ifvqfc0","pricing_plan_id":"cebpf4jnsgd1na2vs0mg"},{"bike_id":"6f5bac51-1804-4cd4-beeb-e05c41221d16","system_id":"levelo_inurba_marseille","lat":43.30541,"lon":5.36711,"is_reserved":false,"is_disabled":false,"rental_uris":{"android":"levelo://app?vid=6f5bac51-1804-4cd4-beeb-e05c41221d16","ios":"levelo://app?vid=6f5bac51-1804-4cd4-beeb-e05c41221d16"},"vehicle_type_id":"4","last_reported":1768479899,"current_range_meters":6800,"station_id":"ce4bgrp2rcd13ifvqc9g","pricing_plan_id":"cebpf4jnsgd1na2vs0mg"},{"bike_id":"bc05764b-2136-45ba-8d47-48a061c67081","system_id":"levelo_inurba_marseille","lat":43.32523,"lon":5.41456,"is_reserved":false,"is_disabled":false,"rental_uris":{"android":"levelo://app?vid=bc05764b-2136-45ba-8d47-48a061c67081","ios":"levelo://app?vid=bc05764b-2136-45ba-8d47-48a061c67081"},"vehicle_type_id":"4","last_reported":1768479899,"current_range_meters":6800,"station_id":"ce4bhq12rcd13ifvqhhg","pricing_plan_id":"cebpf4jnsgd1na2vs0mg"},{"bike_id":"a3a68054-3a27-4a78-8534-42fd98fd0061","system_id":"levelo_inurba_marseille","lat":43.25575,"lon":5.38239,"is_reserved":false,"is_disabled":false,"rental_uris":{"android":"levelo://app?vid=a3a68054-3a27-4a78-8534-42fd98fd0061","ios":"levelo://app?vid=a3a68054-3a27-4a78-8534-42fd98fd0061"},"vehicle_type_id":"4","last_reported":1768479899,"current_range_meters":6800,"station_id":"ce4bhih2rcd13ifvqfs0","pricing_plan_id":"cebpf4jnsgd1na2vs0mg"},{"bike_id":"b51c6372-d6f8-4f60-88ea-74da3246daef","system_id":"levelo_inurba_marseille","lat":43.28844,"lon":5.35827,"is_reserved":false,"is_disabled":false,"rental_uris":{"android":"levelo://app?vid=b51c6372-d6f8-4f60-88ea-74da3246daef","ios":"levelo://app?vid=b51c6372-d6f8-4f60-88ea-74da3246daef"},"vehicle_type_id":"4","last_reported":1768479899,"current_range_meters":6800,"station_id":"ce4bhb12rcd13ifvqem0","pricing_plan_id":"cebpf4jnsgd1na2vs0mg"},{"bike_id":"027c6635-f334-4e8c-88a0-e51b1cef62a5","system_id":"levelo_inurba_marseille","lat":43.26693,"lon":5.38278,"is_reserved":false,"is_disabled":true,"rental_uris":{"android":"levelo://app?vid=027c6635-f334-4e8c-88a0-e51b1cef62a5","ios":"levelo://app?vid=027c6635-f334-4e8c-88a0-e51b1cef62a5"},"vehicle_type_id":"4","last_reported":1768479899,"current_range_meters":6800,"station_id":"ce4bhg92rcd13ifvqf90","pricing_plan_id":"cebpf4jnsgd1na2vs0mg"},{"bike_id":"9d05c7dd-17d9-42a5-adbe-ea7dc81ad430","system_id":"levelo_inurba_marseille","lat":43.28955,"lon":5.3963,"is_reserved":false,"is_disabled":false,"rental_uris":{"android":"levelo://app?vid=9d05c7dd-17d9-42a5-adbe-ea7dc81ad430","ios":"levelo://app?vid=9d05c7dd-17d9-42a5-adbe-ea7dc81ad430"},"vehicle_type_id":"4","last_reported":1768479899,"current_range_meters":6800,"station_id":"ce4bh3h2rcd13ifvqdn0","pricing_plan_id":"cebpf4jnsgd1na2vs0mg"},{"bike_id":"b145202a-bcf6-4da7-8256-830a303f491a","system_id":"levelo_inurba_marseille","lat":43.2418,"lon":5.39734,"is_reserved":false,"is_disabled":false,"rental_uris":{"android":"levelo://app?vid=b145202a-bcf6-4da7-8256-830a303f491a","ios":"levelo://app?vid=b145202a-bcf6-4da7-8256-830a303f491a"},"vehicle_type_id":"4","last_reported":1768479899,"current_range_meters":6800,"station_id":"ce4bhn12rcd13ifvqgpg","pricing_plan_id":"cebpf4jnsgd1na2vs0mg"},{"bike_id":"23694f2c-b2d4-4d58-b373-d1c7186e4244","system_id":"levelo_inurba_marseille","lat":43.29749,"lon":5.42784,"is_reserved":false,"is_disabled":false,"rental_uris":{"android":"levelo://app?vid=23694f2c-b2d4-4d58-b373-d1c7186e4244","ios":"levelo://app?vid=23694f2c-b2d4-4d58-b373-d1c7186e4244"},"vehicle_type_id":"4","last_reported":1768479899,"current_range_meters":6800,"station_id":"st_d3md5207bmas73dh9klg","pricing_plan_id":"cebpf4jnsgd1na2vs0mg"},{"bike_id":"f9fdbb48-1798-4538-9bda-de4b35ab0ad4","system_id":"levelo_inurba_marseille","lat":43.28131,"lon":5.3831,"is_reserved":false,"is_disabled":false,"rental_uris":{"android":"levelo://app?vid=f9fdbb48-1798-4538-9bda-de4b35ab0ad4","ios":"levelo://app?vid=f9fdbb48-1798-4538-9bda-de4b35ab0ad4"},"vehicle_type_id":"4","last_reported":1768479899,"current_range_meters":6800,"station_id":"","pricing_plan_id":"cebpf4jnsgd1na2vs0mg"},{"bike_id":"79f3ec3c-1fb1-425b-b1f2-f44cb562b23a","system_id":"levelo_inurba_marseille","lat":43.2656,"lon":5.37282,"is_reserved":false,"is_disabled":false,"rental_uris":{"android":"levelo://app?vid=79f3ec3c-1fb1-425b-b1f2-f44cb562b23a","ios":"levelo://app?vid=79f3ec3c-1fb1-425b-b1f2-f44cb562b23a"},"vehicle_type_id":"4","last_reported":1768479899,"current_range_meters":6800,"station_id":"ce4bhg12rcd13ifvqf70","pricing_plan_id":"cebpf4jnsgd1na2vs0mg"},{"bike_id":"1c9762d0-99c2-407e-affd-fe0880429a32","system_id":"levelo_inurba_marseille","lat":43.24631,"lon":5.43158,"is_reserved":false,"is_disabled":false,"rental_uris":{"android":"levelo://app?vid=1c9762d0-99c2-407e-affd-fe0880429a32","ios":"levelo://app?vid=1c9762d0-99c2-407e-affd-fe0880429a32"},"vehicle_type_id":"4","last_reported":1768479899,"current_range_meters":6800,"station_id":"st_d2m6c4gdas8pm72e190g","pricing_plan_id":"cebpf4jnsgd1na2vs0mg"},{"bike_id":"b5ad29a0-462d-4d07-9a18-d87946a4398c","system_id":"levelo_inurba_marseille","lat":43.31146,"lon":5.38057,"is_reserved":false,"is_disabled":false,"rental_uris":{"android":"levelo://app?vid=b5ad29a0-462d-4d07-9a18-d87946a4398c","ios":"levelo://app?vid=b5ad29a0-462d-4d07-9a18-d87946a4398c"},"vehicle_type_id":"4","last_reported":1768479899,"current_range_meters":6800,"station_id":"","pricing_plan_id":"cebpf4jnsgd1na2vs0mg"},{"bike_id":"18bad80f-7f5e-41cb-9735-a8241c24f0e1","system_id":"levelo_inurba_marseille","lat":43.30537,"lon":5.36695,"is_reserved":false,"is_disabled":false,"rental_uris":{"android":"levelo://app?vid=18bad80f-7f5e-41cb-9735-a8241c24f0e1","ios":"levelo://app?vid=18bad80f-7f5e-41cb-9735-a8241c24f0e1"},"vehicle_type_id":"4","last_reported":1768479899,"current_range_meters":6800,"station_id":"ce4bgrp2rcd13ifvqc9g","pricing_plan_id":"cebpf4jnsgd1na2vs0mg"},{"bike_id":"d78a48ea-39a0-4d9b-b0e7-f144e9acb1ee","system_id":"levelo_inurba_marseille","lat":43.25514,"lon":5.3765,"is_reserved":false,"is_disabled":false,"rental_uris":{"android":"levelo://app?vid=d78a48ea-39a0-4d9b-b0e7-f144e9acb1ee","ios":"levelo://app?vid=d78a48ea-39a0-4d9b-b0e7-f144e9acb1ee"},"vehicle_type_id":"4","last_reported":1768479899,"current_range_meters":6800,"station_id":"ce4bhh12rcd13ifvqff0","pricing_plan_id":"cebpf4jnsgd1na2vs0mg"},{"bike_id":"54ae17d3-f972-4236-b447-fa76bd8f3f82","system_id":"levelo_inurba_marseille","lat":43.24827,"lon":5.37464,"is_reserved":false,"is_disabled":false,"rental_uris":{"android":"levelo://app?vid=54ae17d3-f972-4236-b447-fa76bd8f3f82","ios":"levelo://app?vid=54ae17d3-f972-4236-b447-fa76bd8f3f82"},"vehicle_type_id":"4","last_reported":1768479899,"current_range_meters":7200,"station_id":"ce4bhgh2rcd13ifvqfb0","pricing_plan_id":"cebpf4jnsgd1na2vs0mg"},{"bike_id":"c03cd309-c737-47c4-a7e9-06a2667d9dfa","system_id":"levelo_inurba_marseille","lat":43.28528,"lon":5.44095,"is_reserved":false,"is_disabled":false,"rental_uris":{"android":"levelo://app?vid=c03cd309-c737-47c4-a7e9-06a2667d9dfa","ios":"levelo://app?vid=c03cd309-c737-47c4-a7e9-06a2667d9dfa"},"vehicle_type_id":"4","last_reported":1768479899,"current_range_meters":7200,"station_id":"st_d3j3df2ikq2c7380ej80","pricing_plan_id":"cebpf4jnsgd1na2vs0mg"},{"bike_id":"9af187c1-2537-4c30-be3f-10c6aa46ed65","system_id":"levelo_inurba_marseille","lat":43.30136,"lon":5.39862,"is_reserved":false,"is_disabled":false,"rental_uris":{"android":"levelo://app?vid=9af187c1-2537-4c30-be3f-10c6aa46ed65","ios":"levelo://app?vid=9af187c1-2537-4c30-be3f-10c6aa46ed65"},"vehicle_type_id":"4","last_reported":1768479899,"current_range_meters":7200,"station_id":"ce4bh0h2rcd13ifvqd40","pricing_plan_id":"cebpf4jnsgd1na2vs0mg"},{"bike_id":"5c9cf652-9ff1-4da0-9873-4f32753db2aa","system_id":"levelo_inurba_marseille","lat":43.27167,"lon":5.409854,"is_reserved":false,"is_disabled":false,"rental_uris":{"android":"levelo://app?vid=5c9cf652-9ff1-4da0-9873-4f32753db2aa","ios":"levelo://app?vid=5c9cf652-9ff1-4da0-9873-4f32753db2aa"},"vehicle_type_id":"4","last_reported":1768479899,"current_range_meters":7200,"station_id":"ce4bhl12rcd13ifvqgf0","pricing_plan_id":"cebpf4jnsgd1na2vs0mg"},{"bike_id":"30492ac7-350b-4e78-aa66-4b616daad362","system_id":"levelo_inurba_marseille","lat":43.27373,"lon":5.36266,"is_reserved":false,"is_disabled":false,"rental_uris":{"android":"levelo://app?vid=30492ac7-350b-4e78-aa66-4b616daad362","ios":"levelo://app?vid=30492ac7-350b-4e78-aa66-4b616daad362"},"vehicle_type_id":"4","last_reported":1768479899,"current_range_meters":7200,"station_id":"ce4bhbh2rcd13ifvqeo0","pricing_plan_id":"cebpf4jnsgd1na2vs0mg"},{"bike_id":"a6abb70a-7310-45bc-a7c1-aa98f7f2db5b","system_id":"levelo_inurba_marseille","lat":43.32044,"lon":5.41523,"is_reserved":false,"is_disabled":false,"rental_uris":{"android":"levelo://app?vid=a6abb70a-7310-45bc-a7c1-aa98f7f2db5b","ios":"levelo://app?vid=a6abb70a-7310-45bc-a7c1-aa98f7f2db5b"},"vehicle_type_id":"4","last_reported":1768479899,"current_range_meters":7200,"station_id":"ce4bhq92rcd13ifvqhkg","pricing_plan_id":"cebpf4jnsgd1na2vs0mg"},{"bike_id":"b0af1aeb-c4d6-4641-bc9e-da7e6c1db235","system_id":"levelo_inurba_marseille","lat":43.32105,"lon":5.36781,"is_reserved":false,"is_disabled":false,"rental_uris":{"android":"levelo://app?vid=b0af1aeb-c4d6-4641-bc9e-da7e6c1db235","ios":"levelo://app?vid=b0af1aeb-c4d6-4641-bc9e-da7e6c1db235"},"vehicle_type_id":"4","last_reported":1768479899,"current_range_meters":7200,"station_id":"ce4bhrh2rcd13ifvqhug","pricing_plan_id":"cebpf4jnsgd1na2vs0mg"},{"bike_id":"91f04278-7a2a-4467-8252-b638ae479ea4","system_id":"levelo_inurba_marseille","lat":43.28607,"lon":5.39875,"is_reserved":false,"is_disabled":false,"rental_uris":{"android":"levelo://app?vid=91f04278-7a2a-4467-8252-b638ae479ea4","ios":"levelo://app?vid=91f04278-7a2a-4467-8252-b638ae479ea4"},"vehicle_type_id":"4","last_reported":1768479899,"current_range_meters":7200,"station_id":"st_d4a7ka997mjs738ck50g","pricing_plan_id":"cebpf4jnsgd1na2vs0mg"},{"bike_id":"c69a3b93-b500-46bb-900a-d75e3ea95969","system_id":"levelo_inurba_marseille","lat":43.28158,"lon":5.42647,"is_reserved":false,"is_disabled":false,"rental_uris":{"android":"levelo://app?vid=c69a3b93-b500-46bb-900a-d75e3ea95969","ios":"levelo://app?vid=c69a3b93-b500-46bb-900a-d75e3ea95969"},"vehicle_type_id":"4","last_reported":1768479899,"current_range_meters":7200,"station_id":"ce4bhnh2rcd13ifvqgug","pricing_plan_id":"cebpf4jnsgd1na2vs0mg"},{"bike_id":"e23f566d-a441-4ca6-a6a6-2c07aa3f3dd1","system_id":"levelo_inurba_marseille","lat":43.24083,"lon":5.37755,"is_reserved":false,"is_disabled":false,"rental_uris":{"android":"levelo://app?vid=e23f566d-a441-4ca6-a6a6-2c07aa3f3dd1","ios":"levelo://app?vid=e23f566d-a441-4ca6-a6a6-2c07aa3f3dd1"},"vehicle_type_id":"4","last_reported":1768479899,"current_range_meters":7200,"station_id":"ce4bhnp2rcd13ifvqgvg","pricing_plan_id":"cebpf4jnsgd1na2vs0mg"},{"bike_id":"b16db95a-1eae-47ad-b2e3-882874b3d4d4","system_id":"levelo_inurba_marseille","lat":43.28487,"lon":5.48392,"is_reserved":false,"is_disabled":false,"rental_uris":{"android":"levelo://app?vid=b16db95a-1eae-47ad-b2e3-882874b3d4d4","ios":"levelo://app?vid=b16db95a-1eae-47ad-b2e3-882874b3d4d4"},"vehicle_type_id":"4","last_reported":1768479899,"current_range_meters":7200,"station_id":"st_d3svhcjqgbts73a3dn0g","pricing_plan_id":"cebpf4jnsgd1na2vs0mg"},{"bike_id":"153daeb6-1ced-443a-8511-9ccae5c5d53f","system_id":"levelo_inurba_marseille","lat":43.3175,"lon":5.3758,"is_reserved":false,"is_disabled":false,"rental_uris":{"android":"levelo://app?vid=153daeb6-1ced-443a-8511-9ccae5c5d53f","ios":"levelo://app?vid=153daeb6-1ced-443a-8511-9ccae5c5d53f"},"vehicle_type_id":"4","last_reported":1768479899,"current_range_meters":7200,"station_id":"","pricing_plan_id":"cebpf4jnsgd1na2vs0mg"},{"bike_id":"39409321-4eac-4a63-9461-bc27eed3d5fb","system_id":"levelo_inurba_marseille","lat":43.25938,"lon":5.40908,"is_reserved":false,"is_disabled":false,"rental_uris":{"android":"levelo://app?vid=39409321-4eac-4a63-9461-bc27eed3d5fb","ios":"levelo://app?vid=39409321-4eac-4a63-9461-bc27eed3d5fb"},"vehicle_type_id":"4","last_reported":1768479899,"current_range_meters":7200,"station_id":"ce4bhm92rcd13ifvqglg","pricing_plan_id":"cebpf4jnsgd1na2vs0mg"},{"bike_id":"1647898a-7e44-47a9-947d-d61611f1f7c8","system_id":"levelo_inurba_marseille","lat":43.23964,"lon":5.36642,"is_reserved":false,"is_disabled":false,"rental_uris":{"android":"levelo://app?vid=1647898a-7e44-47a9-947d-d61611f1f7c8","ios":"levelo://app?vid=1647898a-7e44-47a9-947d-d61611f1f7c8"},"vehicle_type_id":"4","last_reported":1768479899,"current_range_meters":7200,"station_id":"ce4bhi12rcd13ifvqfp0","pricing_plan_id":"cebpf4jnsgd1na2vs0mg"},{"bike_id":"bbca5a78-1ee0-4dab-ba7e-f05d9beea402","system_id":"levelo_inurba_marseille","lat":43.24476,"lon":5.42532,"is_reserved":false,"is_disabled":false,"rental_uris":{"android":"levelo://app?vid=bbca5a78-1ee0-4dab-ba7e-f05d9beea402","ios":"levelo://app?vid=bbca5a78-1ee0-4dab-ba7e-f05d9beea402"},"vehicle_type_id":"4","last_reported":1768479899,"current_range_meters":7200,"station_id":"st_d4a3vfp97mjs738cd8kg","pricing_plan_id":"cebpf4jnsgd1na2vs0mg"},{"bike_id":"ef11f8c2-c4f2-45d0-9be7-9745443f0dda","system_id":"levelo_inurba_marseille","lat":43.30483,"lon":5.37917,"is_reserved":false,"is_disabled":false,"rental_uris":{"android":"levelo://app?vid=ef11f8c2-c4f2-45d0-9be7-9745443f0dda","ios":"levelo://app?vid=ef11f8c2-c4f2-45d0-9be7-9745443f0dda"},"vehicle_type_id":"4","last_reported":1768479899,"current_range_meters":7200,"station_id":"ce4bgup2rcd13ifvqcn0","pricing_plan_id":"cebpf4jnsgd1na2vs0mg"},{"bike_id":"d2b73451-12f0-496a-b396-840ef1c7bc9a","system_id":"levelo_inurba_marseille","lat":43.29016,"lon":5.37564,"is_reserved":false,"is_disabled":false,"rental_uris":{"android":"levelo://app?vid=d2b73451-12f0-496a-b396-840ef1c7bc9a","ios":"levelo://app?vid=d2b73451-12f0-496a-b396-840ef1c7bc9a"},"vehicle_type_id":"4","last_reported":1768479899,"current_range_meters":7200,"station_id":"ce4bh692rcd13ifvqe90","pricing_plan_id":"cebpf4jnsgd1na2vs0mg"},{"bike_id":"c2363ba3-644f-497c-984f-a69dd5e93016","system_id":"levelo_inurba_marseille","lat":43.33018,"lon":5.39037,"is_reserved":false,"is_disabled":false,"rental_uris":{"android":"levelo://app?vid=c2363ba3-644f-497c-984f-a69dd5e93016","ios":"levelo://app?vid=c2363ba3-644f-497c-984f-a69dd5e93016"},"vehicle_type_id":"4","last_reported":1768479899,"current_range_meters":7200,"station_id":"ce4bhr92rcd13ifvqhrg","pricing_plan_id":"cebpf4jnsgd1na2vs0mg"},{"bike_id":"d1437624-7325-4411-87ce-3009f56ae813","system_id":"levelo_inurba_marseille","lat":43.27808,"lon":5.40706,"is_reserved":false,"is_disabled":false,"rental_uris":{"android":"levelo://app?vid=d1437624-7325-4411-87ce-3009f56ae813","ios":"levelo://app?vid=d1437624-7325-4411-87ce-3009f56ae813"},"vehicle_type_id":"4","last_reported":1768479899,"current_range_meters":8000,"station_id":"ce4bhnh2rcd13ifvqgtg","pricing_plan_id":"cebpf4jnsgd1na2vs0mg"},{"bike_id":"62178309-c3b6-4428-b03b-047a16115917","system_id":"levelo_inurba_marseille","lat":43.29529,"lon":5.38546,"is_reserved":false,"is_disabled":false,"rental_uris":{"android":"levelo://app?vid=62178309-c3b6-4428-b03b-047a16115917","ios":"levelo://app?vid=62178309-c3b6-4428-b03b-047a16115917"},"vehicle_type_id":"4","last_reported":1768479899,"current_range_meters":8000,"station_id":"ce4bgih2rcd13ifvqba0","pricing_plan_id":"cebpf4jnsgd1na2vs0mg"},{"bike_id":"736ec16a-dc55-4587-9b1c-c917e562c9fe","system_id":"levelo_inurba_marseille","lat":43.25515,"lon":5.37655,"is_reserved":false,"is_disabled":false,"rental_uris":{"android":"levelo://app?vid=736ec16a-dc55-4587-9b1c-c917e562c9fe","ios":"levelo://app?vid=736ec16a-dc55-4587-9b1c-c917e562c9fe"},"vehicle_type_id":"4","last_reported":1768479899,"current_range_meters":8000,"station_id":"ce4bhh12rcd13ifvqff0","pricing_plan_id":"cebpf4jnsgd1na2vs0mg"},{"bike_id":"0cdf751e-50be-4213-adcd-ec4933b84284","system_id":"levelo_inurba_marseille","lat":43.28538,"lon":5.44116,"is_reserved":false,"is_disabled":false,"rental_uris":{"android":"levelo://app?vid=0cdf751e-50be-4213-adcd-ec4933b84284","ios":"levelo://app?vid=0cdf751e-50be-4213-adcd-ec4933b84284"},"vehicle_type_id":"4","last_reported":1768479899,"current_range_meters":8000,"station_id":"st_d3j3df2ikq2c7380ej80","pricing_plan_id":"cebpf4jnsgd1na2vs0mg"},{"bike_id":"b64b455e-be80-42fe-9f2c-680efd02c86b","system_id":"levelo_inurba_marseille","lat":43.28537,"lon":5.44099,"is_reserved":false,"is_disabled":false,"rental_uris":{"android":"levelo://app?vid=b64b455e-be80-42fe-9f2c-680efd02c86b","ios":"levelo://app?vid=b64b455e-be80-42fe-9f2c-680efd02c86b"},"vehicle_type_id":"4","last_reported":1768479899,"current_range_meters":8000,"station_id":"st_d3j3df2ikq2c7380ej80","pricing_plan_id":"cebpf4jnsgd1na2vs0mg"},{"bike_id":"9c685001-059a-497e-a588-12877963d9ac","system_id":"levelo_inurba_marseille","lat":43.31055,"lon":5.38355,"is_reserved":false,"is_disabled":false,"rental_uris":{"android":"levelo://app?vid=9c685001-059a-497e-a588-12877963d9ac","ios":"levelo://app?vid=9c685001-059a-497e-a588-12877963d9ac"},"vehicle_type_id":"4","last_reported":1768479899,"current_range_meters":8000,"station_id":"ce4bgv92rcd13ifvqcr0","pricing_plan_id":"cebpf4jnsgd1na2vs0mg"},{"bike_id":"75422019-3005-404c-b749-06eb292054c7","system_id":"levelo_inurba_marseille","lat":43.25005,"lon":5.38933,"is_reserved":false,"is_disabled":false,"rental_uris":{"android":"levelo://app?vid=75422019-3005-404c-b749-06eb292054c7","ios":"levelo://app?vid=75422019-3005-404c-b749-06eb292054c7"},"vehicle_type_id":"4","last_reported":1768479899,"current_range_meters":8000,"station_id":"ce4bhgp2rcd13ifvqfd0","pricing_plan_id":"cebpf4jnsgd1na2vs0mg"},{"bike_id":"82b87168-267f-432c-a609-70f7b40ac901","system_id":"levelo_inurba_marseille","lat":43.277229,"lon":5.4077,"is_reserved":false,"is_disabled":false,"rental_uris":{"android":"levelo://app?vid=82b87168-267f-432c-a609-70f7b40ac901","ios":"levelo://app?vid=82b87168-267f-432c-a609-70f7b40ac901"},"vehicle_type_id":"4","last_reported":1768479899,"current_range_meters":8000,"station_id":"","pricing_plan_id":"cebpf4jnsgd1na2vs0mg"},{"bike_id":"de053820-f473-4d4f-8be6-7eb46f3d1ea3","system_id":"levelo_inurba_marseille","lat":43.31078,"lon":5.39334,"is_reserved":false,"is_disabled":false,"rental_uris":{"android":"levelo://app?vid=de053820-f473-4d4f-8be6-7eb46f3d1ea3","ios":"levelo://app?vid=de053820-f473-4d4f-8be6-7eb46f3d1ea3"},"vehicle_type_id":"4","last_reported":1768479899,"current_range_meters":8000,"station_id":"","pricing_plan_id":"cebpf4jnsgd1na2vs0mg"},{"bike_id":"5f7d7ab8-22eb-44f4-b629-9cb567806cf8","system_id":"levelo_inurba_marseille","lat":43.22942,"lon":5.35379,"is_reserved":false,"is_disabled":false,"rental_uris":{"android":"levelo://app?vid=5f7d7ab8-22eb-44f4-b629-9cb567806cf8","ios":"levelo://app?vid=5f7d7ab8-22eb-44f4-b629-9cb567806cf8"},"vehicle_type_id":"4","last_reported":1768479899,"current_range_meters":8000,"station_id":"cpo3532slgdg3j2ikp40","pricing_plan_id":"cebpf4jnsgd1na2vs0mg"},{"bike_id":"2ffaf0c9-9016-4c67-8314-b46e32a838a9","system_id":"levelo_inurba_marseille","lat":43.24388,"lon":5.37057,"is_reserved":false,"is_disabled":false,"rental_uris":{"android":"levelo://app?vid=2ffaf0c9-9016-4c67-8314-b46e32a838a9","ios":"levelo://app?vid=2ffaf0c9-9016-4c67-8314-b46e32a838a9"},"vehicle_type_id":"4","last_reported":1768479899,"current_range_meters":8000,"station_id":"ce4bhhh2rcd13ifvqfk0","pricing_plan_id":"cebpf4jnsgd1na2vs0mg"},{"bike_id":"60470665-8820-4fe3-8678-5a979f80234d","system_id":"levelo_inurba_marseille","lat":43.27807,"lon":5.40711,"is_reserved":false,"is_disabled":false,"rental_uris":{"android":"levelo://app?vid=60470665-8820-4fe3-8678-5a979f80234d","ios":"levelo://app?vid=60470665-8820-4fe3-8678-5a979f80234d"},"vehicle_type_id":"4","last_reported":1768479899,"current_range_meters":8000,"station_id":"ce4bhnh2rcd13ifvqgtg","pricing_plan_id":"cebpf4jnsgd1na2vs0mg"},{"bike_id":"ecf0d209-53b9-47e3-8f9f-faa8b0ad9eb4","system_id":"levelo_inurba_marseille","lat":43.24951,"lon":5.40485,"is_reserved":false,"is_disabled":false,"rental_uris":{"android":"levelo://app?vid=ecf0d209-53b9-47e3-8f9f-faa8b0ad9eb4","ios":"levelo://app?vid=ecf0d209-53b9-47e3-8f9f-faa8b0ad9eb4"},"vehicle_type_id":"4","last_reported":1768479899,"current_range_meters":8000,"station_id":"st_d2ngiaodas8pm72gd1h0","pricing_plan_id":"cebpf4jnsgd1na2vs0mg"},{"bike_id":"445e6bb7-48c9-49a6-8c05-3a71a09b12a5","system_id":"levelo_inurba_marseille","lat":43.24081,"lon":5.37762,"is_reserved":false,"is_disabled":false,"rental_uris":{"android":"levelo://app?vid=445e6bb7-48c9-49a6-8c05-3a71a09b12a5","ios":"levelo://app?vid=445e6bb7-48c9-49a6-8c05-3a71a09b12a5"},"vehicle_type_id":"4","last_reported":1768479899,"current_range_meters":8000,"station_id":"ce4bhnp2rcd13ifvqgvg","pricing_plan_id":"cebpf4jnsgd1na2vs0mg"},{"bike_id":"0a109872-e118-4460-9b83-c1727cd85de3","system_id":"levelo_inurba_marseille","lat":43.26384,"lon":5.41065,"is_reserved":false,"is_disabled":false,"rental_uris":{"android":"levelo://app?vid=0a109872-e118-4460-9b83-c1727cd85de3","ios":"levelo://app?vid=0a109872-e118-4460-9b83-c1727cd85de3"},"vehicle_type_id":"4","last_reported":1768479899,"current_range_meters":8000,"station_id":"st_d4e5ca6na9uc73bfl5fg","pricing_plan_id":"cebpf4jnsgd1na2vs0mg"},{"bike_id":"8e2a1948-6333-4ed5-97a8-4616503a3850","system_id":"levelo_inurba_marseille","lat":43.2669,"lon":5.38262,"is_reserved":false,"is_disabled":false,"rental_uris":{"android":"levelo://app?vid=8e2a1948-6333-4ed5-97a8-4616503a3850","ios":"levelo://app?vid=8e2a1948-6333-4ed5-97a8-4616503a3850"},"vehicle_type_id":"4","last_reported":1768479899,"current_range_meters":8000,"station_id":"ce4bhg92rcd13ifvqf90","pricing_plan_id":"cebpf4jnsgd1na2vs0mg"},{"bike_id":"227bf9fb-edd8-406b-9395-7813df7ef03a","system_id":"levelo_inurba_marseille","lat":43.28422,"lon":5.37509,"is_reserved":false,"is_disabled":false,"rental_uris":{"android":"levelo://app?vid=227bf9fb-edd8-406b-9395-7813df7ef03a","ios":"levelo://app?vid=227bf9fb-edd8-406b-9395-7813df7ef03a"},"vehicle_type_id":"4","last_reported":1768479899,"current_range_meters":8000,"station_id":"ce4bh412rcd13ifvqds0","pricing_plan_id":"cebpf4jnsgd1na2vs0mg"},{"bike_id":"6baed87d-c126-4bcc-900a-31be14aad376","system_id":"levelo_inurba_marseille","lat":43.24077,"lon":5.37755,"is_reserved":false,"is_disabled":false,"rental_uris":{"android":"levelo://app?vid=6baed87d-c126-4bcc-900a-31be14aad376","ios":"levelo://app?vid=6baed87d-c126-4bcc-900a-31be14aad376"},"vehicle_type_id":"4","last_reported":1768479899,"current_range_meters":8000,"station_id":"ce4bhnp2rcd13ifvqgvg","pricing_plan_id":"cebpf4jnsgd1na2vs0mg"},{"bike_id":"766b6315-d0e9-4f21-99cc-ac73caf0d81f","system_id":"levelo_inurba_marseille","lat":43.2678,"lon":5.394467,"is_reserved":false,"is_disabled":false,"rental_uris":{"android":"levelo://app?vid=766b6315-d0e9-4f21-99cc-ac73caf0d81f","ios":"levelo://app?vid=766b6315-d0e9-4f21-99cc-ac73caf0d81f"},"vehicle_type_id":"4","last_reported":1768479899,"current_range_meters":8000,"station_id":"ce4bhh12rcd13ifvqfg0","pricing_plan_id":"cebpf4jnsgd1na2vs0mg"},{"bike_id":"3b0aee46-29c5-43ec-8462-8fb48a443b5d","system_id":"levelo_inurba_marseille","lat":43.31348,"lon":5.36711,"is_reserved":false,"is_disabled":false,"rental_uris":{"android":"levelo://app?vid=3b0aee46-29c5-43ec-8462-8fb48a443b5d","ios":"levelo://app?vid=3b0aee46-29c5-43ec-8462-8fb48a443b5d"},"vehicle_type_id":"4","last_reported":1768479899,"current_range_meters":8000,"station_id":"ce4bgr92rcd13ifvqc6g","pricing_plan_id":"cebpf4jnsgd1na2vs0mg"},{"bike_id":"d14c563e-7d81-4312-b6b2-f8e7e772a5f6","system_id":"levelo_inurba_marseille","lat":43.24476,"lon":5.42531,"is_reserved":false,"is_disabled":false,"rental_uris":{"android":"levelo://app?vid=d14c563e-7d81-4312-b6b2-f8e7e772a5f6","ios":"levelo://app?vid=d14c563e-7d81-4312-b6b2-f8e7e772a5f6"},"vehicle_type_id":"4","last_reported":1768479899,"current_range_meters":8000,"station_id":"st_d4a3vfp97mjs738cd8kg","pricing_plan_id":"cebpf4jnsgd1na2vs0mg"},{"bike_id":"e76e4329-7113-42cd-be16-ebea4d95fab6","system_id":"levelo_inurba_marseille","lat":43.290394,"lon":5.399747,"is_reserved":false,"is_disabled":false,"rental_uris":{"android":"levelo://app?vid=e76e4329-7113-42cd-be16-ebea4d95fab6","ios":"levelo://app?vid=e76e4329-7113-42cd-be16-ebea4d95fab6"},"vehicle_type_id":"4","last_reported":1768479899,"current_range_meters":8000,"station_id":"ce4bh392rcd13ifvqdm0","pricing_plan_id":"cebpf4jnsgd1na2vs0mg"},{"bike_id":"4e4aeced-c1cb-4ade-9c92-4cf2c7be4951","system_id":"levelo_inurba_marseille","lat":43.30503,"lon":5.37892,"is_reserved":false,"is_disabled":false,"rental_uris":{"android":"levelo://app?vid=4e4aeced-c1cb-4ade-9c92-4cf2c7be4951","ios":"levelo://app?vid=4e4aeced-c1cb-4ade-9c92-4cf2c7be4951"},"vehicle_type_id":"4","last_reported":1768479899,"current_range_meters":8400,"station_id":"ce4bgup2rcd13ifvqcn0","pricing_plan_id":"cebpf4jnsgd1na2vs0mg"},{"bike_id":"91dbe188-56c8-4fce-a414-d6e43ed9eb6b","system_id":"levelo_inurba_marseille","lat":43.26719,"lon":5.3996,"is_reserved":false,"is_disabled":false,"rental_uris":{"android":"levelo://app?vid=91dbe188-56c8-4fce-a414-d6e43ed9eb6b","ios":"levelo://app?vid=91dbe188-56c8-4fce-a414-d6e43ed9eb6b"},"vehicle_type_id":"4","last_reported":1768479899,"current_range_meters":8400,"station_id":"","pricing_plan_id":"cebpf4jnsgd1na2vs0mg"},{"bike_id":"becb4883-e03d-4141-9b48-e2d5d7c63907","system_id":"levelo_inurba_marseille","lat":43.25344,"lon":5.40209,"is_reserved":false,"is_disabled":false,"rental_uris":{"android":"levelo://app?vid=becb4883-e03d-4141-9b48-e2d5d7c63907","ios":"levelo://app?vid=becb4883-e03d-4141-9b48-e2d5d7c63907"},"vehicle_type_id":"4","last_reported":1768479899,"current_range_meters":8400,"station_id":"","pricing_plan_id":"cebpf4jnsgd1na2vs0mg"},{"bike_id":"d7390cf8-7e75-428e-a400-48864d080698","system_id":"levelo_inurba_marseille","lat":43.295982,"lon":5.380971,"is_reserved":false,"is_disabled":false,"rental_uris":{"android":"levelo://app?vid=d7390cf8-7e75-428e-a400-48864d080698","ios":"levelo://app?vid=d7390cf8-7e75-428e-a400-48864d080698"},"vehicle_type_id":"4","last_reported":1768479899,"current_range_meters":8400,"station_id":"ce4bgl12rcd13ifvqbo0","pricing_plan_id":"cebpf4jnsgd1na2vs0mg"},{"bike_id":"311fd6a9-6bc8-41d0-ac40-a89fb207f919","system_id":"levelo_inurba_marseille","lat":43.26972,"lon":5.40269,"is_reserved":false,"is_disabled":false,"rental_uris":{"android":"levelo://app?vid=311fd6a9-6bc8-41d0-ac40-a89fb207f919","ios":"levelo://app?vid=311fd6a9-6bc8-41d0-ac40-a89fb207f919"},"vehicle_type_id":"4","last_reported":1768479899,"current_range_meters":8400,"station_id":"cjm6bp8fraef2m0cb0m0","pricing_plan_id":"cebpf4jnsgd1na2vs0mg"},{"bike_id":"cb1fa835-751e-4f0f-b010-d3e3044c82e2","system_id":"levelo_inurba_marseille","lat":43.28992,"lon":5.36905,"is_reserved":false,"is_disabled":false,"rental_uris":{"android":"levelo://app?vid=cb1fa835-751e-4f0f-b010-d3e3044c82e2","ios":"levelo://app?vid=cb1fa835-751e-4f0f-b010-d3e3044c82e2"},"vehicle_type_id":"4","last_reported":1768479899,"current_range_meters":8400,"station_id":"","pricing_plan_id":"cebpf4jnsgd1na2vs0mg"},{"bike_id":"2c6fec2d-af2d-409a-8263-16905602afd6","system_id":"levelo_inurba_marseille","lat":43.31749,"lon":5.39035,"is_reserved":false,"is_disabled":false,"rental_uris":{"android":"levelo://app?vid=2c6fec2d-af2d-409a-8263-16905602afd6","ios":"levelo://app?vid=2c6fec2d-af2d-409a-8263-16905602afd6"},"vehicle_type_id":"4","last_reported":1768479899,"current_range_meters":8400,"station_id":"ce4bhqp2rcd13ifvqhng","pricing_plan_id":"cebpf4jnsgd1na2vs0mg"},{"bike_id":"f6fae659-e47a-495b-9328-6b776d5d7e23","system_id":"levelo_inurba_marseille","lat":43.29007,"lon":5.35614,"is_reserved":false,"is_disabled":false,"rental_uris":{"android":"levelo://app?vid=f6fae659-e47a-495b-9328-6b776d5d7e23","ios":"levelo://app?vid=f6fae659-e47a-495b-9328-6b776d5d7e23"},"vehicle_type_id":"4","last_reported":1768479899,"current_range_meters":8400,"station_id":"ce4bhb92rcd13ifvqen0","pricing_plan_id":"cebpf4jnsgd1na2vs0mg"},{"bike_id":"778fbfd4-e3fa-4d49-848e-08580a7ada1b","system_id":"levelo_inurba_marseille","lat":43.30462,"lon":5.3793,"is_reserved":false,"is_disabled":false,"rental_uris":{"android":"levelo://app?vid=778fbfd4-e3fa-4d49-848e-08580a7ada1b","ios":"levelo://app?vid=778fbfd4-e3fa-4d49-848e-08580a7ada1b"},"vehicle_type_id":"4","last_reported":1768479899,"current_range_meters":8400,"station_id":"ce4bgup2rcd13ifvqcn0","pricing_plan_id":"cebpf4jnsgd1na2vs0mg"},{"bike_id":"31113ee5-9172-4f4f-a75a-e41396baca09","system_id":"levelo_inurba_marseille","lat":43.28934,"lon":5.36412,"is_reserved":false,"is_disabled":false,"rental_uris":{"android":"levelo://app?vid=31113ee5-9172-4f4f-a75a-e41396baca09","ios":"levelo://app?vid=31113ee5-9172-4f4f-a75a-e41396baca09"},"vehicle_type_id":"4","last_reported":1768479899,"current_range_meters":8400,"station_id":"ce4bhc92rcd13ifvqetg","pricing_plan_id":"cebpf4jnsgd1na2vs0mg"},{"bike_id":"aa2e5a8a-d936-4d8f-b169-0b86047db1a7","system_id":"levelo_inurba_marseille","lat":43.22557,"lon":5.41646,"is_reserved":false,"is_disabled":false,"rental_uris":{"android":"levelo://app?vid=aa2e5a8a-d936-4d8f-b169-0b86047db1a7","ios":"levelo://app?vid=aa2e5a8a-d936-4d8f-b169-0b86047db1a7"},"vehicle_type_id":"4","last_reported":1768479899,"current_range_meters":8400,"station_id":"st_d2o4gvlbi1j2169b742g","pricing_plan_id":"cebpf4jnsgd1na2vs0mg"},{"bike_id":"ac1643f3-9488-45ea-bb3b-0339e82f4726","system_id":"levelo_inurba_marseille","lat":43.27057,"lon":5.38303,"is_reserved":false,"is_disabled":false,"rental_uris":{"android":"levelo://app?vid=ac1643f3-9488-45ea-bb3b-0339e82f4726","ios":"levelo://app?vid=ac1643f3-9488-45ea-bb3b-0339e82f4726"},"vehicle_type_id":"4","last_reported":1768479899,"current_range_meters":8400,"station_id":"st_d3n2fo6cfp8s73cte1j0","pricing_plan_id":"cebpf4jnsgd1na2vs0mg"},{"bike_id":"f6681264-0c23-4057-943f-1af4d2980810","system_id":"levelo_inurba_marseille","lat":43.27409,"lon":5.39022,"is_reserved":false,"is_disabled":false,"rental_uris":{"android":"levelo://app?vid=f6681264-0c23-4057-943f-1af4d2980810","ios":"levelo://app?vid=f6681264-0c23-4057-943f-1af4d2980810"},"vehicle_type_id":"4","last_reported":1768479899,"current_range_meters":8400,"station_id":"","pricing_plan_id":"cebpf4jnsgd1na2vs0mg"},{"bike_id":"eda67525-db07-4b18-aa7a-fc8c14661402","system_id":"levelo_inurba_marseille","lat":43.23195,"lon":5.35551,"is_reserved":false,"is_disabled":false,"rental_uris":{"android":"levelo://app?vid=eda67525-db07-4b18-aa7a-fc8c14661402","ios":"levelo://app?vid=eda67525-db07-4b18-aa7a-fc8c14661402"},"vehicle_type_id":"4","last_reported":1768479899,"current_range_meters":8800,"station_id":"ce4bhu92rcd13ifvqi70","pricing_plan_id":"cebpf4jnsgd1na2vs0mg"},{"bike_id":"9798252a-9361-46ce-9695-59458b1329bc","system_id":"levelo_inurba_marseille","lat":43.23192,"lon":5.35558,"is_reserved":false,"is_disabled":false,"rental_uris":{"android":"levelo://app?vid=9798252a-9361-46ce-9695-59458b1329bc","ios":"levelo://app?vid=9798252a-9361-46ce-9695-59458b1329bc"},"vehicle_type_id":"4","last_reported":1768479899,"current_range_meters":8800,"station_id":"ce4bhu92rcd13ifvqi70","pricing_plan_id":"cebpf4jnsgd1na2vs0mg"},{"bike_id":"f2c787eb-1b36-4e92-b487-3132386b8e37","system_id":"levelo_inurba_marseille","lat":43.24803,"lon":5.37454,"is_reserved":false,"is_disabled":false,"rental_uris":{"android":"levelo://app?vid=f2c787eb-1b36-4e92-b487-3132386b8e37","ios":"levelo://app?vid=f2c787eb-1b36-4e92-b487-3132386b8e37"},"vehicle_type_id":"4","last_reported":1768479899,"current_range_meters":8800,"station_id":"ce4bhgh2rcd13ifvqfb0","pricing_plan_id":"cebpf4jnsgd1na2vs0mg"},{"bike_id":"afdeb596-ef40-4bbe-8c30-a9de87911010","system_id":"levelo_inurba_marseille","lat":43.32478,"lon":5.36575,"is_reserved":false,"is_disabled":false,"rental_uris":{"android":"levelo://app?vid=afdeb596-ef40-4bbe-8c30-a9de87911010","ios":"levelo://app?vid=afdeb596-ef40-4bbe-8c30-a9de87911010"},"vehicle_type_id":"4","last_reported":1768479899,"current_range_meters":8800,"station_id":"ce4bhs12rcd13ifvqhvg","pricing_plan_id":"cebpf4jnsgd1na2vs0mg"},{"bike_id":"b8d7e633-e968-44ab-aa46-aa999e7ef40c","system_id":"levelo_inurba_marseille","lat":43.25349,"lon":5.40192,"is_reserved":false,"is_disabled":false,"rental_uris":{"android":"levelo://app?vid=b8d7e633-e968-44ab-aa46-aa999e7ef40c","ios":"levelo://app?vid=b8d7e633-e968-44ab-aa46-aa999e7ef40c"},"vehicle_type_id":"4","last_reported":1768479899,"current_range_meters":8800,"station_id":"","pricing_plan_id":"cebpf4jnsgd1na2vs0mg"},{"bike_id":"5b615694-4960-40aa-8c00-64b122caf3ab","system_id":"levelo_inurba_marseille","lat":43.30736,"lon":5.42451,"is_reserved":false,"is_disabled":false,"rental_uris":{"android":"levelo://app?vid=5b615694-4960-40aa-8c00-64b122caf3ab","ios":"levelo://app?vid=5b615694-4960-40aa-8c00-64b122caf3ab"},"vehicle_type_id":"4","last_reported":1768479899,"current_range_meters":8800,"station_id":"st_cvj6ca6bvosntc0bfgr0","pricing_plan_id":"cebpf4jnsgd1na2vs0mg"},{"bike_id":"9266588b-e15c-47dd-bfa5-2995f19dc388","system_id":"levelo_inurba_marseille","lat":43.28213,"lon":5.3906,"is_reserved":false,"is_disabled":false,"rental_uris":{"android":"levelo://app?vid=9266588b-e15c-47dd-bfa5-2995f19dc388","ios":"levelo://app?vid=9266588b-e15c-47dd-bfa5-2995f19dc388"},"vehicle_type_id":"4","last_reported":1768479899,"current_range_meters":8800,"station_id":"ce4bhn92rcd13ifvqgsg","pricing_plan_id":"cebpf4jnsgd1na2vs0mg"},{"bike_id":"0cd1e779-26e9-49c5-b773-f088de1cb9ab","system_id":"levelo_inurba_marseille","lat":43.26066,"lon":5.38523,"is_reserved":false,"is_disabled":false,"rental_uris":{"android":"levelo://app?vid=0cd1e779-26e9-49c5-b773-f088de1cb9ab","ios":"levelo://app?vid=0cd1e779-26e9-49c5-b773-f088de1cb9ab"},"vehicle_type_id":"4","last_reported":1768479899,"current_range_meters":8800,"station_id":"","pricing_plan_id":"cebpf4jnsgd1na2vs0mg"},{"bike_id":"d0dffef8-5c68-4bcb-80c5-7577fa8397ae","system_id":"levelo_inurba_marseille","lat":43.24658,"lon":5.38159,"is_reserved":false,"is_disabled":false,"rental_uris":{"android":"levelo://app?vid=d0dffef8-5c68-4bcb-80c5-7577fa8397ae","ios":"levelo://app?vid=d0dffef8-5c68-4bcb-80c5-7577fa8397ae"},"vehicle_type_id":"4","last_reported":1768479899,"current_range_meters":8800,"station_id":"ce4bhih2rcd13ifvqfr0","pricing_plan_id":"cebpf4jnsgd1na2vs0mg"},{"bike_id":"65def825-e47b-44f8-a591-37900abd1d3a","system_id":"levelo_inurba_marseille","lat":43.31276,"lon":5.37757,"is_reserved":false,"is_disabled":false,"rental_uris":{"android":"levelo://app?vid=65def825-e47b-44f8-a591-37900abd1d3a","ios":"levelo://app?vid=65def825-e47b-44f8-a591-37900abd1d3a"},"vehicle_type_id":"4","last_reported":1768479899,"current_range_meters":8800,"station_id":"","pricing_plan_id":"cebpf4jnsgd1na2vs0mg"},{"bike_id":"fbca656e-02c6-47d2-8a61-af26f7f00021","system_id":"levelo_inurba_marseille","lat":43.25872,"lon":5.39915,"is_reserved":false,"is_disabled":false,"rental_uris":{"android":"levelo://app?vid=fbca656e-02c6-47d2-8a61-af26f7f00021","ios":"levelo://app?vid=fbca656e-02c6-47d2-8a61-af26f7f00021"},"vehicle_type_id":"4","last_reported":1768479899,"current_range_meters":8800,"station_id":"ce4bhl92rcd13ifvqghg","pricing_plan_id":"cebpf4jnsgd1na2vs0mg"},{"bike_id":"0fe23f40-caad-46ad-b558-32f62e0f76ac","system_id":"levelo_inurba_marseille","lat":43.31131,"lon":5.3981,"is_reserved":false,"is_disabled":false,"rental_uris":{"android":"levelo://app?vid=0fe23f40-caad-46ad-b558-32f62e0f76ac","ios":"levelo://app?vid=0fe23f40-caad-46ad-b558-32f62e0f76ac"},"vehicle_type_id":"4","last_reported":1768479899,"current_range_meters":8800,"station_id":"","pricing_plan_id":"cebpf4jnsgd1na2vs0mg"},{"bike_id":"ae1ee326-f80b-467d-b3d3-87eb3ab566ac","system_id":"levelo_inurba_marseille","lat":43.31335,"lon":5.3677,"is_reserved":false,"is_disabled":false,"rental_uris":{"android":"levelo://app?vid=ae1ee326-f80b-467d-b3d3-87eb3ab566ac","ios":"levelo://app?vid=ae1ee326-f80b-467d-b3d3-87eb3ab566ac"},"vehicle_type_id":"4","last_reported":1768479899,"current_range_meters":8800,"station_id":"","pricing_plan_id":"cebpf4jnsgd1na2vs0mg"},{"bike_id":"1624d9fa-6133-4502-99c8-6f0dfa37654b","system_id":"levelo_inurba_marseille","lat":43.32336,"lon":5.38495,"is_reserved":false,"is_disabled":false,"rental_uris":{"android":"levelo://app?vid=1624d9fa-6133-4502-99c8-6f0dfa37654b","ios":"levelo://app?vid=1624d9fa-6133-4502-99c8-6f0dfa37654b"},"vehicle_type_id":"4","last_reported":1768479899,"current_range_meters":8800,"station_id":"st_d45171o9ee8s73djdqug","pricing_plan_id":"cebpf4jnsgd1na2vs0mg"},{"bike_id":"e5aa787f-c7e4-4b02-b6ed-ac65ac7744ea","system_id":"levelo_inurba_marseille","lat":43.23187,"lon":5.39984,"is_reserved":false,"is_disabled":false,"rental_uris":{"android":"levelo://app?vid=e5aa787f-c7e4-4b02-b6ed-ac65ac7744ea","ios":"levelo://app?vid=e5aa787f-c7e4-4b02-b6ed-ac65ac7744ea"},"vehicle_type_id":"4","last_reported":1768479899,"current_range_meters":8800,"station_id":"ce4bhn12rcd13ifvqgqg","pricing_plan_id":"cebpf4jnsgd1na2vs0mg"},{"bike_id":"b0591438-4f8b-458b-95d3-396e832bb098","system_id":"levelo_inurba_marseille","lat":43.22563,"lon":5.41634,"is_reserved":false,"is_disabled":false,"rental_uris":{"android":"levelo://app?vid=b0591438-4f8b-458b-95d3-396e832bb098","ios":"levelo://app?vid=b0591438-4f8b-458b-95d3-396e832bb098"},"vehicle_type_id":"4","last_reported":1768479899,"current_range_meters":8800,"station_id":"st_d2o4gvlbi1j2169b742g","pricing_plan_id":"cebpf4jnsgd1na2vs0mg"},{"bike_id":"03a4fc79-2919-4c4f-947a-9284963b0246","system_id":"levelo_inurba_marseille","lat":43.301257,"lon":5.398522,"is_reserved":false,"is_disabled":false,"rental_uris":{"android":"levelo://app?vid=03a4fc79-2919-4c4f-947a-9284963b0246","ios":"levelo://app?vid=03a4fc79-2919-4c4f-947a-9284963b0246"},"vehicle_type_id":"4","last_reported":1768479899,"current_range_meters":8800,"station_id":"ce4bh0h2rcd13ifvqd40","pricing_plan_id":"cebpf4jnsgd1na2vs0mg"},{"bike_id":"58455772-468d-41ff-a9b8-5fcf7f6153ec","system_id":"levelo_inurba_marseille","lat":43.25824,"lon":5.39424,"is_reserved":false,"is_disabled":false,"rental_uris":{"android":"levelo://app?vid=58455772-468d-41ff-a9b8-5fcf7f6153ec","ios":"levelo://app?vid=58455772-468d-41ff-a9b8-5fcf7f6153ec"},"vehicle_type_id":"4","last_reported":1768479899,"current_range_meters":8800,"station_id":"ce4bhip2rcd13ifvqft0","pricing_plan_id":"cebpf4jnsgd1na2vs0mg"},{"bike_id":"27264743-2e50-4a00-8306-3109b49e129f","system_id":"levelo_inurba_marseille","lat":43.24071,"lon":5.37755,"is_reserved":false,"is_disabled":false,"rental_uris":{"android":"levelo://app?vid=27264743-2e50-4a00-8306-3109b49e129f","ios":"levelo://app?vid=27264743-2e50-4a00-8306-3109b49e129f"},"vehicle_type_id":"4","last_reported":1768479899,"current_range_meters":8800,"station_id":"ce4bhnp2rcd13ifvqgvg","pricing_plan_id":"cebpf4jnsgd1na2vs0mg"},{"bike_id":"f0f77a0a-fb63-466f-8221-ca4aa28e90e6","system_id":"levelo_inurba_marseille","lat":43.2481,"lon":5.37455,"is_reserved":false,"is_disabled":false,"rental_uris":{"android":"levelo://app?vid=f0f77a0a-fb63-466f-8221-ca4aa28e90e6","ios":"levelo://app?vid=f0f77a0a-fb63-466f-8221-ca4aa28e90e6"},"vehicle_type_id":"4","last_reported":1768479899,"current_range_meters":9200,"station_id":"ce4bhgh2rcd13ifvqfb0","pricing_plan_id":"cebpf4jnsgd1na2vs0mg"},{"bike_id":"8ac29141-6985-4b16-8504-2238bb54b54a","system_id":"levelo_inurba_marseille","lat":43.2438,"lon":5.37067,"is_reserved":false,"is_disabled":false,"rental_uris":{"android":"levelo://app?vid=8ac29141-6985-4b16-8504-2238bb54b54a","ios":"levelo://app?vid=8ac29141-6985-4b16-8504-2238bb54b54a"},"vehicle_type_id":"4","last_reported":1768479899,"current_range_meters":9200,"station_id":"ce4bhhh2rcd13ifvqfk0","pricing_plan_id":"cebpf4jnsgd1na2vs0mg"},{"bike_id":"dc62c045-53d5-49c1-8fb3-c6be8b191f21","system_id":"levelo_inurba_marseille","lat":43.273023,"lon":5.391369,"is_reserved":false,"is_disabled":false,"rental_uris":{"android":"levelo://app?vid=dc62c045-53d5-49c1-8fb3-c6be8b191f21","ios":"levelo://app?vid=dc62c045-53d5-49c1-8fb3-c6be8b191f21"},"vehicle_type_id":"4","last_reported":1768479899,"current_range_meters":9200,"station_id":"ce4bhgp2rcd13ifvqfe0","pricing_plan_id":"cebpf4jnsgd1na2vs0mg"},{"bike_id":"3ff43608-53c0-487c-9d0a-f3c1d326d7f5","system_id":"levelo_inurba_marseille","lat":43.323471,"lon":5.367143,"is_reserved":false,"is_disabled":false,"rental_uris":{"android":"levelo://app?vid=3ff43608-53c0-487c-9d0a-f3c1d326d7f5","ios":"levelo://app?vid=3ff43608-53c0-487c-9d0a-f3c1d326d7f5"},"vehicle_type_id":"4","last_reported":1768479899,"current_range_meters":9200,"station_id":"ce4bhsh2rcd13ifvqi2g","pricing_plan_id":"cebpf4jnsgd1na2vs0mg"},{"bike_id":"a6efb7b3-8c44-4a6c-92e4-ed7eb57f41e2","system_id":"levelo_inurba_marseille","lat":43.28438,"lon":5.36776,"is_reserved":false,"is_disabled":false,"rental_uris":{"android":"levelo://app?vid=a6efb7b3-8c44-4a6c-92e4-ed7eb57f41e2","ios":"levelo://app?vid=a6efb7b3-8c44-4a6c-92e4-ed7eb57f41e2"},"vehicle_type_id":"4","last_reported":1768479899,"current_range_meters":9200,"station_id":"","pricing_plan_id":"cebpf4jnsgd1na2vs0mg"},{"bike_id":"7a55a74f-4770-4c16-964a-7362b49b0557","system_id":"levelo_inurba_marseille","lat":43.29264,"lon":5.3762,"is_reserved":false,"is_disabled":false,"rental_uris":{"android":"levelo://app?vid=7a55a74f-4770-4c16-964a-7362b49b0557","ios":"levelo://app?vid=7a55a74f-4770-4c16-964a-7362b49b0557"},"vehicle_type_id":"4","last_reported":1768479899,"current_range_meters":9200,"station_id":"ce4bgi12rcd13ifvqb80","pricing_plan_id":"cebpf4jnsgd1na2vs0mg"},{"bike_id":"c242e646-f282-457f-a670-771ea65dbddf","system_id":"levelo_inurba_marseille","lat":43.32103,"lon":5.36788,"is_reserved":false,"is_disabled":false,"rental_uris":{"android":"levelo://app?vid=c242e646-f282-457f-a670-771ea65dbddf","ios":"levelo://app?vid=c242e646-f282-457f-a670-771ea65dbddf"},"vehicle_type_id":"4","last_reported":1768479899,"current_range_meters":9200,"station_id":"ce4bhrh2rcd13ifvqhug","pricing_plan_id":"cebpf4jnsgd1na2vs0mg"},{"bike_id":"753ccbc1-bc1b-4429-8a43-0dcf4c26b7fc","system_id":"levelo_inurba_marseille","lat":43.3316,"lon":5.37709,"is_reserved":false,"is_disabled":false,"rental_uris":{"android":"levelo://app?vid=753ccbc1-bc1b-4429-8a43-0dcf4c26b7fc","ios":"levelo://app?vid=753ccbc1-bc1b-4429-8a43-0dcf4c26b7fc"},"vehicle_type_id":"4","last_reported":1768479899,"current_range_meters":9200,"station_id":"st_d46cu089ee8s73dldbu0","pricing_plan_id":"cebpf4jnsgd1na2vs0mg"},{"bike_id":"2ae27565-6a18-4657-afda-4bb59b9e53e3","system_id":"levelo_inurba_marseille","lat":43.324972,"lon":5.382865,"is_reserved":false,"is_disabled":false,"rental_uris":{"android":"levelo://app?vid=2ae27565-6a18-4657-afda-4bb59b9e53e3","ios":"levelo://app?vid=2ae27565-6a18-4657-afda-4bb59b9e53e3"},"vehicle_type_id":"4","last_reported":1768479899,"current_range_meters":9200,"station_id":"st_d4asgbiv49dc73anf9m0","pricing_plan_id":"cebpf4jnsgd1na2vs0mg"},{"bike_id":"426d1862-6742-4577-a1b8-bc5438e9f47d","system_id":"levelo_inurba_marseille","lat":43.28243,"lon":5.35097,"is_reserved":false,"is_disabled":false,"rental_uris":{"android":"levelo://app?vid=426d1862-6742-4577-a1b8-bc5438e9f47d","ios":"levelo://app?vid=426d1862-6742-4577-a1b8-bc5438e9f47d"},"vehicle_type_id":"4","last_reported":1768479899,"current_range_meters":9200,"station_id":"","pricing_plan_id":"cebpf4jnsgd1na2vs0mg"},{"bike_id":"7512c4d2-4a5e-4a8c-8737-f6ffe9aeccda","system_id":"levelo_inurba_marseille","lat":43.29924,"lon":5.37476,"is_reserved":false,"is_disabled":false,"rental_uris":{"android":"levelo://app?vid=7512c4d2-4a5e-4a8c-8737-f6ffe9aeccda","ios":"levelo://app?vid=7512c4d2-4a5e-4a8c-8737-f6ffe9aeccda"},"vehicle_type_id":"4","last_reported":1768479899,"current_range_meters":9200,"station_id":"","pricing_plan_id":"cebpf4jnsgd1na2vs0mg"},{"bike_id":"3b06d8ac-0c0e-4815-baae-3f6b7bfae72e","system_id":"levelo_inurba_marseille","lat":43.341598,"lon":5.360297,"is_reserved":false,"is_disabled":false,"rental_uris":{"android":"levelo://app?vid=3b06d8ac-0c0e-4815-baae-3f6b7bfae72e","ios":"levelo://app?vid=3b06d8ac-0c0e-4815-baae-3f6b7bfae72e"},"vehicle_type_id":"4","last_reported":1768479899,"current_range_meters":9200,"station_id":"","pricing_plan_id":"cebpf4jnsgd1na2vs0mg"},{"bike_id":"ba94f569-5de6-42b6-a978-d195de9cd856","system_id":"levelo_inurba_marseille","lat":43.28472,"lon":5.484,"is_reserved":false,"is_disabled":false,"rental_uris":{"android":"levelo://app?vid=ba94f569-5de6-42b6-a978-d195de9cd856","ios":"levelo://app?vid=ba94f569-5de6-42b6-a978-d195de9cd856"},"vehicle_type_id":"4","last_reported":1768479899,"current_range_meters":9200,"station_id":"st_d3svhcjqgbts73a3dn0g","pricing_plan_id":"cebpf4jnsgd1na2vs0mg"},{"bike_id":"37ee9683-1742-4038-9de9-423c9b196e88","system_id":"levelo_inurba_marseille","lat":43.26567,"lon":5.40326,"is_reserved":false,"is_disabled":false,"rental_uris":{"android":"levelo://app?vid=37ee9683-1742-4038-9de9-423c9b196e88","ios":"levelo://app?vid=37ee9683-1742-4038-9de9-423c9b196e88"},"vehicle_type_id":"4","last_reported":1768479899,"current_range_meters":9200,"station_id":"ce4bhmp2rcd13ifvqgng","pricing_plan_id":"cebpf4jnsgd1na2vs0mg"},{"bike_id":"8782c85b-4cd2-4d16-816f-ea9c0e380452","system_id":"levelo_inurba_marseille","lat":43.28113,"lon":5.40433,"is_reserved":false,"is_disabled":false,"rental_uris":{"android":"levelo://app?vid=8782c85b-4cd2-4d16-816f-ea9c0e380452","ios":"levelo://app?vid=8782c85b-4cd2-4d16-816f-ea9c0e380452"},"vehicle_type_id":"4","last_reported":1768479899,"current_range_meters":9200,"station_id":"","pricing_plan_id":"cebpf4jnsgd1na2vs0mg"},{"bike_id":"5379f5ed-da06-4adb-b823-51e71e531df4","system_id":"levelo_inurba_marseille","lat":43.24641,"lon":5.43141,"is_reserved":false,"is_disabled":false,"rental_uris":{"android":"levelo://app?vid=5379f5ed-da06-4adb-b823-51e71e531df4","ios":"levelo://app?vid=5379f5ed-da06-4adb-b823-51e71e531df4"},"vehicle_type_id":"4","last_reported":1768479899,"current_range_meters":9200,"station_id":"st_d2m6c4gdas8pm72e190g","pricing_plan_id":"cebpf4jnsgd1na2vs0mg"},{"bike_id":"e937f0fe-af94-4a5e-8160-e367561df05d","system_id":"levelo_inurba_marseille","lat":43.27942,"lon":5.38723,"is_reserved":false,"is_disabled":false,"rental_uris":{"android":"levelo://app?vid=e937f0fe-af94-4a5e-8160-e367561df05d","ios":"levelo://app?vid=e937f0fe-af94-4a5e-8160-e367561df05d"},"vehicle_type_id":"4","last_reported":1768479899,"current_range_meters":9600,"station_id":"ce4bhg12rcd13ifvqf80","pricing_plan_id":"cebpf4jnsgd1na2vs0mg"},{"bike_id":"d10c0024-e2ec-401f-bf30-95042a990a73","system_id":"levelo_inurba_marseille","lat":43.28115,"lon":5.42601,"is_reserved":false,"is_disabled":false,"rental_uris":{"android":"levelo://app?vid=d10c0024-e2ec-401f-bf30-95042a990a73","ios":"levelo://app?vid=d10c0024-e2ec-401f-bf30-95042a990a73"},"vehicle_type_id":"4","last_reported":1768479899,"current_range_meters":9600,"station_id":"","pricing_plan_id":"cebpf4jnsgd1na2vs0mg"},{"bike_id":"551cf153-db3e-4868-8c3a-b2e3edc5022f","system_id":"levelo_inurba_marseille","lat":43.301444,"lon":5.37412,"is_reserved":false,"is_disabled":false,"rental_uris":{"android":"levelo://app?vid=551cf153-db3e-4868-8c3a-b2e3edc5022f","ios":"levelo://app?vid=551cf153-db3e-4868-8c3a-b2e3edc5022f"},"vehicle_type_id":"4","last_reported":1768479899,"current_range_meters":9600,"station_id":"ce4bgs92rcd13ifvqcc0","pricing_plan_id":"cebpf4jnsgd1na2vs0mg"},{"bike_id":"d2d2d908-ffb6-4c0a-97f2-e5e034e39816","system_id":"levelo_inurba_marseille","lat":43.27941,"lon":5.404,"is_reserved":false,"is_disabled":false,"rental_uris":{"android":"levelo://app?vid=d2d2d908-ffb6-4c0a-97f2-e5e034e39816","ios":"levelo://app?vid=d2d2d908-ffb6-4c0a-97f2-e5e034e39816"},"vehicle_type_id":"4","last_reported":1768479899,"current_range_meters":9600,"station_id":"","pricing_plan_id":"cebpf4jnsgd1na2vs0mg"},{"bike_id":"f9856d52-ab96-4cca-9a7a-ab4623ba2546","system_id":"levelo_inurba_marseille","lat":43.29034,"lon":5.39944,"is_reserved":false,"is_disabled":false,"rental_uris":{"android":"levelo://app?vid=f9856d52-ab96-4cca-9a7a-ab4623ba2546","ios":"levelo://app?vid=f9856d52-ab96-4cca-9a7a-ab4623ba2546"},"vehicle_type_id":"4","last_reported":1768479899,"current_range_meters":9600,"station_id":"ce4bh392rcd13ifvqdm0","pricing_plan_id":"cebpf4jnsgd1na2vs0mg"},{"bike_id":"a696c7fe-baef-4a58-8525-3edaf5ca50d0","system_id":"levelo_inurba_marseille","lat":43.24389,"lon":5.37045,"is_reserved":false,"is_disabled":false,"rental_uris":{"android":"levelo://app?vid=a696c7fe-baef-4a58-8525-3edaf5ca50d0","ios":"levelo://app?vid=a696c7fe-baef-4a58-8525-3edaf5ca50d0"},"vehicle_type_id":"4","last_reported":1768479899,"current_range_meters":9600,"station_id":"ce4bhhh2rcd13ifvqfk0","pricing_plan_id":"cebpf4jnsgd1na2vs0mg"},{"bike_id":"dcba5e0d-8e79-44d0-8827-5e7dfb547664","system_id":"levelo_inurba_marseille","lat":43.285374,"lon":5.441015,"is_reserved":false,"is_disabled":false,"rental_uris":{"android":"levelo://app?vid=dcba5e0d-8e79-44d0-8827-5e7dfb547664","ios":"levelo://app?vid=dcba5e0d-8e79-44d0-8827-5e7dfb547664"},"vehicle_type_id":"4","last_reported":1768479899,"current_range_meters":9600,"station_id":"st_d3j3df2ikq2c7380ej80","pricing_plan_id":"cebpf4jnsgd1na2vs0mg"},{"bike_id":"cd36fbcd-04b7-44af-907d-269a620e2e29","system_id":"levelo_inurba_marseille","lat":43.29035,"lon":5.37559,"is_reserved":false,"is_disabled":false,"rental_uris":{"android":"levelo://app?vid=cd36fbcd-04b7-44af-907d-269a620e2e29","ios":"levelo://app?vid=cd36fbcd-04b7-44af-907d-269a620e2e29"},"vehicle_type_id":"4","last_reported":1768479899,"current_range_meters":9600,"station_id":"ce4bh692rcd13ifvqe90","pricing_plan_id":"cebpf4jnsgd1na2vs0mg"},{"bike_id":"aa92f40d-4f90-46fa-b7e2-669ef0608c95","system_id":"levelo_inurba_marseille","lat":43.299213,"lon":5.374723,"is_reserved":false,"is_disabled":false,"rental_uris":{"android":"levelo://app?vid=aa92f40d-4f90-46fa-b7e2-669ef0608c95","ios":"levelo://app?vid=aa92f40d-4f90-46fa-b7e2-669ef0608c95"},"vehicle_type_id":"4","last_reported":1768479899,"current_range_meters":9600,"station_id":"ce4bgjh2rcd13ifvqbg0","pricing_plan_id":"cebpf4jnsgd1na2vs0mg"},{"bike_id":"13c7c20f-0feb-4e4c-b067-68cfe4794af8","system_id":"levelo_inurba_marseille","lat":43.28871,"lon":5.38426,"is_reserved":false,"is_disabled":false,"rental_uris":{"android":"levelo://app?vid=13c7c20f-0feb-4e4c-b067-68cfe4794af8","ios":"levelo://app?vid=13c7c20f-0feb-4e4c-b067-68cfe4794af8"},"vehicle_type_id":"4","last_reported":1768479899,"current_range_meters":9600,"station_id":"","pricing_plan_id":"cebpf4jnsgd1na2vs0mg"},{"bike_id":"0ce3cc02-2962-4286-804f-4dc1590de945","system_id":"levelo_inurba_marseille","lat":43.255778,"lon":5.382479,"is_reserved":false,"is_disabled":false,"rental_uris":{"android":"levelo://app?vid=0ce3cc02-2962-4286-804f-4dc1590de945","ios":"levelo://app?vid=0ce3cc02-2962-4286-804f-4dc1590de945"},"vehicle_type_id":"4","last_reported":1768479899,"current_range_meters":9600,"station_id":"ce4bhih2rcd13ifvqfs0","pricing_plan_id":"cebpf4jnsgd1na2vs0mg"},{"bike_id":"6abf8a46-f540-4848-8617-65edd2aabe92","system_id":"levelo_inurba_marseille","lat":43.31764,"lon":5.39768,"is_reserved":false,"is_disabled":false,"rental_uris":{"android":"levelo://app?vid=6abf8a46-f540-4848-8617-65edd2aabe92","ios":"levelo://app?vid=6abf8a46-f540-4848-8617-65edd2aabe92"},"vehicle_type_id":"4","last_reported":1768479899,"current_range_meters":9600,"station_id":"","pricing_plan_id":"cebpf4jnsgd1na2vs0mg"},{"bike_id":"501df53b-3cee-4114-81e6-580766887809","system_id":"levelo_inurba_marseille","lat":43.30422,"lon":5.39748,"is_reserved":false,"is_disabled":false,"rental_uris":{"android":"levelo://app?vid=501df53b-3cee-4114-81e6-580766887809","ios":"levelo://app?vid=501df53b-3cee-4114-81e6-580766887809"},"vehicle_type_id":"4","last_reported":1768479899,"current_range_meters":9600,"station_id":"ce4bh092rcd13ifvqd20","pricing_plan_id":"cebpf4jnsgd1na2vs0mg"},{"bike_id":"90218040-6582-4aa2-8913-05c76010fcbf","system_id":"levelo_inurba_marseille","lat":43.23792,"lon":5.36627,"is_reserved":false,"is_disabled":false,"rental_uris":{"android":"levelo://app?vid=90218040-6582-4aa2-8913-05c76010fcbf","ios":"levelo://app?vid=90218040-6582-4aa2-8913-05c76010fcbf"},"vehicle_type_id":"4","last_reported":1768479899,"current_range_meters":9600,"station_id":"st_d3nk18o9ro0c73en2l3g","pricing_plan_id":"cebpf4jnsgd1na2vs0mg"},{"bike_id":"f453663f-1a0f-42e4-b339-7ae16233dc9e","system_id":"levelo_inurba_marseille","lat":43.25589,"lon":5.38234,"is_reserved":false,"is_disabled":false,"rental_uris":{"android":"levelo://app?vid=f453663f-1a0f-42e4-b339-7ae16233dc9e","ios":"levelo://app?vid=f453663f-1a0f-42e4-b339-7ae16233dc9e"},"vehicle_type_id":"4","last_reported":1768479899,"current_range_meters":10000,"station_id":"ce4bhih2rcd13ifvqfs0","pricing_plan_id":"cebpf4jnsgd1na2vs0mg"},{"bike_id":"38c3b80e-0308-46b2-9a29-2654b96d87d9","system_id":"levelo_inurba_marseille","lat":43.29969,"lon":5.37348,"is_reserved":false,"is_disabled":false,"rental_uris":{"android":"levelo://app?vid=38c3b80e-0308-46b2-9a29-2654b96d87d9","ios":"levelo://app?vid=38c3b80e-0308-46b2-9a29-2654b96d87d9"},"vehicle_type_id":"4","last_reported":1768479899,"current_range_meters":10000,"station_id":"","pricing_plan_id":"cebpf4jnsgd1na2vs0mg"},{"bike_id":"89d9cd06-54be-44ac-b8c9-f576dccb8768","system_id":"levelo_inurba_marseille","lat":43.24989,"lon":5.38891,"is_reserved":false,"is_disabled":false,"rental_uris":{"android":"levelo://app?vid=89d9cd06-54be-44ac-b8c9-f576dccb8768","ios":"levelo://app?vid=89d9cd06-54be-44ac-b8c9-f576dccb8768"},"vehicle_type_id":"4","last_reported":1768479899,"current_range_meters":10000,"station_id":"ce4bhgp2rcd13ifvqfd0","pricing_plan_id":"cebpf4jnsgd1na2vs0mg"},{"bike_id":"94b0a6e5-3c0a-4a82-9848-862e6d7809b0","system_id":"levelo_inurba_marseille","lat":43.28075,"lon":5.39656,"is_reserved":false,"is_disabled":false,"rental_uris":{"android":"levelo://app?vid=94b0a6e5-3c0a-4a82-9848-862e6d7809b0","ios":"levelo://app?vid=94b0a6e5-3c0a-4a82-9848-862e6d7809b0"},"vehicle_type_id":"4","last_reported":1768479899,"current_range_meters":10000,"station_id":"ce4bho12rcd13ifvqh2g","pricing_plan_id":"cebpf4jnsgd1na2vs0mg"},{"bike_id":"71a0d029-e5e0-480f-9d0d-2632695ecf0a","system_id":"levelo_inurba_marseille","lat":43.25496,"lon":5.37649,"is_reserved":false,"is_disabled":false,"rental_uris":{"android":"levelo://app?vid=71a0d029-e5e0-480f-9d0d-2632695ecf0a","ios":"levelo://app?vid=71a0d029-e5e0-480f-9d0d-2632695ecf0a"},"vehicle_type_id":"4","last_reported":1768479899,"current_range_meters":10000,"station_id":"","pricing_plan_id":"cebpf4jnsgd1na2vs0mg"},{"bike_id":"f99cceb6-c008-4b14-b7d0-c170891d9cb5","system_id":"levelo_inurba_marseille","lat":43.303097,"lon":5.368948,"is_reserved":false,"is_disabled":false,"rental_uris":{"android":"levelo://app?vid=f99cceb6-c008-4b14-b7d0-c170891d9cb5","ios":"levelo://app?vid=f99cceb6-c008-4b14-b7d0-c170891d9cb5"},"vehicle_type_id":"4","last_reported":1768479899,"current_range_meters":10000,"station_id":"ce4bgqh2rcd13ifvqc5g","pricing_plan_id":"cebpf4jnsgd1na2vs0mg"},{"bike_id":"0aaffd21-6317-47b2-85da-6b9bfa421a46","system_id":"levelo_inurba_marseille","lat":43.29824,"lon":5.37664,"is_reserved":false,"is_disabled":false,"rental_uris":{"android":"levelo://app?vid=0aaffd21-6317-47b2-85da-6b9bfa421a46","ios":"levelo://app?vid=0aaffd21-6317-47b2-85da-6b9bfa421a46"},"vehicle_type_id":"4","last_reported":1768479899,"current_range_meters":10000,"station_id":"","pricing_plan_id":"cebpf4jnsgd1na2vs0mg"},{"bike_id":"bba9e660-d3c4-4fb7-89b1-c9c59c43e626","system_id":"levelo_inurba_marseille","lat":43.263716,"lon":5.374165,"is_reserved":false,"is_disabled":false,"rental_uris":{"android":"levelo://app?vid=bba9e660-d3c4-4fb7-89b1-c9c59c43e626","ios":"levelo://app?vid=bba9e660-d3c4-4fb7-89b1-c9c59c43e626"},"vehicle_type_id":"4","last_reported":1768479899,"current_range_meters":10000,"station_id":"","pricing_plan_id":"cebpf4jnsgd1na2vs0mg"},{"bike_id":"261351a6-daeb-4b25-bac7-39b867c0f3f7","system_id":"levelo_inurba_marseille","lat":43.29788,"lon":5.3935,"is_reserved":false,"is_disabled":false,"rental_uris":{"android":"levelo://app?vid=261351a6-daeb-4b25-bac7-39b867c0f3f7","ios":"levelo://app?vid=261351a6-daeb-4b25-bac7-39b867c0f3f7"},"vehicle_type_id":"4","last_reported":1768479899,"current_range_meters":10000,"station_id":"chh1huq6cuj3fo74tm60","pricing_plan_id":"cebpf4jnsgd1na2vs0mg"},{"bike_id":"633241f7-f589-4b5e-b00a-272be3b1d076","system_id":"levelo_inurba_marseille","lat":43.26225,"lon":5.40301,"is_reserved":false,"is_disabled":false,"rental_uris":{"android":"levelo://app?vid=633241f7-f589-4b5e-b00a-272be3b1d076","ios":"levelo://app?vid=633241f7-f589-4b5e-b00a-272be3b1d076"},"vehicle_type_id":"4","last_reported":1768479899,"current_range_meters":10000,"station_id":"","pricing_plan_id":"cebpf4jnsgd1na2vs0mg"},{"bike_id":"fa82ddd2-6ea6-41dc-9490-49d1dcf77a90","system_id":"levelo_inurba_marseille","lat":43.306028,"lon":5.372264,"is_reserved":false,"is_disabled":false,"rental_uris":{"android":"levelo://app?vid=fa82ddd2-6ea6-41dc-9490-49d1dcf77a90","ios":"levelo://app?vid=fa82ddd2-6ea6-41dc-9490-49d1dcf77a90"},"vehicle_type_id":"4","last_reported":1768479899,"current_range_meters":10000,"station_id":"ce4bgqh2rcd13ifvqc4g","pricing_plan_id":"cebpf4jnsgd1na2vs0mg"},{"bike_id":"559bd56f-1279-4311-b72e-e251096670f2","system_id":"levelo_inurba_marseille","lat":43.3014,"lon":5.43123,"is_reserved":false,"is_disabled":true,"rental_uris":{"android":"levelo://app?vid=559bd56f-1279-4311-b72e-e251096670f2","ios":"levelo://app?vid=559bd56f-1279-4311-b72e-e251096670f2"},"vehicle_type_id":"4","last_reported":1768479899,"current_range_meters":10000,"station_id":"st_d3js3co5814s73ftftug","pricing_plan_id":"cebpf4jnsgd1na2vs0mg"},{"bike_id":"0c75cbed-caf4-413f-ac96-143245c1861e","system_id":"levelo_inurba_marseille","lat":43.27918,"lon":5.39577,"is_reserved":false,"is_disabled":false,"rental_uris":{"android":"levelo://app?vid=0c75cbed-caf4-413f-ac96-143245c1861e","ios":"levelo://app?vid=0c75cbed-caf4-413f-ac96-143245c1861e"},"vehicle_type_id":"4","last_reported":1768479899,"current_range_meters":10000,"station_id":"ce4bhf92rcd13ifvqf40","pricing_plan_id":"cebpf4jnsgd1na2vs0mg"},