{"last_updated":1740391837,"ttl":60,"version":"2.2","data":{"bikes":[{"bike_id":"9dff4114-8470-4f2f-a245-806bbcc769d8","system_id":"levelo_inurba_marseille","lat":43.26551,"lon":5.37291,"is_reserved":false,"is_disabled":false,"rental_uris":{"android":"levelo://app?vid=9dff4114-8470-4f2f-a245-806bbcc769d8","ios":"levelo://app?vid=9dff4114-8470-4f2f-a245-806bbcc769d8"},"vehicle_type_id":"4","last_reported":1740391837,"current_range_meters":4000,"station_id":"ce4bhg12rcd13ifvqf70","pricing_plan_id":"cebpf4jnsgd1na2vs0mg"},{"bike_id":"1284377d-613e-4b0e-b8b9-30807af03316","system_id":"levelo_inurba_marseille","lat":43.27864,"lon":5.39179,"is_reserved":false,"is_disabled":true,"rental_uris":{"android":"levelo://app?vid=1284377d-613e-4b0e-b8b9-30807af03316","ios":"levelo://app?vid=1284377d-613e-4b0e-b8b9-30807af03316"},"vehicle_type_id":"4","last_reported":1740391837,"current_range_meters":4000,"station_id":"ce4bhjp2rcd13ifvqga0","pricing_plan_id":"cebpf4jnsgd1na2vs0mg"},{"bike_id":"eba77738-0af5-4e2a-a63f-7cead31d1564","system_id":"levelo_inurba_marseille","lat":43.29528,"lon":5.37507,"is_reserved":false,"is_disabled":false,"rental_uris":{"android":"levelo://app?vid=eba77738-0af5-4e2a-a63f-7cead31d1564","ios":"levelo://app?vid=eba77738-0af5-4e2a-a63f-7cead31d1564"},"vehicle_type_id":"4","last_reported":1740391837,"current_range_meters":4000,"station_id":"ce4bgkp2rcd13ifvqbmg","pricing_plan_id":"cebpf4jnsgd1na2vs0mg"},{"bike_id":"6eeca275-8423-4d72-85ea-f3f01cd220b2","system_id":"levelo_inurba_marseille","lat":43.29629,"lon":5.40601,"is_reserved":false,"is_disabled":false,"rental_uris":{"android":"levelo://app?vid=6eeca275-8423-4d72-85ea-f3f01cd220b2","ios":"levelo://app?vid=6eeca275-8423-4d72-85ea-f3f01cd220b2"},"vehicle_type_id":"4","last_reported":1740391837,"current_range_meters":4400,"station_id":"ce4bh0h2rcd13ifvqd60","pricing_plan_id":"cebpf4jnsgd1na2vs0mg"},{"bike_id":"50e236aa-1404-4805-b24c-dab3f1e708c0","system_id":"levelo_inurba_marseille","lat":43.23154,"lon":5.43696,"is_reserved":false,"is_disabled":false,"rental_uris":{"android":"levelo://app?vid=50e236aa-1404-4805-b24c-dab3f1e708c0","ios":"levelo://app?vid=50e236aa-1404-4805-b24c-dab3f1e708c0"},"vehicle_type_id":"4","last_reported":1740391837,"current_range_meters":4400,"station_id":"ce4bhmp2rcd13ifvqgog","pricing_plan_id":"cebpf4jnsgd1na2vs0mg"},{"bike_id":"51f4302d-1cc6-4b12-9461-eaa376b73356","system_id":"levelo_inurba_marseille","lat":43.29789,"lon":5.381008,"is_reserved":false,"is_disabled":false,"rental_uris":{"android":"levelo://app?vid=51f4302d-1cc6-4b12-9461-eaa376b73356","ios":"levelo://app?vid=51f4302d-1cc6-4b12-9461-eaa376b73356"},"vehicle_type_id":"4","last_reported":1740391837,"current_range_meters":4400,"station_id":"ce4bgip2rcd13ifvqbb0","pricing_plan_id":"cebpf4jnsgd1na2vs0mg"},{"bike_id":"25668f04-5ba8-47b2-aa0b-ad3790d454c9","system_id":"levelo_inurba_marseille","lat":43.28714,"lon":5.37917,"is_reserved":false,"is_disabled":false,"rental_uris":{"android":"levelo://app?vid=25668f04-5ba8-47b2-aa0b-ad3790d454c9","ios":"levelo://app?vid=25668f04-5ba8-47b2-aa0b-ad3790d454c9"},"vehicle_type_id":"4","last_reported":1740391837,"current_range_meters":4800,"station_id":"ce4bh9p2rcd13ifvqec0","pricing_plan_id":"cebpf4jnsgd1na2vs0mg"},{"bike_id":"69777bf4-f196-4d92-944d-65c72e7557a6","system_id":"levelo_inurba_marseille","lat":43.3051,"lon":5.37329,"is_reserved":false,"is_disabled":false,"rental_uris":{"android":"levelo://app?vid=69777bf4-f196-4d92-944d-65c72e7557a6","ios":"levelo://app?vid=69777bf4-f196-4d92-944d-65c72e7557a6"},"vehicle_type_id":"4","last_reported":1740391837,"current_range_meters":4800,"station_id":"","pricing_plan_id":"cebpf4jnsgd1na2vs0mg"},{"bike_id":"c503e0e4-9a58-4456-b258-5401bdf48789","system_id":"levelo_inurba_marseille","lat":43.3049,"lon":5.38928,"is_reserved":false,"is_disabled":false,"rental_uris":{"android":"levelo://app?vid=c503e0e4-9a58-4456-b258-5401bdf48789","ios":"levelo://app?vid=c503e0e4-9a58-4456-b258-5401bdf48789"},"vehicle_type_id":"4","last_reported":1740391837,"current_range_meters":5600,"station_id":"ce4bgk12rcd13ifvqbi0","pricing_plan_id":"cebpf4jnsgd1na2vs0mg"},{"bike_id":"1af71967-b274-4269-9655-88715abf61c6","system_id":"levelo_inurba_marseille","lat":43.2655,"lon":5.37295,"is_reserved":false,"is_disabled":true,"rental_uris":{"android":"levelo://app?vid=1af71967-b274-4269-9655-88715abf61c6","ios":"levelo://app?vid=1af71967-b274-4269-9655-88715abf61c6"},"vehicle_type_id":"4","last_reported":1740391837,"current_range_meters":6000,"station_id":"ce4bhg12rcd13ifvqf70","pricing_plan_id":"cebpf4jnsgd1na2vs0mg"},{"bike_id":"db53f84b-605a-4d89-898d-5a37210b182a","system_id":"levelo_inurba_marseille","lat":43.29916,"lon":5.36536,"is_reserved":false,"is_disabled":false,"rental_uris":{"android":"levelo://app?vid=db53f84b-605a-4d89-898d-5a37210b182a","ios":"levelo://app?vid=db53f84b-605a-4d89-898d-5a37210b182a"},"vehicle_type_id":"4","last_reported":1740391837,"current_range_meters":6000,"station_id":"ce4bgm92rcd13ifvqbr0","pricing_plan_id":"cebpf4jnsgd1na2vs0mg"},{"bike_id":"8a88748f-1e0c-4de1-9400-4fdd0fdff4e9","system_id":"levelo_inurba_marseille","lat":43.292052,"lon":5.393126,"is_reserved":false,"is_disabled":false,"rental_uris":{"android":"levelo://app?vid=8a88748f-1e0c-4de1-9400-4fdd0fdff4e9","ios":"levelo://app?vid=8a88748f-1e0c-4de1-9400-4fdd0fdff4e9"},"vehicle_type_id":"4","last_reported":1740391837,"current_range_meters":6000,"station_id":"ce4bh192rcd13ifvqdd0","pricing_plan_id":"cebpf4jnsgd1na2vs0mg"},{"bike_id":"83f8791b-85af-45b1-8851-c015599e7317","system_id":"levelo_inurba_marseille","lat":43.33596,"lon":5.41028,"is_reserved":false,"is_disabled":false,"rental_uris":{"android":"levelo://app?vid=83f8791b-85af-45b1-8851-c015599e7317","ios":"levelo://app?vid=83f8791b-85af-45b1-8851-c015599e7317"},"vehicle_type_id":"4","last_reported":1740391837,"current_range_meters":6400,"station_id":"ce4bhqh2rcd13ifvqhmg","pricing_plan_id":"cebpf4jnsgd1na2vs0mg"},{"bike_id":"49e1c317-c43a-4e17-be08-ea23dc8d6739","system_id":"levelo_inurba_marseille","lat":43.30126,"lon":5.39578,"is_reserved":false,"is_disabled":true,"rental_uris":{"android":"levelo://app?vid=49e1c317-c43a-4e17-be08-ea23dc8d6739","ios":"levelo://app?vid=49e1c317-c43a-4e17-be08-ea23dc8d6739"},"vehicle_type_id":"4","last_reported":1740391837,"current_range_meters":6400,"station_id":"","pricing_plan_id":"cebpf4jnsgd1na2vs0mg"},{"bike_id":"003ebf52-fb2e-4f8f-ae82-9d44fc2bf4ba","system_id":"levelo_inurba_marseille","lat":43.29266,"lon":5.37629,"is_reserved":false,"is_disabled":false,"rental_uris":{"android":"levelo://app?vid=003ebf52-fb2e-4f8f-ae82-9d44fc2bf4ba","ios":"levelo://app?vid=003ebf52-fb2e-4f8f-ae82-9d44fc2bf4ba"},"vehicle_type_id":"4","last_reported":1740391837,"current_range_meters":6800,"station_id":"ce4bgi12rcd13ifvqb80","pricing_plan_id":"cebpf4jnsgd1na2vs0mg"},{"bike_id":"8dc51aab-29d3-43fa-a37e-6c47cc4c2e69","system_id":"levelo_inurba_marseille","lat":43.24169,"lon":5.36402,"is_reserved":false,"is_disabled":false,"rental_uris":{"android":"levelo://app?vid=8dc51aab-29d3-43fa-a37e-6c47cc4c2e69","ios":"levelo://app?vid=8dc51aab-29d3-43fa-a37e-6c47cc4c2e69"},"vehicle_type_id":"4","last_reported":1740391837,"current_range_meters":6800,"station_id":"cpo36qri1sfpv3e86is0","pricing_plan_id":"cebpf4jnsgd1na2vs0mg"},{"bike_id":"33bb368e-dc68-4de3-bee4-58404db96f01","system_id":"levelo_inurba_marseille","lat":43.30564,"lon":5.36687,"is_reserved":false,"is_disabled":false,"rental_uris":{"android":"levelo://app?vid=33bb368e-dc68-4de3-bee4-58404db96f01","ios":"levelo://app?vid=33bb368e-dc68-4de3-bee4-58404db96f01"},"vehicle_type_id":"4","last_reported":1740391837,"current_range_meters":6800,"station_id":"ce4bgrp2rcd13ifvqc9g","pricing_plan_id":"cebpf4jnsgd1na2vs0mg"},{"bike_id":"58e89dd3-7ae7-492c-a91b-5811b350ab7a","system_id":"levelo_inurba_marseille","lat":43.23158,"lon":5.43717,"is_reserved":false,"is_disabled":false,"rental_uris":{"android":"levelo://app?vid=58e89dd3-7ae7-492c-a91b-5811b350ab7a","ios":"levelo://app?vid=58e89dd3-7ae7-492c-a91b-5811b350ab7a"},"vehicle_type_id":"4","last_reported":1740391837,"current_range_meters":6800,"station_id":"ce4bhmp2rcd13ifvqgog","pricing_plan_id":"cebpf4jnsgd1na2vs0mg"},{"bike_id":"bd35f3ed-ff3d-47c6-a345-2ee7a7ab4020","system_id":"levelo_inurba_marseille","lat":43.31196,"lon":5.36853,"is_reserved":false,"is_disabled":false,"rental_uris":{"android":"levelo://app?vid=bd35f3ed-ff3d-47c6-a345-2ee7a7ab4020","ios":"levelo://app?vid=bd35f3ed-ff3d-47c6-a345-2ee7a7ab4020"},"vehicle_type_id":"4","last_reported":1740391837,"current_range_meters":6800,"station_id":"ce4bgl92rcd13ifvqbq0","pricing_plan_id":"cebpf4jnsgd1na2vs0mg"},{"bike_id":"1f7411cd-9379-4bab-a8bc-411b928d8602","system_id":"levelo_inurba_marseille","lat":43.27496,"lon":5.42463,"is_reserved":false,"is_disabled":false,"rental_uris":{"android":"levelo://app?vid=1f7411cd-9379-4bab-a8bc-411b928d8602","ios":"levelo://app?vid=1f7411cd-9379-4bab-a8bc-411b928d8602"},"vehicle_type_id":"4","last_reported":1740391837,"current_range_meters":7200,"station_id":"ce4bhn92rcd13ifvqgrg","pricing_plan_id":"cebpf4jnsgd1na2vs0mg"},{"bike_id":"ffb00c11-eced-4053-8728-fadfda5c52ff","system_id":"levelo_inurba_marseille","lat":43.27327,"lon":5.3911,"is_reserved":false,"is_disabled":true,"rental_uris":{"android":"levelo://app?vid=ffb00c11-eced-4053-8728-fadfda5c52ff","ios":"levelo://app?vid=ffb00c11-eced-4053-8728-fadfda5c52ff"},"vehicle_type_id":"4","last_reported":1740391837,"current_range_meters":7200,"station_id":"ce4bhgp2rcd13ifvqfe0","pricing_plan_id":"cebpf4jnsgd1na2vs0mg"},{"bike_id":"d1e7f873-6e46-4f45-8851-420a72bfc63f","system_id":"levelo_inurba_marseille","lat":43.3135,"lon":5.36706,"is_reserved":false,"is_disabled":false,"rental_uris":{"android":"levelo://app?vid=d1e7f873-6e46-4f45-8851-420a72bfc63f","ios":"levelo://app?vid=d1e7f873-6e46-4f45-8851-420a72bfc63f"},"vehicle_type_id":"4","last_reported":1740391837,"current_range_meters":7200,"station_id":"ce4bgr92rcd13ifvqc6g","pricing_plan_id":"cebpf4jnsgd1na2vs0mg"},{"bike_id":"3bca3269-64d9-4460-b686-b4e7575e3edb","system_id":"levelo_inurba_marseille","lat":43.24067,"lon":5.37745,"is_reserved":false,"is_disabled":false,"rental_uris":{"android":"levelo://app?vid=3bca3269-64d9-4460-b686-b4e7575e3edb","ios":"levelo://app?vid=3bca3269-64d9-4460-b686-b4e7575e3edb"},"vehicle_type_id":"4","last_reported":1740391837,"current_range_meters":8000,"station_id":"ce4bhnp2rcd13ifvqgvg","pricing_plan_id":"cebpf4jnsgd1na2vs0mg"},{"bike_id":"095d5026-b6cb-411c-ab71-6c60703e2b2f","system_id":"levelo_inurba_marseille","lat":43.2305,"lon":5.35505,"is_reserved":false,"is_disabled":true,"rental_uris":{"android":"levelo://app?vid=095d5026-b6cb-411c-ab71-6c60703e2b2f","ios":"levelo://app?vid=095d5026-b6cb-411c-ab71-6c60703e2b2f"},"vehicle_type_id":"4","last_reported":1740391837,"current_range_meters":8000,"station_id":"cpo3342slgdg3j2ifvpg","pricing_plan_id":"cebpf4jnsgd1na2vs0mg"},{"bike_id":"33750ea4-ea2c-4857-bed8-843321691a2a","system_id":"levelo_inurba_marseille","lat":43.29032,"lon":5.38656,"is_reserved":false,"is_disabled":false,"rental_uris":{"android":"levelo://app?vid=33750ea4-ea2c-4857-bed8-843321691a2a","ios":"levelo://app?vid=33750ea4-ea2c-4857-bed8-843321691a2a"},"vehicle_type_id":"4","last_reported":1740391837,"current_range_meters":8000,"station_id":"ce4bh4p2rcd13ifvqe0g","pricing_plan_id":"cebpf4jnsgd1na2vs0mg"},{"bike_id":"bfce7ce6-d60e-4d25-875a-df893ef9ca03","system_id":"levelo_inurba_marseille","lat":43.29597,"lon":5.38102,"is_reserved":false,"is_disabled":false,"rental_uris":{"android":"levelo://app?vid=bfce7ce6-d60e-4d25-875a-df893ef9ca03","ios":"levelo://app?vid=bfce7ce6-d60e-4d25-875a-df893ef9ca03"},"vehicle_type_id":"4","last_reported":1740391837,"current_range_meters":8000,"station_id":"ce4bgl12rcd13ifvqbo0","pricing_plan_id":"cebpf4jnsgd1na2vs0mg"},{"bike_id":"26a4a42b-331e-4e73-b59d-57c22961465f","system_id":"levelo_inurba_marseille","lat":43.32535,"lon":5.4143,"is_reserved":false,"is_disabled":false,"rental_uris":{"android":"levelo://app?vid=26a4a42b-331e-4e73-b59d-57c22961465f","ios":"levelo://app?vid=26a4a42b-331e-4e73-b59d-57c22961465f"},"vehicle_type_id":"4","last_reported":1740391837,"current_range_meters":8400,"station_id":"ce4bhq12rcd13ifvqhhg","pricing_plan_id":"cebpf4jnsgd1na2vs0mg"},{"bike_id":"d68d8965-f0df-40d2-a511-522c1a007517","system_id":"levelo_inurba_marseille","lat":43.3247,"lon":5.36567,"is_reserved":false,"is_disabled":false,"rental_uris":{"android":"levelo://app?vid=d68d8965-f0df-40d2-a511-522c1a007517","ios":"levelo://app?vid=d68d8965-f0df-40d2-a511-522c1a007517"},"vehicle_type_id":"4","last_reported":1740391837,"current_range_meters":8400,"station_id":"ce4bhs12rcd13ifvqhvg","pricing_plan_id":"cebpf4jnsgd1na2vs0mg"},{"bike_id":"8cd8e855-556a-49bb-858e-094e7857f894","system_id":"levelo_inurba_marseille","lat":43.29217,"lon":5.35795,"is_reserved":false,"is_disabled":true,"rental_uris":{"android":"levelo://app?vid=8cd8e855-556a-49bb-858e-094e7857f894","ios":"levelo://app?vid=8cd8e855-556a-49bb-858e-094e7857f894"},"vehicle_type_id":"4","last_reported":1740391837,"current_range_meters":8400,"station_id":"ce4bhb12rcd13ifvqel0","pricing_plan_id":"cebpf4jnsgd1na2vs0mg"},{"bike_id":"215dc5b9-8528-4ee8-a492-716f522daa2d","system_id":"levelo_inurba_marseille","lat":43.31361,"lon":5.36728,"is_reserved":false,"is_disabled":false,"rental_uris":{"android":"levelo://app?vid=215dc5b9-8528-4ee8-a492-716f522daa2d","ios":"levelo://app?vid=215dc5b9-8528-4ee8-a492-716f522daa2d"},"vehicle_type_id":"4","last_reported":1740391837,"current_range_meters":8400,"station_id":"ce4bgr92rcd13ifvqc6g","pricing_plan_id":"cebpf4jnsgd1na2vs0mg"},{"bike_id":"b0dd245f-c779-4a79-9c28-ea6dc22f622b","system_id":"levelo_inurba_marseille","lat":43.23153,"lon":5.43722,"is_reserved":false,"is_disabled":false,"rental_uris":{"android":"levelo://app?vid=b0dd245f-c779-4a79-9c28-ea6dc22f622b","ios":"levelo://app?vid=b0dd245f-c779-4a79-9c28-ea6dc22f622b"},"vehicle_type_id":"4","last_reported":1740391837,"current_range_meters":8400,"station_id":"ce4bhmp2rcd13ifvqgog","pricing_plan_id":"cebpf4jnsgd1na2vs0mg"},{"bike_id":"a9d24a00-0996-4b08-bc0a-ef5992905a54","system_id":"levelo_inurba_marseille","lat":43.29967,"lon":5.38495,"is_reserved":false,"is_disabled":false,"rental_uris":{"android":"levelo://app?vid=a9d24a00-0996-4b08-bc0a-ef5992905a54","ios":"levelo://app?vid=a9d24a00-0996-4b08-bc0a-ef5992905a54"},"vehicle_type_id":"4","last_reported":1740391837,"current_range_meters":8400,"station_id":"ce4bgj92rcd13ifvqbd0","pricing_plan_id":"cebpf4jnsgd1na2vs0mg"},{"bike_id":"1127a561-55dc-461d-840d-fc4e71e9155a","system_id":"levelo_inurba_marseille","lat":43.29905,"lon":5.43668,"is_reserved":false,"is_disabled":false,"rental_uris":{"android":"levelo://app?vid=1127a561-55dc-461d-840d-fc4e71e9155a","ios":"levelo://app?vid=1127a561-55dc-461d-840d-fc4e71e9155a"},"vehicle_type_id":"4","last_reported":1740391837,"current_range_meters":8800,"station_id":"ce4bhpp2rcd13ifvqhfg","pricing_plan_id":"cebpf4jnsgd1na2vs0mg"},{"bike_id":"934fa269-c84a-4c60-bc6f-23a7decae83c","system_id":"levelo_inurba_marseille","lat":43.2501,"lon":5.38921,"is_reserved":false,"is_disabled":false,"rental_uris":{"android":"levelo://app?vid=934fa269-c84a-4c60-bc6f-23a7decae83c","ios":"levelo://app?vid=934fa269-c84a-4c60-bc6f-23a7decae83c"},"vehicle_type_id":"4","last_reported":1740391837,"current_range_meters":8800,"station_id":"ce4bhgp2rcd13ifvqfd0","pricing_plan_id":"cebpf4jnsgd1na2vs0mg"},{"bike_id":"ab7da9df-c7ed-482b-9961-43b5cca3e34b","system_id":"levelo_inurba_marseille","lat":43.31118,"lon":5.37775,"is_reserved":false,"is_disabled":true,"rental_uris":{"android":"levelo://app?vid=ab7da9df-c7ed-482b-9961-43b5cca3e34b","ios":"levelo://app?vid=ab7da9df-c7ed-482b-9961-43b5cca3e34b"},"vehicle_type_id":"4","last_reported":1740391837,"current_range_meters":8800,"station_id":"ce4bgt92rcd13ifvqcg0","pricing_plan_id":"cebpf4jnsgd1na2vs0mg"},{"bike_id":"f4ca5da9-11d3-4ef2-9db6-6e63db3aa415","system_id":"levelo_inurba_marseille","lat":43.29256,"lon":5.40156,"is_reserved":false,"is_disabled":false,"rental_uris":{"android":"levelo://app?vid=f4ca5da9-11d3-4ef2-9db6-6e63db3aa415","ios":"levelo://app?vid=f4ca5da9-11d3-4ef2-9db6-6e63db3aa415"},"vehicle_type_id":"4","last_reported":1740391837,"current_range_meters":8800,"station_id":"ce4bh312rcd13ifvqdk0","pricing_plan_id":"cebpf4jnsgd1na2vs0mg"},{"bike_id":"41b8905f-5d71-47d2-981b-cd5802ac227d","system_id":"levelo_inurba_marseille","lat":43.2914,"lon":5.40021,"is_reserved":false,"is_disabled":false,"rental_uris":{"android":"levelo://app?vid=41b8905f-5d71-47d2-981b-cd5802ac227d","ios":"levelo://app?vid=41b8905f-5d71-47d2-981b-cd5802ac227d"},"vehicle_type_id":"4","last_reported":1740391837,"current_range_meters":8800,"station_id":"","pricing_plan_id":"cebpf4jnsgd1na2vs0mg"},{"bike_id":"c4abef68-54bd-45bd-b2c0-4265c013ea72","system_id":"levelo_inurba_marseille","lat":43.2408,"lon":5.37781,"is_reserved":false,"is_disabled":false,"rental_uris":{"android":"levelo://app?vid=c4abef68-54bd-45bd-b2c0-4265c013ea72","ios":"levelo://app?vid=c4abef68-54bd-45bd-b2c0-4265c013ea72"},"vehicle_type_id":"4","last_reported":1740391837,"current_range_meters":8800,"station_id":"ce4bhnp2rcd13ifvqgvg","pricing_plan_id":"cebpf4jnsgd1na2vs0mg"},{"bike_id":"6272614c-39eb-472c-9dbc-23e8bd5a6143","system_id":"levelo_inurba_marseille","lat":43.23153,"lon":5.43723,"is_reserved":false,"is_disabled":false,"rental_uris":{"android":"levelo://app?vid=6272614c-39eb-472c-9dbc-23e8bd5a6143","ios":"levelo://app?vid=6272614c-39eb-472c-9dbc-23e8bd5a6143"},"vehicle_type_id":"4","last_reported":1740391837,"current_range_meters":8800,"station_id":"ce4bhmp2rcd13ifvqgog","pricing_plan_id":"cebpf4jnsgd1na2vs0mg"},{"bike_id":"1c282441-42fa-4577-98e6-37246650189e","system_id":"levelo_inurba_marseille","lat":43.30546,"lon":5.36704,"is_reserved":false,"is_disabled":false,"rental_uris":{"android":"levelo://app?vid=1c282441-42fa-4577-98e6-37246650189e","ios":"levelo://app?vid=1c282441-42fa-4577-98e6-37246650189e"},"vehicle_type_id":"4","last_reported":1740391837,"current_range_meters":9200,"station_id":"ce4bgrp2rcd13ifvqc9g","pricing_plan_id":"cebpf4jnsgd1na2vs0mg"},{"bike_id":"edaea7ea-320b-405d-86bf-2d72c60722b9","system_id":"levelo_inurba_marseille","lat":43.30531,"lon":5.36523,"is_reserved":false,"is_disabled":false,"rental_uris":{"android":"levelo://app?vid=edaea7ea-320b-405d-86bf-2d72c60722b9","ios":"levelo://app?vid=edaea7ea-320b-405d-86bf-2d72c60722b9"},"vehicle_type_id":"4","last_reported":1740391837,"current_range_meters":9200,"station_id":"ce4bgs12rcd13ifvqcag","pricing_plan_id":"cebpf4jnsgd1na2vs0mg"},{"bike_id":"79423435-50c4-4f9d-b5f5-bf531937b957","system_id":"levelo_inurba_marseille","lat":43.30952,"lon":5.39045,"is_reserved":false,"is_disabled":false,"rental_uris":{"android":"levelo://app?vid=79423435-50c4-4f9d-b5f5-bf531937b957","ios":"levelo://app?vid=79423435-50c4-4f9d-b5f5-bf531937b957"},"vehicle_type_id":"4","last_reported":1740391837,"current_range_meters":9200,"station_id":"ce4bgup2rcd13ifvqco0","pricing_plan_id":"cebpf4jnsgd1na2vs0mg"},{"bike_id":"a8dc7729-6589-4862-ac61-2b20487771e6","system_id":"levelo_inurba_marseille","lat":43.32128,"lon":5.36739,"is_reserved":false,"is_disabled":false,"rental_uris":{"android":"levelo://app?vid=a8dc7729-6589-4862-ac61-2b20487771e6","ios":"levelo://app?vid=a8dc7729-6589-4862-ac61-2b20487771e6"},"vehicle_type_id":"4","last_reported":1740391837,"current_range_meters":9200,"station_id":"ce4bhrh2rcd13ifvqhug","pricing_plan_id":"cebpf4jnsgd1na2vs0mg"},{"bike_id":"9fdc5228-e835-4793-ad30-e5834cfd975b","system_id":"levelo_inurba_marseille","lat":43.25857,"lon":5.39924,"is_reserved":false,"is_disabled":false,"rental_uris":{"android":"levelo://app?vid=9fdc5228-e835-4793-ad30-e5834cfd975b","ios":"levelo://app?vid=9fdc5228-e835-4793-ad30-e5834cfd975b"},"vehicle_type_id":"4","last_reported":1740391837,"current_range_meters":9200,"station_id":"ce4bhl92rcd13ifvqghg","pricing_plan_id":"cebpf4jnsgd1na2vs0mg"},{"bike_id":"4fdea899-ebb6-4c4c-8194-a7d7dbcf0358","system_id":"levelo_inurba_marseille","lat":43.29931,"lon":5.36543,"is_reserved":false,"is_disabled":false,"rental_uris":{"android":"levelo://app?vid=4fdea899-ebb6-4c4c-8194-a7d7dbcf0358","ios":"levelo://app?vid=4fdea899-ebb6-4c4c-8194-a7d7dbcf0358"},"vehicle_type_id":"4","last_reported":1740391837,"current_range_meters":9600,"station_id":"ce4bgm92rcd13ifvqbr0","pricing_plan_id":"cebpf4jnsgd1na2vs0mg"},{"bike_id":"35f7fe5f-b05d-405c-a155-dda0758733e2","system_id":"levelo_inurba_marseille","lat":43.2816,"lon":5.42648,"is_reserved":false,"is_disabled":true,"rental_uris":{"android":"levelo://app?vid=35f7fe5f-b05d-405c-a155-dda0758733e2","ios":"levelo://app?vid=35f7fe5f-b05d-405c-a155-dda0758733e2"},"vehicle_type_id":"4","last_reported":1740391837,"current_range_meters":9600,"station_id":"ce4bhnh2rcd13ifvqgug","pricing_plan_id":"cebpf4jnsgd1na2vs0mg"},{"bike_id":"bbebcd9e-ad72-4e6b-aadf-e0fdb707eb6f","system_id":"levelo_inurba_marseille","lat":43.28697,"lon":5.37389,"is_reserved":false,"is_disabled":false,"rental_uris":{"android":"levelo://app?vid=bbebcd9e-ad72-4e6b-aadf-e0fdb707eb6f","ios":"levelo://app?vid=bbebcd9e-ad72-4e6b-aadf-e0fdb707eb6f"},"vehicle_type_id":"4","last_reported":1740391837,"current_range_meters":9600,"station_id":"ce4bh3p2rcd13ifvqdq0","pricing_plan_id":"cebpf4jnsgd1na2vs0mg"},{"bike_id":"a3610751-bbe4-4d3e-a717-1a0eebd2fb2a","system_id":"levelo_inurba_marseille","lat":43.30702,"lon":5.37532,"is_reserved":false,"is_disabled":false,"rental_uris":{"android":"levelo://app?vid=a3610751-bbe4-4d3e-a717-1a0eebd2fb2a","ios":"levelo://app?vid=a3610751-bbe4-4d3e-a717-1a0eebd2fb2a"},"vehicle_type_id":"4","last_reported":1740391837,"current_range_meters":9600,"station_id":"","pricing_plan_id":"cebpf4jnsgd1na2vs0mg"},{"bike_id":"5de90a37-b7c7-4a02-ac2e-e5ef7e12ddbb","system_id":"levelo_inurba_marseille","lat":43.24148,"lon":5.36439,"is_reserved":false,"is_disabled":false,"rental_uris":{"android":"levelo://app?vid=5de90a37-b7c7-4a02-ac2e-e5ef7e12ddbb","ios":"levelo://app?vid=5de90a37-b7c7-4a02-ac2e-e5ef7e12ddbb"},"vehicle_type_id":"4","last_reported":1740391837,"current_range_meters":10000,"station_id":"cpo36qri1sfpv3e86is0","pricing_plan_id":"cebpf4jnsgd1na2vs0mg"},{"bike_id":"d20cadd3-7237-4a35-ac9f-9c520cbd6a0f","system_id":"levelo_inurba_marseille","lat":43.24177,"lon":5.39726,"is_reserved":false,"is_disabled":false,"rental_uris":{"android":"levelo://app?vid=d20cadd3-7237-4a35-ac9f-9c520cbd6a0f","ios":"levelo://app?vid=d20cadd3-7237-4a35-ac9f-9c520cbd6a0f"},"vehicle_type_id":"4","last_reported":1740391837,"current_range_meters":10000,"station_id":"ce4bhn12rcd13ifvqgpg","pricing_plan_id":"cebpf4jnsgd1na2vs0mg"},{"bike_id":"78e73c68-b9a9-40df-801f-625528d58e39","system_id":"levelo_inurba_marseille","lat":43.25111,"lon":5.40318,"is_reserved":false,"is_disabled":false,"rental_uris":{"android":"levelo://app?vid=78e73c68-b9a9-40df-801f-625528d58e39","ios":"levelo://app?vid=78e73c68-b9a9-40df-801f-625528d58e39"},"vehicle_type_id":"4","last_reported":1740391837,"current_range_meters":10000,"station_id":"ce4bhlh2rcd13ifvqgig","pricing_plan_id":"cebpf4jnsgd1na2vs0mg"},{"bike_id":"59cee8b2-041d-483f-9014-53e4c3fcc3d2","system_id":"levelo_inurba_marseille","lat":43.2828,"lon":5.35074,"is_reserved":false,"is_disabled":true,"rental_uris":{"android":"levelo://app?vid=59cee8b2-041d-483f-9014-53e4c3fcc3d2","ios":"levelo://app?vid=59cee8b2-041d-483f-9014-53e4c3fcc3d2"},"vehicle_type_id":"4","last_reported":1740391837,"current_range_meters":10000,"station_id":"ce4bhbp2rcd13ifvqerg","pricing_plan_id":"cebpf4jnsgd1na2vs0mg"},{"bike_id":"1719a3f6-b657-47bb-9ab6-949b0d8f29dd","system_id":"levelo_inurba_marseille","lat":43.24809,"lon":5.37457,"is_reserved":false,"is_disabled":false,"rental_uris":{"android":"levelo://app?vid=1719a3f6-b657-47bb-9ab6-949b0d8f29dd","ios":"levelo://app?vid=1719a3f6-b657-47bb-9ab6-949b0d8f29dd"},"vehicle_type_id":"4","last_reported":1740391837,"current_range_meters":10000,"station_id":"ce4bhgh2rcd13ifvqfb0","pricing_plan_id":"cebpf4jnsgd1na2vs0mg"},{"bike_id":"9faf844a-413f-419f-bdea-64830f7f2bfb","system_id":"levelo_inurba_marseille","lat":43.29923,"lon":5.37844,"is_reserved":false,"is_disabled":false,"rental_uris":{"android":"levelo://app?vid=9faf844a-413f-419f-bdea-64830f7f2bfb","ios":"levelo://app?vid=9faf844a-413f-419f-bdea-64830f7f2bfb"},"vehicle_type_id":"4","last_reported":1740391837,"current_range_meters":10800,"station_id":"","pricing_plan_id":"cebpf4jnsgd1na2vs0mg"},{"bike_id":"a88294ac-77b7-4dff-91db-5855a0a01b24","system_id":"levelo_inurba_marseille","lat":43.26502,"lon":5.3954,"is_reserved":false,"is_disabled":false,"rental_uris":{"android":"levelo://app?vid=a88294ac-77b7-4dff-91db-5855a0a01b24","ios":"levelo://app?vid=a88294ac-77b7-4dff-91db-5855a0a01b24"},"vehicle_type_id":"4","last_reported":1740391837,"current_range_meters":10800,"station_id":"ce4bhi12rcd13ifvqfq0","pricing_plan_id":"cebpf4jnsgd1na2vs0mg"},{"bike_id":"2faf2740-e869-415b-95cd-4a5becab55d4","system_id":"levelo_inurba_marseille","lat":43.30809,"lon":5.38183,"is_reserved":false,"is_disabled":false,"rental_uris":{"android":"levelo://app?vid=2faf2740-e869-415b-95cd-4a5becab55d4","ios":"levelo://app?vid=2faf2740-e869-415b-95cd-4a5becab55d4"},"vehicle_type_id":"4","last_reported":1740391837,"current_range_meters":10000,"station_id":"ce4bgt12rcd13ifvqce0","pricing_plan_id":"cebpf4jnsgd1na2vs0mg"},{"bike_id":"860eff15-4aff-4d92-8690-98414ae73df2","system_id":"levelo_inurba_marseille","lat":43.26507,"lon":5.3906,"is_reserved":false,"is_disabled":true,"rental_uris":{"android":"levelo://app?vid=860eff15-4aff-4d92-8690-98414ae73df2","ios":"levelo://app?vid=860eff15-4aff-4d92-8690-98414ae73df2"},"vehicle_type_id":"4","last_reported":1740391837,"current_range_meters":10800,"station_id":"ce4bhe12rcd13ifvqf30","pricing_plan_id":"cebpf4jnsgd1na2vs0mg"},{"bike_id":"f9ba787a-915d-4bad-a676-7097e43a5985","system_id":"levelo_inurba_marseille","lat":43.29846,"lon":5.36274,"is_reserved":false,"is_disabled":false,"rental_uris":{"android":"levelo://app?vid=f9ba787a-915d-4bad-a676-7097e43a5985","ios":"levelo://app?vid=f9ba787a-915d-4bad-a676-7097e43a5985"},"vehicle_type_id":"4","last_reported":1740391837,"current_range_meters":10800,"station_id":"ce4bgpp2rcd13ifvqc3g","pricing_plan_id":"cebpf4jnsgd1na2vs0mg"},{"bike_id":"f87efea9-8c10-480e-9a97-1b8595348bd7","system_id":"levelo_inurba_marseille","lat":43.24086,"lon":5.37747,"is_reserved":false,"is_disabled":false,"rental_uris":{"android":"levelo://app?vid=f87efea9-8c10-480e-9a97-1b8595348bd7","ios":"levelo://app?vid=f87efea9-8c10-480e-9a97-1b8595348bd7"},"vehicle_type_id":"4","last_reported":1740391837,"current_range_meters":11200,"station_id":"ce4bhnp2rcd13ifvqgvg","pricing_plan_id":"cebpf4jnsgd1na2vs0mg"},{"bike_id":"dc54d4c7-bc24-4392-9110-799e297e7337","system_id":"levelo_inurba_marseille","lat":43.29322,"lon":5.37273,"is_reserved":false,"is_disabled":false,"rental_uris":{"android":"levelo://app?vid=dc54d4c7-bc24-4392-9110-799e297e7337","ios":"levelo://app?vid=dc54d4c7-bc24-4392-9110-799e297e7337"},"vehicle_type_id":"4","last_reported":1740391837,"current_range_meters":11200,"station_id":"","pricing_plan_id":"cebpf4jnsgd1na2vs0mg"},{"bike_id":"fc93a0cd-d658-4fe7-9e6a-52a49333f268","system_id":"levelo_inurba_marseille","lat":43.308088,"lon":5.381952,"is_reserved":false,"is_disabled":false,"rental_uris":{"android":"levelo://app?vid=fc93a0cd-d658-4fe7-9e6a-52a49333f268","ios":"levelo://app?vid=fc93a0cd-d658-4fe7-9e6a-52a49333f268"},"vehicle_type_id":"4","last_reported":1740391837,"current_range_meters":11200,"station_id":"ce4bgt12rcd13ifvqce0","pricing_plan_id":"cebpf4jnsgd1na2vs0mg"},{"bike_id":"006cffba-644e-429d-a222-22599b7338bf","system_id":"levelo_inurba_marseille","lat":43.24169,"lon":5.39722,"is_reserved":false,"is_disabled":false,"rental_uris":{"android":"levelo://app?vid=006cffba-644e-429d-a222-22599b7338bf","ios":"levelo://app?vid=006cffba-644e-429d-a222-22599b7338bf"},"vehicle_type_id":"4","last_reported":1740391837,"current_range_meters":11600,"station_id":"ce4bhn12rcd13ifvqgpg","pricing_plan_id":"cebpf4jnsgd1na2vs0mg"},{"bike_id":"3fe402df-efb2-421d-9441-7aab75d83404","system_id":"levelo_inurba_marseille","lat":43.23158,"lon":5.43718,"is_reserved":false,"is_disabled":false,"rental_uris":{"android":"levelo://app?vid=3fe402df-efb2-421d-9441-7aab75d83404","ios":"levelo://app?vid=3fe402df-efb2-421d-9441-7aab75d83404"},"vehicle_type_id":"4","last_reported":1740391837,"current_range_meters":11600,"station_id":"ce4bhmp2rcd13ifvqgog","pricing_plan_id":"cebpf4jnsgd1na2vs0mg"},{"bike_id":"fcb8f976-fe48-4486-b326-2c8b38f88a18","system_id":"levelo_inurba_marseille","lat":43.29271,"lon":5.37614,"is_reserved":false,"is_disabled":false,"rental_uris":{"android":"levelo://app?vid=fcb8f976-fe48-4486-b326-2c8b38f88a18","ios":"levelo://app?vid=fcb8f976-fe48-4486-b326-2c8b38f88a18"},"vehicle_type_id":"4","last_reported":1740391837,"current_range_meters":11600,"station_id":"ce4bgi12rcd13ifvqb80","pricing_plan_id":"cebpf4jnsgd1na2vs0mg"},{"bike_id":"0b397ad7-a585-4a28-af67-72e05171869f","system_id":"levelo_inurba_marseille","lat":43.31346,"lon":5.36731,"is_reserved":false,"is_disabled":false,"rental_uris":{"android":"levelo://app?vid=0b397ad7-a585-4a28-af67-72e05171869f","ios":"levelo://app?vid=0b397ad7-a585-4a28-af67-72e05171869f"},"vehicle_type_id":"4","last_reported":1740391837,"current_range_meters":11600,"station_id":"ce4bgr92rcd13ifvqc6g","pricing_plan_id":"cebpf4jnsgd1na2vs0mg"},{"bike_id":"10a9365f-072c-4bc6-9967-75e3cf71bc73","system_id":"levelo_inurba_marseille","lat":43.263368,"lon":5.396299,"is_reserved":false,"is_disabled":false,"rental_uris":{"android":"levelo://app?vid=10a9365f-072c-4bc6-9967-75e3cf71bc73","ios":"levelo://app?vid=10a9365f-072c-4bc6-9967-75e3cf71bc73"},"vehicle_type_id":"4","last_reported":1740391837,"current_range_meters":11600,"station_id":"","pricing_plan_id":"cebpf4jnsgd1na2vs0mg"},{"bike_id":"06e1f752-0631-4115-b2d5-0075ce84bc3c","system_id":"levelo_inurba_marseille","lat":43.25835,"lon":5.39435,"is_reserved":false,"is_disabled":false,"rental_uris":{"android":"levelo://app?vid=06e1f752-0631-4115-b2d5-0075ce84bc3c","ios":"levelo://app?vid=06e1f752-0631-4115-b2d5-0075ce84bc3c"},"vehicle_type_id":"4","last_reported":1740391837,"current_range_meters":12000,"station_id":"ce4bhip2rcd13ifvqft0","pricing_plan_id":"cebpf4jnsgd1na2vs0mg"},{"bike_id":"9e119d0b-c0b5-4dc4-8adb-833c259e51d8","system_id":"levelo_inurba_marseille","lat":43.26952,"lon":5.38642,"is_reserved":false,"is_disabled":false,"rental_uris":{"android":"levelo://app?vid=9e119d0b-c0b5-4dc4-8adb-833c259e51d8","ios":"levelo://app?vid=9e119d0b-c0b5-4dc4-8adb-833c259e51d8"},"vehicle_type_id":"4","last_reported":1740391837,"current_range_meters":12000,"station_id":"ce4bhh92rcd13ifvqfh0","pricing_plan_id":"cebpf4jnsgd1na2vs0mg"},{"bike_id":"56df2748-2c2e-439e-a556-627cad7c808a","system_id":"levelo_inurba_marseille","lat":43.26681,"lon":5.38275,"is_reserved":false,"is_disabled":false,"rental_uris":{"android":"levelo://app?vid=56df2748-2c2e-439e-a556-627cad7c808a","ios":"levelo://app?vid=56df2748-2c2e-439e-a556-627cad7c808a"},"vehicle_type_id":"4","last_reported":1740391837,"current_range_meters":12400,"station_id":"ce4bhg92rcd13ifvqf90","pricing_plan_id":"cebpf4jnsgd1na2vs0mg"},{"bike_id":"8db8ed58-37cb-4c97-97a8-1ea2735c388d","system_id":"levelo_inurba_marseille","lat":43.26788,"lon":5.39414,"is_reserved":false,"is_disabled":false,"rental_uris":{"android":"levelo://app?vid=8db8ed58-37cb-4c97-97a8-1ea2735c388d","ios":"levelo://app?vid=8db8ed58-37cb-4c97-97a8-1ea2735c388d"},"vehicle_type_id":"4","last_reported":1740391837,"current_range_meters":12400,"station_id":"ce4bhh12rcd13ifvqfg0","pricing_plan_id":"cebpf4jnsgd1na2vs0mg"},{"bike_id":"7d0e072a-3432-4778-a61a-3575849181ae","system_id":"levelo_inurba_marseille","lat":43.30486,"lon":5.36582,"is_reserved":false,"is_disabled":false,"rental_uris":{"android":"levelo://app?vid=7d0e072a-3432-4778-a61a-3575849181ae","ios":"levelo://app?vid=7d0e072a-3432-4778-a61a-3575849181ae"},"vehicle_type_id":"4","last_reported":1740391837,"current_range_meters":12800,"station_id":"ce4bgs12rcd13ifvqcag","pricing_plan_id":"cebpf4jnsgd1na2vs0mg"},{"bike_id":"01d1da51-2cef-46ef-923d-6fa5ded2f3da","system_id":"levelo_inurba_marseille","lat":43.30534,"lon":5.36534,"is_reserved":false,"is_disabled":false,"rental_uris":{"android":"levelo://app?vid=01d1da51-2cef-46ef-923d-6fa5ded2f3da","ios":"levelo://app?vid=01d1da51-2cef-46ef-923d-6fa5ded2f3da"},"vehicle_type_id":"4","last_reported":1740391837,"current_range_meters":12800,"station_id":"ce4bgs12rcd13ifvqcag","pricing_plan_id":"cebpf4jnsgd1na2vs0mg"},{"bike_id":"70e6b6bf-885b-413f-b2cc-30b922c81321","system_id":"levelo_inurba_marseille","lat":43.25497,"lon":5.37647,"is_reserved":false,"is_disabled":false,"rental_uris":{"android":"levelo://app?vid=70e6b6bf-885b-413f-b2cc-30b922c81321","ios":"levelo://app?vid=70e6b6bf-885b-413f-b2cc-30b922c81321"},"vehicle_type_id":"4","last_reported":1740391837,"current_range_meters":12800,"station_id":"ce4bhh12rcd13ifvqff0","pricing_plan_id":"cebpf4jnsgd1na2vs0mg"},{"bike_id":"25ef5a1f-5aec-48a2-a786-541af88b2004","system_id":"levelo_inurba_marseille","lat":43.30362,"lon":5.39443,"is_reserved":false,"is_disabled":false,"rental_uris":{"android":"levelo://app?vid=25ef5a1f-5aec-48a2-a786-541af88b2004","ios":"levelo://app?vid=25ef5a1f-5aec-48a2-a786-541af88b2004"},"vehicle_type_id":"4","last_reported":1740391837,"current_range_meters":13600,"station_id":"","pricing_plan_id":"cebpf4jnsgd1na2vs0mg"},{"bike_id":"41a2216f-8b22-4f4f-9eac-5e2283bcdb4b","system_id":"levelo_inurba_marseille","lat":43.28156,"lon":5.42674,"is_reserved":false,"is_disabled":true,"rental_uris":{"android":"levelo://app?vid=41a2216f-8b22-4f4f-9eac-5e2283bcdb4b","ios":"levelo://app?vid=41a2216f-8b22-4f4f-9eac-5e2283bcdb4b"},"vehicle_type_id":"4","last_reported":1740391837,"current_range_meters":13600,"station_id":"ce4bhnh2rcd13ifvqgug","pricing_plan_id":"cebpf4jnsgd1na2vs0mg"},{"bike_id":"7fe0996e-2e24-4a3a-b975-03a2a20f6506","system_id":"levelo_inurba_marseille","lat":43.32357,"lon":5.36756,"is_reserved":false,"is_disabled":false,"rental_uris":{"android":"levelo://app?vid=7fe0996e-2e24-4a3a-b975-03a2a20f6506","ios":"levelo://app?vid=7fe0996e-2e24-4a3a-b975-03a2a20f6506"},"vehicle_type_id":"4","last_reported":1740391837,"current_range_meters":13600,"station_id":"ce4bhsh2rcd13ifvqi2g","pricing_plan_id":"cebpf4jnsgd1na2vs0mg"},{"bike_id":"b099c589-a7bb-44b3-b912-ba1d53f8a294","system_id":"levelo_inurba_marseille","lat":43.29254,"lon":5.37627,"is_reserved":false,"is_disabled":false,"rental_uris":{"android":"levelo://app?vid=b099c589-a7bb-44b3-b912-ba1d53f8a294","ios":"levelo://app?vid=b099c589-a7bb-44b3-b912-ba1d53f8a294"},"vehicle_type_id":"4","last_reported":1740391837,"current_range_meters":13600,"station_id":"ce4bgi12rcd13ifvqb80","pricing_plan_id":"cebpf4jnsgd1na2vs0mg"},{"bike_id":"d1a1f41d-d5c3-4e15-a152-cd4283abd7c7","system_id":"levelo_inurba_marseille","lat":43.30295,"lon":5.37705,"is_reserved":false,"is_disabled":false,"rental_uris":{"android":"levelo://app?vid=d1a1f41d-d5c3-4e15-a152-cd4283abd7c7","ios":"levelo://app?vid=d1a1f41d-d5c3-4e15-a152-cd4283abd7c7"},"vehicle_type_id":"4","last_reported":1740391837,"current_range_meters":13600,"station_id":"ce4bguh2rcd13ifvqcj0","pricing_plan_id":"cebpf4jnsgd1na2vs0mg"},{"bike_id":"8a61cac0-b145-49d2-8015-e4593547f020","system_id":"levelo_inurba_marseille","lat":43.29376,"lon":5.37837,"is_reserved":false,"is_disabled":false,"rental_uris":{"android":"levelo://app?vid=8a61cac0-b145-49d2-8015-e4593547f020","ios":"levelo://app?vid=8a61cac0-b145-49d2-8015-e4593547f020"},"vehicle_type_id":"4","last_reported":1740391837,"current_range_meters":12800,"station_id":"ce4bgjh2rcd13ifvqbf0","pricing_plan_id":"cebpf4jnsgd1na2vs0mg"},{"bike_id":"55e8dfe4-3690-4fe4-a013-f8375845b432","system_id":"levelo_inurba_marseille","lat":43.25924,"lon":5.40884,"is_reserved":false,"is_disabled":false,"rental_uris":{"android":"levelo://app?vid=55e8dfe4-3690-4fe4-a013-f8375845b432","ios":"levelo://app?vid=55e8dfe4-3690-4fe4-a013-f8375845b432"},"vehicle_type_id":"4","last_reported":1740391837,"current_range_meters":14000,"station_id":"ce4bhm92rcd13ifvqglg","pricing_plan_id":"cebpf4jnsgd1na2vs0mg"},{"bike_id":"17a933dc-646e-4b54-82ae-e53c3a937e2b","system_id":"levelo_inurba_marseille","lat":43.29275,"lon":5.39105,"is_reserved":false,"is_disabled":false,"rental_uris":{"android":"levelo://app?vid=17a933dc-646e-4b54-82ae-e53c3a937e2b","ios":"levelo://app?vid=17a933dc-646e-4b54-82ae-e53c3a937e2b"},"vehicle_type_id":"4","last_reported":1740391837,"current_range_meters":14000,"station_id":"ce4bh192rcd13ifvqdd0","pricing_plan_id":"cebpf4jnsgd1na2vs0mg"},{"bike_id":"a2d6ae3f-66f4-4649-ba0a-99967149441d","system_id":"levelo_inurba_marseille","lat":43.29547,"lon":5.3611,"is_reserved":false,"is_disabled":false,"rental_uris":{"android":"levelo://app?vid=a2d6ae3f-66f4-4649-ba0a-99967149441d","ios":"levelo://app?vid=a2d6ae3f-66f4-4649-ba0a-99967149441d"},"vehicle_type_id":"4","last_reported":1740391837,"current_range_meters":14000,"station_id":"","pricing_plan_id":"cebpf4jnsgd1na2vs0mg"},{"bike_id":"bc5fff51-e01e-46fc-8536-90b9645e2001","system_id":"levelo_inurba_marseille","lat":43.30312,"lon":5.36905,"is_reserved":false,"is_disabled":false,"rental_uris":{"android":"levelo://app?vid=bc5fff51-e01e-46fc-8536-90b9645e2001","ios":"levelo://app?vid=bc5fff51-e01e-46fc-8536-90b9645e2001"},"vehicle_type_id":"4","last_reported":1740391837,"current_range_meters":14400,"station_id":"ce4bgqh2rcd13ifvqc5g","pricing_plan_id":"cebpf4jnsgd1na2vs0mg"},{"bike_id":"ad505fac-e138-45e3-b358-d135036ac08a","system_id":"levelo_inurba_marseille","lat":43.24657,"lon":5.3888,"is_reserved":false,"is_disabled":false,"rental_uris":{"android":"levelo://app?vid=ad505fac-e138-45e3-b358-d135036ac08a","ios":"levelo://app?vid=ad505fac-e138-45e3-b358-d135036ac08a"},"vehicle_type_id":"4","last_reported":1740391837,"current_range_meters":14400,"station_id":"ce4bhg12rcd13ifvqf60","pricing_plan_id":"cebpf4jnsgd1na2vs0mg"},{"bike_id":"473a2220-d805-46b4-a4a1-8e8e94797d90","system_id":"levelo_inurba_marseille","lat":43.29927,"lon":5.3654,"is_reserved":false,"is_disabled":false,"rental_uris":{"android":"levelo://app?vid=473a2220-d805-46b4-a4a1-8e8e94797d90","ios":"levelo://app?vid=473a2220-d805-46b4-a4a1-8e8e94797d90"},"vehicle_type_id":"4","last_reported":1740391837,"current_range_meters":14400,"station_id":"ce4bgm92rcd13ifvqbr0","pricing_plan_id":"cebpf4jnsgd1na2vs0mg"},{"bike_id":"8f379b35-e4e1-4d8c-8319-ea3240528b0a","system_id":"levelo_inurba_marseille","lat":43.27496,"lon":5.42445,"is_reserved":false,"is_disabled":false,"rental_uris":{"android":"levelo://app?vid=8f379b35-e4e1-4d8c-8319-ea3240528b0a","ios":"levelo://app?vid=8f379b35-e4e1-4d8c-8319-ea3240528b0a"},"vehicle_type_id":"4","last_reported":1740391837,"current_range_meters":14400,"station_id":"ce4bhn92rcd13ifvqgrg","pricing_plan_id":"cebpf4jnsgd1na2vs0mg"},{"bike_id":"cd1ed5da-4193-4b1f-828e-88308d393b06","system_id":"levelo_inurba_marseille","lat":43.33607,"lon":5.4102,"is_reserved":false,"is_disabled":false,"rental_uris":{"android":"levelo://app?vid=cd1ed5da-4193-4b1f-828e-88308d393b06","ios":"levelo://app?vid=cd1ed5da-4193-4b1f-828e-88308d393b06"},"vehicle_type_id":"4","last_reported":1740391837,"current_range_meters":14800,"station_id":"ce4bhqh2rcd13ifvqhmg","pricing_plan_id":"cebpf4jnsgd1na2vs0mg"},{"bike_id":"da805173-c32f-4615-b8c5-69bdaf0f2e7f","system_id":"levelo_inurba_marseille","lat":43.28993,"lon":5.35601,"is_reserved":false,"is_disabled":true,"rental_uris":{"android":"levelo://app?vid=da805173-c32f-4615-b8c5-69bdaf0f2e7f","ios":"levelo://app?vid=da805173-c32f-4615-b8c5-69bdaf0f2e7f"},"vehicle_type_id":"4","last_reported":1740391837,"current_range_meters":14800,"station_id":"ce4bhb92rcd13ifvqen0","pricing_plan_id":"cebpf4jnsgd1na2vs0mg"},{"bike_id":"6563d0af-e356-438a-8a3d-615f9e9b8742","system_id":"levelo_inurba_marseille","lat":43.26926,"lon":5.38918,"is_reserved":false,"is_disabled":false,"rental_uris":{"android":"levelo://app?vid=6563d0af-e356-438a-8a3d-615f9e9b8742","ios":"levelo://app?vid=6563d0af-e356-438a-8a3d-615f9e9b8742"},"vehicle_type_id":"4","last_reported":1740391837,"current_range_meters":14800,"station_id":"ce4bhhh2rcd13ifvqfl0","pricing_plan_id":"cebpf4jnsgd1na2vs0mg"},{"bike_id":"9a430061-f10e-4e5e-9ce8-598e3ea94c1a","system_id":"levelo_inurba_marseille","lat":43.24172,"lon":5.39731,"is_reserved":false,"is_disabled":false,"rental_uris":{"android":"levelo://app?vid=9a430061-f10e-4e5e-9ce8-598e3ea94c1a","ios":"levelo://app?vid=9a430061-f10e-4e5e-9ce8-598e3ea94c1a"},"vehicle_type_id":"4","last_reported":1740391837,"current_range_meters":14800,"station_id":"ce4bhn12rcd13ifvqgpg","pricing_plan_id":"cebpf4jnsgd1na2vs0mg"},{"bike_id":"66f0ec1e-c319-4fe7-bbb7-77543d8b7c11","system_id":"levelo_inurba_marseille","lat":43.25928,"lon":5.40967,"is_reserved":false,"is_disabled":false,"rental_uris":{"android":"levelo://app?vid=66f0ec1e-c319-4fe7-bbb7-77543d8b7c11","ios":"levelo://app?vid=66f0ec1e-c319-4fe7-bbb7-77543d8b7c11"},"vehicle_type_id":"4","last_reported":1740391837,"current_range_meters":14800,"station_id":"ce4bhm92rcd13ifvqglg","pricing_plan_id":"cebpf4jnsgd1na2vs0mg"},{"bike_id":"615a02a6-6646-4df1-8ade-8686d89d8747","system_id":"levelo_inurba_marseille","lat":43.31329,"lon":5.39698,"is_reserved":false,"is_disabled":true,"rental_uris":{"android":"levelo://app?vid=615a02a6-6646-4df1-8ade-8686d89d8747","ios":"levelo://app?vid=615a02a6-6646-4df1-8ade-8686d89d8747"},"vehicle_type_id":"4","last_reported":1740391837,"current_range_meters":14800,"station_id":"ce4bgvp2rcd13ifvqcu0","pricing_plan_id":"cebpf4jnsgd1na2vs0mg"},{"bike_id":"f0160043-f6ca-47c0-9d9b-10df12c28b69","system_id":"levelo_inurba_marseille","lat":43.2815,"lon":5.42639,"is_reserved":false,"is_disabled":false,"rental_uris":{"android":"levelo://app?vid=f0160043-f6ca-47c0-9d9b-10df12c28b69","ios":"levelo://app?vid=f0160043-f6ca-47c0-9d9b-10df12c28b69"},"vehicle_type_id":"4","last_reported":1740391837,"current_range_meters":15200,"station_id":"ce4bhnh2rcd13ifvqgug","pricing_plan_id":"cebpf4jnsgd1na2vs0mg"},{"bike_id":"2cb3f284-7b8f-46db-a012-ff6c476270a8","system_id":"levelo_inurba_marseille","lat":43.23187,"lon":5.35558,"is_reserved":false,"is_disabled":false,"rental_uris":{"android":"levelo://app?vid=2cb3f284-7b8f-46db-a012-ff6c476270a8","ios":"levelo://app?vid=2cb3f284-7b8f-46db-a012-ff6c476270a8"},"vehicle_type_id":"4","last_reported":1740391837,"current_range_meters":15200,"station_id":"ce4bhu92rcd13ifvqi70","pricing_plan_id":"cebpf4jnsgd1na2vs0mg"},{"bike_id":"4c7c2192-3d49-432f-8feb-0e568f72cc87","system_id":"levelo_inurba_marseille","lat":43.28465,"lon":5.38434,"is_reserved":false,"is_disabled":false,"rental_uris":{"android":"levelo://app?vid=4c7c2192-3d49-432f-8feb-0e568f72cc87","ios":"levelo://app?vid=4c7c2192-3d49-432f-8feb-0e568f72cc87"},"vehicle_type_id":"4","last_reported":1740391837,"current_range_meters":15200,"station_id":"ce4bh512rcd13ifvqe3g","pricing_plan_id":"cebpf4jnsgd1na2vs0mg"},{"bike_id":"054258a6-e903-48bc-ab14-23761879776f","system_id":"levelo_inurba_marseille","lat":43.30952,"lon":5.39037,"is_reserved":false,"is_disabled":false,"rental_uris":{"android":"levelo://app?vid=054258a6-e903-48bc-ab14-23761879776f","ios":"levelo://app?vid=054258a6-e903-48bc-ab14-23761879776f"},"vehicle_type_id":"4","last_reported":1740391837,"current_range_meters":15200,"station_id":"ce4bgup2rcd13ifvqco0","pricing_plan_id":"cebpf4jnsgd1na2vs0mg"},{"bike_id":"706643d2-c89f-4374-8393-6c79d403ba35","system_id":"levelo_inurba_marseille","lat":43.29496,"lon":5.37529,"is_reserved":false,"is_disabled":true,"rental_uris":{"android":"levelo://app?vid=706643d2-c89f-4374-8393-6c79d403ba35","ios":"levelo://app?vid=706643d2-c89f-4374-8393-6c79d403ba35"},"vehicle_type_id":"4","last_reported":1740391837,"current_range_meters":16000,"station_id":"","pricing_plan_id":"cebpf4jnsgd1na2vs0mg"},{"bike_id":"aed5036a-2d99-4696-b993-0bcbfed89a94","system_id":"levelo_inurba_marseille","lat":43.32464,"lon":5.36588,"is_reserved":false,"is_disabled":false,"rental_uris":{"android":"levelo://app?vid=aed5036a-2d99-4696-b993-0bcbfed89a94","ios":"levelo://app?vid=aed5036a-2d99-4696-b993-0bcbfed89a94"},"vehicle_type_id":"4","last_reported":1740391837,"current_range_meters":16000,"station_id":"ce4bhs12rcd13ifvqhvg","pricing_plan_id":"cebpf4jnsgd1na2vs0mg"},{"bike_id":"d0f9baeb-9149-42dc-b55d-2776f262fab0","system_id":"levelo_inurba_marseille","lat":43.2749,"lon":5.42457,"is_reserved":false,"is_disabled":false,"rental_uris":{"android":"levelo://app?vid=d0f9baeb-9149-42dc-b55d-2776f262fab0","ios":"levelo://app?vid=d0f9baeb-9149-42dc-b55d-2776f262fab0"},"vehicle_type_id":"4","last_reported":1740391837,"current_range_meters":16000,"station_id":"ce4bhn92rcd13ifvqgrg","pricing_plan_id":"cebpf4jnsgd1na2vs0mg"},{"bike_id":"1b6dbaed-19d6-4dee-9989-f8db027c8ecb","system_id":"levelo_inurba_marseille","lat":43.29216,"lon":5.35824,"is_reserved":false,"is_disabled":false,"rental_uris":{"android":"levelo://app?vid=1b6dbaed-19d6-4dee-9989-f8db027c8ecb","ios":"levelo://app?vid=1b6dbaed-19d6-4dee-9989-f8db027c8ecb"},"vehicle_type_id":"4","last_reported":1740391837,"current_range_meters":16000,"station_id":"ce4bhb12rcd13ifvqel0","pricing_plan_id":"cebpf4jnsgd1na2vs0mg"},{"bike_id":"8dc8947f-b4ba-43fa-8a3e-d3aa24ccb8cc","system_id":"levelo_inurba_marseille","lat":43.2397,"lon":5.36649,"is_reserved":false,"is_disabled":false,"rental_uris":{"android":"levelo://app?vid=8dc8947f-b4ba-43fa-8a3e-d3aa24ccb8cc","ios":"levelo://app?vid=8dc8947f-b4ba-43fa-8a3e-d3aa24ccb8cc"},"vehicle_type_id":"4","last_reported":1740391837,"current_range_meters":16000,"station_id":"ce4bhi12rcd13ifvqfp0","pricing_plan_id":"cebpf4jnsgd1na2vs0mg"},{"bike_id":"c97f5ab1-20b5-4c00-b657-8a7a3dfc639d","system_id":"levelo_inurba_marseille","lat":43.31222,"lon":5.37226,"is_reserved":false,"is_disabled":false,"rental_uris":{"android":"levelo://app?vid=c97f5ab1-20b5-4c00-b657-8a7a3dfc639d","ios":"levelo://app?vid=c97f5ab1-20b5-4c00-b657-8a7a3dfc639d"},"vehicle_type_id":"4","last_reported":1740391837,"current_range_meters":16400,"station_id":"","pricing_plan_id":"cebpf4jnsgd1na2vs0mg"},{"bike_id":"16383675-fc5d-4252-93cf-d4c3ee1829f6","system_id":"levelo_inurba_marseille","lat":43.26231,"lon":5.37578,"is_reserved":false,"is_disabled":false,"rental_uris":{"android":"levelo://app?vid=16383675-fc5d-4252-93cf-d4c3ee1829f6","ios":"levelo://app?vid=16383675-fc5d-4252-93cf-d4c3ee1829f6"},"vehicle_type_id":"4","last_reported":1740391837,"current_range_meters":16400,"station_id":"","pricing_plan_id":"cebpf4jnsgd1na2vs0mg"},{"bike_id":"85f97507-0a03-44e2-bb8d-a51d264bb65c","system_id":"levelo_inurba_marseille","lat":43.31363,"lon":5.38497,"is_reserved":false,"is_disabled":false,"rental_uris":{"android":"levelo://app?vid=85f97507-0a03-44e2-bb8d-a51d264bb65c","ios":"levelo://app?vid=85f97507-0a03-44e2-bb8d-a51d264bb65c"},"vehicle_type_id":"4","last_reported":1740391837,"current_range_meters":16400,"station_id":"ce4bgt92rcd13ifvqcf0","pricing_plan_id":"cebpf4jnsgd1na2vs0mg"},{"bike_id":"a4f822cc-2640-41bb-9a08-c0038442f5fd","system_id":"levelo_inurba_marseille","lat":43.30555,"lon":5.36694,"is_reserved":false,"is_disabled":false,"rental_uris":{"android":"levelo://app?vid=a4f822cc-2640-41bb-9a08-c0038442f5fd","ios":"levelo://app?vid=a4f822cc-2640-41bb-9a08-c0038442f5fd"},"vehicle_type_id":"4","last_reported":1740391837,"current_range_meters":16400,"station_id":"ce4bgrp2rcd13ifvqc9g","pricing_plan_id":"cebpf4jnsgd1na2vs0mg"},{"bike_id":"ce617805-0bfa-4045-9dcc-8d78159546ae","system_id":"levelo_inurba_marseille","lat":43.33605,"lon":5.41036,"is_reserved":false,"is_disabled":false,"rental_uris":{"android":"levelo://app?vid=ce617805-0bfa-4045-9dcc-8d78159546ae","ios":"levelo://app?vid=ce617805-0bfa-4045-9dcc-8d78159546ae"},"vehicle_type_id":"4","last_reported":1740391837,"current_range_meters":16400,"station_id":"ce4bhqh2rcd13ifvqhmg","pricing_plan_id":"cebpf4jnsgd1na2vs0mg"},{"bike_id":"7092c90d-96c3-4771-9426-fb31e2cb1789","system_id":"levelo_inurba_marseille","lat":43.28,"lon":5.40008,"is_reserved":false,"is_disabled":false,"rental_uris":{"android":"levelo://app?vid=7092c90d-96c3-4771-9426-fb31e2cb1789","ios":"levelo://app?vid=7092c90d-96c3-4771-9426-fb31e2cb1789"},"vehicle_type_id":"4","last_reported":1740391837,"current_range_meters":16800,"station_id":"ce4bho92rcd13ifvqh4g","pricing_plan_id":"cebpf4jnsgd1na2vs0mg"},{"bike_id":"43101601-8394-4b14-8055-62ff24c04580","system_id":"levelo_inurba_marseille","lat":43.30952,"lon":5.39033,"is_reserved":false,"is_disabled":false,"rental_uris":{"android":"levelo://app?vid=43101601-8394-4b14-8055-62ff24c04580","ios":"levelo://app?vid=43101601-8394-4b14-8055-62ff24c04580"},"vehicle_type_id":"4","last_reported":1740391837,"current_range_meters":16800,"station_id":"ce4bgup2rcd13ifvqco0","pricing_plan_id":"cebpf4jnsgd1na2vs0mg"},{"bike_id":"ebd4792a-d209-4073-93c6-3a7f1955bc5e","system_id":"levelo_inurba_marseille","lat":43.23599,"lon":5.436,"is_reserved":false,"is_disabled":false,"rental_uris":{"android":"levelo://app?vid=ebd4792a-d209-4073-93c6-3a7f1955bc5e","ios":"levelo://app?vid=ebd4792a-d209-4073-93c6-3a7f1955bc5e"},"vehicle_type_id":"4","last_reported":1740391837,"current_range_meters":16400,"station_id":"ce4bhmp2rcd13ifvqgog","pricing_plan_id":"cebpf4jnsgd1na2vs0mg"},{"bike_id":"d4730943-c8a0-45ac-a541-8183607370d1","system_id":"levelo_inurba_marseille","lat":43.2501,"lon":5.3896,"is_reserved":false,"is_disabled":false,"rental_uris":{"android":"levelo://app?vid=d4730943-c8a0-45ac-a541-8183607370d1","ios":"levelo://app?vid=d4730943-c8a0-45ac-a541-8183607370d1"},"vehicle_type_id":"4","last_reported":1740391837,"current_range_meters":16800,"station_id":"ce4bhgp2rcd13ifvqfd0","pricing_plan_id":"cebpf4jnsgd1na2vs0mg"},{"bike_id":"cdf89f84-1d45-4ce1-b985-6a2c8b69ccf3","system_id":"levelo_inurba_marseille","lat":43.30537,"lon":5.36532,"is_reserved":false,"is_disabled":true,"rental_uris":{"android":"levelo://app?vid=cdf89f84-1d45-4ce1-b985-6a2c8b69ccf3","ios":"levelo://app?vid=cdf89f84-1d45-4ce1-b985-6a2c8b69ccf3"},"vehicle_type_id":"4","last_reported":1740391837,"current_range_meters":16800,"station_id":"ce4bgs12rcd13ifvqcag","pricing_plan_id":"cebpf4jnsgd1na2vs0mg"},{"bike_id":"57151c58-83a2-47b6-85b3-3bc239e773b6","system_id":"levelo_inurba_marseille","lat":43.28088,"lon":5.39627,"is_reserved":false,"is_disabled":false,"rental_uris":{"android":"levelo://app?vid=57151c58-83a2-47b6-85b3-3bc239e773b6","ios":"levelo://app?vid=57151c58-83a2-47b6-85b3-3bc239e773b6"},"vehicle_type_id":"4","last_reported":1740391837,"current_range_meters":16800,"station_id":"ce4bho12rcd13ifvqh2g","pricing_plan_id":"cebpf4jnsgd1na2vs0mg"},{"bike_id":"e3d6ccd8-e3be-4add-a47f-1f819c7a0ef9","system_id":"levelo_inurba_marseille","lat":43.23179,"lon":5.43691,"is_reserved":false,"is_disabled":false,"rental_uris":{"android":"levelo://app?vid=e3d6ccd8-e3be-4add-a47f-1f819c7a0ef9","ios":"levelo://app?vid=e3d6ccd8-e3be-4add-a47f-1f819c7a0ef9"},"vehicle_type_id":"4","last_reported":1740391837,"current_range_meters":16800,"station_id":"ce4bhmp2rcd13ifvqgog","pricing_plan_id":"cebpf4jnsgd1na2vs0mg"},{"bike_id":"a66059f6-2ce2-47aa-83b0-ca76626e6c68","system_id":"levelo_inurba_marseille","lat":43.24176,"lon":5.39733,"is_reserved":false,"is_disabled":false,"rental_uris":{"android":"levelo://app?vid=a66059f6-2ce2-47aa-83b0-ca76626e6c68","ios":"levelo://app?vid=a66059f6-2ce2-47aa-83b0-ca76626e6c68"},"vehicle_type_id":"4","last_reported":1740391837,"current_range_meters":16800,"station_id":"ce4bhn12rcd13ifvqgpg","pricing_plan_id":"cebpf4jnsgd1na2vs0mg"},{"bike_id":"7cac488d-ee92-4c3a-a2b4-9513e295f593","system_id":"levelo_inurba_marseille","lat":43.24071,"lon":5.37751,"is_reserved":false,"is_disabled":false,"rental_uris":{"android":"levelo://app?vid=7cac488d-ee92-4c3a-a2b4-9513e295f593","ios":"levelo://app?vid=7cac488d-ee92-4c3a-a2b4-9513e295f593"},"vehicle_type_id":"4","last_reported":1740391837,"current_range_meters":16800,"station_id":"ce4bhnp2rcd13ifvqgvg","pricing_plan_id":"cebpf4jnsgd1na2vs0mg"},{"bike_id":"05dff8b5-33a9-4d66-9ab6-0d3f3106b26e","system_id":"levelo_inurba_marseille","lat":43.240743,"lon":5.377473,"is_reserved":false,"is_disabled":false,"rental_uris":{"android":"levelo://app?vid=05dff8b5-33a9-4d66-9ab6-0d3f3106b26e","ios":"levelo://app?vid=05dff8b5-33a9-4d66-9ab6-0d3f3106b26e"},"vehicle_type_id":"4","last_reported":1740391837,"current_range_meters":17200,"station_id":"ce4bhnp2rcd13ifvqgvg","pricing_plan_id":"cebpf4jnsgd1na2vs0mg"},{"bike_id":"76a79653-8876-49bd-813f-5ba7031e00f3","system_id":"levelo_inurba_marseille","lat":43.29262,"lon":5.3762,"is_reserved":false,"is_disabled":false,"rental_uris":{"android":"levelo://app?vid=76a79653-8876-49bd-813f-5ba7031e00f3","ios":"levelo://app?vid=76a79653-8876-49bd-813f-5ba7031e00f3"},"vehicle_type_id":"4","last_reported":1740391837,"current_range_meters":17200,"station_id":"ce4bgi12rcd13ifvqb80","pricing_plan_id":"cebpf4jnsgd1na2vs0mg"},{"bike_id":"147467f8-df4e-4a9b-9e9b-8fc4b8bc51fd","system_id":"levelo_inurba_marseille","lat":43.30132,"lon":5.37422,"is_reserved":false,"is_disabled":false,"rental_uris":{"android":"levelo://app?vid=147467f8-df4e-4a9b-9e9b-8fc4b8bc51fd","ios":"levelo://app?vid=147467f8-df4e-4a9b-9e9b-8fc4b8bc51fd"},"vehicle_type_id":"4","last_reported":1740391837,"current_range_meters":17200,"station_id":"ce4bgs92rcd13ifvqcc0","pricing_plan_id":"cebpf4jnsgd1na2vs0mg"},{"bike_id":"1f91f974-1d9a-4385-8b8b-f8c2a22ad498","system_id":"levelo_inurba_marseille","lat":43.26024,"lon":5.3755,"is_reserved":false,"is_disabled":false,"rental_uris":{"android":"levelo://app?vid=1f91f974-1d9a-4385-8b8b-f8c2a22ad498","ios":"levelo://app?vid=1f91f974-1d9a-4385-8b8b-f8c2a22ad498"},"vehicle_type_id":"4","last_reported":1740391837,"current_range_meters":17200,"station_id":"ce4bhgh2rcd13ifvqfa0","pricing_plan_id":"cebpf4jnsgd1na2vs0mg"},{"bike_id":"f373858c-4bfe-491d-8681-185b20c75a86","system_id":"levelo_inurba_marseille","lat":43.30659,"lon":5.40077,"is_reserved":false,"is_disabled":true,"rental_uris":{"android":"levelo://app?vid=f373858c-4bfe-491d-8681-185b20c75a86","ios":"levelo://app?vid=f373858c-4bfe-491d-8681-185b20c75a86"},"vehicle_type_id":"4","last_reported":1740391837,"current_range_meters":17200,"station_id":"ce4bh112rcd13ifvqda0","pricing_plan_id":"cebpf4jnsgd1na2vs0mg"},{"bike_id":"a2a01edb-023d-461b-9ed1-67e1fc306710","system_id":"levelo_inurba_marseille","lat":43.30561,"lon":5.36703,"is_reserved":false,"is_disabled":false,"rental_uris":{"android":"levelo://app?vid=a2a01edb-023d-461b-9ed1-67e1fc306710","ios":"levelo://app?vid=a2a01edb-023d-461b-9ed1-67e1fc306710"},"vehicle_type_id":"4","last_reported":1740391837,"current_range_meters":17200,"station_id":"ce4bgrp2rcd13ifvqc9g","pricing_plan_id":"cebpf4jnsgd1na2vs0mg"},{"bike_id":"02092797-d918-4ebd-bb66-4433b6516053","system_id":"levelo_inurba_marseille","lat":43.32281,"lon":5.38274,"is_reserved":false,"is_disabled":false,"rental_uris":{"android":"levelo://app?vid=02092797-d918-4ebd-bb66-4433b6516053","ios":"levelo://app?vid=02092797-d918-4ebd-bb66-4433b6516053"},"vehicle_type_id":"4","last_reported":1740391837,"current_range_meters":17200,"station_id":"ce4bhr12rcd13ifvqhqg","pricing_plan_id":"cebpf4jnsgd1na2vs0mg"},{"bike_id":"67353ec5-ce91-46f3-8df8-86128e85fd44","system_id":"levelo_inurba_marseille","lat":43.28137,"lon":5.42645,"is_reserved":false,"is_disabled":true,"rental_uris":{"android":"levelo://app?vid=67353ec5-ce91-46f3-8df8-86128e85fd44","ios":"levelo://app?vid=67353ec5-ce91-46f3-8df8-86128e85fd44"},"vehicle_type_id":"4","last_reported":1740391837,"current_range_meters":17200,"station_id":"ce4bhnh2rcd13ifvqgug","pricing_plan_id":"cebpf4jnsgd1na2vs0mg"},{"bike_id":"7da6a383-5978-447e-b8b7-b13dbfefda9d","system_id":"levelo_inurba_marseille","lat":43.27493,"lon":5.42456,"is_reserved":false,"is_disabled":false,"rental_uris":{"android":"levelo://app?vid=7da6a383-5978-447e-b8b7-b13dbfefda9d","ios":"levelo://app?vid=7da6a383-5978-447e-b8b7-b13dbfefda9d"},"vehicle_type_id":"4","last_reported":1740391837,"current_range_meters":17600,"station_id":"ce4bhn92rcd13ifvqgrg","pricing_plan_id":"cebpf4jnsgd1na2vs0mg"},{"bike_id":"0d8b628b-6a6f-4c7e-85b3-173790111a6e","system_id":"levelo_inurba_marseille","lat":43.30533,"lon":5.36533,"is_reserved":false,"is_disabled":false,"rental_uris":{"android":"levelo://app?vid=0d8b628b-6a6f-4c7e-85b3-173790111a6e","ios":"levelo://app?vid=0d8b628b-6a6f-4c7e-85b3-173790111a6e"},"vehicle_type_id":"4","last_reported":1740391837,"current_range_meters":17600,"station_id":"ce4bgs12rcd13ifvqcag","pricing_plan_id":"cebpf4jnsgd1na2vs0mg"},{"bike_id":"9b6539c0-ee77-40e5-9ca1-0c8f3ad3248b","system_id":"levelo_inurba_marseille","lat":43.23147,"lon":5.43721,"is_reserved":false,"is_disabled":false,"rental_uris":{"android":"levelo://app?vid=9b6539c0-ee77-40e5-9ca1-0c8f3ad3248b","ios":"levelo://app?vid=9b6539c0-ee77-40e5-9ca1-0c8f3ad3248b"},"vehicle_type_id":"4","last_reported":1740391837,"current_range_meters":17600,"station_id":"ce4bhmp2rcd13ifvqgog","pricing_plan_id":"cebpf4jnsgd1na2vs0mg"},{"bike_id":"67350e3b-ced3-434f-8df5-0f50029c572e","system_id":"levelo_inurba_marseille","lat":43.23188,"lon":5.3557,"is_reserved":false,"is_disabled":false,"rental_uris":{"android":"levelo://app?vid=67350e3b-ced3-434f-8df5-0f50029c572e","ios":"levelo://app?vid=67350e3b-ced3-434f-8df5-0f50029c572e"},"vehicle_type_id":"4","last_reported":1740391837,"current_range_meters":17600,"station_id":"ce4bhu92rcd13ifvqi70","pricing_plan_id":"cebpf4jnsgd1na2vs0mg"},{"bike_id":"3388648a-09f3-4b74-92b5-8287b74267ca","system_id":"levelo_inurba_marseille","lat":43.30313,"lon":5.36911,"is_reserved":false,"is_disabled":false,"rental_uris":{"android":"levelo://app?vid=3388648a-09f3-4b74-92b5-8287b74267ca","ios":"levelo://app?vid=3388648a-09f3-4b74-92b5-8287b74267ca"},"vehicle_type_id":"4","last_reported":1740391837,"current_range_meters":17600,"station_id":"ce4bgqh2rcd13ifvqc5g","pricing_plan_id":"cebpf4jnsgd1na2vs0mg"},{"bike_id":"53c250d8-2df3-441a-ade7-521012287108","system_id":"levelo_inurba_marseille","lat":43.2407,"lon":5.37742,"is_reserved":false,"is_disabled":false,"rental_uris":{"android":"levelo://app?vid=53c250d8-2df3-441a-ade7-521012287108","ios":"levelo://app?vid=53c250d8-2df3-441a-ade7-521012287108"},"vehicle_type_id":"4","last_reported":1740391837,"current_range_meters":17600,"station_id":"ce4bhnp2rcd13ifvqgvg","pricing_plan_id":"cebpf4jnsgd1na2vs0mg"},{"bike_id":"073518a5-4dc0-447e-9477-a67f73b2a5a2","system_id":"levelo_inurba_marseille","lat":43.32374,"lon":5.3676,"is_reserved":false,"is_disabled":false,"rental_uris":{"android":"levelo://app?vid=073518a5-4dc0-447e-9477-a67f73b2a5a2","ios":"levelo://app?vid=073518a5-4dc0-447e-9477-a67f73b2a5a2"},"vehicle_type_id":"4","last_reported":1740391837,"current_range_meters":17600,"station_id":"ce4bhsh2rcd13ifvqi2g","pricing_plan_id":"cebpf4jnsgd1na2vs0mg"},{"bike_id":"e0a974b6-ebb6-4643-b3b6-b282d529bc0a","system_id":"levelo_inurba_marseille","lat":43.31704,"lon":5.43704,"is_reserved":false,"is_disabled":true,"rental_uris":{"android":"levelo://app?vid=e0a974b6-ebb6-4643-b3b6-b282d529bc0a","ios":"levelo://app?vid=e0a974b6-ebb6-4643-b3b6-b282d529bc0a"},"vehicle_type_id":"4","last_reported":1740391837,"current_range_meters":17600,"station_id":"ce4bhp92rcd13ifvqhcg","pricing_plan_id":"cebpf4jnsgd1na2vs0mg"},{"bike_id":"1a31d1e4-926c-463f-8572-d6ebfae27647","system_id":"levelo_inurba_marseille","lat":43.29945,"lon":5.37463,"is_reserved":false,"is_disabled":false,"rental_uris":{"android":"levelo://app?vid=1a31d1e4-926c-463f-8572-d6ebfae27647","ios":"levelo://app?vid=1a31d1e4-926c-463f-8572-d6ebfae27647"},"vehicle_type_id":"4","last_reported":1740391837,"current_range_meters":17600,"station_id":"ce4bgjh2rcd13ifvqbg0","pricing_plan_id":"cebpf4jnsgd1na2vs0mg"},{"bike_id":"c51fbff7-6a2a-4b56-8c2e-57a8978764b4","system_id":"levelo_inurba_marseille","lat":43.27983,"lon":5.40008,"is_reserved":false,"is_disabled":true,"rental_uris":{"android":"levelo://app?vid=c51fbff7-6a2a-4b56-8c2e-57a8978764b4","ios":"levelo://app?vid=c51fbff7-6a2a-4b56-8c2e-57a8978764b4"},"vehicle_type_id":"4","last_reported":1740391837,"current_range_meters":18000,"station_id":"ce4bho92rcd13ifvqh4g","pricing_plan_id":"cebpf4jnsgd1na2vs0mg"},{"bike_id":"486e2ada-5bcc-4384-96a4-414ac5e5e4a4","system_id":"levelo_inurba_marseille","lat":43.26956,"lon":5.38649,"is_reserved":false,"is_disabled":false,"rental_uris":{"android":"levelo://app?vid=486e2ada-5bcc-4384-96a4-414ac5e5e4a4","ios":"levelo://app?vid=486e2ada-5bcc-4384-96a4-414ac5e5e4a4"},"vehicle_type_id":"4","last_reported":1740391837,"current_range_meters":18000,"station_id":"ce4bhh92rcd13ifvqfh0","pricing_plan_id":"cebpf4jnsgd1na2vs0mg"},{"bike_id":"8b6d6dc7-9b3a-49c7-9e4e-44a1a302ed03","system_id":"levelo_inurba_marseille","lat":43.25923,"lon":5.4091,"is_reserved":false,"is_disabled":false,"rental_uris":{"android":"levelo://app?vid=8b6d6dc7-9b3a-49c7-9e4e-44a1a302ed03","ios":"levelo://app?vid=8b6d6dc7-9b3a-49c7-9e4e-44a1a302ed03"},"vehicle_type_id":"4","last_reported":1740391837,"current_range_meters":18000,"station_id":"ce4bhm92rcd13ifvqglg","pricing_plan_id":"cebpf4jnsgd1na2vs0mg"},{"bike_id":"a437ce3e-94c1-4d80-949a-3eb291854603","system_id":"levelo_inurba_marseille","lat":43.30898,"lon":5.4015,"is_reserved":false,"is_disabled":true,"rental_uris":{"android":"levelo://app?vid=a437ce3e-94c1-4d80-949a-3eb291854603","ios":"levelo://app?vid=a437ce3e-94c1-4d80-949a-3eb291854603"},"vehicle_type_id":"4","last_reported":1740391837,"current_range_meters":18000,"station_id":"ce4bgvp2rcd13ifvqct0","pricing_plan_id":"cebpf4jnsgd1na2vs0mg"},{"bike_id":"306c8afe-27f2-42dd-9d3c-74d43bc1f2cb","system_id":"levelo_inurba_marseille","lat":43.27493,"lon":5.42446,"is_reserved":false,"is_disabled":false,"rental_uris":{"android":"levelo://app?vid=306c8afe-27f2-42dd-9d3c-74d43bc1f2cb","ios":"levelo://app?vid=306c8afe-27f2-42dd-9d3c-74d43bc1f2cb"},"vehicle_type_id":"4","last_reported":1740391837,"current_range_meters":18000,"station_id":"ce4bhn92rcd13ifvqgrg","pricing_plan_id":"cebpf4jnsgd1na2vs0mg"},{"bike_id":"47eaaf94-d47c-4cac-a93d-513e5c6634a9","system_id":"levelo_inurba_marseille","lat":43.29781,"lon":5.38113,"is_reserved":false,"is_disabled":false,"rental_uris":{"android":"levelo://app?vid=47eaaf94-d47c-4cac-a93d-513e5c6634a9","ios":"levelo://app?vid=47eaaf94-d47c-4cac-a93d-513e5c6634a9"},"vehicle_type_id":"4","last_reported":1740391837,"current_range_meters":18000,"station_id":"ce4bgip2rcd13ifvqbb0","pricing_plan_id":"cebpf4jnsgd1na2vs0mg"},{"bike_id":"479b9ae0-d182-4c84-9c54-e67ea850c4a9","system_id":"levelo_inurba_marseille","lat":43.30531,"lon":5.36539,"is_reserved":false,"is_disabled":false,"rental_uris":{"android":"levelo://app?vid=479b9ae0-d182-4c84-9c54-e67ea850c4a9","ios":"levelo://app?vid=479b9ae0-d182-4c84-9c54-e67ea850c4a9"},"vehicle_type_id":"4","last_reported":1740391837,"current_range_meters":18000,"station_id":"ce4bgs12rcd13ifvqcag","pricing_plan_id":"cebpf4jnsgd1na2vs0mg"},{"bike_id":"876aa59c-c91a-4ffc-81c7-21dd319d2cb2","system_id":"levelo_inurba_marseille","lat":43.29177,"lon":5.40537,"is_reserved":false,"is_disabled":false,"rental_uris":{"android":"levelo://app?vid=876aa59c-c91a-4ffc-81c7-21dd319d2cb2","ios":"levelo://app?vid=876aa59c-c91a-4ffc-81c7-21dd319d2cb2"},"vehicle_type_id":"4","last_reported":1740391837,"current_range_meters":18000,"station_id":"","pricing_plan_id":"cebpf4jnsgd1na2vs0mg"},{"bike_id":"365aebe8-9761-41aa-a351-0d71e4acc959","system_id":"levelo_inurba_marseille","lat":43.2465,"lon":5.389,"is_reserved":false,"is_disabled":false,"rental_uris":{"android":"levelo://app?vid=365aebe8-9761-41aa-a351-0d71e4acc959","ios":"levelo://app?vid=365aebe8-9761-41aa-a351-0d71e4acc959"},"vehicle_type_id":"4","last_reported":1740391837,"current_range_meters":18000,"station_id":"ce4bhg12rcd13ifvqf60","pricing_plan_id":"cebpf4jnsgd1na2vs0mg"},{"bike_id":"7485dcc7-4480-4b29-8656-3a8552db66c6","system_id":"levelo_inurba_marseille","lat":43.30288,"lon":5.377,"is_reserved":false,"is_disabled":false,"rental_uris":{"android":"levelo://app?vid=7485dcc7-4480-4b29-8656-3a8552db66c6","ios":"levelo://app?vid=7485dcc7-4480-4b29-8656-3a8552db66c6"},"vehicle_type_id":"4","last_reported":1740391837,"current_range_meters":18000,"station_id":"ce4bguh2rcd13ifvqcj0","pricing_plan_id":"cebpf4jnsgd1na2vs0mg"},{"bike_id":"e813f92c-4fd3-41c9-ae0a-6879c319e323","system_id":"levelo_inurba_marseille","lat":43.29617,"lon":5.37158,"is_reserved":false,"is_disabled":false,"rental_uris":{"android":"levelo://app?vid=e813f92c-4fd3-41c9-ae0a-6879c319e323","ios":"levelo://app?vid=e813f92c-4fd3-41c9-ae0a-6879c319e323"},"vehicle_type_id":"4","last_reported":1740391837,"current_range_meters":18000,"station_id":"ce4bgnh2rcd13ifvqc0g","pricing_plan_id":"cebpf4jnsgd1na2vs0mg"},{"bike_id":"0db4c3f7-6b83-4b6b-b085-323d4c61deac","system_id":"levelo_inurba_marseille","lat":43.32107,"lon":5.36777,"is_reserved":false,"is_disabled":false,"rental_uris":{"android":"levelo://app?vid=0db4c3f7-6b83-4b6b-b085-323d4c61deac","ios":"levelo://app?vid=0db4c3f7-6b83-4b6b-b085-323d4c61deac"},"vehicle_type_id":"4","last_reported":1740391837,"current_range_meters":18000,"station_id":"ce4bhrh2rcd13ifvqhug","pricing_plan_id":"cebpf4jnsgd1na2vs0mg"},{"bike_id":"70523d63-3392-4311-8bf2-4e7e631bb77a","system_id":"levelo_inurba_marseille","lat":43.2893,"lon":5.364,"is_reserved":false,"is_disabled":false,"rental_uris":{"android":"levelo://app?vid=70523d63-3392-4311-8bf2-4e7e631bb77a","ios":"levelo://app?vid=70523d63-3392-4311-8bf2-4e7e631bb77a"},"vehicle_type_id":"4","last_reported":1740391837,"current_range_meters":18000,"station_id":"ce4bhc92rcd13ifvqetg","pricing_plan_id":"cebpf4jnsgd1na2vs0mg"},{"bike_id":"d044e811-39c9-4a1a-9870-cf84b9958bb0","system_id":"levelo_inurba_marseille","lat":43.2962,"lon":5.40595,"is_reserved":false,"is_disabled":false,"rental_uris":{"android":"levelo://app?vid=d044e811-39c9-4a1a-9870-cf84b9958bb0","ios":"levelo://app?vid=d044e811-39c9-4a1a-9870-cf84b9958bb0"},"vehicle_type_id":"4","last_reported":1740391837,"current_range_meters":18000,"station_id":"ce4bh0h2rcd13ifvqd60","pricing_plan_id":"cebpf4jnsgd1na2vs0mg"},{"bike_id":"61e8b40b-f7d3-4658-9150-8eeac4ba44d9","system_id":"levelo_inurba_marseille","lat":43.27494,"lon":5.42451,"is_reserved":false,"is_disabled":false,"rental_uris":{"android":"levelo://app?vid=61e8b40b-f7d3-4658-9150-8eeac4ba44d9","ios":"levelo://app?vid=61e8b40b-f7d3-4658-9150-8eeac4ba44d9"},"vehicle_type_id":"4","last_reported":1740391837,"current_range_meters":18000,"station_id":"ce4bhn92rcd13ifvqgrg","pricing_plan_id":"cebpf4jnsgd1na2vs0mg"},{"bike_id":"1bb39067-be09-4d31-a66a-1c813eefa796","system_id":"levelo_inurba_marseille","lat":43.27429,"lon":5.3942,"is_reserved":false,"is_disabled":false,"rental_uris":{"android":"levelo://app?vid=1bb39067-be09-4d31-a66a-1c813eefa796","ios":"levelo://app?vid=1bb39067-be09-4d31-a66a-1c813eefa796"},"vehicle_type_id":"4","last_reported":1740391837,"current_range_meters":18000,"station_id":"ce4bhdp2rcd13ifvqf20","pricing_plan_id":"cebpf4jnsgd1na2vs0mg"},{"bike_id":"25822f0f-a940-4960-835e-66d2f1005144","system_id":"levelo_inurba_marseille","lat":43.33599,"lon":5.41009,"is_reserved":false,"is_disabled":false,"rental_uris":{"android":"levelo://app?vid=25822f0f-a940-4960-835e-66d2f1005144","ios":"levelo://app?vid=25822f0f-a940-4960-835e-66d2f1005144"},"vehicle_type_id":"4","last_reported":1740391837,"current_range_meters":18000,"station_id":"ce4bhqh2rcd13ifvqhmg","pricing_plan_id":"cebpf4jnsgd1na2vs0mg"},{"bike_id":"1aa0c844-9f4a-4120-9343-40dc37c3dd33","system_id":"levelo_inurba_marseille","lat":43.29935,"lon":5.3655,"is_reserved":false,"is_disabled":false,"rental_uris":{"android":"levelo://app?vid=1aa0c844-9f4a-4120-9343-40dc37c3dd33","ios":"levelo://app?vid=1aa0c844-9f4a-4120-9343-40dc37c3dd33"},"vehicle_type_id":"4","last_reported":1740391837,"current_range_meters":18000,"station_id":"ce4bgm92rcd13ifvqbr0","pricing_plan_id":"cebpf4jnsgd1na2vs0mg"},{"bike_id":"07bc9e76-86f9-4a82-9e2e-914653eedee9","system_id":"levelo_inurba_marseille","lat":43.26485,"lon":5.39555,"is_reserved":false,"is_disabled":false,"rental_uris":{"android":"levelo://app?vid=07bc9e76-86f9-4a82-9e2e-914653eedee9","ios":"levelo://app?vid=07bc9e76-86f9-4a82-9e2e-914653eedee9"},"vehicle_type_id":"4","last_reported":1740391837,"current_range_meters":18800,"station_id":"ce4bhi12rcd13ifvqfq0","pricing_plan_id":"cebpf4jnsgd1na2vs0mg"},{"bike_id":"8668c50d-5a16-43e6-97d1-31afd3a3d465","system_id":"levelo_inurba_marseille","lat":43.2315,"lon":5.43722,"is_reserved":false,"is_disabled":false,"rental_uris":{"android":"levelo://app?vid=8668c50d-5a16-43e6-97d1-31afd3a3d465","ios":"levelo://app?vid=8668c50d-5a16-43e6-97d1-31afd3a3d465"},"vehicle_type_id":"4","last_reported":1740391837,"current_range_meters":18800,"station_id":"ce4bhmp2rcd13ifvqgog","pricing_plan_id":"cebpf4jnsgd1na2vs0mg"},{"bike_id":"299b0f81-8f69-4b5e-bf32-a961e2bb8fcb","system_id":"levelo_inurba_marseille","lat":43.29577,"lon":5.39994,"is_reserved":false,"is_disabled":false,"rental_uris":{"android":"levelo://app?vid=299b0f81-8f69-4b5e-bf32-a961e2bb8fcb","ios":"levelo://app?vid=299b0f81-8f69-4b5e-bf32-a961e2bb8fcb"},"vehicle_type_id":"4","last_reported":1740391837,"current_range_meters":18800,"station_id":"ce4bh312rcd13ifvqdj0","pricing_plan_id":"cebpf4jnsgd1na2vs0mg"},{"bike_id":"7652c1ae-6d1c-4b04-81e7-c1182f2c26a1","system_id":"levelo_inurba_marseille","lat":43.24161,"lon":5.39697,"is_reserved":false,"is_disabled":false,"rental_uris":{"android":"levelo://app?vid=7652c1ae-6d1c-4b04-81e7-c1182f2c26a1","ios":"levelo://app?vid=7652c1ae-6d1c-4b04-81e7-c1182f2c26a1"},"vehicle_type_id":"4","last_reported":1740391837,"current_range_meters":18800,"station_id":"ce4bhn12rcd13ifvqgpg","pricing_plan_id":"cebpf4jnsgd1na2vs0mg"},{"bike_id":"6c47c828-fff7-4c25-91fa-eaa17a22bf2a","system_id":"levelo_inurba_marseille","lat":43.30299,"lon":5.36908,"is_reserved":false,"is_disabled":false,"rental_uris":{"android":"levelo://app?vid=6c47c828-fff7-4c25-91fa-eaa17a22bf2a","ios":"levelo://app?vid=6c47c828-fff7-4c25-91fa-eaa17a22bf2a"},"vehicle_type_id":"4","last_reported":1740391837,"current_range_meters":18800,"station_id":"ce4bgqh2rcd13ifvqc5g","pricing_plan_id":"cebpf4jnsgd1na2vs0mg"},{"bike_id":"56a0cb01-fc13-42c8-94be-4f8cad837efb","system_id":"levelo_inurba_marseille","lat":43.3032,"lon":5.36914,"is_reserved":false,"is_disabled":false,"rental_uris":{"android":"levelo://app?vid=56a0cb01-fc13-42c8-94be-4f8cad837efb","ios":"levelo://app?vid=56a0cb01-fc13-42c8-94be-4f8cad837efb"},"vehicle_type_id":"4","last_reported":1740391837,"current_range_meters":18800,"station_id":"ce4bgqh2rcd13ifvqc5g","pricing_plan_id":"cebpf4jnsgd1na2vs0mg"},{"bike_id":"06e48100-d34d-4c6e-81e4-aebb4143d1bb","system_id":"levelo_inurba_marseille","lat":43.302842,"lon":5.396344,"is_reserved":false,"is_disabled":false,"rental_uris":{"android":"levelo://app?vid=06e48100-d34d-4c6e-81e4-aebb4143d1bb","ios":"levelo://app?vid=06e48100-d34d-4c6e-81e4-aebb4143d1bb"},"vehicle_type_id":"4","last_reported":1740391837,"current_range_meters":18800,"station_id":"ce4bgv12rcd13ifvqcp0","pricing_plan_id":"cebpf4jnsgd1na2vs0mg"},{"bike_id":"06c6c325-842b-4d78-8236-c86f791ec009","system_id":"levelo_inurba_marseille","lat":43.27076,"lon":5.42282,"is_reserved":false,"is_disabled":false,"rental_uris":{"android":"levelo://app?vid=06c6c325-842b-4d78-8236-c86f791ec009","ios":"levelo://app?vid=06c6c325-842b-4d78-8236-c86f791ec009"},"vehicle_type_id":"4","last_reported":1740391837,"current_range_meters":18800,"station_id":"ce4bhk92rcd13ifvqgb0","pricing_plan_id":"cebpf4jnsgd1na2vs0mg"},{"bike_id":"a98e241e-72f8-42d5-b702-f96a6a6c9853","system_id":"levelo_inurba_marseille","lat":43.29531,"lon":5.37494,"is_reserved":false,"is_disabled":false,"rental_uris":{"android":"levelo://app?vid=a98e241e-72f8-42d5-b702-f96a6a6c9853","ios":"levelo://app?vid=a98e241e-72f8-42d5-b702-f96a6a6c9853"},"vehicle_type_id":"4","last_reported":1740391837,"current_range_meters":18800,"station_id":"ce4bgkp2rcd13ifvqbmg","pricing_plan_id":"cebpf4jnsgd1na2vs0mg"},{"bike_id":"082174e0-6b0b-4f72-aa2b-e9d5d472725b","system_id":"levelo_inurba_marseille","lat":43.3044,"lon":5.40001,"is_reserved":false,"is_disabled":false,"rental_uris":{"android":"levelo://app?vid=082174e0-6b0b-4f72-aa2b-e9d5d472725b","ios":"levelo://app?vid=082174e0-6b0b-4f72-aa2b-e9d5d472725b"},"vehicle_type_id":"4","last_reported":1740391837,"current_range_meters":18800,"station_id":"ce4bgvp2rcd13ifvqct0","pricing_plan_id":"cebpf4jnsgd1na2vs0mg"},{"bike_id":"b3efd6c2-b001-4706-96b6-59a367206bfd","system_id":"levelo_inurba_marseille","lat":43.26571,"lon":5.3901,"is_reserved":false,"is_disabled":false,"rental_uris":{"android":"levelo://app?vid=b3efd6c2-b001-4706-96b6-59a367206bfd","ios":"levelo://app?vid=b3efd6c2-b001-4706-96b6-59a367206bfd"},"vehicle_type_id":"4","last_reported":1740391837,"current_range_meters":18800,"station_id":"ce4bhe12rcd13ifvqf30","pricing_plan_id":"cebpf4jnsgd1na2vs0mg"},{"bike_id":"0b578b0a-918d-46f6-81f3-220ca5fc5b14","system_id":"levelo_inurba_marseille","lat":43.241776,"lon":5.397347,"is_reserved":false,"is_disabled":false,"rental_uris":{"android":"levelo://app?vid=0b578b0a-918d-46f6-81f3-220ca5fc5b14","ios":"levelo://app?vid=0b578b0a-918d-46f6-81f3-220ca5fc5b14"},"vehicle_type_id":"4","last_reported":1740391837,"current_range_meters":18800,"station_id":"ce4bhn12rcd13ifvqgpg","pricing_plan_id":"cebpf4jnsgd1na2vs0mg"},{"bike_id":"63afb1fc-974d-4ad7-9aeb-1f34144b4f49","system_id":"levelo_inurba_marseille","lat":43.23159,"lon":5.43722,"is_reserved":false,"is_disabled":false,"rental_uris":{"android":"levelo://app?vid=63afb1fc-974d-4ad7-9aeb-1f34144b4f49","ios":"levelo://app?vid=63afb1fc-974d-4ad7-9aeb-1f34144b4f49"},"vehicle_type_id":"4","last_reported":1740391837,"current_range_meters":19200,"station_id":"ce4bhmp2rcd13ifvqgog","pricing_plan_id":"cebpf4jnsgd1na2vs0mg"},{"bike_id":"830923c6-39cb-4786-bd84-d8bc9287d2f2","system_id":"levelo_inurba_marseille","lat":43.31219,"lon":5.36888,"is_reserved":false,"is_disabled":false,"rental_uris":{"android":"levelo://app?vid=830923c6-39cb-4786-bd84-d8bc9287d2f2","ios":"levelo://app?vid=830923c6-39cb-4786-bd84-d8bc9287d2f2"},"vehicle_type_id":"4","last_reported":1740391837,"current_range_meters":19200,"station_id":"ce4bgl92rcd13ifvqbq0","pricing_plan_id":"cebpf4jnsgd1na2vs0mg"},{"bike_id":"a814f25e-89b4-4f0e-a0d6-313eb014c9c9","system_id":"levelo_inurba_marseille","lat":43.259275,"lon":5.409199,"is_reserved":false,"is_disabled":false,"rental_uris":{"android":"levelo://app?vid=a814f25e-89b4-4f0e-a0d6-313eb014c9c9","ios":"levelo://app?vid=a814f25e-89b4-4f0e-a0d6-313eb014c9c9"},"vehicle_type_id":"4","last_reported":1740391837,"current_range_meters":19200,"station_id":"ce4bhm92rcd13ifvqglg","pricing_plan_id":"cebpf4jnsgd1na2vs0mg"},{"bike_id":"d15bab97-415a-42d4-b817-ae269ea37219","system_id":"levelo_inurba_marseille","lat":43.29414,"lon":5.38605,"is_reserved":false,"is_disabled":true,"rental_uris":{"android":"levelo://app?vid=d15bab97-415a-42d4-b817-ae269ea37219","ios":"levelo://app?vid=d15bab97-415a-42d4-b817-ae269ea37219"},"vehicle_type_id":"4","last_reported":1740391837,"current_range_meters":19200,"station_id":"ce4bh2h2rcd13ifvqdh0","pricing_plan_id":"cebpf4jnsgd1na2vs0mg"},{"bike_id":"6ace72a9-113d-4586-917e-44d1370773cf","system_id":"levelo_inurba_marseille","lat":43.29782,"lon":5.38095,"is_reserved":false,"is_disabled":true,"rental_uris":{"android":"levelo://app?vid=6ace72a9-113d-4586-917e-44d1370773cf","ios":"levelo://app?vid=6ace72a9-113d-4586-917e-44d1370773cf"},"vehicle_type_id":"4","last_reported":1740391837,"current_range_meters":19200,"station_id":"ce4bgip2rcd13ifvqbb0","pricing_plan_id":"cebpf4jnsgd1na2vs0mg"},{"bike_id":"be3b3342-867a-4e60-adfb-c9fe7848c300","system_id":"levelo_inurba_marseille","lat":43.33724,"lon":5.3919,"is_reserved":false,"is_disabled":false,"rental_uris":{"android":"levelo://app?vid=be3b3342-867a-4e60-adfb-c9fe7848c300","ios":"levelo://app?vid=be3b3342-867a-4e60-adfb-c9fe7848c300"},"vehicle_type_id":"4","last_reported":1740391837,"current_range_meters":19200,"station_id":"ce4bhr92rcd13ifvqhsg","pricing_plan_id":"cebpf4jnsgd1na2vs0mg"},{"bike_id":"856fefbf-217f-40e7-b6f8-c71b994a48bb","system_id":"levelo_inurba_marseille","lat":43.265565,"lon":5.380797,"is_reserved":false,"is_disabled":false,"rental_uris":{"android":"levelo://app?vid=856fefbf-217f-40e7-b6f8-c71b994a48bb","ios":"levelo://app?vid=856fefbf-217f-40e7-b6f8-c71b994a48bb"},"vehicle_type_id":"4","last_reported":1740391837,"current_range_meters":19200,"station_id":"ce4bhhh2rcd13ifvqfk0","pricing_plan_id":"cebpf4jnsgd1na2vs0mg"},{"bike_id":"4ce2e4d1-9fbd-4622-b477-998cec79312d","system_id":"levelo_inurba_marseille","lat":43.30175,"lon":5.36602,"is_reserved":false,"is_disabled":false,"rental_uris":{"android":"levelo://app?vid=4ce2e4d1-9fbd-4622-b477-998cec79312d","ios":"levelo://app?vid=4ce2e4d1-9fbd-4622-b477-998cec79312d"},"vehicle_type_id":"4","last_reported":1740391837,"current_range_meters":19600,"station_id":"ce4bgrh2rcd13ifvqc8g","pricing_plan_id":"cebpf4jnsgd1na2vs0mg"},{"bike_id":"6dac1f2a-dae3-41cd-b475-5dce0158a35b","system_id":"levelo_inurba_marseille","lat":43.26963,"lon":5.3861,"is_reserved":false,"is_disabled":false,"rental_uris":{"android":"levelo://app?vid=6dac1f2a-dae3-41cd-b475-5dce0158a35b","ios":"levelo://app?vid=6dac1f2a-dae3-41cd-b475-5dce0158a35b"},"vehicle_type_id":"4","last_reported":1740391837,"current_range_meters":19600,"station_id":"ce4bhh92rcd13ifvqfh0","pricing_plan_id":"cebpf4jnsgd1na2vs0mg"},{"bike_id":"4addb255-ebfa-4230-b994-aa5af2bf75c5","system_id":"levelo_inurba_marseille","lat":43.30282,"lon":5.37702,"is_reserved":false,"is_disabled":false,"rental_uris":{"android":"levelo://app?vid=4addb255-ebfa-4230-b994-aa5af2bf75c5","ios":"levelo://app?vid=4addb255-ebfa-4230-b994-aa5af2bf75c5"},"vehicle_type_id":"4","last_reported":1740391837,"current_range_meters":19600,"station_id":"ce4bguh2rcd13ifvqcj0","pricing_plan_id":"cebpf4jnsgd1na2vs0mg"},{"bike_id":"489dc60e-ec8e-44ae-b5a3-52c298b8c8fd","system_id":"levelo_inurba_marseille","lat":43.295945,"lon":5.400101,"is_reserved":false,"is_disabled":false,"rental_uris":{"android":"levelo://app?vid=489dc60e-ec8e-44ae-b5a3-52c298b8c8fd","ios":"levelo://app?vid=489dc60e-ec8e-44ae-b5a3-52c298b8c8fd"},"vehicle_type_id":"4","last_reported":1740391837,"current_range_meters":19600,"station_id":"ce4bh312rcd13ifvqdj0","pricing_plan_id":"cebpf4jnsgd1na2vs0mg"},{"bike_id":"8ed006b0-372f-47a5-b81f-c13005917802","system_id":"levelo_inurba_marseille","lat":43.30429,"lon":5.39747,"is_reserved":false,"is_disabled":false,"rental_uris":{"android":"levelo://app?vid=8ed006b0-372f-47a5-b81f-c13005917802","ios":"levelo://app?vid=8ed006b0-372f-47a5-b81f-c13005917802"},"vehicle_type_id":"4","last_reported":1740391837,"current_range_meters":19600,"station_id":"ce4bh092rcd13ifvqd20","pricing_plan_id":"cebpf4jnsgd1na2vs0mg"},{"bike_id":"96166e45-652c-4eb0-8cd0-ab89e248c010","system_id":"levelo_inurba_marseille","lat":43.33612,"lon":5.4102,"is_reserved":false,"is_disabled":false,"rental_uris":{"android":"levelo://app?vid=96166e45-652c-4eb0-8cd0-ab89e248c010","ios":"levelo://app?vid=96166e45-652c-4eb0-8cd0-ab89e248c010"},"vehicle_type_id":"4","last_reported":1740391837,"current_range_meters":20000,"station_id":"ce4bhqh2rcd13ifvqhmg","pricing_plan_id":"cebpf4jnsgd1na2vs0mg"},{"bike_id":"0c48d571-f362-4875-b2ce-22f94c52f859","system_id":"levelo_inurba_marseille","lat":43.30539,"lon":5.36703,"is_reserved":false,"is_disabled":false,"rental_uris":{"android":"levelo://app?vid=0c48d571-f362-4875-b2ce-22f94c52f859","ios":"levelo://app?vid=0c48d571-f362-4875-b2ce-22f94c52f859"},"vehicle_type_id":"4","last_reported":1740391837,"current_range_meters":20000,"station_id":"ce4bgrp2rcd13ifvqc9g","pricing_plan_id":"cebpf4jnsgd1na2vs0mg"},{"bike_id":"95e784c3-1e24-424a-983f-95665f79e959","system_id":"levelo_inurba_marseille","lat":43.25934,"lon":5.40907,"is_reserved":false,"is_disabled":false,"rental_uris":{"android":"levelo://app?vid=95e784c3-1e24-424a-983f-95665f79e959","ios":"levelo://app?vid=95e784c3-1e24-424a-983f-95665f79e959"},"vehicle_type_id":"4","last_reported":1740391837,"current_range_meters":20000,"station_id":"ce4bhm92rcd13ifvqglg","pricing_plan_id":"cebpf4jnsgd1na2vs0mg"},{"bike_id":"1d4a4e6b-c495-4a85-91b0-c8b153ea0277","system_id":"levelo_inurba_marseille","lat":43.29194,"lon":5.39328,"is_reserved":false,"is_disabled":false,"rental_uris":{"android":"levelo://app?vid=1d4a4e6b-c495-4a85-91b0-c8b153ea0277","ios":"levelo://app?vid=1d4a4e6b-c495-4a85-91b0-c8b153ea0277"},"vehicle_type_id":"4","last_reported":1740391837,"current_range_meters":20000,"station_id":"ce4bh192rcd13ifvqdd0","pricing_plan_id":"cebpf4jnsgd1na2vs0mg"},{"bike_id":"cd649c04-58e1-4113-bc6d-a7b088bd2777","system_id":"levelo_inurba_marseille","lat":43.25012,"lon":5.38913,"is_reserved":false,"is_disabled":false,"rental_uris":{"android":"levelo://app?vid=cd649c04-58e1-4113-bc6d-a7b088bd2777","ios":"levelo://app?vid=cd649c04-58e1-4113-bc6d-a7b088bd2777"},"vehicle_type_id":"4","last_reported":1740391837,"current_range_meters":20000,"station_id":"ce4bhgp2rcd13ifvqfd0","pricing_plan_id":"cebpf4jnsgd1na2vs0mg"},{"bike_id":"71686f6c-0c0a-46b4-842e-ed168955efdb","system_id":"levelo_inurba_marseille","lat":43.30282,"lon":5.37708,"is_reserved":false,"is_disabled":false,"rental_uris":{"android":"levelo://app?vid=71686f6c-0c0a-46b4-842e-ed168955efdb","ios":"levelo://app?vid=71686f6c-0c0a-46b4-842e-ed168955efdb"},"vehicle_type_id":"4","last_reported":1740391837,"current_range_meters":20000,"station_id":"ce4bguh2rcd13ifvqcj0","pricing_plan_id":"cebpf4jnsgd1na2vs0mg"},{"bike_id":"dd4be6f0-885d-4750-a8bb-6b3a073ca6b7","system_id":"levelo_inurba_marseille","lat":43.24649,"lon":5.38894,"is_reserved":false,"is_disabled":false,"rental_uris":{"android":"levelo://app?vid=dd4be6f0-885d-4750-a8bb-6b3a073ca6b7","ios":"levelo://app?vid=dd4be6f0-885d-4750-a8bb-6b3a073ca6b7"},"vehicle_type_id":"4","last_reported":1740391837,"current_range_meters":20000,"station_id":"ce4bhg12rcd13ifvqf60","pricing_plan_id":"cebpf4jnsgd1na2vs0mg"},{"bike_id":"7ee7f826-dc37-4344-ad19-a7d227aa9e57","system_id":"levelo_inurba_marseille","lat":43.33411,"lon":5.44107,"is_reserved":false,"is_disabled":true,"rental_uris":{"android":"levelo://app?vid=7ee7f826-dc37-4344-ad19-a7d227aa9e57","ios":"levelo://app?vid=7ee7f826-dc37-4344-ad19-a7d227aa9e57"},"vehicle_type_id":"4","last_reported":1740391837,"current_range_meters":20400,"station_id":"","pricing_plan_id":"cebpf4jnsgd1na2vs0mg"},{"bike_id":"0dd39dff-b059-4663-b812-da796892bc6a","system_id":"levelo_inurba_marseille","lat":43.27908,"lon":5.39574,"is_reserved":false,"is_disabled":false,"rental_uris":{"android":"levelo://app?vid=0dd39dff-b059-4663-b812-da796892bc6a","ios":"levelo://app?vid=0dd39dff-b059-4663-b812-da796892bc6a"},"vehicle_type_id":"4","last_reported":1740391837,"current_range_meters":20400,"station_id":"ce4bhf92rcd13ifvqf40","pricing_plan_id":"cebpf4jnsgd1na2vs0mg"},{"bike_id":"ffe3d542-4b16-4357-8d0f-e0d653d3cd7f","system_id":"levelo_inurba_marseille","lat":43.26802,"lon":5.40267,"is_reserved":false,"is_disabled":false,"rental_uris":{"android":"levelo://app?vid=ffe3d542-4b16-4357-8d0f-e0d653d3cd7f","ios":"levelo://app?vid=ffe3d542-4b16-4357-8d0f-e0d653d3cd7f"},"vehicle_type_id":"4","last_reported":1740391837,"current_range_meters":20400,"station_id":"ce501612rcd8frsf0b60","pricing_plan_id":"cebpf4jnsgd1na2vs0mg"},{"bike_id":"891d1bcf-4a15-44a8-894f-f4e8dd4202a2","system_id":"levelo_inurba_marseille","lat":43.27972,"lon":5.38724,"is_reserved":false,"is_disabled":false,"rental_uris":{"android":"levelo://app?vid=891d1bcf-4a15-44a8-894f-f4e8dd4202a2","ios":"levelo://app?vid=891d1bcf-4a15-44a8-894f-f4e8dd4202a2"},"vehicle_type_id":"4","last_reported":1740391837,"current_range_meters":20400,"station_id":"ce4bhg12rcd13ifvqf80","pricing_plan_id":"cebpf4jnsgd1na2vs0mg"},{"bike_id":"abb12304-182d-452c-af9d-9043f7e3d152","system_id":"levelo_inurba_marseille","lat":43.28041,"lon":5.36943,"is_reserved":false,"is_disabled":false,"rental_uris":{"android":"levelo://app?vid=abb12304-182d-452c-af9d-9043f7e3d152","ios":"levelo://app?vid=abb12304-182d-452c-af9d-9043f7e3d152"},"vehicle_type_id":"4","last_reported":1740391837,"current_range_meters":20400,"station_id":"ce4bha12rcd13ifvqef0","pricing_plan_id":"cebpf4jnsgd1na2vs0mg"},{"bike_id":"3da4b31d-4563-47c0-8027-2659b325bc27","system_id":"levelo_inurba_marseille","lat":43.29037,"lon":5.39964,"is_reserved":false,"is_disabled":false,"rental_uris":{"android":"levelo://app?vid=3da4b31d-4563-47c0-8027-2659b325bc27","ios":"levelo://app?vid=3da4b31d-4563-47c0-8027-2659b325bc27"},"vehicle_type_id":"4","last_reported":1740391837,"current_range_meters":20400,"station_id":"ce4bh392rcd13ifvqdm0","pricing_plan_id":"cebpf4jnsgd1na2vs0mg"},{"bike_id":"41c02980-2d5d-4ec8-b439-0a197839dea1","system_id":"levelo_inurba_marseille","lat":43.29902,"lon":5.4366,"is_reserved":false,"is_disabled":false,"rental_uris":{"android":"levelo://app?vid=41c02980-2d5d-4ec8-b439-0a197839dea1","ios":"levelo://app?vid=41c02980-2d5d-4ec8-b439-0a197839dea1"},"vehicle_type_id":"4","last_reported":1740391837,"current_range_meters":20400,"station_id":"ce4bhpp2rcd13ifvqhfg","pricing_plan_id":"cebpf4jnsgd1na2vs0mg"},{"bike_id":"26e67349-8270-4806-aad3-839f545a79a4","system_id":"levelo_inurba_marseille","lat":43.30588,"lon":5.39356,"is_reserved":false,"is_disabled":true,"rental_uris":{"android":"levelo://app?vid=26e67349-8270-4806-aad3-839f545a79a4","ios":"levelo://app?vid=26e67349-8270-4806-aad3-839f545a79a4"},"vehicle_type_id":"4","last_reported":1740391837,"current_range_meters":20400,"station_id":"ce4bh0p2rcd13ifvqd80","pricing_plan_id":"cebpf4jnsgd1na2vs0mg"},{"bike_id":"dafb2d2f-6dd7-49fa-bc73-259a0d801a13","system_id":"levelo_inurba_marseille","lat":43.29301,"lon":5.37462,"is_reserved":false,"is_disabled":false,"rental_uris":{"android":"levelo://app?vid=dafb2d2f-6dd7-49fa-bc73-259a0d801a13","ios":"levelo://app?vid=dafb2d2f-6dd7-49fa-bc73-259a0d801a13"},"vehicle_type_id":"4","last_reported":1740391837,"current_range_meters":20000,"station_id":"ce4bgi12rcd13ifvqb70","pricing_plan_id":"cebpf4jnsgd1na2vs0mg"},{"bike_id":"e7233382-5cf6-4179-9ab0-7f782dbdb40e","system_id":"levelo_inurba_marseille","lat":43.28443,"lon":5.39199,"is_reserved":false,"is_disabled":false,"rental_uris":{"android":"levelo://app?vid=e7233382-5cf6-4179-9ab0-7f782dbdb40e","ios":"levelo://app?vid=e7233382-5cf6-4179-9ab0-7f782dbdb40e"},"vehicle_type_id":"4","last_reported":1740391837,"current_range_meters":20400,"station_id":"ce4bhoh2rcd13ifvqh5g","pricing_plan_id":"cebpf4jnsgd1na2vs0mg"},{"bike_id":"673e2395-8f3d-4053-8539-8512ab8ffebb","system_id":"levelo_inurba_marseille","lat":43.272154,"lon":5.391862,"is_reserved":false,"is_disabled":false,"rental_uris":{"android":"levelo://app?vid=673e2395-8f3d-4053-8539-8512ab8ffebb","ios":"levelo://app?vid=673e2395-8f3d-4053-8539-8512ab8ffebb"},"vehicle_type_id":"4","last_reported":1740391837,"current_range_meters":20800,"station_id":"ce4bhhp2rcd13ifvqfm0","pricing_plan_id":"cebpf4jnsgd1na2vs0mg"},{"bike_id":"1e4ddf92-0eea-4d24-a416-d7a279008e23","system_id":"levelo_inurba_marseille","lat":43.25936,"lon":5.40895,"is_reserved":false,"is_disabled":false,"rental_uris":{"android":"levelo://app?vid=1e4ddf92-0eea-4d24-a416-d7a279008e23","ios":"levelo://app?vid=1e4ddf92-0eea-4d24-a416-d7a279008e23"},"vehicle_type_id":"4","last_reported":1740391837,"current_range_meters":20800,"station_id":"ce4bhm92rcd13ifvqglg","pricing_plan_id":"cebpf4jnsgd1na2vs0mg"},{"bike_id":"94a5dfcb-cdfc-4ad8-8881-8a12d01b416a","system_id":"levelo_inurba_marseille","lat":43.24176,"lon":5.39727,"is_reserved":false,"is_disabled":false,"rental_uris":{"android":"levelo://app?vid=94a5dfcb-cdfc-4ad8-8881-8a12d01b416a","ios":"levelo://app?vid=94a5dfcb-cdfc-4ad8-8881-8a12d01b416a"},"vehicle_type_id":"4","last_reported":1740391837,"current_range_meters":20800,"station_id":"ce4bhn12rcd13ifvqgpg","pricing_plan_id":"cebpf4jnsgd1na2vs0mg"},{"bike_id":"ba116aa4-9a2c-4951-b196-63e0a40889ed","system_id":"levelo_inurba_marseille","lat":43.32323,"lon":5.36615,"is_reserved":false,"is_disabled":false,"rental_uris":{"android":"levelo://app?vid=ba116aa4-9a2c-4951-b196-63e0a40889ed","ios":"levelo://app?vid=ba116aa4-9a2c-4951-b196-63e0a40889ed"},"vehicle_type_id":"4","last_reported":1740391837,"current_range_meters":21600,"station_id":"","pricing_plan_id":"cebpf4jnsgd1na2vs0mg"},{"bike_id":"fc3502fa-34c8-48c2-8c8b-0a4d5562ce06","system_id":"levelo_inurba_marseille","lat":43.24082,"lon":5.37746,"is_reserved":false,"is_disabled":false,"rental_uris":{"android":"levelo://app?vid=fc3502fa-34c8-48c2-8c8b-0a4d5562ce06","ios":"levelo://app?vid=fc3502fa-34c8-48c2-8c8b-0a4d5562ce06"},"vehicle_type_id":"4","last_reported":1740391837,"current_range_meters":21600,"station_id":"ce4bhnp2rcd13ifvqgvg","pricing_plan_id":"cebpf4jnsgd1na2vs0mg"},{"bike_id":"1237b337-386c-470d-b92d-7e09f0f34a91","system_id":"levelo_inurba_marseille","lat":43.2827,"lon":5.35074,"is_reserved":false,"is_disabled":true,"rental_uris":{"android":"levelo://app?vid=1237b337-386c-470d-b92d-7e09f0f34a91","ios":"levelo://app?vid=1237b337-386c-470d-b92d-7e09f0f34a91"},"vehicle_type_id":"4","last_reported":1740391837,"current_range_meters":21600,"station_id":"ce4bhbp2rcd13ifvqerg","pricing_plan_id":"cebpf4jnsgd1na2vs0mg"},{"bike_id":"63bd7c61-4a1f-4c33-b0da-bb44c69a1793","system_id":"levelo_inurba_marseille","lat":43.24084,"lon":5.37744,"is_reserved":false,"is_disabled":false,"rental_uris":{"android":"levelo://app?vid=63bd7c61-4a1f-4c33-b0da-bb44c69a1793","ios":"levelo://app?vid=63bd7c61-4a1f-4c33-b0da-bb44c69a1793"},"vehicle_type_id":"4","last_reported":1740391837,"current_range_meters":21600,"station_id":"ce4bhnp2rcd13ifvqgvg","pricing_plan_id":"cebpf4jnsgd1na2vs0mg"},{"bike_id":"fce9a80a-4538-4f86-96c5-759a5f66da83","system_id":"levelo_inurba_marseille","lat":43.31348,"lon":5.36713,"is_reserved":false,"is_disabled":false,"rental_uris":{"android":"levelo://app?vid=fce9a80a-4538-4f86-96c5-759a5f66da83","ios":"levelo://app?vid=fce9a80a-4538-4f86-96c5-759a5f66da83"},"vehicle_type_id":"4","last_reported":1740391837,"current_range_meters":21600,"station_id":"ce4bgr92rcd13ifvqc6g","pricing_plan_id":"cebpf4jnsgd1na2vs0mg"},{"bike_id":"b22fca54-b192-4ce1-8458-feec3c525f8b","system_id":"levelo_inurba_marseille","lat":43.2481,"lon":5.37455,"is_reserved":false,"is_disabled":false,"rental_uris":{"android":"levelo://app?vid=b22fca54-b192-4ce1-8458-feec3c525f8b","ios":"levelo://app?vid=b22fca54-b192-4ce1-8458-feec3c525f8b"},"vehicle_type_id":"4","last_reported":1740391837,"current_range_meters":21600,"station_id":"ce4bhgh2rcd13ifvqfb0","pricing_plan_id":"cebpf4jnsgd1na2vs0mg"},{"bike_id":"b7aa87b8-a3e9-4f8f-9f0b-8c74166d84dc","system_id":"levelo_inurba_marseille","lat":43.23144,"lon":5.3551,"is_reserved":false,"is_disabled":false,"rental_uris":{"android":"levelo://app?vid=b7aa87b8-a3e9-4f8f-9f0b-8c74166d84dc","ios":"levelo://app?vid=b7aa87b8-a3e9-4f8f-9f0b-8c74166d84dc"},"vehicle_type_id":"4","last_reported":1740391837,"current_range_meters":21600,"station_id":"","pricing_plan_id":"cebpf4jnsgd1na2vs0mg"},{"bike_id":"631281c3-a72e-4262-9afc-6df4191f2a24","system_id":"levelo_inurba_marseille","lat":43.2992,"lon":5.36527,"is_reserved":false,"is_disabled":false,"rental_uris":{"android":"levelo://app?vid=631281c3-a72e-4262-9afc-6df4191f2a24","ios":"levelo://app?vid=631281c3-a72e-4262-9afc-6df4191f2a24"},"vehicle_type_id":"4","last_reported":1740391837,"current_range_meters":22000,"station_id":"ce4bgm92rcd13ifvqbr0","pricing_plan_id":"cebpf4jnsgd1na2vs0mg"},{"bike_id":"27a1c852-7ff0-4c4f-a7dd-742806920cf9","system_id":"levelo_inurba_marseille","lat":43.31577,"lon":5.36686,"is_reserved":false,"is_disabled":false,"rental_uris":{"android":"levelo://app?vid=27a1c852-7ff0-4c4f-a7dd-742806920cf9","ios":"levelo://app?vid=27a1c852-7ff0-4c4f-a7dd-742806920cf9"},"vehicle_type_id":"4","last_reported":1740391837,"current_range_meters":22000,"station_id":"ce4bgl92rcd13ifvqbq0","pricing_plan_id":"cebpf4jnsgd1na2vs0mg"},{"bike_id":"ba23b693-4a78-438e-ab52-34f4d029c350","system_id":"levelo_inurba_marseille","lat":43.28692,"lon":5.3738,"is_reserved":false,"is_disabled":false,"rental_uris":{"android":"levelo://app?vid=ba23b693-4a78-438e-ab52-34f4d029c350","ios":"levelo://app?vid=ba23b693-4a78-438e-ab52-34f4d029c350"},"vehicle_type_id":"4","last_reported":1740391837,"current_range_meters":22000,"station_id":"ce4bh3p2rcd13ifvqdq0","pricing_plan_id":"cebpf4jnsgd1na2vs0mg"},{"bike_id":"f06e30a9-cb21-4e55-b05d-623bd0115fba","system_id":"levelo_inurba_marseille","lat":43.26956,"lon":5.38663,"is_reserved":false,"is_disabled":false,"rental_uris":{"android":"levelo://app?vid=f06e30a9-cb21-4e55-b05d-623bd0115fba","ios":"levelo://app?vid=f06e30a9-cb21-4e55-b05d-623bd0115fba"},"vehicle_type_id":"4","last_reported":1740391837,"current_range_meters":22000,"station_id":"ce4bhh92rcd13ifvqfh0","pricing_plan_id":"cebpf4jnsgd1na2vs0mg"},{"bike_id":"7978493f-6d0c-486c-bebc-8e719c5dc113","system_id":"levelo_inurba_marseille","lat":43.23149,"lon":5.43727,"is_reserved":false,"is_disabled":false,"rental_uris":{"android":"levelo://app?vid=7978493f-6d0c-486c-bebc-8e719c5dc113","ios":"levelo://app?vid=7978493f-6d0c-486c-bebc-8e719c5dc113"},"vehicle_type_id":"4","last_reported":1740391837,"current_range_meters":22000,"station_id":"ce4bhmp2rcd13ifvqgog","pricing_plan_id":"cebpf4jnsgd1na2vs0mg"},{"bike_id":"689f7e3a-f580-4871-8dd7-eeefc768fa46","system_id":"levelo_inurba_marseille","lat":43.30095,"lon":5.39047,"is_reserved":false,"is_disabled":false,"rental_uris":{"android":"levelo://app?vid=689f7e3a-f580-4871-8dd7-eeefc768fa46","ios":"levelo://app?vid=689f7e3a-f580-4871-8dd7-eeefc768fa46"},"vehicle_type_id":"4","last_reported":1740391837,"current_range_meters":22000,"station_id":"ce4bh192rcd13ifvqdb0","pricing_plan_id":"cebpf4jnsgd1na2vs0mg"},{"bike_id":"edfb4c02-c9ca-498d-a54e-8547e00c6ad4","system_id":"levelo_inurba_marseille","lat":43.29796,"lon":5.38082,"is_reserved":false,"is_disabled":false,"rental_uris":{"android":"levelo://app?vid=edfb4c02-c9ca-498d-a54e-8547e00c6ad4","ios":"levelo://app?vid=edfb4c02-c9ca-498d-a54e-8547e00c6ad4"},"vehicle_type_id":"4","last_reported":1740391837,"current_range_meters":22000,"station_id":"ce4bgip2rcd13ifvqbb0","pricing_plan_id":"cebpf4jnsgd1na2vs0mg"},{"bike_id":"c4dd3773-3889-4834-b943-2ead510dd48a","system_id":"levelo_inurba_marseille","lat":43.23151,"lon":5.43721,"is_reserved":false,"is_disabled":false,"rental_uris":{"android":"levelo://app?vid=c4dd3773-3889-4834-b943-2ead510dd48a","ios":"levelo://app?vid=c4dd3773-3889-4834-b943-2ead510dd48a"},"vehicle_type_id":"4","last_reported":1740391837,"current_range_meters":22000,"station_id":"ce4bhmp2rcd13ifvqgog","pricing_plan_id":"cebpf4jnsgd1na2vs0mg"},{"bike_id":"09099391-8a81-40ef-abc5-e567e6c542cf","system_id":"levelo_inurba_marseille","lat":43.31211,"lon":5.36899,"is_reserved":false,"is_disabled":false,"rental_uris":{"android":"levelo://app?vid=09099391-8a81-40ef-abc5-e567e6c542cf","ios":"levelo://app?vid=09099391-8a81-40ef-abc5-e567e6c542cf"},"vehicle_type_id":"4","last_reported":1740391837,"current_range_meters":22000,"station_id":"ce4bgl92rcd13ifvqbq0","pricing_plan_id":"cebpf4jnsgd1na2vs0mg"},{"bike_id":"7d8c31bd-1191-4c5e-9df4-7453c96efdb5","system_id":"levelo_inurba_marseille","lat":43.30467,"lon":5.37917,"is_reserved":false,"is_disabled":false,"rental_uris":{"android":"levelo://app?vid=7d8c31bd-1191-4c5e-9df4-7453c96efdb5","ios":"levelo://app?vid=7d8c31bd-1191-4c5e-9df4-7453c96efdb5"},"vehicle_type_id":"4","last_reported":1740391837,"current_range_meters":22000,"station_id":"ce4bgup2rcd13ifvqcn0","pricing_plan_id":"cebpf4jnsgd1na2vs0mg"},{"bike_id":"f27611b7-2e1b-4e94-9d6b-938f1301cfa3","system_id":"levelo_inurba_marseille","lat":43.292023,"lon":5.393276,"is_reserved":false,"is_disabled":false,"rental_uris":{"android":"levelo://app?vid=f27611b7-2e1b-4e94-9d6b-938f1301cfa3","ios":"levelo://app?vid=f27611b7-2e1b-4e94-9d6b-938f1301cfa3"},"vehicle_type_id":"4","last_reported":1740391837,"current_range_meters":22400,"station_id":"ce4bh192rcd13ifvqdd0","pricing_plan_id":"cebpf4jnsgd1na2vs0mg"},{"bike_id":"a5439f94-a94b-472a-8212-9c3f3cd98f91","system_id":"levelo_inurba_marseille","lat":43.25919,"lon":5.40884,"is_reserved":false,"is_disabled":false,"rental_uris":{"android":"levelo://app?vid=a5439f94-a94b-472a-8212-9c3f3cd98f91","ios":"levelo://app?vid=a5439f94-a94b-472a-8212-9c3f3cd98f91"},"vehicle_type_id":"4","last_reported":1740391837,"current_range_meters":22400,"station_id":"ce4bhm92rcd13ifvqglg","pricing_plan_id":"cebpf4jnsgd1na2vs0mg"},{"bike_id":"40c93502-1dfa-4230-b089-2007da8bd0c2","system_id":"levelo_inurba_marseille","lat":43.32483,"lon":5.36578,"is_reserved":false,"is_disabled":false,"rental_uris":{"android":"levelo://app?vid=40c93502-1dfa-4230-b089-2007da8bd0c2","ios":"levelo://app?vid=40c93502-1dfa-4230-b089-2007da8bd0c2"},"vehicle_type_id":"4","last_reported":1740391837,"current_range_meters":22400,"station_id":"ce4bhs12rcd13ifvqhvg","pricing_plan_id":"cebpf4jnsgd1na2vs0mg"},{"bike_id":"236a2c8a-00d4-402b-bc71-1b0bb81f1a81","system_id":"levelo_inurba_marseille","lat":43.29873,"lon":5.36292,"is_reserved":false,"is_disabled":false,"rental_uris":{"android":"levelo://app?vid=236a2c8a-00d4-402b-bc71-1b0bb81f1a81","ios":"levelo://app?vid=236a2c8a-00d4-402b-bc71-1b0bb81f1a81"},"vehicle_type_id":"4","last_reported":1740391837,"current_range_meters":22400,"station_id":"ce4bgpp2rcd13ifvqc3g","pricing_plan_id":"cebpf4jnsgd1na2vs0mg"},{"bike_id":"166f328a-b662-4401-8cb0-c4d5a1d86942","system_id":"levelo_inurba_marseille","lat":43.2573,"lon":5.41107,"is_reserved":false,"is_disabled":false,"rental_uris":{"android":"levelo://app?vid=166f328a-b662-4401-8cb0-c4d5a1d86942","ios":"levelo://app?vid=166f328a-b662-4401-8cb0-c4d5a1d86942"},"vehicle_type_id":"4","last_reported":1740391837,"current_range_meters":22400,"station_id":"ce4bhkp2rcd13ifvqgd0","pricing_plan_id":"cebpf4jnsgd1na2vs0mg"},{"bike_id":"10449462-fae0-4062-94d9-04c6a203ce80","system_id":"levelo_inurba_marseille","lat":43.30474,"lon":5.37901,"is_reserved":false,"is_disabled":false,"rental_uris":{"android":"levelo://app?vid=10449462-fae0-4062-94d9-04c6a203ce80","ios":"levelo://app?vid=10449462-fae0-4062-94d9-04c6a203ce80"},"vehicle_type_id":"4","last_reported":1740391837,"current_range_meters":22400,"station_id":"ce4bgup2rcd13ifvqcn0","pricing_plan_id":"cebpf4jnsgd1na2vs0mg"},{"bike_id":"7d7a36c6-d2eb-49ab-b48a-eba7e73fbdfc","system_id":"levelo_inurba_marseille","lat":43.33607,"lon":5.40991,"is_reserved":false,"is_disabled":true,"rental_uris":{"android":"levelo://app?vid=7d7a36c6-d2eb-49ab-b48a-eba7e73fbdfc","ios":"levelo://app?vid=7d7a36c6-d2eb-49ab-b48a-eba7e73fbdfc"},"vehicle_type_id":"4","last_reported":1740391837,"current_range_meters":22400,"station_id":"ce4bhqh2rcd13ifvqhmg","pricing_plan_id":"cebpf4jnsgd1na2vs0mg"},{"bike_id":"b4dfec4b-603f-45c3-87b7-2c43c16477f4","system_id":"levelo_inurba_marseille","lat":43.27439,"lon":5.41042,"is_reserved":false,"is_disabled":true,"rental_uris":{"android":"levelo://app?vid=b4dfec4b-603f-45c3-87b7-2c43c16477f4","ios":"levelo://app?vid=b4dfec4b-603f-45c3-87b7-2c43c16477f4"},"vehicle_type_id":"4","last_reported":1740391837,"current_range_meters":22400,"station_id":"","pricing_plan_id":"cebpf4jnsgd1na2vs0mg"},{"bike_id":"74bfd96c-401a-490c-a405-314028ff1901","system_id":"levelo_inurba_marseille","lat":43.23148,"lon":5.43727,"is_reserved":false,"is_disabled":false,"rental_uris":{"android":"levelo://app?vid=74bfd96c-401a-490c-a405-314028ff1901","ios":"levelo://app?vid=74bfd96c-401a-490c-a405-314028ff1901"},