{"last_updated":1753578303,"ttl":60,"version":"2.2","data":{"bikes":[{"bike_id":"a9bcff15-70d8-4922-b020-1a5b437dd9fd","system_id":"levelo_inurba_marseille","lat":43.21371,"lon":5.35003,"is_reserved":false,"is_disabled":false,"rental_uris":{"android":"levelo://app?vid=a9bcff15-70d8-4922-b020-1a5b437dd9fd","ios":"levelo://app?vid=a9bcff15-70d8-4922-b020-1a5b437dd9fd"},"vehicle_type_id":"4","last_reported":1753578303,"current_range_meters":2800,"station_id":"","pricing_plan_id":"cebpf4jnsgd1na2vs0mg"},{"bike_id":"fe1e01f8-d4ce-40a3-9bef-dc35d4f0ebf5","system_id":"levelo_inurba_marseille","lat":43.28424,"lon":5.34981,"is_reserved":false,"is_disabled":true,"rental_uris":{"android":"levelo://app?vid=fe1e01f8-d4ce-40a3-9bef-dc35d4f0ebf5","ios":"levelo://app?vid=fe1e01f8-d4ce-40a3-9bef-dc35d4f0ebf5"},"vehicle_type_id":"4","last_reported":1753578303,"current_range_meters":3200,"station_id":"ce4bhbh2rcd13ifvqepg","pricing_plan_id":"cebpf4jnsgd1na2vs0mg"},{"bike_id":"542056c9-443e-4d9b-9211-e4e63794ab5c","system_id":"levelo_inurba_marseille","lat":43.30294,"lon":5.39214,"is_reserved":false,"is_disabled":true,"rental_uris":{"android":"levelo://app?vid=542056c9-443e-4d9b-9211-e4e63794ab5c","ios":"levelo://app?vid=542056c9-443e-4d9b-9211-e4e63794ab5c"},"vehicle_type_id":"4","last_reported":1753578303,"current_range_meters":3200,"station_id":"ce4bgkh2rcd13ifvqbk0","pricing_plan_id":"cebpf4jnsgd1na2vs0mg"},{"bike_id":"ddb41611-b336-4121-ad5c-d2ee92e95b9c","system_id":"levelo_inurba_marseille","lat":43.307283,"lon":5.424498,"is_reserved":false,"is_disabled":false,"rental_uris":{"android":"levelo://app?vid=ddb41611-b336-4121-ad5c-d2ee92e95b9c","ios":"levelo://app?vid=ddb41611-b336-4121-ad5c-d2ee92e95b9c"},"vehicle_type_id":"4","last_reported":1753578303,"current_range_meters":4000,"station_id":"st_cvj6ca6bvosntc0bfgr0","pricing_plan_id":"cebpf4jnsgd1na2vs0mg"},{"bike_id":"6af7a72a-189c-4dbc-9282-a956426542ba","system_id":"levelo_inurba_marseille","lat":43.22512,"lon":5.34779,"is_reserved":false,"is_disabled":false,"rental_uris":{"android":"levelo://app?vid=6af7a72a-189c-4dbc-9282-a956426542ba","ios":"levelo://app?vid=6af7a72a-189c-4dbc-9282-a956426542ba"},"vehicle_type_id":"4","last_reported":1753578303,"current_range_meters":4400,"station_id":"","pricing_plan_id":"cebpf4jnsgd1na2vs0mg"},{"bike_id":"ff30a5ee-0e9d-4bfa-a593-c7beaf9df463","system_id":"levelo_inurba_marseille","lat":43.33522,"lon":5.36188,"is_reserved":false,"is_disabled":false,"rental_uris":{"android":"levelo://app?vid=ff30a5ee-0e9d-4bfa-a593-c7beaf9df463","ios":"levelo://app?vid=ff30a5ee-0e9d-4bfa-a593-c7beaf9df463"},"vehicle_type_id":"4","last_reported":1753578303,"current_range_meters":4400,"station_id":"","pricing_plan_id":"cebpf4jnsgd1na2vs0mg"},{"bike_id":"16c2566c-ec67-44d1-b360-2fb59ef556e3","system_id":"levelo_inurba_marseille","lat":43.30329,"lon":5.40443,"is_reserved":false,"is_disabled":false,"rental_uris":{"android":"levelo://app?vid=16c2566c-ec67-44d1-b360-2fb59ef556e3","ios":"levelo://app?vid=16c2566c-ec67-44d1-b360-2fb59ef556e3"},"vehicle_type_id":"4","last_reported":1753578303,"current_range_meters":4400,"station_id":"ce4bh012rcd13ifvqd10","pricing_plan_id":"cebpf4jnsgd1na2vs0mg"},{"bike_id":"89dcea3a-f7f7-44b2-9d2c-a3300861829d","system_id":"levelo_inurba_marseille","lat":43.27861,"lon":5.397027,"is_reserved":false,"is_disabled":false,"rental_uris":{"android":"levelo://app?vid=89dcea3a-f7f7-44b2-9d2c-a3300861829d","ios":"levelo://app?vid=89dcea3a-f7f7-44b2-9d2c-a3300861829d"},"vehicle_type_id":"4","last_reported":1753578303,"current_range_meters":4400,"station_id":"","pricing_plan_id":"cebpf4jnsgd1na2vs0mg"},{"bike_id":"be1f46e1-b208-4477-ac0e-0e8346ce7117","system_id":"levelo_inurba_marseille","lat":43.22503,"lon":5.34772,"is_reserved":false,"is_disabled":false,"rental_uris":{"android":"levelo://app?vid=be1f46e1-b208-4477-ac0e-0e8346ce7117","ios":"levelo://app?vid=be1f46e1-b208-4477-ac0e-0e8346ce7117"},"vehicle_type_id":"4","last_reported":1753578303,"current_range_meters":5600,"station_id":"st_cvj5dfep6f1abm77gieg","pricing_plan_id":"cebpf4jnsgd1na2vs0mg"},{"bike_id":"43829768-16f7-4b76-b43e-664f9da6ef14","system_id":"levelo_inurba_marseille","lat":43.3107,"lon":5.38362,"is_reserved":false,"is_disabled":false,"rental_uris":{"android":"levelo://app?vid=43829768-16f7-4b76-b43e-664f9da6ef14","ios":"levelo://app?vid=43829768-16f7-4b76-b43e-664f9da6ef14"},"vehicle_type_id":"4","last_reported":1753578303,"current_range_meters":5600,"station_id":"ce4bgv92rcd13ifvqcr0","pricing_plan_id":"cebpf4jnsgd1na2vs0mg"},{"bike_id":"ba44bdd5-bc3e-465f-9183-2a8c2c90c98f","system_id":"levelo_inurba_marseille","lat":43.29526,"lon":5.38549,"is_reserved":false,"is_disabled":false,"rental_uris":{"android":"levelo://app?vid=ba44bdd5-bc3e-465f-9183-2a8c2c90c98f","ios":"levelo://app?vid=ba44bdd5-bc3e-465f-9183-2a8c2c90c98f"},"vehicle_type_id":"4","last_reported":1753578303,"current_range_meters":6000,"station_id":"ce4bgih2rcd13ifvqba0","pricing_plan_id":"cebpf4jnsgd1na2vs0mg"},{"bike_id":"659696a2-3854-4019-bdd0-5ad56ba4750d","system_id":"levelo_inurba_marseille","lat":43.28153,"lon":5.4264,"is_reserved":false,"is_disabled":true,"rental_uris":{"android":"levelo://app?vid=659696a2-3854-4019-bdd0-5ad56ba4750d","ios":"levelo://app?vid=659696a2-3854-4019-bdd0-5ad56ba4750d"},"vehicle_type_id":"4","last_reported":1753578303,"current_range_meters":6400,"station_id":"ce4bhnh2rcd13ifvqgug","pricing_plan_id":"cebpf4jnsgd1na2vs0mg"},{"bike_id":"f2e73ed9-a948-43ea-ab9d-32368cf8a475","system_id":"levelo_inurba_marseille","lat":43.26177,"lon":5.37465,"is_reserved":false,"is_disabled":true,"rental_uris":{"android":"levelo://app?vid=f2e73ed9-a948-43ea-ab9d-32368cf8a475","ios":"levelo://app?vid=f2e73ed9-a948-43ea-ab9d-32368cf8a475"},"vehicle_type_id":"4","last_reported":1753578303,"current_range_meters":6800,"station_id":"ce4bhgp2rcd13ifvqfc0","pricing_plan_id":"cebpf4jnsgd1na2vs0mg"},{"bike_id":"8b454f8e-a2cc-4f8a-9b75-defe6a01169e","system_id":"levelo_inurba_marseille","lat":43.287151,"lon":5.375104,"is_reserved":false,"is_disabled":false,"rental_uris":{"android":"levelo://app?vid=8b454f8e-a2cc-4f8a-9b75-defe6a01169e","ios":"levelo://app?vid=8b454f8e-a2cc-4f8a-9b75-defe6a01169e"},"vehicle_type_id":"4","last_reported":1753578303,"current_range_meters":6400,"station_id":"","pricing_plan_id":"cebpf4jnsgd1na2vs0mg"},{"bike_id":"b9d90a33-242e-4108-916f-926fe59baba6","system_id":"levelo_inurba_marseille","lat":43.28618,"lon":5.3837,"is_reserved":false,"is_disabled":false,"rental_uris":{"android":"levelo://app?vid=b9d90a33-242e-4108-916f-926fe59baba6","ios":"levelo://app?vid=b9d90a33-242e-4108-916f-926fe59baba6"},"vehicle_type_id":"4","last_reported":1753578303,"current_range_meters":6400,"station_id":"","pricing_plan_id":"cebpf4jnsgd1na2vs0mg"},{"bike_id":"993df93e-e610-4977-bec2-94900a0b143f","system_id":"levelo_inurba_marseille","lat":43.28846,"lon":5.39315,"is_reserved":false,"is_disabled":false,"rental_uris":{"android":"levelo://app?vid=993df93e-e610-4977-bec2-94900a0b143f","ios":"levelo://app?vid=993df93e-e610-4977-bec2-94900a0b143f"},"vehicle_type_id":"4","last_reported":1753578303,"current_range_meters":6400,"station_id":"ce4bh2p2rcd13ifvqdi0","pricing_plan_id":"cebpf4jnsgd1na2vs0mg"},{"bike_id":"dddbc3ba-3887-41c2-b8c9-d6ae862ae7f7","system_id":"levelo_inurba_marseille","lat":43.27971,"lon":5.38732,"is_reserved":false,"is_disabled":false,"rental_uris":{"android":"levelo://app?vid=dddbc3ba-3887-41c2-b8c9-d6ae862ae7f7","ios":"levelo://app?vid=dddbc3ba-3887-41c2-b8c9-d6ae862ae7f7"},"vehicle_type_id":"4","last_reported":1753578303,"current_range_meters":6400,"station_id":"ce4bhg12rcd13ifvqf80","pricing_plan_id":"cebpf4jnsgd1na2vs0mg"},{"bike_id":"cd14bd1d-8a6d-481e-9c8f-8f737d607be0","system_id":"levelo_inurba_marseille","lat":43.28692,"lon":5.39992,"is_reserved":false,"is_disabled":false,"rental_uris":{"android":"levelo://app?vid=cd14bd1d-8a6d-481e-9c8f-8f737d607be0","ios":"levelo://app?vid=cd14bd1d-8a6d-481e-9c8f-8f737d607be0"},"vehicle_type_id":"4","last_reported":1753578303,"current_range_meters":6800,"station_id":"ce4bho92rcd13ifvqh3g","pricing_plan_id":"cebpf4jnsgd1na2vs0mg"},{"bike_id":"4d59e1de-b26d-45e9-93ba-2895a9a1ffbd","system_id":"levelo_inurba_marseille","lat":43.295171,"lon":5.386512,"is_reserved":false,"is_disabled":false,"rental_uris":{"android":"levelo://app?vid=4d59e1de-b26d-45e9-93ba-2895a9a1ffbd","ios":"levelo://app?vid=4d59e1de-b26d-45e9-93ba-2895a9a1ffbd"},"vehicle_type_id":"4","last_reported":1753578303,"current_range_meters":6800,"station_id":"","pricing_plan_id":"cebpf4jnsgd1na2vs0mg"},{"bike_id":"078febbd-6d49-4abf-8b46-d33f87f8da46","system_id":"levelo_inurba_marseille","lat":43.25452,"lon":5.38007,"is_reserved":false,"is_disabled":false,"rental_uris":{"android":"levelo://app?vid=078febbd-6d49-4abf-8b46-d33f87f8da46","ios":"levelo://app?vid=078febbd-6d49-4abf-8b46-d33f87f8da46"},"vehicle_type_id":"4","last_reported":1753578303,"current_range_meters":6800,"station_id":"","pricing_plan_id":"cebpf4jnsgd1na2vs0mg"},{"bike_id":"9f2c2b2f-63ef-43ea-a99e-b086901fbdc7","system_id":"levelo_inurba_marseille","lat":43.28353,"lon":5.38096,"is_reserved":false,"is_disabled":false,"rental_uris":{"android":"levelo://app?vid=9f2c2b2f-63ef-43ea-a99e-b086901fbdc7","ios":"levelo://app?vid=9f2c2b2f-63ef-43ea-a99e-b086901fbdc7"},"vehicle_type_id":"4","last_reported":1753578303,"current_range_meters":6800,"station_id":"ce4bh412rcd13ifvqdr0","pricing_plan_id":"cebpf4jnsgd1na2vs0mg"},{"bike_id":"2325751d-867b-49df-8863-056e8656ae73","system_id":"levelo_inurba_marseille","lat":43.30246,"lon":5.40074,"is_reserved":false,"is_disabled":false,"rental_uris":{"android":"levelo://app?vid=2325751d-867b-49df-8863-056e8656ae73","ios":"levelo://app?vid=2325751d-867b-49df-8863-056e8656ae73"},"vehicle_type_id":"4","last_reported":1753578303,"current_range_meters":7200,"station_id":"ce4bgvh2rcd13ifvqcs0","pricing_plan_id":"cebpf4jnsgd1na2vs0mg"},{"bike_id":"f123af25-f5e1-4535-bf9a-e453fb7322cc","system_id":"levelo_inurba_marseille","lat":43.27521,"lon":5.40909,"is_reserved":false,"is_disabled":true,"rental_uris":{"android":"levelo://app?vid=f123af25-f5e1-4535-bf9a-e453fb7322cc","ios":"levelo://app?vid=f123af25-f5e1-4535-bf9a-e453fb7322cc"},"vehicle_type_id":"4","last_reported":1753578303,"current_range_meters":7200,"station_id":"","pricing_plan_id":"cebpf4jnsgd1na2vs0mg"},{"bike_id":"ae716ac4-62fa-4159-b232-c203a802322e","system_id":"levelo_inurba_marseille","lat":43.24546,"lon":5.39521,"is_reserved":false,"is_disabled":false,"rental_uris":{"android":"levelo://app?vid=ae716ac4-62fa-4159-b232-c203a802322e","ios":"levelo://app?vid=ae716ac4-62fa-4159-b232-c203a802322e"},"vehicle_type_id":"4","last_reported":1753578303,"current_range_meters":6800,"station_id":"ce4bhlp2rcd13ifvqgjg","pricing_plan_id":"cebpf4jnsgd1na2vs0mg"},{"bike_id":"68efc304-0d41-4c98-a023-943580f46380","system_id":"levelo_inurba_marseille","lat":43.22504,"lon":5.34796,"is_reserved":false,"is_disabled":true,"rental_uris":{"android":"levelo://app?vid=68efc304-0d41-4c98-a023-943580f46380","ios":"levelo://app?vid=68efc304-0d41-4c98-a023-943580f46380"},"vehicle_type_id":"4","last_reported":1753578303,"current_range_meters":7200,"station_id":"st_cvj5dfep6f1abm77gieg","pricing_plan_id":"cebpf4jnsgd1na2vs0mg"},{"bike_id":"02ad9c89-0406-4b96-a530-c10fdce1f041","system_id":"levelo_inurba_marseille","lat":43.25468,"lon":5.41628,"is_reserved":false,"is_disabled":false,"rental_uris":{"android":"levelo://app?vid=02ad9c89-0406-4b96-a530-c10fdce1f041","ios":"levelo://app?vid=02ad9c89-0406-4b96-a530-c10fdce1f041"},"vehicle_type_id":"4","last_reported":1753578303,"current_range_meters":8000,"station_id":"","pricing_plan_id":"cebpf4jnsgd1na2vs0mg"},{"bike_id":"acdc15f3-f881-4795-bd43-7b1b297ebaa4","system_id":"levelo_inurba_marseille","lat":43.27072,"lon":5.42301,"is_reserved":false,"is_disabled":true,"rental_uris":{"android":"levelo://app?vid=acdc15f3-f881-4795-bd43-7b1b297ebaa4","ios":"levelo://app?vid=acdc15f3-f881-4795-bd43-7b1b297ebaa4"},"vehicle_type_id":"4","last_reported":1753578303,"current_range_meters":8000,"station_id":"ce4bhk92rcd13ifvqgb0","pricing_plan_id":"cebpf4jnsgd1na2vs0mg"},{"bike_id":"512c05fe-3a09-4a1e-a608-5ab230d7729a","system_id":"levelo_inurba_marseille","lat":43.27369,"lon":5.36263,"is_reserved":false,"is_disabled":false,"rental_uris":{"android":"levelo://app?vid=512c05fe-3a09-4a1e-a608-5ab230d7729a","ios":"levelo://app?vid=512c05fe-3a09-4a1e-a608-5ab230d7729a"},"vehicle_type_id":"4","last_reported":1753578303,"current_range_meters":8000,"station_id":"ce4bhbh2rcd13ifvqeo0","pricing_plan_id":"cebpf4jnsgd1na2vs0mg"},{"bike_id":"a0d60e44-246d-4cc0-aef3-dc664879b373","system_id":"levelo_inurba_marseille","lat":43.21777,"lon":5.34606,"is_reserved":false,"is_disabled":true,"rental_uris":{"android":"levelo://app?vid=a0d60e44-246d-4cc0-aef3-dc664879b373","ios":"levelo://app?vid=a0d60e44-246d-4cc0-aef3-dc664879b373"},"vehicle_type_id":"4","last_reported":1753578303,"current_range_meters":8400,"station_id":"st_cvj6r9ubvosntc0bgbag","pricing_plan_id":"cebpf4jnsgd1na2vs0mg"},{"bike_id":"9ecd9ef7-e07c-47cd-a7c3-5ed0d84c5b67","system_id":"levelo_inurba_marseille","lat":43.29141,"lon":5.37452,"is_reserved":false,"is_disabled":false,"rental_uris":{"android":"levelo://app?vid=9ecd9ef7-e07c-47cd-a7c3-5ed0d84c5b67","ios":"levelo://app?vid=9ecd9ef7-e07c-47cd-a7c3-5ed0d84c5b67"},"vehicle_type_id":"4","last_reported":1753578303,"current_range_meters":8400,"station_id":"","pricing_plan_id":"cebpf4jnsgd1na2vs0mg"},{"bike_id":"9a6e12f0-c9ee-4ea2-b889-4400dd98b221","system_id":"levelo_inurba_marseille","lat":43.30148,"lon":5.38081,"is_reserved":false,"is_disabled":false,"rental_uris":{"android":"levelo://app?vid=9a6e12f0-c9ee-4ea2-b889-4400dd98b221","ios":"levelo://app?vid=9a6e12f0-c9ee-4ea2-b889-4400dd98b221"},"vehicle_type_id":"4","last_reported":1753578303,"current_range_meters":8400,"station_id":"ce4bgjp2rcd13ifvqbh0","pricing_plan_id":"cebpf4jnsgd1na2vs0mg"},{"bike_id":"f907f5fc-1c5d-420e-b462-8023f79ec54a","system_id":"levelo_inurba_marseille","lat":43.28736,"lon":5.40016,"is_reserved":false,"is_disabled":false,"rental_uris":{"android":"levelo://app?vid=f907f5fc-1c5d-420e-b462-8023f79ec54a","ios":"levelo://app?vid=f907f5fc-1c5d-420e-b462-8023f79ec54a"},"vehicle_type_id":"4","last_reported":1753578303,"current_range_meters":8400,"station_id":"ce4bho92rcd13ifvqh3g","pricing_plan_id":"cebpf4jnsgd1na2vs0mg"},{"bike_id":"47dba6f9-a813-46aa-a47e-33063f264a67","system_id":"levelo_inurba_marseille","lat":43.30239,"lon":5.40039,"is_reserved":false,"is_disabled":false,"rental_uris":{"android":"levelo://app?vid=47dba6f9-a813-46aa-a47e-33063f264a67","ios":"levelo://app?vid=47dba6f9-a813-46aa-a47e-33063f264a67"},"vehicle_type_id":"4","last_reported":1753578303,"current_range_meters":8400,"station_id":"","pricing_plan_id":"cebpf4jnsgd1na2vs0mg"},{"bike_id":"83a67c65-7f9b-4a81-a80c-c007cd448d24","system_id":"levelo_inurba_marseille","lat":43.292531,"lon":5.384314,"is_reserved":false,"is_disabled":false,"rental_uris":{"android":"levelo://app?vid=83a67c65-7f9b-4a81-a80c-c007cd448d24","ios":"levelo://app?vid=83a67c65-7f9b-4a81-a80c-c007cd448d24"},"vehicle_type_id":"4","last_reported":1753578303,"current_range_meters":8400,"station_id":"","pricing_plan_id":"cebpf4jnsgd1na2vs0mg"},{"bike_id":"ab991371-506a-411d-b1d8-1efc5ac7cde6","system_id":"levelo_inurba_marseille","lat":43.2279,"lon":5.35198,"is_reserved":false,"is_disabled":false,"rental_uris":{"android":"levelo://app?vid=ab991371-506a-411d-b1d8-1efc5ac7cde6","ios":"levelo://app?vid=ab991371-506a-411d-b1d8-1efc5ac7cde6"},"vehicle_type_id":"4","last_reported":1753578303,"current_range_meters":8800,"station_id":"","pricing_plan_id":"cebpf4jnsgd1na2vs0mg"},{"bike_id":"75a52d90-a84e-49e8-9197-7fd3f8d0259a","system_id":"levelo_inurba_marseille","lat":43.262279,"lon":5.37472,"is_reserved":false,"is_disabled":true,"rental_uris":{"android":"levelo://app?vid=75a52d90-a84e-49e8-9197-7fd3f8d0259a","ios":"levelo://app?vid=75a52d90-a84e-49e8-9197-7fd3f8d0259a"},"vehicle_type_id":"4","last_reported":1753578303,"current_range_meters":8800,"station_id":"","pricing_plan_id":"cebpf4jnsgd1na2vs0mg"},{"bike_id":"a3fe9995-2e3e-423b-9540-429a92fa997e","system_id":"levelo_inurba_marseille","lat":43.30198,"lon":5.37159,"is_reserved":false,"is_disabled":false,"rental_uris":{"android":"levelo://app?vid=a3fe9995-2e3e-423b-9540-429a92fa997e","ios":"levelo://app?vid=a3fe9995-2e3e-423b-9540-429a92fa997e"},"vehicle_type_id":"4","last_reported":1753578303,"current_range_meters":8800,"station_id":"","pricing_plan_id":"cebpf4jnsgd1na2vs0mg"},{"bike_id":"712c5cbc-d87f-44d9-aa28-3d0003b6a22e","system_id":"levelo_inurba_marseille","lat":43.27919,"lon":5.39578,"is_reserved":false,"is_disabled":false,"rental_uris":{"android":"levelo://app?vid=712c5cbc-d87f-44d9-aa28-3d0003b6a22e","ios":"levelo://app?vid=712c5cbc-d87f-44d9-aa28-3d0003b6a22e"},"vehicle_type_id":"4","last_reported":1753578303,"current_range_meters":9200,"station_id":"ce4bhf92rcd13ifvqf40","pricing_plan_id":"cebpf4jnsgd1na2vs0mg"},{"bike_id":"22dca147-1260-44d8-822d-d9d1d50cce31","system_id":"levelo_inurba_marseille","lat":43.27451,"lon":5.39495,"is_reserved":false,"is_disabled":false,"rental_uris":{"android":"levelo://app?vid=22dca147-1260-44d8-822d-d9d1d50cce31","ios":"levelo://app?vid=22dca147-1260-44d8-822d-d9d1d50cce31"},"vehicle_type_id":"4","last_reported":1753578303,"current_range_meters":9200,"station_id":"","pricing_plan_id":"cebpf4jnsgd1na2vs0mg"},{"bike_id":"295de28f-5469-421c-873e-076d2fbd1d95","system_id":"levelo_inurba_marseille","lat":43.28619,"lon":5.37072,"is_reserved":false,"is_disabled":false,"rental_uris":{"android":"levelo://app?vid=295de28f-5469-421c-873e-076d2fbd1d95","ios":"levelo://app?vid=295de28f-5469-421c-873e-076d2fbd1d95"},"vehicle_type_id":"4","last_reported":1753578303,"current_range_meters":9200,"station_id":"ce4bht12rcd13ifvqi60","pricing_plan_id":"cebpf4jnsgd1na2vs0mg"},{"bike_id":"6ab0b13c-2ff1-417a-acfd-489d6800d4c9","system_id":"levelo_inurba_marseille","lat":43.27378,"lon":5.36251,"is_reserved":false,"is_disabled":true,"rental_uris":{"android":"levelo://app?vid=6ab0b13c-2ff1-417a-acfd-489d6800d4c9","ios":"levelo://app?vid=6ab0b13c-2ff1-417a-acfd-489d6800d4c9"},"vehicle_type_id":"4","last_reported":1753578303,"current_range_meters":9200,"station_id":"ce4bhbh2rcd13ifvqeo0","pricing_plan_id":"cebpf4jnsgd1na2vs0mg"},{"bike_id":"01919711-51c0-4b9e-863e-584f9a31b4ec","system_id":"levelo_inurba_marseille","lat":43.29908,"lon":5.39756,"is_reserved":false,"is_disabled":true,"rental_uris":{"android":"levelo://app?vid=01919711-51c0-4b9e-863e-584f9a31b4ec","ios":"levelo://app?vid=01919711-51c0-4b9e-863e-584f9a31b4ec"},"vehicle_type_id":"4","last_reported":1753578303,"current_range_meters":9600,"station_id":"ce4bh0h2rcd13ifvqd50","pricing_plan_id":"cebpf4jnsgd1na2vs0mg"},{"bike_id":"8aec49e9-2a7c-473f-936a-01f180d46c56","system_id":"levelo_inurba_marseille","lat":43.225044,"lon":5.347839,"is_reserved":false,"is_disabled":false,"rental_uris":{"android":"levelo://app?vid=8aec49e9-2a7c-473f-936a-01f180d46c56","ios":"levelo://app?vid=8aec49e9-2a7c-473f-936a-01f180d46c56"},"vehicle_type_id":"4","last_reported":1753578303,"current_range_meters":9600,"station_id":"st_cvj5dfep6f1abm77gieg","pricing_plan_id":"cebpf4jnsgd1na2vs0mg"},{"bike_id":"4ec2ea85-cdae-4090-8b53-dd38eb6bc485","system_id":"levelo_inurba_marseille","lat":43.29021,"lon":5.38634,"is_reserved":false,"is_disabled":false,"rental_uris":{"android":"levelo://app?vid=4ec2ea85-cdae-4090-8b53-dd38eb6bc485","ios":"levelo://app?vid=4ec2ea85-cdae-4090-8b53-dd38eb6bc485"},"vehicle_type_id":"4","last_reported":1753578303,"current_range_meters":9600,"station_id":"ce4bh4p2rcd13ifvqe0g","pricing_plan_id":"cebpf4jnsgd1na2vs0mg"},{"bike_id":"2a5e3aea-393c-4667-9518-3fada69eed05","system_id":"levelo_inurba_marseille","lat":43.3015,"lon":5.38089,"is_reserved":false,"is_disabled":false,"rental_uris":{"android":"levelo://app?vid=2a5e3aea-393c-4667-9518-3fada69eed05","ios":"levelo://app?vid=2a5e3aea-393c-4667-9518-3fada69eed05"},"vehicle_type_id":"4","last_reported":1753578303,"current_range_meters":9600,"station_id":"ce4bgjp2rcd13ifvqbh0","pricing_plan_id":"cebpf4jnsgd1na2vs0mg"},{"bike_id":"1e555c6b-044c-4bd1-a690-5b7bdd1ff5ab","system_id":"levelo_inurba_marseille","lat":43.30954,"lon":5.39023,"is_reserved":false,"is_disabled":true,"rental_uris":{"android":"levelo://app?vid=1e555c6b-044c-4bd1-a690-5b7bdd1ff5ab","ios":"levelo://app?vid=1e555c6b-044c-4bd1-a690-5b7bdd1ff5ab"},"vehicle_type_id":"4","last_reported":1753578303,"current_range_meters":10000,"station_id":"ce4bgup2rcd13ifvqco0","pricing_plan_id":"cebpf4jnsgd1na2vs0mg"},{"bike_id":"de99b14c-9afd-4bdd-bc56-50354c110c3d","system_id":"levelo_inurba_marseille","lat":43.25467,"lon":5.37687,"is_reserved":false,"is_disabled":false,"rental_uris":{"android":"levelo://app?vid=de99b14c-9afd-4bdd-bc56-50354c110c3d","ios":"levelo://app?vid=de99b14c-9afd-4bdd-bc56-50354c110c3d"},"vehicle_type_id":"4","last_reported":1753578303,"current_range_meters":10000,"station_id":"","pricing_plan_id":"cebpf4jnsgd1na2vs0mg"},{"bike_id":"410d98fe-c797-4571-9893-28a9c58cc90f","system_id":"levelo_inurba_marseille","lat":43.3033,"lon":5.40448,"is_reserved":false,"is_disabled":false,"rental_uris":{"android":"levelo://app?vid=410d98fe-c797-4571-9893-28a9c58cc90f","ios":"levelo://app?vid=410d98fe-c797-4571-9893-28a9c58cc90f"},"vehicle_type_id":"4","last_reported":1753578303,"current_range_meters":10000,"station_id":"ce4bh012rcd13ifvqd10","pricing_plan_id":"cebpf4jnsgd1na2vs0mg"},{"bike_id":"17587eb0-2b05-4e15-a0ba-85ddd5017d33","system_id":"levelo_inurba_marseille","lat":43.28463,"lon":5.3839,"is_reserved":false,"is_disabled":false,"rental_uris":{"android":"levelo://app?vid=17587eb0-2b05-4e15-a0ba-85ddd5017d33","ios":"levelo://app?vid=17587eb0-2b05-4e15-a0ba-85ddd5017d33"},"vehicle_type_id":"4","last_reported":1753578303,"current_range_meters":10000,"station_id":"ce4bh512rcd13ifvqe3g","pricing_plan_id":"cebpf4jnsgd1na2vs0mg"},{"bike_id":"57755280-973c-4ff3-9c25-8f15e2c5b510","system_id":"levelo_inurba_marseille","lat":43.31872,"lon":5.37373,"is_reserved":false,"is_disabled":true,"rental_uris":{"android":"levelo://app?vid=57755280-973c-4ff3-9c25-8f15e2c5b510","ios":"levelo://app?vid=57755280-973c-4ff3-9c25-8f15e2c5b510"},"vehicle_type_id":"4","last_reported":1753578303,"current_range_meters":10000,"station_id":"","pricing_plan_id":"cebpf4jnsgd1na2vs0mg"},{"bike_id":"f2c0d178-a474-46a0-b002-379a7a30c411","system_id":"levelo_inurba_marseille","lat":43.29412,"lon":5.37595,"is_reserved":false,"is_disabled":false,"rental_uris":{"android":"levelo://app?vid=f2c0d178-a474-46a0-b002-379a7a30c411","ios":"levelo://app?vid=f2c0d178-a474-46a0-b002-379a7a30c411"},"vehicle_type_id":"4","last_reported":1753578303,"current_range_meters":10800,"station_id":"","pricing_plan_id":"cebpf4jnsgd1na2vs0mg"},{"bike_id":"315d4637-0f05-4e02-ae0b-52e018b5ade9","system_id":"levelo_inurba_marseille","lat":43.288422,"lon":5.393183,"is_reserved":false,"is_disabled":false,"rental_uris":{"android":"levelo://app?vid=315d4637-0f05-4e02-ae0b-52e018b5ade9","ios":"levelo://app?vid=315d4637-0f05-4e02-ae0b-52e018b5ade9"},"vehicle_type_id":"4","last_reported":1753578303,"current_range_meters":10800,"station_id":"ce4bh2p2rcd13ifvqdi0","pricing_plan_id":"cebpf4jnsgd1na2vs0mg"},{"bike_id":"d8ede7a6-2370-4585-9b4e-834634539090","system_id":"levelo_inurba_marseille","lat":43.22506,"lon":5.34784,"is_reserved":false,"is_disabled":false,"rental_uris":{"android":"levelo://app?vid=d8ede7a6-2370-4585-9b4e-834634539090","ios":"levelo://app?vid=d8ede7a6-2370-4585-9b4e-834634539090"},"vehicle_type_id":"4","last_reported":1753578303,"current_range_meters":10800,"station_id":"st_cvj5dfep6f1abm77gieg","pricing_plan_id":"cebpf4jnsgd1na2vs0mg"},{"bike_id":"0f05bf57-11bc-4119-ae6c-2617b99d6882","system_id":"levelo_inurba_marseille","lat":43.28471,"lon":5.35886,"is_reserved":false,"is_disabled":false,"rental_uris":{"android":"levelo://app?vid=0f05bf57-11bc-4119-ae6c-2617b99d6882","ios":"levelo://app?vid=0f05bf57-11bc-4119-ae6c-2617b99d6882"},"vehicle_type_id":"4","last_reported":1753578303,"current_range_meters":10800,"station_id":"ce4bhah2rcd13ifvqei0","pricing_plan_id":"cebpf4jnsgd1na2vs0mg"},{"bike_id":"3594dc8a-6a93-46ec-afcc-0f2d25f4fa0b","system_id":"levelo_inurba_marseille","lat":43.28734,"lon":5.36079,"is_reserved":false,"is_disabled":false,"rental_uris":{"android":"levelo://app?vid=3594dc8a-6a93-46ec-afcc-0f2d25f4fa0b","ios":"levelo://app?vid=3594dc8a-6a93-46ec-afcc-0f2d25f4fa0b"},"vehicle_type_id":"4","last_reported":1753578303,"current_range_meters":10800,"station_id":"cki0cbj6b192h4jlfktg","pricing_plan_id":"cebpf4jnsgd1na2vs0mg"},{"bike_id":"80cda384-a0de-4854-88d7-81c5eb0a10d1","system_id":"levelo_inurba_marseille","lat":43.28921,"lon":5.36411,"is_reserved":false,"is_disabled":true,"rental_uris":{"android":"levelo://app?vid=80cda384-a0de-4854-88d7-81c5eb0a10d1","ios":"levelo://app?vid=80cda384-a0de-4854-88d7-81c5eb0a10d1"},"vehicle_type_id":"4","last_reported":1753578303,"current_range_meters":11200,"station_id":"ce4bhc92rcd13ifvqetg","pricing_plan_id":"cebpf4jnsgd1na2vs0mg"},{"bike_id":"d00b6abc-174d-48a1-8e37-47955a519e3f","system_id":"levelo_inurba_marseille","lat":43.22931,"lon":5.35377,"is_reserved":false,"is_disabled":false,"rental_uris":{"android":"levelo://app?vid=d00b6abc-174d-48a1-8e37-47955a519e3f","ios":"levelo://app?vid=d00b6abc-174d-48a1-8e37-47955a519e3f"},"vehicle_type_id":"4","last_reported":1753578303,"current_range_meters":11600,"station_id":"cpo3532slgdg3j2ikp40","pricing_plan_id":"cebpf4jnsgd1na2vs0mg"},{"bike_id":"1b4f060d-024e-4b5b-a67b-2d78d44d6edb","system_id":"levelo_inurba_marseille","lat":43.22507,"lon":5.34779,"is_reserved":false,"is_disabled":true,"rental_uris":{"android":"levelo://app?vid=1b4f060d-024e-4b5b-a67b-2d78d44d6edb","ios":"levelo://app?vid=1b4f060d-024e-4b5b-a67b-2d78d44d6edb"},"vehicle_type_id":"4","last_reported":1753578303,"current_range_meters":11600,"station_id":"st_cvj5dfep6f1abm77gieg","pricing_plan_id":"cebpf4jnsgd1na2vs0mg"},{"bike_id":"409d2564-e8be-49dd-8c33-bd04b23f279e","system_id":"levelo_inurba_marseille","lat":43.29369,"lon":5.37275,"is_reserved":false,"is_disabled":false,"rental_uris":{"android":"levelo://app?vid=409d2564-e8be-49dd-8c33-bd04b23f279e","ios":"levelo://app?vid=409d2564-e8be-49dd-8c33-bd04b23f279e"},"vehicle_type_id":"4","last_reported":1753578303,"current_range_meters":11600,"station_id":"","pricing_plan_id":"cebpf4jnsgd1na2vs0mg"},{"bike_id":"43cf4049-15dd-4e8c-88a8-61cd8dc10bf5","system_id":"levelo_inurba_marseille","lat":43.332347,"lon":5.378803,"is_reserved":false,"is_disabled":true,"rental_uris":{"android":"levelo://app?vid=43cf4049-15dd-4e8c-88a8-61cd8dc10bf5","ios":"levelo://app?vid=43cf4049-15dd-4e8c-88a8-61cd8dc10bf5"},"vehicle_type_id":"4","last_reported":1753578303,"current_range_meters":11600,"station_id":"","pricing_plan_id":"cebpf4jnsgd1na2vs0mg"},{"bike_id":"c579ff75-cd9b-45c6-a6dc-35ac53a5f916","system_id":"levelo_inurba_marseille","lat":43.27947,"lon":5.41049,"is_reserved":false,"is_disabled":false,"rental_uris":{"android":"levelo://app?vid=c579ff75-cd9b-45c6-a6dc-35ac53a5f916","ios":"levelo://app?vid=c579ff75-cd9b-45c6-a6dc-35ac53a5f916"},"vehicle_type_id":"4","last_reported":1753578303,"current_range_meters":11600,"station_id":"ce4bhnp2rcd13ifvqh0g","pricing_plan_id":"cebpf4jnsgd1na2vs0mg"},{"bike_id":"dd5b3db2-62f9-4716-992d-435138b6493d","system_id":"levelo_inurba_marseille","lat":43.30793,"lon":5.3817,"is_reserved":false,"is_disabled":true,"rental_uris":{"android":"levelo://app?vid=dd5b3db2-62f9-4716-992d-435138b6493d","ios":"levelo://app?vid=dd5b3db2-62f9-4716-992d-435138b6493d"},"vehicle_type_id":"4","last_reported":1753578303,"current_range_meters":11600,"station_id":"ce4bgt12rcd13ifvqce0","pricing_plan_id":"cebpf4jnsgd1na2vs0mg"},{"bike_id":"2fa9dd39-7ea8-42db-9ead-ca5e3675e815","system_id":"levelo_inurba_marseille","lat":43.30201,"lon":5.3949,"is_reserved":false,"is_disabled":true,"rental_uris":{"android":"levelo://app?vid=2fa9dd39-7ea8-42db-9ead-ca5e3675e815","ios":"levelo://app?vid=2fa9dd39-7ea8-42db-9ead-ca5e3675e815"},"vehicle_type_id":"4","last_reported":1753578303,"current_range_meters":11600,"station_id":"ce4bh0p2rcd13ifvqd70","pricing_plan_id":"cebpf4jnsgd1na2vs0mg"},{"bike_id":"c3c2652b-f2d7-4ed4-89ec-9559feb01451","system_id":"levelo_inurba_marseille","lat":43.29226,"lon":5.360481,"is_reserved":false,"is_disabled":true,"rental_uris":{"android":"levelo://app?vid=c3c2652b-f2d7-4ed4-89ec-9559feb01451","ios":"levelo://app?vid=c3c2652b-f2d7-4ed4-89ec-9559feb01451"},"vehicle_type_id":"4","last_reported":1753578303,"current_range_meters":12000,"station_id":"ce4bhbh2rcd13ifvqeqg","pricing_plan_id":"cebpf4jnsgd1na2vs0mg"},{"bike_id":"6b510d14-9e1c-4bdc-9612-0691375a8d95","system_id":"levelo_inurba_marseille","lat":43.29038,"lon":5.35883,"is_reserved":false,"is_disabled":false,"rental_uris":{"android":"levelo://app?vid=6b510d14-9e1c-4bdc-9612-0691375a8d95","ios":"levelo://app?vid=6b510d14-9e1c-4bdc-9612-0691375a8d95"},"vehicle_type_id":"4","last_reported":1753578303,"current_range_meters":12000,"station_id":"ce4bha92rcd13ifvqeg0","pricing_plan_id":"cebpf4jnsgd1na2vs0mg"},{"bike_id":"4e97a19b-88ac-4646-bb67-c4e1763b513d","system_id":"levelo_inurba_marseille","lat":43.29247,"lon":5.38429,"is_reserved":false,"is_disabled":true,"rental_uris":{"android":"levelo://app?vid=4e97a19b-88ac-4646-bb67-c4e1763b513d","ios":"levelo://app?vid=4e97a19b-88ac-4646-bb67-c4e1763b513d"},"vehicle_type_id":"4","last_reported":1753578303,"current_range_meters":12000,"station_id":"ce4bh692rcd13ifvqea0","pricing_plan_id":"cebpf4jnsgd1na2vs0mg"},{"bike_id":"9377d52d-7c04-4205-81e5-05265b3eabff","system_id":"levelo_inurba_marseille","lat":43.287106,"lon":5.379499,"is_reserved":false,"is_disabled":true,"rental_uris":{"android":"levelo://app?vid=9377d52d-7c04-4205-81e5-05265b3eabff","ios":"levelo://app?vid=9377d52d-7c04-4205-81e5-05265b3eabff"},"vehicle_type_id":"4","last_reported":1753578303,"current_range_meters":12400,"station_id":"ce4bh9p2rcd13ifvqec0","pricing_plan_id":"cebpf4jnsgd1na2vs0mg"},{"bike_id":"b6751497-a40a-45f8-83f1-ad7426e2abbb","system_id":"levelo_inurba_marseille","lat":43.31081,"lon":5.3778,"is_reserved":false,"is_disabled":false,"rental_uris":{"android":"levelo://app?vid=b6751497-a40a-45f8-83f1-ad7426e2abbb","ios":"levelo://app?vid=b6751497-a40a-45f8-83f1-ad7426e2abbb"},"vehicle_type_id":"4","last_reported":1753578303,"current_range_meters":12400,"station_id":"ce4bgt92rcd13ifvqcg0","pricing_plan_id":"cebpf4jnsgd1na2vs0mg"},{"bike_id":"4f069cb2-e85f-44ab-8659-b3444c19b657","system_id":"levelo_inurba_marseille","lat":43.23193,"lon":5.35562,"is_reserved":false,"is_disabled":false,"rental_uris":{"android":"levelo://app?vid=4f069cb2-e85f-44ab-8659-b3444c19b657","ios":"levelo://app?vid=4f069cb2-e85f-44ab-8659-b3444c19b657"},"vehicle_type_id":"4","last_reported":1753578303,"current_range_meters":12400,"station_id":"ce4bhu92rcd13ifvqi70","pricing_plan_id":"cebpf4jnsgd1na2vs0mg"},{"bike_id":"61cd7fe3-237f-4708-afc7-dd8a81b4454c","system_id":"levelo_inurba_marseille","lat":43.22929,"lon":5.35368,"is_reserved":false,"is_disabled":false,"rental_uris":{"android":"levelo://app?vid=61cd7fe3-237f-4708-afc7-dd8a81b4454c","ios":"levelo://app?vid=61cd7fe3-237f-4708-afc7-dd8a81b4454c"},"vehicle_type_id":"4","last_reported":1753578303,"current_range_meters":12400,"station_id":"cpo3532slgdg3j2ikp40","pricing_plan_id":"cebpf4jnsgd1na2vs0mg"},{"bike_id":"1bc45126-5a42-4554-aade-2c8d76493896","system_id":"levelo_inurba_marseille","lat":43.31372,"lon":5.38495,"is_reserved":false,"is_disabled":false,"rental_uris":{"android":"levelo://app?vid=1bc45126-5a42-4554-aade-2c8d76493896","ios":"levelo://app?vid=1bc45126-5a42-4554-aade-2c8d76493896"},"vehicle_type_id":"4","last_reported":1753578303,"current_range_meters":12400,"station_id":"ce4bgt92rcd13ifvqcf0","pricing_plan_id":"cebpf4jnsgd1na2vs0mg"},{"bike_id":"3e7f512d-c1e0-49b1-a237-1dd2b80e25e7","system_id":"levelo_inurba_marseille","lat":43.24069,"lon":5.377759,"is_reserved":false,"is_disabled":false,"rental_uris":{"android":"levelo://app?vid=3e7f512d-c1e0-49b1-a237-1dd2b80e25e7","ios":"levelo://app?vid=3e7f512d-c1e0-49b1-a237-1dd2b80e25e7"},"vehicle_type_id":"4","last_reported":1753578303,"current_range_meters":12400,"station_id":"ce4bhnp2rcd13ifvqgvg","pricing_plan_id":"cebpf4jnsgd1na2vs0mg"},{"bike_id":"0b4f3a1c-f594-4857-b9a0-833a93216045","system_id":"levelo_inurba_marseille","lat":43.29773,"lon":5.37117,"is_reserved":false,"is_disabled":false,"rental_uris":{"android":"levelo://app?vid=0b4f3a1c-f594-4857-b9a0-833a93216045","ios":"levelo://app?vid=0b4f3a1c-f594-4857-b9a0-833a93216045"},"vehicle_type_id":"4","last_reported":1753578303,"current_range_meters":12400,"station_id":"ce4bgop2rcd13ifvqc1g","pricing_plan_id":"cebpf4jnsgd1na2vs0mg"},{"bike_id":"30b61633-e36b-4756-8e94-e9d6fa0a1bc7","system_id":"levelo_inurba_marseille","lat":43.31248,"lon":5.36854,"is_reserved":false,"is_disabled":false,"rental_uris":{"android":"levelo://app?vid=30b61633-e36b-4756-8e94-e9d6fa0a1bc7","ios":"levelo://app?vid=30b61633-e36b-4756-8e94-e9d6fa0a1bc7"},"vehicle_type_id":"4","last_reported":1753578303,"current_range_meters":12000,"station_id":"ce4bgl92rcd13ifvqbq0","pricing_plan_id":"cebpf4jnsgd1na2vs0mg"},{"bike_id":"bb0db1a8-1b0c-444a-bb9a-ea686810084f","system_id":"levelo_inurba_marseille","lat":43.22525,"lon":5.34764,"is_reserved":false,"is_disabled":false,"rental_uris":{"android":"levelo://app?vid=bb0db1a8-1b0c-444a-bb9a-ea686810084f","ios":"levelo://app?vid=bb0db1a8-1b0c-444a-bb9a-ea686810084f"},"vehicle_type_id":"4","last_reported":1753578303,"current_range_meters":12400,"station_id":"st_cvj5dfep6f1abm77gieg","pricing_plan_id":"cebpf4jnsgd1na2vs0mg"},{"bike_id":"7e65c5ea-0429-45f5-a396-bd32e67f0744","system_id":"levelo_inurba_marseille","lat":43.33464,"lon":5.40045,"is_reserved":false,"is_disabled":false,"rental_uris":{"android":"levelo://app?vid=7e65c5ea-0429-45f5-a396-bd32e67f0744","ios":"levelo://app?vid=7e65c5ea-0429-45f5-a396-bd32e67f0744"},"vehicle_type_id":"4","last_reported":1753578303,"current_range_meters":12400,"station_id":"","pricing_plan_id":"cebpf4jnsgd1na2vs0mg"},{"bike_id":"4e30dad7-6a5e-436d-a838-2e1a9dc87149","system_id":"levelo_inurba_marseille","lat":43.24543,"lon":5.39519,"is_reserved":false,"is_disabled":false,"rental_uris":{"android":"levelo://app?vid=4e30dad7-6a5e-436d-a838-2e1a9dc87149","ios":"levelo://app?vid=4e30dad7-6a5e-436d-a838-2e1a9dc87149"},"vehicle_type_id":"4","last_reported":1753578303,"current_range_meters":12400,"station_id":"ce4bhlp2rcd13ifvqgjg","pricing_plan_id":"cebpf4jnsgd1na2vs0mg"},{"bike_id":"76874c93-4196-48c1-b4ce-9dc79e3034f2","system_id":"levelo_inurba_marseille","lat":43.31767,"lon":5.39035,"is_reserved":false,"is_disabled":false,"rental_uris":{"android":"levelo://app?vid=76874c93-4196-48c1-b4ce-9dc79e3034f2","ios":"levelo://app?vid=76874c93-4196-48c1-b4ce-9dc79e3034f2"},"vehicle_type_id":"4","last_reported":1753578303,"current_range_meters":12800,"station_id":"ce4bhqp2rcd13ifvqhng","pricing_plan_id":"cebpf4jnsgd1na2vs0mg"},{"bike_id":"d5a63dee-a415-40f6-88a8-f1d25d6ddaa1","system_id":"levelo_inurba_marseille","lat":43.290311,"lon":5.399895,"is_reserved":false,"is_disabled":true,"rental_uris":{"android":"levelo://app?vid=d5a63dee-a415-40f6-88a8-f1d25d6ddaa1","ios":"levelo://app?vid=d5a63dee-a415-40f6-88a8-f1d25d6ddaa1"},"vehicle_type_id":"4","last_reported":1753578303,"current_range_meters":12800,"station_id":"ce4bh392rcd13ifvqdm0","pricing_plan_id":"cebpf4jnsgd1na2vs0mg"},{"bike_id":"f3d9f4e3-18e1-46b0-943e-1414afeca2da","system_id":"levelo_inurba_marseille","lat":43.22929,"lon":5.35388,"is_reserved":false,"is_disabled":false,"rental_uris":{"android":"levelo://app?vid=f3d9f4e3-18e1-46b0-943e-1414afeca2da","ios":"levelo://app?vid=f3d9f4e3-18e1-46b0-943e-1414afeca2da"},"vehicle_type_id":"4","last_reported":1753578303,"current_range_meters":12800,"station_id":"cpo3532slgdg3j2ikp40","pricing_plan_id":"cebpf4jnsgd1na2vs0mg"},{"bike_id":"c2009450-b665-4a04-9f86-57caccdb1a7a","system_id":"levelo_inurba_marseille","lat":43.29446,"lon":5.38629,"is_reserved":false,"is_disabled":false,"rental_uris":{"android":"levelo://app?vid=c2009450-b665-4a04-9f86-57caccdb1a7a","ios":"levelo://app?vid=c2009450-b665-4a04-9f86-57caccdb1a7a"},"vehicle_type_id":"4","last_reported":1753578303,"current_range_meters":12800,"station_id":"","pricing_plan_id":"cebpf4jnsgd1na2vs0mg"},{"bike_id":"c5794c7a-bb35-409f-9175-7d8933c8fd68","system_id":"levelo_inurba_marseille","lat":43.3111,"lon":5.39612,"is_reserved":false,"is_disabled":false,"rental_uris":{"android":"levelo://app?vid=c5794c7a-bb35-409f-9175-7d8933c8fd68","ios":"levelo://app?vid=c5794c7a-bb35-409f-9175-7d8933c8fd68"},"vehicle_type_id":"4","last_reported":1753578303,"current_range_meters":12800,"station_id":"","pricing_plan_id":"cebpf4jnsgd1na2vs0mg"},{"bike_id":"a1d5115b-997f-44a5-8b4b-21cb29757407","system_id":"levelo_inurba_marseille","lat":43.312177,"lon":5.373272,"is_reserved":false,"is_disabled":false,"rental_uris":{"android":"levelo://app?vid=a1d5115b-997f-44a5-8b4b-21cb29757407","ios":"levelo://app?vid=a1d5115b-997f-44a5-8b4b-21cb29757407"},"vehicle_type_id":"4","last_reported":1753578303,"current_range_meters":12800,"station_id":"","pricing_plan_id":"cebpf4jnsgd1na2vs0mg"},{"bike_id":"729d684c-54dc-4575-9b94-d18f7a3da218","system_id":"levelo_inurba_marseille","lat":43.24547,"lon":5.39516,"is_reserved":false,"is_disabled":false,"rental_uris":{"android":"levelo://app?vid=729d684c-54dc-4575-9b94-d18f7a3da218","ios":"levelo://app?vid=729d684c-54dc-4575-9b94-d18f7a3da218"},"vehicle_type_id":"4","last_reported":1753578303,"current_range_meters":12800,"station_id":"ce4bhlp2rcd13ifvqgjg","pricing_plan_id":"cebpf4jnsgd1na2vs0mg"},{"bike_id":"df0f791d-69db-4d83-b453-7bc2067da214","system_id":"levelo_inurba_marseille","lat":43.2306,"lon":5.35484,"is_reserved":false,"is_disabled":false,"rental_uris":{"android":"levelo://app?vid=df0f791d-69db-4d83-b453-7bc2067da214","ios":"levelo://app?vid=df0f791d-69db-4d83-b453-7bc2067da214"},"vehicle_type_id":"4","last_reported":1753578303,"current_range_meters":12800,"station_id":"cpo3342slgdg3j2ifvpg","pricing_plan_id":"cebpf4jnsgd1na2vs0mg"},{"bike_id":"a7d896f9-ed90-400f-b521-60f094bf2ab7","system_id":"levelo_inurba_marseille","lat":43.21194,"lon":5.35077,"is_reserved":false,"is_disabled":false,"rental_uris":{"android":"levelo://app?vid=a7d896f9-ed90-400f-b521-60f094bf2ab7","ios":"levelo://app?vid=a7d896f9-ed90-400f-b521-60f094bf2ab7"},"vehicle_type_id":"4","last_reported":1753578303,"current_range_meters":13600,"station_id":"st_cvj6sg6p6f1abm77japg","pricing_plan_id":"cebpf4jnsgd1na2vs0mg"},{"bike_id":"898d1f8e-e261-4f25-9386-a6825028d102","system_id":"levelo_inurba_marseille","lat":43.2905,"lon":5.47358,"is_reserved":false,"is_disabled":false,"rental_uris":{"android":"levelo://app?vid=898d1f8e-e261-4f25-9386-a6825028d102","ios":"levelo://app?vid=898d1f8e-e261-4f25-9386-a6825028d102"},"vehicle_type_id":"4","last_reported":1753578303,"current_range_meters":13600,"station_id":"","pricing_plan_id":"cebpf4jnsgd1na2vs0mg"},{"bike_id":"b895b54e-07d8-473e-85aa-63378254c806","system_id":"levelo_inurba_marseille","lat":43.22932,"lon":5.35374,"is_reserved":false,"is_disabled":false,"rental_uris":{"android":"levelo://app?vid=b895b54e-07d8-473e-85aa-63378254c806","ios":"levelo://app?vid=b895b54e-07d8-473e-85aa-63378254c806"},"vehicle_type_id":"4","last_reported":1753578303,"current_range_meters":13600,"station_id":"cpo3532slgdg3j2ikp40","pricing_plan_id":"cebpf4jnsgd1na2vs0mg"},{"bike_id":"a05343f6-5345-451e-92c9-8d14b4ec04eb","system_id":"levelo_inurba_marseille","lat":43.314919,"lon":5.373082,"is_reserved":false,"is_disabled":false,"rental_uris":{"android":"levelo://app?vid=a05343f6-5345-451e-92c9-8d14b4ec04eb","ios":"levelo://app?vid=a05343f6-5345-451e-92c9-8d14b4ec04eb"},"vehicle_type_id":"4","last_reported":1753578303,"current_range_meters":13600,"station_id":"","pricing_plan_id":"cebpf4jnsgd1na2vs0mg"},{"bike_id":"1e5c96a6-9d0f-4d5f-85ef-5a5f8ac0317a","system_id":"levelo_inurba_marseille","lat":43.33425,"lon":5.39153,"is_reserved":false,"is_disabled":false,"rental_uris":{"android":"levelo://app?vid=1e5c96a6-9d0f-4d5f-85ef-5a5f8ac0317a","ios":"levelo://app?vid=1e5c96a6-9d0f-4d5f-85ef-5a5f8ac0317a"},"vehicle_type_id":"4","last_reported":1753578303,"current_range_meters":13600,"station_id":"","pricing_plan_id":"cebpf4jnsgd1na2vs0mg"},{"bike_id":"7d616f04-8b46-4eea-809b-c13f17176d26","system_id":"levelo_inurba_marseille","lat":43.304317,"lon":5.388882,"is_reserved":false,"is_disabled":false,"rental_uris":{"android":"levelo://app?vid=7d616f04-8b46-4eea-809b-c13f17176d26","ios":"levelo://app?vid=7d616f04-8b46-4eea-809b-c13f17176d26"},"vehicle_type_id":"4","last_reported":1753578303,"current_range_meters":13600,"station_id":"ce4bgk12rcd13ifvqbi0","pricing_plan_id":"cebpf4jnsgd1na2vs0mg"},{"bike_id":"02cab979-ccb2-40ce-bd89-cd624415fc04","system_id":"levelo_inurba_marseille","lat":43.27777,"lon":5.39952,"is_reserved":false,"is_disabled":false,"rental_uris":{"android":"levelo://app?vid=02cab979-ccb2-40ce-bd89-cd624415fc04","ios":"levelo://app?vid=02cab979-ccb2-40ce-bd89-cd624415fc04"},"vehicle_type_id":"4","last_reported":1753578303,"current_range_meters":13600,"station_id":"","pricing_plan_id":"cebpf4jnsgd1na2vs0mg"},{"bike_id":"690bdb28-ab22-4b3f-846e-0b505f9cd023","system_id":"levelo_inurba_marseille","lat":43.28538,"lon":5.38441,"is_reserved":false,"is_disabled":false,"rental_uris":{"android":"levelo://app?vid=690bdb28-ab22-4b3f-846e-0b505f9cd023","ios":"levelo://app?vid=690bdb28-ab22-4b3f-846e-0b505f9cd023"},"vehicle_type_id":"4","last_reported":1753578303,"current_range_meters":14000,"station_id":"ce4bh512rcd13ifvqe3g","pricing_plan_id":"cebpf4jnsgd1na2vs0mg"},{"bike_id":"0c11f6c1-8064-42f4-a9d5-3b25c443f052","system_id":"levelo_inurba_marseille","lat":43.22924,"lon":5.35388,"is_reserved":false,"is_disabled":false,"rental_uris":{"android":"levelo://app?vid=0c11f6c1-8064-42f4-a9d5-3b25c443f052","ios":"levelo://app?vid=0c11f6c1-8064-42f4-a9d5-3b25c443f052"},"vehicle_type_id":"4","last_reported":1753578303,"current_range_meters":14000,"station_id":"cpo3532slgdg3j2ikp40","pricing_plan_id":"cebpf4jnsgd1na2vs0mg"},{"bike_id":"9dfdeb8a-ee13-4931-94b4-ad2b5f23aa4b","system_id":"levelo_inurba_marseille","lat":43.23193,"lon":5.3999,"is_reserved":false,"is_disabled":true,"rental_uris":{"android":"levelo://app?vid=9dfdeb8a-ee13-4931-94b4-ad2b5f23aa4b","ios":"levelo://app?vid=9dfdeb8a-ee13-4931-94b4-ad2b5f23aa4b"},"vehicle_type_id":"4","last_reported":1753578303,"current_range_meters":14000,"station_id":"ce4bhn12rcd13ifvqgqg","pricing_plan_id":"cebpf4jnsgd1na2vs0mg"},{"bike_id":"bdc8ef21-146d-46ff-9c91-249dba0037c7","system_id":"levelo_inurba_marseille","lat":43.229196,"lon":5.353835,"is_reserved":false,"is_disabled":false,"rental_uris":{"android":"levelo://app?vid=bdc8ef21-146d-46ff-9c91-249dba0037c7","ios":"levelo://app?vid=bdc8ef21-146d-46ff-9c91-249dba0037c7"},"vehicle_type_id":"4","last_reported":1753578303,"current_range_meters":14000,"station_id":"cpo3532slgdg3j2ikp40","pricing_plan_id":"cebpf4jnsgd1na2vs0mg"},{"bike_id":"c23df043-d598-4a2a-a0ec-87b67e9647eb","system_id":"levelo_inurba_marseille","lat":43.29091,"lon":5.38138,"is_reserved":false,"is_disabled":true,"rental_uris":{"android":"levelo://app?vid=c23df043-d598-4a2a-a0ec-87b67e9647eb","ios":"levelo://app?vid=c23df043-d598-4a2a-a0ec-87b67e9647eb"},"vehicle_type_id":"4","last_reported":1753578303,"current_range_meters":14000,"station_id":"ce4bh512rcd13ifvqe2g","pricing_plan_id":"cebpf4jnsgd1na2vs0mg"},{"bike_id":"9a8ae43d-c596-4a81-b057-1b4c3f898d7a","system_id":"levelo_inurba_marseille","lat":43.28484,"lon":5.38406,"is_reserved":false,"is_disabled":false,"rental_uris":{"android":"levelo://app?vid=9a8ae43d-c596-4a81-b057-1b4c3f898d7a","ios":"levelo://app?vid=9a8ae43d-c596-4a81-b057-1b4c3f898d7a"},"vehicle_type_id":"4","last_reported":1753578303,"current_range_meters":14000,"station_id":"ce4bh512rcd13ifvqe3g","pricing_plan_id":"cebpf4jnsgd1na2vs0mg"},{"bike_id":"43dbc09e-d0e4-4ddb-bafe-4f55874d23a9","system_id":"levelo_inurba_marseille","lat":43.30235,"lon":5.38233,"is_reserved":false,"is_disabled":false,"rental_uris":{"android":"levelo://app?vid=43dbc09e-d0e4-4ddb-bafe-4f55874d23a9","ios":"levelo://app?vid=43dbc09e-d0e4-4ddb-bafe-4f55874d23a9"},"vehicle_type_id":"4","last_reported":1753578303,"current_range_meters":14000,"station_id":"","pricing_plan_id":"cebpf4jnsgd1na2vs0mg"},{"bike_id":"c5cedffd-93ed-45a3-acf9-7eedb773cebe","system_id":"levelo_inurba_marseille","lat":43.304513,"lon":5.378986,"is_reserved":false,"is_disabled":false,"rental_uris":{"android":"levelo://app?vid=c5cedffd-93ed-45a3-acf9-7eedb773cebe","ios":"levelo://app?vid=c5cedffd-93ed-45a3-acf9-7eedb773cebe"},"vehicle_type_id":"4","last_reported":1753578303,"current_range_meters":14000,"station_id":"ce4bgup2rcd13ifvqcn0","pricing_plan_id":"cebpf4jnsgd1na2vs0mg"},{"bike_id":"919d2719-3da0-4986-a091-8d9cbe29bf63","system_id":"levelo_inurba_marseille","lat":43.28704,"lon":5.3739,"is_reserved":false,"is_disabled":false,"rental_uris":{"android":"levelo://app?vid=919d2719-3da0-4986-a091-8d9cbe29bf63","ios":"levelo://app?vid=919d2719-3da0-4986-a091-8d9cbe29bf63"},"vehicle_type_id":"4","last_reported":1753578303,"current_range_meters":14000,"station_id":"ce4bh3p2rcd13ifvqdq0","pricing_plan_id":"cebpf4jnsgd1na2vs0mg"},{"bike_id":"54405b04-0f04-4c64-af8f-9ccbb34ae9ba","system_id":"levelo_inurba_marseille","lat":43.28028,"lon":5.36954,"is_reserved":false,"is_disabled":false,"rental_uris":{"android":"levelo://app?vid=54405b04-0f04-4c64-af8f-9ccbb34ae9ba","ios":"levelo://app?vid=54405b04-0f04-4c64-af8f-9ccbb34ae9ba"},"vehicle_type_id":"4","last_reported":1753578303,"current_range_meters":14400,"station_id":"ce4bha12rcd13ifvqef0","pricing_plan_id":"cebpf4jnsgd1na2vs0mg"},{"bike_id":"1a8dca22-c656-4807-8819-ff03a2da9bf4","system_id":"levelo_inurba_marseille","lat":43.31047,"lon":5.38367,"is_reserved":false,"is_disabled":false,"rental_uris":{"android":"levelo://app?vid=1a8dca22-c656-4807-8819-ff03a2da9bf4","ios":"levelo://app?vid=1a8dca22-c656-4807-8819-ff03a2da9bf4"},"vehicle_type_id":"4","last_reported":1753578303,"current_range_meters":14400,"station_id":"ce4bgv92rcd13ifvqcr0","pricing_plan_id":"cebpf4jnsgd1na2vs0mg"},{"bike_id":"5bf82014-71a9-4f74-a928-bfd656e576ca","system_id":"levelo_inurba_marseille","lat":43.29884,"lon":5.38912,"is_reserved":false,"is_disabled":false,"rental_uris":{"android":"levelo://app?vid=5bf82014-71a9-4f74-a928-bfd656e576ca","ios":"levelo://app?vid=5bf82014-71a9-4f74-a928-bfd656e576ca"},"vehicle_type_id":"4","last_reported":1753578303,"current_range_meters":14400,"station_id":"ce4bh392rcd13ifvqdl0","pricing_plan_id":"cebpf4jnsgd1na2vs0mg"},{"bike_id":"1533361c-c8b0-46c4-bb07-47847e110ffc","system_id":"levelo_inurba_marseille","lat":43.28186,"lon":5.42649,"is_reserved":false,"is_disabled":false,"rental_uris":{"android":"levelo://app?vid=1533361c-c8b0-46c4-bb07-47847e110ffc","ios":"levelo://app?vid=1533361c-c8b0-46c4-bb07-47847e110ffc"},"vehicle_type_id":"4","last_reported":1753578303,"current_range_meters":14400,"station_id":"ce4bhnh2rcd13ifvqgug","pricing_plan_id":"cebpf4jnsgd1na2vs0mg"},{"bike_id":"8d801f83-3686-49fa-a7fd-3701c57be20d","system_id":"levelo_inurba_marseille","lat":43.240713,"lon":5.377635,"is_reserved":false,"is_disabled":false,"rental_uris":{"android":"levelo://app?vid=8d801f83-3686-49fa-a7fd-3701c57be20d","ios":"levelo://app?vid=8d801f83-3686-49fa-a7fd-3701c57be20d"},"vehicle_type_id":"4","last_reported":1753578303,"current_range_meters":14400,"station_id":"ce4bhnp2rcd13ifvqgvg","pricing_plan_id":"cebpf4jnsgd1na2vs0mg"},{"bike_id":"bedd5d41-2a79-468d-b057-cdbc0e80362b","system_id":"levelo_inurba_marseille","lat":43.29262,"lon":5.40903,"is_reserved":false,"is_disabled":false,"rental_uris":{"android":"levelo://app?vid=bedd5d41-2a79-468d-b057-cdbc0e80362b","ios":"levelo://app?vid=bedd5d41-2a79-468d-b057-cdbc0e80362b"},"vehicle_type_id":"4","last_reported":1753578303,"current_range_meters":14800,"station_id":"ce4bh192rcd13ifvqdc0","pricing_plan_id":"cebpf4jnsgd1na2vs0mg"},{"bike_id":"687dd01b-2a1d-44cd-9069-917f4f3529ae","system_id":"levelo_inurba_marseille","lat":43.30304,"lon":5.369,"is_reserved":false,"is_disabled":false,"rental_uris":{"android":"levelo://app?vid=687dd01b-2a1d-44cd-9069-917f4f3529ae","ios":"levelo://app?vid=687dd01b-2a1d-44cd-9069-917f4f3529ae"},"vehicle_type_id":"4","last_reported":1753578303,"current_range_meters":14800,"station_id":"ce4bgqh2rcd13ifvqc5g","pricing_plan_id":"cebpf4jnsgd1na2vs0mg"},{"bike_id":"f1e82299-9187-4054-94b4-de765a26fdaf","system_id":"levelo_inurba_marseille","lat":43.30307,"lon":5.39211,"is_reserved":false,"is_disabled":false,"rental_uris":{"android":"levelo://app?vid=f1e82299-9187-4054-94b4-de765a26fdaf","ios":"levelo://app?vid=f1e82299-9187-4054-94b4-de765a26fdaf"},"vehicle_type_id":"4","last_reported":1753578303,"current_range_meters":14800,"station_id":"ce4bgkh2rcd13ifvqbk0","pricing_plan_id":"cebpf4jnsgd1na2vs0mg"},{"bike_id":"83891927-5edc-4521-b910-2c9da0003f16","system_id":"levelo_inurba_marseille","lat":43.31378,"lon":5.38496,"is_reserved":false,"is_disabled":false,"rental_uris":{"android":"levelo://app?vid=83891927-5edc-4521-b910-2c9da0003f16","ios":"levelo://app?vid=83891927-5edc-4521-b910-2c9da0003f16"},"vehicle_type_id":"4","last_reported":1753578303,"current_range_meters":14800,"station_id":"ce4bgt92rcd13ifvqcf0","pricing_plan_id":"cebpf4jnsgd1na2vs0mg"},{"bike_id":"ec370b31-cc55-499b-a9ad-82a32cff8b80","system_id":"levelo_inurba_marseille","lat":43.30324,"lon":5.40447,"is_reserved":false,"is_disabled":false,"rental_uris":{"android":"levelo://app?vid=ec370b31-cc55-499b-a9ad-82a32cff8b80","ios":"levelo://app?vid=ec370b31-cc55-499b-a9ad-82a32cff8b80"},"vehicle_type_id":"4","last_reported":1753578303,"current_range_meters":14800,"station_id":"ce4bh012rcd13ifvqd10","pricing_plan_id":"cebpf4jnsgd1na2vs0mg"},{"bike_id":"9188366a-c6a3-4354-b558-553177316347","system_id":"levelo_inurba_marseille","lat":43.26252,"lon":5.3742,"is_reserved":false,"is_disabled":true,"rental_uris":{"android":"levelo://app?vid=9188366a-c6a3-4354-b558-553177316347","ios":"levelo://app?vid=9188366a-c6a3-4354-b558-553177316347"},"vehicle_type_id":"4","last_reported":1753578303,"current_range_meters":14800,"station_id":"","pricing_plan_id":"cebpf4jnsgd1na2vs0mg"},{"bike_id":"8e878e8f-5d80-490d-b86c-324c23d42717","system_id":"levelo_inurba_marseille","lat":43.2821,"lon":5.42988,"is_reserved":false,"is_disabled":false,"rental_uris":{"android":"levelo://app?vid=8e878e8f-5d80-490d-b86c-324c23d42717","ios":"levelo://app?vid=8e878e8f-5d80-490d-b86c-324c23d42717"},"vehicle_type_id":"4","last_reported":1753578303,"current_range_meters":15200,"station_id":"","pricing_plan_id":"cebpf4jnsgd1na2vs0mg"},{"bike_id":"b9539560-62f7-48e2-9b5b-93f2915f3a7b","system_id":"levelo_inurba_marseille","lat":43.28719,"lon":5.37616,"is_reserved":false,"is_disabled":false,"rental_uris":{"android":"levelo://app?vid=b9539560-62f7-48e2-9b5b-93f2915f3a7b","ios":"levelo://app?vid=b9539560-62f7-48e2-9b5b-93f2915f3a7b"},"vehicle_type_id":"4","last_reported":1753578303,"current_range_meters":15200,"station_id":"","pricing_plan_id":"cebpf4jnsgd1na2vs0mg"},{"bike_id":"a940fd59-4ef0-4a43-8b6c-6f24c2dd6526","system_id":"levelo_inurba_marseille","lat":43.30542,"lon":5.38431,"is_reserved":false,"is_disabled":false,"rental_uris":{"android":"levelo://app?vid=a940fd59-4ef0-4a43-8b6c-6f24c2dd6526","ios":"levelo://app?vid=a940fd59-4ef0-4a43-8b6c-6f24c2dd6526"},"vehicle_type_id":"4","last_reported":1753578303,"current_range_meters":15200,"station_id":"ce4bgg92rcd13ifvqb30","pricing_plan_id":"cebpf4jnsgd1na2vs0mg"},{"bike_id":"da0dea9a-07a2-4249-aa7c-2489e28d40de","system_id":"levelo_inurba_marseille","lat":43.29643,"lon":5.36191,"is_reserved":false,"is_disabled":false,"rental_uris":{"android":"levelo://app?vid=da0dea9a-07a2-4249-aa7c-2489e28d40de","ios":"levelo://app?vid=da0dea9a-07a2-4249-aa7c-2489e28d40de"},"vehicle_type_id":"4","last_reported":1753578303,"current_range_meters":16000,"station_id":"","pricing_plan_id":"cebpf4jnsgd1na2vs0mg"},{"bike_id":"c59f26de-d0b1-4cb0-aecd-516fd44add04","system_id":"levelo_inurba_marseille","lat":43.30539,"lon":5.38454,"is_reserved":false,"is_disabled":false,"rental_uris":{"android":"levelo://app?vid=c59f26de-d0b1-4cb0-aecd-516fd44add04","ios":"levelo://app?vid=c59f26de-d0b1-4cb0-aecd-516fd44add04"},"vehicle_type_id":"4","last_reported":1753578303,"current_range_meters":16000,"station_id":"ce4bgg92rcd13ifvqb30","pricing_plan_id":"cebpf4jnsgd1na2vs0mg"},{"bike_id":"aebdf431-3b97-428a-a9b4-1e35e4b29383","system_id":"levelo_inurba_marseille","lat":43.31686,"lon":5.40458,"is_reserved":false,"is_disabled":false,"rental_uris":{"android":"levelo://app?vid=aebdf431-3b97-428a-a9b4-1e35e4b29383","ios":"levelo://app?vid=aebdf431-3b97-428a-a9b4-1e35e4b29383"},"vehicle_type_id":"4","last_reported":1753578303,"current_range_meters":16000,"station_id":"ce4bh012rcd13ifvqd00","pricing_plan_id":"cebpf4jnsgd1na2vs0mg"},{"bike_id":"b7ed9571-0d35-4df5-9ba8-fcfa0cd8d52b","system_id":"levelo_inurba_marseille","lat":43.32349,"lon":5.38691,"is_reserved":false,"is_disabled":false,"rental_uris":{"android":"levelo://app?vid=b7ed9571-0d35-4df5-9ba8-fcfa0cd8d52b","ios":"levelo://app?vid=b7ed9571-0d35-4df5-9ba8-fcfa0cd8d52b"},"vehicle_type_id":"4","last_reported":1753578303,"current_range_meters":16000,"station_id":"","pricing_plan_id":"cebpf4jnsgd1na2vs0mg"},{"bike_id":"b3e573da-2e2c-48b3-a491-5f2ef167040c","system_id":"levelo_inurba_marseille","lat":43.297938,"lon":5.393568,"is_reserved":false,"is_disabled":false,"rental_uris":{"android":"levelo://app?vid=b3e573da-2e2c-48b3-a491-5f2ef167040c","ios":"levelo://app?vid=b3e573da-2e2c-48b3-a491-5f2ef167040c"},"vehicle_type_id":"4","last_reported":1753578303,"current_range_meters":16000,"station_id":"chh1huq6cuj3fo74tm60","pricing_plan_id":"cebpf4jnsgd1na2vs0mg"},{"bike_id":"adbc006e-c51d-4434-863c-610344ea30cd","system_id":"levelo_inurba_marseille","lat":43.21757,"lon":5.34582,"is_reserved":false,"is_disabled":true,"rental_uris":{"android":"levelo://app?vid=adbc006e-c51d-4434-863c-610344ea30cd","ios":"levelo://app?vid=adbc006e-c51d-4434-863c-610344ea30cd"},"vehicle_type_id":"4","last_reported":1753578303,"current_range_meters":16000,"station_id":"st_cvj6r9ubvosntc0bgbag","pricing_plan_id":"cebpf4jnsgd1na2vs0mg"},{"bike_id":"eda7ce01-e004-4385-a6ac-0704b9afada7","system_id":"levelo_inurba_marseille","lat":43.31377,"lon":5.38498,"is_reserved":false,"is_disabled":false,"rental_uris":{"android":"levelo://app?vid=eda7ce01-e004-4385-a6ac-0704b9afada7","ios":"levelo://app?vid=eda7ce01-e004-4385-a6ac-0704b9afada7"},"vehicle_type_id":"4","last_reported":1753578303,"current_range_meters":16000,"station_id":"ce4bgt92rcd13ifvqcf0","pricing_plan_id":"cebpf4jnsgd1na2vs0mg"},{"bike_id":"857905f4-fbac-43bd-bfe6-e5e8a2d57bb6","system_id":"levelo_inurba_marseille","lat":43.28706,"lon":5.39952,"is_reserved":false,"is_disabled":false,"rental_uris":{"android":"levelo://app?vid=857905f4-fbac-43bd-bfe6-e5e8a2d57bb6","ios":"levelo://app?vid=857905f4-fbac-43bd-bfe6-e5e8a2d57bb6"},"vehicle_type_id":"4","last_reported":1753578303,"current_range_meters":16000,"station_id":"ce4bho92rcd13ifvqh3g","pricing_plan_id":"cebpf4jnsgd1na2vs0mg"},{"bike_id":"5210ff29-6de1-49df-be73-02720669293b","system_id":"levelo_inurba_marseille","lat":43.33613,"lon":5.41032,"is_reserved":false,"is_disabled":false,"rental_uris":{"android":"levelo://app?vid=5210ff29-6de1-49df-be73-02720669293b","ios":"levelo://app?vid=5210ff29-6de1-49df-be73-02720669293b"},"vehicle_type_id":"4","last_reported":1753578303,"current_range_meters":16400,"station_id":"ce4bhqh2rcd13ifvqhmg","pricing_plan_id":"cebpf4jnsgd1na2vs0mg"},{"bike_id":"484ce80f-12be-41fa-9586-784b84db2ffe","system_id":"levelo_inurba_marseille","lat":43.24813,"lon":5.37459,"is_reserved":false,"is_disabled":false,"rental_uris":{"android":"levelo://app?vid=484ce80f-12be-41fa-9586-784b84db2ffe","ios":"levelo://app?vid=484ce80f-12be-41fa-9586-784b84db2ffe"},"vehicle_type_id":"4","last_reported":1753578303,"current_range_meters":16400,"station_id":"ce4bhgh2rcd13ifvqfb0","pricing_plan_id":"cebpf4jnsgd1na2vs0mg"},{"bike_id":"d44de309-2133-47ca-892d-2a318467e55f","system_id":"levelo_inurba_marseille","lat":43.3129,"lon":5.40156,"is_reserved":false,"is_disabled":false,"rental_uris":{"android":"levelo://app?vid=d44de309-2133-47ca-892d-2a318467e55f","ios":"levelo://app?vid=d44de309-2133-47ca-892d-2a318467e55f"},"vehicle_type_id":"4","last_reported":1753578303,"current_range_meters":14800,"station_id":"ce4bh092rcd13ifvqd30","pricing_plan_id":"cebpf4jnsgd1na2vs0mg"},{"bike_id":"d3e01782-42fc-4257-a6af-75c9f5127d73","system_id":"levelo_inurba_marseille","lat":43.28456,"lon":5.37544,"is_reserved":false,"is_disabled":false,"rental_uris":{"android":"levelo://app?vid=d3e01782-42fc-4257-a6af-75c9f5127d73","ios":"levelo://app?vid=d3e01782-42fc-4257-a6af-75c9f5127d73"},"vehicle_type_id":"4","last_reported":1753578303,"current_range_meters":16400,"station_id":"","pricing_plan_id":"cebpf4jnsgd1na2vs0mg"},{"bike_id":"efe4a6d5-a6b7-4fc7-b144-1bd0e2f02795","system_id":"levelo_inurba_marseille","lat":43.28699,"lon":5.37386,"is_reserved":false,"is_disabled":false,"rental_uris":{"android":"levelo://app?vid=efe4a6d5-a6b7-4fc7-b144-1bd0e2f02795","ios":"levelo://app?vid=efe4a6d5-a6b7-4fc7-b144-1bd0e2f02795"},"vehicle_type_id":"4","last_reported":1753578303,"current_range_meters":16400,"station_id":"ce4bh3p2rcd13ifvqdq0","pricing_plan_id":"cebpf4jnsgd1na2vs0mg"},{"bike_id":"25bae460-a8be-463f-b248-e2f9e2a11e6a","system_id":"levelo_inurba_marseille","lat":43.29033,"lon":5.38653,"is_reserved":false,"is_disabled":false,"rental_uris":{"android":"levelo://app?vid=25bae460-a8be-463f-b248-e2f9e2a11e6a","ios":"levelo://app?vid=25bae460-a8be-463f-b248-e2f9e2a11e6a"},"vehicle_type_id":"4","last_reported":1753578303,"current_range_meters":16400,"station_id":"ce4bh4p2rcd13ifvqe0g","pricing_plan_id":"cebpf4jnsgd1na2vs0mg"},{"bike_id":"01b9152b-1fb2-4f06-a370-771644f3e0dc","system_id":"levelo_inurba_marseille","lat":43.31355,"lon":5.38506,"is_reserved":false,"is_disabled":false,"rental_uris":{"android":"levelo://app?vid=01b9152b-1fb2-4f06-a370-771644f3e0dc","ios":"levelo://app?vid=01b9152b-1fb2-4f06-a370-771644f3e0dc"},"vehicle_type_id":"4","last_reported":1753578303,"current_range_meters":16400,"station_id":"ce4bgt92rcd13ifvqcf0","pricing_plan_id":"cebpf4jnsgd1na2vs0mg"},{"bike_id":"e666153e-0d94-49fc-a285-a6a2347ef6ad","system_id":"levelo_inurba_marseille","lat":43.26948,"lon":5.38624,"is_reserved":false,"is_disabled":true,"rental_uris":{"android":"levelo://app?vid=e666153e-0d94-49fc-a285-a6a2347ef6ad","ios":"levelo://app?vid=e666153e-0d94-49fc-a285-a6a2347ef6ad"},"vehicle_type_id":"4","last_reported":1753578303,"current_range_meters":16400,"station_id":"ce4bhh92rcd13ifvqfh0","pricing_plan_id":"cebpf4jnsgd1na2vs0mg"},{"bike_id":"092445da-6c69-438d-914a-76950a2eb10d","system_id":"levelo_inurba_marseille","lat":43.32327,"lon":5.38859,"is_reserved":false,"is_disabled":false,"rental_uris":{"android":"levelo://app?vid=092445da-6c69-438d-914a-76950a2eb10d","ios":"levelo://app?vid=092445da-6c69-438d-914a-76950a2eb10d"},"vehicle_type_id":"4","last_reported":1753578303,"current_range_meters":16400,"station_id":"ce4bhqp2rcd13ifvqhog","pricing_plan_id":"cebpf4jnsgd1na2vs0mg"},{"bike_id":"37a5c024-c5d2-470a-ba5d-2631f91bf7cf","system_id":"levelo_inurba_marseille","lat":43.311142,"lon":5.377645,"is_reserved":false,"is_disabled":false,"rental_uris":{"android":"levelo://app?vid=37a5c024-c5d2-470a-ba5d-2631f91bf7cf","ios":"levelo://app?vid=37a5c024-c5d2-470a-ba5d-2631f91bf7cf"},"vehicle_type_id":"4","last_reported":1753578303,"current_range_meters":16400,"station_id":"ce4bgt92rcd13ifvqcg0","pricing_plan_id":"cebpf4jnsgd1na2vs0mg"},{"bike_id":"d89f77b8-cdf2-4512-bbb7-e244c7ade203","system_id":"levelo_inurba_marseille","lat":43.26574,"lon":5.37287,"is_reserved":false,"is_disabled":false,"rental_uris":{"android":"levelo://app?vid=d89f77b8-cdf2-4512-bbb7-e244c7ade203","ios":"levelo://app?vid=d89f77b8-cdf2-4512-bbb7-e244c7ade203"},"vehicle_type_id":"4","last_reported":1753578303,"current_range_meters":16400,"station_id":"ce4bhg12rcd13ifvqf70","pricing_plan_id":"cebpf4jnsgd1na2vs0mg"},{"bike_id":"40b50140-57d7-4649-a595-901bc273781b","system_id":"levelo_inurba_marseille","lat":43.30891,"lon":5.39637,"is_reserved":false,"is_disabled":false,"rental_uris":{"android":"levelo://app?vid=40b50140-57d7-4649-a595-901bc273781b","ios":"levelo://app?vid=40b50140-57d7-4649-a595-901bc273781b"},"vehicle_type_id":"4","last_reported":1753578303,"current_range_meters":16400,"station_id":"ce4bh012rcd13ifvqcv0","pricing_plan_id":"cebpf4jnsgd1na2vs0mg"},{"bike_id":"8512b265-75e1-49d7-bb7d-bd988c357d7c","system_id":"levelo_inurba_marseille","lat":43.2869,"lon":5.39984,"is_reserved":false,"is_disabled":true,"rental_uris":{"android":"levelo://app?vid=8512b265-75e1-49d7-bb7d-bd988c357d7c","ios":"levelo://app?vid=8512b265-75e1-49d7-bb7d-bd988c357d7c"},"vehicle_type_id":"4","last_reported":1753578303,"current_range_meters":16400,"station_id":"ce4bho92rcd13ifvqh3g","pricing_plan_id":"cebpf4jnsgd1na2vs0mg"},{"bike_id":"a59f4329-66e2-4116-a0e2-8f8b470be6be","system_id":"levelo_inurba_marseille","lat":43.2894,"lon":5.39635,"is_reserved":false,"is_disabled":false,"rental_uris":{"android":"levelo://app?vid=a59f4329-66e2-4116-a0e2-8f8b470be6be","ios":"levelo://app?vid=a59f4329-66e2-4116-a0e2-8f8b470be6be"},"vehicle_type_id":"4","last_reported":1753578303,"current_range_meters":16400,"station_id":"ce4bh3h2rcd13ifvqdn0","pricing_plan_id":"cebpf4jnsgd1na2vs0mg"},{"bike_id":"62e4f384-a69f-4285-9553-29178195efe4","system_id":"levelo_inurba_marseille","lat":43.310737,"lon":5.383663,"is_reserved":false,"is_disabled":false,"rental_uris":{"android":"levelo://app?vid=62e4f384-a69f-4285-9553-29178195efe4","ios":"levelo://app?vid=62e4f384-a69f-4285-9553-29178195efe4"},"vehicle_type_id":"4","last_reported":1753578303,"current_range_meters":16800,"station_id":"ce4bgv92rcd13ifvqcr0","pricing_plan_id":"cebpf4jnsgd1na2vs0mg"},{"bike_id":"0cf4166d-fc45-4e28-8e82-8bb1e727d791","system_id":"levelo_inurba_marseille","lat":43.299683,"lon":5.386239,"is_reserved":false,"is_disabled":false,"rental_uris":{"android":"levelo://app?vid=0cf4166d-fc45-4e28-8e82-8bb1e727d791","ios":"levelo://app?vid=0cf4166d-fc45-4e28-8e82-8bb1e727d791"},"vehicle_type_id":"4","last_reported":1753578303,"current_range_meters":16800,"station_id":"","pricing_plan_id":"cebpf4jnsgd1na2vs0mg"},{"bike_id":"ac49ca63-139c-4f7a-ad99-5b809ecc60e8","system_id":"levelo_inurba_marseille","lat":43.2408,"lon":5.37758,"is_reserved":false,"is_disabled":false,"rental_uris":{"android":"levelo://app?vid=ac49ca63-139c-4f7a-ad99-5b809ecc60e8","ios":"levelo://app?vid=ac49ca63-139c-4f7a-ad99-5b809ecc60e8"},"vehicle_type_id":"4","last_reported":1753578303,"current_range_meters":16800,"station_id":"ce4bhnp2rcd13ifvqgvg","pricing_plan_id":"cebpf4jnsgd1na2vs0mg"},{"bike_id":"6454ae73-4766-4d5a-add3-dd79a1e050ab","system_id":"levelo_inurba_marseille","lat":43.29439,"lon":5.39748,"is_reserved":false,"is_disabled":false,"rental_uris":{"android":"levelo://app?vid=6454ae73-4766-4d5a-add3-dd79a1e050ab","ios":"levelo://app?vid=6454ae73-4766-4d5a-add3-dd79a1e050ab"},"vehicle_type_id":"4","last_reported":1753578303,"current_range_meters":16800,"station_id":"ce4bh3h2rcd13ifvqdo0","pricing_plan_id":"cebpf4jnsgd1na2vs0mg"},{"bike_id":"32ec7568-b371-45c2-97d0-0fdb8db5c32c","system_id":"levelo_inurba_marseille","lat":43.26564,"lon":5.37287,"is_reserved":false,"is_disabled":false,"rental_uris":{"android":"levelo://app?vid=32ec7568-b371-45c2-97d0-0fdb8db5c32c","ios":"levelo://app?vid=32ec7568-b371-45c2-97d0-0fdb8db5c32c"},"vehicle_type_id":"4","last_reported":1753578303,"current_range_meters":16800,"station_id":"ce4bhg12rcd13ifvqf70","pricing_plan_id":"cebpf4jnsgd1na2vs0mg"},{"bike_id":"55661540-733b-4bd0-ad5d-bb688398f06e","system_id":"levelo_inurba_marseille","lat":43.22511,"lon":5.34783,"is_reserved":false,"is_disabled":false,"rental_uris":{"android":"levelo://app?vid=55661540-733b-4bd0-ad5d-bb688398f06e","ios":"levelo://app?vid=55661540-733b-4bd0-ad5d-bb688398f06e"},"vehicle_type_id":"4","last_reported":1753578303,"current_range_meters":16800,"station_id":"st_cvj5dfep6f1abm77gieg","pricing_plan_id":"cebpf4jnsgd1na2vs0mg"},{"bike_id":"e2e4ce2d-333d-4680-8d61-97cbeb6c6cb3","system_id":"levelo_inurba_marseille","lat":43.28361,"lon":5.38107,"is_reserved":false,"is_disabled":false,"rental_uris":{"android":"levelo://app?vid=e2e4ce2d-333d-4680-8d61-97cbeb6c6cb3","ios":"levelo://app?vid=e2e4ce2d-333d-4680-8d61-97cbeb6c6cb3"},"vehicle_type_id":"4","last_reported":1753578303,"current_range_meters":16800,"station_id":"ce4bh412rcd13ifvqdr0","pricing_plan_id":"cebpf4jnsgd1na2vs0mg"},{"bike_id":"0b6e37e1-db39-4d64-9941-7e484c9ea038","system_id":"levelo_inurba_marseille","lat":43.29614,"lon":5.37716,"is_reserved":false,"is_disabled":true,"rental_uris":{"android":"levelo://app?vid=0b6e37e1-db39-4d64-9941-7e484c9ea038","ios":"levelo://app?vid=0b6e37e1-db39-4d64-9941-7e484c9ea038"},"vehicle_type_id":"4","last_reported":1753578303,"current_range_meters":16800,"station_id":"","pricing_plan_id":"cebpf4jnsgd1na2vs0mg"},{"bike_id":"f2c17dec-814f-4bce-9c0f-da23e3b8bda2","system_id":"levelo_inurba_marseille","lat":43.29567,"lon":5.39964,"is_reserved":false,"is_disabled":false,"rental_uris":{"android":"levelo://app?vid=f2c17dec-814f-4bce-9c0f-da23e3b8bda2","ios":"levelo://app?vid=f2c17dec-814f-4bce-9c0f-da23e3b8bda2"},"vehicle_type_id":"4","last_reported":1753578303,"current_range_meters":16800,"station_id":"ce4bh312rcd13ifvqdj0","pricing_plan_id":"cebpf4jnsgd1na2vs0mg"},{"bike_id":"4d7cb751-93ab-4563-a4dc-de0bdda1c2e3","system_id":"levelo_inurba_marseille","lat":43.28663,"lon":5.36356,"is_reserved":false,"is_disabled":false,"rental_uris":{"android":"levelo://app?vid=4d7cb751-93ab-4563-a4dc-de0bdda1c2e3","ios":"levelo://app?vid=4d7cb751-93ab-4563-a4dc-de0bdda1c2e3"},"vehicle_type_id":"4","last_reported":1753578303,"current_range_meters":17200,"station_id":"ce4bhah2rcd13ifvqej0","pricing_plan_id":"cebpf4jnsgd1na2vs0mg"},{"bike_id":"70381b97-b2ee-4f26-8f16-caf046608e7f","system_id":"levelo_inurba_marseille","lat":43.28,"lon":5.40007,"is_reserved":false,"is_disabled":true,"rental_uris":{"android":"levelo://app?vid=70381b97-b2ee-4f26-8f16-caf046608e7f","ios":"levelo://app?vid=70381b97-b2ee-4f26-8f16-caf046608e7f"},"vehicle_type_id":"4","last_reported":1753578303,"current_range_meters":17200,"station_id":"ce4bho92rcd13ifvqh4g","pricing_plan_id":"cebpf4jnsgd1na2vs0mg"},{"bike_id":"b64dad25-8e0d-4258-bfd2-304c64c6d313","system_id":"levelo_inurba_marseille","lat":43.31689,"lon":5.3781,"is_reserved":false,"is_disabled":false,"rental_uris":{"android":"levelo://app?vid=b64dad25-8e0d-4258-bfd2-304c64c6d313","ios":"levelo://app?vid=b64dad25-8e0d-4258-bfd2-304c64c6d313"},"vehicle_type_id":"4","last_reported":1753578303,"current_range_meters":17200,"station_id":"","pricing_plan_id":"cebpf4jnsgd1na2vs0mg"},{"bike_id":"06c069f2-cc3e-41de-9e00-6787f3105285","system_id":"levelo_inurba_marseille","lat":43.29246,"lon":5.40879,"is_reserved":false,"is_disabled":false,"rental_uris":{"android":"levelo://app?vid=06c069f2-cc3e-41de-9e00-6787f3105285","ios":"levelo://app?vid=06c069f2-cc3e-41de-9e00-6787f3105285"},"vehicle_type_id":"4","last_reported":1753578303,"current_range_meters":17200,"station_id":"ce4bh192rcd13ifvqdc0","pricing_plan_id":"cebpf4jnsgd1na2vs0mg"},{"bike_id":"8efa1631-7b02-49a2-a7ca-7e956f7e418a","system_id":"levelo_inurba_marseille","lat":43.33608,"lon":5.41035,"is_reserved":false,"is_disabled":false,"rental_uris":{"android":"levelo://app?vid=8efa1631-7b02-49a2-a7ca-7e956f7e418a","ios":"levelo://app?vid=8efa1631-7b02-49a2-a7ca-7e956f7e418a"},"vehicle_type_id":"4","last_reported":1753578303,"current_range_meters":17200,"station_id":"ce4bhqh2rcd13ifvqhmg","pricing_plan_id":"cebpf4jnsgd1na2vs0mg"},{"bike_id":"9b0b4446-c8de-452c-bcb2-0f5d3bbd1409","system_id":"levelo_inurba_marseille","lat":43.27559,"lon":5.38422,"is_reserved":false,"is_disabled":false,"rental_uris":{"android":"levelo://app?vid=9b0b4446-c8de-452c-bcb2-0f5d3bbd1409","ios":"levelo://app?vid=9b0b4446-c8de-452c-bcb2-0f5d3bbd1409"},"vehicle_type_id":"4","last_reported":1753578303,"current_range_meters":16800,"station_id":"ce4bhh92rcd13ifvqfi0","pricing_plan_id":"cebpf4jnsgd1na2vs0mg"},{"bike_id":"5de4d1ff-47cd-40a5-ad2e-4b1052508ef8","system_id":"levelo_inurba_marseille","lat":43.323337,"lon":5.40627,"is_reserved":false,"is_disabled":false,"rental_uris":{"android":"levelo://app?vid=5de4d1ff-47cd-40a5-ad2e-4b1052508ef8","ios":"levelo://app?vid=5de4d1ff-47cd-40a5-ad2e-4b1052508ef8"},"vehicle_type_id":"4","last_reported":1753578303,"current_range_meters":17600,"station_id":"ce4bhq92rcd13ifvqhjg","pricing_plan_id":"cebpf4jnsgd1na2vs0mg"},{"bike_id":"48538135-5d0a-49ee-9320-155fbd091354","system_id":"levelo_inurba_marseille","lat":43.259349,"lon":5.409025,"is_reserved":false,"is_disabled":false,"rental_uris":{"android":"levelo://app?vid=48538135-5d0a-49ee-9320-155fbd091354","ios":"levelo://app?vid=48538135-5d0a-49ee-9320-155fbd091354"},"vehicle_type_id":"4","last_reported":1753578303,"current_range_meters":17600,"station_id":"ce4bhm92rcd13ifvqglg","pricing_plan_id":"cebpf4jnsgd1na2vs0mg"},{"bike_id":"702fbc69-7ecf-4ef2-935f-2eb604378010","system_id":"levelo_inurba_marseille","lat":43.30322,"lon":5.40441,"is_reserved":false,"is_disabled":false,"rental_uris":{"android":"levelo://app?vid=702fbc69-7ecf-4ef2-935f-2eb604378010","ios":"levelo://app?vid=702fbc69-7ecf-4ef2-935f-2eb604378010"},"vehicle_type_id":"4","last_reported":1753578303,"current_range_meters":17600,"station_id":"ce4bh012rcd13ifvqd10","pricing_plan_id":"cebpf4jnsgd1na2vs0mg"},{"bike_id":"9306cb98-ff63-47ed-9064-9c9a8b611a79","system_id":"levelo_inurba_marseille","lat":43.29659,"lon":5.37366,"is_reserved":false,"is_disabled":false,"rental_uris":{"android":"levelo://app?vid=9306cb98-ff63-47ed-9064-9c9a8b611a79","ios":"levelo://app?vid=9306cb98-ff63-47ed-9064-9c9a8b611a79"},"vehicle_type_id":"4","last_reported":1753578303,"current_range_meters":17600,"station_id":"","pricing_plan_id":"cebpf4jnsgd1na2vs0mg"},{"bike_id":"63831824-f5ea-4df0-a5aa-3e3fedaa4ba5","system_id":"levelo_inurba_marseille","lat":43.28454,"lon":5.35892,"is_reserved":false,"is_disabled":false,"rental_uris":{"android":"levelo://app?vid=63831824-f5ea-4df0-a5aa-3e3fedaa4ba5","ios":"levelo://app?vid=63831824-f5ea-4df0-a5aa-3e3fedaa4ba5"},"vehicle_type_id":"4","last_reported":1753578303,"current_range_meters":17600,"station_id":"ce4bhah2rcd13ifvqei0","pricing_plan_id":"cebpf4jnsgd1na2vs0mg"},{"bike_id":"a9504c9d-7518-4bac-b2a8-fec9ea3d9cd0","system_id":"levelo_inurba_marseille","lat":43.230622,"lon":5.354979,"is_reserved":false,"is_disabled":false,"rental_uris":{"android":"levelo://app?vid=a9504c9d-7518-4bac-b2a8-fec9ea3d9cd0","ios":"levelo://app?vid=a9504c9d-7518-4bac-b2a8-fec9ea3d9cd0"},"vehicle_type_id":"4","last_reported":1753578303,"current_range_meters":17600,"station_id":"cpo3342slgdg3j2ifvpg","pricing_plan_id":"cebpf4jnsgd1na2vs0mg"},{"bike_id":"97f2ecd0-5683-4b9c-8266-7d26df87b1e6","system_id":"levelo_inurba_marseille","lat":43.28708,"lon":5.37396,"is_reserved":false,"is_disabled":false,"rental_uris":{"android":"levelo://app?vid=97f2ecd0-5683-4b9c-8266-7d26df87b1e6","ios":"levelo://app?vid=97f2ecd0-5683-4b9c-8266-7d26df87b1e6"},"vehicle_type_id":"4","last_reported":1753578303,"current_range_meters":17600,"station_id":"ce4bh3p2rcd13ifvqdq0","pricing_plan_id":"cebpf4jnsgd1na2vs0mg"},{"bike_id":"6f4f77f3-f698-45c8-b168-3bd095af11b2","system_id":"levelo_inurba_marseille","lat":43.29899,"lon":5.37535,"is_reserved":false,"is_disabled":false,"rental_uris":{"android":"levelo://app?vid=6f4f77f3-f698-45c8-b168-3bd095af11b2","ios":"levelo://app?vid=6f4f77f3-f698-45c8-b168-3bd095af11b2"},"vehicle_type_id":"4","last_reported":1753578303,"current_range_meters":17600,"station_id":"","pricing_plan_id":"cebpf4jnsgd1na2vs0mg"},{"bike_id":"3152576e-d602-4c3f-980e-717f41aed773","system_id":"levelo_inurba_marseille","lat":43.33737,"lon":5.37465,"is_reserved":false,"is_disabled":false,"rental_uris":{"android":"levelo://app?vid=3152576e-d602-4c3f-980e-717f41aed773","ios":"levelo://app?vid=3152576e-d602-4c3f-980e-717f41aed773"},"vehicle_type_id":"4","last_reported":1753578303,"current_range_meters":17600,"station_id":"","pricing_plan_id":"cebpf4jnsgd1na2vs0mg"},{"bike_id":"d0046087-66b5-4714-b271-e7a9c1790e87","system_id":"levelo_inurba_marseille","lat":43.29055,"lon":5.39947,"is_reserved":false,"is_disabled":false,"rental_uris":{"android":"levelo://app?vid=d0046087-66b5-4714-b271-e7a9c1790e87","ios":"levelo://app?vid=d0046087-66b5-4714-b271-e7a9c1790e87"},"vehicle_type_id":"4","last_reported":1753578303,"current_range_meters":18000,"station_id":"ce4bh392rcd13ifvqdm0","pricing_plan_id":"cebpf4jnsgd1na2vs0mg"},{"bike_id":"b708a5f4-02ee-49a4-90bb-e4b574f44083","system_id":"levelo_inurba_marseille","lat":43.28397,"lon":5.37511,"is_reserved":false,"is_disabled":false,"rental_uris":{"android":"levelo://app?vid=b708a5f4-02ee-49a4-90bb-e4b574f44083","ios":"levelo://app?vid=b708a5f4-02ee-49a4-90bb-e4b574f44083"},"vehicle_type_id":"4","last_reported":1753578303,"current_range_meters":18000,"station_id":"ce4bh412rcd13ifvqds0","pricing_plan_id":"cebpf4jnsgd1na2vs0mg"},{"bike_id":"b65f4e3b-a4f8-4bac-b64a-9a35477c4f80","system_id":"levelo_inurba_marseille","lat":43.26202,"lon":5.37452,"is_reserved":false,"is_disabled":false,"rental_uris":{"android":"levelo://app?vid=b65f4e3b-a4f8-4bac-b64a-9a35477c4f80","ios":"levelo://app?vid=b65f4e3b-a4f8-4bac-b64a-9a35477c4f80"},"vehicle_type_id":"4","last_reported":1753578303,"current_range_meters":18000,"station_id":"ce4bhgp2rcd13ifvqfc0","pricing_plan_id":"cebpf4jnsgd1na2vs0mg"},{"bike_id":"e38d01e0-1ddf-49b7-9598-f39cc301a401","system_id":"levelo_inurba_marseille","lat":43.28712,"lon":5.39976,"is_reserved":false,"is_disabled":false,"rental_uris":{"android":"levelo://app?vid=e38d01e0-1ddf-49b7-9598-f39cc301a401","ios":"levelo://app?vid=e38d01e0-1ddf-49b7-9598-f39cc301a401"},"vehicle_type_id":"4","last_reported":1753578303,"current_range_meters":18000,"station_id":"ce4bho92rcd13ifvqh3g","pricing_plan_id":"cebpf4jnsgd1na2vs0mg"},{"bike_id":"d8cd6055-23c8-4622-a5bf-68f9b9ebfe53","system_id":"levelo_inurba_marseille","lat":43.27079,"lon":5.42276,"is_reserved":false,"is_disabled":true,"rental_uris":{"android":"levelo://app?vid=d8cd6055-23c8-4622-a5bf-68f9b9ebfe53","ios":"levelo://app?vid=d8cd6055-23c8-4622-a5bf-68f9b9ebfe53"},"vehicle_type_id":"4","last_reported":1753578303,"current_range_meters":18000,"station_id":"ce4bhk92rcd13ifvqgb0","pricing_plan_id":"cebpf4jnsgd1na2vs0mg"},{"bike_id":"9e2722f5-8f23-4a0a-8b90-dcc5ca4975f8","system_id":"levelo_inurba_marseille","lat":43.2251,"lon":5.34774,"is_reserved":false,"is_disabled":false,"rental_uris":{"android":"levelo://app?vid=9e2722f5-8f23-4a0a-8b90-dcc5ca4975f8","ios":"levelo://app?vid=9e2722f5-8f23-4a0a-8b90-dcc5ca4975f8"},"vehicle_type_id":"4","last_reported":1753578303,"current_range_meters":18000,"station_id":"st_cvj5dfep6f1abm77gieg","pricing_plan_id":"cebpf4jnsgd1na2vs0mg"},{"bike_id":"56ec8761-dee0-49c1-aba7-a69ac65d386f","system_id":"levelo_inurba_marseille","lat":43.22938,"lon":5.35381,"is_reserved":false,"is_disabled":false,"rental_uris":{"android":"levelo://app?vid=56ec8761-dee0-49c1-aba7-a69ac65d386f","ios":"levelo://app?vid=56ec8761-dee0-49c1-aba7-a69ac65d386f"},"vehicle_type_id":"4","last_reported":1753578303,"current_range_meters":18000,"station_id":"cpo3532slgdg3j2ikp40","pricing_plan_id":"cebpf4jnsgd1na2vs0mg"},{"bike_id":"0350f80f-5ec6-4e31-8025-07f6a8f94f1c","system_id":"levelo_inurba_marseille","lat":43.29603,"lon":5.37668,"is_reserved":false,"is_disabled":false,"rental_uris":{"android":"levelo://app?vid=0350f80f-5ec6-4e31-8025-07f6a8f94f1c","ios":"levelo://app?vid=0350f80f-5ec6-4e31-8025-07f6a8f94f1c"},"vehicle_type_id":"4","last_reported":1753578303,"current_range_meters":18000,"station_id":"ce4bgi92rcd13ifvqb90","pricing_plan_id":"cebpf4jnsgd1na2vs0mg"},{"bike_id":"c3ffa3d6-f44a-4930-b5f0-fc0fbc76b4d1","system_id":"levelo_inurba_marseille","lat":43.25122,"lon":5.40323,"is_reserved":false,"is_disabled":false,"rental_uris":{"android":"levelo://app?vid=c3ffa3d6-f44a-4930-b5f0-fc0fbc76b4d1","ios":"levelo://app?vid=c3ffa3d6-f44a-4930-b5f0-fc0fbc76b4d1"},"vehicle_type_id":"4","last_reported":1753578303,"current_range_meters":18000,"station_id":"ce4bhlh2rcd13ifvqgig","pricing_plan_id":"cebpf4jnsgd1na2vs0mg"},{"bike_id":"94cd5104-a952-4e36-b3f4-ab0b998877f1","system_id":"levelo_inurba_marseille","lat":43.311793,"lon":5.387146,"is_reserved":false,"is_disabled":false,"rental_uris":{"android":"levelo://app?vid=94cd5104-a952-4e36-b3f4-ab0b998877f1","ios":"levelo://app?vid=94cd5104-a952-4e36-b3f4-ab0b998877f1"},"vehicle_type_id":"4","last_reported":1753578303,"current_range_meters":18000,"station_id":"ce4bgv12rcd13ifvqcp0","pricing_plan_id":"cebpf4jnsgd1na2vs0mg"},{"bike_id":"6c17f6f6-a8d8-4559-a952-a479db4a8339","system_id":"levelo_inurba_marseille","lat":43.231878,"lon":5.35555,"is_reserved":false,"is_disabled":false,"rental_uris":{"android":"levelo://app?vid=6c17f6f6-a8d8-4559-a952-a479db4a8339","ios":"levelo://app?vid=6c17f6f6-a8d8-4559-a952-a479db4a8339"},"vehicle_type_id":"4","last_reported":1753578303,"current_range_meters":18000,"station_id":"ce4bhu92rcd13ifvqi70","pricing_plan_id":"cebpf4jnsgd1na2vs0mg"},{"bike_id":"7aff84f4-6f03-4e27-8d42-d4f436b18e6d","system_id":"levelo_inurba_marseille","lat":43.28487,"lon":5.38437,"is_reserved":false,"is_disabled":false,"rental_uris":{"android":"levelo://app?vid=7aff84f4-6f03-4e27-8d42-d4f436b18e6d","ios":"levelo://app?vid=7aff84f4-6f03-4e27-8d42-d4f436b18e6d"},"vehicle_type_id":"4","last_reported":1753578303,"current_range_meters":18000,"station_id":"ce4bh512rcd13ifvqe3g","pricing_plan_id":"cebpf4jnsgd1na2vs0mg"},{"bike_id":"220cf17f-9c61-468f-af88-f24ca56003a4","system_id":"levelo_inurba_marseille","lat":43.30613,"lon":5.37217,"is_reserved":false,"is_disabled":false,"rental_uris":{"android":"levelo://app?vid=220cf17f-9c61-468f-af88-f24ca56003a4","ios":"levelo://app?vid=220cf17f-9c61-468f-af88-f24ca56003a4"},"vehicle_type_id":"4","last_reported":1753578303,"current_range_meters":18000,"station_id":"ce4bgqh2rcd13ifvqc4g","pricing_plan_id":"cebpf4jnsgd1na2vs0mg"},{"bike_id":"e36c509a-314a-494a-8931-62c8aceb9e0b","system_id":"levelo_inurba_marseille","lat":43.2511,"lon":5.39519,"is_reserved":false,"is_disabled":false,"rental_uris":{"android":"levelo://app?vid=e36c509a-314a-494a-8931-62c8aceb9e0b","ios":"levelo://app?vid=e36c509a-314a-494a-8931-62c8aceb9e0b"},"vehicle_type_id":"4","last_reported":1753578303,"current_range_meters":18000,"station_id":"ce4bhm12rcd13ifvqgkg","pricing_plan_id":"cebpf4jnsgd1na2vs0mg"},{"bike_id":"251e4141-bb33-4b44-92b1-bb84ad97edf4","system_id":"levelo_inurba_marseille","lat":43.24795,"lon":5.37463,"is_reserved":false,"is_disabled":false,"rental_uris":{"android":"levelo://app?vid=251e4141-bb33-4b44-92b1-bb84ad97edf4","ios":"levelo://app?vid=251e4141-bb33-4b44-92b1-bb84ad97edf4"},"vehicle_type_id":"4","last_reported":1753578303,"current_range_meters":18800,"station_id":"ce4bhgh2rcd13ifvqfb0","pricing_plan_id":"cebpf4jnsgd1na2vs0mg"},{"bike_id":"9c7aeaec-5df9-4ed5-9a45-96fac68c60c5","system_id":"levelo_inurba_marseille","lat":43.22502,"lon":5.34782,"is_reserved":false,"is_disabled":false,"rental_uris":{"android":"levelo://app?vid=9c7aeaec-5df9-4ed5-9a45-96fac68c60c5","ios":"levelo://app?vid=9c7aeaec-5df9-4ed5-9a45-96fac68c60c5"},"vehicle_type_id":"4","last_reported":1753578303,"current_range_meters":18800,"station_id":"st_cvj5dfep6f1abm77gieg","pricing_plan_id":"cebpf4jnsgd1na2vs0mg"},{"bike_id":"cefaf313-76a2-46ed-93b0-1824639624fa","system_id":"levelo_inurba_marseille","lat":43.29274,"lon":5.4013,"is_reserved":false,"is_disabled":false,"rental_uris":{"android":"levelo://app?vid=cefaf313-76a2-46ed-93b0-1824639624fa","ios":"levelo://app?vid=cefaf313-76a2-46ed-93b0-1824639624fa"},"vehicle_type_id":"4","last_reported":1753578303,"current_range_meters":18800,"station_id":"ce4bh312rcd13ifvqdk0","pricing_plan_id":"cebpf4jnsgd1na2vs0mg"},{"bike_id":"a08db877-a69e-46c8-b5c7-592facf74a8b","system_id":"levelo_inurba_marseille","lat":43.30131,"lon":5.38776,"is_reserved":false,"is_disabled":false,"rental_uris":{"android":"levelo://app?vid=a08db877-a69e-46c8-b5c7-592facf74a8b","ios":"levelo://app?vid=a08db877-a69e-46c8-b5c7-592facf74a8b"},"vehicle_type_id":"4","last_reported":1753578303,"current_range_meters":18800,"station_id":"ce4bghh2rcd13ifvqb60","pricing_plan_id":"cebpf4jnsgd1na2vs0mg"},{"bike_id":"ec2a87eb-2de4-4d6d-ac86-7c275a6a8c47","system_id":"levelo_inurba_marseille","lat":43.22795,"lon":5.35187,"is_reserved":false,"is_disabled":false,"rental_uris":{"android":"levelo://app?vid=ec2a87eb-2de4-4d6d-ac86-7c275a6a8c47","ios":"levelo://app?vid=ec2a87eb-2de4-4d6d-ac86-7c275a6a8c47"},"vehicle_type_id":"4","last_reported":1753578303,"current_range_meters":18800,"station_id":"","pricing_plan_id":"cebpf4jnsgd1na2vs0mg"},{"bike_id":"87a4d710-c859-4883-a056-db27db09862e","system_id":"levelo_inurba_marseille","lat":43.277585,"lon":5.355971,"is_reserved":false,"is_disabled":false,"rental_uris":{"android":"levelo://app?vid=87a4d710-c859-4883-a056-db27db09862e","ios":"levelo://app?vid=87a4d710-c859-4883-a056-db27db09862e"},"vehicle_type_id":"4","last_reported":1753578303,"current_range_meters":18800,"station_id":"","pricing_plan_id":"cebpf4jnsgd1na2vs0mg"},{"bike_id":"4d5f84b7-a55d-420e-b2eb-d786d198c2f5","system_id":"levelo_inurba_marseille","lat":43.265697,"lon":5.390052,"is_reserved":false,"is_disabled":false,"rental_uris":{"android":"levelo://app?vid=4d5f84b7-a55d-420e-b2eb-d786d198c2f5","ios":"levelo://app?vid=4d5f84b7-a55d-420e-b2eb-d786d198c2f5"},"vehicle_type_id":"4","last_reported":1753578303,"current_range_meters":18800,"station_id":"ce4bhe12rcd13ifvqf30","pricing_plan_id":"cebpf4jnsgd1na2vs0mg"},{"bike_id":"0ecb478d-d04e-40c7-83db-4e066b025b54","system_id":"levelo_inurba_marseille","lat":43.28617,"lon":5.37078,"is_reserved":false,"is_disabled":false,"rental_uris":{"android":"levelo://app?vid=0ecb478d-d04e-40c7-83db-4e066b025b54","ios":"levelo://app?vid=0ecb478d-d04e-40c7-83db-4e066b025b54"},"vehicle_type_id":"4","last_reported":1753578303,"current_range_meters":18800,"station_id":"ce4bht12rcd13ifvqi60","pricing_plan_id":"cebpf4jnsgd1na2vs0mg"},{"bike_id":"3378f46c-5d8f-49a4-8e01-65086200052a","system_id":"levelo_inurba_marseille","lat":43.285214,"lon":5.384106,"is_reserved":false,"is_disabled":false,"rental_uris":{"android":"levelo://app?vid=3378f46c-5d8f-49a4-8e01-65086200052a","ios":"levelo://app?vid=3378f46c-5d8f-49a4-8e01-65086200052a"},"vehicle_type_id":"4","last_reported":1753578303,"current_range_meters":18800,"station_id":"ce4bh512rcd13ifvqe3g","pricing_plan_id":"cebpf4jnsgd1na2vs0mg"},{"bike_id":"918e5c9a-e2be-4cb6-8032-45811f3d77c7","system_id":"levelo_inurba_marseille","lat":43.284651,"lon":5.358913,"is_reserved":false,"is_disabled":false,"rental_uris":{"android":"levelo://app?vid=918e5c9a-e2be-4cb6-8032-45811f3d77c7","ios":"levelo://app?vid=918e5c9a-e2be-4cb6-8032-45811f3d77c7"},"vehicle_type_id":"4","last_reported":1753578303,"current_range_meters":18800,"station_id":"ce4bhah2rcd13ifvqei0","pricing_plan_id":"cebpf4jnsgd1na2vs0mg"},{"bike_id":"aca532aa-13f7-4791-a95e-f025fa985676","system_id":"levelo_inurba_marseille","lat":43.28673,"lon":5.36349,"is_reserved":false,"is_disabled":false,"rental_uris":{"android":"levelo://app?vid=aca532aa-13f7-4791-a95e-f025fa985676","ios":"levelo://app?vid=aca532aa-13f7-4791-a95e-f025fa985676"},"vehicle_type_id":"4","last_reported":1753578303,"current_range_meters":18000,"station_id":"ce4bhah2rcd13ifvqej0","pricing_plan_id":"cebpf4jnsgd1na2vs0mg"},{"bike_id":"2edf8151-cb92-46cc-9321-24e397aeed28","system_id":"levelo_inurba_marseille","lat":43.2305,"lon":5.35497,"is_reserved":false,"is_disabled":false,"rental_uris":{"android":"levelo://app?vid=2edf8151-cb92-46cc-9321-24e397aeed28","ios":"levelo://app?vid=2edf8151-cb92-46cc-9321-24e397aeed28"},"vehicle_type_id":"4","last_reported":1753578303,"current_range_meters":19200,"station_id":"cpo3342slgdg3j2ifvpg","pricing_plan_id":"cebpf4jnsgd1na2vs0mg"},{"bike_id":"cd9b4103-28d2-4dc4-8341-d1071d4df798","system_id":"levelo_inurba_marseille","lat":43.29878,"lon":5.38908,"is_reserved":false,"is_disabled":false,"rental_uris":{"android":"levelo://app?vid=cd9b4103-28d2-4dc4-8341-d1071d4df798","ios":"levelo://app?vid=cd9b4103-28d2-4dc4-8341-d1071d4df798"},"vehicle_type_id":"4","last_reported":1753578303,"current_range_meters":19200,"station_id":"ce4bh392rcd13ifvqdl0","pricing_plan_id":"cebpf4jnsgd1na2vs0mg"},{"bike_id":"d6f576dc-ffe7-4ab5-bc96-13103d0759e3","system_id":"levelo_inurba_marseille","lat":43.23963,"lon":5.3663,"is_reserved":false,"is_disabled":false,"rental_uris":{"android":"levelo://app?vid=d6f576dc-ffe7-4ab5-bc96-13103d0759e3","ios":"levelo://app?vid=d6f576dc-ffe7-4ab5-bc96-13103d0759e3"},"vehicle_type_id":"4","last_reported":1753578303,"current_range_meters":19200,"station_id":"ce4bhi12rcd13ifvqfp0","pricing_plan_id":"cebpf4jnsgd1na2vs0mg"},{"bike_id":"f998c2d8-d3fb-43cd-ab4d-0aa9eac6401c","system_id":"levelo_inurba_marseille","lat":43.26563,"lon":5.37294,"is_reserved":false,"is_disabled":false,"rental_uris":{"android":"levelo://app?vid=f998c2d8-d3fb-43cd-ab4d-0aa9eac6401c","ios":"levelo://app?vid=f998c2d8-d3fb-43cd-ab4d-0aa9eac6401c"},"vehicle_type_id":"4","last_reported":1753578303,"current_range_meters":19200,"station_id":"ce4bhg12rcd13ifvqf70","pricing_plan_id":"cebpf4jnsgd1na2vs0mg"},{"bike_id":"a6b8e8a8-5ea4-4ead-b0bd-99b24e9d82cc","system_id":"levelo_inurba_marseille","lat":43.31084,"lon":5.37685,"is_reserved":false,"is_disabled":false,"rental_uris":{"android":"levelo://app?vid=a6b8e8a8-5ea4-4ead-b0bd-99b24e9d82cc","ios":"levelo://app?vid=a6b8e8a8-5ea4-4ead-b0bd-99b24e9d82cc"},"vehicle_type_id":"4","last_reported":1753578303,"current_range_meters":19200,"station_id":"","pricing_plan_id":"cebpf4jnsgd1na2vs0mg"},{"bike_id":"96cb9b33-e675-4586-9193-9f0a3309af58","system_id":"levelo_inurba_marseille","lat":43.24807,"lon":5.37459,"is_reserved":false,"is_disabled":true,"rental_uris":{"android":"levelo://app?vid=96cb9b33-e675-4586-9193-9f0a3309af58","ios":"levelo://app?vid=96cb9b33-e675-4586-9193-9f0a3309af58"},"vehicle_type_id":"4","last_reported":1753578303,"current_range_meters":19200,"station_id":"ce4bhgh2rcd13ifvqfb0","pricing_plan_id":"cebpf4jnsgd1na2vs0mg"},{"bike_id":"8ff21f78-eac8-458a-84e9-7e680163d0dd","system_id":"levelo_inurba_marseille","lat":43.27518,"lon":5.40912,"is_reserved":false,"is_disabled":false,"rental_uris":{"android":"levelo://app?vid=8ff21f78-eac8-458a-84e9-7e680163d0dd","ios":"levelo://app?vid=8ff21f78-eac8-458a-84e9-7e680163d0dd"},"vehicle_type_id":"4","last_reported":1753578303,"current_range_meters":19200,"station_id":"","pricing_plan_id":"cebpf4jnsgd1na2vs0mg"},{"bike_id":"21119b74-9092-450b-a780-dc3f5e5aa101","system_id":"levelo_inurba_marseille","lat":43.240765,"lon":5.377649,"is_reserved":false,"is_disabled":false,"rental_uris":{"android":"levelo://app?vid=21119b74-9092-450b-a780-dc3f5e5aa101","ios":"levelo://app?vid=21119b74-9092-450b-a780-dc3f5e5aa101"},"vehicle_type_id":"4","last_reported":1753578303,"current_range_meters":19200,"station_id":"ce4bhnp2rcd13ifvqgvg","pricing_plan_id":"cebpf4jnsgd1na2vs0mg"},{"bike_id":"c8b0abd1-7f1c-4392-99c5-bdeb36f3e17e","system_id":"levelo_inurba_marseille","lat":43.21787,"lon":5.34585,"is_reserved":false,"is_disabled":true,"rental_uris":{"android":"levelo://app?vid=c8b0abd1-7f1c-4392-99c5-bdeb36f3e17e","ios":"levelo://app?vid=c8b0abd1-7f1c-4392-99c5-bdeb36f3e17e"},"vehicle_type_id":"4","last_reported":1753578303,"current_range_meters":19200,"station_id":"","pricing_plan_id":"cebpf4jnsgd1na2vs0mg"},{"bike_id":"7fd76c9e-4d33-4b7e-95bd-222e0d10502e","system_id":"levelo_inurba_marseille","lat":43.304486,"lon":5.397434,"is_reserved":false,"is_disabled":false,"rental_uris":{"android":"levelo://app?vid=7fd76c9e-4d33-4b7e-95bd-222e0d10502e","ios":"levelo://app?vid=7fd76c9e-4d33-4b7e-95bd-222e0d10502e"},"vehicle_type_id":"4","last_reported":1753578303,"current_range_meters":19200,"station_id":"ce4bh092rcd13ifvqd20","pricing_plan_id":"cebpf4jnsgd1na2vs0mg"},{"bike_id":"329681ee-4b7c-4b42-a093-9c4985b10282","system_id":"levelo_inurba_marseille","lat":43.28426,"lon":5.34983,"is_reserved":false,"is_disabled":true,"rental_uris":{"android":"levelo://app?vid=329681ee-4b7c-4b42-a093-9c4985b10282","ios":"levelo://app?vid=329681ee-4b7c-4b42-a093-9c4985b10282"},"vehicle_type_id":"4","last_reported":1753578303,"current_range_meters":19200,"station_id":"ce4bhbh2rcd13ifvqepg","pricing_plan_id":"cebpf4jnsgd1na2vs0mg"},{"bike_id":"8a0ced47-af28-44b4-afc8-8abf2eb47ab2","system_id":"levelo_inurba_marseille","lat":43.28683,"lon":5.38663,"is_reserved":false,"is_disabled":false,"rental_uris":{"android":"levelo://app?vid=8a0ced47-af28-44b4-afc8-8abf2eb47ab2","ios":"levelo://app?vid=8a0ced47-af28-44b4-afc8-8abf2eb47ab2"},"vehicle_type_id":"4","last_reported":1753578303,"current_range_meters":19200,"station_id":"ce4bh492rcd13ifvqdug","pricing_plan_id":"cebpf4jnsgd1na2vs0mg"},{"bike_id":"06b37b78-75ad-42cc-bf01-6fceceed78c5","system_id":"levelo_inurba_marseille","lat":43.23977,"lon":5.36582,"is_reserved":false,"is_disabled":false,"rental_uris":{"android":"levelo://app?vid=06b37b78-75ad-42cc-bf01-6fceceed78c5","ios":"levelo://app?vid=06b37b78-75ad-42cc-bf01-6fceceed78c5"},"vehicle_type_id":"4","last_reported":1753578303,"current_range_meters":19600,"station_id":"ce4bhi12rcd13ifvqfp0","pricing_plan_id":"cebpf4jnsgd1na2vs0mg"},{"bike_id":"d1ac07a1-5f14-4253-9653-1dfc9a432d65","system_id":"levelo_inurba_marseille","lat":43.30139,"lon":5.39863,"is_reserved":false,"is_disabled":false,"rental_uris":{"android":"levelo://app?vid=d1ac07a1-5f14-4253-9653-1dfc9a432d65","ios":"levelo://app?vid=d1ac07a1-5f14-4253-9653-1dfc9a432d65"},"vehicle_type_id":"4","last_reported":1753578303,"current_range_meters":19600,"station_id":"ce4bh0h2rcd13ifvqd40","pricing_plan_id":"cebpf4jnsgd1na2vs0mg"},{"bike_id":"73978db8-f311-41c1-94e6-eecc7b3590f5","system_id":"levelo_inurba_marseille","lat":43.31364,"lon":5.38486,"is_reserved":false,"is_disabled":false,"rental_uris":{"android":"levelo://app?vid=73978db8-f311-41c1-94e6-eecc7b3590f5","ios":"levelo://app?vid=73978db8-f311-41c1-94e6-eecc7b3590f5"},"vehicle_type_id":"4","last_reported":1753578303,"current_range_meters":19600,"station_id":"ce4bgt92rcd13ifvqcf0","pricing_plan_id":"cebpf4jnsgd1na2vs0mg"},{"bike_id":"c569f312-4b3f-431c-a7a0-a3f285bdf6df","system_id":"levelo_inurba_marseille","lat":43.29272,"lon":5.4012,"is_reserved":false,"is_disabled":false,"rental_uris":{"android":"levelo://app?vid=c569f312-4b3f-431c-a7a0-a3f285bdf6df","ios":"levelo://app?vid=c569f312-4b3f-431c-a7a0-a3f285bdf6df"},"vehicle_type_id":"4","last_reported":1753578303,"current_range_meters":19600,"station_id":"ce4bh312rcd13ifvqdk0","pricing_plan_id":"cebpf4jnsgd1na2vs0mg"},{"bike_id":"32dd2ddc-a3dc-4749-b831-b34092911e67","system_id":"levelo_inurba_marseille","lat":43.32365,"lon":5.38895,"is_reserved":false,"is_disabled":false,"rental_uris":{"android":"levelo://app?vid=32dd2ddc-a3dc-4749-b831-b34092911e67","ios":"levelo://app?vid=32dd2ddc-a3dc-4749-b831-b34092911e67"},"vehicle_type_id":"4","last_reported":1753578303,"current_range_meters":19600,"station_id":"ce4bhqp2rcd13ifvqhog","pricing_plan_id":"cebpf4jnsgd1na2vs0mg"},{"bike_id":"95b2945b-ffe6-48b3-bf28-e602de9e1ba1","system_id":"levelo_inurba_marseille","lat":43.27826,"lon":5.39211,"is_reserved":false,"is_disabled":false,"rental_uris":{"android":"levelo://app?vid=95b2945b-ffe6-48b3-bf28-e602de9e1ba1","ios":"levelo://app?vid=95b2945b-ffe6-48b3-bf28-e602de9e1ba1"},"vehicle_type_id":"4","last_reported":1753578303,"current_range_meters":19600,"station_id":"ce4bhjp2rcd13ifvqga0","pricing_plan_id":"cebpf4jnsgd1na2vs0mg"},{"bike_id":"9fb73f21-6cf0-4c8d-9f44-b53af60309ba","system_id":"levelo_inurba_marseille","lat":43.2989,"lon":5.38889,"is_reserved":false,"is_disabled":false,"rental_uris":{"android":"levelo://app?vid=9fb73f21-6cf0-4c8d-9f44-b53af60309ba","ios":"levelo://app?vid=9fb73f21-6cf0-4c8d-9f44-b53af60309ba"},"vehicle_type_id":"4","last_reported":1753578303,"current_range_meters":19600,"station_id":"ce4bh392rcd13ifvqdl0","pricing_plan_id":"cebpf4jnsgd1na2vs0mg"},{"bike_id":"16e5cd23-3fd9-45a1-a264-f61cc153f328","system_id":"levelo_inurba_marseille","lat":43.28678,"lon":5.38667,"is_reserved":false,"is_disabled":false,"rental_uris":{"android":"levelo://app?vid=16e5cd23-3fd9-45a1-a264-f61cc153f328","ios":"levelo://app?vid=16e5cd23-3fd9-45a1-a264-f61cc153f328"},"vehicle_type_id":"4","last_reported":1753578303,"current_range_meters":19600,"station_id":"ce4bh492rcd13ifvqdug","pricing_plan_id":"cebpf4jnsgd1na2vs0mg"},{"bike_id":"098b018e-2607-4af2-bc10-8758893e88ea","system_id":"levelo_inurba_marseille","lat":43.24066,"lon":5.37773,"is_reserved":false,"is_disabled":false,"rental_uris":{"android":"levelo://app?vid=098b018e-2607-4af2-bc10-8758893e88ea","ios":"levelo://app?vid=098b018e-2607-4af2-bc10-8758893e88ea"},"vehicle_type_id":"4","last_reported":1753578303,"current_range_meters":19600,"station_id":"ce4bhnp2rcd13ifvqgvg","pricing_plan_id":"cebpf4jnsgd1na2vs0mg"},{"bike_id":"3a385d14-8cbb-49e1-94d0-8b1feda1abce","system_id":"levelo_inurba_marseille","lat":43.28694,"lon":5.39979,"is_reserved":false,"is_disabled":false,"rental_uris":{"android":"levelo://app?vid=3a385d14-8cbb-49e1-94d0-8b1feda1abce","ios":"levelo://app?vid=3a385d14-8cbb-49e1-94d0-8b1feda1abce"},"vehicle_type_id":"4","last_reported":1753578303,"current_range_meters":19600,"station_id":"ce4bho92rcd13ifvqh3g","pricing_plan_id":"cebpf4jnsgd1na2vs0mg"},{"bike_id":"e00168b7-a5cc-4782-9fc4-2adde691a41d","system_id":"levelo_inurba_marseille","lat":43.308059,"lon":5.381577,"is_reserved":false,"is_disabled":false,"rental_uris":{"android":"levelo://app?vid=e00168b7-a5cc-4782-9fc4-2adde691a41d","ios":"levelo://app?vid=e00168b7-a5cc-4782-9fc4-2adde691a41d"},"vehicle_type_id":"4","last_reported":1753578303,"current_range_meters":20000,"station_id":"ce4bgt12rcd13ifvqce0","pricing_plan_id":"cebpf4jnsgd1na2vs0mg"},{"bike_id":"768658ed-1084-4cf3-8de4-cf3b64bf976d","system_id":"levelo_inurba_marseille","lat":43.22502,"lon":5.34797,"is_reserved":false,"is_disabled":false,"rental_uris":{"android":"levelo://app?vid=768658ed-1084-4cf3-8de4-cf3b64bf976d","ios":"levelo://app?vid=768658ed-1084-4cf3-8de4-cf3b64bf976d"},"vehicle_type_id":"4","last_reported":1753578303,"current_range_meters":20000,"station_id":"st_cvj5dfep6f1abm77gieg","pricing_plan_id":"cebpf4jnsgd1na2vs0mg"},{"bike_id":"e8677363-cc85-46c6-86eb-6f15a4e071a6","system_id":"levelo_inurba_marseille","lat":43.31369,"lon":5.38505,"is_reserved":false,"is_disabled":false,"rental_uris":{"android":"levelo://app?vid=e8677363-cc85-46c6-86eb-6f15a4e071a6","ios":"levelo://app?vid=e8677363-cc85-46c6-86eb-6f15a4e071a6"},"vehicle_type_id":"4","last_reported":1753578303,"current_range_meters":20000,"station_id":"ce4bgt92rcd13ifvqcf0","pricing_plan_id":"cebpf4jnsgd1na2vs0mg"},{"bike_id":"87c61823-5d39-43d0-877e-1814dfbc4387","system_id":"levelo_inurba_marseille","lat":43.30589,"lon":5.3935,"is_reserved":false,"is_disabled":false,"rental_uris":{"android":"levelo://app?vid=87c61823-5d39-43d0-877e-1814dfbc4387","ios":"levelo://app?vid=87c61823-5d39-43d0-877e-1814dfbc4387"},"vehicle_type_id":"4","last_reported":1753578303,"current_range_meters":20000,"station_id":"ce4bh0p2rcd13ifvqd80","pricing_plan_id":"cebpf4jnsgd1na2vs0mg"},{"bike_id":"f0cdf0c8-bc5a-4d40-b028-109d2b47cbb8","system_id":"levelo_inurba_marseille","lat":43.31706,"lon":5.40461,"is_reserved":false,"is_disabled":false,"rental_uris":{"android":"levelo://app?vid=f0cdf0c8-bc5a-4d40-b028-109d2b47cbb8","ios":"levelo://app?vid=f0cdf0c8-bc5a-4d40-b028-109d2b47cbb8"},"vehicle_type_id":"4","last_reported":1753578303,"current_range_meters":20000,"station_id":"ce4bh012rcd13ifvqd00","pricing_plan_id":"cebpf4jnsgd1na2vs0mg"},{"bike_id":"26267bf1-1646-4f2b-94bd-c5ba4dc4029b","system_id":"levelo_inurba_marseille","lat":43.241003,"lon":5.378062,"is_reserved":false,"is_disabled":false,"rental_uris":{"android":"levelo://app?vid=26267bf1-1646-4f2b-94bd-c5ba4dc4029b","ios":"levelo://app?vid=26267bf1-1646-4f2b-94bd-c5ba4dc4029b"},"vehicle_type_id":"4","last_reported":1753578303,"current_range_meters":20000,"station_id":"ce4bhnp2rcd13ifvqgvg","pricing_plan_id":"cebpf4jnsgd1na2vs0mg"},{"bike_id":"95dd70e4-879c-49e7-b318-a6c71b22a43e","system_id":"levelo_inurba_marseille","lat":43.2703,"lon":5.39295,"is_reserved":false,"is_disabled":false,"rental_uris":{"android":"levelo://app?vid=95dd70e4-879c-49e7-b318-a6c71b22a43e","ios":"levelo://app?vid=95dd70e4-879c-49e7-b318-a6c71b22a43e"},"vehicle_type_id":"4","last_reported":1753578303,"current_range_meters":20000,"station_id":"","pricing_plan_id":"cebpf4jnsgd1na2vs0mg"},{"bike_id":"62f0adcc-1f39-4436-99c8-3e0814d46c2f","system_id":"levelo_inurba_marseille","lat":43.2563,"lon":5.37638,"is_reserved":false,"is_disabled":false,"rental_uris":{"android":"levelo://app?vid=62f0adcc-1f39-4436-99c8-3e0814d46c2f","ios":"levelo://app?vid=62f0adcc-1f39-4436-99c8-3e0814d46c2f"},"vehicle_type_id":"4","last_reported":1753578303,"current_range_meters":20000,"station_id":"","pricing_plan_id":"cebpf4jnsgd1na2vs0mg"},{"bike_id":"149fbe11-3bce-47a0-b584-c7c7bd6bb12f","system_id":"levelo_inurba_marseille","lat":43.216193,"lon":5.344471,"is_reserved":false,"is_disabled":false,"rental_uris":{"android":"levelo://app?vid=149fbe11-3bce-47a0-b584-c7c7bd6bb12f","ios":"levelo://app?vid=149fbe11-3bce-47a0-b584-c7c7bd6bb12f"},"vehicle_type_id":"4","last_reported":1753578303,"current_range_meters":20000,"station_id":"","pricing_plan_id":"cebpf4jnsgd1na2vs0mg"},{"bike_id":"f9aa7fc1-78ac-47ff-96eb-e92a3689a086","system_id":"levelo_inurba_marseille","lat":43.30646,"lon":5.40075,"is_reserved":false,"is_disabled":false,"rental_uris":{"android":"levelo://app?vid=f9aa7fc1-78ac-47ff-96eb-e92a3689a086","ios":"levelo://app?vid=f9aa7fc1-78ac-47ff-96eb-e92a3689a086"},"vehicle_type_id":"4","last_reported":1753578303,"current_range_meters":20000,"station_id":"ce4bh112rcd13ifvqda0","pricing_plan_id":"cebpf4jnsgd1na2vs0mg"},{"bike_id":"334c7ed1-8f77-4195-8a17-b657ad42a225","system_id":"levelo_inurba_marseille","lat":43.30297,"lon":5.39218,"is_reserved":false,"is_disabled":false,"rental_uris":{"android":"levelo://app?vid=334c7ed1-8f77-4195-8a17-b657ad42a225","ios":"levelo://app?vid=334c7ed1-8f77-4195-8a17-b657ad42a225"},"vehicle_type_id":"4","last_reported":1753578303,"current_range_meters":20000,"station_id":"ce4bgkh2rcd13ifvqbk0","pricing_plan_id":"cebpf4jnsgd1na2vs0mg"},{"bike_id":"209c73e6-1f69-4d13-9fed-77cb46eecd05","system_id":"levelo_inurba_marseille","lat":43.34681,"lon":5.38065,"is_reserved":false,"is_disabled":false,"rental_uris":{"android":"levelo://app?vid=209c73e6-1f69-4d13-9fed-77cb46eecd05","ios":"levelo://app?vid=209c73e6-1f69-4d13-9fed-77cb46eecd05"},"vehicle_type_id":"4","last_reported":1753578303,"current_range_meters":20000,"station_id":"","pricing_plan_id":"cebpf4jnsgd1na2vs0mg"},{"bike_id":"8c3c9e13-2d67-4c7c-a58e-0abc80734984","system_id":"levelo_inurba_marseille","lat":43.2945,"lon":5.39757,"is_reserved":false,"is_disabled":false,"rental_uris":{"android":"levelo://app?vid=8c3c9e13-2d67-4c7c-a58e-0abc80734984","ios":"levelo://app?vid=8c3c9e13-2d67-4c7c-a58e-0abc80734984"},