{"last_updated":1753470633,"ttl":60,"version":"2.2","data":{"bikes":[{"bike_id":"3e84e0d6-3adc-43a1-af4c-88d316dbdbdf","system_id":"levelo_inurba_marseille","lat":43.23965,"lon":5.36636,"is_reserved":false,"is_disabled":false,"rental_uris":{"android":"levelo://app?vid=3e84e0d6-3adc-43a1-af4c-88d316dbdbdf","ios":"levelo://app?vid=3e84e0d6-3adc-43a1-af4c-88d316dbdbdf"},"vehicle_type_id":"4","last_reported":1753470633,"current_range_meters":2800,"station_id":"ce4bhi12rcd13ifvqfp0","pricing_plan_id":"cebpf4jnsgd1na2vs0mg"},{"bike_id":"d32ff5ea-577e-4620-80e9-4e6769fd3236","system_id":"levelo_inurba_marseille","lat":43.27378,"lon":5.36256,"is_reserved":false,"is_disabled":false,"rental_uris":{"android":"levelo://app?vid=d32ff5ea-577e-4620-80e9-4e6769fd3236","ios":"levelo://app?vid=d32ff5ea-577e-4620-80e9-4e6769fd3236"},"vehicle_type_id":"4","last_reported":1753470633,"current_range_meters":2800,"station_id":"ce4bhbh2rcd13ifvqeo0","pricing_plan_id":"cebpf4jnsgd1na2vs0mg"},{"bike_id":"3250c58c-c89c-49eb-810e-3b351c268283","system_id":"levelo_inurba_marseille","lat":43.29266,"lon":5.38456,"is_reserved":false,"is_disabled":false,"rental_uris":{"android":"levelo://app?vid=3250c58c-c89c-49eb-810e-3b351c268283","ios":"levelo://app?vid=3250c58c-c89c-49eb-810e-3b351c268283"},"vehicle_type_id":"4","last_reported":1753470633,"current_range_meters":3200,"station_id":"ce4bh692rcd13ifvqea0","pricing_plan_id":"cebpf4jnsgd1na2vs0mg"},{"bike_id":"eadc11bb-1c96-48d1-b358-78c4c2a5e4aa","system_id":"levelo_inurba_marseille","lat":43.25578,"lon":5.3823,"is_reserved":false,"is_disabled":false,"rental_uris":{"android":"levelo://app?vid=eadc11bb-1c96-48d1-b358-78c4c2a5e4aa","ios":"levelo://app?vid=eadc11bb-1c96-48d1-b358-78c4c2a5e4aa"},"vehicle_type_id":"4","last_reported":1753470633,"current_range_meters":3200,"station_id":"ce4bhih2rcd13ifvqfs0","pricing_plan_id":"cebpf4jnsgd1na2vs0mg"},{"bike_id":"310ee429-458e-4a8b-9797-3b0f9d558856","system_id":"levelo_inurba_marseille","lat":43.3029,"lon":5.36891,"is_reserved":false,"is_disabled":false,"rental_uris":{"android":"levelo://app?vid=310ee429-458e-4a8b-9797-3b0f9d558856","ios":"levelo://app?vid=310ee429-458e-4a8b-9797-3b0f9d558856"},"vehicle_type_id":"4","last_reported":1753470633,"current_range_meters":3200,"station_id":"ce4bgqh2rcd13ifvqc5g","pricing_plan_id":"cebpf4jnsgd1na2vs0mg"},{"bike_id":"02b23429-20e1-4354-b9d0-93a2eafa4149","system_id":"levelo_inurba_marseille","lat":43.30948,"lon":5.39025,"is_reserved":false,"is_disabled":false,"rental_uris":{"android":"levelo://app?vid=02b23429-20e1-4354-b9d0-93a2eafa4149","ios":"levelo://app?vid=02b23429-20e1-4354-b9d0-93a2eafa4149"},"vehicle_type_id":"4","last_reported":1753470633,"current_range_meters":3200,"station_id":"ce4bgup2rcd13ifvqco0","pricing_plan_id":"cebpf4jnsgd1na2vs0mg"},{"bike_id":"fe65d7d6-638d-40a5-bccf-533e7cf482a6","system_id":"levelo_inurba_marseille","lat":43.28366,"lon":5.43241,"is_reserved":false,"is_disabled":false,"rental_uris":{"android":"levelo://app?vid=fe65d7d6-638d-40a5-bccf-533e7cf482a6","ios":"levelo://app?vid=fe65d7d6-638d-40a5-bccf-533e7cf482a6"},"vehicle_type_id":"4","last_reported":1753470633,"current_range_meters":3600,"station_id":"","pricing_plan_id":"cebpf4jnsgd1na2vs0mg"},{"bike_id":"b90cdac8-1fdf-465e-bb64-ce4951e68ae7","system_id":"levelo_inurba_marseille","lat":43.28611,"lon":5.37079,"is_reserved":false,"is_disabled":false,"rental_uris":{"android":"levelo://app?vid=b90cdac8-1fdf-465e-bb64-ce4951e68ae7","ios":"levelo://app?vid=b90cdac8-1fdf-465e-bb64-ce4951e68ae7"},"vehicle_type_id":"4","last_reported":1753470633,"current_range_meters":4000,"station_id":"ce4bht12rcd13ifvqi60","pricing_plan_id":"cebpf4jnsgd1na2vs0mg"},{"bike_id":"b1d3f594-2712-43c5-b6b8-eff69d289650","system_id":"levelo_inurba_marseille","lat":43.26211,"lon":5.3744,"is_reserved":false,"is_disabled":false,"rental_uris":{"android":"levelo://app?vid=b1d3f594-2712-43c5-b6b8-eff69d289650","ios":"levelo://app?vid=b1d3f594-2712-43c5-b6b8-eff69d289650"},"vehicle_type_id":"4","last_reported":1753470633,"current_range_meters":4000,"station_id":"ce4bhgp2rcd13ifvqfc0","pricing_plan_id":"cebpf4jnsgd1na2vs0mg"},{"bike_id":"e076b5bc-a217-44f6-8580-cdf26ac8fbae","system_id":"levelo_inurba_marseille","lat":43.25576,"lon":5.38238,"is_reserved":false,"is_disabled":false,"rental_uris":{"android":"levelo://app?vid=e076b5bc-a217-44f6-8580-cdf26ac8fbae","ios":"levelo://app?vid=e076b5bc-a217-44f6-8580-cdf26ac8fbae"},"vehicle_type_id":"4","last_reported":1753470633,"current_range_meters":4400,"station_id":"ce4bhih2rcd13ifvqfs0","pricing_plan_id":"cebpf4jnsgd1na2vs0mg"},{"bike_id":"734beb0a-2b5b-4f92-a0b4-f138fc3076ee","system_id":"levelo_inurba_marseille","lat":43.22491,"lon":5.34797,"is_reserved":false,"is_disabled":false,"rental_uris":{"android":"levelo://app?vid=734beb0a-2b5b-4f92-a0b4-f138fc3076ee","ios":"levelo://app?vid=734beb0a-2b5b-4f92-a0b4-f138fc3076ee"},"vehicle_type_id":"4","last_reported":1753470633,"current_range_meters":4400,"station_id":"st_cvj5dfep6f1abm77gieg","pricing_plan_id":"cebpf4jnsgd1na2vs0mg"},{"bike_id":"73d9bc43-8a95-4600-b0a2-0192144e6534","system_id":"levelo_inurba_marseille","lat":43.24153,"lon":5.39721,"is_reserved":false,"is_disabled":false,"rental_uris":{"android":"levelo://app?vid=73d9bc43-8a95-4600-b0a2-0192144e6534","ios":"levelo://app?vid=73d9bc43-8a95-4600-b0a2-0192144e6534"},"vehicle_type_id":"4","last_reported":1753470633,"current_range_meters":4400,"station_id":"ce4bhn12rcd13ifvqgpg","pricing_plan_id":"cebpf4jnsgd1na2vs0mg"},{"bike_id":"3a2696d7-8a9e-4664-8562-44e053f6445a","system_id":"levelo_inurba_marseille","lat":43.29261,"lon":5.38436,"is_reserved":false,"is_disabled":false,"rental_uris":{"android":"levelo://app?vid=3a2696d7-8a9e-4664-8562-44e053f6445a","ios":"levelo://app?vid=3a2696d7-8a9e-4664-8562-44e053f6445a"},"vehicle_type_id":"4","last_reported":1753470633,"current_range_meters":4400,"station_id":"ce4bh692rcd13ifvqea0","pricing_plan_id":"cebpf4jnsgd1na2vs0mg"},{"bike_id":"81138dbc-60d9-4d06-a380-cdc0cb090e4d","system_id":"levelo_inurba_marseille","lat":43.30141,"lon":5.38057,"is_reserved":false,"is_disabled":false,"rental_uris":{"android":"levelo://app?vid=81138dbc-60d9-4d06-a380-cdc0cb090e4d","ios":"levelo://app?vid=81138dbc-60d9-4d06-a380-cdc0cb090e4d"},"vehicle_type_id":"4","last_reported":1753470633,"current_range_meters":5600,"station_id":"ce4bgjp2rcd13ifvqbh0","pricing_plan_id":"cebpf4jnsgd1na2vs0mg"},{"bike_id":"0028e0f3-678c-4faf-ba9e-10adf41b64b0","system_id":"levelo_inurba_marseille","lat":43.23147,"lon":5.43717,"is_reserved":false,"is_disabled":false,"rental_uris":{"android":"levelo://app?vid=0028e0f3-678c-4faf-ba9e-10adf41b64b0","ios":"levelo://app?vid=0028e0f3-678c-4faf-ba9e-10adf41b64b0"},"vehicle_type_id":"4","last_reported":1753470633,"current_range_meters":6000,"station_id":"ce4bhmp2rcd13ifvqgog","pricing_plan_id":"cebpf4jnsgd1na2vs0mg"},{"bike_id":"d87b56f9-aec8-4c18-8340-d7aba9319bde","system_id":"levelo_inurba_marseille","lat":43.27511,"lon":5.39646,"is_reserved":false,"is_disabled":false,"rental_uris":{"android":"levelo://app?vid=d87b56f9-aec8-4c18-8340-d7aba9319bde","ios":"levelo://app?vid=d87b56f9-aec8-4c18-8340-d7aba9319bde"},"vehicle_type_id":"4","last_reported":1753470633,"current_range_meters":6000,"station_id":"","pricing_plan_id":"cebpf4jnsgd1na2vs0mg"},{"bike_id":"7b76013c-00af-45ba-94ae-f0b0ee9d77ac","system_id":"levelo_inurba_marseille","lat":43.29281,"lon":5.36852,"is_reserved":false,"is_disabled":false,"rental_uris":{"android":"levelo://app?vid=7b76013c-00af-45ba-94ae-f0b0ee9d77ac","ios":"levelo://app?vid=7b76013c-00af-45ba-94ae-f0b0ee9d77ac"},"vehicle_type_id":"4","last_reported":1753470633,"current_range_meters":6000,"station_id":"ce4bhbp2rcd13ifvqesg","pricing_plan_id":"cebpf4jnsgd1na2vs0mg"},{"bike_id":"1db57e3b-8e15-4948-b30e-2956de7e5dcb","system_id":"levelo_inurba_marseille","lat":43.22501,"lon":5.34779,"is_reserved":false,"is_disabled":false,"rental_uris":{"android":"levelo://app?vid=1db57e3b-8e15-4948-b30e-2956de7e5dcb","ios":"levelo://app?vid=1db57e3b-8e15-4948-b30e-2956de7e5dcb"},"vehicle_type_id":"4","last_reported":1753470633,"current_range_meters":6400,"station_id":"st_cvj5dfep6f1abm77gieg","pricing_plan_id":"cebpf4jnsgd1na2vs0mg"},{"bike_id":"3843a00f-81d8-45fd-a52a-64868b9c8532","system_id":"levelo_inurba_marseille","lat":43.29757,"lon":5.37758,"is_reserved":false,"is_disabled":false,"rental_uris":{"android":"levelo://app?vid=3843a00f-81d8-45fd-a52a-64868b9c8532","ios":"levelo://app?vid=3843a00f-81d8-45fd-a52a-64868b9c8532"},"vehicle_type_id":"4","last_reported":1753470633,"current_range_meters":6400,"station_id":"","pricing_plan_id":"cebpf4jnsgd1na2vs0mg"},{"bike_id":"ecb65d3c-387e-42cf-ac63-3fd149ea4f6c","system_id":"levelo_inurba_marseille","lat":43.30945,"lon":5.39037,"is_reserved":false,"is_disabled":false,"rental_uris":{"android":"levelo://app?vid=ecb65d3c-387e-42cf-ac63-3fd149ea4f6c","ios":"levelo://app?vid=ecb65d3c-387e-42cf-ac63-3fd149ea4f6c"},"vehicle_type_id":"4","last_reported":1753470633,"current_range_meters":6800,"station_id":"ce4bgup2rcd13ifvqco0","pricing_plan_id":"cebpf4jnsgd1na2vs0mg"},{"bike_id":"e19cd9bd-8f1f-4909-a624-5af678243303","system_id":"levelo_inurba_marseille","lat":43.29064,"lon":5.39862,"is_reserved":false,"is_disabled":false,"rental_uris":{"android":"levelo://app?vid=e19cd9bd-8f1f-4909-a624-5af678243303","ios":"levelo://app?vid=e19cd9bd-8f1f-4909-a624-5af678243303"},"vehicle_type_id":"4","last_reported":1753470633,"current_range_meters":6800,"station_id":"","pricing_plan_id":"cebpf4jnsgd1na2vs0mg"},{"bike_id":"5cc2f126-8add-4502-8785-12095c602f14","system_id":"levelo_inurba_marseille","lat":43.29792,"lon":5.38082,"is_reserved":false,"is_disabled":false,"rental_uris":{"android":"levelo://app?vid=5cc2f126-8add-4502-8785-12095c602f14","ios":"levelo://app?vid=5cc2f126-8add-4502-8785-12095c602f14"},"vehicle_type_id":"4","last_reported":1753470633,"current_range_meters":6800,"station_id":"ce4bgip2rcd13ifvqbb0","pricing_plan_id":"cebpf4jnsgd1na2vs0mg"},{"bike_id":"d6c61f4c-6e15-4a95-9851-c04c8dda69b8","system_id":"levelo_inurba_marseille","lat":43.29435,"lon":5.39747,"is_reserved":false,"is_disabled":false,"rental_uris":{"android":"levelo://app?vid=d6c61f4c-6e15-4a95-9851-c04c8dda69b8","ios":"levelo://app?vid=d6c61f4c-6e15-4a95-9851-c04c8dda69b8"},"vehicle_type_id":"4","last_reported":1753470633,"current_range_meters":6400,"station_id":"ce4bh3h2rcd13ifvqdo0","pricing_plan_id":"cebpf4jnsgd1na2vs0mg"},{"bike_id":"d3bedfed-100f-476b-ae4c-734f63ce3b43","system_id":"levelo_inurba_marseille","lat":43.29262,"lon":5.38437,"is_reserved":false,"is_disabled":false,"rental_uris":{"android":"levelo://app?vid=d3bedfed-100f-476b-ae4c-734f63ce3b43","ios":"levelo://app?vid=d3bedfed-100f-476b-ae4c-734f63ce3b43"},"vehicle_type_id":"4","last_reported":1753470633,"current_range_meters":6800,"station_id":"ce4bh692rcd13ifvqea0","pricing_plan_id":"cebpf4jnsgd1na2vs0mg"},{"bike_id":"fa7ff071-de7f-454d-b111-26b9d91e2c20","system_id":"levelo_inurba_marseille","lat":43.295258,"lon":5.385497,"is_reserved":false,"is_disabled":false,"rental_uris":{"android":"levelo://app?vid=fa7ff071-de7f-454d-b111-26b9d91e2c20","ios":"levelo://app?vid=fa7ff071-de7f-454d-b111-26b9d91e2c20"},"vehicle_type_id":"4","last_reported":1753470633,"current_range_meters":6800,"station_id":"ce4bgih2rcd13ifvqba0","pricing_plan_id":"cebpf4jnsgd1na2vs0mg"},{"bike_id":"983d8c4f-47ff-40b5-aba3-bf1758ecd969","system_id":"levelo_inurba_marseille","lat":43.24555,"lon":5.39521,"is_reserved":false,"is_disabled":false,"rental_uris":{"android":"levelo://app?vid=983d8c4f-47ff-40b5-aba3-bf1758ecd969","ios":"levelo://app?vid=983d8c4f-47ff-40b5-aba3-bf1758ecd969"},"vehicle_type_id":"4","last_reported":1753470633,"current_range_meters":6800,"station_id":"ce4bhlp2rcd13ifvqgjg","pricing_plan_id":"cebpf4jnsgd1na2vs0mg"},{"bike_id":"49a25020-c17f-426d-a295-c677da1110b3","system_id":"levelo_inurba_marseille","lat":43.26225,"lon":5.37455,"is_reserved":false,"is_disabled":true,"rental_uris":{"android":"levelo://app?vid=49a25020-c17f-426d-a295-c677da1110b3","ios":"levelo://app?vid=49a25020-c17f-426d-a295-c677da1110b3"},"vehicle_type_id":"4","last_reported":1753470633,"current_range_meters":6800,"station_id":"ce4bhgp2rcd13ifvqfc0","pricing_plan_id":"cebpf4jnsgd1na2vs0mg"},{"bike_id":"fe93f8bf-ade7-4616-9f91-7e728d8fdd24","system_id":"levelo_inurba_marseille","lat":43.30185,"lon":5.36631,"is_reserved":false,"is_disabled":false,"rental_uris":{"android":"levelo://app?vid=fe93f8bf-ade7-4616-9f91-7e728d8fdd24","ios":"levelo://app?vid=fe93f8bf-ade7-4616-9f91-7e728d8fdd24"},"vehicle_type_id":"4","last_reported":1753470633,"current_range_meters":7200,"station_id":"ce4bgrh2rcd13ifvqc8g","pricing_plan_id":"cebpf4jnsgd1na2vs0mg"},{"bike_id":"b93c0803-f824-4cb7-a4ed-57da1403b68e","system_id":"levelo_inurba_marseille","lat":43.325583,"lon":5.379059,"is_reserved":false,"is_disabled":true,"rental_uris":{"android":"levelo://app?vid=b93c0803-f824-4cb7-a4ed-57da1403b68e","ios":"levelo://app?vid=b93c0803-f824-4cb7-a4ed-57da1403b68e"},"vehicle_type_id":"4","last_reported":1753470633,"current_range_meters":7200,"station_id":"","pricing_plan_id":"cebpf4jnsgd1na2vs0mg"},{"bike_id":"3ba0188f-da0d-4f0f-a8e2-1c6ba03a6898","system_id":"levelo_inurba_marseille","lat":43.29933,"lon":5.36553,"is_reserved":false,"is_disabled":false,"rental_uris":{"android":"levelo://app?vid=3ba0188f-da0d-4f0f-a8e2-1c6ba03a6898","ios":"levelo://app?vid=3ba0188f-da0d-4f0f-a8e2-1c6ba03a6898"},"vehicle_type_id":"4","last_reported":1753470633,"current_range_meters":7200,"station_id":"ce4bgm92rcd13ifvqbr0","pricing_plan_id":"cebpf4jnsgd1na2vs0mg"},{"bike_id":"51979a68-a8cc-400e-b7b9-cd8004031e65","system_id":"levelo_inurba_marseille","lat":43.22498,"lon":5.34773,"is_reserved":false,"is_disabled":false,"rental_uris":{"android":"levelo://app?vid=51979a68-a8cc-400e-b7b9-cd8004031e65","ios":"levelo://app?vid=51979a68-a8cc-400e-b7b9-cd8004031e65"},"vehicle_type_id":"4","last_reported":1753470633,"current_range_meters":7200,"station_id":"st_cvj5dfep6f1abm77gieg","pricing_plan_id":"cebpf4jnsgd1na2vs0mg"},{"bike_id":"7bb728c8-f478-41b1-a1e8-4be8d9293545","system_id":"levelo_inurba_marseille","lat":43.26189,"lon":5.37449,"is_reserved":false,"is_disabled":false,"rental_uris":{"android":"levelo://app?vid=7bb728c8-f478-41b1-a1e8-4be8d9293545","ios":"levelo://app?vid=7bb728c8-f478-41b1-a1e8-4be8d9293545"},"vehicle_type_id":"4","last_reported":1753470633,"current_range_meters":7200,"station_id":"ce4bhgp2rcd13ifvqfc0","pricing_plan_id":"cebpf4jnsgd1na2vs0mg"},{"bike_id":"a7002a54-f1b3-45b4-be4e-f1fdb6c92c03","system_id":"levelo_inurba_marseille","lat":43.30947,"lon":5.39028,"is_reserved":false,"is_disabled":false,"rental_uris":{"android":"levelo://app?vid=a7002a54-f1b3-45b4-be4e-f1fdb6c92c03","ios":"levelo://app?vid=a7002a54-f1b3-45b4-be4e-f1fdb6c92c03"},"vehicle_type_id":"4","last_reported":1753470633,"current_range_meters":8000,"station_id":"ce4bgup2rcd13ifvqco0","pricing_plan_id":"cebpf4jnsgd1na2vs0mg"},{"bike_id":"b2d9b512-461e-4c22-8160-83c7cfb0cdf8","system_id":"levelo_inurba_marseille","lat":43.27944,"lon":5.41058,"is_reserved":false,"is_disabled":true,"rental_uris":{"android":"levelo://app?vid=b2d9b512-461e-4c22-8160-83c7cfb0cdf8","ios":"levelo://app?vid=b2d9b512-461e-4c22-8160-83c7cfb0cdf8"},"vehicle_type_id":"4","last_reported":1753470633,"current_range_meters":8000,"station_id":"ce4bhnp2rcd13ifvqh0g","pricing_plan_id":"cebpf4jnsgd1na2vs0mg"},{"bike_id":"2682e007-93e9-4594-a252-431d72af2e58","system_id":"levelo_inurba_marseille","lat":43.311723,"lon":5.387198,"is_reserved":false,"is_disabled":false,"rental_uris":{"android":"levelo://app?vid=2682e007-93e9-4594-a252-431d72af2e58","ios":"levelo://app?vid=2682e007-93e9-4594-a252-431d72af2e58"},"vehicle_type_id":"4","last_reported":1753470633,"current_range_meters":8000,"station_id":"ce4bgv12rcd13ifvqcp0","pricing_plan_id":"cebpf4jnsgd1na2vs0mg"},{"bike_id":"7b8f0b84-b522-44ab-860c-924f0c398730","system_id":"levelo_inurba_marseille","lat":43.28148,"lon":5.42635,"is_reserved":false,"is_disabled":true,"rental_uris":{"android":"levelo://app?vid=7b8f0b84-b522-44ab-860c-924f0c398730","ios":"levelo://app?vid=7b8f0b84-b522-44ab-860c-924f0c398730"},"vehicle_type_id":"4","last_reported":1753470633,"current_range_meters":8000,"station_id":"ce4bhnh2rcd13ifvqgug","pricing_plan_id":"cebpf4jnsgd1na2vs0mg"},{"bike_id":"bcfeb788-eed8-4a22-9566-78b3af0fa09b","system_id":"levelo_inurba_marseille","lat":43.29899,"lon":5.3759,"is_reserved":false,"is_disabled":false,"rental_uris":{"android":"levelo://app?vid=bcfeb788-eed8-4a22-9566-78b3af0fa09b","ios":"levelo://app?vid=bcfeb788-eed8-4a22-9566-78b3af0fa09b"},"vehicle_type_id":"4","last_reported":1753470633,"current_range_meters":8000,"station_id":"","pricing_plan_id":"cebpf4jnsgd1na2vs0mg"},{"bike_id":"0faff5a6-7845-401b-9705-302799bd0ce4","system_id":"levelo_inurba_marseille","lat":43.29709,"lon":5.37901,"is_reserved":false,"is_disabled":false,"rental_uris":{"android":"levelo://app?vid=0faff5a6-7845-401b-9705-302799bd0ce4","ios":"levelo://app?vid=0faff5a6-7845-401b-9705-302799bd0ce4"},"vehicle_type_id":"4","last_reported":1753470633,"current_range_meters":8400,"station_id":"","pricing_plan_id":"cebpf4jnsgd1na2vs0mg"},{"bike_id":"9d3577ed-421f-4dba-9bac-9bd2049348e1","system_id":"levelo_inurba_marseille","lat":43.25009,"lon":5.38945,"is_reserved":false,"is_disabled":false,"rental_uris":{"android":"levelo://app?vid=9d3577ed-421f-4dba-9bac-9bd2049348e1","ios":"levelo://app?vid=9d3577ed-421f-4dba-9bac-9bd2049348e1"},"vehicle_type_id":"4","last_reported":1753470633,"current_range_meters":8400,"station_id":"ce4bhgp2rcd13ifvqfd0","pricing_plan_id":"cebpf4jnsgd1na2vs0mg"},{"bike_id":"db721005-4ee9-4969-9084-915de71099eb","system_id":"levelo_inurba_marseille","lat":43.28841,"lon":5.35863,"is_reserved":false,"is_disabled":false,"rental_uris":{"android":"levelo://app?vid=db721005-4ee9-4969-9084-915de71099eb","ios":"levelo://app?vid=db721005-4ee9-4969-9084-915de71099eb"},"vehicle_type_id":"4","last_reported":1753470633,"current_range_meters":8400,"station_id":"ce4bhb12rcd13ifvqem0","pricing_plan_id":"cebpf4jnsgd1na2vs0mg"},{"bike_id":"24d71a2d-964f-4b8f-8dc4-27ae425e4a9b","system_id":"levelo_inurba_marseille","lat":43.30628,"lon":5.39315,"is_reserved":false,"is_disabled":false,"rental_uris":{"android":"levelo://app?vid=24d71a2d-964f-4b8f-8dc4-27ae425e4a9b","ios":"levelo://app?vid=24d71a2d-964f-4b8f-8dc4-27ae425e4a9b"},"vehicle_type_id":"4","last_reported":1753470633,"current_range_meters":9600,"station_id":"","pricing_plan_id":"cebpf4jnsgd1na2vs0mg"},{"bike_id":"65fabc23-cf2a-4ca8-a868-9941476ce202","system_id":"levelo_inurba_marseille","lat":43.23679,"lon":5.3618,"is_reserved":false,"is_disabled":false,"rental_uris":{"android":"levelo://app?vid=65fabc23-cf2a-4ca8-a868-9941476ce202","ios":"levelo://app?vid=65fabc23-cf2a-4ca8-a868-9941476ce202"},"vehicle_type_id":"4","last_reported":1753470633,"current_range_meters":8400,"station_id":"","pricing_plan_id":"cebpf4jnsgd1na2vs0mg"},{"bike_id":"f28d2bb9-4217-4196-a573-ba6f4c172497","system_id":"levelo_inurba_marseille","lat":43.28158,"lon":5.36084,"is_reserved":false,"is_disabled":false,"rental_uris":{"android":"levelo://app?vid=f28d2bb9-4217-4196-a573-ba6f4c172497","ios":"levelo://app?vid=f28d2bb9-4217-4196-a573-ba6f4c172497"},"vehicle_type_id":"4","last_reported":1753470633,"current_range_meters":8400,"station_id":"","pricing_plan_id":"cebpf4jnsgd1na2vs0mg"},{"bike_id":"fd4ba70a-7bfa-434e-8564-04bf25cc9f63","system_id":"levelo_inurba_marseille","lat":43.281107,"lon":5.441119,"is_reserved":false,"is_disabled":false,"rental_uris":{"android":"levelo://app?vid=fd4ba70a-7bfa-434e-8564-04bf25cc9f63","ios":"levelo://app?vid=fd4ba70a-7bfa-434e-8564-04bf25cc9f63"},"vehicle_type_id":"4","last_reported":1753470633,"current_range_meters":8400,"station_id":"","pricing_plan_id":"cebpf4jnsgd1na2vs0mg"},{"bike_id":"6db9c63d-851a-4a31-b505-3a9297ae8a53","system_id":"levelo_inurba_marseille","lat":43.29415,"lon":5.38572,"is_reserved":false,"is_disabled":false,"rental_uris":{"android":"levelo://app?vid=6db9c63d-851a-4a31-b505-3a9297ae8a53","ios":"levelo://app?vid=6db9c63d-851a-4a31-b505-3a9297ae8a53"},"vehicle_type_id":"4","last_reported":1753470633,"current_range_meters":8800,"station_id":"","pricing_plan_id":"cebpf4jnsgd1na2vs0mg"},{"bike_id":"2f0c87a9-25c9-4dc8-a25e-919ebba04486","system_id":"levelo_inurba_marseille","lat":43.26192,"lon":5.37452,"is_reserved":false,"is_disabled":false,"rental_uris":{"android":"levelo://app?vid=2f0c87a9-25c9-4dc8-a25e-919ebba04486","ios":"levelo://app?vid=2f0c87a9-25c9-4dc8-a25e-919ebba04486"},"vehicle_type_id":"4","last_reported":1753470633,"current_range_meters":8800,"station_id":"ce4bhgp2rcd13ifvqfc0","pricing_plan_id":"cebpf4jnsgd1na2vs0mg"},{"bike_id":"915b0aa2-842b-4f6f-bf13-8ac539a3421c","system_id":"levelo_inurba_marseille","lat":43.29308,"lon":5.37464,"is_reserved":false,"is_disabled":false,"rental_uris":{"android":"levelo://app?vid=915b0aa2-842b-4f6f-bf13-8ac539a3421c","ios":"levelo://app?vid=915b0aa2-842b-4f6f-bf13-8ac539a3421c"},"vehicle_type_id":"4","last_reported":1753470633,"current_range_meters":8800,"station_id":"ce4bgi12rcd13ifvqb70","pricing_plan_id":"cebpf4jnsgd1na2vs0mg"},{"bike_id":"88a0b957-920c-4ce8-8d6b-5a7f3d8556bd","system_id":"levelo_inurba_marseille","lat":43.24652,"lon":5.38878,"is_reserved":false,"is_disabled":false,"rental_uris":{"android":"levelo://app?vid=88a0b957-920c-4ce8-8d6b-5a7f3d8556bd","ios":"levelo://app?vid=88a0b957-920c-4ce8-8d6b-5a7f3d8556bd"},"vehicle_type_id":"4","last_reported":1753470633,"current_range_meters":8800,"station_id":"ce4bhg12rcd13ifvqf60","pricing_plan_id":"cebpf4jnsgd1na2vs0mg"},{"bike_id":"6495f997-f44f-4ba1-98a3-159e53a372c0","system_id":"levelo_inurba_marseille","lat":43.27319,"lon":5.39071,"is_reserved":false,"is_disabled":false,"rental_uris":{"android":"levelo://app?vid=6495f997-f44f-4ba1-98a3-159e53a372c0","ios":"levelo://app?vid=6495f997-f44f-4ba1-98a3-159e53a372c0"},"vehicle_type_id":"4","last_reported":1753470633,"current_range_meters":8400,"station_id":"ce4bhgp2rcd13ifvqfe0","pricing_plan_id":"cebpf4jnsgd1na2vs0mg"},{"bike_id":"68801fee-efc8-485b-a110-a36431796a83","system_id":"levelo_inurba_marseille","lat":43.29587,"lon":5.37501,"is_reserved":false,"is_disabled":true,"rental_uris":{"android":"levelo://app?vid=68801fee-efc8-485b-a110-a36431796a83","ios":"levelo://app?vid=68801fee-efc8-485b-a110-a36431796a83"},"vehicle_type_id":"4","last_reported":1753470633,"current_range_meters":9200,"station_id":"ce4bgh92rcd13ifvqb50","pricing_plan_id":"cebpf4jnsgd1na2vs0mg"},{"bike_id":"a39b21e4-ddfb-4d44-804b-953c47a11a53","system_id":"levelo_inurba_marseille","lat":43.3172,"lon":5.423964,"is_reserved":false,"is_disabled":false,"rental_uris":{"android":"levelo://app?vid=a39b21e4-ddfb-4d44-804b-953c47a11a53","ios":"levelo://app?vid=a39b21e4-ddfb-4d44-804b-953c47a11a53"},"vehicle_type_id":"4","last_reported":1753470633,"current_range_meters":9200,"station_id":"ce4bhp92rcd13ifvqhbg","pricing_plan_id":"cebpf4jnsgd1na2vs0mg"},{"bike_id":"e6d24950-face-42d2-87ef-cf280646f824","system_id":"levelo_inurba_marseille","lat":43.29534,"lon":5.38543,"is_reserved":false,"is_disabled":false,"rental_uris":{"android":"levelo://app?vid=e6d24950-face-42d2-87ef-cf280646f824","ios":"levelo://app?vid=e6d24950-face-42d2-87ef-cf280646f824"},"vehicle_type_id":"4","last_reported":1753470633,"current_range_meters":9200,"station_id":"ce4bgih2rcd13ifvqba0","pricing_plan_id":"cebpf4jnsgd1na2vs0mg"},{"bike_id":"3c3aae01-fbac-43a0-8e1b-5a613efb7dcc","system_id":"levelo_inurba_marseille","lat":43.299622,"lon":5.384903,"is_reserved":false,"is_disabled":false,"rental_uris":{"android":"levelo://app?vid=3c3aae01-fbac-43a0-8e1b-5a613efb7dcc","ios":"levelo://app?vid=3c3aae01-fbac-43a0-8e1b-5a613efb7dcc"},"vehicle_type_id":"4","last_reported":1753470633,"current_range_meters":9200,"station_id":"ce4bgj92rcd13ifvqbd0","pricing_plan_id":"cebpf4jnsgd1na2vs0mg"},{"bike_id":"8708bae9-dd19-4f85-aabc-d145003adfcc","system_id":"levelo_inurba_marseille","lat":43.32275,"lon":5.38275,"is_reserved":false,"is_disabled":false,"rental_uris":{"android":"levelo://app?vid=8708bae9-dd19-4f85-aabc-d145003adfcc","ios":"levelo://app?vid=8708bae9-dd19-4f85-aabc-d145003adfcc"},"vehicle_type_id":"4","last_reported":1753470633,"current_range_meters":9200,"station_id":"ce4bhr12rcd13ifvqhqg","pricing_plan_id":"cebpf4jnsgd1na2vs0mg"},{"bike_id":"35dc3ef1-bc46-45f2-b0d3-49aee6e95017","system_id":"levelo_inurba_marseille","lat":43.292613,"lon":5.384367,"is_reserved":false,"is_disabled":false,"rental_uris":{"android":"levelo://app?vid=35dc3ef1-bc46-45f2-b0d3-49aee6e95017","ios":"levelo://app?vid=35dc3ef1-bc46-45f2-b0d3-49aee6e95017"},"vehicle_type_id":"4","last_reported":1753470633,"current_range_meters":8800,"station_id":"ce4bh692rcd13ifvqea0","pricing_plan_id":"cebpf4jnsgd1na2vs0mg"},{"bike_id":"7fd840bf-3d88-4248-9d56-a1ccae6f36de","system_id":"levelo_inurba_marseille","lat":43.3079,"lon":5.37655,"is_reserved":false,"is_disabled":false,"rental_uris":{"android":"levelo://app?vid=7fd840bf-3d88-4248-9d56-a1ccae6f36de","ios":"levelo://app?vid=7fd840bf-3d88-4248-9d56-a1ccae6f36de"},"vehicle_type_id":"4","last_reported":1753470633,"current_range_meters":9600,"station_id":"ce4bgv92rcd13ifvqcq0","pricing_plan_id":"cebpf4jnsgd1na2vs0mg"},{"bike_id":"a1676a90-aeae-4e28-8472-3e88e730a66f","system_id":"levelo_inurba_marseille","lat":43.290478,"lon":5.43967,"is_reserved":false,"is_disabled":false,"rental_uris":{"android":"levelo://app?vid=a1676a90-aeae-4e28-8472-3e88e730a66f","ios":"levelo://app?vid=a1676a90-aeae-4e28-8472-3e88e730a66f"},"vehicle_type_id":"4","last_reported":1753470633,"current_range_meters":9600,"station_id":"","pricing_plan_id":"cebpf4jnsgd1na2vs0mg"},{"bike_id":"a1db8ff6-4d98-4043-8b86-a3e2d3a47b99","system_id":"levelo_inurba_marseille","lat":43.3093,"lon":5.39018,"is_reserved":false,"is_disabled":false,"rental_uris":{"android":"levelo://app?vid=a1db8ff6-4d98-4043-8b86-a3e2d3a47b99","ios":"levelo://app?vid=a1db8ff6-4d98-4043-8b86-a3e2d3a47b99"},"vehicle_type_id":"4","last_reported":1753470633,"current_range_meters":9600,"station_id":"ce4bgup2rcd13ifvqco0","pricing_plan_id":"cebpf4jnsgd1na2vs0mg"},{"bike_id":"5183fde4-6a09-4470-a606-c5481cf5fb53","system_id":"levelo_inurba_marseille","lat":43.2174,"lon":5.34607,"is_reserved":false,"is_disabled":false,"rental_uris":{"android":"levelo://app?vid=5183fde4-6a09-4470-a606-c5481cf5fb53","ios":"levelo://app?vid=5183fde4-6a09-4470-a606-c5481cf5fb53"},"vehicle_type_id":"4","last_reported":1753470633,"current_range_meters":9600,"station_id":"","pricing_plan_id":"cebpf4jnsgd1na2vs0mg"},{"bike_id":"5b94eff9-2e0f-4c0e-b3f6-ab7ca2eca31a","system_id":"levelo_inurba_marseille","lat":43.27381,"lon":5.36256,"is_reserved":false,"is_disabled":true,"rental_uris":{"android":"levelo://app?vid=5b94eff9-2e0f-4c0e-b3f6-ab7ca2eca31a","ios":"levelo://app?vid=5b94eff9-2e0f-4c0e-b3f6-ab7ca2eca31a"},"vehicle_type_id":"4","last_reported":1753470633,"current_range_meters":9600,"station_id":"ce4bhbh2rcd13ifvqeo0","pricing_plan_id":"cebpf4jnsgd1na2vs0mg"},{"bike_id":"c33ca5fe-1b5e-4a19-9aa5-840ad46394e0","system_id":"levelo_inurba_marseille","lat":43.29743,"lon":5.3771,"is_reserved":false,"is_disabled":true,"rental_uris":{"android":"levelo://app?vid=c33ca5fe-1b5e-4a19-9aa5-840ad46394e0","ios":"levelo://app?vid=c33ca5fe-1b5e-4a19-9aa5-840ad46394e0"},"vehicle_type_id":"4","last_reported":1753470633,"current_range_meters":9600,"station_id":"ce4bgkh2rcd13ifvqbl0","pricing_plan_id":"cebpf4jnsgd1na2vs0mg"},{"bike_id":"2e8e7fa4-47bc-4567-b903-96abfb4fdf66","system_id":"levelo_inurba_marseille","lat":43.293174,"lon":5.445262,"is_reserved":false,"is_disabled":false,"rental_uris":{"android":"levelo://app?vid=2e8e7fa4-47bc-4567-b903-96abfb4fdf66","ios":"levelo://app?vid=2e8e7fa4-47bc-4567-b903-96abfb4fdf66"},"vehicle_type_id":"4","last_reported":1753470633,"current_range_meters":9600,"station_id":"","pricing_plan_id":"cebpf4jnsgd1na2vs0mg"},{"bike_id":"8ff81c50-84f5-4396-9234-5fcc2ed43a6f","system_id":"levelo_inurba_marseille","lat":43.30951,"lon":5.39039,"is_reserved":false,"is_disabled":false,"rental_uris":{"android":"levelo://app?vid=8ff81c50-84f5-4396-9234-5fcc2ed43a6f","ios":"levelo://app?vid=8ff81c50-84f5-4396-9234-5fcc2ed43a6f"},"vehicle_type_id":"4","last_reported":1753470633,"current_range_meters":9600,"station_id":"ce4bgup2rcd13ifvqco0","pricing_plan_id":"cebpf4jnsgd1na2vs0mg"},{"bike_id":"30527ced-f0b7-48e9-a7fb-131416e0d5d3","system_id":"levelo_inurba_marseille","lat":43.29534,"lon":5.38532,"is_reserved":false,"is_disabled":false,"rental_uris":{"android":"levelo://app?vid=30527ced-f0b7-48e9-a7fb-131416e0d5d3","ios":"levelo://app?vid=30527ced-f0b7-48e9-a7fb-131416e0d5d3"},"vehicle_type_id":"4","last_reported":1753470633,"current_range_meters":9600,"station_id":"ce4bgih2rcd13ifvqba0","pricing_plan_id":"cebpf4jnsgd1na2vs0mg"},{"bike_id":"4cd2edd6-2fc5-492f-9012-2f2145f333e2","system_id":"levelo_inurba_marseille","lat":43.29518,"lon":5.37493,"is_reserved":false,"is_disabled":false,"rental_uris":{"android":"levelo://app?vid=4cd2edd6-2fc5-492f-9012-2f2145f333e2","ios":"levelo://app?vid=4cd2edd6-2fc5-492f-9012-2f2145f333e2"},"vehicle_type_id":"4","last_reported":1753470633,"current_range_meters":9600,"station_id":"ce4bgkp2rcd13ifvqbmg","pricing_plan_id":"cebpf4jnsgd1na2vs0mg"},{"bike_id":"9394fe28-8274-495c-9443-aced87a82ab8","system_id":"levelo_inurba_marseille","lat":43.29532,"lon":5.38541,"is_reserved":false,"is_disabled":false,"rental_uris":{"android":"levelo://app?vid=9394fe28-8274-495c-9443-aced87a82ab8","ios":"levelo://app?vid=9394fe28-8274-495c-9443-aced87a82ab8"},"vehicle_type_id":"4","last_reported":1753470633,"current_range_meters":10000,"station_id":"ce4bgih2rcd13ifvqba0","pricing_plan_id":"cebpf4jnsgd1na2vs0mg"},{"bike_id":"966df699-3236-41d7-89dd-3cf2201dc400","system_id":"levelo_inurba_marseille","lat":43.31166,"lon":5.38712,"is_reserved":false,"is_disabled":false,"rental_uris":{"android":"levelo://app?vid=966df699-3236-41d7-89dd-3cf2201dc400","ios":"levelo://app?vid=966df699-3236-41d7-89dd-3cf2201dc400"},"vehicle_type_id":"4","last_reported":1753470633,"current_range_meters":10000,"station_id":"ce4bgv12rcd13ifvqcp0","pricing_plan_id":"cebpf4jnsgd1na2vs0mg"},{"bike_id":"09447d92-0522-480e-b6b5-24959949ccf9","system_id":"levelo_inurba_marseille","lat":43.30934,"lon":5.38146,"is_reserved":false,"is_disabled":false,"rental_uris":{"android":"levelo://app?vid=09447d92-0522-480e-b6b5-24959949ccf9","ios":"levelo://app?vid=09447d92-0522-480e-b6b5-24959949ccf9"},"vehicle_type_id":"4","last_reported":1753470633,"current_range_meters":10000,"station_id":"","pricing_plan_id":"cebpf4jnsgd1na2vs0mg"},{"bike_id":"12e4e771-d9ed-4353-8d95-1555b0abd6b3","system_id":"levelo_inurba_marseille","lat":43.296356,"lon":5.377441,"is_reserved":false,"is_disabled":false,"rental_uris":{"android":"levelo://app?vid=12e4e771-d9ed-4353-8d95-1555b0abd6b3","ios":"levelo://app?vid=12e4e771-d9ed-4353-8d95-1555b0abd6b3"},"vehicle_type_id":"4","last_reported":1753470633,"current_range_meters":10000,"station_id":"ce4bgi92rcd13ifvqb90","pricing_plan_id":"cebpf4jnsgd1na2vs0mg"},{"bike_id":"e77d627b-3b5b-4c1d-8bd6-21649c1bcdf4","system_id":"levelo_inurba_marseille","lat":43.29716,"lon":5.36602,"is_reserved":false,"is_disabled":false,"rental_uris":{"android":"levelo://app?vid=e77d627b-3b5b-4c1d-8bd6-21649c1bcdf4","ios":"levelo://app?vid=e77d627b-3b5b-4c1d-8bd6-21649c1bcdf4"},"vehicle_type_id":"4","last_reported":1753470633,"current_range_meters":10000,"station_id":"ce4bgn12rcd13ifvqbt0","pricing_plan_id":"cebpf4jnsgd1na2vs0mg"},{"bike_id":"f7623b57-5f88-4ef7-8535-1d8b44f90d27","system_id":"levelo_inurba_marseille","lat":43.22483,"lon":5.34754,"is_reserved":false,"is_disabled":false,"rental_uris":{"android":"levelo://app?vid=f7623b57-5f88-4ef7-8535-1d8b44f90d27","ios":"levelo://app?vid=f7623b57-5f88-4ef7-8535-1d8b44f90d27"},"vehicle_type_id":"4","last_reported":1753470633,"current_range_meters":10000,"station_id":"","pricing_plan_id":"cebpf4jnsgd1na2vs0mg"},{"bike_id":"ff30a5ee-0e9d-4bfa-a593-c7beaf9df463","system_id":"levelo_inurba_marseille","lat":43.33531,"lon":5.36212,"is_reserved":false,"is_disabled":false,"rental_uris":{"android":"levelo://app?vid=ff30a5ee-0e9d-4bfa-a593-c7beaf9df463","ios":"levelo://app?vid=ff30a5ee-0e9d-4bfa-a593-c7beaf9df463"},"vehicle_type_id":"4","last_reported":1753470633,"current_range_meters":10000,"station_id":"","pricing_plan_id":"cebpf4jnsgd1na2vs0mg"},{"bike_id":"d9911cc2-4e0b-4359-b5c7-26d014291aa6","system_id":"levelo_inurba_marseille","lat":43.29558,"lon":5.37513,"is_reserved":false,"is_disabled":false,"rental_uris":{"android":"levelo://app?vid=d9911cc2-4e0b-4359-b5c7-26d014291aa6","ios":"levelo://app?vid=d9911cc2-4e0b-4359-b5c7-26d014291aa6"},"vehicle_type_id":"4","last_reported":1753470633,"current_range_meters":10000,"station_id":"ce4bgh92rcd13ifvqb50","pricing_plan_id":"cebpf4jnsgd1na2vs0mg"},{"bike_id":"ac7f3c2f-452c-4620-beb4-96f9c8da3434","system_id":"levelo_inurba_marseille","lat":43.306123,"lon":5.385202,"is_reserved":false,"is_disabled":false,"rental_uris":{"android":"levelo://app?vid=ac7f3c2f-452c-4620-beb4-96f9c8da3434","ios":"levelo://app?vid=ac7f3c2f-452c-4620-beb4-96f9c8da3434"},"vehicle_type_id":"4","last_reported":1753470633,"current_range_meters":10000,"station_id":"","pricing_plan_id":"cebpf4jnsgd1na2vs0mg"},{"bike_id":"734ff9c0-7b95-4f4c-b839-39f20818bcf6","system_id":"levelo_inurba_marseille","lat":43.29705,"lon":5.373,"is_reserved":false,"is_disabled":false,"rental_uris":{"android":"levelo://app?vid=734ff9c0-7b95-4f4c-b839-39f20818bcf6","ios":"levelo://app?vid=734ff9c0-7b95-4f4c-b839-39f20818bcf6"},"vehicle_type_id":"4","last_reported":1753470633,"current_range_meters":10000,"station_id":"ce4bgk12rcd13ifvqbj0","pricing_plan_id":"cebpf4jnsgd1na2vs0mg"},{"bike_id":"35ee41ab-1155-4c5d-a3ff-d1e05b86be8c","system_id":"levelo_inurba_marseille","lat":43.312994,"lon":5.430824,"is_reserved":false,"is_disabled":false,"rental_uris":{"android":"levelo://app?vid=35ee41ab-1155-4c5d-a3ff-d1e05b86be8c","ios":"levelo://app?vid=35ee41ab-1155-4c5d-a3ff-d1e05b86be8c"},"vehicle_type_id":"4","last_reported":1753470633,"current_range_meters":10000,"station_id":"","pricing_plan_id":"cebpf4jnsgd1na2vs0mg"},{"bike_id":"b0642f06-95ff-41f6-9f4a-0722c8309d1c","system_id":"levelo_inurba_marseille","lat":43.26886,"lon":5.36871,"is_reserved":false,"is_disabled":false,"rental_uris":{"android":"levelo://app?vid=b0642f06-95ff-41f6-9f4a-0722c8309d1c","ios":"levelo://app?vid=b0642f06-95ff-41f6-9f4a-0722c8309d1c"},"vehicle_type_id":"4","last_reported":1753470633,"current_range_meters":10800,"station_id":"","pricing_plan_id":"cebpf4jnsgd1na2vs0mg"},{"bike_id":"2cdd71c3-85d9-4cbc-ad23-affba8f05218","system_id":"levelo_inurba_marseille","lat":43.29006,"lon":5.35565,"is_reserved":false,"is_disabled":false,"rental_uris":{"android":"levelo://app?vid=2cdd71c3-85d9-4cbc-ad23-affba8f05218","ios":"levelo://app?vid=2cdd71c3-85d9-4cbc-ad23-affba8f05218"},"vehicle_type_id":"4","last_reported":1753470633,"current_range_meters":10800,"station_id":"ce4bhb92rcd13ifvqen0","pricing_plan_id":"cebpf4jnsgd1na2vs0mg"},{"bike_id":"0c0d3d0d-5f61-4377-af39-2c47685dfb69","system_id":"levelo_inurba_marseille","lat":43.30537,"lon":5.36565,"is_reserved":false,"is_disabled":false,"rental_uris":{"android":"levelo://app?vid=0c0d3d0d-5f61-4377-af39-2c47685dfb69","ios":"levelo://app?vid=0c0d3d0d-5f61-4377-af39-2c47685dfb69"},"vehicle_type_id":"4","last_reported":1753470633,"current_range_meters":10800,"station_id":"ce4bgs12rcd13ifvqcag","pricing_plan_id":"cebpf4jnsgd1na2vs0mg"},{"bike_id":"1c31f24b-2b9e-48c3-b103-bffd32b92420","system_id":"levelo_inurba_marseille","lat":43.33519,"lon":5.40864,"is_reserved":false,"is_disabled":false,"rental_uris":{"android":"levelo://app?vid=1c31f24b-2b9e-48c3-b103-bffd32b92420","ios":"levelo://app?vid=1c31f24b-2b9e-48c3-b103-bffd32b92420"},"vehicle_type_id":"4","last_reported":1753470633,"current_range_meters":10800,"station_id":"","pricing_plan_id":"cebpf4jnsgd1na2vs0mg"},{"bike_id":"0939eecf-ab8e-4e0f-8dde-ab5f40cfd3cc","system_id":"levelo_inurba_marseille","lat":43.28412,"lon":5.34992,"is_reserved":false,"is_disabled":true,"rental_uris":{"android":"levelo://app?vid=0939eecf-ab8e-4e0f-8dde-ab5f40cfd3cc","ios":"levelo://app?vid=0939eecf-ab8e-4e0f-8dde-ab5f40cfd3cc"},"vehicle_type_id":"4","last_reported":1753470633,"current_range_meters":10800,"station_id":"ce4bhbh2rcd13ifvqepg","pricing_plan_id":"cebpf4jnsgd1na2vs0mg"},{"bike_id":"a2ccbf76-8c1a-4aef-814f-db130f867270","system_id":"levelo_inurba_marseille","lat":43.30957,"lon":5.37381,"is_reserved":false,"is_disabled":false,"rental_uris":{"android":"levelo://app?vid=a2ccbf76-8c1a-4aef-814f-db130f867270","ios":"levelo://app?vid=a2ccbf76-8c1a-4aef-814f-db130f867270"},"vehicle_type_id":"4","last_reported":1753470633,"current_range_meters":10800,"station_id":"","pricing_plan_id":"cebpf4jnsgd1na2vs0mg"},{"bike_id":"88713064-73b6-47c5-8baf-21f8c90f1d38","system_id":"levelo_inurba_marseille","lat":43.30673,"lon":5.38166,"is_reserved":false,"is_disabled":false,"rental_uris":{"android":"levelo://app?vid=88713064-73b6-47c5-8baf-21f8c90f1d38","ios":"levelo://app?vid=88713064-73b6-47c5-8baf-21f8c90f1d38"},"vehicle_type_id":"4","last_reported":1753470633,"current_range_meters":10800,"station_id":"","pricing_plan_id":"cebpf4jnsgd1na2vs0mg"},{"bike_id":"2b45edc8-3944-43d6-a4a7-675023e363ed","system_id":"levelo_inurba_marseille","lat":43.23187,"lon":5.39978,"is_reserved":false,"is_disabled":false,"rental_uris":{"android":"levelo://app?vid=2b45edc8-3944-43d6-a4a7-675023e363ed","ios":"levelo://app?vid=2b45edc8-3944-43d6-a4a7-675023e363ed"},"vehicle_type_id":"4","last_reported":1753470633,"current_range_meters":10000,"station_id":"ce4bhn12rcd13ifvqgqg","pricing_plan_id":"cebpf4jnsgd1na2vs0mg"},{"bike_id":"eb83f636-9f57-4bf9-a976-73b5bf47f8ce","system_id":"levelo_inurba_marseille","lat":43.22512,"lon":5.34759,"is_reserved":false,"is_disabled":false,"rental_uris":{"android":"levelo://app?vid=eb83f636-9f57-4bf9-a976-73b5bf47f8ce","ios":"levelo://app?vid=eb83f636-9f57-4bf9-a976-73b5bf47f8ce"},"vehicle_type_id":"4","last_reported":1753470633,"current_range_meters":11200,"station_id":"st_cvj5dfep6f1abm77gieg","pricing_plan_id":"cebpf4jnsgd1na2vs0mg"},{"bike_id":"43cf4049-15dd-4e8c-88a8-61cd8dc10bf5","system_id":"levelo_inurba_marseille","lat":43.33236,"lon":5.37862,"is_reserved":false,"is_disabled":false,"rental_uris":{"android":"levelo://app?vid=43cf4049-15dd-4e8c-88a8-61cd8dc10bf5","ios":"levelo://app?vid=43cf4049-15dd-4e8c-88a8-61cd8dc10bf5"},"vehicle_type_id":"4","last_reported":1753470633,"current_range_meters":11200,"station_id":"","pricing_plan_id":"cebpf4jnsgd1na2vs0mg"},{"bike_id":"74df1787-a951-4f44-b180-d82910366ccc","system_id":"levelo_inurba_marseille","lat":43.29531,"lon":5.3855,"is_reserved":false,"is_disabled":false,"rental_uris":{"android":"levelo://app?vid=74df1787-a951-4f44-b180-d82910366ccc","ios":"levelo://app?vid=74df1787-a951-4f44-b180-d82910366ccc"},"vehicle_type_id":"4","last_reported":1753470633,"current_range_meters":11200,"station_id":"ce4bgih2rcd13ifvqba0","pricing_plan_id":"cebpf4jnsgd1na2vs0mg"},{"bike_id":"70970ebe-5dbe-414d-b023-6dab30c04a46","system_id":"levelo_inurba_marseille","lat":43.29257,"lon":5.40909,"is_reserved":false,"is_disabled":false,"rental_uris":{"android":"levelo://app?vid=70970ebe-5dbe-414d-b023-6dab30c04a46","ios":"levelo://app?vid=70970ebe-5dbe-414d-b023-6dab30c04a46"},"vehicle_type_id":"4","last_reported":1753470633,"current_range_meters":10800,"station_id":"ce4bh192rcd13ifvqdc0","pricing_plan_id":"cebpf4jnsgd1na2vs0mg"},{"bike_id":"68d0c8da-5e19-4752-b547-a76bdbcd55f7","system_id":"levelo_inurba_marseille","lat":43.29787,"lon":5.37105,"is_reserved":false,"is_disabled":false,"rental_uris":{"android":"levelo://app?vid=68d0c8da-5e19-4752-b547-a76bdbcd55f7","ios":"levelo://app?vid=68d0c8da-5e19-4752-b547-a76bdbcd55f7"},"vehicle_type_id":"4","last_reported":1753470633,"current_range_meters":11200,"station_id":"ce4bgop2rcd13ifvqc1g","pricing_plan_id":"cebpf4jnsgd1na2vs0mg"},{"bike_id":"79079a9a-8322-4f6c-a9e6-9aba90ee17ba","system_id":"levelo_inurba_marseille","lat":43.33763,"lon":5.37419,"is_reserved":false,"is_disabled":false,"rental_uris":{"android":"levelo://app?vid=79079a9a-8322-4f6c-a9e6-9aba90ee17ba","ios":"levelo://app?vid=79079a9a-8322-4f6c-a9e6-9aba90ee17ba"},"vehicle_type_id":"4","last_reported":1753470633,"current_range_meters":11200,"station_id":"","pricing_plan_id":"cebpf4jnsgd1na2vs0mg"},{"bike_id":"00d0de9b-2c14-4271-a9a8-337d9029be35","system_id":"levelo_inurba_marseille","lat":43.24082,"lon":5.37751,"is_reserved":false,"is_disabled":false,"rental_uris":{"android":"levelo://app?vid=00d0de9b-2c14-4271-a9a8-337d9029be35","ios":"levelo://app?vid=00d0de9b-2c14-4271-a9a8-337d9029be35"},"vehicle_type_id":"4","last_reported":1753470633,"current_range_meters":11600,"station_id":"ce4bhnp2rcd13ifvqgvg","pricing_plan_id":"cebpf4jnsgd1na2vs0mg"},{"bike_id":"f844a339-7d37-4629-b9b3-2ab886c95711","system_id":"levelo_inurba_marseille","lat":43.25858,"lon":5.39901,"is_reserved":false,"is_disabled":true,"rental_uris":{"android":"levelo://app?vid=f844a339-7d37-4629-b9b3-2ab886c95711","ios":"levelo://app?vid=f844a339-7d37-4629-b9b3-2ab886c95711"},"vehicle_type_id":"4","last_reported":1753470633,"current_range_meters":11600,"station_id":"ce4bhl92rcd13ifvqghg","pricing_plan_id":"cebpf4jnsgd1na2vs0mg"},{"bike_id":"44f6dcd6-0471-4d7d-99af-2f7f87333163","system_id":"levelo_inurba_marseille","lat":43.24804,"lon":5.37451,"is_reserved":false,"is_disabled":false,"rental_uris":{"android":"levelo://app?vid=44f6dcd6-0471-4d7d-99af-2f7f87333163","ios":"levelo://app?vid=44f6dcd6-0471-4d7d-99af-2f7f87333163"},"vehicle_type_id":"4","last_reported":1753470633,"current_range_meters":11600,"station_id":"ce4bhgh2rcd13ifvqfb0","pricing_plan_id":"cebpf4jnsgd1na2vs0mg"},{"bike_id":"43351105-4f92-4a93-a549-4208bd33814c","system_id":"levelo_inurba_marseille","lat":43.29025,"lon":5.38645,"is_reserved":false,"is_disabled":false,"rental_uris":{"android":"levelo://app?vid=43351105-4f92-4a93-a549-4208bd33814c","ios":"levelo://app?vid=43351105-4f92-4a93-a549-4208bd33814c"},"vehicle_type_id":"4","last_reported":1753470633,"current_range_meters":11200,"station_id":"ce4bh4p2rcd13ifvqe0g","pricing_plan_id":"cebpf4jnsgd1na2vs0mg"},{"bike_id":"738e6cbf-f53e-4edb-bc92-1816782e8fa7","system_id":"levelo_inurba_marseille","lat":43.29526,"lon":5.38539,"is_reserved":false,"is_disabled":false,"rental_uris":{"android":"levelo://app?vid=738e6cbf-f53e-4edb-bc92-1816782e8fa7","ios":"levelo://app?vid=738e6cbf-f53e-4edb-bc92-1816782e8fa7"},"vehicle_type_id":"4","last_reported":1753470633,"current_range_meters":11600,"station_id":"ce4bgih2rcd13ifvqba0","pricing_plan_id":"cebpf4jnsgd1na2vs0mg"},{"bike_id":"afb2f3e5-8f30-4ca8-b819-258fcce8b192","system_id":"levelo_inurba_marseille","lat":43.30643,"lon":5.40099,"is_reserved":false,"is_disabled":false,"rental_uris":{"android":"levelo://app?vid=afb2f3e5-8f30-4ca8-b819-258fcce8b192","ios":"levelo://app?vid=afb2f3e5-8f30-4ca8-b819-258fcce8b192"},"vehicle_type_id":"4","last_reported":1753470633,"current_range_meters":11600,"station_id":"ce4bh112rcd13ifvqda0","pricing_plan_id":"cebpf4jnsgd1na2vs0mg"},{"bike_id":"1e585017-21d3-4d67-83d1-93b6972f5e47","system_id":"levelo_inurba_marseille","lat":43.2603,"lon":5.375484,"is_reserved":false,"is_disabled":false,"rental_uris":{"android":"levelo://app?vid=1e585017-21d3-4d67-83d1-93b6972f5e47","ios":"levelo://app?vid=1e585017-21d3-4d67-83d1-93b6972f5e47"},"vehicle_type_id":"4","last_reported":1753470633,"current_range_meters":12000,"station_id":"ce4bhgh2rcd13ifvqfa0","pricing_plan_id":"cebpf4jnsgd1na2vs0mg"},{"bike_id":"dfefeede-60f9-44e8-a2f1-6579826b8bd8","system_id":"levelo_inurba_marseille","lat":43.31752,"lon":5.39015,"is_reserved":false,"is_disabled":false,"rental_uris":{"android":"levelo://app?vid=dfefeede-60f9-44e8-a2f1-6579826b8bd8","ios":"levelo://app?vid=dfefeede-60f9-44e8-a2f1-6579826b8bd8"},"vehicle_type_id":"4","last_reported":1753470633,"current_range_meters":12000,"station_id":"ce4bhqp2rcd13ifvqhng","pricing_plan_id":"cebpf4jnsgd1na2vs0mg"},{"bike_id":"078febbd-6d49-4abf-8b46-d33f87f8da46","system_id":"levelo_inurba_marseille","lat":43.25437,"lon":5.38002,"is_reserved":false,"is_disabled":false,"rental_uris":{"android":"levelo://app?vid=078febbd-6d49-4abf-8b46-d33f87f8da46","ios":"levelo://app?vid=078febbd-6d49-4abf-8b46-d33f87f8da46"},"vehicle_type_id":"4","last_reported":1753470633,"current_range_meters":12000,"station_id":"","pricing_plan_id":"cebpf4jnsgd1na2vs0mg"},{"bike_id":"490fd0a3-3ae2-4135-acff-5c94025f5f04","system_id":"levelo_inurba_marseille","lat":43.2792,"lon":5.39568,"is_reserved":false,"is_disabled":true,"rental_uris":{"android":"levelo://app?vid=490fd0a3-3ae2-4135-acff-5c94025f5f04","ios":"levelo://app?vid=490fd0a3-3ae2-4135-acff-5c94025f5f04"},"vehicle_type_id":"4","last_reported":1753470633,"current_range_meters":12000,"station_id":"ce4bhf92rcd13ifvqf40","pricing_plan_id":"cebpf4jnsgd1na2vs0mg"},{"bike_id":"d2cb877d-d63e-4c06-8493-287c3c68a37f","system_id":"levelo_inurba_marseille","lat":43.26212,"lon":5.37438,"is_reserved":false,"is_disabled":false,"rental_uris":{"android":"levelo://app?vid=d2cb877d-d63e-4c06-8493-287c3c68a37f","ios":"levelo://app?vid=d2cb877d-d63e-4c06-8493-287c3c68a37f"},"vehicle_type_id":"4","last_reported":1753470633,"current_range_meters":12000,"station_id":"ce4bhgp2rcd13ifvqfc0","pricing_plan_id":"cebpf4jnsgd1na2vs0mg"},{"bike_id":"9750c049-0ea1-48fb-9e2b-38b8dd12679c","system_id":"levelo_inurba_marseille","lat":43.30133,"lon":5.38777,"is_reserved":false,"is_disabled":false,"rental_uris":{"android":"levelo://app?vid=9750c049-0ea1-48fb-9e2b-38b8dd12679c","ios":"levelo://app?vid=9750c049-0ea1-48fb-9e2b-38b8dd12679c"},"vehicle_type_id":"4","last_reported":1753470633,"current_range_meters":12000,"station_id":"ce4bghh2rcd13ifvqb60","pricing_plan_id":"cebpf4jnsgd1na2vs0mg"},{"bike_id":"4e6e6044-20e5-44fc-87b5-2b41e2616d90","system_id":"levelo_inurba_marseille","lat":43.30128,"lon":5.39861,"is_reserved":false,"is_disabled":true,"rental_uris":{"android":"levelo://app?vid=4e6e6044-20e5-44fc-87b5-2b41e2616d90","ios":"levelo://app?vid=4e6e6044-20e5-44fc-87b5-2b41e2616d90"},"vehicle_type_id":"4","last_reported":1753470633,"current_range_meters":12000,"station_id":"ce4bh0h2rcd13ifvqd40","pricing_plan_id":"cebpf4jnsgd1na2vs0mg"},{"bike_id":"a54e6f1b-e1c7-4835-a973-a5daa4af4f3c","system_id":"levelo_inurba_marseille","lat":43.29576,"lon":5.37511,"is_reserved":false,"is_disabled":false,"rental_uris":{"android":"levelo://app?vid=a54e6f1b-e1c7-4835-a973-a5daa4af4f3c","ios":"levelo://app?vid=a54e6f1b-e1c7-4835-a973-a5daa4af4f3c"},"vehicle_type_id":"4","last_reported":1753470633,"current_range_meters":12000,"station_id":"ce4bgh92rcd13ifvqb50","pricing_plan_id":"cebpf4jnsgd1na2vs0mg"},{"bike_id":"1e9f3066-1f2d-4ea9-afa5-04ec4f700926","system_id":"levelo_inurba_marseille","lat":43.28398,"lon":5.37505,"is_reserved":false,"is_disabled":false,"rental_uris":{"android":"levelo://app?vid=1e9f3066-1f2d-4ea9-afa5-04ec4f700926","ios":"levelo://app?vid=1e9f3066-1f2d-4ea9-afa5-04ec4f700926"},"vehicle_type_id":"4","last_reported":1753470633,"current_range_meters":12400,"station_id":"ce4bh412rcd13ifvqds0","pricing_plan_id":"cebpf4jnsgd1na2vs0mg"},{"bike_id":"c07e20cc-6724-4af5-a3ac-826edc27d1dd","system_id":"levelo_inurba_marseille","lat":43.26199,"lon":5.40462,"is_reserved":false,"is_disabled":false,"rental_uris":{"android":"levelo://app?vid=c07e20cc-6724-4af5-a3ac-826edc27d1dd","ios":"levelo://app?vid=c07e20cc-6724-4af5-a3ac-826edc27d1dd"},"vehicle_type_id":"4","last_reported":1753470633,"current_range_meters":12400,"station_id":"ce4bhmh2rcd13ifvqgmg","pricing_plan_id":"cebpf4jnsgd1na2vs0mg"},{"bike_id":"674b12a2-774c-40a9-960b-35f55476cc8b","system_id":"levelo_inurba_marseille","lat":43.29306,"lon":5.3747,"is_reserved":false,"is_disabled":false,"rental_uris":{"android":"levelo://app?vid=674b12a2-774c-40a9-960b-35f55476cc8b","ios":"levelo://app?vid=674b12a2-774c-40a9-960b-35f55476cc8b"},"vehicle_type_id":"4","last_reported":1753470633,"current_range_meters":12400,"station_id":"ce4bgi12rcd13ifvqb70","pricing_plan_id":"cebpf4jnsgd1na2vs0mg"},{"bike_id":"5440a182-b760-4205-92c8-d9ab0a9c67c8","system_id":"levelo_inurba_marseille","lat":43.28425,"lon":5.34969,"is_reserved":false,"is_disabled":true,"rental_uris":{"android":"levelo://app?vid=5440a182-b760-4205-92c8-d9ab0a9c67c8","ios":"levelo://app?vid=5440a182-b760-4205-92c8-d9ab0a9c67c8"},"vehicle_type_id":"4","last_reported":1753470633,"current_range_meters":12400,"station_id":"ce4bhbh2rcd13ifvqepg","pricing_plan_id":"cebpf4jnsgd1na2vs0mg"},{"bike_id":"591fb768-7e78-4b54-88b5-e73a5af76b19","system_id":"levelo_inurba_marseille","lat":43.229273,"lon":5.353682,"is_reserved":false,"is_disabled":false,"rental_uris":{"android":"levelo://app?vid=591fb768-7e78-4b54-88b5-e73a5af76b19","ios":"levelo://app?vid=591fb768-7e78-4b54-88b5-e73a5af76b19"},"vehicle_type_id":"4","last_reported":1753470633,"current_range_meters":12400,"station_id":"cpo3532slgdg3j2ikp40","pricing_plan_id":"cebpf4jnsgd1na2vs0mg"},{"bike_id":"c017b4de-074c-46ed-bc0a-5b7912813135","system_id":"levelo_inurba_marseille","lat":43.26078,"lon":5.37311,"is_reserved":false,"is_disabled":false,"rental_uris":{"android":"levelo://app?vid=c017b4de-074c-46ed-bc0a-5b7912813135","ios":"levelo://app?vid=c017b4de-074c-46ed-bc0a-5b7912813135"},"vehicle_type_id":"4","last_reported":1753470633,"current_range_meters":12400,"station_id":"","pricing_plan_id":"cebpf4jnsgd1na2vs0mg"},{"bike_id":"6755382c-76dd-4587-baf5-a4b43a86610a","system_id":"levelo_inurba_marseille","lat":43.240699,"lon":5.377569,"is_reserved":false,"is_disabled":false,"rental_uris":{"android":"levelo://app?vid=6755382c-76dd-4587-baf5-a4b43a86610a","ios":"levelo://app?vid=6755382c-76dd-4587-baf5-a4b43a86610a"},"vehicle_type_id":"4","last_reported":1753470633,"current_range_meters":12400,"station_id":"ce4bhnp2rcd13ifvqgvg","pricing_plan_id":"cebpf4jnsgd1na2vs0mg"},{"bike_id":"90f3247a-16f9-4a46-8a95-31bb7e4281e2","system_id":"levelo_inurba_marseille","lat":43.34135,"lon":5.40928,"is_reserved":false,"is_disabled":false,"rental_uris":{"android":"levelo://app?vid=90f3247a-16f9-4a46-8a95-31bb7e4281e2","ios":"levelo://app?vid=90f3247a-16f9-4a46-8a95-31bb7e4281e2"},"vehicle_type_id":"4","last_reported":1753470633,"current_range_meters":12000,"station_id":"ce4bhqh2rcd13ifvqhlg","pricing_plan_id":"cebpf4jnsgd1na2vs0mg"},{"bike_id":"f7b117e6-a242-41e1-93cb-fb367a85f78d","system_id":"levelo_inurba_marseille","lat":43.29966,"lon":5.38493,"is_reserved":false,"is_disabled":false,"rental_uris":{"android":"levelo://app?vid=f7b117e6-a242-41e1-93cb-fb367a85f78d","ios":"levelo://app?vid=f7b117e6-a242-41e1-93cb-fb367a85f78d"},"vehicle_type_id":"4","last_reported":1753470633,"current_range_meters":14000,"station_id":"ce4bgj92rcd13ifvqbd0","pricing_plan_id":"cebpf4jnsgd1na2vs0mg"},{"bike_id":"7fd9bb23-7169-4391-a00a-920c5121a49e","system_id":"levelo_inurba_marseille","lat":43.31756,"lon":5.39006,"is_reserved":false,"is_disabled":false,"rental_uris":{"android":"levelo://app?vid=7fd9bb23-7169-4391-a00a-920c5121a49e","ios":"levelo://app?vid=7fd9bb23-7169-4391-a00a-920c5121a49e"},"vehicle_type_id":"4","last_reported":1753470633,"current_range_meters":12800,"station_id":"ce4bhqp2rcd13ifvqhng","pricing_plan_id":"cebpf4jnsgd1na2vs0mg"},{"bike_id":"ccca3042-9358-40fc-ac03-e327e01c225f","system_id":"levelo_inurba_marseille","lat":43.23323,"lon":5.36085,"is_reserved":false,"is_disabled":false,"rental_uris":{"android":"levelo://app?vid=ccca3042-9358-40fc-ac03-e327e01c225f","ios":"levelo://app?vid=ccca3042-9358-40fc-ac03-e327e01c225f"},"vehicle_type_id":"4","last_reported":1753470633,"current_range_meters":12800,"station_id":"","pricing_plan_id":"cebpf4jnsgd1na2vs0mg"},{"bike_id":"a3fe9995-2e3e-423b-9540-429a92fa997e","system_id":"levelo_inurba_marseille","lat":43.30176,"lon":5.37233,"is_reserved":false,"is_disabled":false,"rental_uris":{"android":"levelo://app?vid=a3fe9995-2e3e-423b-9540-429a92fa997e","ios":"levelo://app?vid=a3fe9995-2e3e-423b-9540-429a92fa997e"},"vehicle_type_id":"4","last_reported":1753470633,"current_range_meters":12800,"station_id":"","pricing_plan_id":"cebpf4jnsgd1na2vs0mg"},{"bike_id":"6e675566-44f8-49cf-89b2-d1ada7e59de9","system_id":"levelo_inurba_marseille","lat":43.241388,"lon":5.376859,"is_reserved":false,"is_disabled":false,"rental_uris":{"android":"levelo://app?vid=6e675566-44f8-49cf-89b2-d1ada7e59de9","ios":"levelo://app?vid=6e675566-44f8-49cf-89b2-d1ada7e59de9"},"vehicle_type_id":"4","last_reported":1753470633,"current_range_meters":12800,"station_id":"ce4bhnp2rcd13ifvqgvg","pricing_plan_id":"cebpf4jnsgd1na2vs0mg"},{"bike_id":"14290dc3-0ecb-4c09-bf2e-6db4a8e35188","system_id":"levelo_inurba_marseille","lat":43.243917,"lon":5.370651,"is_reserved":false,"is_disabled":false,"rental_uris":{"android":"levelo://app?vid=14290dc3-0ecb-4c09-bf2e-6db4a8e35188","ios":"levelo://app?vid=14290dc3-0ecb-4c09-bf2e-6db4a8e35188"},"vehicle_type_id":"4","last_reported":1753470633,"current_range_meters":12800,"station_id":"ce4bhhh2rcd13ifvqfk0","pricing_plan_id":"cebpf4jnsgd1na2vs0mg"},{"bike_id":"ebb93afd-33d1-41ff-aeb0-236b556714ba","system_id":"levelo_inurba_marseille","lat":43.29703,"lon":5.36614,"is_reserved":false,"is_disabled":false,"rental_uris":{"android":"levelo://app?vid=ebb93afd-33d1-41ff-aeb0-236b556714ba","ios":"levelo://app?vid=ebb93afd-33d1-41ff-aeb0-236b556714ba"},"vehicle_type_id":"4","last_reported":1753470633,"current_range_meters":13600,"station_id":"ce4bgn12rcd13ifvqbt0","pricing_plan_id":"cebpf4jnsgd1na2vs0mg"},{"bike_id":"378521b9-2f88-49b6-9620-86cb628eab29","system_id":"levelo_inurba_marseille","lat":43.27164,"lon":5.40972,"is_reserved":false,"is_disabled":false,"rental_uris":{"android":"levelo://app?vid=378521b9-2f88-49b6-9620-86cb628eab29","ios":"levelo://app?vid=378521b9-2f88-49b6-9620-86cb628eab29"},"vehicle_type_id":"4","last_reported":1753470633,"current_range_meters":13600,"station_id":"ce4bhl12rcd13ifvqgf0","pricing_plan_id":"cebpf4jnsgd1na2vs0mg"},{"bike_id":"0694864b-64e7-42c7-8123-1069e15e521c","system_id":"levelo_inurba_marseille","lat":43.2861,"lon":5.37058,"is_reserved":false,"is_disabled":false,"rental_uris":{"android":"levelo://app?vid=0694864b-64e7-42c7-8123-1069e15e521c","ios":"levelo://app?vid=0694864b-64e7-42c7-8123-1069e15e521c"},"vehicle_type_id":"4","last_reported":1753470633,"current_range_meters":13600,"station_id":"ce4bht12rcd13ifvqi60","pricing_plan_id":"cebpf4jnsgd1na2vs0mg"},{"bike_id":"dc87bffe-1c91-423d-bf5d-1a24d79c37ca","system_id":"levelo_inurba_marseille","lat":43.29527,"lon":5.37545,"is_reserved":false,"is_disabled":false,"rental_uris":{"android":"levelo://app?vid=dc87bffe-1c91-423d-bf5d-1a24d79c37ca","ios":"levelo://app?vid=dc87bffe-1c91-423d-bf5d-1a24d79c37ca"},"vehicle_type_id":"4","last_reported":1753470633,"current_range_meters":13600,"station_id":"ce4bgkp2rcd13ifvqbmg","pricing_plan_id":"cebpf4jnsgd1na2vs0mg"},{"bike_id":"2cc9d6fc-4701-422a-ba1f-2c4a0a6faf10","system_id":"levelo_inurba_marseille","lat":43.29703,"lon":5.3662,"is_reserved":false,"is_disabled":false,"rental_uris":{"android":"levelo://app?vid=2cc9d6fc-4701-422a-ba1f-2c4a0a6faf10","ios":"levelo://app?vid=2cc9d6fc-4701-422a-ba1f-2c4a0a6faf10"},"vehicle_type_id":"4","last_reported":1753470633,"current_range_meters":13600,"station_id":"ce4bgn12rcd13ifvqbt0","pricing_plan_id":"cebpf4jnsgd1na2vs0mg"},{"bike_id":"133138f7-a612-44d7-b772-e2b8ba9875af","system_id":"levelo_inurba_marseille","lat":43.2885,"lon":5.35864,"is_reserved":false,"is_disabled":false,"rental_uris":{"android":"levelo://app?vid=133138f7-a612-44d7-b772-e2b8ba9875af","ios":"levelo://app?vid=133138f7-a612-44d7-b772-e2b8ba9875af"},"vehicle_type_id":"4","last_reported":1753470633,"current_range_meters":13600,"station_id":"ce4bhb12rcd13ifvqem0","pricing_plan_id":"cebpf4jnsgd1na2vs0mg"},{"bike_id":"35016fc5-79ae-45a8-b648-2d28bc653f88","system_id":"levelo_inurba_marseille","lat":43.29959,"lon":5.38503,"is_reserved":false,"is_disabled":false,"rental_uris":{"android":"levelo://app?vid=35016fc5-79ae-45a8-b648-2d28bc653f88","ios":"levelo://app?vid=35016fc5-79ae-45a8-b648-2d28bc653f88"},"vehicle_type_id":"4","last_reported":1753470633,"current_range_meters":13600,"station_id":"ce4bgj92rcd13ifvqbd0","pricing_plan_id":"cebpf4jnsgd1na2vs0mg"},{"bike_id":"ba00d103-850b-4592-9be9-fea05914fea6","system_id":"levelo_inurba_marseille","lat":43.24062,"lon":5.37755,"is_reserved":false,"is_disabled":false,"rental_uris":{"android":"levelo://app?vid=ba00d103-850b-4592-9be9-fea05914fea6","ios":"levelo://app?vid=ba00d103-850b-4592-9be9-fea05914fea6"},"vehicle_type_id":"4","last_reported":1753470633,"current_range_meters":13600,"station_id":"ce4bhnp2rcd13ifvqgvg","pricing_plan_id":"cebpf4jnsgd1na2vs0mg"},{"bike_id":"02792ff8-3ac3-433c-bff9-9086aeff56f4","system_id":"levelo_inurba_marseille","lat":43.2836,"lon":5.38632,"is_reserved":false,"is_disabled":false,"rental_uris":{"android":"levelo://app?vid=02792ff8-3ac3-433c-bff9-9086aeff56f4","ios":"levelo://app?vid=02792ff8-3ac3-433c-bff9-9086aeff56f4"},"vehicle_type_id":"4","last_reported":1753470633,"current_range_meters":13600,"station_id":"ce4bh492rcd13ifvqdvg","pricing_plan_id":"cebpf4jnsgd1na2vs0mg"},{"bike_id":"ebc7a43e-85fe-4b4c-8ca0-84469f9fd8c4","system_id":"levelo_inurba_marseille","lat":43.2619,"lon":5.37425,"is_reserved":false,"is_disabled":false,"rental_uris":{"android":"levelo://app?vid=ebc7a43e-85fe-4b4c-8ca0-84469f9fd8c4","ios":"levelo://app?vid=ebc7a43e-85fe-4b4c-8ca0-84469f9fd8c4"},"vehicle_type_id":"4","last_reported":1753470633,"current_range_meters":13600,"station_id":"ce4bhgp2rcd13ifvqfc0","pricing_plan_id":"cebpf4jnsgd1na2vs0mg"},{"bike_id":"22abd279-ac3d-4b7c-8221-b68bbacaab0e","system_id":"levelo_inurba_marseille","lat":43.26207,"lon":5.37427,"is_reserved":false,"is_disabled":false,"rental_uris":{"android":"levelo://app?vid=22abd279-ac3d-4b7c-8221-b68bbacaab0e","ios":"levelo://app?vid=22abd279-ac3d-4b7c-8221-b68bbacaab0e"},"vehicle_type_id":"4","last_reported":1753470633,"current_range_meters":14000,"station_id":"ce4bhgp2rcd13ifvqfc0","pricing_plan_id":"cebpf4jnsgd1na2vs0mg"},{"bike_id":"27e8f606-5cf5-4b7d-8d19-86ff29939c7a","system_id":"levelo_inurba_marseille","lat":43.32286,"lon":5.38272,"is_reserved":false,"is_disabled":false,"rental_uris":{"android":"levelo://app?vid=27e8f606-5cf5-4b7d-8d19-86ff29939c7a","ios":"levelo://app?vid=27e8f606-5cf5-4b7d-8d19-86ff29939c7a"},"vehicle_type_id":"4","last_reported":1753470633,"current_range_meters":14000,"station_id":"ce4bhr12rcd13ifvqhqg","pricing_plan_id":"cebpf4jnsgd1na2vs0mg"},{"bike_id":"96cbc9b7-fbb9-43ea-b2e2-4390c7e33c1d","system_id":"levelo_inurba_marseille","lat":43.296449,"lon":5.372813,"is_reserved":false,"is_disabled":true,"rental_uris":{"android":"levelo://app?vid=96cbc9b7-fbb9-43ea-b2e2-4390c7e33c1d","ios":"levelo://app?vid=96cbc9b7-fbb9-43ea-b2e2-4390c7e33c1d"},"vehicle_type_id":"4","last_reported":1753470633,"current_range_meters":14000,"station_id":"","pricing_plan_id":"cebpf4jnsgd1na2vs0mg"},{"bike_id":"9bd37625-d45f-4cd6-9742-4cc4e399656e","system_id":"levelo_inurba_marseille","lat":43.27419,"lon":5.39407,"is_reserved":false,"is_disabled":false,"rental_uris":{"android":"levelo://app?vid=9bd37625-d45f-4cd6-9742-4cc4e399656e","ios":"levelo://app?vid=9bd37625-d45f-4cd6-9742-4cc4e399656e"},"vehicle_type_id":"4","last_reported":1753470633,"current_range_meters":14000,"station_id":"ce4bhdp2rcd13ifvqf20","pricing_plan_id":"cebpf4jnsgd1na2vs0mg"},{"bike_id":"bf5dc847-8618-43ac-89c5-509d432811df","system_id":"levelo_inurba_marseille","lat":43.28691,"lon":5.37404,"is_reserved":false,"is_disabled":false,"rental_uris":{"android":"levelo://app?vid=bf5dc847-8618-43ac-89c5-509d432811df","ios":"levelo://app?vid=bf5dc847-8618-43ac-89c5-509d432811df"},"vehicle_type_id":"4","last_reported":1753470633,"current_range_meters":14000,"station_id":"ce4bh3p2rcd13ifvqdq0","pricing_plan_id":"cebpf4jnsgd1na2vs0mg"},{"bike_id":"127b6b72-bfb2-485f-b579-b67c1ffbea0b","system_id":"levelo_inurba_marseille","lat":43.290311,"lon":5.399895,"is_reserved":false,"is_disabled":true,"rental_uris":{"android":"levelo://app?vid=127b6b72-bfb2-485f-b579-b67c1ffbea0b","ios":"levelo://app?vid=127b6b72-bfb2-485f-b579-b67c1ffbea0b"},"vehicle_type_id":"4","last_reported":1753470633,"current_range_meters":14000,"station_id":"ce4bh392rcd13ifvqdm0","pricing_plan_id":"cebpf4jnsgd1na2vs0mg"},{"bike_id":"7d4a8837-cda5-4956-b3f1-b7745abc0151","system_id":"levelo_inurba_marseille","lat":43.311726,"lon":5.387144,"is_reserved":false,"is_disabled":false,"rental_uris":{"android":"levelo://app?vid=7d4a8837-cda5-4956-b3f1-b7745abc0151","ios":"levelo://app?vid=7d4a8837-cda5-4956-b3f1-b7745abc0151"},"vehicle_type_id":"4","last_reported":1753470633,"current_range_meters":14000,"station_id":"ce4bgv12rcd13ifvqcp0","pricing_plan_id":"cebpf4jnsgd1na2vs0mg"},{"bike_id":"f5cb4941-a7c3-4012-81c4-cb602b866e2e","system_id":"levelo_inurba_marseille","lat":43.29961,"lon":5.38487,"is_reserved":false,"is_disabled":false,"rental_uris":{"android":"levelo://app?vid=f5cb4941-a7c3-4012-81c4-cb602b866e2e","ios":"levelo://app?vid=f5cb4941-a7c3-4012-81c4-cb602b866e2e"},"vehicle_type_id":"4","last_reported":1753470633,"current_range_meters":14000,"station_id":"ce4bgj92rcd13ifvqbd0","pricing_plan_id":"cebpf4jnsgd1na2vs0mg"},{"bike_id":"99ef8e95-49ab-445b-91b8-d8e442a9f4df","system_id":"levelo_inurba_marseille","lat":43.25489,"lon":5.37649,"is_reserved":false,"is_disabled":false,"rental_uris":{"android":"levelo://app?vid=99ef8e95-49ab-445b-91b8-d8e442a9f4df","ios":"levelo://app?vid=99ef8e95-49ab-445b-91b8-d8e442a9f4df"},"vehicle_type_id":"4","last_reported":1753470633,"current_range_meters":14400,"station_id":"ce4bhh12rcd13ifvqff0","pricing_plan_id":"cebpf4jnsgd1na2vs0mg"},{"bike_id":"1e3dcd79-f87a-4bee-9eae-9ae64ac72b8b","system_id":"levelo_inurba_marseille","lat":43.31062,"lon":5.38354,"is_reserved":false,"is_disabled":false,"rental_uris":{"android":"levelo://app?vid=1e3dcd79-f87a-4bee-9eae-9ae64ac72b8b","ios":"levelo://app?vid=1e3dcd79-f87a-4bee-9eae-9ae64ac72b8b"},"vehicle_type_id":"4","last_reported":1753470633,"current_range_meters":14400,"station_id":"ce4bgv92rcd13ifvqcr0","pricing_plan_id":"cebpf4jnsgd1na2vs0mg"},{"bike_id":"f3a907ec-40ce-47ba-8578-2d6f4d66e802","system_id":"levelo_inurba_marseille","lat":43.30419,"lon":5.41278,"is_reserved":false,"is_disabled":false,"rental_uris":{"android":"levelo://app?vid=f3a907ec-40ce-47ba-8578-2d6f4d66e802","ios":"levelo://app?vid=f3a907ec-40ce-47ba-8578-2d6f4d66e802"},"vehicle_type_id":"4","last_reported":1753470633,"current_range_meters":14000,"station_id":"ce4bhop2rcd13ifvqh8g","pricing_plan_id":"cebpf4jnsgd1na2vs0mg"},{"bike_id":"9774163b-50fd-4f9c-927d-a976b0e4d095","system_id":"levelo_inurba_marseille","lat":43.29799,"lon":5.38099,"is_reserved":false,"is_disabled":false,"rental_uris":{"android":"levelo://app?vid=9774163b-50fd-4f9c-927d-a976b0e4d095","ios":"levelo://app?vid=9774163b-50fd-4f9c-927d-a976b0e4d095"},"vehicle_type_id":"4","last_reported":1753470633,"current_range_meters":14400,"station_id":"ce4bgip2rcd13ifvqbb0","pricing_plan_id":"cebpf4jnsgd1na2vs0mg"},{"bike_id":"e032122a-e90e-432e-bcf0-02c517832424","system_id":"levelo_inurba_marseille","lat":43.25699,"lon":5.41102,"is_reserved":false,"is_disabled":false,"rental_uris":{"android":"levelo://app?vid=e032122a-e90e-432e-bcf0-02c517832424","ios":"levelo://app?vid=e032122a-e90e-432e-bcf0-02c517832424"},"vehicle_type_id":"4","last_reported":1753470633,"current_range_meters":14000,"station_id":"ce4bhkp2rcd13ifvqgd0","pricing_plan_id":"cebpf4jnsgd1na2vs0mg"},{"bike_id":"eeeb9218-8042-4cbd-95a4-0834de564d28","system_id":"levelo_inurba_marseille","lat":43.2176,"lon":5.34585,"is_reserved":false,"is_disabled":true,"rental_uris":{"android":"levelo://app?vid=eeeb9218-8042-4cbd-95a4-0834de564d28","ios":"levelo://app?vid=eeeb9218-8042-4cbd-95a4-0834de564d28"},"vehicle_type_id":"4","last_reported":1753470633,"current_range_meters":14400,"station_id":"st_cvj6r9ubvosntc0bgbag","pricing_plan_id":"cebpf4jnsgd1na2vs0mg"},{"bike_id":"6f0d314a-d21a-4359-913c-09b9f413fab6","system_id":"levelo_inurba_marseille","lat":43.29546,"lon":5.42292,"is_reserved":false,"is_disabled":false,"rental_uris":{"android":"levelo://app?vid=6f0d314a-d21a-4359-913c-09b9f413fab6","ios":"levelo://app?vid=6f0d314a-d21a-4359-913c-09b9f413fab6"},"vehicle_type_id":"4","last_reported":1753470633,"current_range_meters":14400,"station_id":"ce4bhph2rcd13ifvqhdg","pricing_plan_id":"cebpf4jnsgd1na2vs0mg"},{"bike_id":"ec5cb7ad-6860-4def-8cdc-2b9b2dec4d72","system_id":"levelo_inurba_marseille","lat":43.28415,"lon":5.37511,"is_reserved":false,"is_disabled":false,"rental_uris":{"android":"levelo://app?vid=ec5cb7ad-6860-4def-8cdc-2b9b2dec4d72","ios":"levelo://app?vid=ec5cb7ad-6860-4def-8cdc-2b9b2dec4d72"},"vehicle_type_id":"4","last_reported":1753470633,"current_range_meters":14400,"station_id":"ce4bh412rcd13ifvqds0","pricing_plan_id":"cebpf4jnsgd1na2vs0mg"},{"bike_id":"468b1092-27f3-4041-9182-6faf58bac8da","system_id":"levelo_inurba_marseille","lat":43.2549,"lon":5.3765,"is_reserved":false,"is_disabled":false,"rental_uris":{"android":"levelo://app?vid=468b1092-27f3-4041-9182-6faf58bac8da","ios":"levelo://app?vid=468b1092-27f3-4041-9182-6faf58bac8da"},"vehicle_type_id":"4","last_reported":1753470633,"current_range_meters":14800,"station_id":"ce4bhh12rcd13ifvqff0","pricing_plan_id":"cebpf4jnsgd1na2vs0mg"},{"bike_id":"22dca147-1260-44d8-822d-d9d1d50cce31","system_id":"levelo_inurba_marseille","lat":43.27456,"lon":5.39594,"is_reserved":false,"is_disabled":false,"rental_uris":{"android":"levelo://app?vid=22dca147-1260-44d8-822d-d9d1d50cce31","ios":"levelo://app?vid=22dca147-1260-44d8-822d-d9d1d50cce31"},"vehicle_type_id":"4","last_reported":1753470633,"current_range_meters":14800,"station_id":"","pricing_plan_id":"cebpf4jnsgd1na2vs0mg"},{"bike_id":"d79b409f-ca1b-43df-9348-1c6665f1fc25","system_id":"levelo_inurba_marseille","lat":43.22502,"lon":5.34772,"is_reserved":false,"is_disabled":false,"rental_uris":{"android":"levelo://app?vid=d79b409f-ca1b-43df-9348-1c6665f1fc25","ios":"levelo://app?vid=d79b409f-ca1b-43df-9348-1c6665f1fc25"},"vehicle_type_id":"4","last_reported":1753470633,"current_range_meters":14800,"station_id":"st_cvj5dfep6f1abm77gieg","pricing_plan_id":"cebpf4jnsgd1na2vs0mg"},{"bike_id":"21a22bc7-65fe-4b97-a005-517b211a0b98","system_id":"levelo_inurba_marseille","lat":43.230491,"lon":5.354912,"is_reserved":false,"is_disabled":false,"rental_uris":{"android":"levelo://app?vid=21a22bc7-65fe-4b97-a005-517b211a0b98","ios":"levelo://app?vid=21a22bc7-65fe-4b97-a005-517b211a0b98"},"vehicle_type_id":"4","last_reported":1753470633,"current_range_meters":14800,"station_id":"cpo3342slgdg3j2ifvpg","pricing_plan_id":"cebpf4jnsgd1na2vs0mg"},{"bike_id":"06efbd2a-fcca-4784-aa74-70f8fdbdc82d","system_id":"levelo_inurba_marseille","lat":43.29277,"lon":5.36839,"is_reserved":false,"is_disabled":true,"rental_uris":{"android":"levelo://app?vid=06efbd2a-fcca-4784-aa74-70f8fdbdc82d","ios":"levelo://app?vid=06efbd2a-fcca-4784-aa74-70f8fdbdc82d"},"vehicle_type_id":"4","last_reported":1753470633,"current_range_meters":14800,"station_id":"ce4bhbp2rcd13ifvqesg","pricing_plan_id":"cebpf4jnsgd1na2vs0mg"},{"bike_id":"1880938e-90e7-4c00-8734-cde8f5d94ba6","system_id":"levelo_inurba_marseille","lat":43.30951,"lon":5.3904,"is_reserved":false,"is_disabled":false,"rental_uris":{"android":"levelo://app?vid=1880938e-90e7-4c00-8734-cde8f5d94ba6","ios":"levelo://app?vid=1880938e-90e7-4c00-8734-cde8f5d94ba6"},"vehicle_type_id":"4","last_reported":1753470633,"current_range_meters":15200,"station_id":"ce4bgup2rcd13ifvqco0","pricing_plan_id":"cebpf4jnsgd1na2vs0mg"},{"bike_id":"6838ad71-40a9-46b1-8669-6de5e64afd7a","system_id":"levelo_inurba_marseille","lat":43.3095,"lon":5.39034,"is_reserved":false,"is_disabled":false,"rental_uris":{"android":"levelo://app?vid=6838ad71-40a9-46b1-8669-6de5e64afd7a","ios":"levelo://app?vid=6838ad71-40a9-46b1-8669-6de5e64afd7a"},"vehicle_type_id":"4","last_reported":1753470633,"current_range_meters":15200,"station_id":"ce4bgup2rcd13ifvqco0","pricing_plan_id":"cebpf4jnsgd1na2vs0mg"},{"bike_id":"16bd0d9f-5562-431c-bb6a-72c604d91df6","system_id":"levelo_inurba_marseille","lat":43.32352,"lon":5.36744,"is_reserved":false,"is_disabled":false,"rental_uris":{"android":"levelo://app?vid=16bd0d9f-5562-431c-bb6a-72c604d91df6","ios":"levelo://app?vid=16bd0d9f-5562-431c-bb6a-72c604d91df6"},"vehicle_type_id":"4","last_reported":1753470633,"current_range_meters":15200,"station_id":"ce4bhsh2rcd13ifvqi2g","pricing_plan_id":"cebpf4jnsgd1na2vs0mg"},{"bike_id":"0a0bab8e-418c-444e-aec1-944747da80f2","system_id":"levelo_inurba_marseille","lat":43.29533,"lon":5.38545,"is_reserved":false,"is_disabled":false,"rental_uris":{"android":"levelo://app?vid=0a0bab8e-418c-444e-aec1-944747da80f2","ios":"levelo://app?vid=0a0bab8e-418c-444e-aec1-944747da80f2"},"vehicle_type_id":"4","last_reported":1753470633,"current_range_meters":15200,"station_id":"ce4bgih2rcd13ifvqba0","pricing_plan_id":"cebpf4jnsgd1na2vs0mg"},{"bike_id":"cd73ffa2-c1c7-494d-b108-50a1cb1494a4","system_id":"levelo_inurba_marseille","lat":43.309547,"lon":5.390406,"is_reserved":false,"is_disabled":false,"rental_uris":{"android":"levelo://app?vid=cd73ffa2-c1c7-494d-b108-50a1cb1494a4","ios":"levelo://app?vid=cd73ffa2-c1c7-494d-b108-50a1cb1494a4"},"vehicle_type_id":"4","last_reported":1753470633,"current_range_meters":15200,"station_id":"ce4bgup2rcd13ifvqco0","pricing_plan_id":"cebpf4jnsgd1na2vs0mg"},{"bike_id":"8a2c2661-e5a5-440a-9b01-2df969ce6a86","system_id":"levelo_inurba_marseille","lat":43.29968,"lon":5.38488,"is_reserved":false,"is_disabled":false,"rental_uris":{"android":"levelo://app?vid=8a2c2661-e5a5-440a-9b01-2df969ce6a86","ios":"levelo://app?vid=8a2c2661-e5a5-440a-9b01-2df969ce6a86"},"vehicle_type_id":"4","last_reported":1753470633,"current_range_meters":15200,"station_id":"ce4bgj92rcd13ifvqbd0","pricing_plan_id":"cebpf4jnsgd1na2vs0mg"},{"bike_id":"36f324cb-a9ad-46b7-afb0-26f814934e1f","system_id":"levelo_inurba_marseille","lat":43.262,"lon":5.37407,"is_reserved":false,"is_disabled":false,"rental_uris":{"android":"levelo://app?vid=36f324cb-a9ad-46b7-afb0-26f814934e1f","ios":"levelo://app?vid=36f324cb-a9ad-46b7-afb0-26f814934e1f"},"vehicle_type_id":"4","last_reported":1753470633,"current_range_meters":15200,"station_id":"ce4bhgp2rcd13ifvqfc0","pricing_plan_id":"cebpf4jnsgd1na2vs0mg"},{"bike_id":"d14a5eb1-2464-488d-8ec7-4efb3edb2611","system_id":"levelo_inurba_marseille","lat":43.24665,"lon":5.38171,"is_reserved":false,"is_disabled":false,"rental_uris":{"android":"levelo://app?vid=d14a5eb1-2464-488d-8ec7-4efb3edb2611","ios":"levelo://app?vid=d14a5eb1-2464-488d-8ec7-4efb3edb2611"},"vehicle_type_id":"4","last_reported":1753470633,"current_range_meters":15200,"station_id":"ce4bhih2rcd13ifvqfr0","pricing_plan_id":"cebpf4jnsgd1na2vs0mg"},{"bike_id":"4eedb553-1a5f-47e4-a136-f5051ab058e6","system_id":"levelo_inurba_marseille","lat":43.28429,"lon":5.35018,"is_reserved":false,"is_disabled":true,"rental_uris":{"android":"levelo://app?vid=4eedb553-1a5f-47e4-a136-f5051ab058e6","ios":"levelo://app?vid=4eedb553-1a5f-47e4-a136-f5051ab058e6"},"vehicle_type_id":"4","last_reported":1753470633,"current_range_meters":15200,"station_id":"ce4bhbh2rcd13ifvqepg","pricing_plan_id":"cebpf4jnsgd1na2vs0mg"},{"bike_id":"8dcab7ff-30e3-4f9e-a515-fabad1a70180","system_id":"levelo_inurba_marseille","lat":43.28405,"lon":5.37523,"is_reserved":false,"is_disabled":false,"rental_uris":{"android":"levelo://app?vid=8dcab7ff-30e3-4f9e-a515-fabad1a70180","ios":"levelo://app?vid=8dcab7ff-30e3-4f9e-a515-fabad1a70180"},"vehicle_type_id":"4","last_reported":1753470633,"current_range_meters":15200,"station_id":"ce4bh412rcd13ifvqds0","pricing_plan_id":"cebpf4jnsgd1na2vs0mg"},{"bike_id":"cb278293-9f1e-47b2-a401-660fac112f1b","system_id":"levelo_inurba_marseille","lat":43.262054,"lon":5.374491,"is_reserved":false,"is_disabled":false,"rental_uris":{"android":"levelo://app?vid=cb278293-9f1e-47b2-a401-660fac112f1b","ios":"levelo://app?vid=cb278293-9f1e-47b2-a401-660fac112f1b"},"vehicle_type_id":"4","last_reported":1753470633,"current_range_meters":15200,"station_id":"","pricing_plan_id":"cebpf4jnsgd1na2vs0mg"},{"bike_id":"de99b14c-9afd-4bdd-bc56-50354c110c3d","system_id":"levelo_inurba_marseille","lat":43.25467,"lon":5.37687,"is_reserved":false,"is_disabled":false,"rental_uris":{"android":"levelo://app?vid=de99b14c-9afd-4bdd-bc56-50354c110c3d","ios":"levelo://app?vid=de99b14c-9afd-4bdd-bc56-50354c110c3d"},"vehicle_type_id":"4","last_reported":1753470633,"current_range_meters":16000,"station_id":"","pricing_plan_id":"cebpf4jnsgd1na2vs0mg"},{"bike_id":"970ce0d9-2c80-445a-b6ab-c8eb3acdf2c4","system_id":"levelo_inurba_marseille","lat":43.2622,"lon":5.40453,"is_reserved":false,"is_disabled":false,"rental_uris":{"android":"levelo://app?vid=970ce0d9-2c80-445a-b6ab-c8eb3acdf2c4","ios":"levelo://app?vid=970ce0d9-2c80-445a-b6ab-c8eb3acdf2c4"},"vehicle_type_id":"4","last_reported":1753470633,"current_range_meters":16000,"station_id":"ce4bhmh2rcd13ifvqgmg","pricing_plan_id":"cebpf4jnsgd1na2vs0mg"},{"bike_id":"990041dd-4ec7-4463-8386-9c11919ca35e","system_id":"levelo_inurba_marseille","lat":43.301239,"lon":5.3985,"is_reserved":false,"is_disabled":false,"rental_uris":{"android":"levelo://app?vid=990041dd-4ec7-4463-8386-9c11919ca35e","ios":"levelo://app?vid=990041dd-4ec7-4463-8386-9c11919ca35e"},"vehicle_type_id":"4","last_reported":1753470633,"current_range_meters":16000,"station_id":"ce4bh0h2rcd13ifvqd40","pricing_plan_id":"cebpf4jnsgd1na2vs0mg"},{"bike_id":"c26f1b4d-11e7-4aaa-8fd1-0c8a6e22bd7c","system_id":"levelo_inurba_marseille","lat":43.30131,"lon":5.38788,"is_reserved":false,"is_disabled":true,"rental_uris":{"android":"levelo://app?vid=c26f1b4d-11e7-4aaa-8fd1-0c8a6e22bd7c","ios":"levelo://app?vid=c26f1b4d-11e7-4aaa-8fd1-0c8a6e22bd7c"},"vehicle_type_id":"4","last_reported":1753470633,"current_range_meters":16000,"station_id":"ce4bghh2rcd13ifvqb60","pricing_plan_id":"cebpf4jnsgd1na2vs0mg"},{"bike_id":"b84fba6e-8a93-42cb-94fc-0d05d9fa01c0","system_id":"levelo_inurba_marseille","lat":43.28614,"lon":5.35111,"is_reserved":false,"is_disabled":false,"rental_uris":{"android":"levelo://app?vid=b84fba6e-8a93-42cb-94fc-0d05d9fa01c0","ios":"levelo://app?vid=b84fba6e-8a93-42cb-94fc-0d05d9fa01c0"},"vehicle_type_id":"4","last_reported":1753470633,"current_range_meters":16000,"station_id":"ce4bhch2rcd13ifvqeug","pricing_plan_id":"cebpf4jnsgd1na2vs0mg"},{"bike_id":"7fa33096-7cb8-4818-8ec0-f73faa7fc10b","system_id":"levelo_inurba_marseille","lat":43.2953,"lon":5.38538,"is_reserved":false,"is_disabled":false,"rental_uris":{"android":"levelo://app?vid=7fa33096-7cb8-4818-8ec0-f73faa7fc10b","ios":"levelo://app?vid=7fa33096-7cb8-4818-8ec0-f73faa7fc10b"},"vehicle_type_id":"4","last_reported":1753470633,"current_range_meters":16000,"station_id":"ce4bgih2rcd13ifvqba0","pricing_plan_id":"cebpf4jnsgd1na2vs0mg"},{"bike_id":"e1f4c2b3-a6d4-4a1e-a3d2-e76bef8c3be4","system_id":"levelo_inurba_marseille","lat":43.255,"lon":5.3765,"is_reserved":false,"is_disabled":false,"rental_uris":{"android":"levelo://app?vid=e1f4c2b3-a6d4-4a1e-a3d2-e76bef8c3be4","ios":"levelo://app?vid=e1f4c2b3-a6d4-4a1e-a3d2-e76bef8c3be4"},"vehicle_type_id":"4","last_reported":1753470633,"current_range_meters":16000,"station_id":"ce4bhh12rcd13ifvqff0","pricing_plan_id":"cebpf4jnsgd1na2vs0mg"},{"bike_id":"bf622df1-da97-49ac-b9cd-f7fe3e87393d","system_id":"levelo_inurba_marseille","lat":43.31161,"lon":5.38724,"is_reserved":false,"is_disabled":false,"rental_uris":{"android":"levelo://app?vid=bf622df1-da97-49ac-b9cd-f7fe3e87393d","ios":"levelo://app?vid=bf622df1-da97-49ac-b9cd-f7fe3e87393d"},"vehicle_type_id":"4","last_reported":1753470633,"current_range_meters":16000,"station_id":"ce4bgv12rcd13ifvqcp0","pricing_plan_id":"cebpf4jnsgd1na2vs0mg"},{"bike_id":"1adb7937-5eac-4e2e-b1c3-63df12af9e4d","system_id":"levelo_inurba_marseille","lat":43.29967,"lon":5.38498,"is_reserved":false,"is_disabled":false,"rental_uris":{"android":"levelo://app?vid=1adb7937-5eac-4e2e-b1c3-63df12af9e4d","ios":"levelo://app?vid=1adb7937-5eac-4e2e-b1c3-63df12af9e4d"},"vehicle_type_id":"4","last_reported":1753470633,"current_range_meters":16000,"station_id":"ce4bgj92rcd13ifvqbd0","pricing_plan_id":"cebpf4jnsgd1na2vs0mg"},{"bike_id":"a5061a1a-2c27-4eb7-885e-12bad168cc77","system_id":"levelo_inurba_marseille","lat":43.29772,"lon":5.38078,"is_reserved":false,"is_disabled":false,"rental_uris":{"android":"levelo://app?vid=a5061a1a-2c27-4eb7-885e-12bad168cc77","ios":"levelo://app?vid=a5061a1a-2c27-4eb7-885e-12bad168cc77"},"vehicle_type_id":"4","last_reported":1753470633,"current_range_meters":16000,"station_id":"ce4bgip2rcd13ifvqbb0","pricing_plan_id":"cebpf4jnsgd1na2vs0mg"},{"bike_id":"57755280-973c-4ff3-9c25-8f15e2c5b510","system_id":"levelo_inurba_marseille","lat":43.31872,"lon":5.37373,"is_reserved":false,"is_disabled":false,"rental_uris":{"android":"levelo://app?vid=57755280-973c-4ff3-9c25-8f15e2c5b510","ios":"levelo://app?vid=57755280-973c-4ff3-9c25-8f15e2c5b510"},"vehicle_type_id":"4","last_reported":1753470633,"current_range_meters":16000,"station_id":"","pricing_plan_id":"cebpf4jnsgd1na2vs0mg"},{"bike_id":"74608973-0494-40f1-a8e3-7b507b5f65cc","system_id":"levelo_inurba_marseille","lat":43.2649,"lon":5.39542,"is_reserved":false,"is_disabled":false,"rental_uris":{"android":"levelo://app?vid=74608973-0494-40f1-a8e3-7b507b5f65cc","ios":"levelo://app?vid=74608973-0494-40f1-a8e3-7b507b5f65cc"},"vehicle_type_id":"4","last_reported":1753470633,"current_range_meters":16000,"station_id":"ce4bhi12rcd13ifvqfq0","pricing_plan_id":"cebpf4jnsgd1na2vs0mg"},{"bike_id":"ec2ff7fe-96f8-4ea8-9c99-8b7c542133c4","system_id":"levelo_inurba_marseille","lat":43.273778,"lon":5.362513,"is_reserved":false,"is_disabled":false,"rental_uris":{"android":"levelo://app?vid=ec2ff7fe-96f8-4ea8-9c99-8b7c542133c4","ios":"levelo://app?vid=ec2ff7fe-96f8-4ea8-9c99-8b7c542133c4"},"vehicle_type_id":"4","last_reported":1753470633,"current_range_meters":16000,"station_id":"ce4bhbh2rcd13ifvqeo0","pricing_plan_id":"cebpf4jnsgd1na2vs0mg"},{"bike_id":"33976e3d-53c0-4185-846b-4b84207e0d06","system_id":"levelo_inurba_marseille","lat":43.322879,"lon":5.382737,"is_reserved":false,"is_disabled":false,"rental_uris":{"android":"levelo://app?vid=33976e3d-53c0-4185-846b-4b84207e0d06","ios":"levelo://app?vid=33976e3d-53c0-4185-846b-4b84207e0d06"},"vehicle_type_id":"4","last_reported":1753470633,"current_range_meters":16000,"station_id":"ce4bhr12rcd13ifvqhqg","pricing_plan_id":"cebpf4jnsgd1na2vs0mg"},{"bike_id":"09b7f600-cb1e-4ea0-adc2-9c3dcb778794","system_id":"levelo_inurba_marseille","lat":43.22495,"lon":5.34802,"is_reserved":false,"is_disabled":false,"rental_uris":{"android":"levelo://app?vid=09b7f600-cb1e-4ea0-adc2-9c3dcb778794","ios":"levelo://app?vid=09b7f600-cb1e-4ea0-adc2-9c3dcb778794"},"vehicle_type_id":"4","last_reported":1753470633,"current_range_meters":16400,"station_id":"st_cvj5dfep6f1abm77gieg","pricing_plan_id":"cebpf4jnsgd1na2vs0mg"},{"bike_id":"7f7a4770-cb44-4cbe-afee-f7531a238fa9","system_id":"levelo_inurba_marseille","lat":43.225059,"lon":5.347842,"is_reserved":false,"is_disabled":false,"rental_uris":{"android":"levelo://app?vid=7f7a4770-cb44-4cbe-afee-f7531a238fa9","ios":"levelo://app?vid=7f7a4770-cb44-4cbe-afee-f7531a238fa9"},"vehicle_type_id":"4","last_reported":1753470633,"current_range_meters":16400,"station_id":"st_cvj5dfep6f1abm77gieg","pricing_plan_id":"cebpf4jnsgd1na2vs0mg"},{"bike_id":"696dbfa1-54c3-4d18-a1a7-766989973724","system_id":"levelo_inurba_marseille","lat":43.29299,"lon":5.37162,"is_reserved":false,"is_disabled":false,"rental_uris":{"android":"levelo://app?vid=696dbfa1-54c3-4d18-a1a7-766989973724","ios":"levelo://app?vid=696dbfa1-54c3-4d18-a1a7-766989973724"},"vehicle_type_id":"4","last_reported":1753470633,"current_range_meters":16000,"station_id":"ce4bgh92rcd13ifvqb40","pricing_plan_id":"cebpf4jnsgd1na2vs0mg"},{"bike_id":"e147550b-d8d5-4b42-8fca-07f90e2f1d16","system_id":"levelo_inurba_marseille","lat":43.29575,"lon":5.37518,"is_reserved":false,"is_disabled":false,"rental_uris":{"android":"levelo://app?vid=e147550b-d8d5-4b42-8fca-07f90e2f1d16","ios":"levelo://app?vid=e147550b-d8d5-4b42-8fca-07f90e2f1d16"},"vehicle_type_id":"4","last_reported":1753470633,"current_range_meters":16400,"station_id":"ce4bgh92rcd13ifvqb50","pricing_plan_id":"cebpf4jnsgd1na2vs0mg"},{"bike_id":"847b44c9-efab-4746-8937-dcebf1206fff","system_id":"levelo_inurba_marseille","lat":43.26202,"lon":5.37441,"is_reserved":false,"is_disabled":true,"rental_uris":{"android":"levelo://app?vid=847b44c9-efab-4746-8937-dcebf1206fff","ios":"levelo://app?vid=847b44c9-efab-4746-8937-dcebf1206fff"},"vehicle_type_id":"4","last_reported":1753470633,"current_range_meters":16400,"station_id":"ce4bhgp2rcd13ifvqfc0","pricing_plan_id":"cebpf4jnsgd1na2vs0mg"},{"bike_id":"a2544c16-8624-4773-abe7-ffa14d7b9490","system_id":"levelo_inurba_marseille","lat":43.30947,"lon":5.39054,"is_reserved":false,"is_disabled":false,"rental_uris":{"android":"levelo://app?vid=a2544c16-8624-4773-abe7-ffa14d7b9490","ios":"levelo://app?vid=a2544c16-8624-4773-abe7-ffa14d7b9490"},"vehicle_type_id":"4","last_reported":1753470633,"current_range_meters":16400,"station_id":"ce4bgup2rcd13ifvqco0","pricing_plan_id":"cebpf4jnsgd1na2vs0mg"},{"bike_id":"7528e0ee-3254-4380-8007-ffef61e356ca","system_id":"levelo_inurba_marseille","lat":43.26566,"lon":5.37266,"is_reserved":false,"is_disabled":false,"rental_uris":{"android":"levelo://app?vid=7528e0ee-3254-4380-8007-ffef61e356ca","ios":"levelo://app?vid=7528e0ee-3254-4380-8007-ffef61e356ca"},"vehicle_type_id":"4","last_reported":1753470633,"current_range_meters":16400,"station_id":"ce4bhg12rcd13ifvqf70","pricing_plan_id":"cebpf4jnsgd1na2vs0mg"},{"bike_id":"cad6e236-42a9-4b7d-9c5d-304fb4e7d5bc","system_id":"levelo_inurba_marseille","lat":43.23183,"lon":5.4,"is_reserved":false,"is_disabled":false,"rental_uris":{"android":"levelo://app?vid=cad6e236-42a9-4b7d-9c5d-304fb4e7d5bc","ios":"levelo://app?vid=cad6e236-42a9-4b7d-9c5d-304fb4e7d5bc"},"vehicle_type_id":"4","last_reported":1753470633,"current_range_meters":16000,"station_id":"ce4bhn12rcd13ifvqgqg","pricing_plan_id":"cebpf4jnsgd1na2vs0mg"},{"bike_id":"a520aef3-d8ee-479c-910a-c0447822ca28","system_id":"levelo_inurba_marseille","lat":43.327,"lon":5.40967,"is_reserved":false,"is_disabled":false,"rental_uris":{"android":"levelo://app?vid=a520aef3-d8ee-479c-910a-c0447822ca28","ios":"levelo://app?vid=a520aef3-d8ee-479c-910a-c0447822ca28"},"vehicle_type_id":"4","last_reported":1753470633,"current_range_meters":16400,"station_id":"ce4bhpp2rcd13ifvqhgg","pricing_plan_id":"cebpf4jnsgd1na2vs0mg"},{"bike_id":"dcde4965-150f-439c-a534-4fdfcce20591","system_id":"levelo_inurba_marseille","lat":43.27614,"lon":5.36112,"is_reserved":false,"is_disabled":false,"rental_uris":{"android":"levelo://app?vid=dcde4965-150f-439c-a534-4fdfcce20591","ios":"levelo://app?vid=dcde4965-150f-439c-a534-4fdfcce20591"},"vehicle_type_id":"4","last_reported":1753470633,"current_range_meters":16400,"station_id":"ce4bgj92rcd13ifvqbe0","pricing_plan_id":"cebpf4jnsgd1na2vs0mg"},{"bike_id":"64617613-cad8-42da-98df-41555ec559e2","system_id":"levelo_inurba_marseille","lat":43.2953,"lon":5.38534,"is_reserved":false,"is_disabled":false,"rental_uris":{"android":"levelo://app?vid=64617613-cad8-42da-98df-41555ec559e2","ios":"levelo://app?vid=64617613-cad8-42da-98df-41555ec559e2"},"vehicle_type_id":"4","last_reported":1753470633,"current_range_meters":16400,"station_id":"ce4bgih2rcd13ifvqba0","pricing_plan_id":"cebpf4jnsgd1na2vs0mg"},{"bike_id":"45ec1091-e6ba-41f1-9533-82769723cafd","system_id":"levelo_inurba_marseille","lat":43.32368,"lon":5.38884,"is_reserved":false,"is_disabled":false,"rental_uris":{"android":"levelo://app?vid=45ec1091-e6ba-41f1-9533-82769723cafd","ios":"levelo://app?vid=45ec1091-e6ba-41f1-9533-82769723cafd"},"vehicle_type_id":"4","last_reported":1753470633,"current_range_meters":16400,"station_id":"ce4bhqp2rcd13ifvqhog","pricing_plan_id":"cebpf4jnsgd1na2vs0mg"},{"bike_id":"dd4669b8-7a1e-455c-921c-cef6ea4213f0","system_id":"levelo_inurba_marseille","lat":43.29731,"lon":5.37688,"is_reserved":false,"is_disabled":false,"rental_uris":{"android":"levelo://app?vid=dd4669b8-7a1e-455c-921c-cef6ea4213f0","ios":"levelo://app?vid=dd4669b8-7a1e-455c-921c-cef6ea4213f0"},"vehicle_type_id":"4","last_reported":1753470633,"current_range_meters":16400,"station_id":"ce4bgkh2rcd13ifvqbl0","pricing_plan_id":"cebpf4jnsgd1na2vs0mg"},{"bike_id":"316ac574-83df-47f4-92ef-a3c08aee35f8","system_id":"levelo_inurba_marseille","lat":43.29307,"lon":5.37163,"is_reserved":false,"is_disabled":false,"rental_uris":{"android":"levelo://app?vid=316ac574-83df-47f4-92ef-a3c08aee35f8","ios":"levelo://app?vid=316ac574-83df-47f4-92ef-a3c08aee35f8"},"vehicle_type_id":"4","last_reported":1753470633,"current_range_meters":16000,"station_id":"ce4bgh92rcd13ifvqb40","pricing_plan_id":"cebpf4jnsgd1na2vs0mg"},{"bike_id":"5866e9c2-25bb-4eab-a596-84f698b17666","system_id":"levelo_inurba_marseille","lat":43.30946,"lon":5.39033,"is_reserved":false,"is_disabled":false,"rental_uris":{"android":"levelo://app?vid=5866e9c2-25bb-4eab-a596-84f698b17666","ios":"levelo://app?vid=5866e9c2-25bb-4eab-a596-84f698b17666"},"vehicle_type_id":"4","last_reported":1753470633,"current_range_meters":16400,"station_id":"ce4bgup2rcd13ifvqco0","pricing_plan_id":"cebpf4jnsgd1na2vs0mg"},{"bike_id":"6ab0b13c-2ff1-417a-acfd-489d6800d4c9","system_id":"levelo_inurba_marseille","lat":43.27367,"lon":5.36242,"is_reserved":false,"is_disabled":true,"rental_uris":{"android":"levelo://app?vid=6ab0b13c-2ff1-417a-acfd-489d6800d4c9","ios":"levelo://app?vid=6ab0b13c-2ff1-417a-acfd-489d6800d4c9"},"vehicle_type_id":"4","last_reported":1753470633,"current_range_meters":16400,"station_id":"ce4bhbh2rcd13ifvqeo0","pricing_plan_id":"cebpf4jnsgd1na2vs0mg"},{"bike_id":"e05dc178-7991-4ff4-9419-7902f8c8343f","system_id":"levelo_inurba_marseille","lat":43.29778,"lon":5.37105,"is_reserved":false,"is_disabled":false,"rental_uris":{"android":"levelo://app?vid=e05dc178-7991-4ff4-9419-7902f8c8343f","ios":"levelo://app?vid=e05dc178-7991-4ff4-9419-7902f8c8343f"},"vehicle_type_id":"4","last_reported":1753470633,"current_range_meters":16400,"station_id":"ce4bgop2rcd13ifvqc1g","pricing_plan_id":"cebpf4jnsgd1na2vs0mg"},{"bike_id":"1f60027f-5ca6-4a98-af30-65946b6c5b20","system_id":"levelo_inurba_marseille","lat":43.29709,"lon":5.36605,"is_reserved":false,"is_disabled":false,"rental_uris":{"android":"levelo://app?vid=1f60027f-5ca6-4a98-af30-65946b6c5b20","ios":"levelo://app?vid=1f60027f-5ca6-4a98-af30-65946b6c5b20"},"vehicle_type_id":"4","last_reported":1753470633,"current_range_meters":16800,"station_id":"ce4bgn12rcd13ifvqbt0","pricing_plan_id":"cebpf4jnsgd1na2vs0mg"},{"bike_id":"c4223149-eeb8-4da8-830b-af67942691a3","system_id":"levelo_inurba_marseille","lat":43.29437,"lon":5.38616,"is_reserved":false,"is_disabled":false,"rental_uris":{"android":"levelo://app?vid=c4223149-eeb8-4da8-830b-af67942691a3","ios":"levelo://app?vid=c4223149-eeb8-4da8-830b-af67942691a3"},"vehicle_type_id":"4","last_reported":1753470633,"current_range_meters":16800,"station_id":"","pricing_plan_id":"cebpf4jnsgd1na2vs0mg"},{"bike_id":"acb9a0e9-c13c-4ef3-8d9a-f21d2ecd5aa3","system_id":"levelo_inurba_marseille","lat":43.29526,"lon":5.38549,"is_reserved":false,"is_disabled":false,"rental_uris":{"android":"levelo://app?vid=acb9a0e9-c13c-4ef3-8d9a-f21d2ecd5aa3","ios":"levelo://app?vid=acb9a0e9-c13c-4ef3-8d9a-f21d2ecd5aa3"},"vehicle_type_id":"4","last_reported":1753470633,"current_range_meters":16800,"station_id":"ce4bgih2rcd13ifvqba0","pricing_plan_id":"cebpf4jnsgd1na2vs0mg"},{"bike_id":"97a719d6-9a61-41a3-aa32-c84796fe6ec0","system_id":"levelo_inurba_marseille","lat":43.28411,"lon":5.37496,"is_reserved":false,"is_disabled":false,"rental_uris":{"android":"levelo://app?vid=97a719d6-9a61-41a3-aa32-c84796fe6ec0","ios":"levelo://app?vid=97a719d6-9a61-41a3-aa32-c84796fe6ec0"},"vehicle_type_id":"4","last_reported":1753470633,"current_range_meters":16800,"station_id":"ce4bh412rcd13ifvqds0","pricing_plan_id":"cebpf4jnsgd1na2vs0mg"},{"bike_id":"e6d6b6cc-da2f-4806-a29a-1cfbe83f3b0a","system_id":"levelo_inurba_marseille","lat":43.25497,"lon":5.3765,"is_reserved":false,"is_disabled":false,"rental_uris":{"android":"levelo://app?vid=e6d6b6cc-da2f-4806-a29a-1cfbe83f3b0a","ios":"levelo://app?vid=e6d6b6cc-da2f-4806-a29a-1cfbe83f3b0a"},"vehicle_type_id":"4","last_reported":1753470633,"current_range_meters":16800,"station_id":"ce4bhh12rcd13ifvqff0","pricing_plan_id":"cebpf4jnsgd1na2vs0mg"},{"bike_id":"ec74f06a-40dc-4c39-a0cb-57d6f568a4e5","system_id":"levelo_inurba_marseille","lat":43.22903,"lon":5.35388,"is_reserved":false,"is_disabled":false,"rental_uris":{"android":"levelo://app?vid=ec74f06a-40dc-4c39-a0cb-57d6f568a4e5","ios":"levelo://app?vid=ec74f06a-40dc-4c39-a0cb-57d6f568a4e5"},"vehicle_type_id":"4","last_reported":1753470633,"current_range_meters":16800,"station_id":"cpo3532slgdg3j2ikp40","pricing_plan_id":"cebpf4jnsgd1na2vs0mg"},{"bike_id":"b44e0ef0-448d-42e7-b8ce-9c7edd8e1cfe","system_id":"levelo_inurba_marseille","lat":43.28166,"lon":5.42628,"is_reserved":false,"is_disabled":false,"rental_uris":{"android":"levelo://app?vid=b44e0ef0-448d-42e7-b8ce-9c7edd8e1cfe","ios":"levelo://app?vid=b44e0ef0-448d-42e7-b8ce-9c7edd8e1cfe"},"vehicle_type_id":"4","last_reported":1753470633,"current_range_meters":16800,"station_id":"ce4bhnh2rcd13ifvqgug","pricing_plan_id":"cebpf4jnsgd1na2vs0mg"},{"bike_id":"fc8a9484-e63c-47bd-a253-b95a54f5a311","system_id":"levelo_inurba_marseille","lat":43.24167,"lon":5.36393,"is_reserved":false,"is_disabled":false,"rental_uris":{"android":"levelo://app?vid=fc8a9484-e63c-47bd-a253-b95a54f5a311","ios":"levelo://app?vid=fc8a9484-e63c-47bd-a253-b95a54f5a311"},"vehicle_type_id":"4","last_reported":1753470633,"current_range_meters":16800,"station_id":"cpo36qri1sfpv3e86is0","pricing_plan_id":"cebpf4jnsgd1na2vs0mg"},{"bike_id":"8c581ec7-4691-451b-bcc8-0ed14d3f29d1","system_id":"levelo_inurba_marseille","lat":43.29511,"lon":5.37501,"is_reserved":false,"is_disabled":false,"rental_uris":{"android":"levelo://app?vid=8c581ec7-4691-451b-bcc8-0ed14d3f29d1","ios":"levelo://app?vid=8c581ec7-4691-451b-bcc8-0ed14d3f29d1"},"vehicle_type_id":"4","last_reported":1753470633,"current_range_meters":16800,"station_id":"ce4bgkp2rcd13ifvqbmg","pricing_plan_id":"cebpf4jnsgd1na2vs0mg"},{"bike_id":"05d91480-c4b9-40db-af98-88b170fb6f3c","system_id":"levelo_inurba_marseille","lat":43.2998,"lon":5.37169,"is_reserved":false,"is_disabled":false,"rental_uris":{"android":"levelo://app?vid=05d91480-c4b9-40db-af98-88b170fb6f3c","ios":"levelo://app?vid=05d91480-c4b9-40db-af98-88b170fb6f3c"},"vehicle_type_id":"4","last_reported":1753470633,"current_range_meters":16800,"station_id":"ce4bgr92rcd13ifvqc7g","pricing_plan_id":"cebpf4jnsgd1na2vs0mg"},{"bike_id":"329c8f00-9fb0-47d7-84ef-1bc64e291f9c","system_id":"levelo_inurba_marseille","lat":43.292789,"lon":5.36837,"is_reserved":false,"is_disabled":false,"rental_uris":{"android":"levelo://app?vid=329c8f00-9fb0-47d7-84ef-1bc64e291f9c","ios":"levelo://app?vid=329c8f00-9fb0-47d7-84ef-1bc64e291f9c"},"vehicle_type_id":"4","last_reported":1753470633,"current_range_meters":16800,"station_id":"","pricing_plan_id":"cebpf4jnsgd1na2vs0mg"},{"bike_id":"a94045bd-b90a-43b7-a31c-744a647a9299","system_id":"levelo_inurba_marseille","lat":43.30947,"lon":5.39032,"is_reserved":false,"is_disabled":false,"rental_uris":{"android":"levelo://app?vid=a94045bd-b90a-43b7-a31c-744a647a9299","ios":"levelo://app?vid=a94045bd-b90a-43b7-a31c-744a647a9299"},"vehicle_type_id":"4","last_reported":1753470633,"current_range_meters":16800,"station_id":"ce4bgup2rcd13ifvqco0","pricing_plan_id":"cebpf4jnsgd1na2vs0mg"},{"bike_id":"654088bc-b3fd-4f28-8e06-bb5fa623a072","system_id":"levelo_inurba_marseille","lat":43.24173,"lon":5.36383,"is_reserved":false,"is_disabled":false,"rental_uris":{"android":"levelo://app?vid=654088bc-b3fd-4f28-8e06-bb5fa623a072","ios":"levelo://app?vid=654088bc-b3fd-4f28-8e06-bb5fa623a072"},"vehicle_type_id":"4","last_reported":1753470633,"current_range_meters":17200,"station_id":"cpo36qri1sfpv3e86is0","pricing_plan_id":"cebpf4jnsgd1na2vs0mg"},{"bike_id":"152247a2-6f09-485f-acf9-4f6bd27a046c","system_id":"levelo_inurba_marseille","lat":43.28158,"lon":5.42635,"is_reserved":false,"is_disabled":false,"rental_uris":{"android":"levelo://app?vid=152247a2-6f09-485f-acf9-4f6bd27a046c","ios":"levelo://app?vid=152247a2-6f09-485f-acf9-4f6bd27a046c"},"vehicle_type_id":"4","last_reported":1753470633,"current_range_meters":17200,"station_id":"ce4bhnh2rcd13ifvqgug","pricing_plan_id":"cebpf4jnsgd1na2vs0mg"},{"bike_id":"3a1a117c-f7f5-404b-b1f6-0dbbee9a772f","system_id":"levelo_inurba_marseille","lat":43.30138,"lon":5.38779,"is_reserved":false,"is_disabled":false,"rental_uris":{"android":"levelo://app?vid=3a1a117c-f7f5-404b-b1f6-0dbbee9a772f","ios":"levelo://app?vid=3a1a117c-f7f5-404b-b1f6-0dbbee9a772f"},"vehicle_type_id":"4","last_reported":1753470633,"current_range_meters":16800,"station_id":"ce4bghh2rcd13ifvqb60","pricing_plan_id":"cebpf4jnsgd1na2vs0mg"},{"bike_id":"e8a376d2-a959-481b-83a7-f0af07ae0759","system_id":"levelo_inurba_marseille","lat":43.29878,"lon":5.38891,"is_reserved":false,"is_disabled":false,"rental_uris":{"android":"levelo://app?vid=e8a376d2-a959-481b-83a7-f0af07ae0759","ios":"levelo://app?vid=e8a376d2-a959-481b-83a7-f0af07ae0759"},"vehicle_type_id":"4","last_reported":1753470633,"current_range_meters":16800,"station_id":"ce4bh392rcd13ifvqdl0","pricing_plan_id":"cebpf4jnsgd1na2vs0mg"},{"bike_id":"d4a4ff82-40eb-4c79-a12e-ba898c990900","system_id":"levelo_inurba_marseille","lat":43.2762,"lon":5.36101,"is_reserved":false,"is_disabled":false,"rental_uris":{"android":"levelo://app?vid=d4a4ff82-40eb-4c79-a12e-ba898c990900","ios":"levelo://app?vid=d4a4ff82-40eb-4c79-a12e-ba898c990900"},"vehicle_type_id":"4","last_reported":1753470633,"current_range_meters":17200,"station_id":"ce4bgj92rcd13ifvqbe0","pricing_plan_id":"cebpf4jnsgd1na2vs0mg"},{"bike_id":"70ed1b83-cce1-4ec3-8e4a-801c887d805d","system_id":"levelo_inurba_marseille","lat":43.26057,"lon":5.39399,"is_reserved":false,"is_disabled":false,"rental_uris":{"android":"levelo://app?vid=70ed1b83-cce1-4ec3-8e4a-801c887d805d","ios":"levelo://app?vid=70ed1b83-cce1-4ec3-8e4a-801c887d805d"},"vehicle_type_id":"4","last_reported":1753470633,"current_range_meters":16800,"station_id":"ce4bhh92rcd13ifvqfj0","pricing_plan_id":"cebpf4jnsgd1na2vs0mg"},{"bike_id":"7c44dc9e-7b2b-40fd-bc2e-da5ffbbd8e00","system_id":"levelo_inurba_marseille","lat":43.29976,"lon":5.385,"is_reserved":false,"is_disabled":false,"rental_uris":{"android":"levelo://app?vid=7c44dc9e-7b2b-40fd-bc2e-da5ffbbd8e00","ios":"levelo://app?vid=7c44dc9e-7b2b-40fd-bc2e-da5ffbbd8e00"},"vehicle_type_id":"4","last_reported":1753470633,"current_range_meters":17200,"station_id":"ce4bgj92rcd13ifvqbd0","pricing_plan_id":"cebpf4jnsgd1na2vs0mg"},{"bike_id":"4b18cd69-afb2-4a08-b7b2-eab970d04d9e","system_id":"levelo_inurba_marseille","lat":43.28848,"lon":5.39304,"is_reserved":false,"is_disabled":false,"rental_uris":{"android":"levelo://app?vid=4b18cd69-afb2-4a08-b7b2-eab970d04d9e","ios":"levelo://app?vid=4b18cd69-afb2-4a08-b7b2-eab970d04d9e"},"vehicle_type_id":"4","last_reported":1753470633,"current_range_meters":17200,"station_id":"ce4bh2p2rcd13ifvqdi0","pricing_plan_id":"cebpf4jnsgd1na2vs0mg"},{"bike_id":"2982f92d-87cc-4cb9-8c02-e871843fba1c","system_id":"levelo_inurba_marseille","lat":43.31415,"lon":5.37074,"is_reserved":false,"is_disabled":false,"rental_uris":{"android":"levelo://app?vid=2982f92d-87cc-4cb9-8c02-e871843fba1c","ios":"levelo://app?vid=2982f92d-87cc-4cb9-8c02-e871843fba1c"},"vehicle_type_id":"4","last_reported":1753470633,"current_range_meters":17600,"station_id":"","pricing_plan_id":"cebpf4jnsgd1na2vs0mg"},{"bike_id":"d93afedf-4a28-4260-b194-515c47653b85","system_id":"levelo_inurba_marseille","lat":43.30943,"lon":5.39025,"is_reserved":false,"is_disabled":false,"rental_uris":{"android":"levelo://app?vid=d93afedf-4a28-4260-b194-515c47653b85","ios":"levelo://app?vid=d93afedf-4a28-4260-b194-515c47653b85"},"vehicle_type_id":"4","last_reported":1753470633,"current_range_meters":17200,"station_id":"ce4bgup2rcd13ifvqco0","pricing_plan_id":"cebpf4jnsgd1na2vs0mg"},{"bike_id":"8f4ca69e-9621-4ffd-91af-41f939f5f71e","system_id":"levelo_inurba_marseille","lat":43.23965,"lon":5.36629,"is_reserved":false,"is_disabled":false,"rental_uris":{"android":"levelo://app?vid=8f4ca69e-9621-4ffd-91af-41f939f5f71e","ios":"levelo://app?vid=8f4ca69e-9621-4ffd-91af-41f939f5f71e"},"vehicle_type_id":"4","last_reported":1753470633,"current_range_meters":17600,"station_id":"ce4bhi12rcd13ifvqfp0","pricing_plan_id":"cebpf4jnsgd1na2vs0mg"},{"bike_id":"f4f49d9d-7c2e-4026-b575-2b838894dd47","system_id":"levelo_inurba_marseille","lat":43.30271,"lon":5.3772,"is_reserved":false,"is_disabled":false,"rental_uris":{"android":"levelo://app?vid=f4f49d9d-7c2e-4026-b575-2b838894dd47","ios":"levelo://app?vid=f4f49d9d-7c2e-4026-b575-2b838894dd47"},"vehicle_type_id":"4","last_reported":1753470633,"current_range_meters":17200,"station_id":"ce4bguh2rcd13ifvqcj0","pricing_plan_id":"cebpf4jnsgd1na2vs0mg"},{"bike_id":"c3c2652b-f2d7-4ed4-89ec-9559feb01451","system_id":"levelo_inurba_marseille","lat":43.292236,"lon":5.360521,"is_reserved":false,"is_disabled":true,"rental_uris":{"android":"levelo://app?vid=c3c2652b-f2d7-4ed4-89ec-9559feb01451","ios":"levelo://app?vid=c3c2652b-f2d7-4ed4-89ec-9559feb01451"},"vehicle_type_id":"4","last_reported":1753470633,"current_range_meters":17600,"station_id":"ce4bhbh2rcd13ifvqeqg","pricing_plan_id":"cebpf4jnsgd1na2vs0mg"},{"bike_id":"1855cbe1-5a05-480e-9057-6e9b3976dbbe","system_id":"levelo_inurba_marseille","lat":43.33731,"lon":5.39191,"is_reserved":false,"is_disabled":false,"rental_uris":{"android":"levelo://app?vid=1855cbe1-5a05-480e-9057-6e9b3976dbbe","ios":"levelo://app?vid=1855cbe1-5a05-480e-9057-6e9b3976dbbe"},"vehicle_type_id":"4","last_reported":1753470633,"current_range_meters":17600,"station_id":"ce4bhr92rcd13ifvqhsg","pricing_plan_id":"cebpf4jnsgd1na2vs0mg"},{"bike_id":"99938384-2779-4389-9a1c-4b06450d69be","system_id":"levelo_inurba_marseille","lat":43.27203,"lon":5.39185,"is_reserved":false,"is_disabled":true,"rental_uris":{"android":"levelo://app?vid=99938384-2779-4389-9a1c-4b06450d69be","ios":"levelo://app?vid=99938384-2779-4389-9a1c-4b06450d69be"},"vehicle_type_id":"4","last_reported":1753470633,"current_range_meters":17600,"station_id":"ce4bhhp2rcd13ifvqfm0","pricing_plan_id":"cebpf4jnsgd1na2vs0mg"},{"bike_id":"212d8ce1-ee72-47c4-94e6-5acc6e705030","system_id":"levelo_inurba_marseille","lat":43.30899,"lon":5.39634,"is_reserved":false,"is_disabled":false,"rental_uris":{"android":"levelo://app?vid=212d8ce1-ee72-47c4-94e6-5acc6e705030","ios":"levelo://app?vid=212d8ce1-ee72-47c4-94e6-5acc6e705030"},"vehicle_type_id":"4","last_reported":1753470633,"current_range_meters":17200,"station_id":"ce4bh012rcd13ifvqcv0","pricing_plan_id":"cebpf4jnsgd1na2vs0mg"},{"bike_id":"b2750d43-9698-4e8d-8e62-f37c413f093a","system_id":"levelo_inurba_marseille","lat":43.29684,"lon":5.37291,"is_reserved":false,"is_disabled":false,"rental_uris":{"android":"levelo://app?vid=b2750d43-9698-4e8d-8e62-f37c413f093a","ios":"levelo://app?vid=b2750d43-9698-4e8d-8e62-f37c413f093a"},"vehicle_type_id":"4","last_reported":1753470633,"current_range_meters":17600,"station_id":"ce4bgk12rcd13ifvqbj0","pricing_plan_id":"cebpf4jnsgd1na2vs0mg"},