{"last_updated":1768039905,"ttl":60,"version":"2.2","data":{"bikes":[{"bike_id":"0e7e919c-83a3-45be-90bf-dcf29db4b4ea","system_id":"levelo_inurba_marseille","lat":43.32343,"lon":5.36721,"is_reserved":false,"is_disabled":false,"rental_uris":{"android":"levelo://app?vid=0e7e919c-83a3-45be-90bf-dcf29db4b4ea","ios":"levelo://app?vid=0e7e919c-83a3-45be-90bf-dcf29db4b4ea"},"vehicle_type_id":"4","last_reported":1768039905,"current_range_meters":2800,"station_id":"ce4bhsh2rcd13ifvqi2g","pricing_plan_id":"cebpf4jnsgd1na2vs0mg"},{"bike_id":"0bd696eb-e437-44a6-82de-8fb9cb4dee15","system_id":"levelo_inurba_marseille","lat":43.31259,"lon":5.40193,"is_reserved":false,"is_disabled":false,"rental_uris":{"android":"levelo://app?vid=0bd696eb-e437-44a6-82de-8fb9cb4dee15","ios":"levelo://app?vid=0bd696eb-e437-44a6-82de-8fb9cb4dee15"},"vehicle_type_id":"4","last_reported":1768039905,"current_range_meters":2800,"station_id":"ce4bh092rcd13ifvqd30","pricing_plan_id":"cebpf4jnsgd1na2vs0mg"},{"bike_id":"645210fa-1f8d-4358-8422-5e41d9e4b56c","system_id":"levelo_inurba_marseille","lat":43.263656,"lon":5.410832,"is_reserved":false,"is_disabled":false,"rental_uris":{"android":"levelo://app?vid=645210fa-1f8d-4358-8422-5e41d9e4b56c","ios":"levelo://app?vid=645210fa-1f8d-4358-8422-5e41d9e4b56c"},"vehicle_type_id":"4","last_reported":1768039905,"current_range_meters":2800,"station_id":"st_d4e5ca6na9uc73bfl5fg","pricing_plan_id":"cebpf4jnsgd1na2vs0mg"},{"bike_id":"38f34c0b-018a-4a87-9b2b-2105aec61656","system_id":"levelo_inurba_marseille","lat":43.24164,"lon":5.39726,"is_reserved":false,"is_disabled":false,"rental_uris":{"android":"levelo://app?vid=38f34c0b-018a-4a87-9b2b-2105aec61656","ios":"levelo://app?vid=38f34c0b-018a-4a87-9b2b-2105aec61656"},"vehicle_type_id":"4","last_reported":1768039905,"current_range_meters":2800,"station_id":"ce4bhn12rcd13ifvqgpg","pricing_plan_id":"cebpf4jnsgd1na2vs0mg"},{"bike_id":"d495d3f4-e1c4-435d-99af-12f3f7a2674e","system_id":"levelo_inurba_marseille","lat":43.24185,"lon":5.3634,"is_reserved":false,"is_disabled":false,"rental_uris":{"android":"levelo://app?vid=d495d3f4-e1c4-435d-99af-12f3f7a2674e","ios":"levelo://app?vid=d495d3f4-e1c4-435d-99af-12f3f7a2674e"},"vehicle_type_id":"4","last_reported":1768039905,"current_range_meters":2800,"station_id":"cpo36qri1sfpv3e86is0","pricing_plan_id":"cebpf4jnsgd1na2vs0mg"},{"bike_id":"7d50baf1-e702-4bc4-8ad1-ca576e44cfe3","system_id":"levelo_inurba_marseille","lat":43.24667,"lon":5.43189,"is_reserved":false,"is_disabled":false,"rental_uris":{"android":"levelo://app?vid=7d50baf1-e702-4bc4-8ad1-ca576e44cfe3","ios":"levelo://app?vid=7d50baf1-e702-4bc4-8ad1-ca576e44cfe3"},"vehicle_type_id":"4","last_reported":1768039905,"current_range_meters":2800,"station_id":"st_d2m6c4gdas8pm72e190g","pricing_plan_id":"cebpf4jnsgd1na2vs0mg"},{"bike_id":"77609f6c-a0ae-4a06-a2d6-469590bc28dc","system_id":"levelo_inurba_marseille","lat":43.293023,"lon":5.371719,"is_reserved":false,"is_disabled":false,"rental_uris":{"android":"levelo://app?vid=77609f6c-a0ae-4a06-a2d6-469590bc28dc","ios":"levelo://app?vid=77609f6c-a0ae-4a06-a2d6-469590bc28dc"},"vehicle_type_id":"4","last_reported":1768039905,"current_range_meters":3200,"station_id":"ce4bgh92rcd13ifvqb40","pricing_plan_id":"cebpf4jnsgd1na2vs0mg"},{"bike_id":"569b0032-d7de-4ef5-ac08-24b2ac42db20","system_id":"levelo_inurba_marseille","lat":43.26535,"lon":5.37312,"is_reserved":false,"is_disabled":false,"rental_uris":{"android":"levelo://app?vid=569b0032-d7de-4ef5-ac08-24b2ac42db20","ios":"levelo://app?vid=569b0032-d7de-4ef5-ac08-24b2ac42db20"},"vehicle_type_id":"4","last_reported":1768039905,"current_range_meters":3200,"station_id":"ce4bhg12rcd13ifvqf70","pricing_plan_id":"cebpf4jnsgd1na2vs0mg"},{"bike_id":"18afa7e5-a060-43b9-bd3e-ab224bbb7669","system_id":"levelo_inurba_marseille","lat":43.28871,"lon":5.42529,"is_reserved":false,"is_disabled":false,"rental_uris":{"android":"levelo://app?vid=18afa7e5-a060-43b9-bd3e-ab224bbb7669","ios":"levelo://app?vid=18afa7e5-a060-43b9-bd3e-ab224bbb7669"},"vehicle_type_id":"4","last_reported":1768039905,"current_range_meters":3200,"station_id":"st_d3b462108ojc7389ooeg","pricing_plan_id":"cebpf4jnsgd1na2vs0mg"},{"bike_id":"7873a432-75ba-46ba-a34c-4dc6ef756fe4","system_id":"levelo_inurba_marseille","lat":43.31274,"lon":5.40171,"is_reserved":false,"is_disabled":false,"rental_uris":{"android":"levelo://app?vid=7873a432-75ba-46ba-a34c-4dc6ef756fe4","ios":"levelo://app?vid=7873a432-75ba-46ba-a34c-4dc6ef756fe4"},"vehicle_type_id":"4","last_reported":1768039905,"current_range_meters":3200,"station_id":"ce4bh092rcd13ifvqd30","pricing_plan_id":"cebpf4jnsgd1na2vs0mg"},{"bike_id":"8f03ca16-077f-4c1b-a98c-62075fdb0776","system_id":"levelo_inurba_marseille","lat":43.30123,"lon":5.38795,"is_reserved":false,"is_disabled":false,"rental_uris":{"android":"levelo://app?vid=8f03ca16-077f-4c1b-a98c-62075fdb0776","ios":"levelo://app?vid=8f03ca16-077f-4c1b-a98c-62075fdb0776"},"vehicle_type_id":"4","last_reported":1768039905,"current_range_meters":3200,"station_id":"ce4bghh2rcd13ifvqb60","pricing_plan_id":"cebpf4jnsgd1na2vs0mg"},{"bike_id":"262a8fec-bd27-46e9-aad8-6268adcdc681","system_id":"levelo_inurba_marseille","lat":43.21183,"lon":5.35072,"is_reserved":false,"is_disabled":false,"rental_uris":{"android":"levelo://app?vid=262a8fec-bd27-46e9-aad8-6268adcdc681","ios":"levelo://app?vid=262a8fec-bd27-46e9-aad8-6268adcdc681"},"vehicle_type_id":"4","last_reported":1768039905,"current_range_meters":3200,"station_id":"st_cvj6sg6p6f1abm77japg","pricing_plan_id":"cebpf4jnsgd1na2vs0mg"},{"bike_id":"f58d6f7b-cbb0-4399-a343-55040a73d9f6","system_id":"levelo_inurba_marseille","lat":43.2534,"lon":5.42181,"is_reserved":false,"is_disabled":false,"rental_uris":{"android":"levelo://app?vid=f58d6f7b-cbb0-4399-a343-55040a73d9f6","ios":"levelo://app?vid=f58d6f7b-cbb0-4399-a343-55040a73d9f6"},"vehicle_type_id":"4","last_reported":1768039905,"current_range_meters":3200,"station_id":"st_d2m65c5bi1j21697t3ng","pricing_plan_id":"cebpf4jnsgd1na2vs0mg"},{"bike_id":"d62b1dd7-04ea-48f5-a204-d6921ceaf13e","system_id":"levelo_inurba_marseille","lat":43.24169,"lon":5.36396,"is_reserved":false,"is_disabled":false,"rental_uris":{"android":"levelo://app?vid=d62b1dd7-04ea-48f5-a204-d6921ceaf13e","ios":"levelo://app?vid=d62b1dd7-04ea-48f5-a204-d6921ceaf13e"},"vehicle_type_id":"4","last_reported":1768039905,"current_range_meters":3200,"station_id":"cpo36qri1sfpv3e86is0","pricing_plan_id":"cebpf4jnsgd1na2vs0mg"},{"bike_id":"ff14a00b-7523-4e64-a50f-051c3e1f7713","system_id":"levelo_inurba_marseille","lat":43.26219,"lon":5.40447,"is_reserved":false,"is_disabled":false,"rental_uris":{"android":"levelo://app?vid=ff14a00b-7523-4e64-a50f-051c3e1f7713","ios":"levelo://app?vid=ff14a00b-7523-4e64-a50f-051c3e1f7713"},"vehicle_type_id":"4","last_reported":1768039905,"current_range_meters":3200,"station_id":"ce4bhmh2rcd13ifvqgmg","pricing_plan_id":"cebpf4jnsgd1na2vs0mg"},{"bike_id":"a661e347-44a8-4dfa-bb37-ce295a45a6bf","system_id":"levelo_inurba_marseille","lat":43.29784,"lon":5.38111,"is_reserved":false,"is_disabled":false,"rental_uris":{"android":"levelo://app?vid=a661e347-44a8-4dfa-bb37-ce295a45a6bf","ios":"levelo://app?vid=a661e347-44a8-4dfa-bb37-ce295a45a6bf"},"vehicle_type_id":"4","last_reported":1768039905,"current_range_meters":3200,"station_id":"ce4bgip2rcd13ifvqbb0","pricing_plan_id":"cebpf4jnsgd1na2vs0mg"},{"bike_id":"e0338060-ce0a-4822-8d71-f2c1872544f8","system_id":"levelo_inurba_marseille","lat":43.28404,"lon":5.34979,"is_reserved":false,"is_disabled":false,"rental_uris":{"android":"levelo://app?vid=e0338060-ce0a-4822-8d71-f2c1872544f8","ios":"levelo://app?vid=e0338060-ce0a-4822-8d71-f2c1872544f8"},"vehicle_type_id":"4","last_reported":1768039905,"current_range_meters":3600,"station_id":"ce4bhbh2rcd13ifvqepg","pricing_plan_id":"cebpf4jnsgd1na2vs0mg"},{"bike_id":"e8237869-6bc1-4aff-8e00-c83ace1ecdfb","system_id":"levelo_inurba_marseille","lat":43.225335,"lon":5.348347,"is_reserved":false,"is_disabled":false,"rental_uris":{"android":"levelo://app?vid=e8237869-6bc1-4aff-8e00-c83ace1ecdfb","ios":"levelo://app?vid=e8237869-6bc1-4aff-8e00-c83ace1ecdfb"},"vehicle_type_id":"4","last_reported":1768039905,"current_range_meters":3600,"station_id":"","pricing_plan_id":"cebpf4jnsgd1na2vs0mg"},{"bike_id":"65f0fc4d-2046-4a25-ad60-e4f1b55c7a73","system_id":"levelo_inurba_marseille","lat":43.243879,"lon":5.370612,"is_reserved":false,"is_disabled":false,"rental_uris":{"android":"levelo://app?vid=65f0fc4d-2046-4a25-ad60-e4f1b55c7a73","ios":"levelo://app?vid=65f0fc4d-2046-4a25-ad60-e4f1b55c7a73"},"vehicle_type_id":"4","last_reported":1768039905,"current_range_meters":3600,"station_id":"ce4bhhh2rcd13ifvqfk0","pricing_plan_id":"cebpf4jnsgd1na2vs0mg"},{"bike_id":"f6a2b1c6-751f-470e-836e-a72336cc77d2","system_id":"levelo_inurba_marseille","lat":43.30726,"lon":5.42424,"is_reserved":false,"is_disabled":false,"rental_uris":{"android":"levelo://app?vid=f6a2b1c6-751f-470e-836e-a72336cc77d2","ios":"levelo://app?vid=f6a2b1c6-751f-470e-836e-a72336cc77d2"},"vehicle_type_id":"4","last_reported":1768039905,"current_range_meters":3600,"station_id":"st_cvj6ca6bvosntc0bfgr0","pricing_plan_id":"cebpf4jnsgd1na2vs0mg"},{"bike_id":"7a59dc88-c855-4639-92cb-3517efabcf0b","system_id":"levelo_inurba_marseille","lat":43.23776,"lon":5.36632,"is_reserved":false,"is_disabled":false,"rental_uris":{"android":"levelo://app?vid=7a59dc88-c855-4639-92cb-3517efabcf0b","ios":"levelo://app?vid=7a59dc88-c855-4639-92cb-3517efabcf0b"},"vehicle_type_id":"4","last_reported":1768039905,"current_range_meters":3600,"station_id":"st_d3nk18o9ro0c73en2l3g","pricing_plan_id":"cebpf4jnsgd1na2vs0mg"},{"bike_id":"47f0b781-042e-4908-9848-051083bc15fd","system_id":"levelo_inurba_marseille","lat":43.265662,"lon":5.390226,"is_reserved":false,"is_disabled":false,"rental_uris":{"android":"levelo://app?vid=47f0b781-042e-4908-9848-051083bc15fd","ios":"levelo://app?vid=47f0b781-042e-4908-9848-051083bc15fd"},"vehicle_type_id":"4","last_reported":1768039905,"current_range_meters":3600,"station_id":"","pricing_plan_id":"cebpf4jnsgd1na2vs0mg"},{"bike_id":"49693813-6422-4c0b-883f-2f9444f40ff2","system_id":"levelo_inurba_marseille","lat":43.25479,"lon":5.37649,"is_reserved":false,"is_disabled":false,"rental_uris":{"android":"levelo://app?vid=49693813-6422-4c0b-883f-2f9444f40ff2","ios":"levelo://app?vid=49693813-6422-4c0b-883f-2f9444f40ff2"},"vehicle_type_id":"4","last_reported":1768039905,"current_range_meters":3600,"station_id":"ce4bhh12rcd13ifvqff0","pricing_plan_id":"cebpf4jnsgd1na2vs0mg"},{"bike_id":"d5b11fb8-6192-47fb-aadc-4bb75715f25d","system_id":"levelo_inurba_marseille","lat":43.26952,"lon":5.39835,"is_reserved":false,"is_disabled":false,"rental_uris":{"android":"levelo://app?vid=d5b11fb8-6192-47fb-aadc-4bb75715f25d","ios":"levelo://app?vid=d5b11fb8-6192-47fb-aadc-4bb75715f25d"},"vehicle_type_id":"4","last_reported":1768039905,"current_range_meters":3600,"station_id":"","pricing_plan_id":"cebpf4jnsgd1na2vs0mg"},{"bike_id":"7556ec87-ee82-453f-8a43-79b64208618a","system_id":"levelo_inurba_marseille","lat":43.211904,"lon":5.350688,"is_reserved":false,"is_disabled":false,"rental_uris":{"android":"levelo://app?vid=7556ec87-ee82-453f-8a43-79b64208618a","ios":"levelo://app?vid=7556ec87-ee82-453f-8a43-79b64208618a"},"vehicle_type_id":"4","last_reported":1768039905,"current_range_meters":3600,"station_id":"st_cvj6sg6p6f1abm77japg","pricing_plan_id":"cebpf4jnsgd1na2vs0mg"},{"bike_id":"d0d265a1-c3bd-4d94-b629-d97e8755c4d9","system_id":"levelo_inurba_marseille","lat":43.27161,"lon":5.41009,"is_reserved":false,"is_disabled":false,"rental_uris":{"android":"levelo://app?vid=d0d265a1-c3bd-4d94-b629-d97e8755c4d9","ios":"levelo://app?vid=d0d265a1-c3bd-4d94-b629-d97e8755c4d9"},"vehicle_type_id":"4","last_reported":1768039905,"current_range_meters":3600,"station_id":"ce4bhl12rcd13ifvqgf0","pricing_plan_id":"cebpf4jnsgd1na2vs0mg"},{"bike_id":"d849dd67-6c6c-49ff-8890-cba8f9d66595","system_id":"levelo_inurba_marseille","lat":43.24819,"lon":5.37422,"is_reserved":false,"is_disabled":false,"rental_uris":{"android":"levelo://app?vid=d849dd67-6c6c-49ff-8890-cba8f9d66595","ios":"levelo://app?vid=d849dd67-6c6c-49ff-8890-cba8f9d66595"},"vehicle_type_id":"4","last_reported":1768039905,"current_range_meters":3600,"station_id":"ce4bhgh2rcd13ifvqfb0","pricing_plan_id":"cebpf4jnsgd1na2vs0mg"},{"bike_id":"84acd35f-eff0-4eb4-9fef-a2e6695dc9e6","system_id":"levelo_inurba_marseille","lat":43.29204,"lon":5.35793,"is_reserved":false,"is_disabled":false,"rental_uris":{"android":"levelo://app?vid=84acd35f-eff0-4eb4-9fef-a2e6695dc9e6","ios":"levelo://app?vid=84acd35f-eff0-4eb4-9fef-a2e6695dc9e6"},"vehicle_type_id":"4","last_reported":1768039905,"current_range_meters":3600,"station_id":"ce4bhb12rcd13ifvqel0","pricing_plan_id":"cebpf4jnsgd1na2vs0mg"},{"bike_id":"fd48e571-84d1-4634-93d8-d8ba04b7bdf8","system_id":"levelo_inurba_marseille","lat":43.31058,"lon":5.38382,"is_reserved":false,"is_disabled":false,"rental_uris":{"android":"levelo://app?vid=fd48e571-84d1-4634-93d8-d8ba04b7bdf8","ios":"levelo://app?vid=fd48e571-84d1-4634-93d8-d8ba04b7bdf8"},"vehicle_type_id":"4","last_reported":1768039905,"current_range_meters":3600,"station_id":"ce4bgv92rcd13ifvqcr0","pricing_plan_id":"cebpf4jnsgd1na2vs0mg"},{"bike_id":"b9b662cc-6985-4d88-86a6-9663f97d3827","system_id":"levelo_inurba_marseille","lat":43.26544,"lon":5.37277,"is_reserved":false,"is_disabled":false,"rental_uris":{"android":"levelo://app?vid=b9b662cc-6985-4d88-86a6-9663f97d3827","ios":"levelo://app?vid=b9b662cc-6985-4d88-86a6-9663f97d3827"},"vehicle_type_id":"4","last_reported":1768039905,"current_range_meters":3600,"station_id":"ce4bhg12rcd13ifvqf70","pricing_plan_id":"cebpf4jnsgd1na2vs0mg"},{"bike_id":"e75e2c3e-d799-431c-b611-47c8636c7eba","system_id":"levelo_inurba_marseille","lat":43.30942,"lon":5.38631,"is_reserved":false,"is_disabled":false,"rental_uris":{"android":"levelo://app?vid=e75e2c3e-d799-431c-b611-47c8636c7eba","ios":"levelo://app?vid=e75e2c3e-d799-431c-b611-47c8636c7eba"},"vehicle_type_id":"4","last_reported":1768039905,"current_range_meters":4000,"station_id":"","pricing_plan_id":"cebpf4jnsgd1na2vs0mg"},{"bike_id":"b64e452a-bec0-47a7-9fd3-b6c2486866f5","system_id":"levelo_inurba_marseille","lat":43.2847,"lon":5.48404,"is_reserved":false,"is_disabled":false,"rental_uris":{"android":"levelo://app?vid=b64e452a-bec0-47a7-9fd3-b6c2486866f5","ios":"levelo://app?vid=b64e452a-bec0-47a7-9fd3-b6c2486866f5"},"vehicle_type_id":"4","last_reported":1768039905,"current_range_meters":4000,"station_id":"","pricing_plan_id":"cebpf4jnsgd1na2vs0mg"},{"bike_id":"ed27761f-ddf8-4ca6-ad7f-042a477fd7ea","system_id":"levelo_inurba_marseille","lat":43.29531,"lon":5.37388,"is_reserved":false,"is_disabled":false,"rental_uris":{"android":"levelo://app?vid=ed27761f-ddf8-4ca6-ad7f-042a477fd7ea","ios":"levelo://app?vid=ed27761f-ddf8-4ca6-ad7f-042a477fd7ea"},"vehicle_type_id":"4","last_reported":1768039905,"current_range_meters":4000,"station_id":"","pricing_plan_id":"cebpf4jnsgd1na2vs0mg"},{"bike_id":"15f08f6e-70da-4eaf-8029-955b6aacf6da","system_id":"levelo_inurba_marseille","lat":43.30143,"lon":5.38087,"is_reserved":false,"is_disabled":false,"rental_uris":{"android":"levelo://app?vid=15f08f6e-70da-4eaf-8029-955b6aacf6da","ios":"levelo://app?vid=15f08f6e-70da-4eaf-8029-955b6aacf6da"},"vehicle_type_id":"4","last_reported":1768039905,"current_range_meters":4000,"station_id":"ce4bgjp2rcd13ifvqbh0","pricing_plan_id":"cebpf4jnsgd1na2vs0mg"},{"bike_id":"486e3358-5ad4-47dd-8cf9-949675911464","system_id":"levelo_inurba_marseille","lat":43.25576,"lon":5.382482,"is_reserved":false,"is_disabled":false,"rental_uris":{"android":"levelo://app?vid=486e3358-5ad4-47dd-8cf9-949675911464","ios":"levelo://app?vid=486e3358-5ad4-47dd-8cf9-949675911464"},"vehicle_type_id":"4","last_reported":1768039905,"current_range_meters":4000,"station_id":"ce4bhih2rcd13ifvqfs0","pricing_plan_id":"cebpf4jnsgd1na2vs0mg"},{"bike_id":"6fad9ca1-61fd-4cab-8c8e-75dda08e921f","system_id":"levelo_inurba_marseille","lat":43.31927,"lon":5.37341,"is_reserved":false,"is_disabled":false,"rental_uris":{"android":"levelo://app?vid=6fad9ca1-61fd-4cab-8c8e-75dda08e921f","ios":"levelo://app?vid=6fad9ca1-61fd-4cab-8c8e-75dda08e921f"},"vehicle_type_id":"4","last_reported":1768039905,"current_range_meters":4000,"station_id":"","pricing_plan_id":"cebpf4jnsgd1na2vs0mg"},{"bike_id":"3b0c044b-cff7-4737-b3af-017df77671fe","system_id":"levelo_inurba_marseille","lat":43.27984,"lon":5.41691,"is_reserved":false,"is_disabled":false,"rental_uris":{"android":"levelo://app?vid=3b0c044b-cff7-4737-b3af-017df77671fe","ios":"levelo://app?vid=3b0c044b-cff7-4737-b3af-017df77671fe"},"vehicle_type_id":"4","last_reported":1768039905,"current_range_meters":4000,"station_id":"ce4bho12rcd13ifvqh1g","pricing_plan_id":"cebpf4jnsgd1na2vs0mg"},{"bike_id":"d336d32f-a9ab-4eb1-9637-d3fa585ead55","system_id":"levelo_inurba_marseille","lat":43.29488,"lon":5.43303,"is_reserved":false,"is_disabled":false,"rental_uris":{"android":"levelo://app?vid=d336d32f-a9ab-4eb1-9637-d3fa585ead55","ios":"levelo://app?vid=d336d32f-a9ab-4eb1-9637-d3fa585ead55"},"vehicle_type_id":"4","last_reported":1768039905,"current_range_meters":4000,"station_id":"st_d3j5ugp08ojc73fj9d10","pricing_plan_id":"cebpf4jnsgd1na2vs0mg"},{"bike_id":"803b75a8-1115-4454-b3d0-9468a98fc0c6","system_id":"levelo_inurba_marseille","lat":43.29489,"lon":5.40936,"is_reserved":false,"is_disabled":false,"rental_uris":{"android":"levelo://app?vid=803b75a8-1115-4454-b3d0-9468a98fc0c6","ios":"levelo://app?vid=803b75a8-1115-4454-b3d0-9468a98fc0c6"},"vehicle_type_id":"4","last_reported":1768039905,"current_range_meters":4000,"station_id":"","pricing_plan_id":"cebpf4jnsgd1na2vs0mg"},{"bike_id":"2a243a0f-1aa9-4a98-b629-af306d9f0181","system_id":"levelo_inurba_marseille","lat":43.248066,"lon":5.374583,"is_reserved":false,"is_disabled":false,"rental_uris":{"android":"levelo://app?vid=2a243a0f-1aa9-4a98-b629-af306d9f0181","ios":"levelo://app?vid=2a243a0f-1aa9-4a98-b629-af306d9f0181"},"vehicle_type_id":"4","last_reported":1768039905,"current_range_meters":4000,"station_id":"ce4bhgh2rcd13ifvqfb0","pricing_plan_id":"cebpf4jnsgd1na2vs0mg"},{"bike_id":"7b51b19a-dad6-4a18-a7ea-23aa3ecbc57f","system_id":"levelo_inurba_marseille","lat":43.30544,"lon":5.36554,"is_reserved":false,"is_disabled":false,"rental_uris":{"android":"levelo://app?vid=7b51b19a-dad6-4a18-a7ea-23aa3ecbc57f","ios":"levelo://app?vid=7b51b19a-dad6-4a18-a7ea-23aa3ecbc57f"},"vehicle_type_id":"4","last_reported":1768039905,"current_range_meters":4000,"station_id":"ce4bgs12rcd13ifvqcag","pricing_plan_id":"cebpf4jnsgd1na2vs0mg"},{"bike_id":"07429402-0d1d-4ec3-8e1e-7f0c93177e43","system_id":"levelo_inurba_marseille","lat":43.248177,"lon":5.374588,"is_reserved":false,"is_disabled":false,"rental_uris":{"android":"levelo://app?vid=07429402-0d1d-4ec3-8e1e-7f0c93177e43","ios":"levelo://app?vid=07429402-0d1d-4ec3-8e1e-7f0c93177e43"},"vehicle_type_id":"4","last_reported":1768039905,"current_range_meters":4000,"station_id":"ce4bhgh2rcd13ifvqfb0","pricing_plan_id":"cebpf4jnsgd1na2vs0mg"},{"bike_id":"51314f00-a28f-41ff-bc43-1c8f7d5ccd08","system_id":"levelo_inurba_marseille","lat":43.301446,"lon":5.380952,"is_reserved":false,"is_disabled":false,"rental_uris":{"android":"levelo://app?vid=51314f00-a28f-41ff-bc43-1c8f7d5ccd08","ios":"levelo://app?vid=51314f00-a28f-41ff-bc43-1c8f7d5ccd08"},"vehicle_type_id":"4","last_reported":1768039905,"current_range_meters":4000,"station_id":"ce4bgjp2rcd13ifvqbh0","pricing_plan_id":"cebpf4jnsgd1na2vs0mg"},{"bike_id":"3dca468e-6ec0-49db-ae60-bf6cea9fdd64","system_id":"levelo_inurba_marseille","lat":43.32526,"lon":5.41456,"is_reserved":false,"is_disabled":false,"rental_uris":{"android":"levelo://app?vid=3dca468e-6ec0-49db-ae60-bf6cea9fdd64","ios":"levelo://app?vid=3dca468e-6ec0-49db-ae60-bf6cea9fdd64"},"vehicle_type_id":"4","last_reported":1768039905,"current_range_meters":4000,"station_id":"ce4bhq12rcd13ifvqhhg","pricing_plan_id":"cebpf4jnsgd1na2vs0mg"},{"bike_id":"1fc8ec0a-4a7a-49d1-8cea-9389712d4e86","system_id":"levelo_inurba_marseille","lat":43.29777,"lon":5.37095,"is_reserved":false,"is_disabled":false,"rental_uris":{"android":"levelo://app?vid=1fc8ec0a-4a7a-49d1-8cea-9389712d4e86","ios":"levelo://app?vid=1fc8ec0a-4a7a-49d1-8cea-9389712d4e86"},"vehicle_type_id":"4","last_reported":1768039905,"current_range_meters":4400,"station_id":"ce4bgop2rcd13ifvqc1g","pricing_plan_id":"cebpf4jnsgd1na2vs0mg"},{"bike_id":"b01b28d2-3f19-4003-9ec3-2602e6f718f6","system_id":"levelo_inurba_marseille","lat":43.30475,"lon":5.37648,"is_reserved":false,"is_disabled":false,"rental_uris":{"android":"levelo://app?vid=b01b28d2-3f19-4003-9ec3-2602e6f718f6","ios":"levelo://app?vid=b01b28d2-3f19-4003-9ec3-2602e6f718f6"},"vehicle_type_id":"4","last_reported":1768039905,"current_range_meters":4400,"station_id":"","pricing_plan_id":"cebpf4jnsgd1na2vs0mg"},{"bike_id":"64741e55-0970-455c-b756-db9dc7d63696","system_id":"levelo_inurba_marseille","lat":43.29256,"lon":5.38443,"is_reserved":false,"is_disabled":false,"rental_uris":{"android":"levelo://app?vid=64741e55-0970-455c-b756-db9dc7d63696","ios":"levelo://app?vid=64741e55-0970-455c-b756-db9dc7d63696"},"vehicle_type_id":"4","last_reported":1768039905,"current_range_meters":4400,"station_id":"ce4bh692rcd13ifvqea0","pricing_plan_id":"cebpf4jnsgd1na2vs0mg"},{"bike_id":"acf9b465-5657-433f-abd2-b0a7dddb60bc","system_id":"levelo_inurba_marseille","lat":43.26548,"lon":5.373,"is_reserved":false,"is_disabled":false,"rental_uris":{"android":"levelo://app?vid=acf9b465-5657-433f-abd2-b0a7dddb60bc","ios":"levelo://app?vid=acf9b465-5657-433f-abd2-b0a7dddb60bc"},"vehicle_type_id":"4","last_reported":1768039905,"current_range_meters":4400,"station_id":"ce4bhg12rcd13ifvqf70","pricing_plan_id":"cebpf4jnsgd1na2vs0mg"},{"bike_id":"edf9ef2b-78e7-402e-b2e7-1f5952a3485d","system_id":"levelo_inurba_marseille","lat":43.25509,"lon":5.37653,"is_reserved":false,"is_disabled":false,"rental_uris":{"android":"levelo://app?vid=edf9ef2b-78e7-402e-b2e7-1f5952a3485d","ios":"levelo://app?vid=edf9ef2b-78e7-402e-b2e7-1f5952a3485d"},"vehicle_type_id":"4","last_reported":1768039905,"current_range_meters":4400,"station_id":"ce4bhh12rcd13ifvqff0","pricing_plan_id":"cebpf4jnsgd1na2vs0mg"},{"bike_id":"78e548d8-0265-46e8-a56e-2159545c3d74","system_id":"levelo_inurba_marseille","lat":43.28701,"lon":5.37381,"is_reserved":false,"is_disabled":false,"rental_uris":{"android":"levelo://app?vid=78e548d8-0265-46e8-a56e-2159545c3d74","ios":"levelo://app?vid=78e548d8-0265-46e8-a56e-2159545c3d74"},"vehicle_type_id":"4","last_reported":1768039905,"current_range_meters":4400,"station_id":"ce4bh3p2rcd13ifvqdq0","pricing_plan_id":"cebpf4jnsgd1na2vs0mg"},{"bike_id":"24fd1209-d399-4ee0-89bd-9c6e7402ed28","system_id":"levelo_inurba_marseille","lat":43.28033,"lon":5.36941,"is_reserved":false,"is_disabled":false,"rental_uris":{"android":"levelo://app?vid=24fd1209-d399-4ee0-89bd-9c6e7402ed28","ios":"levelo://app?vid=24fd1209-d399-4ee0-89bd-9c6e7402ed28"},"vehicle_type_id":"4","last_reported":1768039905,"current_range_meters":4400,"station_id":"ce4bha12rcd13ifvqef0","pricing_plan_id":"cebpf4jnsgd1na2vs0mg"},{"bike_id":"2e4bd346-2ef6-4ed8-9714-fdcc0b54b9d0","system_id":"levelo_inurba_marseille","lat":43.24798,"lon":5.37477,"is_reserved":false,"is_disabled":false,"rental_uris":{"android":"levelo://app?vid=2e4bd346-2ef6-4ed8-9714-fdcc0b54b9d0","ios":"levelo://app?vid=2e4bd346-2ef6-4ed8-9714-fdcc0b54b9d0"},"vehicle_type_id":"4","last_reported":1768039905,"current_range_meters":4400,"station_id":"ce4bhgh2rcd13ifvqfb0","pricing_plan_id":"cebpf4jnsgd1na2vs0mg"},{"bike_id":"813744c2-32d8-4783-8fd8-cb01e5ee70e2","system_id":"levelo_inurba_marseille","lat":43.30274,"lon":5.37273,"is_reserved":false,"is_disabled":false,"rental_uris":{"android":"levelo://app?vid=813744c2-32d8-4783-8fd8-cb01e5ee70e2","ios":"levelo://app?vid=813744c2-32d8-4783-8fd8-cb01e5ee70e2"},"vehicle_type_id":"4","last_reported":1768039905,"current_range_meters":4400,"station_id":"","pricing_plan_id":"cebpf4jnsgd1na2vs0mg"},{"bike_id":"8b697a24-51a2-452a-93c9-5c0c040134d0","system_id":"levelo_inurba_marseille","lat":43.32211,"lon":5.39437,"is_reserved":false,"is_disabled":false,"rental_uris":{"android":"levelo://app?vid=8b697a24-51a2-452a-93c9-5c0c040134d0","ios":"levelo://app?vid=8b697a24-51a2-452a-93c9-5c0c040134d0"},"vehicle_type_id":"4","last_reported":1768039905,"current_range_meters":4400,"station_id":"","pricing_plan_id":"cebpf4jnsgd1na2vs0mg"},{"bike_id":"0545e863-d76c-4ff3-8e82-b5fc48f3c2f0","system_id":"levelo_inurba_marseille","lat":43.287099,"lon":5.373919,"is_reserved":false,"is_disabled":false,"rental_uris":{"android":"levelo://app?vid=0545e863-d76c-4ff3-8e82-b5fc48f3c2f0","ios":"levelo://app?vid=0545e863-d76c-4ff3-8e82-b5fc48f3c2f0"},"vehicle_type_id":"4","last_reported":1768039905,"current_range_meters":4400,"station_id":"ce4bh3p2rcd13ifvqdq0","pricing_plan_id":"cebpf4jnsgd1na2vs0mg"},{"bike_id":"85264b74-5b04-4dbe-94c6-abdbdfeafcf0","system_id":"levelo_inurba_marseille","lat":43.28476,"lon":5.48377,"is_reserved":false,"is_disabled":false,"rental_uris":{"android":"levelo://app?vid=85264b74-5b04-4dbe-94c6-abdbdfeafcf0","ios":"levelo://app?vid=85264b74-5b04-4dbe-94c6-abdbdfeafcf0"},"vehicle_type_id":"4","last_reported":1768039905,"current_range_meters":4400,"station_id":"","pricing_plan_id":"cebpf4jnsgd1na2vs0mg"},{"bike_id":"44ba5636-cada-4aed-81b4-84b346c45e10","system_id":"levelo_inurba_marseille","lat":43.255868,"lon":5.382413,"is_reserved":false,"is_disabled":false,"rental_uris":{"android":"levelo://app?vid=44ba5636-cada-4aed-81b4-84b346c45e10","ios":"levelo://app?vid=44ba5636-cada-4aed-81b4-84b346c45e10"},"vehicle_type_id":"4","last_reported":1768039905,"current_range_meters":4400,"station_id":"ce4bhih2rcd13ifvqfs0","pricing_plan_id":"cebpf4jnsgd1na2vs0mg"},{"bike_id":"603ea73e-5ee7-45d6-aa5d-1fb4d2fa5a2f","system_id":"levelo_inurba_marseille","lat":43.24382,"lon":5.37067,"is_reserved":false,"is_disabled":false,"rental_uris":{"android":"levelo://app?vid=603ea73e-5ee7-45d6-aa5d-1fb4d2fa5a2f","ios":"levelo://app?vid=603ea73e-5ee7-45d6-aa5d-1fb4d2fa5a2f"},"vehicle_type_id":"4","last_reported":1768039905,"current_range_meters":4400,"station_id":"ce4bhhh2rcd13ifvqfk0","pricing_plan_id":"cebpf4jnsgd1na2vs0mg"},{"bike_id":"8dbb6190-abe3-45ef-9a12-f2acabe8d4ed","system_id":"levelo_inurba_marseille","lat":43.2406,"lon":5.377317,"is_reserved":false,"is_disabled":false,"rental_uris":{"android":"levelo://app?vid=8dbb6190-abe3-45ef-9a12-f2acabe8d4ed","ios":"levelo://app?vid=8dbb6190-abe3-45ef-9a12-f2acabe8d4ed"},"vehicle_type_id":"4","last_reported":1768039905,"current_range_meters":4400,"station_id":"ce4bhnp2rcd13ifvqgvg","pricing_plan_id":"cebpf4jnsgd1na2vs0mg"},{"bike_id":"30e7f41a-5c10-4e1c-aeed-da83a0262221","system_id":"levelo_inurba_marseille","lat":43.27373,"lon":5.3625,"is_reserved":false,"is_disabled":false,"rental_uris":{"android":"levelo://app?vid=30e7f41a-5c10-4e1c-aeed-da83a0262221","ios":"levelo://app?vid=30e7f41a-5c10-4e1c-aeed-da83a0262221"},"vehicle_type_id":"4","last_reported":1768039905,"current_range_meters":4400,"station_id":"ce4bhbh2rcd13ifvqeo0","pricing_plan_id":"cebpf4jnsgd1na2vs0mg"},{"bike_id":"cc6a42bd-dd7c-4c64-b69f-e5073a2adae2","system_id":"levelo_inurba_marseille","lat":43.21756,"lon":5.34614,"is_reserved":false,"is_disabled":false,"rental_uris":{"android":"levelo://app?vid=cc6a42bd-dd7c-4c64-b69f-e5073a2adae2","ios":"levelo://app?vid=cc6a42bd-dd7c-4c64-b69f-e5073a2adae2"},"vehicle_type_id":"4","last_reported":1768039905,"current_range_meters":4800,"station_id":"st_cvj6r9ubvosntc0bgbag","pricing_plan_id":"cebpf4jnsgd1na2vs0mg"},{"bike_id":"6eb4323a-67a0-4314-ada5-84b4c1d1a5bf","system_id":"levelo_inurba_marseille","lat":43.30412,"lon":5.41272,"is_reserved":false,"is_disabled":false,"rental_uris":{"android":"levelo://app?vid=6eb4323a-67a0-4314-ada5-84b4c1d1a5bf","ios":"levelo://app?vid=6eb4323a-67a0-4314-ada5-84b4c1d1a5bf"},"vehicle_type_id":"4","last_reported":1768039905,"current_range_meters":4800,"station_id":"ce4bhop2rcd13ifvqh8g","pricing_plan_id":"cebpf4jnsgd1na2vs0mg"},{"bike_id":"2f148a40-08c3-4821-bb26-bd90d7a0c233","system_id":"levelo_inurba_marseille","lat":43.24391,"lon":5.37065,"is_reserved":false,"is_disabled":false,"rental_uris":{"android":"levelo://app?vid=2f148a40-08c3-4821-bb26-bd90d7a0c233","ios":"levelo://app?vid=2f148a40-08c3-4821-bb26-bd90d7a0c233"},"vehicle_type_id":"4","last_reported":1768039905,"current_range_meters":4800,"station_id":"ce4bhhh2rcd13ifvqfk0","pricing_plan_id":"cebpf4jnsgd1na2vs0mg"},{"bike_id":"865555d8-70a3-48c4-b89b-4cd7680516d4","system_id":"levelo_inurba_marseille","lat":43.23177,"lon":5.35562,"is_reserved":false,"is_disabled":false,"rental_uris":{"android":"levelo://app?vid=865555d8-70a3-48c4-b89b-4cd7680516d4","ios":"levelo://app?vid=865555d8-70a3-48c4-b89b-4cd7680516d4"},"vehicle_type_id":"4","last_reported":1768039905,"current_range_meters":4800,"station_id":"ce4bhu92rcd13ifvqi70","pricing_plan_id":"cebpf4jnsgd1na2vs0mg"},{"bike_id":"4d1dbbc4-a3c7-40b2-b35d-57af536f6f9a","system_id":"levelo_inurba_marseille","lat":43.28599,"lon":5.35122,"is_reserved":false,"is_disabled":false,"rental_uris":{"android":"levelo://app?vid=4d1dbbc4-a3c7-40b2-b35d-57af536f6f9a","ios":"levelo://app?vid=4d1dbbc4-a3c7-40b2-b35d-57af536f6f9a"},"vehicle_type_id":"4","last_reported":1768039905,"current_range_meters":4800,"station_id":"ce4bhch2rcd13ifvqeug","pricing_plan_id":"cebpf4jnsgd1na2vs0mg"},{"bike_id":"8b74449f-8279-475a-be9f-b63c9831caec","system_id":"levelo_inurba_marseille","lat":43.26935,"lon":5.38645,"is_reserved":false,"is_disabled":false,"rental_uris":{"android":"levelo://app?vid=8b74449f-8279-475a-be9f-b63c9831caec","ios":"levelo://app?vid=8b74449f-8279-475a-be9f-b63c9831caec"},"vehicle_type_id":"4","last_reported":1768039905,"current_range_meters":4800,"station_id":"ce4bhh92rcd13ifvqfh0","pricing_plan_id":"cebpf4jnsgd1na2vs0mg"},{"bike_id":"afe7603b-8ae5-4773-9c35-715a117e2a15","system_id":"levelo_inurba_marseille","lat":43.299272,"lon":5.365758,"is_reserved":false,"is_disabled":false,"rental_uris":{"android":"levelo://app?vid=afe7603b-8ae5-4773-9c35-715a117e2a15","ios":"levelo://app?vid=afe7603b-8ae5-4773-9c35-715a117e2a15"},"vehicle_type_id":"4","last_reported":1768039905,"current_range_meters":4800,"station_id":"ce4bgm92rcd13ifvqbr0","pricing_plan_id":"cebpf4jnsgd1na2vs0mg"},{"bike_id":"f08eaaae-c457-416e-9055-e405f19b8f2c","system_id":"levelo_inurba_marseille","lat":43.26201,"lon":5.37442,"is_reserved":false,"is_disabled":false,"rental_uris":{"android":"levelo://app?vid=f08eaaae-c457-416e-9055-e405f19b8f2c","ios":"levelo://app?vid=f08eaaae-c457-416e-9055-e405f19b8f2c"},"vehicle_type_id":"4","last_reported":1768039905,"current_range_meters":4800,"station_id":"ce4bhgp2rcd13ifvqfc0","pricing_plan_id":"cebpf4jnsgd1na2vs0mg"},{"bike_id":"2416829d-3f10-4954-bbb3-bc994a74f29a","system_id":"levelo_inurba_marseille","lat":43.25573,"lon":5.38236,"is_reserved":false,"is_disabled":false,"rental_uris":{"android":"levelo://app?vid=2416829d-3f10-4954-bbb3-bc994a74f29a","ios":"levelo://app?vid=2416829d-3f10-4954-bbb3-bc994a74f29a"},"vehicle_type_id":"4","last_reported":1768039905,"current_range_meters":4800,"station_id":"","pricing_plan_id":"cebpf4jnsgd1na2vs0mg"},{"bike_id":"14327f6a-9b8b-4954-93fa-4d0397c2ebf5","system_id":"levelo_inurba_marseille","lat":43.23188,"lon":5.3999,"is_reserved":false,"is_disabled":false,"rental_uris":{"android":"levelo://app?vid=14327f6a-9b8b-4954-93fa-4d0397c2ebf5","ios":"levelo://app?vid=14327f6a-9b8b-4954-93fa-4d0397c2ebf5"},"vehicle_type_id":"4","last_reported":1768039905,"current_range_meters":5600,"station_id":"ce4bhn12rcd13ifvqgqg","pricing_plan_id":"cebpf4jnsgd1na2vs0mg"},{"bike_id":"f4049db7-b663-4b74-9659-1609ed0f1a6e","system_id":"levelo_inurba_marseille","lat":43.31318,"lon":5.39718,"is_reserved":false,"is_disabled":false,"rental_uris":{"android":"levelo://app?vid=f4049db7-b663-4b74-9659-1609ed0f1a6e","ios":"levelo://app?vid=f4049db7-b663-4b74-9659-1609ed0f1a6e"},"vehicle_type_id":"4","last_reported":1768039905,"current_range_meters":5600,"station_id":"ce4bgvp2rcd13ifvqcu0","pricing_plan_id":"cebpf4jnsgd1na2vs0mg"},{"bike_id":"667ce080-39d1-4488-b051-3094810dd8ad","system_id":"levelo_inurba_marseille","lat":43.29909,"lon":5.42879,"is_reserved":false,"is_disabled":false,"rental_uris":{"android":"levelo://app?vid=667ce080-39d1-4488-b051-3094810dd8ad","ios":"levelo://app?vid=667ce080-39d1-4488-b051-3094810dd8ad"},"vehicle_type_id":"4","last_reported":1768039905,"current_range_meters":5600,"station_id":"","pricing_plan_id":"cebpf4jnsgd1na2vs0mg"},{"bike_id":"853263ca-9164-4425-83ed-bd96c0a9b45a","system_id":"levelo_inurba_marseille","lat":43.3273,"lon":5.39241,"is_reserved":false,"is_disabled":false,"rental_uris":{"android":"levelo://app?vid=853263ca-9164-4425-83ed-bd96c0a9b45a","ios":"levelo://app?vid=853263ca-9164-4425-83ed-bd96c0a9b45a"},"vehicle_type_id":"4","last_reported":1768039905,"current_range_meters":5600,"station_id":"","pricing_plan_id":"cebpf4jnsgd1na2vs0mg"},{"bike_id":"eb6bac7c-ea47-4981-b38d-8116727e3c2f","system_id":"levelo_inurba_marseille","lat":43.27841,"lon":5.40701,"is_reserved":false,"is_disabled":false,"rental_uris":{"android":"levelo://app?vid=eb6bac7c-ea47-4981-b38d-8116727e3c2f","ios":"levelo://app?vid=eb6bac7c-ea47-4981-b38d-8116727e3c2f"},"vehicle_type_id":"4","last_reported":1768039905,"current_range_meters":5600,"station_id":"ce4bhnh2rcd13ifvqgtg","pricing_plan_id":"cebpf4jnsgd1na2vs0mg"},{"bike_id":"341ffd04-9f22-43c9-8a92-b65afe9e6bf5","system_id":"levelo_inurba_marseille","lat":43.29189,"lon":5.39313,"is_reserved":false,"is_disabled":true,"rental_uris":{"android":"levelo://app?vid=341ffd04-9f22-43c9-8a92-b65afe9e6bf5","ios":"levelo://app?vid=341ffd04-9f22-43c9-8a92-b65afe9e6bf5"},"vehicle_type_id":"4","last_reported":1768039905,"current_range_meters":5600,"station_id":"ce4bh192rcd13ifvqdd0","pricing_plan_id":"cebpf4jnsgd1na2vs0mg"},{"bike_id":"a6587fc2-d977-4e48-9cf2-37447cd6f5ac","system_id":"levelo_inurba_marseille","lat":43.24167,"lon":5.36408,"is_reserved":false,"is_disabled":false,"rental_uris":{"android":"levelo://app?vid=a6587fc2-d977-4e48-9cf2-37447cd6f5ac","ios":"levelo://app?vid=a6587fc2-d977-4e48-9cf2-37447cd6f5ac"},"vehicle_type_id":"4","last_reported":1768039905,"current_range_meters":5600,"station_id":"cpo36qri1sfpv3e86is0","pricing_plan_id":"cebpf4jnsgd1na2vs0mg"},{"bike_id":"ec06ad77-7caf-41fd-a1d1-d8f3424d3dc1","system_id":"levelo_inurba_marseille","lat":43.2902,"lon":5.38639,"is_reserved":false,"is_disabled":false,"rental_uris":{"android":"levelo://app?vid=ec06ad77-7caf-41fd-a1d1-d8f3424d3dc1","ios":"levelo://app?vid=ec06ad77-7caf-41fd-a1d1-d8f3424d3dc1"},"vehicle_type_id":"4","last_reported":1768039905,"current_range_meters":5600,"station_id":"ce4bh4p2rcd13ifvqe0g","pricing_plan_id":"cebpf4jnsgd1na2vs0mg"},{"bike_id":"8c9c7d2f-2964-4558-96e9-0e1ea8fcd3c7","system_id":"levelo_inurba_marseille","lat":43.22558,"lon":5.41618,"is_reserved":false,"is_disabled":false,"rental_uris":{"android":"levelo://app?vid=8c9c7d2f-2964-4558-96e9-0e1ea8fcd3c7","ios":"levelo://app?vid=8c9c7d2f-2964-4558-96e9-0e1ea8fcd3c7"},"vehicle_type_id":"4","last_reported":1768039905,"current_range_meters":5600,"station_id":"st_d2o4gvlbi1j2169b742g","pricing_plan_id":"cebpf4jnsgd1na2vs0mg"},{"bike_id":"d2e2418d-c3ed-4fd0-88de-90fe98564ba8","system_id":"levelo_inurba_marseille","lat":43.32089,"lon":5.36794,"is_reserved":false,"is_disabled":false,"rental_uris":{"android":"levelo://app?vid=d2e2418d-c3ed-4fd0-88de-90fe98564ba8","ios":"levelo://app?vid=d2e2418d-c3ed-4fd0-88de-90fe98564ba8"},"vehicle_type_id":"4","last_reported":1768039905,"current_range_meters":5600,"station_id":"ce4bhrh2rcd13ifvqhug","pricing_plan_id":"cebpf4jnsgd1na2vs0mg"},{"bike_id":"d2e43a61-8f0d-4394-91f9-14dadf5d2b6f","system_id":"levelo_inurba_marseille","lat":43.29262,"lon":5.4092,"is_reserved":false,"is_disabled":false,"rental_uris":{"android":"levelo://app?vid=d2e43a61-8f0d-4394-91f9-14dadf5d2b6f","ios":"levelo://app?vid=d2e43a61-8f0d-4394-91f9-14dadf5d2b6f"},"vehicle_type_id":"4","last_reported":1768039905,"current_range_meters":5600,"station_id":"ce4bh192rcd13ifvqdc0","pricing_plan_id":"cebpf4jnsgd1na2vs0mg"},{"bike_id":"72c4e195-225f-406f-ba7b-fb6834e7650b","system_id":"levelo_inurba_marseille","lat":43.31535,"lon":5.36813,"is_reserved":false,"is_disabled":false,"rental_uris":{"android":"levelo://app?vid=72c4e195-225f-406f-ba7b-fb6834e7650b","ios":"levelo://app?vid=72c4e195-225f-406f-ba7b-fb6834e7650b"},"vehicle_type_id":"4","last_reported":1768039905,"current_range_meters":5600,"station_id":"","pricing_plan_id":"cebpf4jnsgd1na2vs0mg"},{"bike_id":"3784f2bf-f44f-44f4-a8be-e3b125ce0193","system_id":"levelo_inurba_marseille","lat":43.27095,"lon":5.40475,"is_reserved":false,"is_disabled":false,"rental_uris":{"android":"levelo://app?vid=3784f2bf-f44f-44f4-a8be-e3b125ce0193","ios":"levelo://app?vid=3784f2bf-f44f-44f4-a8be-e3b125ce0193"},"vehicle_type_id":"4","last_reported":1768039905,"current_range_meters":5600,"station_id":"","pricing_plan_id":"cebpf4jnsgd1na2vs0mg"},{"bike_id":"e288dd09-a719-4af9-97ac-ef72cf8ca56d","system_id":"levelo_inurba_marseille","lat":43.249547,"lon":5.404951,"is_reserved":false,"is_disabled":false,"rental_uris":{"android":"levelo://app?vid=e288dd09-a719-4af9-97ac-ef72cf8ca56d","ios":"levelo://app?vid=e288dd09-a719-4af9-97ac-ef72cf8ca56d"},"vehicle_type_id":"4","last_reported":1768039905,"current_range_meters":5600,"station_id":"st_d2ngiaodas8pm72gd1h0","pricing_plan_id":"cebpf4jnsgd1na2vs0mg"},{"bike_id":"fa3e977d-1e63-41e7-8315-0d9223984351","system_id":"levelo_inurba_marseille","lat":43.3009,"lon":5.38185,"is_reserved":false,"is_disabled":false,"rental_uris":{"android":"levelo://app?vid=fa3e977d-1e63-41e7-8315-0d9223984351","ios":"levelo://app?vid=fa3e977d-1e63-41e7-8315-0d9223984351"},"vehicle_type_id":"4","last_reported":1768039905,"current_range_meters":6000,"station_id":"","pricing_plan_id":"cebpf4jnsgd1na2vs0mg"},{"bike_id":"939c67ce-6377-4aee-8e6c-8ad0908b5630","system_id":"levelo_inurba_marseille","lat":43.25321,"lon":5.42187,"is_reserved":false,"is_disabled":false,"rental_uris":{"android":"levelo://app?vid=939c67ce-6377-4aee-8e6c-8ad0908b5630","ios":"levelo://app?vid=939c67ce-6377-4aee-8e6c-8ad0908b5630"},"vehicle_type_id":"4","last_reported":1768039905,"current_range_meters":6000,"station_id":"st_d2m65c5bi1j21697t3ng","pricing_plan_id":"cebpf4jnsgd1na2vs0mg"},{"bike_id":"e45dd15b-7697-4d10-966c-fe17d7ab819b","system_id":"levelo_inurba_marseille","lat":43.282,"lon":5.3906,"is_reserved":false,"is_disabled":false,"rental_uris":{"android":"levelo://app?vid=e45dd15b-7697-4d10-966c-fe17d7ab819b","ios":"levelo://app?vid=e45dd15b-7697-4d10-966c-fe17d7ab819b"},"vehicle_type_id":"4","last_reported":1768039905,"current_range_meters":6000,"station_id":"ce4bhn92rcd13ifvqgsg","pricing_plan_id":"cebpf4jnsgd1na2vs0mg"},{"bike_id":"23d25c2f-1713-44f4-812e-c08229251eed","system_id":"levelo_inurba_marseille","lat":43.24397,"lon":5.37061,"is_reserved":false,"is_disabled":false,"rental_uris":{"android":"levelo://app?vid=23d25c2f-1713-44f4-812e-c08229251eed","ios":"levelo://app?vid=23d25c2f-1713-44f4-812e-c08229251eed"},"vehicle_type_id":"4","last_reported":1768039905,"current_range_meters":6000,"station_id":"ce4bhhh2rcd13ifvqfk0","pricing_plan_id":"cebpf4jnsgd1na2vs0mg"},{"bike_id":"4750dde3-1068-4d1c-91ff-e24a2c661d15","system_id":"levelo_inurba_marseille","lat":43.30112,"lon":5.43127,"is_reserved":false,"is_disabled":false,"rental_uris":{"android":"levelo://app?vid=4750dde3-1068-4d1c-91ff-e24a2c661d15","ios":"levelo://app?vid=4750dde3-1068-4d1c-91ff-e24a2c661d15"},"vehicle_type_id":"4","last_reported":1768039905,"current_range_meters":6000,"station_id":"st_d3js3co5814s73ftftug","pricing_plan_id":"cebpf4jnsgd1na2vs0mg"},{"bike_id":"0d766240-8416-4864-ac60-8bf893bba867","system_id":"levelo_inurba_marseille","lat":43.28637,"lon":5.37205,"is_reserved":false,"is_disabled":false,"rental_uris":{"android":"levelo://app?vid=0d766240-8416-4864-ac60-8bf893bba867","ios":"levelo://app?vid=0d766240-8416-4864-ac60-8bf893bba867"},"vehicle_type_id":"4","last_reported":1768039905,"current_range_meters":6000,"station_id":"","pricing_plan_id":"cebpf4jnsgd1na2vs0mg"},{"bike_id":"a35a07e6-7d61-40c1-8140-fe4a15aa048f","system_id":"levelo_inurba_marseille","lat":43.25715,"lon":5.41115,"is_reserved":false,"is_disabled":false,"rental_uris":{"android":"levelo://app?vid=a35a07e6-7d61-40c1-8140-fe4a15aa048f","ios":"levelo://app?vid=a35a07e6-7d61-40c1-8140-fe4a15aa048f"},"vehicle_type_id":"4","last_reported":1768039905,"current_range_meters":6000,"station_id":"ce4bhkp2rcd13ifvqgd0","pricing_plan_id":"cebpf4jnsgd1na2vs0mg"},{"bike_id":"70c77e49-9fa9-46bc-9adc-75c8f10ca9bc","system_id":"levelo_inurba_marseille","lat":43.29924,"lon":5.38138,"is_reserved":false,"is_disabled":false,"rental_uris":{"android":"levelo://app?vid=70c77e49-9fa9-46bc-9adc-75c8f10ca9bc","ios":"levelo://app?vid=70c77e49-9fa9-46bc-9adc-75c8f10ca9bc"},"vehicle_type_id":"4","last_reported":1768039905,"current_range_meters":6000,"station_id":"ce4bgj12rcd13ifvqbc0","pricing_plan_id":"cebpf4jnsgd1na2vs0mg"},{"bike_id":"5524341e-641e-442f-849f-a931fdf72ad1","system_id":"levelo_inurba_marseille","lat":43.28404,"lon":5.37545,"is_reserved":false,"is_disabled":false,"rental_uris":{"android":"levelo://app?vid=5524341e-641e-442f-849f-a931fdf72ad1","ios":"levelo://app?vid=5524341e-641e-442f-849f-a931fdf72ad1"},"vehicle_type_id":"4","last_reported":1768039905,"current_range_meters":6000,"station_id":"ce4bh412rcd13ifvqds0","pricing_plan_id":"cebpf4jnsgd1na2vs0mg"},{"bike_id":"f582e2e5-a25e-4250-97d6-4e6a824e9461","system_id":"levelo_inurba_marseille","lat":43.3054,"lon":5.36716,"is_reserved":false,"is_disabled":false,"rental_uris":{"android":"levelo://app?vid=f582e2e5-a25e-4250-97d6-4e6a824e9461","ios":"levelo://app?vid=f582e2e5-a25e-4250-97d6-4e6a824e9461"},"vehicle_type_id":"4","last_reported":1768039905,"current_range_meters":6000,"station_id":"ce4bgrp2rcd13ifvqc9g","pricing_plan_id":"cebpf4jnsgd1na2vs0mg"},{"bike_id":"4768e522-465c-471b-83eb-752e8dc1ba4a","system_id":"levelo_inurba_marseille","lat":43.30119,"lon":5.38072,"is_reserved":false,"is_disabled":false,"rental_uris":{"android":"levelo://app?vid=4768e522-465c-471b-83eb-752e8dc1ba4a","ios":"levelo://app?vid=4768e522-465c-471b-83eb-752e8dc1ba4a"},"vehicle_type_id":"4","last_reported":1768039905,"current_range_meters":6000,"station_id":"ce4bgjp2rcd13ifvqbh0","pricing_plan_id":"cebpf4jnsgd1na2vs0mg"},{"bike_id":"f1c45a35-92f2-4bd0-bf90-dce9ddee18cb","system_id":"levelo_inurba_marseille","lat":43.25559,"lon":5.38252,"is_reserved":false,"is_disabled":false,"rental_uris":{"android":"levelo://app?vid=f1c45a35-92f2-4bd0-bf90-dce9ddee18cb","ios":"levelo://app?vid=f1c45a35-92f2-4bd0-bf90-dce9ddee18cb"},"vehicle_type_id":"4","last_reported":1768039905,"current_range_meters":6000,"station_id":"ce4bhih2rcd13ifvqfs0","pricing_plan_id":"cebpf4jnsgd1na2vs0mg"},{"bike_id":"015c40ff-ccdb-43f0-8f4f-c4761b65940c","system_id":"levelo_inurba_marseille","lat":43.22921,"lon":5.35387,"is_reserved":false,"is_disabled":false,"rental_uris":{"android":"levelo://app?vid=015c40ff-ccdb-43f0-8f4f-c4761b65940c","ios":"levelo://app?vid=015c40ff-ccdb-43f0-8f4f-c4761b65940c"},"vehicle_type_id":"4","last_reported":1768039905,"current_range_meters":6000,"station_id":"cpo3532slgdg3j2ikp40","pricing_plan_id":"cebpf4jnsgd1na2vs0mg"},{"bike_id":"9be47716-b6c4-4f6e-b3d9-238d6399366b","system_id":"levelo_inurba_marseille","lat":43.3139,"lon":5.40391,"is_reserved":false,"is_disabled":false,"rental_uris":{"android":"levelo://app?vid=9be47716-b6c4-4f6e-b3d9-238d6399366b","ios":"levelo://app?vid=9be47716-b6c4-4f6e-b3d9-238d6399366b"},"vehicle_type_id":"4","last_reported":1768039905,"current_range_meters":6000,"station_id":"","pricing_plan_id":"cebpf4jnsgd1na2vs0mg"},{"bike_id":"a9fccba9-b754-4ee7-accb-83ed7cce913f","system_id":"levelo_inurba_marseille","lat":43.23147,"lon":5.43714,"is_reserved":false,"is_disabled":false,"rental_uris":{"android":"levelo://app?vid=a9fccba9-b754-4ee7-accb-83ed7cce913f","ios":"levelo://app?vid=a9fccba9-b754-4ee7-accb-83ed7cce913f"},"vehicle_type_id":"4","last_reported":1768039905,"current_range_meters":6400,"station_id":"ce4bhmp2rcd13ifvqgog","pricing_plan_id":"cebpf4jnsgd1na2vs0mg"},{"bike_id":"2a282b80-7b90-4dc8-964e-70060a433be7","system_id":"levelo_inurba_marseille","lat":43.23192,"lon":5.355611,"is_reserved":false,"is_disabled":false,"rental_uris":{"android":"levelo://app?vid=2a282b80-7b90-4dc8-964e-70060a433be7","ios":"levelo://app?vid=2a282b80-7b90-4dc8-964e-70060a433be7"},"vehicle_type_id":"4","last_reported":1768039905,"current_range_meters":6400,"station_id":"ce4bhu92rcd13ifvqi70","pricing_plan_id":"cebpf4jnsgd1na2vs0mg"},{"bike_id":"18c99692-3ca0-436c-9ab1-5135473130c4","system_id":"levelo_inurba_marseille","lat":43.2379,"lon":5.366278,"is_reserved":false,"is_disabled":false,"rental_uris":{"android":"levelo://app?vid=18c99692-3ca0-436c-9ab1-5135473130c4","ios":"levelo://app?vid=18c99692-3ca0-436c-9ab1-5135473130c4"},"vehicle_type_id":"4","last_reported":1768039905,"current_range_meters":6400,"station_id":"st_d3nk18o9ro0c73en2l3g","pricing_plan_id":"cebpf4jnsgd1na2vs0mg"},{"bike_id":"76be208d-1c48-440b-b830-1e599a1a2370","system_id":"levelo_inurba_marseille","lat":43.26375,"lon":5.41056,"is_reserved":false,"is_disabled":false,"rental_uris":{"android":"levelo://app?vid=76be208d-1c48-440b-b830-1e599a1a2370","ios":"levelo://app?vid=76be208d-1c48-440b-b830-1e599a1a2370"},"vehicle_type_id":"4","last_reported":1768039905,"current_range_meters":6400,"station_id":"st_d4e5ca6na9uc73bfl5fg","pricing_plan_id":"cebpf4jnsgd1na2vs0mg"},{"bike_id":"8f6c4c1e-e47c-4a1f-a7a0-d3f75a03fcd5","system_id":"levelo_inurba_marseille","lat":43.25034,"lon":5.40315,"is_reserved":false,"is_disabled":false,"rental_uris":{"android":"levelo://app?vid=8f6c4c1e-e47c-4a1f-a7a0-d3f75a03fcd5","ios":"levelo://app?vid=8f6c4c1e-e47c-4a1f-a7a0-d3f75a03fcd5"},"vehicle_type_id":"4","last_reported":1768039905,"current_range_meters":6400,"station_id":"","pricing_plan_id":"cebpf4jnsgd1na2vs0mg"},{"bike_id":"a9a97530-f4ae-45c7-bbe9-02cb7807c19a","system_id":"levelo_inurba_marseille","lat":43.312755,"lon":5.401676,"is_reserved":false,"is_disabled":false,"rental_uris":{"android":"levelo://app?vid=a9a97530-f4ae-45c7-bbe9-02cb7807c19a","ios":"levelo://app?vid=a9a97530-f4ae-45c7-bbe9-02cb7807c19a"},"vehicle_type_id":"4","last_reported":1768039905,"current_range_meters":6400,"station_id":"","pricing_plan_id":"cebpf4jnsgd1na2vs0mg"},{"bike_id":"d0b3031b-3e7d-4ed4-9a5b-5beafd20ab49","system_id":"levelo_inurba_marseille","lat":43.29756,"lon":5.42779,"is_reserved":false,"is_disabled":false,"rental_uris":{"android":"levelo://app?vid=d0b3031b-3e7d-4ed4-9a5b-5beafd20ab49","ios":"levelo://app?vid=d0b3031b-3e7d-4ed4-9a5b-5beafd20ab49"},"vehicle_type_id":"4","last_reported":1768039905,"current_range_meters":6400,"station_id":"st_d3md5207bmas73dh9klg","pricing_plan_id":"cebpf4jnsgd1na2vs0mg"},{"bike_id":"50c3ef0e-1a4a-429a-8acc-0df9b73d0d2b","system_id":"levelo_inurba_marseille","lat":43.237786,"lon":5.366263,"is_reserved":false,"is_disabled":false,"rental_uris":{"android":"levelo://app?vid=50c3ef0e-1a4a-429a-8acc-0df9b73d0d2b","ios":"levelo://app?vid=50c3ef0e-1a4a-429a-8acc-0df9b73d0d2b"},"vehicle_type_id":"4","last_reported":1768039905,"current_range_meters":6400,"station_id":"st_d3nk18o9ro0c73en2l3g","pricing_plan_id":"cebpf4jnsgd1na2vs0mg"},{"bike_id":"9ab8ec0b-173e-483a-a609-e947f01d9af1","system_id":"levelo_inurba_marseille","lat":43.29294,"lon":5.37168,"is_reserved":false,"is_disabled":false,"rental_uris":{"android":"levelo://app?vid=9ab8ec0b-173e-483a-a609-e947f01d9af1","ios":"levelo://app?vid=9ab8ec0b-173e-483a-a609-e947f01d9af1"},"vehicle_type_id":"4","last_reported":1768039905,"current_range_meters":6400,"station_id":"ce4bgh92rcd13ifvqb40","pricing_plan_id":"cebpf4jnsgd1na2vs0mg"},{"bike_id":"8b8fcd5b-3bef-4589-b807-3a246b4ee9c4","system_id":"levelo_inurba_marseille","lat":43.27365,"lon":5.36247,"is_reserved":false,"is_disabled":false,"rental_uris":{"android":"levelo://app?vid=8b8fcd5b-3bef-4589-b807-3a246b4ee9c4","ios":"levelo://app?vid=8b8fcd5b-3bef-4589-b807-3a246b4ee9c4"},"vehicle_type_id":"4","last_reported":1768039905,"current_range_meters":6400,"station_id":"ce4bhbh2rcd13ifvqeo0","pricing_plan_id":"cebpf4jnsgd1na2vs0mg"},{"bike_id":"07a64454-6ccc-4399-bb05-db92d5dab39b","system_id":"levelo_inurba_marseille","lat":43.27055,"lon":5.3829,"is_reserved":false,"is_disabled":false,"rental_uris":{"android":"levelo://app?vid=07a64454-6ccc-4399-bb05-db92d5dab39b","ios":"levelo://app?vid=07a64454-6ccc-4399-bb05-db92d5dab39b"},"vehicle_type_id":"4","last_reported":1768039905,"current_range_meters":6400,"station_id":"st_d3n2fo6cfp8s73cte1j0","pricing_plan_id":"cebpf4jnsgd1na2vs0mg"},{"bike_id":"a8601da2-2020-4b9c-a126-4ba0f95f13ae","system_id":"levelo_inurba_marseille","lat":43.24065,"lon":5.37769,"is_reserved":false,"is_disabled":false,"rental_uris":{"android":"levelo://app?vid=a8601da2-2020-4b9c-a126-4ba0f95f13ae","ios":"levelo://app?vid=a8601da2-2020-4b9c-a126-4ba0f95f13ae"},"vehicle_type_id":"4","last_reported":1768039905,"current_range_meters":6400,"station_id":"","pricing_plan_id":"cebpf4jnsgd1na2vs0mg"},{"bike_id":"76e4e42b-ff1f-4fe8-a54e-d42a16767785","system_id":"levelo_inurba_marseille","lat":43.26019,"lon":5.3755,"is_reserved":false,"is_disabled":false,"rental_uris":{"android":"levelo://app?vid=76e4e42b-ff1f-4fe8-a54e-d42a16767785","ios":"levelo://app?vid=76e4e42b-ff1f-4fe8-a54e-d42a16767785"},"vehicle_type_id":"4","last_reported":1768039905,"current_range_meters":6400,"station_id":"ce4bhgh2rcd13ifvqfa0","pricing_plan_id":"cebpf4jnsgd1na2vs0mg"},{"bike_id":"ca5a0dc9-01dc-498c-9d75-3d988cf6cbe2","system_id":"levelo_inurba_marseille","lat":43.28477,"lon":5.38399,"is_reserved":false,"is_disabled":false,"rental_uris":{"android":"levelo://app?vid=ca5a0dc9-01dc-498c-9d75-3d988cf6cbe2","ios":"levelo://app?vid=ca5a0dc9-01dc-498c-9d75-3d988cf6cbe2"},"vehicle_type_id":"4","last_reported":1768039905,"current_range_meters":6400,"station_id":"ce4bh512rcd13ifvqe3g","pricing_plan_id":"cebpf4jnsgd1na2vs0mg"},{"bike_id":"ffd0d41d-4a56-4cbd-a28a-b4ddf2d3da3f","system_id":"levelo_inurba_marseille","lat":43.27797,"lon":5.40739,"is_reserved":false,"is_disabled":false,"rental_uris":{"android":"levelo://app?vid=ffd0d41d-4a56-4cbd-a28a-b4ddf2d3da3f","ios":"levelo://app?vid=ffd0d41d-4a56-4cbd-a28a-b4ddf2d3da3f"},"vehicle_type_id":"4","last_reported":1768039905,"current_range_meters":6400,"station_id":"ce4bhnh2rcd13ifvqgtg","pricing_plan_id":"cebpf4jnsgd1na2vs0mg"},{"bike_id":"8bca3afd-6757-4e17-905d-276c8f7a07bb","system_id":"levelo_inurba_marseille","lat":43.30776,"lon":5.37,"is_reserved":false,"is_disabled":false,"rental_uris":{"android":"levelo://app?vid=8bca3afd-6757-4e17-905d-276c8f7a07bb","ios":"levelo://app?vid=8bca3afd-6757-4e17-905d-276c8f7a07bb"},"vehicle_type_id":"4","last_reported":1768039905,"current_range_meters":6400,"station_id":"","pricing_plan_id":"cebpf4jnsgd1na2vs0mg"},{"bike_id":"2c99ca2a-2d34-408f-b3b0-e976a2d316d6","system_id":"levelo_inurba_marseille","lat":43.317279,"lon":5.437013,"is_reserved":false,"is_disabled":false,"rental_uris":{"android":"levelo://app?vid=2c99ca2a-2d34-408f-b3b0-e976a2d316d6","ios":"levelo://app?vid=2c99ca2a-2d34-408f-b3b0-e976a2d316d6"},"vehicle_type_id":"4","last_reported":1768039905,"current_range_meters":6400,"station_id":"ce4bhp92rcd13ifvqhcg","pricing_plan_id":"cebpf4jnsgd1na2vs0mg"},{"bike_id":"a31a5e09-760d-4df0-a42c-5ad4c665a29b","system_id":"levelo_inurba_marseille","lat":43.254888,"lon":5.376522,"is_reserved":false,"is_disabled":false,"rental_uris":{"android":"levelo://app?vid=a31a5e09-760d-4df0-a42c-5ad4c665a29b","ios":"levelo://app?vid=a31a5e09-760d-4df0-a42c-5ad4c665a29b"},"vehicle_type_id":"4","last_reported":1768039905,"current_range_meters":6800,"station_id":"ce4bhh12rcd13ifvqff0","pricing_plan_id":"cebpf4jnsgd1na2vs0mg"},{"bike_id":"536dc866-f2e6-465e-af2c-f7eb1adaaa88","system_id":"levelo_inurba_marseille","lat":43.28854,"lon":5.42512,"is_reserved":false,"is_disabled":false,"rental_uris":{"android":"levelo://app?vid=536dc866-f2e6-465e-af2c-f7eb1adaaa88","ios":"levelo://app?vid=536dc866-f2e6-465e-af2c-f7eb1adaaa88"},"vehicle_type_id":"4","last_reported":1768039905,"current_range_meters":6800,"station_id":"st_d3b462108ojc7389ooeg","pricing_plan_id":"cebpf4jnsgd1na2vs0mg"},{"bike_id":"655a9b99-52a8-4faf-885c-a661e20365be","system_id":"levelo_inurba_marseille","lat":43.260607,"lon":5.393993,"is_reserved":false,"is_disabled":false,"rental_uris":{"android":"levelo://app?vid=655a9b99-52a8-4faf-885c-a661e20365be","ios":"levelo://app?vid=655a9b99-52a8-4faf-885c-a661e20365be"},"vehicle_type_id":"4","last_reported":1768039905,"current_range_meters":6800,"station_id":"ce4bhh92rcd13ifvqfj0","pricing_plan_id":"cebpf4jnsgd1na2vs0mg"},{"bike_id":"968f5650-f7ac-46b6-a51a-97011a0e57d4","system_id":"levelo_inurba_marseille","lat":43.337568,"lon":5.374423,"is_reserved":false,"is_disabled":false,"rental_uris":{"android":"levelo://app?vid=968f5650-f7ac-46b6-a51a-97011a0e57d4","ios":"levelo://app?vid=968f5650-f7ac-46b6-a51a-97011a0e57d4"},"vehicle_type_id":"4","last_reported":1768039905,"current_range_meters":6800,"station_id":"","pricing_plan_id":"cebpf4jnsgd1na2vs0mg"},{"bike_id":"fb54c922-73a4-4918-a766-b56f627742d6","system_id":"levelo_inurba_marseille","lat":43.24388,"lon":5.37073,"is_reserved":false,"is_disabled":false,"rental_uris":{"android":"levelo://app?vid=fb54c922-73a4-4918-a766-b56f627742d6","ios":"levelo://app?vid=fb54c922-73a4-4918-a766-b56f627742d6"},"vehicle_type_id":"4","last_reported":1768039905,"current_range_meters":6800,"station_id":"ce4bhhh2rcd13ifvqfk0","pricing_plan_id":"cebpf4jnsgd1na2vs0mg"},{"bike_id":"1444e0da-7b27-4f48-bdfa-30ab980c9925","system_id":"levelo_inurba_marseille","lat":43.25909,"lon":5.40914,"is_reserved":false,"is_disabled":false,"rental_uris":{"android":"levelo://app?vid=1444e0da-7b27-4f48-bdfa-30ab980c9925","ios":"levelo://app?vid=1444e0da-7b27-4f48-bdfa-30ab980c9925"},"vehicle_type_id":"4","last_reported":1768039905,"current_range_meters":6800,"station_id":"ce4bhm92rcd13ifvqglg","pricing_plan_id":"cebpf4jnsgd1na2vs0mg"},{"bike_id":"2f94929b-7e6c-4e24-b276-2f585e92f29a","system_id":"levelo_inurba_marseille","lat":43.2977,"lon":5.42741,"is_reserved":false,"is_disabled":false,"rental_uris":{"android":"levelo://app?vid=2f94929b-7e6c-4e24-b276-2f585e92f29a","ios":"levelo://app?vid=2f94929b-7e6c-4e24-b276-2f585e92f29a"},"vehicle_type_id":"4","last_reported":1768039905,"current_range_meters":6800,"station_id":"st_d3md5207bmas73dh9klg","pricing_plan_id":"cebpf4jnsgd1na2vs0mg"},{"bike_id":"5fcb247a-afaf-4f3a-9951-ba3b1a50553c","system_id":"levelo_inurba_marseille","lat":43.28866,"lon":5.42523,"is_reserved":false,"is_disabled":false,"rental_uris":{"android":"levelo://app?vid=5fcb247a-afaf-4f3a-9951-ba3b1a50553c","ios":"levelo://app?vid=5fcb247a-afaf-4f3a-9951-ba3b1a50553c"},"vehicle_type_id":"4","last_reported":1768039905,"current_range_meters":6800,"station_id":"st_d3b462108ojc7389ooeg","pricing_plan_id":"cebpf4jnsgd1na2vs0mg"},{"bike_id":"37335263-0ba0-41e1-bf1f-92d8ddde73f2","system_id":"levelo_inurba_marseille","lat":43.255825,"lon":5.382281,"is_reserved":false,"is_disabled":false,"rental_uris":{"android":"levelo://app?vid=37335263-0ba0-41e1-bf1f-92d8ddde73f2","ios":"levelo://app?vid=37335263-0ba0-41e1-bf1f-92d8ddde73f2"},"vehicle_type_id":"4","last_reported":1768039905,"current_range_meters":6800,"station_id":"ce4bhih2rcd13ifvqfs0","pricing_plan_id":"cebpf4jnsgd1na2vs0mg"},{"bike_id":"b583ce7b-2012-4560-b27c-db1eacd9a0e3","system_id":"levelo_inurba_marseille","lat":43.2919,"lon":5.36033,"is_reserved":false,"is_disabled":false,"rental_uris":{"android":"levelo://app?vid=b583ce7b-2012-4560-b27c-db1eacd9a0e3","ios":"levelo://app?vid=b583ce7b-2012-4560-b27c-db1eacd9a0e3"},"vehicle_type_id":"4","last_reported":1768039905,"current_range_meters":6800,"station_id":"ce4bhbh2rcd13ifvqeqg","pricing_plan_id":"cebpf4jnsgd1na2vs0mg"},{"bike_id":"95da510d-8d81-451f-9e9c-645b35fe2028","system_id":"levelo_inurba_marseille","lat":43.260289,"lon":5.375499,"is_reserved":false,"is_disabled":false,"rental_uris":{"android":"levelo://app?vid=95da510d-8d81-451f-9e9c-645b35fe2028","ios":"levelo://app?vid=95da510d-8d81-451f-9e9c-645b35fe2028"},"vehicle_type_id":"4","last_reported":1768039905,"current_range_meters":6800,"station_id":"ce4bhgh2rcd13ifvqfa0","pricing_plan_id":"cebpf4jnsgd1na2vs0mg"},{"bike_id":"ccf77ae4-1249-496f-90f5-320f95a491ac","system_id":"levelo_inurba_marseille","lat":43.29562,"lon":5.39978,"is_reserved":false,"is_disabled":false,"rental_uris":{"android":"levelo://app?vid=ccf77ae4-1249-496f-90f5-320f95a491ac","ios":"levelo://app?vid=ccf77ae4-1249-496f-90f5-320f95a491ac"},"vehicle_type_id":"4","last_reported":1768039905,"current_range_meters":6800,"station_id":"ce4bh312rcd13ifvqdj0","pricing_plan_id":"cebpf4jnsgd1na2vs0mg"},{"bike_id":"ea58a22a-0b97-41e3-bf6e-9b43aa27f1c8","system_id":"levelo_inurba_marseille","lat":43.2798,"lon":5.41661,"is_reserved":false,"is_disabled":false,"rental_uris":{"android":"levelo://app?vid=ea58a22a-0b97-41e3-bf6e-9b43aa27f1c8","ios":"levelo://app?vid=ea58a22a-0b97-41e3-bf6e-9b43aa27f1c8"},"vehicle_type_id":"4","last_reported":1768039905,"current_range_meters":6800,"station_id":"ce4bho12rcd13ifvqh1g","pricing_plan_id":"cebpf4jnsgd1na2vs0mg"},{"bike_id":"e94bf1df-85ac-4a34-aa29-c2a137468383","system_id":"levelo_inurba_marseille","lat":43.29469,"lon":5.43323,"is_reserved":false,"is_disabled":false,"rental_uris":{"android":"levelo://app?vid=e94bf1df-85ac-4a34-aa29-c2a137468383","ios":"levelo://app?vid=e94bf1df-85ac-4a34-aa29-c2a137468383"},"vehicle_type_id":"4","last_reported":1768039905,"current_range_meters":6800,"station_id":"st_d3j5ugp08ojc73fj9d10","pricing_plan_id":"cebpf4jnsgd1na2vs0mg"},{"bike_id":"7b614eb9-ac4b-4cd3-97d4-d21490e2142a","system_id":"levelo_inurba_marseille","lat":43.2977,"lon":5.42757,"is_reserved":false,"is_disabled":false,"rental_uris":{"android":"levelo://app?vid=7b614eb9-ac4b-4cd3-97d4-d21490e2142a","ios":"levelo://app?vid=7b614eb9-ac4b-4cd3-97d4-d21490e2142a"},"vehicle_type_id":"4","last_reported":1768039905,"current_range_meters":7200,"station_id":"st_d3md5207bmas73dh9klg","pricing_plan_id":"cebpf4jnsgd1na2vs0mg"},{"bike_id":"9a3bcfa8-754c-46dc-9e23-cede3ccc5a9b","system_id":"levelo_inurba_marseille","lat":43.25564,"lon":5.38252,"is_reserved":false,"is_disabled":false,"rental_uris":{"android":"levelo://app?vid=9a3bcfa8-754c-46dc-9e23-cede3ccc5a9b","ios":"levelo://app?vid=9a3bcfa8-754c-46dc-9e23-cede3ccc5a9b"},"vehicle_type_id":"4","last_reported":1768039905,"current_range_meters":7200,"station_id":"ce4bhih2rcd13ifvqfs0","pricing_plan_id":"cebpf4jnsgd1na2vs0mg"},{"bike_id":"71b36ab2-ce5d-4ce0-89a0-260e828bf57f","system_id":"levelo_inurba_marseille","lat":43.271836,"lon":5.409905,"is_reserved":false,"is_disabled":false,"rental_uris":{"android":"levelo://app?vid=71b36ab2-ce5d-4ce0-89a0-260e828bf57f","ios":"levelo://app?vid=71b36ab2-ce5d-4ce0-89a0-260e828bf57f"},"vehicle_type_id":"4","last_reported":1768039905,"current_range_meters":7200,"station_id":"","pricing_plan_id":"cebpf4jnsgd1na2vs0mg"},{"bike_id":"95382051-2edc-4c1a-ac56-d197c3294bdd","system_id":"levelo_inurba_marseille","lat":43.27988,"lon":5.41654,"is_reserved":false,"is_disabled":false,"rental_uris":{"android":"levelo://app?vid=95382051-2edc-4c1a-ac56-d197c3294bdd","ios":"levelo://app?vid=95382051-2edc-4c1a-ac56-d197c3294bdd"},"vehicle_type_id":"4","last_reported":1768039905,"current_range_meters":7200,"station_id":"ce4bho12rcd13ifvqh1g","pricing_plan_id":"cebpf4jnsgd1na2vs0mg"},{"bike_id":"7d98cf31-a440-4cb1-9c1a-925b7cf02ff8","system_id":"levelo_inurba_marseille","lat":43.26558,"lon":5.40328,"is_reserved":false,"is_disabled":false,"rental_uris":{"android":"levelo://app?vid=7d98cf31-a440-4cb1-9c1a-925b7cf02ff8","ios":"levelo://app?vid=7d98cf31-a440-4cb1-9c1a-925b7cf02ff8"},"vehicle_type_id":"4","last_reported":1768039905,"current_range_meters":7200,"station_id":"ce4bhmp2rcd13ifvqgng","pricing_plan_id":"cebpf4jnsgd1na2vs0mg"},{"bike_id":"77ec842d-d920-4ce7-8f6b-45a2f3b882c4","system_id":"levelo_inurba_marseille","lat":43.278097,"lon":5.407127,"is_reserved":false,"is_disabled":false,"rental_uris":{"android":"levelo://app?vid=77ec842d-d920-4ce7-8f6b-45a2f3b882c4","ios":"levelo://app?vid=77ec842d-d920-4ce7-8f6b-45a2f3b882c4"},"vehicle_type_id":"4","last_reported":1768039905,"current_range_meters":7200,"station_id":"ce4bhnh2rcd13ifvqgtg","pricing_plan_id":"cebpf4jnsgd1na2vs0mg"},{"bike_id":"b0673e7e-8bde-4eb3-a3ae-a5f8b98c8625","system_id":"levelo_inurba_marseille","lat":43.283565,"lon":5.386401,"is_reserved":false,"is_disabled":false,"rental_uris":{"android":"levelo://app?vid=b0673e7e-8bde-4eb3-a3ae-a5f8b98c8625","ios":"levelo://app?vid=b0673e7e-8bde-4eb3-a3ae-a5f8b98c8625"},"vehicle_type_id":"4","last_reported":1768039905,"current_range_meters":7200,"station_id":"ce4bh492rcd13ifvqdvg","pricing_plan_id":"cebpf4jnsgd1na2vs0mg"},{"bike_id":"af362aef-6f7d-44fd-93ed-91caf1d04a6b","system_id":"levelo_inurba_marseille","lat":43.29048,"lon":5.35918,"is_reserved":false,"is_disabled":false,"rental_uris":{"android":"levelo://app?vid=af362aef-6f7d-44fd-93ed-91caf1d04a6b","ios":"levelo://app?vid=af362aef-6f7d-44fd-93ed-91caf1d04a6b"},"vehicle_type_id":"4","last_reported":1768039905,"current_range_meters":7200,"station_id":"ce4bha92rcd13ifvqeg0","pricing_plan_id":"cebpf4jnsgd1na2vs0mg"},{"bike_id":"3928bd9f-9423-482a-9c34-2516e5f12e2b","system_id":"levelo_inurba_marseille","lat":43.246631,"lon":5.381549,"is_reserved":false,"is_disabled":false,"rental_uris":{"android":"levelo://app?vid=3928bd9f-9423-482a-9c34-2516e5f12e2b","ios":"levelo://app?vid=3928bd9f-9423-482a-9c34-2516e5f12e2b"},"vehicle_type_id":"4","last_reported":1768039905,"current_range_meters":7200,"station_id":"ce4bhih2rcd13ifvqfr0","pricing_plan_id":"cebpf4jnsgd1na2vs0mg"},{"bike_id":"0e7d0498-33e1-45af-be08-dbb5c8f6143b","system_id":"levelo_inurba_marseille","lat":43.22567,"lon":5.41626,"is_reserved":false,"is_disabled":false,"rental_uris":{"android":"levelo://app?vid=0e7d0498-33e1-45af-be08-dbb5c8f6143b","ios":"levelo://app?vid=0e7d0498-33e1-45af-be08-dbb5c8f6143b"},"vehicle_type_id":"4","last_reported":1768039905,"current_range_meters":7200,"station_id":"st_d2o4gvlbi1j2169b742g","pricing_plan_id":"cebpf4jnsgd1na2vs0mg"},{"bike_id":"e0f8e1bc-c594-4e06-8b57-bbf9bdfb0bca","system_id":"levelo_inurba_marseille","lat":43.29002,"lon":5.35603,"is_reserved":false,"is_disabled":false,"rental_uris":{"android":"levelo://app?vid=e0f8e1bc-c594-4e06-8b57-bbf9bdfb0bca","ios":"levelo://app?vid=e0f8e1bc-c594-4e06-8b57-bbf9bdfb0bca"},"vehicle_type_id":"4","last_reported":1768039905,"current_range_meters":7200,"station_id":"ce4bhb92rcd13ifvqen0","pricing_plan_id":"cebpf4jnsgd1na2vs0mg"},{"bike_id":"bc49e5f9-cb3c-4c3a-969f-53e2b27dc0e8","system_id":"levelo_inurba_marseille","lat":43.24184,"lon":5.36384,"is_reserved":false,"is_disabled":false,"rental_uris":{"android":"levelo://app?vid=bc49e5f9-cb3c-4c3a-969f-53e2b27dc0e8","ios":"levelo://app?vid=bc49e5f9-cb3c-4c3a-969f-53e2b27dc0e8"},"vehicle_type_id":"4","last_reported":1768039905,"current_range_meters":7200,"station_id":"cpo36qri1sfpv3e86is0","pricing_plan_id":"cebpf4jnsgd1na2vs0mg"},{"bike_id":"3ae53299-0a4b-41fa-b773-e4f23477e4a0","system_id":"levelo_inurba_marseille","lat":43.27495,"lon":5.424553,"is_reserved":false,"is_disabled":false,"rental_uris":{"android":"levelo://app?vid=3ae53299-0a4b-41fa-b773-e4f23477e4a0","ios":"levelo://app?vid=3ae53299-0a4b-41fa-b773-e4f23477e4a0"},"vehicle_type_id":"4","last_reported":1768039905,"current_range_meters":7200,"station_id":"ce4bhn92rcd13ifvqgrg","pricing_plan_id":"cebpf4jnsgd1na2vs0mg"},{"bike_id":"f4856e1c-998b-4291-afd3-0e616bc24fd1","system_id":"levelo_inurba_marseille","lat":43.26666,"lon":5.3829,"is_reserved":false,"is_disabled":false,"rental_uris":{"android":"levelo://app?vid=f4856e1c-998b-4291-afd3-0e616bc24fd1","ios":"levelo://app?vid=f4856e1c-998b-4291-afd3-0e616bc24fd1"},"vehicle_type_id":"4","last_reported":1768039905,"current_range_meters":7200,"station_id":"ce4bhg92rcd13ifvqf90","pricing_plan_id":"cebpf4jnsgd1na2vs0mg"},{"bike_id":"955472a9-f133-46c4-b5ee-028bf709d91e","system_id":"levelo_inurba_marseille","lat":43.284816,"lon":5.483967,"is_reserved":false,"is_disabled":false,"rental_uris":{"android":"levelo://app?vid=955472a9-f133-46c4-b5ee-028bf709d91e","ios":"levelo://app?vid=955472a9-f133-46c4-b5ee-028bf709d91e"},"vehicle_type_id":"4","last_reported":1768039905,"current_range_meters":7200,"station_id":"st_d3svhcjqgbts73a3dn0g","pricing_plan_id":"cebpf4jnsgd1na2vs0mg"},{"bike_id":"78533221-0292-46cc-9ec2-a5294797e756","system_id":"levelo_inurba_marseille","lat":43.316918,"lon":5.382036,"is_reserved":false,"is_disabled":false,"rental_uris":{"android":"levelo://app?vid=78533221-0292-46cc-9ec2-a5294797e756","ios":"levelo://app?vid=78533221-0292-46cc-9ec2-a5294797e756"},"vehicle_type_id":"4","last_reported":1768039905,"current_range_meters":7200,"station_id":"","pricing_plan_id":"cebpf4jnsgd1na2vs0mg"},{"bike_id":"07e92a42-5aca-4650-8312-443d35b7174b","system_id":"levelo_inurba_marseille","lat":43.286222,"lon":5.351017,"is_reserved":false,"is_disabled":false,"rental_uris":{"android":"levelo://app?vid=07e92a42-5aca-4650-8312-443d35b7174b","ios":"levelo://app?vid=07e92a42-5aca-4650-8312-443d35b7174b"},"vehicle_type_id":"4","last_reported":1768039905,"current_range_meters":7200,"station_id":"ce4bhch2rcd13ifvqeug","pricing_plan_id":"cebpf4jnsgd1na2vs0mg"},{"bike_id":"14942baa-e0d9-4fbd-9c7d-8a2deb7cf40b","system_id":"levelo_inurba_marseille","lat":43.30536,"lon":5.36535,"is_reserved":false,"is_disabled":false,"rental_uris":{"android":"levelo://app?vid=14942baa-e0d9-4fbd-9c7d-8a2deb7cf40b","ios":"levelo://app?vid=14942baa-e0d9-4fbd-9c7d-8a2deb7cf40b"},"vehicle_type_id":"4","last_reported":1768039905,"current_range_meters":7200,"station_id":"ce4bgs12rcd13ifvqcag","pricing_plan_id":"cebpf4jnsgd1na2vs0mg"},{"bike_id":"576d3eaa-88df-4569-92e9-05ff04a7918e","system_id":"levelo_inurba_marseille","lat":43.246595,"lon":5.38161,"is_reserved":false,"is_disabled":false,"rental_uris":{"android":"levelo://app?vid=576d3eaa-88df-4569-92e9-05ff04a7918e","ios":"levelo://app?vid=576d3eaa-88df-4569-92e9-05ff04a7918e"},"vehicle_type_id":"4","last_reported":1768039905,"current_range_meters":8000,"station_id":"ce4bhih2rcd13ifvqfr0","pricing_plan_id":"cebpf4jnsgd1na2vs0mg"},{"bike_id":"76de53ab-73ab-40f7-9a0b-c2437c1ffb53","system_id":"levelo_inurba_marseille","lat":43.31349,"lon":5.38499,"is_reserved":false,"is_disabled":false,"rental_uris":{"android":"levelo://app?vid=76de53ab-73ab-40f7-9a0b-c2437c1ffb53","ios":"levelo://app?vid=76de53ab-73ab-40f7-9a0b-c2437c1ffb53"},"vehicle_type_id":"4","last_reported":1768039905,"current_range_meters":8000,"station_id":"ce4bgt92rcd13ifvqcf0","pricing_plan_id":"cebpf4jnsgd1na2vs0mg"},{"bike_id":"c229e56b-5c32-4976-9507-711e850523df","system_id":"levelo_inurba_marseille","lat":43.28171,"lon":5.42674,"is_reserved":false,"is_disabled":false,"rental_uris":{"android":"levelo://app?vid=c229e56b-5c32-4976-9507-711e850523df","ios":"levelo://app?vid=c229e56b-5c32-4976-9507-711e850523df"},"vehicle_type_id":"4","last_reported":1768039905,"current_range_meters":8000,"station_id":"ce4bhnh2rcd13ifvqgug","pricing_plan_id":"cebpf4jnsgd1na2vs0mg"},{"bike_id":"499b63c7-d47c-4bda-89d6-56b8c0a94a03","system_id":"levelo_inurba_marseille","lat":43.31676,"lon":5.43069,"is_reserved":false,"is_disabled":false,"rental_uris":{"android":"levelo://app?vid=499b63c7-d47c-4bda-89d6-56b8c0a94a03","ios":"levelo://app?vid=499b63c7-d47c-4bda-89d6-56b8c0a94a03"},"vehicle_type_id":"4","last_reported":1768039905,"current_range_meters":8000,"station_id":"","pricing_plan_id":"cebpf4jnsgd1na2vs0mg"},{"bike_id":"e3c49ca2-e14b-41b4-8d76-d429e82933ab","system_id":"levelo_inurba_marseille","lat":43.30921,"lon":5.40141,"is_reserved":false,"is_disabled":false,"rental_uris":{"android":"levelo://app?vid=e3c49ca2-e14b-41b4-8d76-d429e82933ab","ios":"levelo://app?vid=e3c49ca2-e14b-41b4-8d76-d429e82933ab"},"vehicle_type_id":"4","last_reported":1768039905,"current_range_meters":8000,"station_id":"ce4bgvp2rcd13ifvqct0","pricing_plan_id":"cebpf4jnsgd1na2vs0mg"},{"bike_id":"39e3b155-7aa1-4926-be58-950a9ce5d299","system_id":"levelo_inurba_marseille","lat":43.3171,"lon":5.37779,"is_reserved":false,"is_disabled":false,"rental_uris":{"android":"levelo://app?vid=39e3b155-7aa1-4926-be58-950a9ce5d299","ios":"levelo://app?vid=39e3b155-7aa1-4926-be58-950a9ce5d299"},"vehicle_type_id":"4","last_reported":1768039905,"current_range_meters":8000,"station_id":"ce4bgth2rcd13ifvqch0","pricing_plan_id":"cebpf4jnsgd1na2vs0mg"},{"bike_id":"5fca6562-fd04-42db-82e3-3b31d41d804c","system_id":"levelo_inurba_marseille","lat":43.24482,"lon":5.42544,"is_reserved":false,"is_disabled":false,"rental_uris":{"android":"levelo://app?vid=5fca6562-fd04-42db-82e3-3b31d41d804c","ios":"levelo://app?vid=5fca6562-fd04-42db-82e3-3b31d41d804c"},"vehicle_type_id":"4","last_reported":1768039905,"current_range_meters":8000,"station_id":"st_d4a3vfp97mjs738cd8kg","pricing_plan_id":"cebpf4jnsgd1na2vs0mg"},{"bike_id":"a8e6ec73-45f6-494f-9440-b84f9b239991","system_id":"levelo_inurba_marseille","lat":43.2535,"lon":5.42167,"is_reserved":false,"is_disabled":false,"rental_uris":{"android":"levelo://app?vid=a8e6ec73-45f6-494f-9440-b84f9b239991","ios":"levelo://app?vid=a8e6ec73-45f6-494f-9440-b84f9b239991"},"vehicle_type_id":"4","last_reported":1768039905,"current_range_meters":8000,"station_id":"st_d2m65c5bi1j21697t3ng","pricing_plan_id":"cebpf4jnsgd1na2vs0mg"},{"bike_id":"250f249a-a1e7-459c-baa1-02632479a802","system_id":"levelo_inurba_marseille","lat":43.30309,"lon":5.36891,"is_reserved":false,"is_disabled":false,"rental_uris":{"android":"levelo://app?vid=250f249a-a1e7-459c-baa1-02632479a802","ios":"levelo://app?vid=250f249a-a1e7-459c-baa1-02632479a802"},"vehicle_type_id":"4","last_reported":1768039905,"current_range_meters":8000,"station_id":"ce4bgqh2rcd13ifvqc5g","pricing_plan_id":"cebpf4jnsgd1na2vs0mg"},{"bike_id":"df548035-cee1-4f4d-b0ba-fa4f5834db8f","system_id":"levelo_inurba_marseille","lat":43.24812,"lon":5.37449,"is_reserved":false,"is_disabled":false,"rental_uris":{"android":"levelo://app?vid=df548035-cee1-4f4d-b0ba-fa4f5834db8f","ios":"levelo://app?vid=df548035-cee1-4f4d-b0ba-fa4f5834db8f"},"vehicle_type_id":"4","last_reported":1768039905,"current_range_meters":8000,"station_id":"ce4bhgh2rcd13ifvqfb0","pricing_plan_id":"cebpf4jnsgd1na2vs0mg"},{"bike_id":"1eae57ab-babf-4626-a8bd-112059971e86","system_id":"levelo_inurba_marseille","lat":43.32717,"lon":5.39243,"is_reserved":false,"is_disabled":false,"rental_uris":{"android":"levelo://app?vid=1eae57ab-babf-4626-a8bd-112059971e86","ios":"levelo://app?vid=1eae57ab-babf-4626-a8bd-112059971e86"},"vehicle_type_id":"4","last_reported":1768039905,"current_range_meters":8000,"station_id":"","pricing_plan_id":"cebpf4jnsgd1na2vs0mg"},{"bike_id":"f6c65d94-9566-4d9b-9ed8-ac0f65ea4da8","system_id":"levelo_inurba_marseille","lat":43.26012,"lon":5.37546,"is_reserved":false,"is_disabled":false,"rental_uris":{"android":"levelo://app?vid=f6c65d94-9566-4d9b-9ed8-ac0f65ea4da8","ios":"levelo://app?vid=f6c65d94-9566-4d9b-9ed8-ac0f65ea4da8"},"vehicle_type_id":"4","last_reported":1768039905,"current_range_meters":8000,"station_id":"ce4bhgh2rcd13ifvqfa0","pricing_plan_id":"cebpf4jnsgd1na2vs0mg"},{"bike_id":"3a944ff1-8f80-4b3a-87d1-40b3f03c9b0c","system_id":"levelo_inurba_marseille","lat":43.31084,"lon":5.38628,"is_reserved":false,"is_disabled":false,"rental_uris":{"android":"levelo://app?vid=3a944ff1-8f80-4b3a-87d1-40b3f03c9b0c","ios":"levelo://app?vid=3a944ff1-8f80-4b3a-87d1-40b3f03c9b0c"},"vehicle_type_id":"4","last_reported":1768039905,"current_range_meters":8000,"station_id":"","pricing_plan_id":"cebpf4jnsgd1na2vs0mg"},{"bike_id":"1fab4bb8-6c99-4df2-9548-53dd9eaa66e8","system_id":"levelo_inurba_marseille","lat":43.30105,"lon":5.43135,"is_reserved":false,"is_disabled":false,"rental_uris":{"android":"levelo://app?vid=1fab4bb8-6c99-4df2-9548-53dd9eaa66e8","ios":"levelo://app?vid=1fab4bb8-6c99-4df2-9548-53dd9eaa66e8"},"vehicle_type_id":"4","last_reported":1768039905,"current_range_meters":8000,"station_id":"st_d3js3co5814s73ftftug","pricing_plan_id":"cebpf4jnsgd1na2vs0mg"},{"bike_id":"0d4e5ddc-b292-4c0e-8986-9cde00922dd9","system_id":"levelo_inurba_marseille","lat":43.30084,"lon":5.43173,"is_reserved":false,"is_disabled":false,"rental_uris":{"android":"levelo://app?vid=0d4e5ddc-b292-4c0e-8986-9cde00922dd9","ios":"levelo://app?vid=0d4e5ddc-b292-4c0e-8986-9cde00922dd9"},"vehicle_type_id":"4","last_reported":1768039905,"current_range_meters":8000,"station_id":"","pricing_plan_id":"cebpf4jnsgd1na2vs0mg"},{"bike_id":"81447faa-78d0-4898-9850-8a36431f7eba","system_id":"levelo_inurba_marseille","lat":43.23781,"lon":5.366347,"is_reserved":false,"is_disabled":false,"rental_uris":{"android":"levelo://app?vid=81447faa-78d0-4898-9850-8a36431f7eba","ios":"levelo://app?vid=81447faa-78d0-4898-9850-8a36431f7eba"},"vehicle_type_id":"4","last_reported":1768039905,"current_range_meters":8000,"station_id":"st_d3nk18o9ro0c73en2l3g","pricing_plan_id":"cebpf4jnsgd1na2vs0mg"},{"bike_id":"3cf6e16e-6543-43fd-9500-4f2682ec6c6f","system_id":"levelo_inurba_marseille","lat":43.24685,"lon":5.38148,"is_reserved":false,"is_disabled":false,"rental_uris":{"android":"levelo://app?vid=3cf6e16e-6543-43fd-9500-4f2682ec6c6f","ios":"levelo://app?vid=3cf6e16e-6543-43fd-9500-4f2682ec6c6f"},"vehicle_type_id":"4","last_reported":1768039905,"current_range_meters":8000,"station_id":"ce4bhih2rcd13ifvqfr0","pricing_plan_id":"cebpf4jnsgd1na2vs0mg"},{"bike_id":"b2533feb-2a58-4324-b10d-880a053c6128","system_id":"levelo_inurba_marseille","lat":43.27505,"lon":5.42463,"is_reserved":false,"is_disabled":false,"rental_uris":{"android":"levelo://app?vid=b2533feb-2a58-4324-b10d-880a053c6128","ios":"levelo://app?vid=b2533feb-2a58-4324-b10d-880a053c6128"},"vehicle_type_id":"4","last_reported":1768039905,"current_range_meters":8000,"station_id":"ce4bhn92rcd13ifvqgrg","pricing_plan_id":"cebpf4jnsgd1na2vs0mg"},{"bike_id":"5094aeb9-ac3f-47d1-a484-8aeeb36f0571","system_id":"levelo_inurba_marseille","lat":43.27982,"lon":5.41672,"is_reserved":false,"is_disabled":false,"rental_uris":{"android":"levelo://app?vid=5094aeb9-ac3f-47d1-a484-8aeeb36f0571","ios":"levelo://app?vid=5094aeb9-ac3f-47d1-a484-8aeeb36f0571"},"vehicle_type_id":"4","last_reported":1768039905,"current_range_meters":8400,"station_id":"ce4bho12rcd13ifvqh1g","pricing_plan_id":"cebpf4jnsgd1na2vs0mg"},{"bike_id":"33506a60-d764-46b1-8f22-2ca638ff0ced","system_id":"levelo_inurba_marseille","lat":43.29566,"lon":5.37508,"is_reserved":false,"is_disabled":false,"rental_uris":{"android":"levelo://app?vid=33506a60-d764-46b1-8f22-2ca638ff0ced","ios":"levelo://app?vid=33506a60-d764-46b1-8f22-2ca638ff0ced"},"vehicle_type_id":"4","last_reported":1768039905,"current_range_meters":8400,"station_id":"ce4bgh92rcd13ifvqb50","pricing_plan_id":"cebpf4jnsgd1na2vs0mg"},{"bike_id":"ec2c36ed-79e6-401c-b68a-6c26524403de","system_id":"levelo_inurba_marseille","lat":43.29483,"lon":5.43313,"is_reserved":false,"is_disabled":false,"rental_uris":{"android":"levelo://app?vid=ec2c36ed-79e6-401c-b68a-6c26524403de","ios":"levelo://app?vid=ec2c36ed-79e6-401c-b68a-6c26524403de"},"vehicle_type_id":"4","last_reported":1768039905,"current_range_meters":8400,"station_id":"st_d3j5ugp08ojc73fj9d10","pricing_plan_id":"cebpf4jnsgd1na2vs0mg"},{"bike_id":"8b8d06b0-9506-4578-ada0-3e289712e635","system_id":"levelo_inurba_marseille","lat":43.28619,"lon":5.35104,"is_reserved":false,"is_disabled":false,"rental_uris":{"android":"levelo://app?vid=8b8d06b0-9506-4578-ada0-3e289712e635","ios":"levelo://app?vid=8b8d06b0-9506-4578-ada0-3e289712e635"},"vehicle_type_id":"4","last_reported":1768039905,"current_range_meters":8400,"station_id":"ce4bhch2rcd13ifvqeug","pricing_plan_id":"cebpf4jnsgd1na2vs0mg"},{"bike_id":"580bea04-d90e-4377-861c-b90930569d5d","system_id":"levelo_inurba_marseille","lat":43.28154,"lon":5.42644,"is_reserved":false,"is_disabled":false,"rental_uris":{"android":"levelo://app?vid=580bea04-d90e-4377-861c-b90930569d5d","ios":"levelo://app?vid=580bea04-d90e-4377-861c-b90930569d5d"},"vehicle_type_id":"4","last_reported":1768039905,"current_range_meters":8400,"station_id":"ce4bhnh2rcd13ifvqgug","pricing_plan_id":"cebpf4jnsgd1na2vs0mg"},{"bike_id":"9ef5c7cf-da71-4612-9646-f64e3744543c","system_id":"levelo_inurba_marseille","lat":43.22934,"lon":5.35377,"is_reserved":false,"is_disabled":false,"rental_uris":{"android":"levelo://app?vid=9ef5c7cf-da71-4612-9646-f64e3744543c","ios":"levelo://app?vid=9ef5c7cf-da71-4612-9646-f64e3744543c"},"vehicle_type_id":"4","last_reported":1768039905,"current_range_meters":8400,"station_id":"cpo3532slgdg3j2ikp40","pricing_plan_id":"cebpf4jnsgd1na2vs0mg"},{"bike_id":"ad41c0f7-771d-4855-a9c8-7ed87d5e9445","system_id":"levelo_inurba_marseille","lat":43.29736,"lon":5.3852,"is_reserved":false,"is_disabled":false,"rental_uris":{"android":"levelo://app?vid=ad41c0f7-771d-4855-a9c8-7ed87d5e9445","ios":"levelo://app?vid=ad41c0f7-771d-4855-a9c8-7ed87d5e9445"},"vehicle_type_id":"4","last_reported":1768039905,"current_range_meters":8400,"station_id":"","pricing_plan_id":"cebpf4jnsgd1na2vs0mg"},{"bike_id":"15705fcb-fc6a-4f08-9895-a6a73b2606cb","system_id":"levelo_inurba_marseille","lat":43.26074,"lon":5.39428,"is_reserved":false,"is_disabled":false,"rental_uris":{"android":"levelo://app?vid=15705fcb-fc6a-4f08-9895-a6a73b2606cb","ios":"levelo://app?vid=15705fcb-fc6a-4f08-9895-a6a73b2606cb"},"vehicle_type_id":"4","last_reported":1768039905,"current_range_meters":8400,"station_id":"ce4bhh92rcd13ifvqfj0","pricing_plan_id":"cebpf4jnsgd1na2vs0mg"},{"bike_id":"1b1b65f2-5621-43a3-8721-1a01794caa40","system_id":"levelo_inurba_marseille","lat":43.23967,"lon":5.36613,"is_reserved":false,"is_disabled":false,"rental_uris":{"android":"levelo://app?vid=1b1b65f2-5621-43a3-8721-1a01794caa40","ios":"levelo://app?vid=1b1b65f2-5621-43a3-8721-1a01794caa40"},"vehicle_type_id":"4","last_reported":1768039905,"current_range_meters":8400,"station_id":"ce4bhi12rcd13ifvqfp0","pricing_plan_id":"cebpf4jnsgd1na2vs0mg"},{"bike_id":"dbb60bc6-4fb6-45fc-959a-667b177859f9","system_id":"levelo_inurba_marseille","lat":43.24152,"lon":5.36407,"is_reserved":false,"is_disabled":false,"rental_uris":{"android":"levelo://app?vid=dbb60bc6-4fb6-45fc-959a-667b177859f9","ios":"levelo://app?vid=dbb60bc6-4fb6-45fc-959a-667b177859f9"},"vehicle_type_id":"4","last_reported":1768039905,"current_range_meters":8400,"station_id":"cpo36qri1sfpv3e86is0","pricing_plan_id":"cebpf4jnsgd1na2vs0mg"},{"bike_id":"c7c2fb25-2812-4554-a688-8c1334dc293c","system_id":"levelo_inurba_marseille","lat":43.33375,"lon":5.41114,"is_reserved":false,"is_disabled":false,"rental_uris":{"android":"levelo://app?vid=c7c2fb25-2812-4554-a688-8c1334dc293c","ios":"levelo://app?vid=c7c2fb25-2812-4554-a688-8c1334dc293c"},"vehicle_type_id":"4","last_reported":1768039905,"current_range_meters":8400,"station_id":"","pricing_plan_id":"cebpf4jnsgd1na2vs0mg"},{"bike_id":"dbe9e179-37a7-4bf6-8958-b4f7e3523bb3","system_id":"levelo_inurba_marseille","lat":43.282901,"lon":5.430292,"is_reserved":false,"is_disabled":false,"rental_uris":{"android":"levelo://app?vid=dbe9e179-37a7-4bf6-8958-b4f7e3523bb3","ios":"levelo://app?vid=dbe9e179-37a7-4bf6-8958-b4f7e3523bb3"},"vehicle_type_id":"4","last_reported":1768039905,"current_range_meters":8400,"station_id":"","pricing_plan_id":"cebpf4jnsgd1na2vs0mg"},{"bike_id":"a4be4d0a-9cc5-420d-97fc-fb69311a8f04","system_id":"levelo_inurba_marseille","lat":43.29557,"lon":5.39979,"is_reserved":false,"is_disabled":false,"rental_uris":{"android":"levelo://app?vid=a4be4d0a-9cc5-420d-97fc-fb69311a8f04","ios":"levelo://app?vid=a4be4d0a-9cc5-420d-97fc-fb69311a8f04"},"vehicle_type_id":"4","last_reported":1768039905,"current_range_meters":8400,"station_id":"ce4bh312rcd13ifvqdj0","pricing_plan_id":"cebpf4jnsgd1na2vs0mg"},{"bike_id":"4c3bd91d-5b37-464b-8989-7f58124eb9e3","system_id":"levelo_inurba_marseille","lat":43.30244,"lon":5.37266,"is_reserved":false,"is_disabled":false,"rental_uris":{"android":"levelo://app?vid=4c3bd91d-5b37-464b-8989-7f58124eb9e3","ios":"levelo://app?vid=4c3bd91d-5b37-464b-8989-7f58124eb9e3"},"vehicle_type_id":"4","last_reported":1768039905,"current_range_meters":8400,"station_id":"","pricing_plan_id":"cebpf4jnsgd1na2vs0mg"},{"bike_id":"d041d3dd-9e7d-406c-a376-f7a1930c3e9a","system_id":"levelo_inurba_marseille","lat":43.28524,"lon":5.44094,"is_reserved":false,"is_disabled":false,"rental_uris":{"android":"levelo://app?vid=d041d3dd-9e7d-406c-a376-f7a1930c3e9a","ios":"levelo://app?vid=d041d3dd-9e7d-406c-a376-f7a1930c3e9a"},"vehicle_type_id":"4","last_reported":1768039905,"current_range_meters":8400,"station_id":"st_d3j3df2ikq2c7380ej80","pricing_plan_id":"cebpf4jnsgd1na2vs0mg"},{"bike_id":"ce11cc00-b8eb-43d8-9968-c33e528f2f5b","system_id":"levelo_inurba_marseille","lat":43.24538,"lon":5.3953,"is_reserved":false,"is_disabled":false,"rental_uris":{"android":"levelo://app?vid=ce11cc00-b8eb-43d8-9968-c33e528f2f5b","ios":"levelo://app?vid=ce11cc00-b8eb-43d8-9968-c33e528f2f5b"},"vehicle_type_id":"4","last_reported":1768039905,"current_range_meters":8800,"station_id":"ce4bhlp2rcd13ifvqgjg","pricing_plan_id":"cebpf4jnsgd1na2vs0mg"},{"bike_id":"55fcea33-e7aa-4a56-8ac1-e90451a3f1d3","system_id":"levelo_inurba_marseille","lat":43.29166,"lon":5.35812,"is_reserved":false,"is_disabled":false,"rental_uris":{"android":"levelo://app?vid=55fcea33-e7aa-4a56-8ac1-e90451a3f1d3","ios":"levelo://app?vid=55fcea33-e7aa-4a56-8ac1-e90451a3f1d3"},"vehicle_type_id":"4","last_reported":1768039905,"current_range_meters":8800,"station_id":"ce4bhb12rcd13ifvqel0","pricing_plan_id":"cebpf4jnsgd1na2vs0mg"},{"bike_id":"611d5909-481c-4108-a2ce-d73d9b8234f6","system_id":"levelo_inurba_marseille","lat":43.26198,"lon":5.37443,"is_reserved":false,"is_disabled":false,"rental_uris":{"android":"levelo://app?vid=611d5909-481c-4108-a2ce-d73d9b8234f6","ios":"levelo://app?vid=611d5909-481c-4108-a2ce-d73d9b8234f6"},"vehicle_type_id":"4","last_reported":1768039905,"current_range_meters":8800,"station_id":"ce4bhgp2rcd13ifvqfc0","pricing_plan_id":"cebpf4jnsgd1na2vs0mg"},{"bike_id":"0d9a28f3-f2a9-458c-abfb-9d5e6b00a237","system_id":"levelo_inurba_marseille","lat":43.23111,"lon":5.43783,"is_reserved":false,"is_disabled":false,"rental_uris":{"android":"levelo://app?vid=0d9a28f3-f2a9-458c-abfb-9d5e6b00a237","ios":"levelo://app?vid=0d9a28f3-f2a9-458c-abfb-9d5e6b00a237"},"vehicle_type_id":"4","last_reported":1768039905,"current_range_meters":8800,"station_id":"ce4bhmp2rcd13ifvqgog","pricing_plan_id":"cebpf4jnsgd1na2vs0mg"},{"bike_id":"46bff3a0-8e91-4d04-8c7a-f7783191a8a1","system_id":"levelo_inurba_marseille","lat":43.305579,"lon":5.365331,"is_reserved":false,"is_disabled":false,"rental_uris":{"android":"levelo://app?vid=46bff3a0-8e91-4d04-8c7a-f7783191a8a1","ios":"levelo://app?vid=46bff3a0-8e91-4d04-8c7a-f7783191a8a1"},"vehicle_type_id":"4","last_reported":1768039905,"current_range_meters":8800,"station_id":"ce4bgs12rcd13ifvqcag","pricing_plan_id":"cebpf4jnsgd1na2vs0mg"},{"bike_id":"604f78fd-36d7-4821-843f-e68feb228a98","system_id":"levelo_inurba_marseille","lat":43.241607,"lon":5.364217,"is_reserved":false,"is_disabled":false,"rental_uris":{"android":"levelo://app?vid=604f78fd-36d7-4821-843f-e68feb228a98","ios":"levelo://app?vid=604f78fd-36d7-4821-843f-e68feb228a98"},"vehicle_type_id":"4","last_reported":1768039905,"current_range_meters":8800,"station_id":"cpo36qri1sfpv3e86is0","pricing_plan_id":"cebpf4jnsgd1na2vs0mg"},{"bike_id":"5ea8390a-b6bf-4d05-83f0-f449d44bf97e","system_id":"levelo_inurba_marseille","lat":43.25817,"lon":5.39428,"is_reserved":false,"is_disabled":false,"rental_uris":{"android":"levelo://app?vid=5ea8390a-b6bf-4d05-83f0-f449d44bf97e","ios":"levelo://app?vid=5ea8390a-b6bf-4d05-83f0-f449d44bf97e"},"vehicle_type_id":"4","last_reported":1768039905,"current_range_meters":8800,"station_id":"ce4bhip2rcd13ifvqft0","pricing_plan_id":"cebpf4jnsgd1na2vs0mg"},{"bike_id":"7f391882-abdd-4a67-9c14-bc81f5c2dbfb","system_id":"levelo_inurba_marseille","lat":43.24056,"lon":5.37744,"is_reserved":false,"is_disabled":false,"rental_uris":{"android":"levelo://app?vid=7f391882-abdd-4a67-9c14-bc81f5c2dbfb","ios":"levelo://app?vid=7f391882-abdd-4a67-9c14-bc81f5c2dbfb"},"vehicle_type_id":"4","last_reported":1768039905,"current_range_meters":8800,"station_id":"ce4bhnp2rcd13ifvqgvg","pricing_plan_id":"cebpf4jnsgd1na2vs0mg"},{"bike_id":"248f666c-97de-43b8-ba33-ea773cc06c95","system_id":"levelo_inurba_marseille","lat":43.26562,"lon":5.39908,"is_reserved":false,"is_disabled":false,"rental_uris":{"android":"levelo://app?vid=248f666c-97de-43b8-ba33-ea773cc06c95","ios":"levelo://app?vid=248f666c-97de-43b8-ba33-ea773cc06c95"},"vehicle_type_id":"4","last_reported":1768039905,"current_range_meters":8800,"station_id":"","pricing_plan_id":"cebpf4jnsgd1na2vs0mg"},{"bike_id":"1a191896-e870-49a4-94a1-a2b756b8aaf5","system_id":"levelo_inurba_marseille","lat":43.30798,"lon":5.38171,"is_reserved":false,"is_disabled":false,"rental_uris":{"android":"levelo://app?vid=1a191896-e870-49a4-94a1-a2b756b8aaf5","ios":"levelo://app?vid=1a191896-e870-49a4-94a1-a2b756b8aaf5"},"vehicle_type_id":"4","last_reported":1768039905,"current_range_meters":8800,"station_id":"ce4bgt12rcd13ifvqce0","pricing_plan_id":"cebpf4jnsgd1na2vs0mg"},{"bike_id":"99c3ea9e-70e4-4e19-9bf2-cd2eaf226dbc","system_id":"levelo_inurba_marseille","lat":43.301452,"lon":5.380856,"is_reserved":false,"is_disabled":false,"rental_uris":{"android":"levelo://app?vid=99c3ea9e-70e4-4e19-9bf2-cd2eaf226dbc","ios":"levelo://app?vid=99c3ea9e-70e4-4e19-9bf2-cd2eaf226dbc"},"vehicle_type_id":"4","last_reported":1768039905,"current_range_meters":8800,"station_id":"ce4bgjp2rcd13ifvqbh0","pricing_plan_id":"cebpf4jnsgd1na2vs0mg"},{"bike_id":"9ba3abdd-ccf0-4033-8df7-7454ef98b00e","system_id":"levelo_inurba_marseille","lat":43.23795,"lon":5.36634,"is_reserved":false,"is_disabled":false,"rental_uris":{"android":"levelo://app?vid=9ba3abdd-ccf0-4033-8df7-7454ef98b00e","ios":"levelo://app?vid=9ba3abdd-ccf0-4033-8df7-7454ef98b00e"},"vehicle_type_id":"4","last_reported":1768039905,"current_range_meters":8800,"station_id":"st_d3nk18o9ro0c73en2l3g","pricing_plan_id":"cebpf4jnsgd1na2vs0mg"},{"bike_id":"a20e324f-461e-49f1-9758-c1dce453e58f","system_id":"levelo_inurba_marseille","lat":43.229303,"lon":5.353768,"is_reserved":false,"is_disabled":false,"rental_uris":{"android":"levelo://app?vid=a20e324f-461e-49f1-9758-c1dce453e58f","ios":"levelo://app?vid=a20e324f-461e-49f1-9758-c1dce453e58f"},"vehicle_type_id":"4","last_reported":1768039905,"current_range_meters":8800,"station_id":"cpo3532slgdg3j2ikp40","pricing_plan_id":"cebpf4jnsgd1na2vs0mg"},{"bike_id":"c55c0d61-a18c-488b-9b3e-f242de2b2b66","system_id":"levelo_inurba_marseille","lat":43.2874,"lon":5.38424,"is_reserved":false,"is_disabled":false,"rental_uris":{"android":"levelo://app?vid=c55c0d61-a18c-488b-9b3e-f242de2b2b66","ios":"levelo://app?vid=c55c0d61-a18c-488b-9b3e-f242de2b2b66"},"vehicle_type_id":"4","last_reported":1768039905,"current_range_meters":8800,"station_id":"","pricing_plan_id":"cebpf4jnsgd1na2vs0mg"},{"bike_id":"30c4a4b1-7051-4ad8-b903-af78f3f939ed","system_id":"levelo_inurba_marseille","lat":43.304544,"lon":5.37882,"is_reserved":false,"is_disabled":false,"rental_uris":{"android":"levelo://app?vid=30c4a4b1-7051-4ad8-b903-af78f3f939ed","ios":"levelo://app?vid=30c4a4b1-7051-4ad8-b903-af78f3f939ed"},"vehicle_type_id":"4","last_reported":1768039905,"current_range_meters":8800,"station_id":"ce4bgup2rcd13ifvqcn0","pricing_plan_id":"cebpf4jnsgd1na2vs0mg"},{"bike_id":"c6df88d0-d12a-4b7c-8e26-1e5d27ad8dc0","system_id":"levelo_inurba_marseille","lat":43.3122,"lon":5.36853,"is_reserved":false,"is_disabled":false,"rental_uris":{"android":"levelo://app?vid=c6df88d0-d12a-4b7c-8e26-1e5d27ad8dc0","ios":"levelo://app?vid=c6df88d0-d12a-4b7c-8e26-1e5d27ad8dc0"},"vehicle_type_id":"4","last_reported":1768039905,"current_range_meters":8800,"station_id":"ce4bgl92rcd13ifvqbq0","pricing_plan_id":"cebpf4jnsgd1na2vs0mg"},{"bike_id":"0c79e094-0799-45f4-8ba2-e1bb5fd45fc8","system_id":"levelo_inurba_marseille","lat":43.21187,"lon":5.35076,"is_reserved":false,"is_disabled":false,"rental_uris":{"android":"levelo://app?vid=0c79e094-0799-45f4-8ba2-e1bb5fd45fc8","ios":"levelo://app?vid=0c79e094-0799-45f4-8ba2-e1bb5fd45fc8"},"vehicle_type_id":"4","last_reported":1768039905,"current_range_meters":8800,"station_id":"st_cvj6sg6p6f1abm77japg","pricing_plan_id":"cebpf4jnsgd1na2vs0mg"},{"bike_id":"4493d2bb-ebc1-4dcc-9f61-b68a44407474","system_id":"levelo_inurba_marseille","lat":43.28854,"lon":5.42514,"is_reserved":false,"is_disabled":false,"rental_uris":{"android":"levelo://app?vid=4493d2bb-ebc1-4dcc-9f61-b68a44407474","ios":"levelo://app?vid=4493d2bb-ebc1-4dcc-9f61-b68a44407474"},"vehicle_type_id":"4","last_reported":1768039905,"current_range_meters":8800,"station_id":"st_d3b462108ojc7389ooeg","pricing_plan_id":"cebpf4jnsgd1na2vs0mg"},{"bike_id":"d29147e9-12b9-49d5-9a41-487e37c613b5","system_id":"levelo_inurba_marseille","lat":43.22554,"lon":5.41629,"is_reserved":false,"is_disabled":false,"rental_uris":{"android":"levelo://app?vid=d29147e9-12b9-49d5-9a41-487e37c613b5","ios":"levelo://app?vid=d29147e9-12b9-49d5-9a41-487e37c613b5"},"vehicle_type_id":"4","last_reported":1768039905,"current_range_meters":9200,"station_id":"st_d2o4gvlbi1j2169b742g","pricing_plan_id":"cebpf4jnsgd1na2vs0mg"},{"bike_id":"a1dcd8bf-b300-4092-8c84-5204375249a5","system_id":"levelo_inurba_marseille","lat":43.24808,"lon":5.37458,"is_reserved":false,"is_disabled":false,"rental_uris":{"android":"levelo://app?vid=a1dcd8bf-b300-4092-8c84-5204375249a5","ios":"levelo://app?vid=a1dcd8bf-b300-4092-8c84-5204375249a5"},"vehicle_type_id":"4","last_reported":1768039905,"current_range_meters":9200,"station_id":"ce4bhgh2rcd13ifvqfb0","pricing_plan_id":"cebpf4jnsgd1na2vs0mg"},{"bike_id":"e6db4c6f-37ef-4677-b252-fb7d2cca92be","system_id":"levelo_inurba_marseille","lat":43.278307,"lon":5.392,"is_reserved":false,"is_disabled":false,"rental_uris":{"android":"levelo://app?vid=e6db4c6f-37ef-4677-b252-fb7d2cca92be","ios":"levelo://app?vid=e6db4c6f-37ef-4677-b252-fb7d2cca92be"},"vehicle_type_id":"4","last_reported":1768039905,"current_range_meters":9200,"station_id":"ce4bhjp2rcd13ifvqga0","pricing_plan_id":"cebpf4jnsgd1na2vs0mg"},{"bike_id":"73aa8b26-ad51-4672-82b0-eabd4ddaa3c3","system_id":"levelo_inurba_marseille","lat":43.2883,"lon":5.35836,"is_reserved":false,"is_disabled":false,"rental_uris":{"android":"levelo://app?vid=73aa8b26-ad51-4672-82b0-eabd4ddaa3c3","ios":"levelo://app?vid=73aa8b26-ad51-4672-82b0-eabd4ddaa3c3"},"vehicle_type_id":"4","last_reported":1768039905,"current_range_meters":9200,"station_id":"ce4bhb12rcd13ifvqem0","pricing_plan_id":"cebpf4jnsgd1na2vs0mg"},{"bike_id":"ff43ef99-a2e3-42cb-a87f-e919c3749872","system_id":"levelo_inurba_marseille","lat":43.297257,"lon":5.414749,"is_reserved":false,"is_disabled":false,"rental_uris":{"android":"levelo://app?vid=ff43ef99-a2e3-42cb-a87f-e919c3749872","ios":"levelo://app?vid=ff43ef99-a2e3-42cb-a87f-e919c3749872"},"vehicle_type_id":"4","last_reported":1768039905,"current_range_meters":9200,"station_id":"","pricing_plan_id":"cebpf4jnsgd1na2vs0mg"},{"bike_id":"5748a6ce-ed0a-4c5d-b376-8780edf78d40","system_id":"levelo_inurba_marseille","lat":43.29001,"lon":5.3561,"is_reserved":false,"is_disabled":false,"rental_uris":{"android":"levelo://app?vid=5748a6ce-ed0a-4c5d-b376-8780edf78d40","ios":"levelo://app?vid=5748a6ce-ed0a-4c5d-b376-8780edf78d40"},"vehicle_type_id":"4","last_reported":1768039905,"current_range_meters":9200,"station_id":"ce4bhb92rcd13ifvqen0","pricing_plan_id":"cebpf4jnsgd1na2vs0mg"},{"bike_id":"53b03253-791d-42e1-9bae-3a363017756b","system_id":"levelo_inurba_marseille","lat":43.28595,"lon":5.35082,"is_reserved":false,"is_disabled":false,"rental_uris":{"android":"levelo://app?vid=53b03253-791d-42e1-9bae-3a363017756b","ios":"levelo://app?vid=53b03253-791d-42e1-9bae-3a363017756b"},"vehicle_type_id":"4","last_reported":1768039905,"current_range_meters":9200,"station_id":"ce4bhch2rcd13ifvqeug","pricing_plan_id":"cebpf4jnsgd1na2vs0mg"},{"bike_id":"781279a3-c313-49ed-a6ea-76ea087fc9c3","system_id":"levelo_inurba_marseille","lat":43.29613,"lon":5.37176,"is_reserved":false,"is_disabled":false,"rental_uris":{"android":"levelo://app?vid=781279a3-c313-49ed-a6ea-76ea087fc9c3","ios":"levelo://app?vid=781279a3-c313-49ed-a6ea-76ea087fc9c3"},"vehicle_type_id":"4","last_reported":1768039905,"current_range_meters":9200,"station_id":"ce4bgnh2rcd13ifvqc0g","pricing_plan_id":"cebpf4jnsgd1na2vs0mg"},{"bike_id":"d036b849-3104-46e1-8fb1-f8d5be60e569","system_id":"levelo_inurba_marseille","lat":43.301214,"lon":5.431129,"is_reserved":false,"is_disabled":false,"rental_uris":{"android":"levelo://app?vid=d036b849-3104-46e1-8fb1-f8d5be60e569","ios":"levelo://app?vid=d036b849-3104-46e1-8fb1-f8d5be60e569"},"vehicle_type_id":"4","last_reported":1768039905,"current_range_meters":9200,"station_id":"st_d3js3co5814s73ftftug","pricing_plan_id":"cebpf4jnsgd1na2vs0mg"},{"bike_id":"9695ced4-9069-43de-9381-414e38a96d05","system_id":"levelo_inurba_marseille","lat":43.29999,"lon":5.37253,"is_reserved":false,"is_disabled":false,"rental_uris":{"android":"levelo://app?vid=9695ced4-9069-43de-9381-414e38a96d05","ios":"levelo://app?vid=9695ced4-9069-43de-9381-414e38a96d05"},"vehicle_type_id":"4","last_reported":1768039905,"current_range_meters":9200,"station_id":"","pricing_plan_id":"cebpf4jnsgd1na2vs0mg"},{"bike_id":"c9c9bdd6-7819-4088-b437-1e9e63cd4967","system_id":"levelo_inurba_marseille","lat":43.30868,"lon":5.3968,"is_reserved":false,"is_disabled":false,"rental_uris":{"android":"levelo://app?vid=c9c9bdd6-7819-4088-b437-1e9e63cd4967","ios":"levelo://app?vid=c9c9bdd6-7819-4088-b437-1e9e63cd4967"},"vehicle_type_id":"4","last_reported":1768039905,"current_range_meters":9200,"station_id":"ce4bh012rcd13ifvqcv0","pricing_plan_id":"cebpf4jnsgd1na2vs0mg"},{"bike_id":"6c9e7281-c716-4f93-80ed-b9cad29e485f","system_id":"levelo_inurba_marseille","lat":43.284772,"lon":5.48396,"is_reserved":false,"is_disabled":false,"rental_uris":{"android":"levelo://app?vid=6c9e7281-c716-4f93-80ed-b9cad29e485f","ios":"levelo://app?vid=6c9e7281-c716-4f93-80ed-b9cad29e485f"},"vehicle_type_id":"4","last_reported":1768039905,"current_range_meters":9200,"station_id":"","pricing_plan_id":"cebpf4jnsgd1na2vs0mg"},{"bike_id":"89e9cd83-cfcf-456b-9dc6-6698e380027b","system_id":"levelo_inurba_marseille","lat":43.31315,"lon":5.3974,"is_reserved":false,"is_disabled":false,"rental_uris":{"android":"levelo://app?vid=89e9cd83-cfcf-456b-9dc6-6698e380027b","ios":"levelo://app?vid=89e9cd83-cfcf-456b-9dc6-6698e380027b"},"vehicle_type_id":"4","last_reported":1768039905,"current_range_meters":9200,"station_id":"ce4bgvp2rcd13ifvqcu0","pricing_plan_id":"cebpf4jnsgd1na2vs0mg"},{"bike_id":"0ebdfc46-1375-479c-8f20-b30c21d6e388","system_id":"levelo_inurba_marseille","lat":43.25621,"lon":5.41779,"is_reserved":false,"is_disabled":false,"rental_uris":{"android":"levelo://app?vid=0ebdfc46-1375-479c-8f20-b30c21d6e388","ios":"levelo://app?vid=0ebdfc46-1375-479c-8f20-b30c21d6e388"},"vehicle_type_id":"4","last_reported":1768039905,"current_range_meters":9200,"station_id":"","pricing_plan_id":"cebpf4jnsgd1na2vs0mg"},{"bike_id":"6e46e147-530f-4a33-9dc1-612008ffb455","system_id":"levelo_inurba_marseille","lat":43.263712,"lon":5.410816,"is_reserved":false,"is_disabled":false,"rental_uris":{"android":"levelo://app?vid=6e46e147-530f-4a33-9dc1-612008ffb455","ios":"levelo://app?vid=6e46e147-530f-4a33-9dc1-612008ffb455"},"vehicle_type_id":"4","last_reported":1768039905,"current_range_meters":9200,"station_id":"st_d4e5ca6na9uc73bfl5fg","pricing_plan_id":"cebpf4jnsgd1na2vs0mg"},{"bike_id":"b1719ed5-e9e6-461b-9539-894919cacc71","system_id":"levelo_inurba_marseille","lat":43.246749,"lon":5.381592,"is_reserved":false,"is_disabled":false,"rental_uris":{"android":"levelo://app?vid=b1719ed5-e9e6-461b-9539-894919cacc71","ios":"levelo://app?vid=b1719ed5-e9e6-461b-9539-894919cacc71"},"vehicle_type_id":"4","last_reported":1768039905,"current_range_meters":9200,"station_id":"ce4bhih2rcd13ifvqfr0","pricing_plan_id":"cebpf4jnsgd1na2vs0mg"},{"bike_id":"e8897284-96fa-4c95-b10b-b03b633408cc","system_id":"levelo_inurba_marseille","lat":43.26368,"lon":5.410811,"is_reserved":false,"is_disabled":false,"rental_uris":{"android":"levelo://app?vid=e8897284-96fa-4c95-b10b-b03b633408cc","ios":"levelo://app?vid=e8897284-96fa-4c95-b10b-b03b633408cc"},"vehicle_type_id":"4","last_reported":1768039905,"current_range_meters":9600,"station_id":"st_d4e5ca6na9uc73bfl5fg","pricing_plan_id":"cebpf4jnsgd1na2vs0mg"},{"bike_id":"a29a7b7f-0842-4422-ac1b-ac506d268aaf","system_id":"levelo_inurba_marseille","lat":43.28929,"lon":5.36413,"is_reserved":false,"is_disabled":false,"rental_uris":{"android":"levelo://app?vid=a29a7b7f-0842-4422-ac1b-ac506d268aaf","ios":"levelo://app?vid=a29a7b7f-0842-4422-ac1b-ac506d268aaf"},"vehicle_type_id":"4","last_reported":1768039905,"current_range_meters":9600,"station_id":"ce4bhc92rcd13ifvqetg","pricing_plan_id":"cebpf4jnsgd1na2vs0mg"},{"bike_id":"9e546458-c3a8-4e35-9b2b-b0910317fcfc","system_id":"levelo_inurba_marseille","lat":43.22928,"lon":5.35379,"is_reserved":false,"is_disabled":false,"rental_uris":{"android":"levelo://app?vid=9e546458-c3a8-4e35-9b2b-b0910317fcfc","ios":"levelo://app?vid=9e546458-c3a8-4e35-9b2b-b0910317fcfc"},"vehicle_type_id":"4","last_reported":1768039905,"current_range_meters":9600,"station_id":"cpo3532slgdg3j2ikp40","pricing_plan_id":"cebpf4jnsgd1na2vs0mg"},{"bike_id":"ce231847-9084-4cc8-acfe-b4f56bb0e506","system_id":"levelo_inurba_marseille","lat":43.24171,"lon":5.36399,"is_reserved":false,"is_disabled":false,"rental_uris":{"android":"levelo://app?vid=ce231847-9084-4cc8-acfe-b4f56bb0e506","ios":"levelo://app?vid=ce231847-9084-4cc8-acfe-b4f56bb0e506"},"vehicle_type_id":"4","last_reported":1768039905,"current_range_meters":9600,"station_id":"cpo36qri1sfpv3e86is0","pricing_plan_id":"cebpf4jnsgd1na2vs0mg"},{"bike_id":"0c81d49b-cd5d-4b5e-b8c8-2a2c9364e2c9","system_id":"levelo_inurba_marseille","lat":43.23186,"lon":5.39945,"is_reserved":false,"is_disabled":false,"rental_uris":{"android":"levelo://app?vid=0c81d49b-cd5d-4b5e-b8c8-2a2c9364e2c9","ios":"levelo://app?vid=0c81d49b-cd5d-4b5e-b8c8-2a2c9364e2c9"},"vehicle_type_id":"4","last_reported":1768039905,"current_range_meters":9600,"station_id":"ce4bhn12rcd13ifvqgqg","pricing_plan_id":"cebpf4jnsgd1na2vs0mg"},{"bike_id":"955d5f70-f89c-46b1-999c-f2b3d3815b7e","system_id":"levelo_inurba_marseille","lat":43.320994,"lon":5.367882,"is_reserved":false,"is_disabled":false,"rental_uris":{"android":"levelo://app?vid=955d5f70-f89c-46b1-999c-f2b3d3815b7e","ios":"levelo://app?vid=955d5f70-f89c-46b1-999c-f2b3d3815b7e"},"vehicle_type_id":"4","last_reported":1768039905,"current_range_meters":9600,"station_id":"ce4bhrh2rcd13ifvqhug","pricing_plan_id":"cebpf4jnsgd1na2vs0mg"},{"bike_id":"93bbefe7-c6e7-4d2e-80c3-326f56c7f621","system_id":"levelo_inurba_marseille","lat":43.29684,"lon":5.37276,"is_reserved":false,"is_disabled":false,"rental_uris":{"android":"levelo://app?vid=93bbefe7-c6e7-4d2e-80c3-326f56c7f621","ios":"levelo://app?vid=93bbefe7-c6e7-4d2e-80c3-326f56c7f621"},"vehicle_type_id":"4","last_reported":1768039905,"current_range_meters":9600,"station_id":"ce4bgk12rcd13ifvqbj0","pricing_plan_id":"cebpf4jnsgd1na2vs0mg"},