{"last_updated":1747163291,"ttl":60,"version":"2.2","data":{"bikes":[{"bike_id":"c0b9fd4f-e181-46ce-b0bf-f5119973334f","system_id":"levelo_inurba_marseille","lat":43.33771,"lon":5.37424,"is_reserved":false,"is_disabled":false,"rental_uris":{"android":"levelo://app?vid=c0b9fd4f-e181-46ce-b0bf-f5119973334f","ios":"levelo://app?vid=c0b9fd4f-e181-46ce-b0bf-f5119973334f"},"vehicle_type_id":"4","last_reported":1747163291,"current_range_meters":22400,"station_id":"","pricing_plan_id":"cebpf4jnsgd1na2vs0mg"},{"bike_id":"fc2577e7-1497-425b-9d4f-ab8d7dc843c6","system_id":"levelo_inurba_marseille","lat":43.33771,"lon":5.37485,"is_reserved":false,"is_disabled":true,"rental_uris":{"android":"levelo://app?vid=fc2577e7-1497-425b-9d4f-ab8d7dc843c6","ios":"levelo://app?vid=fc2577e7-1497-425b-9d4f-ab8d7dc843c6"},"vehicle_type_id":"4","last_reported":1747163291,"current_range_meters":0,"station_id":"","pricing_plan_id":"cebpf4jnsgd1na2vs0mg"},{"bike_id":"0fedde00-40eb-40d2-8fc2-e61ecce46b7b","system_id":"levelo_inurba_marseille","lat":43.28275,"lon":5.43257,"is_reserved":false,"is_disabled":true,"rental_uris":{"android":"levelo://app?vid=0fedde00-40eb-40d2-8fc2-e61ecce46b7b","ios":"levelo://app?vid=0fedde00-40eb-40d2-8fc2-e61ecce46b7b"},"vehicle_type_id":"4","last_reported":1747163291,"current_range_meters":0,"station_id":"","pricing_plan_id":"cebpf4jnsgd1na2vs0mg"},{"bike_id":"727c4684-f63f-4c08-83b6-b043d1b81a1c","system_id":"levelo_inurba_marseille","lat":43.30007,"lon":5.47583,"is_reserved":false,"is_disabled":true,"rental_uris":{"android":"levelo://app?vid=727c4684-f63f-4c08-83b6-b043d1b81a1c","ios":"levelo://app?vid=727c4684-f63f-4c08-83b6-b043d1b81a1c"},"vehicle_type_id":"4","last_reported":1747163291,"current_range_meters":0,"station_id":"","pricing_plan_id":"cebpf4jnsgd1na2vs0mg"},{"bike_id":"d19ebaab-ef98-4efa-b952-7192b9b2f014","system_id":"levelo_inurba_marseille","lat":43.26137,"lon":5.39223,"is_reserved":false,"is_disabled":true,"rental_uris":{"android":"levelo://app?vid=d19ebaab-ef98-4efa-b952-7192b9b2f014","ios":"levelo://app?vid=d19ebaab-ef98-4efa-b952-7192b9b2f014"},"vehicle_type_id":"4","last_reported":1747163291,"current_range_meters":0,"station_id":"","pricing_plan_id":"cebpf4jnsgd1na2vs0mg"},{"bike_id":"792567c6-0442-4011-aff0-9c05e25deb48","system_id":"levelo_inurba_marseille","lat":43.2808,"lon":5.44176,"is_reserved":false,"is_disabled":true,"rental_uris":{"android":"levelo://app?vid=792567c6-0442-4011-aff0-9c05e25deb48","ios":"levelo://app?vid=792567c6-0442-4011-aff0-9c05e25deb48"},"vehicle_type_id":"4","last_reported":1747163291,"current_range_meters":0,"station_id":"","pricing_plan_id":"cebpf4jnsgd1na2vs0mg"},{"bike_id":"4016995e-bad8-4c8c-9a16-52e81020be8e","system_id":"levelo_inurba_marseille","lat":43.298473,"lon":5.382812,"is_reserved":false,"is_disabled":true,"rental_uris":{"android":"levelo://app?vid=4016995e-bad8-4c8c-9a16-52e81020be8e","ios":"levelo://app?vid=4016995e-bad8-4c8c-9a16-52e81020be8e"},"vehicle_type_id":"4","last_reported":1747163291,"current_range_meters":0,"station_id":"","pricing_plan_id":"cebpf4jnsgd1na2vs0mg"},{"bike_id":"1ee4357d-f93c-40d4-85cd-900ac6ed4e66","system_id":"levelo_inurba_marseille","lat":43.288552,"lon":5.358584,"is_reserved":false,"is_disabled":true,"rental_uris":{"android":"levelo://app?vid=1ee4357d-f93c-40d4-85cd-900ac6ed4e66","ios":"levelo://app?vid=1ee4357d-f93c-40d4-85cd-900ac6ed4e66"},"vehicle_type_id":"4","last_reported":1747163291,"current_range_meters":0,"station_id":"ce4bhb12rcd13ifvqem0","pricing_plan_id":"cebpf4jnsgd1na2vs0mg"},{"bike_id":"b0df7db8-3421-497a-b7ae-6831a9f35d5d","system_id":"levelo_inurba_marseille","lat":43.26206,"lon":5.40445,"is_reserved":false,"is_disabled":true,"rental_uris":{"android":"levelo://app?vid=b0df7db8-3421-497a-b7ae-6831a9f35d5d","ios":"levelo://app?vid=b0df7db8-3421-497a-b7ae-6831a9f35d5d"},"vehicle_type_id":"4","last_reported":1747163291,"current_range_meters":0,"station_id":"ce4bhmh2rcd13ifvqgmg","pricing_plan_id":"cebpf4jnsgd1na2vs0mg"},{"bike_id":"7d648bb7-ab7e-409a-add7-d4a17f03de12","system_id":"levelo_inurba_marseille","lat":43.23143,"lon":5.4369,"is_reserved":false,"is_disabled":true,"rental_uris":{"android":"levelo://app?vid=7d648bb7-ab7e-409a-add7-d4a17f03de12","ios":"levelo://app?vid=7d648bb7-ab7e-409a-add7-d4a17f03de12"},"vehicle_type_id":"4","last_reported":1747163291,"current_range_meters":0,"station_id":"ce4bhmp2rcd13ifvqgog","pricing_plan_id":"cebpf4jnsgd1na2vs0mg"},{"bike_id":"ea6fbb81-0e9e-4d81-be8a-0c7d6201055e","system_id":"levelo_inurba_marseille","lat":43.27947,"lon":5.41042,"is_reserved":false,"is_disabled":true,"rental_uris":{"android":"levelo://app?vid=ea6fbb81-0e9e-4d81-be8a-0c7d6201055e","ios":"levelo://app?vid=ea6fbb81-0e9e-4d81-be8a-0c7d6201055e"},"vehicle_type_id":"4","last_reported":1747163291,"current_range_meters":0,"station_id":"ce4bhnp2rcd13ifvqh0g","pricing_plan_id":"cebpf4jnsgd1na2vs0mg"},{"bike_id":"33f4f50a-a92c-490d-9d8f-9adcfee9f422","system_id":"levelo_inurba_marseille","lat":43.31728,"lon":5.42398,"is_reserved":false,"is_disabled":true,"rental_uris":{"android":"levelo://app?vid=33f4f50a-a92c-490d-9d8f-9adcfee9f422","ios":"levelo://app?vid=33f4f50a-a92c-490d-9d8f-9adcfee9f422"},"vehicle_type_id":"4","last_reported":1747163291,"current_range_meters":0,"station_id":"ce4bhp92rcd13ifvqhbg","pricing_plan_id":"cebpf4jnsgd1na2vs0mg"},{"bike_id":"986c18d8-74d7-4caf-9a65-ed5970f61353","system_id":"levelo_inurba_marseille","lat":43.21191,"lon":5.35077,"is_reserved":false,"is_disabled":true,"rental_uris":{"android":"levelo://app?vid=986c18d8-74d7-4caf-9a65-ed5970f61353","ios":"levelo://app?vid=986c18d8-74d7-4caf-9a65-ed5970f61353"},"vehicle_type_id":"4","last_reported":1747163291,"current_range_meters":0,"station_id":"st_cvj6sg6p6f1abm77japg","pricing_plan_id":"cebpf4jnsgd1na2vs0mg"},{"bike_id":"32ab2f6f-d857-4fc8-88fb-7ebfc19c0608","system_id":"levelo_inurba_marseille","lat":43.26825,"lon":5.4127,"is_reserved":false,"is_disabled":true,"rental_uris":{"android":"levelo://app?vid=32ab2f6f-d857-4fc8-88fb-7ebfc19c0608","ios":"levelo://app?vid=32ab2f6f-d857-4fc8-88fb-7ebfc19c0608"},"vehicle_type_id":"4","last_reported":1747163291,"current_range_meters":400,"station_id":"","pricing_plan_id":"cebpf4jnsgd1na2vs0mg"},{"bike_id":"4f5ebab2-dfb1-46a3-8131-f1cece54603e","system_id":"levelo_inurba_marseille","lat":43.26183,"lon":5.40487,"is_reserved":false,"is_disabled":true,"rental_uris":{"android":"levelo://app?vid=4f5ebab2-dfb1-46a3-8131-f1cece54603e","ios":"levelo://app?vid=4f5ebab2-dfb1-46a3-8131-f1cece54603e"},"vehicle_type_id":"4","last_reported":1747163291,"current_range_meters":400,"station_id":"ce4bhmh2rcd13ifvqgmg","pricing_plan_id":"cebpf4jnsgd1na2vs0mg"},{"bike_id":"518be039-efd2-47c8-8b30-051fb6e63694","system_id":"levelo_inurba_marseille","lat":43.28002,"lon":5.40015,"is_reserved":false,"is_disabled":true,"rental_uris":{"android":"levelo://app?vid=518be039-efd2-47c8-8b30-051fb6e63694","ios":"levelo://app?vid=518be039-efd2-47c8-8b30-051fb6e63694"},"vehicle_type_id":"4","last_reported":1747163291,"current_range_meters":400,"station_id":"ce4bho92rcd13ifvqh4g","pricing_plan_id":"cebpf4jnsgd1na2vs0mg"},{"bike_id":"82708510-bc4c-47a7-a1d0-bd89ef8b6e0f","system_id":"levelo_inurba_marseille","lat":43.2954,"lon":5.42314,"is_reserved":false,"is_disabled":true,"rental_uris":{"android":"levelo://app?vid=82708510-bc4c-47a7-a1d0-bd89ef8b6e0f","ios":"levelo://app?vid=82708510-bc4c-47a7-a1d0-bd89ef8b6e0f"},"vehicle_type_id":"4","last_reported":1747163291,"current_range_meters":800,"station_id":"ce4bhph2rcd13ifvqhdg","pricing_plan_id":"cebpf4jnsgd1na2vs0mg"},{"bike_id":"49c47ed7-52af-4f8e-abc1-3485cf2c06af","system_id":"levelo_inurba_marseille","lat":43.22494,"lon":5.34784,"is_reserved":false,"is_disabled":true,"rental_uris":{"android":"levelo://app?vid=49c47ed7-52af-4f8e-abc1-3485cf2c06af","ios":"levelo://app?vid=49c47ed7-52af-4f8e-abc1-3485cf2c06af"},"vehicle_type_id":"4","last_reported":1747163291,"current_range_meters":800,"station_id":"st_cvj5dfep6f1abm77gieg","pricing_plan_id":"cebpf4jnsgd1na2vs0mg"},{"bike_id":"750c36e5-cd2f-4038-a90a-72f102f3b487","system_id":"levelo_inurba_marseille","lat":43.290149,"lon":5.386598,"is_reserved":false,"is_disabled":true,"rental_uris":{"android":"levelo://app?vid=750c36e5-cd2f-4038-a90a-72f102f3b487","ios":"levelo://app?vid=750c36e5-cd2f-4038-a90a-72f102f3b487"},"vehicle_type_id":"4","last_reported":1747163291,"current_range_meters":1200,"station_id":"ce4bh4p2rcd13ifvqe0g","pricing_plan_id":"cebpf4jnsgd1na2vs0mg"},{"bike_id":"2c47fe80-a3ce-48dc-99bb-8751cb5b58cd","system_id":"levelo_inurba_marseille","lat":43.265197,"lon":5.395776,"is_reserved":false,"is_disabled":true,"rental_uris":{"android":"levelo://app?vid=2c47fe80-a3ce-48dc-99bb-8751cb5b58cd","ios":"levelo://app?vid=2c47fe80-a3ce-48dc-99bb-8751cb5b58cd"},"vehicle_type_id":"4","last_reported":1747163291,"current_range_meters":1600,"station_id":"","pricing_plan_id":"cebpf4jnsgd1na2vs0mg"},{"bike_id":"6ce2bf24-365f-435e-b5d6-37dfaea9358b","system_id":"levelo_inurba_marseille","lat":43.30591,"lon":5.39361,"is_reserved":false,"is_disabled":true,"rental_uris":{"android":"levelo://app?vid=6ce2bf24-365f-435e-b5d6-37dfaea9358b","ios":"levelo://app?vid=6ce2bf24-365f-435e-b5d6-37dfaea9358b"},"vehicle_type_id":"4","last_reported":1747163291,"current_range_meters":1600,"station_id":"ce4bh0p2rcd13ifvqd80","pricing_plan_id":"cebpf4jnsgd1na2vs0mg"},{"bike_id":"f8f1723d-98a8-4f57-b09b-e0626a73568c","system_id":"levelo_inurba_marseille","lat":43.27905,"lon":5.38016,"is_reserved":false,"is_disabled":true,"rental_uris":{"android":"levelo://app?vid=f8f1723d-98a8-4f57-b09b-e0626a73568c","ios":"levelo://app?vid=f8f1723d-98a8-4f57-b09b-e0626a73568c"},"vehicle_type_id":"4","last_reported":1747163291,"current_range_meters":1600,"station_id":"ce4bhf92rcd13ifvqf50","pricing_plan_id":"cebpf4jnsgd1na2vs0mg"},{"bike_id":"f624eee6-d01e-4acc-a776-bc0fd5fb293e","system_id":"levelo_inurba_marseille","lat":43.2705,"lon":5.40268,"is_reserved":false,"is_disabled":true,"rental_uris":{"android":"levelo://app?vid=f624eee6-d01e-4acc-a776-bc0fd5fb293e","ios":"levelo://app?vid=f624eee6-d01e-4acc-a776-bc0fd5fb293e"},"vehicle_type_id":"4","last_reported":1747163291,"current_range_meters":1600,"station_id":"ce4bhk92rcd13ifvqgc0","pricing_plan_id":"cebpf4jnsgd1na2vs0mg"},{"bike_id":"eea087d9-26d6-4570-96a0-386979d6ec09","system_id":"levelo_inurba_marseille","lat":43.24808,"lon":5.37459,"is_reserved":false,"is_disabled":true,"rental_uris":{"android":"levelo://app?vid=eea087d9-26d6-4570-96a0-386979d6ec09","ios":"levelo://app?vid=eea087d9-26d6-4570-96a0-386979d6ec09"},"vehicle_type_id":"4","last_reported":1747163291,"current_range_meters":2000,"station_id":"ce4bhgh2rcd13ifvqfb0","pricing_plan_id":"cebpf4jnsgd1na2vs0mg"},{"bike_id":"8aecad1a-6a65-4d9a-bc60-67a3daa52852","system_id":"levelo_inurba_marseille","lat":43.21742,"lon":5.34604,"is_reserved":false,"is_disabled":true,"rental_uris":{"android":"levelo://app?vid=8aecad1a-6a65-4d9a-bc60-67a3daa52852","ios":"levelo://app?vid=8aecad1a-6a65-4d9a-bc60-67a3daa52852"},"vehicle_type_id":"4","last_reported":1747163291,"current_range_meters":2000,"station_id":"st_cvj6r9ubvosntc0bgbag","pricing_plan_id":"cebpf4jnsgd1na2vs0mg"},{"bike_id":"60c0295d-fb79-4f5a-8678-a63684ceb9d6","system_id":"levelo_inurba_marseille","lat":43.28423,"lon":5.34991,"is_reserved":false,"is_disabled":false,"rental_uris":{"android":"levelo://app?vid=60c0295d-fb79-4f5a-8678-a63684ceb9d6","ios":"levelo://app?vid=60c0295d-fb79-4f5a-8678-a63684ceb9d6"},"vehicle_type_id":"4","last_reported":1747163291,"current_range_meters":2800,"station_id":"","pricing_plan_id":"cebpf4jnsgd1na2vs0mg"},{"bike_id":"6df0b697-2df7-4cb7-81aa-8cc9ac00ea06","system_id":"levelo_inurba_marseille","lat":43.29282,"lon":5.40115,"is_reserved":false,"is_disabled":false,"rental_uris":{"android":"levelo://app?vid=6df0b697-2df7-4cb7-81aa-8cc9ac00ea06","ios":"levelo://app?vid=6df0b697-2df7-4cb7-81aa-8cc9ac00ea06"},"vehicle_type_id":"4","last_reported":1747163291,"current_range_meters":2800,"station_id":"ce4bh312rcd13ifvqdk0","pricing_plan_id":"cebpf4jnsgd1na2vs0mg"},{"bike_id":"0c99568e-b352-45fc-a9a8-ad539e2f2a5d","system_id":"levelo_inurba_marseille","lat":43.29269,"lon":5.38433,"is_reserved":false,"is_disabled":false,"rental_uris":{"android":"levelo://app?vid=0c99568e-b352-45fc-a9a8-ad539e2f2a5d","ios":"levelo://app?vid=0c99568e-b352-45fc-a9a8-ad539e2f2a5d"},"vehicle_type_id":"4","last_reported":1747163291,"current_range_meters":2800,"station_id":"ce4bh692rcd13ifvqea0","pricing_plan_id":"cebpf4jnsgd1na2vs0mg"},{"bike_id":"80e8d3fb-b5a0-453d-aa09-9b85882eb52a","system_id":"levelo_inurba_marseille","lat":43.28469,"lon":5.35889,"is_reserved":false,"is_disabled":false,"rental_uris":{"android":"levelo://app?vid=80e8d3fb-b5a0-453d-aa09-9b85882eb52a","ios":"levelo://app?vid=80e8d3fb-b5a0-453d-aa09-9b85882eb52a"},"vehicle_type_id":"4","last_reported":1747163291,"current_range_meters":2800,"station_id":"ce4bhah2rcd13ifvqei0","pricing_plan_id":"cebpf4jnsgd1na2vs0mg"},{"bike_id":"97fbce1b-1020-44d8-950b-a0c99f0606ff","system_id":"levelo_inurba_marseille","lat":43.2417,"lon":5.36399,"is_reserved":false,"is_disabled":false,"rental_uris":{"android":"levelo://app?vid=97fbce1b-1020-44d8-950b-a0c99f0606ff","ios":"levelo://app?vid=97fbce1b-1020-44d8-950b-a0c99f0606ff"},"vehicle_type_id":"4","last_reported":1747163291,"current_range_meters":2800,"station_id":"cpo36qri1sfpv3e86is0","pricing_plan_id":"cebpf4jnsgd1na2vs0mg"},{"bike_id":"f36f09e7-5f0d-4696-b52a-e45c839d051c","system_id":"levelo_inurba_marseille","lat":43.27069,"lon":5.42279,"is_reserved":false,"is_disabled":false,"rental_uris":{"android":"levelo://app?vid=f36f09e7-5f0d-4696-b52a-e45c839d051c","ios":"levelo://app?vid=f36f09e7-5f0d-4696-b52a-e45c839d051c"},"vehicle_type_id":"4","last_reported":1747163291,"current_range_meters":3200,"station_id":"ce4bhk92rcd13ifvqgb0","pricing_plan_id":"cebpf4jnsgd1na2vs0mg"},{"bike_id":"e34d4529-013c-439c-8c49-2e71a6cab91c","system_id":"levelo_inurba_marseille","lat":43.27208,"lon":5.39198,"is_reserved":false,"is_disabled":false,"rental_uris":{"android":"levelo://app?vid=e34d4529-013c-439c-8c49-2e71a6cab91c","ios":"levelo://app?vid=e34d4529-013c-439c-8c49-2e71a6cab91c"},"vehicle_type_id":"4","last_reported":1747163291,"current_range_meters":3600,"station_id":"ce4bhhp2rcd13ifvqfm0","pricing_plan_id":"cebpf4jnsgd1na2vs0mg"},{"bike_id":"eb167b9d-0333-4e8f-8219-ae8937d06aab","system_id":"levelo_inurba_marseille","lat":43.33603,"lon":5.41034,"is_reserved":false,"is_disabled":false,"rental_uris":{"android":"levelo://app?vid=eb167b9d-0333-4e8f-8219-ae8937d06aab","ios":"levelo://app?vid=eb167b9d-0333-4e8f-8219-ae8937d06aab"},"vehicle_type_id":"4","last_reported":1747163291,"current_range_meters":3600,"station_id":"ce4bhqh2rcd13ifvqhmg","pricing_plan_id":"cebpf4jnsgd1na2vs0mg"},{"bike_id":"17d073bc-fcfd-48d1-8f48-7467bec69af5","system_id":"levelo_inurba_marseille","lat":43.28606,"lon":5.37054,"is_reserved":false,"is_disabled":false,"rental_uris":{"android":"levelo://app?vid=17d073bc-fcfd-48d1-8f48-7467bec69af5","ios":"levelo://app?vid=17d073bc-fcfd-48d1-8f48-7467bec69af5"},"vehicle_type_id":"4","last_reported":1747163291,"current_range_meters":3600,"station_id":"ce4bht12rcd13ifvqi60","pricing_plan_id":"cebpf4jnsgd1na2vs0mg"},{"bike_id":"5876a492-90df-4718-b9dc-c8f09481bc8f","system_id":"levelo_inurba_marseille","lat":43.27908,"lon":5.39587,"is_reserved":false,"is_disabled":false,"rental_uris":{"android":"levelo://app?vid=5876a492-90df-4718-b9dc-c8f09481bc8f","ios":"levelo://app?vid=5876a492-90df-4718-b9dc-c8f09481bc8f"},"vehicle_type_id":"4","last_reported":1747163291,"current_range_meters":4000,"station_id":"ce4bhf92rcd13ifvqf40","pricing_plan_id":"cebpf4jnsgd1na2vs0mg"},{"bike_id":"9dac9e54-17f2-4c74-bf1a-6af8ac228378","system_id":"levelo_inurba_marseille","lat":43.262315,"lon":5.40451,"is_reserved":false,"is_disabled":false,"rental_uris":{"android":"levelo://app?vid=9dac9e54-17f2-4c74-bf1a-6af8ac228378","ios":"levelo://app?vid=9dac9e54-17f2-4c74-bf1a-6af8ac228378"},"vehicle_type_id":"4","last_reported":1747163291,"current_range_meters":4000,"station_id":"ce4bhmh2rcd13ifvqgmg","pricing_plan_id":"cebpf4jnsgd1na2vs0mg"},{"bike_id":"4c7f1281-060a-44cb-a859-8bd513948078","system_id":"levelo_inurba_marseille","lat":43.301132,"lon":5.383596,"is_reserved":false,"is_disabled":false,"rental_uris":{"android":"levelo://app?vid=4c7f1281-060a-44cb-a859-8bd513948078","ios":"levelo://app?vid=4c7f1281-060a-44cb-a859-8bd513948078"},"vehicle_type_id":"4","last_reported":1747163291,"current_range_meters":4400,"station_id":"","pricing_plan_id":"cebpf4jnsgd1na2vs0mg"},{"bike_id":"e6e6e676-e569-4fec-b0f2-c84846ae783f","system_id":"levelo_inurba_marseille","lat":43.30889,"lon":5.3966,"is_reserved":false,"is_disabled":false,"rental_uris":{"android":"levelo://app?vid=e6e6e676-e569-4fec-b0f2-c84846ae783f","ios":"levelo://app?vid=e6e6e676-e569-4fec-b0f2-c84846ae783f"},"vehicle_type_id":"4","last_reported":1747163291,"current_range_meters":4400,"station_id":"ce4bh012rcd13ifvqcv0","pricing_plan_id":"cebpf4jnsgd1na2vs0mg"},{"bike_id":"679a1652-9834-4e25-8720-e5f793f672e7","system_id":"levelo_inurba_marseille","lat":43.25082,"lon":5.39517,"is_reserved":false,"is_disabled":false,"rental_uris":{"android":"levelo://app?vid=679a1652-9834-4e25-8720-e5f793f672e7","ios":"levelo://app?vid=679a1652-9834-4e25-8720-e5f793f672e7"},"vehicle_type_id":"4","last_reported":1747163291,"current_range_meters":4400,"station_id":"ce4bhm12rcd13ifvqgkg","pricing_plan_id":"cebpf4jnsgd1na2vs0mg"},{"bike_id":"6833ac0b-a0f1-4bf2-9b5d-c86e8274e101","system_id":"levelo_inurba_marseille","lat":43.30631,"lon":5.40088,"is_reserved":false,"is_disabled":false,"rental_uris":{"android":"levelo://app?vid=6833ac0b-a0f1-4bf2-9b5d-c86e8274e101","ios":"levelo://app?vid=6833ac0b-a0f1-4bf2-9b5d-c86e8274e101"},"vehicle_type_id":"4","last_reported":1747163291,"current_range_meters":5600,"station_id":"ce4bh112rcd13ifvqda0","pricing_plan_id":"cebpf4jnsgd1na2vs0mg"},{"bike_id":"485f36f8-f5b5-4b39-aa91-9cd33c8f655c","system_id":"levelo_inurba_marseille","lat":43.30081,"lon":5.39076,"is_reserved":false,"is_disabled":false,"rental_uris":{"android":"levelo://app?vid=485f36f8-f5b5-4b39-aa91-9cd33c8f655c","ios":"levelo://app?vid=485f36f8-f5b5-4b39-aa91-9cd33c8f655c"},"vehicle_type_id":"4","last_reported":1747163291,"current_range_meters":5600,"station_id":"ce4bh192rcd13ifvqdb0","pricing_plan_id":"cebpf4jnsgd1na2vs0mg"},{"bike_id":"1ecd60b9-7063-44b3-9448-c866f9bd5246","system_id":"levelo_inurba_marseille","lat":43.28713,"lon":5.37393,"is_reserved":false,"is_disabled":false,"rental_uris":{"android":"levelo://app?vid=1ecd60b9-7063-44b3-9448-c866f9bd5246","ios":"levelo://app?vid=1ecd60b9-7063-44b3-9448-c866f9bd5246"},"vehicle_type_id":"4","last_reported":1747163291,"current_range_meters":5600,"station_id":"ce4bh3p2rcd13ifvqdq0","pricing_plan_id":"cebpf4jnsgd1na2vs0mg"},{"bike_id":"3d607c9f-1375-4be5-bfda-42cdfbb9d19a","system_id":"levelo_inurba_marseille","lat":43.29628,"lon":5.40599,"is_reserved":false,"is_disabled":false,"rental_uris":{"android":"levelo://app?vid=3d607c9f-1375-4be5-bfda-42cdfbb9d19a","ios":"levelo://app?vid=3d607c9f-1375-4be5-bfda-42cdfbb9d19a"},"vehicle_type_id":"4","last_reported":1747163291,"current_range_meters":6000,"station_id":"ce4bh0h2rcd13ifvqd60","pricing_plan_id":"cebpf4jnsgd1na2vs0mg"},{"bike_id":"89ddd82c-3336-4643-9289-2889445efdd5","system_id":"levelo_inurba_marseille","lat":43.29417,"lon":5.3862,"is_reserved":false,"is_disabled":false,"rental_uris":{"android":"levelo://app?vid=89ddd82c-3336-4643-9289-2889445efdd5","ios":"levelo://app?vid=89ddd82c-3336-4643-9289-2889445efdd5"},"vehicle_type_id":"4","last_reported":1747163291,"current_range_meters":6000,"station_id":"ce4bh2h2rcd13ifvqdh0","pricing_plan_id":"cebpf4jnsgd1na2vs0mg"},{"bike_id":"764a7013-3fc3-4d32-b171-097f58534232","system_id":"levelo_inurba_marseille","lat":43.28073,"lon":5.39637,"is_reserved":false,"is_disabled":false,"rental_uris":{"android":"levelo://app?vid=764a7013-3fc3-4d32-b171-097f58534232","ios":"levelo://app?vid=764a7013-3fc3-4d32-b171-097f58534232"},"vehicle_type_id":"4","last_reported":1747163291,"current_range_meters":6000,"station_id":"ce4bho12rcd13ifvqh2g","pricing_plan_id":"cebpf4jnsgd1na2vs0mg"},{"bike_id":"388e8245-f37d-4035-8342-45f000e14ae4","system_id":"levelo_inurba_marseille","lat":43.24135,"lon":5.3633,"is_reserved":false,"is_disabled":false,"rental_uris":{"android":"levelo://app?vid=388e8245-f37d-4035-8342-45f000e14ae4","ios":"levelo://app?vid=388e8245-f37d-4035-8342-45f000e14ae4"},"vehicle_type_id":"4","last_reported":1747163291,"current_range_meters":6400,"station_id":"","pricing_plan_id":"cebpf4jnsgd1na2vs0mg"},{"bike_id":"6c7d9900-e095-4226-a039-4ecb32d58d5c","system_id":"levelo_inurba_marseille","lat":43.29902,"lon":5.38134,"is_reserved":false,"is_disabled":false,"rental_uris":{"android":"levelo://app?vid=6c7d9900-e095-4226-a039-4ecb32d58d5c","ios":"levelo://app?vid=6c7d9900-e095-4226-a039-4ecb32d58d5c"},"vehicle_type_id":"4","last_reported":1747163291,"current_range_meters":6400,"station_id":"ce4bgj12rcd13ifvqbc0","pricing_plan_id":"cebpf4jnsgd1na2vs0mg"},{"bike_id":"8e0cc24f-332e-4a86-bf04-d161dd51fac4","system_id":"levelo_inurba_marseille","lat":43.3136,"lon":5.38491,"is_reserved":false,"is_disabled":false,"rental_uris":{"android":"levelo://app?vid=8e0cc24f-332e-4a86-bf04-d161dd51fac4","ios":"levelo://app?vid=8e0cc24f-332e-4a86-bf04-d161dd51fac4"},"vehicle_type_id":"4","last_reported":1747163291,"current_range_meters":6400,"station_id":"ce4bgt92rcd13ifvqcf0","pricing_plan_id":"cebpf4jnsgd1na2vs0mg"},{"bike_id":"64d2553a-cb5d-432b-993b-dacf2e6d3b50","system_id":"levelo_inurba_marseille","lat":43.292134,"lon":5.360559,"is_reserved":false,"is_disabled":false,"rental_uris":{"android":"levelo://app?vid=64d2553a-cb5d-432b-993b-dacf2e6d3b50","ios":"levelo://app?vid=64d2553a-cb5d-432b-993b-dacf2e6d3b50"},"vehicle_type_id":"4","last_reported":1747163291,"current_range_meters":6400,"station_id":"ce4bhbh2rcd13ifvqeqg","pricing_plan_id":"cebpf4jnsgd1na2vs0mg"},{"bike_id":"f4682c72-81b8-4e99-89a6-ab333f238ba4","system_id":"levelo_inurba_marseille","lat":43.23966,"lon":5.36662,"is_reserved":false,"is_disabled":false,"rental_uris":{"android":"levelo://app?vid=f4682c72-81b8-4e99-89a6-ab333f238ba4","ios":"levelo://app?vid=f4682c72-81b8-4e99-89a6-ab333f238ba4"},"vehicle_type_id":"4","last_reported":1747163291,"current_range_meters":6400,"station_id":"ce4bhi12rcd13ifvqfp0","pricing_plan_id":"cebpf4jnsgd1na2vs0mg"},{"bike_id":"46e3e287-a223-4b37-95a1-85c169932846","system_id":"levelo_inurba_marseille","lat":43.278093,"lon":5.40714,"is_reserved":false,"is_disabled":false,"rental_uris":{"android":"levelo://app?vid=46e3e287-a223-4b37-95a1-85c169932846","ios":"levelo://app?vid=46e3e287-a223-4b37-95a1-85c169932846"},"vehicle_type_id":"4","last_reported":1747163291,"current_range_meters":6400,"station_id":"ce4bhnh2rcd13ifvqgtg","pricing_plan_id":"cebpf4jnsgd1na2vs0mg"},{"bike_id":"2826e3a4-114e-4cc1-8035-2507886f4067","system_id":"levelo_inurba_marseille","lat":43.324788,"lon":5.36556,"is_reserved":false,"is_disabled":false,"rental_uris":{"android":"levelo://app?vid=2826e3a4-114e-4cc1-8035-2507886f4067","ios":"levelo://app?vid=2826e3a4-114e-4cc1-8035-2507886f4067"},"vehicle_type_id":"4","last_reported":1747163291,"current_range_meters":6400,"station_id":"ce4bhs12rcd13ifvqhvg","pricing_plan_id":"cebpf4jnsgd1na2vs0mg"},{"bike_id":"6f8dd7ef-13eb-4876-a227-f3db3ef6fe94","system_id":"levelo_inurba_marseille","lat":43.26799,"lon":5.40275,"is_reserved":false,"is_disabled":false,"rental_uris":{"android":"levelo://app?vid=6f8dd7ef-13eb-4876-a227-f3db3ef6fe94","ios":"levelo://app?vid=6f8dd7ef-13eb-4876-a227-f3db3ef6fe94"},"vehicle_type_id":"4","last_reported":1747163291,"current_range_meters":6400,"station_id":"ce501612rcd8frsf0b60","pricing_plan_id":"cebpf4jnsgd1na2vs0mg"},{"bike_id":"45034574-d825-4fd7-a165-1d7c69323510","system_id":"levelo_inurba_marseille","lat":43.29301,"lon":5.37465,"is_reserved":false,"is_disabled":false,"rental_uris":{"android":"levelo://app?vid=45034574-d825-4fd7-a165-1d7c69323510","ios":"levelo://app?vid=45034574-d825-4fd7-a165-1d7c69323510"},"vehicle_type_id":"4","last_reported":1747163291,"current_range_meters":6800,"station_id":"ce4bgi12rcd13ifvqb70","pricing_plan_id":"cebpf4jnsgd1na2vs0mg"},{"bike_id":"4bc7d938-2e32-4905-ae7d-7f45e19cb479","system_id":"levelo_inurba_marseille","lat":43.31115,"lon":5.37791,"is_reserved":false,"is_disabled":false,"rental_uris":{"android":"levelo://app?vid=4bc7d938-2e32-4905-ae7d-7f45e19cb479","ios":"levelo://app?vid=4bc7d938-2e32-4905-ae7d-7f45e19cb479"},"vehicle_type_id":"4","last_reported":1747163291,"current_range_meters":6800,"station_id":"ce4bgt92rcd13ifvqcg0","pricing_plan_id":"cebpf4jnsgd1na2vs0mg"},{"bike_id":"7b98b29f-9624-4fe1-a053-d959bc513d6f","system_id":"levelo_inurba_marseille","lat":43.29279,"lon":5.40122,"is_reserved":false,"is_disabled":false,"rental_uris":{"android":"levelo://app?vid=7b98b29f-9624-4fe1-a053-d959bc513d6f","ios":"levelo://app?vid=7b98b29f-9624-4fe1-a053-d959bc513d6f"},"vehicle_type_id":"4","last_reported":1747163291,"current_range_meters":6800,"station_id":"ce4bh312rcd13ifvqdk0","pricing_plan_id":"cebpf4jnsgd1na2vs0mg"},{"bike_id":"cc22c8cb-d1a0-492b-be55-7c35fd3b519d","system_id":"levelo_inurba_marseille","lat":43.28356,"lon":5.38101,"is_reserved":false,"is_disabled":false,"rental_uris":{"android":"levelo://app?vid=cc22c8cb-d1a0-492b-be55-7c35fd3b519d","ios":"levelo://app?vid=cc22c8cb-d1a0-492b-be55-7c35fd3b519d"},"vehicle_type_id":"4","last_reported":1747163291,"current_range_meters":6800,"station_id":"ce4bh412rcd13ifvqdr0","pricing_plan_id":"cebpf4jnsgd1na2vs0mg"},{"bike_id":"961711a6-3119-4390-94e7-59011161ecab","system_id":"levelo_inurba_marseille","lat":43.28952,"lon":5.36618,"is_reserved":false,"is_disabled":false,"rental_uris":{"android":"levelo://app?vid=961711a6-3119-4390-94e7-59011161ecab","ios":"levelo://app?vid=961711a6-3119-4390-94e7-59011161ecab"},"vehicle_type_id":"4","last_reported":1747163291,"current_range_meters":6800,"station_id":"ce4bhap2rcd13ifvqek0","pricing_plan_id":"cebpf4jnsgd1na2vs0mg"},{"bike_id":"f4f686b9-96ac-4872-9628-82d1c833f2f8","system_id":"levelo_inurba_marseille","lat":43.24661,"lon":5.38165,"is_reserved":false,"is_disabled":false,"rental_uris":{"android":"levelo://app?vid=f4f686b9-96ac-4872-9628-82d1c833f2f8","ios":"levelo://app?vid=f4f686b9-96ac-4872-9628-82d1c833f2f8"},"vehicle_type_id":"4","last_reported":1747163291,"current_range_meters":6800,"station_id":"ce4bhih2rcd13ifvqfr0","pricing_plan_id":"cebpf4jnsgd1na2vs0mg"},{"bike_id":"4a7a989c-172d-4f21-a17f-a1e0e81980c4","system_id":"levelo_inurba_marseille","lat":43.25857,"lon":5.39933,"is_reserved":false,"is_disabled":false,"rental_uris":{"android":"levelo://app?vid=4a7a989c-172d-4f21-a17f-a1e0e81980c4","ios":"levelo://app?vid=4a7a989c-172d-4f21-a17f-a1e0e81980c4"},"vehicle_type_id":"4","last_reported":1747163291,"current_range_meters":6800,"station_id":"ce4bhl92rcd13ifvqghg","pricing_plan_id":"cebpf4jnsgd1na2vs0mg"},{"bike_id":"5e76ef94-dc70-41b5-8ad2-2eb77225e75a","system_id":"levelo_inurba_marseille","lat":43.28084,"lon":5.39656,"is_reserved":false,"is_disabled":false,"rental_uris":{"android":"levelo://app?vid=5e76ef94-dc70-41b5-8ad2-2eb77225e75a","ios":"levelo://app?vid=5e76ef94-dc70-41b5-8ad2-2eb77225e75a"},"vehicle_type_id":"4","last_reported":1747163291,"current_range_meters":6800,"station_id":"ce4bho12rcd13ifvqh2g","pricing_plan_id":"cebpf4jnsgd1na2vs0mg"},{"bike_id":"e00c5e78-4fcd-4675-a0b2-3363516634e7","system_id":"levelo_inurba_marseille","lat":43.22928,"lon":5.35396,"is_reserved":false,"is_disabled":false,"rental_uris":{"android":"levelo://app?vid=e00c5e78-4fcd-4675-a0b2-3363516634e7","ios":"levelo://app?vid=e00c5e78-4fcd-4675-a0b2-3363516634e7"},"vehicle_type_id":"4","last_reported":1747163291,"current_range_meters":6800,"station_id":"cpo3532slgdg3j2ikp40","pricing_plan_id":"cebpf4jnsgd1na2vs0mg"},{"bike_id":"74ce7741-5813-4b25-8268-d773ddb37d17","system_id":"levelo_inurba_marseille","lat":43.30218,"lon":5.45393,"is_reserved":false,"is_disabled":false,"rental_uris":{"android":"levelo://app?vid=74ce7741-5813-4b25-8268-d773ddb37d17","ios":"levelo://app?vid=74ce7741-5813-4b25-8268-d773ddb37d17"},"vehicle_type_id":"4","last_reported":1747163291,"current_range_meters":7200,"station_id":"","pricing_plan_id":"cebpf4jnsgd1na2vs0mg"},{"bike_id":"abe19c7b-dd48-4f23-ad5b-10c07cbeffa6","system_id":"levelo_inurba_marseille","lat":43.29604,"lon":5.37875,"is_reserved":false,"is_disabled":false,"rental_uris":{"android":"levelo://app?vid=abe19c7b-dd48-4f23-ad5b-10c07cbeffa6","ios":"levelo://app?vid=abe19c7b-dd48-4f23-ad5b-10c07cbeffa6"},"vehicle_type_id":"4","last_reported":1747163291,"current_range_meters":7200,"station_id":"","pricing_plan_id":"cebpf4jnsgd1na2vs0mg"},{"bike_id":"66f26d03-8790-404c-ab80-02d5e992d416","system_id":"levelo_inurba_marseille","lat":43.29711,"lon":5.36599,"is_reserved":false,"is_disabled":false,"rental_uris":{"android":"levelo://app?vid=66f26d03-8790-404c-ab80-02d5e992d416","ios":"levelo://app?vid=66f26d03-8790-404c-ab80-02d5e992d416"},"vehicle_type_id":"4","last_reported":1747163291,"current_range_meters":7200,"station_id":"ce4bgn12rcd13ifvqbt0","pricing_plan_id":"cebpf4jnsgd1na2vs0mg"},{"bike_id":"a8d425e3-a212-44f9-81e9-b6bfda02d0d2","system_id":"levelo_inurba_marseille","lat":43.31489,"lon":5.37311,"is_reserved":false,"is_disabled":false,"rental_uris":{"android":"levelo://app?vid=a8d425e3-a212-44f9-81e9-b6bfda02d0d2","ios":"levelo://app?vid=a8d425e3-a212-44f9-81e9-b6bfda02d0d2"},"vehicle_type_id":"4","last_reported":1747163291,"current_range_meters":7200,"station_id":"ce4bgt12rcd13ifvqcd0","pricing_plan_id":"cebpf4jnsgd1na2vs0mg"},{"bike_id":"9f41aefa-9cba-439b-956f-7811d1594b34","system_id":"levelo_inurba_marseille","lat":43.30283,"lon":5.37709,"is_reserved":false,"is_disabled":false,"rental_uris":{"android":"levelo://app?vid=9f41aefa-9cba-439b-956f-7811d1594b34","ios":"levelo://app?vid=9f41aefa-9cba-439b-956f-7811d1594b34"},"vehicle_type_id":"4","last_reported":1747163291,"current_range_meters":7200,"station_id":"ce4bguh2rcd13ifvqcj0","pricing_plan_id":"cebpf4jnsgd1na2vs0mg"},{"bike_id":"7518d924-956f-4b1d-9878-306628ed273b","system_id":"levelo_inurba_marseille","lat":43.29014,"lon":5.38133,"is_reserved":false,"is_disabled":false,"rental_uris":{"android":"levelo://app?vid=7518d924-956f-4b1d-9878-306628ed273b","ios":"levelo://app?vid=7518d924-956f-4b1d-9878-306628ed273b"},"vehicle_type_id":"4","last_reported":1747163291,"current_range_meters":7200,"station_id":"ce4bh4p2rcd13ifvqe1g","pricing_plan_id":"cebpf4jnsgd1na2vs0mg"},{"bike_id":"c7dc3890-26ee-447f-8efa-8fea48056e68","system_id":"levelo_inurba_marseille","lat":43.28714,"lon":5.37949,"is_reserved":false,"is_disabled":false,"rental_uris":{"android":"levelo://app?vid=c7dc3890-26ee-447f-8efa-8fea48056e68","ios":"levelo://app?vid=c7dc3890-26ee-447f-8efa-8fea48056e68"},"vehicle_type_id":"4","last_reported":1747163291,"current_range_meters":7200,"station_id":"ce4bh9p2rcd13ifvqec0","pricing_plan_id":"cebpf4jnsgd1na2vs0mg"},{"bike_id":"6f3ad0e4-c318-476f-b96b-db75f4073b2a","system_id":"levelo_inurba_marseille","lat":43.2511,"lon":5.39499,"is_reserved":false,"is_disabled":false,"rental_uris":{"android":"levelo://app?vid=6f3ad0e4-c318-476f-b96b-db75f4073b2a","ios":"levelo://app?vid=6f3ad0e4-c318-476f-b96b-db75f4073b2a"},"vehicle_type_id":"4","last_reported":1747163291,"current_range_meters":7200,"station_id":"ce4bhm12rcd13ifvqgkg","pricing_plan_id":"cebpf4jnsgd1na2vs0mg"},{"bike_id":"0858c3b1-c02e-4d35-833a-7e4b34b4c2a3","system_id":"levelo_inurba_marseille","lat":43.27809,"lon":5.40703,"is_reserved":false,"is_disabled":false,"rental_uris":{"android":"levelo://app?vid=0858c3b1-c02e-4d35-833a-7e4b34b4c2a3","ios":"levelo://app?vid=0858c3b1-c02e-4d35-833a-7e4b34b4c2a3"},"vehicle_type_id":"4","last_reported":1747163291,"current_range_meters":7200,"station_id":"ce4bhnh2rcd13ifvqgtg","pricing_plan_id":"cebpf4jnsgd1na2vs0mg"},{"bike_id":"b6df1ef4-d5f7-49cc-b6d6-45e21292bd56","system_id":"levelo_inurba_marseille","lat":43.30778,"lon":5.37648,"is_reserved":false,"is_disabled":false,"rental_uris":{"android":"levelo://app?vid=b6df1ef4-d5f7-49cc-b6d6-45e21292bd56","ios":"levelo://app?vid=b6df1ef4-d5f7-49cc-b6d6-45e21292bd56"},"vehicle_type_id":"4","last_reported":1747163291,"current_range_meters":8000,"station_id":"ce4bgv92rcd13ifvqcq0","pricing_plan_id":"cebpf4jnsgd1na2vs0mg"},{"bike_id":"39cfea63-69be-4c15-9996-63b8a17a1527","system_id":"levelo_inurba_marseille","lat":43.24177,"lon":5.39737,"is_reserved":false,"is_disabled":false,"rental_uris":{"android":"levelo://app?vid=39cfea63-69be-4c15-9996-63b8a17a1527","ios":"levelo://app?vid=39cfea63-69be-4c15-9996-63b8a17a1527"},"vehicle_type_id":"4","last_reported":1747163291,"current_range_meters":8000,"station_id":"ce4bhn12rcd13ifvqgpg","pricing_plan_id":"cebpf4jnsgd1na2vs0mg"},{"bike_id":"eb372464-89af-4e54-9c34-57ccd3e8206a","system_id":"levelo_inurba_marseille","lat":43.24805,"lon":5.37453,"is_reserved":false,"is_disabled":false,"rental_uris":{"android":"levelo://app?vid=eb372464-89af-4e54-9c34-57ccd3e8206a","ios":"levelo://app?vid=eb372464-89af-4e54-9c34-57ccd3e8206a"},"vehicle_type_id":"4","last_reported":1747163291,"current_range_meters":8400,"station_id":"ce4bhgh2rcd13ifvqfb0","pricing_plan_id":"cebpf4jnsgd1na2vs0mg"},{"bike_id":"597e7865-b942-4532-81ea-d2c26c4cbf33","system_id":"levelo_inurba_marseille","lat":43.2407,"lon":5.37755,"is_reserved":false,"is_disabled":false,"rental_uris":{"android":"levelo://app?vid=597e7865-b942-4532-81ea-d2c26c4cbf33","ios":"levelo://app?vid=597e7865-b942-4532-81ea-d2c26c4cbf33"},"vehicle_type_id":"4","last_reported":1747163291,"current_range_meters":8400,"station_id":"ce4bhnp2rcd13ifvqgvg","pricing_plan_id":"cebpf4jnsgd1na2vs0mg"},{"bike_id":"93eca9cf-6891-42c1-b960-771552088ac1","system_id":"levelo_inurba_marseille","lat":43.27975,"lon":5.38734,"is_reserved":false,"is_disabled":false,"rental_uris":{"android":"levelo://app?vid=93eca9cf-6891-42c1-b960-771552088ac1","ios":"levelo://app?vid=93eca9cf-6891-42c1-b960-771552088ac1"},"vehicle_type_id":"4","last_reported":1747163291,"current_range_meters":8800,"station_id":"ce4bhg12rcd13ifvqf80","pricing_plan_id":"cebpf4jnsgd1na2vs0mg"},{"bike_id":"54cd888b-3c4f-4246-9e80-c294f2a7fa5c","system_id":"levelo_inurba_marseille","lat":43.24065,"lon":5.37761,"is_reserved":false,"is_disabled":false,"rental_uris":{"android":"levelo://app?vid=54cd888b-3c4f-4246-9e80-c294f2a7fa5c","ios":"levelo://app?vid=54cd888b-3c4f-4246-9e80-c294f2a7fa5c"},"vehicle_type_id":"4","last_reported":1747163291,"current_range_meters":8800,"station_id":"ce4bhnp2rcd13ifvqgvg","pricing_plan_id":"cebpf4jnsgd1na2vs0mg"},{"bike_id":"127f6762-1f70-43ae-8938-79f5184b1ee2","system_id":"levelo_inurba_marseille","lat":43.24076,"lon":5.37741,"is_reserved":false,"is_disabled":false,"rental_uris":{"android":"levelo://app?vid=127f6762-1f70-43ae-8938-79f5184b1ee2","ios":"levelo://app?vid=127f6762-1f70-43ae-8938-79f5184b1ee2"},"vehicle_type_id":"4","last_reported":1747163291,"current_range_meters":8800,"station_id":"ce4bhnp2rcd13ifvqgvg","pricing_plan_id":"cebpf4jnsgd1na2vs0mg"},{"bike_id":"ca910da3-84e3-4450-8604-8f2033f65a08","system_id":"levelo_inurba_marseille","lat":43.27952,"lon":5.38696,"is_reserved":false,"is_disabled":false,"rental_uris":{"android":"levelo://app?vid=ca910da3-84e3-4450-8604-8f2033f65a08","ios":"levelo://app?vid=ca910da3-84e3-4450-8604-8f2033f65a08"},"vehicle_type_id":"4","last_reported":1747163291,"current_range_meters":9200,"station_id":"ce4bhg12rcd13ifvqf80","pricing_plan_id":"cebpf4jnsgd1na2vs0mg"},{"bike_id":"df256e8b-0f32-4ca0-a063-4d9f5238874e","system_id":"levelo_inurba_marseille","lat":43.24679,"lon":5.38151,"is_reserved":false,"is_disabled":false,"rental_uris":{"android":"levelo://app?vid=df256e8b-0f32-4ca0-a063-4d9f5238874e","ios":"levelo://app?vid=df256e8b-0f32-4ca0-a063-4d9f5238874e"},"vehicle_type_id":"4","last_reported":1747163291,"current_range_meters":9200,"station_id":"ce4bhih2rcd13ifvqfr0","pricing_plan_id":"cebpf4jnsgd1na2vs0mg"},{"bike_id":"7c13f8a4-e666-45eb-8260-f9a98186a9f7","system_id":"levelo_inurba_marseille","lat":43.24546,"lon":5.39523,"is_reserved":false,"is_disabled":false,"rental_uris":{"android":"levelo://app?vid=7c13f8a4-e666-45eb-8260-f9a98186a9f7","ios":"levelo://app?vid=7c13f8a4-e666-45eb-8260-f9a98186a9f7"},"vehicle_type_id":"4","last_reported":1747163291,"current_range_meters":9200,"station_id":"ce4bhlp2rcd13ifvqgjg","pricing_plan_id":"cebpf4jnsgd1na2vs0mg"},{"bike_id":"0e89a721-196d-4572-b905-e39e1dafff7a","system_id":"levelo_inurba_marseille","lat":43.32115,"lon":5.36785,"is_reserved":false,"is_disabled":false,"rental_uris":{"android":"levelo://app?vid=0e89a721-196d-4572-b905-e39e1dafff7a","ios":"levelo://app?vid=0e89a721-196d-4572-b905-e39e1dafff7a"},"vehicle_type_id":"4","last_reported":1747163291,"current_range_meters":9200,"station_id":"ce4bhrh2rcd13ifvqhug","pricing_plan_id":"cebpf4jnsgd1na2vs0mg"},{"bike_id":"70e82c3a-c6e7-4d90-a72f-7956cf689437","system_id":"levelo_inurba_marseille","lat":43.30648,"lon":5.40096,"is_reserved":false,"is_disabled":false,"rental_uris":{"android":"levelo://app?vid=70e82c3a-c6e7-4d90-a72f-7956cf689437","ios":"levelo://app?vid=70e82c3a-c6e7-4d90-a72f-7956cf689437"},"vehicle_type_id":"4","last_reported":1747163291,"current_range_meters":10000,"station_id":"ce4bh112rcd13ifvqda0","pricing_plan_id":"cebpf4jnsgd1na2vs0mg"},{"bike_id":"593f53a5-0277-422b-a3ba-5f8bbeae3110","system_id":"levelo_inurba_marseille","lat":43.29262,"lon":5.38443,"is_reserved":false,"is_disabled":false,"rental_uris":{"android":"levelo://app?vid=593f53a5-0277-422b-a3ba-5f8bbeae3110","ios":"levelo://app?vid=593f53a5-0277-422b-a3ba-5f8bbeae3110"},"vehicle_type_id":"4","last_reported":1747163291,"current_range_meters":10000,"station_id":"ce4bh692rcd13ifvqea0","pricing_plan_id":"cebpf4jnsgd1na2vs0mg"},{"bike_id":"8b61e81f-5006-4db5-ba5a-6e63d900ab7e","system_id":"levelo_inurba_marseille","lat":43.29262,"lon":5.38443,"is_reserved":false,"is_disabled":false,"rental_uris":{"android":"levelo://app?vid=8b61e81f-5006-4db5-ba5a-6e63d900ab7e","ios":"levelo://app?vid=8b61e81f-5006-4db5-ba5a-6e63d900ab7e"},"vehicle_type_id":"4","last_reported":1747163291,"current_range_meters":10000,"station_id":"ce4bh692rcd13ifvqea0","pricing_plan_id":"cebpf4jnsgd1na2vs0mg"},{"bike_id":"f8320312-c123-44bc-af5f-39c4cd44b7d2","system_id":"levelo_inurba_marseille","lat":43.28721,"lon":5.37942,"is_reserved":false,"is_disabled":false,"rental_uris":{"android":"levelo://app?vid=f8320312-c123-44bc-af5f-39c4cd44b7d2","ios":"levelo://app?vid=f8320312-c123-44bc-af5f-39c4cd44b7d2"},"vehicle_type_id":"4","last_reported":1747163291,"current_range_meters":10000,"station_id":"ce4bh9p2rcd13ifvqec0","pricing_plan_id":"cebpf4jnsgd1na2vs0mg"},{"bike_id":"1466ea0a-656f-485b-939a-7c9e9c76ce64","system_id":"levelo_inurba_marseille","lat":43.320802,"lon":5.407438,"is_reserved":false,"is_disabled":false,"rental_uris":{"android":"levelo://app?vid=1466ea0a-656f-485b-939a-7c9e9c76ce64","ios":"levelo://app?vid=1466ea0a-656f-485b-939a-7c9e9c76ce64"},"vehicle_type_id":"4","last_reported":1747163291,"current_range_meters":10000,"station_id":"ce4bhq12rcd13ifvqhig","pricing_plan_id":"cebpf4jnsgd1na2vs0mg"},{"bike_id":"bd7f48b5-122d-4623-b8e5-1b0c5a029f53","system_id":"levelo_inurba_marseille","lat":43.31754,"lon":5.3902,"is_reserved":false,"is_disabled":false,"rental_uris":{"android":"levelo://app?vid=bd7f48b5-122d-4623-b8e5-1b0c5a029f53","ios":"levelo://app?vid=bd7f48b5-122d-4623-b8e5-1b0c5a029f53"},"vehicle_type_id":"4","last_reported":1747163291,"current_range_meters":10000,"station_id":"ce4bhqp2rcd13ifvqhng","pricing_plan_id":"cebpf4jnsgd1na2vs0mg"},{"bike_id":"5c8b9c5b-5c2a-483e-865d-ae36047d40b5","system_id":"levelo_inurba_marseille","lat":43.30011,"lon":5.47698,"is_reserved":false,"is_disabled":false,"rental_uris":{"android":"levelo://app?vid=5c8b9c5b-5c2a-483e-865d-ae36047d40b5","ios":"levelo://app?vid=5c8b9c5b-5c2a-483e-865d-ae36047d40b5"},"vehicle_type_id":"4","last_reported":1747163291,"current_range_meters":10800,"station_id":"","pricing_plan_id":"cebpf4jnsgd1na2vs0mg"},{"bike_id":"892bebb2-6f8a-41df-a39b-3087e237511b","system_id":"levelo_inurba_marseille","lat":43.296285,"lon":5.37154,"is_reserved":false,"is_disabled":false,"rental_uris":{"android":"levelo://app?vid=892bebb2-6f8a-41df-a39b-3087e237511b","ios":"levelo://app?vid=892bebb2-6f8a-41df-a39b-3087e237511b"},"vehicle_type_id":"4","last_reported":1747163291,"current_range_meters":10800,"station_id":"ce4bgnh2rcd13ifvqc0g","pricing_plan_id":"cebpf4jnsgd1na2vs0mg"},{"bike_id":"62defd1b-522e-468d-9d39-32c4576d0108","system_id":"levelo_inurba_marseille","lat":43.30647,"lon":5.40105,"is_reserved":false,"is_disabled":false,"rental_uris":{"android":"levelo://app?vid=62defd1b-522e-468d-9d39-32c4576d0108","ios":"levelo://app?vid=62defd1b-522e-468d-9d39-32c4576d0108"},"vehicle_type_id":"4","last_reported":1747163291,"current_range_meters":10800,"station_id":"ce4bh112rcd13ifvqda0","pricing_plan_id":"cebpf4jnsgd1na2vs0mg"},{"bike_id":"49a5f454-00ee-4b17-84b8-175848e72351","system_id":"levelo_inurba_marseille","lat":43.30662,"lon":5.40067,"is_reserved":false,"is_disabled":false,"rental_uris":{"android":"levelo://app?vid=49a5f454-00ee-4b17-84b8-175848e72351","ios":"levelo://app?vid=49a5f454-00ee-4b17-84b8-175848e72351"},"vehicle_type_id":"4","last_reported":1747163291,"current_range_meters":10800,"station_id":"ce4bh112rcd13ifvqda0","pricing_plan_id":"cebpf4jnsgd1na2vs0mg"},{"bike_id":"a4cc5d03-eca3-417a-9499-7f5743bd2e43","system_id":"levelo_inurba_marseille","lat":43.2869,"lon":5.37405,"is_reserved":false,"is_disabled":false,"rental_uris":{"android":"levelo://app?vid=a4cc5d03-eca3-417a-9499-7f5743bd2e43","ios":"levelo://app?vid=a4cc5d03-eca3-417a-9499-7f5743bd2e43"},"vehicle_type_id":"4","last_reported":1747163291,"current_range_meters":10800,"station_id":"ce4bh3p2rcd13ifvqdq0","pricing_plan_id":"cebpf4jnsgd1na2vs0mg"},{"bike_id":"4e789f00-36a4-4729-9eca-6ee68cde0914","system_id":"levelo_inurba_marseille","lat":43.286639,"lon":5.363533,"is_reserved":false,"is_disabled":false,"rental_uris":{"android":"levelo://app?vid=4e789f00-36a4-4729-9eca-6ee68cde0914","ios":"levelo://app?vid=4e789f00-36a4-4729-9eca-6ee68cde0914"},"vehicle_type_id":"4","last_reported":1747163291,"current_range_meters":10800,"station_id":"ce4bhah2rcd13ifvqej0","pricing_plan_id":"cebpf4jnsgd1na2vs0mg"},{"bike_id":"dcf6517a-4b20-4e38-8d0e-35fe45a31f02","system_id":"levelo_inurba_marseille","lat":43.30544,"lon":5.38409,"is_reserved":false,"is_disabled":false,"rental_uris":{"android":"levelo://app?vid=dcf6517a-4b20-4e38-8d0e-35fe45a31f02","ios":"levelo://app?vid=dcf6517a-4b20-4e38-8d0e-35fe45a31f02"},"vehicle_type_id":"4","last_reported":1747163291,"current_range_meters":11200,"station_id":"","pricing_plan_id":"cebpf4jnsgd1na2vs0mg"},{"bike_id":"bae0709b-c933-441a-ab47-3aad58f66d78","system_id":"levelo_inurba_marseille","lat":43.21756,"lon":5.34594,"is_reserved":false,"is_disabled":false,"rental_uris":{"android":"levelo://app?vid=bae0709b-c933-441a-ab47-3aad58f66d78","ios":"levelo://app?vid=bae0709b-c933-441a-ab47-3aad58f66d78"},"vehicle_type_id":"4","last_reported":1747163291,"current_range_meters":11200,"station_id":"st_cvj6r9ubvosntc0bgbag","pricing_plan_id":"cebpf4jnsgd1na2vs0mg"},{"bike_id":"cde7d9a8-6ad6-4020-b966-2bba503b5056","system_id":"levelo_inurba_marseille","lat":43.2962,"lon":5.37711,"is_reserved":false,"is_disabled":false,"rental_uris":{"android":"levelo://app?vid=cde7d9a8-6ad6-4020-b966-2bba503b5056","ios":"levelo://app?vid=cde7d9a8-6ad6-4020-b966-2bba503b5056"},"vehicle_type_id":"4","last_reported":1747163291,"current_range_meters":11600,"station_id":"ce4bgi92rcd13ifvqb90","pricing_plan_id":"cebpf4jnsgd1na2vs0mg"},{"bike_id":"0d71b837-1a7c-41fb-98cc-8250dda6aa28","system_id":"levelo_inurba_marseille","lat":43.299744,"lon":5.384808,"is_reserved":false,"is_disabled":false,"rental_uris":{"android":"levelo://app?vid=0d71b837-1a7c-41fb-98cc-8250dda6aa28","ios":"levelo://app?vid=0d71b837-1a7c-41fb-98cc-8250dda6aa28"},"vehicle_type_id":"4","last_reported":1747163291,"current_range_meters":11600,"station_id":"ce4bgj92rcd13ifvqbd0","pricing_plan_id":"cebpf4jnsgd1na2vs0mg"},{"bike_id":"761bc65a-c0b6-4b9f-a442-3455b875d35e","system_id":"levelo_inurba_marseille","lat":43.29978,"lon":5.37163,"is_reserved":false,"is_disabled":false,"rental_uris":{"android":"levelo://app?vid=761bc65a-c0b6-4b9f-a442-3455b875d35e","ios":"levelo://app?vid=761bc65a-c0b6-4b9f-a442-3455b875d35e"},"vehicle_type_id":"4","last_reported":1747163291,"current_range_meters":11600,"station_id":"ce4bgr92rcd13ifvqc7g","pricing_plan_id":"cebpf4jnsgd1na2vs0mg"},{"bike_id":"a7e52e55-b4ee-4b5a-a85f-03ae38450bc6","system_id":"levelo_inurba_marseille","lat":43.29094,"lon":5.38135,"is_reserved":false,"is_disabled":false,"rental_uris":{"android":"levelo://app?vid=a7e52e55-b4ee-4b5a-a85f-03ae38450bc6","ios":"levelo://app?vid=a7e52e55-b4ee-4b5a-a85f-03ae38450bc6"},"vehicle_type_id":"4","last_reported":1747163291,"current_range_meters":11600,"station_id":"ce4bh512rcd13ifvqe2g","pricing_plan_id":"cebpf4jnsgd1na2vs0mg"},{"bike_id":"25f3bab0-22c1-4398-8433-b56442d95f44","system_id":"levelo_inurba_marseille","lat":43.30137,"lon":5.3879,"is_reserved":false,"is_disabled":false,"rental_uris":{"android":"levelo://app?vid=25f3bab0-22c1-4398-8433-b56442d95f44","ios":"levelo://app?vid=25f3bab0-22c1-4398-8433-b56442d95f44"},"vehicle_type_id":"4","last_reported":1747163291,"current_range_meters":12000,"station_id":"ce4bghh2rcd13ifvqb60","pricing_plan_id":"cebpf4jnsgd1na2vs0mg"},{"bike_id":"a2f6f2dc-11b8-4302-90c7-82aba71c7b7a","system_id":"levelo_inurba_marseille","lat":43.30791,"lon":5.38183,"is_reserved":false,"is_disabled":false,"rental_uris":{"android":"levelo://app?vid=a2f6f2dc-11b8-4302-90c7-82aba71c7b7a","ios":"levelo://app?vid=a2f6f2dc-11b8-4302-90c7-82aba71c7b7a"},"vehicle_type_id":"4","last_reported":1747163291,"current_range_meters":12000,"station_id":"ce4bgt12rcd13ifvqce0","pricing_plan_id":"cebpf4jnsgd1na2vs0mg"},{"bike_id":"a305ff07-d642-4169-9e0e-1133b6af311d","system_id":"levelo_inurba_marseille","lat":43.28857,"lon":5.39306,"is_reserved":false,"is_disabled":false,"rental_uris":{"android":"levelo://app?vid=a305ff07-d642-4169-9e0e-1133b6af311d","ios":"levelo://app?vid=a305ff07-d642-4169-9e0e-1133b6af311d"},"vehicle_type_id":"4","last_reported":1747163291,"current_range_meters":12000,"station_id":"ce4bh2p2rcd13ifvqdi0","pricing_plan_id":"cebpf4jnsgd1na2vs0mg"},{"bike_id":"29271a7c-a480-466c-85b1-3e86e53b0dcf","system_id":"levelo_inurba_marseille","lat":43.28723,"lon":5.37945,"is_reserved":false,"is_disabled":false,"rental_uris":{"android":"levelo://app?vid=29271a7c-a480-466c-85b1-3e86e53b0dcf","ios":"levelo://app?vid=29271a7c-a480-466c-85b1-3e86e53b0dcf"},"vehicle_type_id":"4","last_reported":1747163291,"current_range_meters":12000,"station_id":"ce4bh9p2rcd13ifvqec0","pricing_plan_id":"cebpf4jnsgd1na2vs0mg"},{"bike_id":"f992a421-1974-43d2-890b-13f18604b31c","system_id":"levelo_inurba_marseille","lat":43.24643,"lon":5.38906,"is_reserved":false,"is_disabled":false,"rental_uris":{"android":"levelo://app?vid=f992a421-1974-43d2-890b-13f18604b31c","ios":"levelo://app?vid=f992a421-1974-43d2-890b-13f18604b31c"},"vehicle_type_id":"4","last_reported":1747163291,"current_range_meters":12000,"station_id":"ce4bhg12rcd13ifvqf60","pricing_plan_id":"cebpf4jnsgd1na2vs0mg"},{"bike_id":"4821750a-72fd-4a71-957e-987850a371e2","system_id":"levelo_inurba_marseille","lat":43.3011,"lon":5.47589,"is_reserved":false,"is_disabled":false,"rental_uris":{"android":"levelo://app?vid=4821750a-72fd-4a71-957e-987850a371e2","ios":"levelo://app?vid=4821750a-72fd-4a71-957e-987850a371e2"},"vehicle_type_id":"4","last_reported":1747163291,"current_range_meters":12400,"station_id":"","pricing_plan_id":"cebpf4jnsgd1na2vs0mg"},{"bike_id":"83119d09-9efb-429c-b5b9-f2163d6f4389","system_id":"levelo_inurba_marseille","lat":43.310733,"lon":5.383543,"is_reserved":false,"is_disabled":false,"rental_uris":{"android":"levelo://app?vid=83119d09-9efb-429c-b5b9-f2163d6f4389","ios":"levelo://app?vid=83119d09-9efb-429c-b5b9-f2163d6f4389"},"vehicle_type_id":"4","last_reported":1747163291,"current_range_meters":12400,"station_id":"ce4bgv92rcd13ifvqcr0","pricing_plan_id":"cebpf4jnsgd1na2vs0mg"},{"bike_id":"efefba7d-9a8f-4252-9bb1-3f66c7f2fb60","system_id":"levelo_inurba_marseille","lat":43.287,"lon":5.37392,"is_reserved":false,"is_disabled":false,"rental_uris":{"android":"levelo://app?vid=efefba7d-9a8f-4252-9bb1-3f66c7f2fb60","ios":"levelo://app?vid=efefba7d-9a8f-4252-9bb1-3f66c7f2fb60"},"vehicle_type_id":"4","last_reported":1747163291,"current_range_meters":12400,"station_id":"ce4bh3p2rcd13ifvqdq0","pricing_plan_id":"cebpf4jnsgd1na2vs0mg"},{"bike_id":"63582912-f314-437d-bdb9-8991ea5c92a6","system_id":"levelo_inurba_marseille","lat":43.24646,"lon":5.38896,"is_reserved":false,"is_disabled":false,"rental_uris":{"android":"levelo://app?vid=63582912-f314-437d-bdb9-8991ea5c92a6","ios":"levelo://app?vid=63582912-f314-437d-bdb9-8991ea5c92a6"},"vehicle_type_id":"4","last_reported":1747163291,"current_range_meters":12400,"station_id":"ce4bhg12rcd13ifvqf60","pricing_plan_id":"cebpf4jnsgd1na2vs0mg"},{"bike_id":"d559a899-b1bd-4a71-a12e-4458bcd0cdbf","system_id":"levelo_inurba_marseille","lat":43.23063,"lon":5.35494,"is_reserved":false,"is_disabled":false,"rental_uris":{"android":"levelo://app?vid=d559a899-b1bd-4a71-a12e-4458bcd0cdbf","ios":"levelo://app?vid=d559a899-b1bd-4a71-a12e-4458bcd0cdbf"},"vehicle_type_id":"4","last_reported":1747163291,"current_range_meters":12400,"station_id":"cpo3342slgdg3j2ifvpg","pricing_plan_id":"cebpf4jnsgd1na2vs0mg"},{"bike_id":"38673755-e780-4e66-b08e-fc0654035736","system_id":"levelo_inurba_marseille","lat":43.2953,"lon":5.38539,"is_reserved":false,"is_disabled":false,"rental_uris":{"android":"levelo://app?vid=38673755-e780-4e66-b08e-fc0654035736","ios":"levelo://app?vid=38673755-e780-4e66-b08e-fc0654035736"},"vehicle_type_id":"4","last_reported":1747163291,"current_range_meters":12800,"station_id":"ce4bgih2rcd13ifvqba0","pricing_plan_id":"cebpf4jnsgd1na2vs0mg"},{"bike_id":"36cb6453-adc3-4182-a509-9a6054415a2e","system_id":"levelo_inurba_marseille","lat":43.31174,"lon":5.38711,"is_reserved":false,"is_disabled":false,"rental_uris":{"android":"levelo://app?vid=36cb6453-adc3-4182-a509-9a6054415a2e","ios":"levelo://app?vid=36cb6453-adc3-4182-a509-9a6054415a2e"},"vehicle_type_id":"4","last_reported":1747163291,"current_range_meters":12800,"station_id":"ce4bgv12rcd13ifvqcp0","pricing_plan_id":"cebpf4jnsgd1na2vs0mg"},{"bike_id":"11e495cb-e2b0-4615-bc23-02982335ed54","system_id":"levelo_inurba_marseille","lat":43.25088,"lon":5.39499,"is_reserved":false,"is_disabled":false,"rental_uris":{"android":"levelo://app?vid=11e495cb-e2b0-4615-bc23-02982335ed54","ios":"levelo://app?vid=11e495cb-e2b0-4615-bc23-02982335ed54"},"vehicle_type_id":"4","last_reported":1747163291,"current_range_meters":12800,"station_id":"ce4bhm12rcd13ifvqgkg","pricing_plan_id":"cebpf4jnsgd1na2vs0mg"},{"bike_id":"29ca8818-f2ee-47ec-a332-2860bcc2fb2a","system_id":"levelo_inurba_marseille","lat":43.23187,"lon":5.35558,"is_reserved":false,"is_disabled":false,"rental_uris":{"android":"levelo://app?vid=29ca8818-f2ee-47ec-a332-2860bcc2fb2a","ios":"levelo://app?vid=29ca8818-f2ee-47ec-a332-2860bcc2fb2a"},"vehicle_type_id":"4","last_reported":1747163291,"current_range_meters":12800,"station_id":"ce4bhu92rcd13ifvqi70","pricing_plan_id":"cebpf4jnsgd1na2vs0mg"},{"bike_id":"41c21f15-c508-4f4f-9bad-29c43003e8c2","system_id":"levelo_inurba_marseille","lat":43.2873,"lon":5.36088,"is_reserved":false,"is_disabled":false,"rental_uris":{"android":"levelo://app?vid=41c21f15-c508-4f4f-9bad-29c43003e8c2","ios":"levelo://app?vid=41c21f15-c508-4f4f-9bad-29c43003e8c2"},"vehicle_type_id":"4","last_reported":1747163291,"current_range_meters":12800,"station_id":"cki0cbj6b192h4jlfktg","pricing_plan_id":"cebpf4jnsgd1na2vs0mg"},{"bike_id":"1d20e017-def5-4e15-a5bb-41e482b6d860","system_id":"levelo_inurba_marseille","lat":43.29613,"lon":5.37711,"is_reserved":false,"is_disabled":false,"rental_uris":{"android":"levelo://app?vid=1d20e017-def5-4e15-a5bb-41e482b6d860","ios":"levelo://app?vid=1d20e017-def5-4e15-a5bb-41e482b6d860"},"vehicle_type_id":"4","last_reported":1747163291,"current_range_meters":13600,"station_id":"ce4bgi92rcd13ifvqb90","pricing_plan_id":"cebpf4jnsgd1na2vs0mg"},{"bike_id":"ffc6879f-a245-4d68-a699-afc6cc6c2490","system_id":"levelo_inurba_marseille","lat":43.30321,"lon":5.40432,"is_reserved":false,"is_disabled":false,"rental_uris":{"android":"levelo://app?vid=ffc6879f-a245-4d68-a699-afc6cc6c2490","ios":"levelo://app?vid=ffc6879f-a245-4d68-a699-afc6cc6c2490"},"vehicle_type_id":"4","last_reported":1747163291,"current_range_meters":13600,"station_id":"ce4bh012rcd13ifvqd10","pricing_plan_id":"cebpf4jnsgd1na2vs0mg"},{"bike_id":"0a937b37-2a73-4b79-bebe-c5952c78432f","system_id":"levelo_inurba_marseille","lat":43.286175,"lon":5.35101,"is_reserved":false,"is_disabled":false,"rental_uris":{"android":"levelo://app?vid=0a937b37-2a73-4b79-bebe-c5952c78432f","ios":"levelo://app?vid=0a937b37-2a73-4b79-bebe-c5952c78432f"},"vehicle_type_id":"4","last_reported":1747163291,"current_range_meters":13600,"station_id":"ce4bhch2rcd13ifvqeug","pricing_plan_id":"cebpf4jnsgd1na2vs0mg"},{"bike_id":"74d92721-fd5a-4fcb-b2ba-9f1b02fe0e9f","system_id":"levelo_inurba_marseille","lat":43.26058,"lon":5.39404,"is_reserved":false,"is_disabled":false,"rental_uris":{"android":"levelo://app?vid=74d92721-fd5a-4fcb-b2ba-9f1b02fe0e9f","ios":"levelo://app?vid=74d92721-fd5a-4fcb-b2ba-9f1b02fe0e9f"},"vehicle_type_id":"4","last_reported":1747163291,"current_range_meters":13600,"station_id":"ce4bhh92rcd13ifvqfj0","pricing_plan_id":"cebpf4jnsgd1na2vs0mg"},{"bike_id":"7a0d3db7-e6fa-4dcd-9346-4ca0cef0f399","system_id":"levelo_inurba_marseille","lat":43.26808,"lon":5.40277,"is_reserved":false,"is_disabled":false,"rental_uris":{"android":"levelo://app?vid=7a0d3db7-e6fa-4dcd-9346-4ca0cef0f399","ios":"levelo://app?vid=7a0d3db7-e6fa-4dcd-9346-4ca0cef0f399"},"vehicle_type_id":"4","last_reported":1747163291,"current_range_meters":13600,"station_id":"ce501612rcd8frsf0b60","pricing_plan_id":"cebpf4jnsgd1na2vs0mg"},{"bike_id":"7d8a940b-fa41-48ed-bc64-d4da3160240b","system_id":"levelo_inurba_marseille","lat":43.30808,"lon":5.37934,"is_reserved":false,"is_disabled":false,"rental_uris":{"android":"levelo://app?vid=7d8a940b-fa41-48ed-bc64-d4da3160240b","ios":"levelo://app?vid=7d8a940b-fa41-48ed-bc64-d4da3160240b"},"vehicle_type_id":"4","last_reported":1747163291,"current_range_meters":14000,"station_id":"","pricing_plan_id":"cebpf4jnsgd1na2vs0mg"},{"bike_id":"382da604-28cd-407b-adb2-1bed2bb48c46","system_id":"levelo_inurba_marseille","lat":43.32343,"lon":5.38536,"is_reserved":false,"is_disabled":false,"rental_uris":{"android":"levelo://app?vid=382da604-28cd-407b-adb2-1bed2bb48c46","ios":"levelo://app?vid=382da604-28cd-407b-adb2-1bed2bb48c46"},"vehicle_type_id":"4","last_reported":1747163291,"current_range_meters":14000,"station_id":"","pricing_plan_id":"cebpf4jnsgd1na2vs0mg"},{"bike_id":"62c66333-297d-4ccc-a128-291f42431e09","system_id":"levelo_inurba_marseille","lat":43.29798,"lon":5.38097,"is_reserved":false,"is_disabled":false,"rental_uris":{"android":"levelo://app?vid=62c66333-297d-4ccc-a128-291f42431e09","ios":"levelo://app?vid=62c66333-297d-4ccc-a128-291f42431e09"},"vehicle_type_id":"4","last_reported":1747163291,"current_range_meters":14000,"station_id":"ce4bgip2rcd13ifvqbb0","pricing_plan_id":"cebpf4jnsgd1na2vs0mg"},{"bike_id":"3c8f54b8-19b8-4042-8b6d-9cabeab6592a","system_id":"levelo_inurba_marseille","lat":43.296326,"lon":5.405992,"is_reserved":false,"is_disabled":false,"rental_uris":{"android":"levelo://app?vid=3c8f54b8-19b8-4042-8b6d-9cabeab6592a","ios":"levelo://app?vid=3c8f54b8-19b8-4042-8b6d-9cabeab6592a"},"vehicle_type_id":"4","last_reported":1747163291,"current_range_meters":14000,"station_id":"ce4bh0h2rcd13ifvqd60","pricing_plan_id":"cebpf4jnsgd1na2vs0mg"},{"bike_id":"c5342b03-3186-4ad3-887e-5013dacfa8d3","system_id":"levelo_inurba_marseille","lat":43.324743,"lon":5.36565,"is_reserved":false,"is_disabled":false,"rental_uris":{"android":"levelo://app?vid=c5342b03-3186-4ad3-887e-5013dacfa8d3","ios":"levelo://app?vid=c5342b03-3186-4ad3-887e-5013dacfa8d3"},"vehicle_type_id":"4","last_reported":1747163291,"current_range_meters":14000,"station_id":"ce4bhs12rcd13ifvqhvg","pricing_plan_id":"cebpf4jnsgd1na2vs0mg"},{"bike_id":"7f08f54f-6223-4502-9216-b090bc5beb53","system_id":"levelo_inurba_marseille","lat":43.28657,"lon":5.3635,"is_reserved":false,"is_disabled":false,"rental_uris":{"android":"levelo://app?vid=7f08f54f-6223-4502-9216-b090bc5beb53","ios":"levelo://app?vid=7f08f54f-6223-4502-9216-b090bc5beb53"},"vehicle_type_id":"4","last_reported":1747163291,"current_range_meters":14400,"station_id":"ce4bhah2rcd13ifvqej0","pricing_plan_id":"cebpf4jnsgd1na2vs0mg"},{"bike_id":"ee95d7b1-23aa-4ba2-8604-c3c7e16b2172","system_id":"levelo_inurba_marseille","lat":43.28916,"lon":5.36647,"is_reserved":false,"is_disabled":false,"rental_uris":{"android":"levelo://app?vid=ee95d7b1-23aa-4ba2-8604-c3c7e16b2172","ios":"levelo://app?vid=ee95d7b1-23aa-4ba2-8604-c3c7e16b2172"},"vehicle_type_id":"4","last_reported":1747163291,"current_range_meters":14400,"station_id":"ce4bhap2rcd13ifvqek0","pricing_plan_id":"cebpf4jnsgd1na2vs0mg"},{"bike_id":"b0242bf4-b83b-4d62-aa3e-64266801fbe9","system_id":"levelo_inurba_marseille","lat":43.31083,"lon":5.424356,"is_reserved":false,"is_disabled":false,"rental_uris":{"android":"levelo://app?vid=b0242bf4-b83b-4d62-aa3e-64266801fbe9","ios":"levelo://app?vid=b0242bf4-b83b-4d62-aa3e-64266801fbe9"},"vehicle_type_id":"4","last_reported":1747163291,"current_range_meters":14400,"station_id":"ce4bhp92rcd13ifvqhag","pricing_plan_id":"cebpf4jnsgd1na2vs0mg"},{"bike_id":"ddaa999c-b039-42a8-840e-d56af82334f9","system_id":"levelo_inurba_marseille","lat":43.29586,"lon":5.36738,"is_reserved":false,"is_disabled":false,"rental_uris":{"android":"levelo://app?vid=ddaa999c-b039-42a8-840e-d56af82334f9","ios":"levelo://app?vid=ddaa999c-b039-42a8-840e-d56af82334f9"},"vehicle_type_id":"4","last_reported":1747163291,"current_range_meters":14800,"station_id":"","pricing_plan_id":"cebpf4jnsgd1na2vs0mg"},{"bike_id":"b1277f31-a20c-4ab2-98a9-27408606ea33","system_id":"levelo_inurba_marseille","lat":43.29602,"lon":5.37725,"is_reserved":false,"is_disabled":false,"rental_uris":{"android":"levelo://app?vid=b1277f31-a20c-4ab2-98a9-27408606ea33","ios":"levelo://app?vid=b1277f31-a20c-4ab2-98a9-27408606ea33"},"vehicle_type_id":"4","last_reported":1747163291,"current_range_meters":14800,"station_id":"ce4bgi92rcd13ifvqb90","pricing_plan_id":"cebpf4jnsgd1na2vs0mg"},{"bike_id":"fa208e2c-3577-4fd4-b6cc-937e4266aa1b","system_id":"levelo_inurba_marseille","lat":43.30436,"lon":5.38889,"is_reserved":false,"is_disabled":false,"rental_uris":{"android":"levelo://app?vid=fa208e2c-3577-4fd4-b6cc-937e4266aa1b","ios":"levelo://app?vid=fa208e2c-3577-4fd4-b6cc-937e4266aa1b"},"vehicle_type_id":"4","last_reported":1747163291,"current_range_meters":14800,"station_id":"ce4bgk12rcd13ifvqbi0","pricing_plan_id":"cebpf4jnsgd1na2vs0mg"},{"bike_id":"f95a8cf0-19b0-49ef-b26c-b1d871b2d8ea","system_id":"levelo_inurba_marseille","lat":43.310652,"lon":5.378585,"is_reserved":false,"is_disabled":false,"rental_uris":{"android":"levelo://app?vid=f95a8cf0-19b0-49ef-b26c-b1d871b2d8ea","ios":"levelo://app?vid=f95a8cf0-19b0-49ef-b26c-b1d871b2d8ea"},"vehicle_type_id":"4","last_reported":1747163291,"current_range_meters":14800,"station_id":"ce4bgt92rcd13ifvqcg0","pricing_plan_id":"cebpf4jnsgd1na2vs0mg"},{"bike_id":"2ba0623b-4622-42be-a11a-f4b8c0d5bd41","system_id":"levelo_inurba_marseille","lat":43.29273,"lon":5.4013,"is_reserved":false,"is_disabled":false,"rental_uris":{"android":"levelo://app?vid=2ba0623b-4622-42be-a11a-f4b8c0d5bd41","ios":"levelo://app?vid=2ba0623b-4622-42be-a11a-f4b8c0d5bd41"},"vehicle_type_id":"4","last_reported":1747163291,"current_range_meters":14800,"station_id":"ce4bh312rcd13ifvqdk0","pricing_plan_id":"cebpf4jnsgd1na2vs0mg"},{"bike_id":"9b059fd2-accd-41f4-b898-d404801fcb11","system_id":"levelo_inurba_marseille","lat":43.290326,"lon":5.374519,"is_reserved":false,"is_disabled":false,"rental_uris":{"android":"levelo://app?vid=9b059fd2-accd-41f4-b898-d404801fcb11","ios":"levelo://app?vid=9b059fd2-accd-41f4-b898-d404801fcb11"},"vehicle_type_id":"4","last_reported":1747163291,"current_range_meters":14800,"station_id":"ce4bh692rcd13ifvqe90","pricing_plan_id":"cebpf4jnsgd1na2vs0mg"},{"bike_id":"58be18c2-3117-421f-bb67-f657778988e1","system_id":"levelo_inurba_marseille","lat":43.28145,"lon":5.42662,"is_reserved":false,"is_disabled":false,"rental_uris":{"android":"levelo://app?vid=58be18c2-3117-421f-bb67-f657778988e1","ios":"levelo://app?vid=58be18c2-3117-421f-bb67-f657778988e1"},"vehicle_type_id":"4","last_reported":1747163291,"current_range_meters":14800,"station_id":"ce4bhnh2rcd13ifvqgug","pricing_plan_id":"cebpf4jnsgd1na2vs0mg"},{"bike_id":"8589f1e3-2955-4532-ac6b-edc955c33353","system_id":"levelo_inurba_marseille","lat":43.29916,"lon":5.3747,"is_reserved":false,"is_disabled":false,"rental_uris":{"android":"levelo://app?vid=8589f1e3-2955-4532-ac6b-edc955c33353","ios":"levelo://app?vid=8589f1e3-2955-4532-ac6b-edc955c33353"},"vehicle_type_id":"4","last_reported":1747163291,"current_range_meters":15200,"station_id":"ce4bgjh2rcd13ifvqbg0","pricing_plan_id":"cebpf4jnsgd1na2vs0mg"},{"bike_id":"0d479c96-7f55-45e2-b309-1f9f02fc7258","system_id":"levelo_inurba_marseille","lat":43.24391,"lon":5.37063,"is_reserved":false,"is_disabled":false,"rental_uris":{"android":"levelo://app?vid=0d479c96-7f55-45e2-b309-1f9f02fc7258","ios":"levelo://app?vid=0d479c96-7f55-45e2-b309-1f9f02fc7258"},"vehicle_type_id":"4","last_reported":1747163291,"current_range_meters":15200,"station_id":"ce4bhhh2rcd13ifvqfk0","pricing_plan_id":"cebpf4jnsgd1na2vs0mg"},{"bike_id":"e486d79c-adad-4f84-8422-f92282ad57ce","system_id":"levelo_inurba_marseille","lat":43.27499,"lon":5.42461,"is_reserved":false,"is_disabled":false,"rental_uris":{"android":"levelo://app?vid=e486d79c-adad-4f84-8422-f92282ad57ce","ios":"levelo://app?vid=e486d79c-adad-4f84-8422-f92282ad57ce"},"vehicle_type_id":"4","last_reported":1747163291,"current_range_meters":15200,"station_id":"ce4bhn92rcd13ifvqgrg","pricing_plan_id":"cebpf4jnsgd1na2vs0mg"},{"bike_id":"f57e6f12-c038-4a7e-8f40-23ed2bed5616","system_id":"levelo_inurba_marseille","lat":43.29987,"lon":5.47573,"is_reserved":false,"is_disabled":false,"rental_uris":{"android":"levelo://app?vid=f57e6f12-c038-4a7e-8f40-23ed2bed5616","ios":"levelo://app?vid=f57e6f12-c038-4a7e-8f40-23ed2bed5616"},"vehicle_type_id":"4","last_reported":1747163291,"current_range_meters":16000,"station_id":"","pricing_plan_id":"cebpf4jnsgd1na2vs0mg"},{"bike_id":"42cfaabc-d4d4-405c-ab84-52ce3ce3032a","system_id":"levelo_inurba_marseille","lat":43.31715,"lon":5.436066,"is_reserved":false,"is_disabled":false,"rental_uris":{"android":"levelo://app?vid=42cfaabc-d4d4-405c-ab84-52ce3ce3032a","ios":"levelo://app?vid=42cfaabc-d4d4-405c-ab84-52ce3ce3032a"},"vehicle_type_id":"4","last_reported":1747163291,"current_range_meters":16000,"station_id":"","pricing_plan_id":"cebpf4jnsgd1na2vs0mg"},{"bike_id":"454c5e1f-ea79-48e9-af02-7212870eecaf","system_id":"levelo_inurba_marseille","lat":43.308083,"lon":5.381593,"is_reserved":false,"is_disabled":false,"rental_uris":{"android":"levelo://app?vid=454c5e1f-ea79-48e9-af02-7212870eecaf","ios":"levelo://app?vid=454c5e1f-ea79-48e9-af02-7212870eecaf"},"vehicle_type_id":"4","last_reported":1747163291,"current_range_meters":16000,"station_id":"ce4bgt12rcd13ifvqce0","pricing_plan_id":"cebpf4jnsgd1na2vs0mg"},{"bike_id":"d8986884-20dc-4d81-b647-e94ce50bb841","system_id":"levelo_inurba_marseille","lat":43.28347,"lon":5.38107,"is_reserved":false,"is_disabled":false,"rental_uris":{"android":"levelo://app?vid=d8986884-20dc-4d81-b647-e94ce50bb841","ios":"levelo://app?vid=d8986884-20dc-4d81-b647-e94ce50bb841"},"vehicle_type_id":"4","last_reported":1747163291,"current_range_meters":16000,"station_id":"ce4bh412rcd13ifvqdr0","pricing_plan_id":"cebpf4jnsgd1na2vs0mg"},{"bike_id":"9d76660f-c284-49a2-8765-48337aa51471","system_id":"levelo_inurba_marseille","lat":43.32113,"lon":5.36773,"is_reserved":false,"is_disabled":false,"rental_uris":{"android":"levelo://app?vid=9d76660f-c284-49a2-8765-48337aa51471","ios":"levelo://app?vid=9d76660f-c284-49a2-8765-48337aa51471"},"vehicle_type_id":"4","last_reported":1747163291,"current_range_meters":16000,"station_id":"ce4bhrh2rcd13ifvqhug","pricing_plan_id":"cebpf4jnsgd1na2vs0mg"},{"bike_id":"e4397daf-d280-4c79-a02d-411bcee2ea97","system_id":"levelo_inurba_marseille","lat":43.29603,"lon":5.38106,"is_reserved":false,"is_disabled":false,"rental_uris":{"android":"levelo://app?vid=e4397daf-d280-4c79-a02d-411bcee2ea97","ios":"levelo://app?vid=e4397daf-d280-4c79-a02d-411bcee2ea97"},"vehicle_type_id":"4","last_reported":1747163291,"current_range_meters":16400,"station_id":"ce4bgl12rcd13ifvqbo0","pricing_plan_id":"cebpf4jnsgd1na2vs0mg"},{"bike_id":"8b7c1567-1d6b-4457-a9e3-7cdb76c5b84a","system_id":"levelo_inurba_marseille","lat":43.24172,"lon":5.39728,"is_reserved":false,"is_disabled":false,"rental_uris":{"android":"levelo://app?vid=8b7c1567-1d6b-4457-a9e3-7cdb76c5b84a","ios":"levelo://app?vid=8b7c1567-1d6b-4457-a9e3-7cdb76c5b84a"},"vehicle_type_id":"4","last_reported":1747163291,"current_range_meters":16400,"station_id":"ce4bhn12rcd13ifvqgpg","pricing_plan_id":"cebpf4jnsgd1na2vs0mg"},{"bike_id":"ebbb3db5-66b4-4907-9a7b-ed749cb4c62b","system_id":"levelo_inurba_marseille","lat":43.31759,"lon":5.39012,"is_reserved":false,"is_disabled":false,"rental_uris":{"android":"levelo://app?vid=ebbb3db5-66b4-4907-9a7b-ed749cb4c62b","ios":"levelo://app?vid=ebbb3db5-66b4-4907-9a7b-ed749cb4c62b"},"vehicle_type_id":"4","last_reported":1747163291,"current_range_meters":16400,"station_id":"ce4bhqp2rcd13ifvqhng","pricing_plan_id":"cebpf4jnsgd1na2vs0mg"},{"bike_id":"ffe068c5-da75-4a33-b889-43736811b65d","system_id":"levelo_inurba_marseille","lat":43.33025,"lon":5.39039,"is_reserved":false,"is_disabled":false,"rental_uris":{"android":"levelo://app?vid=ffe068c5-da75-4a33-b889-43736811b65d","ios":"levelo://app?vid=ffe068c5-da75-4a33-b889-43736811b65d"},"vehicle_type_id":"4","last_reported":1747163291,"current_range_meters":16400,"station_id":"ce4bhr92rcd13ifvqhrg","pricing_plan_id":"cebpf4jnsgd1na2vs0mg"},{"bike_id":"0c893fb7-8626-4706-85bf-f404b871dea5","system_id":"levelo_inurba_marseille","lat":43.28108,"lon":5.44607,"is_reserved":false,"is_disabled":false,"rental_uris":{"android":"levelo://app?vid=0c893fb7-8626-4706-85bf-f404b871dea5","ios":"levelo://app?vid=0c893fb7-8626-4706-85bf-f404b871dea5"},"vehicle_type_id":"4","last_reported":1747163291,"current_range_meters":16800,"station_id":"","pricing_plan_id":"cebpf4jnsgd1na2vs0mg"},{"bike_id":"580b3a5f-bed6-495b-bfb1-f3e008ad163f","system_id":"levelo_inurba_marseille","lat":43.29916,"lon":5.37478,"is_reserved":false,"is_disabled":false,"rental_uris":{"android":"levelo://app?vid=580b3a5f-bed6-495b-bfb1-f3e008ad163f","ios":"levelo://app?vid=580b3a5f-bed6-495b-bfb1-f3e008ad163f"},"vehicle_type_id":"4","last_reported":1747163291,"current_range_meters":16800,"station_id":"ce4bgjh2rcd13ifvqbg0","pricing_plan_id":"cebpf4jnsgd1na2vs0mg"},{"bike_id":"8e303ed0-2450-46b0-b57c-212ea9b9fbfe","system_id":"levelo_inurba_marseille","lat":43.30883,"lon":5.39647,"is_reserved":false,"is_disabled":false,"rental_uris":{"android":"levelo://app?vid=8e303ed0-2450-46b0-b57c-212ea9b9fbfe","ios":"levelo://app?vid=8e303ed0-2450-46b0-b57c-212ea9b9fbfe"},"vehicle_type_id":"4","last_reported":1747163291,"current_range_meters":16800,"station_id":"ce4bh012rcd13ifvqcv0","pricing_plan_id":"cebpf4jnsgd1na2vs0mg"},{"bike_id":"797628a2-62bf-4c3b-96ff-dc24c05bf932","system_id":"levelo_inurba_marseille","lat":43.28352,"lon":5.38636,"is_reserved":false,"is_disabled":false,"rental_uris":{"android":"levelo://app?vid=797628a2-62bf-4c3b-96ff-dc24c05bf932","ios":"levelo://app?vid=797628a2-62bf-4c3b-96ff-dc24c05bf932"},"vehicle_type_id":"4","last_reported":1747163291,"current_range_meters":16800,"station_id":"ce4bh492rcd13ifvqdvg","pricing_plan_id":"cebpf4jnsgd1na2vs0mg"},{"bike_id":"24ccfef1-a581-485f-ac87-d19ad260e3d5","system_id":"levelo_inurba_marseille","lat":43.28939,"lon":5.36623,"is_reserved":false,"is_disabled":false,"rental_uris":{"android":"levelo://app?vid=24ccfef1-a581-485f-ac87-d19ad260e3d5","ios":"levelo://app?vid=24ccfef1-a581-485f-ac87-d19ad260e3d5"},"vehicle_type_id":"4","last_reported":1747163291,"current_range_meters":16800,"station_id":"ce4bhap2rcd13ifvqek0","pricing_plan_id":"cebpf4jnsgd1na2vs0mg"},{"bike_id":"1e297e0e-a907-489c-9a22-1dfb89bfb64f","system_id":"levelo_inurba_marseille","lat":43.29184,"lon":5.36439,"is_reserved":false,"is_disabled":false,"rental_uris":{"android":"levelo://app?vid=1e297e0e-a907-489c-9a22-1dfb89bfb64f","ios":"levelo://app?vid=1e297e0e-a907-489c-9a22-1dfb89bfb64f"},"vehicle_type_id":"4","last_reported":1747163291,"current_range_meters":17200,"station_id":"","pricing_plan_id":"cebpf4jnsgd1na2vs0mg"},{"bike_id":"53d19cb5-e3bb-47d7-a114-d5c1b8f8925d","system_id":"levelo_inurba_marseille","lat":43.309322,"lon":5.401546,"is_reserved":false,"is_disabled":false,"rental_uris":{"android":"levelo://app?vid=53d19cb5-e3bb-47d7-a114-d5c1b8f8925d","ios":"levelo://app?vid=53d19cb5-e3bb-47d7-a114-d5c1b8f8925d"},"vehicle_type_id":"4","last_reported":1747163291,"current_range_meters":17200,"station_id":"ce4bgvp2rcd13ifvqct0","pricing_plan_id":"cebpf4jnsgd1na2vs0mg"},{"bike_id":"1a8bbed0-20d8-4d56-8520-13cdbb546168","system_id":"levelo_inurba_marseille","lat":43.31328,"lon":5.39726,"is_reserved":false,"is_disabled":false,"rental_uris":{"android":"levelo://app?vid=1a8bbed0-20d8-4d56-8520-13cdbb546168","ios":"levelo://app?vid=1a8bbed0-20d8-4d56-8520-13cdbb546168"},"vehicle_type_id":"4","last_reported":1747163291,"current_range_meters":17200,"station_id":"ce4bgvp2rcd13ifvqcu0","pricing_plan_id":"cebpf4jnsgd1na2vs0mg"},{"bike_id":"5b76d150-17fa-4da0-8bfb-472197ebf3b7","system_id":"levelo_inurba_marseille","lat":43.28931,"lon":5.36634,"is_reserved":false,"is_disabled":false,"rental_uris":{"android":"levelo://app?vid=5b76d150-17fa-4da0-8bfb-472197ebf3b7","ios":"levelo://app?vid=5b76d150-17fa-4da0-8bfb-472197ebf3b7"},"vehicle_type_id":"4","last_reported":1747163291,"current_range_meters":17200,"station_id":"ce4bhap2rcd13ifvqek0","pricing_plan_id":"cebpf4jnsgd1na2vs0mg"},{"bike_id":"ae10153f-459b-44cb-aba9-de75871f8a4d","system_id":"levelo_inurba_marseille","lat":43.28151,"lon":5.42638,"is_reserved":false,"is_disabled":false,"rental_uris":{"android":"levelo://app?vid=ae10153f-459b-44cb-aba9-de75871f8a4d","ios":"levelo://app?vid=ae10153f-459b-44cb-aba9-de75871f8a4d"},"vehicle_type_id":"4","last_reported":1747163291,"current_range_meters":17200,"station_id":"ce4bhnh2rcd13ifvqgug","pricing_plan_id":"cebpf4jnsgd1na2vs0mg"},{"bike_id":"bacb19cb-dccf-444a-9a38-0b3301431795","system_id":"levelo_inurba_marseille","lat":43.30545,"lon":5.36559,"is_reserved":false,"is_disabled":false,"rental_uris":{"android":"levelo://app?vid=bacb19cb-dccf-444a-9a38-0b3301431795","ios":"levelo://app?vid=bacb19cb-dccf-444a-9a38-0b3301431795"},"vehicle_type_id":"4","last_reported":1747163291,"current_range_meters":17600,"station_id":"ce4bgs12rcd13ifvqcag","pricing_plan_id":"cebpf4jnsgd1na2vs0mg"},{"bike_id":"936bca66-ac6b-4f67-8075-a7bad5613689","system_id":"levelo_inurba_marseille","lat":43.31174,"lon":5.38721,"is_reserved":false,"is_disabled":false,"rental_uris":{"android":"levelo://app?vid=936bca66-ac6b-4f67-8075-a7bad5613689","ios":"levelo://app?vid=936bca66-ac6b-4f67-8075-a7bad5613689"},"vehicle_type_id":"4","last_reported":1747163291,"current_range_meters":17600,"station_id":"ce4bgv12rcd13ifvqcp0","pricing_plan_id":"cebpf4jnsgd1na2vs0mg"},{"bike_id":"fd88d147-63d6-42fe-b4c7-d414c7af1e62","system_id":"levelo_inurba_marseille","lat":43.29264,"lon":5.38446,"is_reserved":false,"is_disabled":false,"rental_uris":{"android":"levelo://app?vid=fd88d147-63d6-42fe-b4c7-d414c7af1e62","ios":"levelo://app?vid=fd88d147-63d6-42fe-b4c7-d414c7af1e62"},"vehicle_type_id":"4","last_reported":1747163291,"current_range_meters":17600,"station_id":"ce4bh692rcd13ifvqea0","pricing_plan_id":"cebpf4jnsgd1na2vs0mg"},{"bike_id":"8d2cdeb1-17c1-4351-9440-803e64809bdf","system_id":"levelo_inurba_marseille","lat":43.2893,"lon":5.36639,"is_reserved":false,"is_disabled":false,"rental_uris":{"android":"levelo://app?vid=8d2cdeb1-17c1-4351-9440-803e64809bdf","ios":"levelo://app?vid=8d2cdeb1-17c1-4351-9440-803e64809bdf"},"vehicle_type_id":"4","last_reported":1747163291,"current_range_meters":17600,"station_id":"ce4bhap2rcd13ifvqek0","pricing_plan_id":"cebpf4jnsgd1na2vs0mg"},{"bike_id":"455c641a-3f91-4c68-b0d9-1070e8b508d7","system_id":"levelo_inurba_marseille","lat":43.26564,"lon":5.38998,"is_reserved":false,"is_disabled":false,"rental_uris":{"android":"levelo://app?vid=455c641a-3f91-4c68-b0d9-1070e8b508d7","ios":"levelo://app?vid=455c641a-3f91-4c68-b0d9-1070e8b508d7"},"vehicle_type_id":"4","last_reported":1747163291,"current_range_meters":17600,"station_id":"ce4bhe12rcd13ifvqf30","pricing_plan_id":"cebpf4jnsgd1na2vs0mg"},{"bike_id":"fb3b7c7e-6cde-418e-9846-819e9614f5c1","system_id":"levelo_inurba_marseille","lat":43.24384,"lon":5.37053,"is_reserved":false,"is_disabled":false,"rental_uris":{"android":"levelo://app?vid=fb3b7c7e-6cde-418e-9846-819e9614f5c1","ios":"levelo://app?vid=fb3b7c7e-6cde-418e-9846-819e9614f5c1"},"vehicle_type_id":"4","last_reported":1747163291,"current_range_meters":17600,"station_id":"ce4bhhh2rcd13ifvqfk0","pricing_plan_id":"cebpf4jnsgd1na2vs0mg"},{"bike_id":"47be8f39-ca18-45de-8567-d2eeed38c189","system_id":"levelo_inurba_marseille","lat":43.29783,"lon":5.39345,"is_reserved":false,"is_disabled":false,"rental_uris":{"android":"levelo://app?vid=47be8f39-ca18-45de-8567-d2eeed38c189","ios":"levelo://app?vid=47be8f39-ca18-45de-8567-d2eeed38c189"},"vehicle_type_id":"4","last_reported":1747163291,"current_range_meters":17600,"station_id":"chh1huq6cuj3fo74tm60","pricing_plan_id":"cebpf4jnsgd1na2vs0mg"},{"bike_id":"9abf956f-330a-4b60-b728-d986a0d4748e","system_id":"levelo_inurba_marseille","lat":43.30657,"lon":5.401,"is_reserved":false,"is_disabled":false,"rental_uris":{"android":"levelo://app?vid=9abf956f-330a-4b60-b728-d986a0d4748e","ios":"levelo://app?vid=9abf956f-330a-4b60-b728-d986a0d4748e"},"vehicle_type_id":"4","last_reported":1747163291,"current_range_meters":18000,"station_id":"ce4bh112rcd13ifvqda0","pricing_plan_id":"cebpf4jnsgd1na2vs0mg"},{"bike_id":"1041eeca-3e55-483e-b484-e6a39c20e84c","system_id":"levelo_inurba_marseille","lat":43.29305,"lon":5.37172,"is_reserved":false,"is_disabled":false,"rental_uris":{"android":"levelo://app?vid=1041eeca-3e55-483e-b484-e6a39c20e84c","ios":"levelo://app?vid=1041eeca-3e55-483e-b484-e6a39c20e84c"},"vehicle_type_id":"4","last_reported":1747163291,"current_range_meters":18800,"station_id":"ce4bgh92rcd13ifvqb40","pricing_plan_id":"cebpf4jnsgd1na2vs0mg"},{"bike_id":"caa1399f-b4b1-4caa-af79-301125a27990","system_id":"levelo_inurba_marseille","lat":43.29307,"lon":5.37448,"is_reserved":false,"is_disabled":false,"rental_uris":{"android":"levelo://app?vid=caa1399f-b4b1-4caa-af79-301125a27990","ios":"levelo://app?vid=caa1399f-b4b1-4caa-af79-301125a27990"},"vehicle_type_id":"4","last_reported":1747163291,"current_range_meters":18800,"station_id":"ce4bgi12rcd13ifvqb70","pricing_plan_id":"cebpf4jnsgd1na2vs0mg"},{"bike_id":"55f15ee9-9faa-429b-94b7-0edd4dbb2137","system_id":"levelo_inurba_marseille","lat":43.29435,"lon":5.38615,"is_reserved":false,"is_disabled":false,"rental_uris":{"android":"levelo://app?vid=55f15ee9-9faa-429b-94b7-0edd4dbb2137","ios":"levelo://app?vid=55f15ee9-9faa-429b-94b7-0edd4dbb2137"},"vehicle_type_id":"4","last_reported":1747163291,"current_range_meters":18800,"station_id":"ce4bh2h2rcd13ifvqdh0","pricing_plan_id":"cebpf4jnsgd1na2vs0mg"},{"bike_id":"10f98a35-89c5-4475-9c01-49b1c98311db","system_id":"levelo_inurba_marseille","lat":43.27572,"lon":5.38415,"is_reserved":false,"is_disabled":false,"rental_uris":{"android":"levelo://app?vid=10f98a35-89c5-4475-9c01-49b1c98311db","ios":"levelo://app?vid=10f98a35-89c5-4475-9c01-49b1c98311db"},"vehicle_type_id":"4","last_reported":1747163291,"current_range_meters":18800,"station_id":"ce4bhh92rcd13ifvqfi0","pricing_plan_id":"cebpf4jnsgd1na2vs0mg"},{"bike_id":"7508b996-95d4-41ea-b19b-6f1bd367693b","system_id":"levelo_inurba_marseille","lat":43.25879,"lon":5.39908,"is_reserved":false,"is_disabled":false,"rental_uris":{"android":"levelo://app?vid=7508b996-95d4-41ea-b19b-6f1bd367693b","ios":"levelo://app?vid=7508b996-95d4-41ea-b19b-6f1bd367693b"},"vehicle_type_id":"4","last_reported":1747163291,"current_range_meters":18800,"station_id":"ce4bhl92rcd13ifvqghg","pricing_plan_id":"cebpf4jnsgd1na2vs0mg"},{"bike_id":"b4777d59-fc56-46ae-8a48-c6f6a5536c77","system_id":"levelo_inurba_marseille","lat":43.30317,"lon":5.40441,"is_reserved":false,"is_disabled":false,"rental_uris":{"android":"levelo://app?vid=b4777d59-fc56-46ae-8a48-c6f6a5536c77","ios":"levelo://app?vid=b4777d59-fc56-46ae-8a48-c6f6a5536c77"},"vehicle_type_id":"4","last_reported":1747163291,"current_range_meters":19200,"station_id":"ce4bh012rcd13ifvqd10","pricing_plan_id":"cebpf4jnsgd1na2vs0mg"},{"bike_id":"f012d041-6111-4808-88e2-a1996f1676f2","system_id":"levelo_inurba_marseille","lat":43.28362,"lon":5.38637,"is_reserved":false,"is_disabled":false,"rental_uris":{"android":"levelo://app?vid=f012d041-6111-4808-88e2-a1996f1676f2","ios":"levelo://app?vid=f012d041-6111-4808-88e2-a1996f1676f2"},"vehicle_type_id":"4","last_reported":1747163291,"current_range_meters":19200,"station_id":"ce4bh492rcd13ifvqdvg","pricing_plan_id":"cebpf4jnsgd1na2vs0mg"},{"bike_id":"a3ecf696-99e3-4564-9db0-ea6d6a4f4c9b","system_id":"levelo_inurba_marseille","lat":43.28938,"lon":5.36402,"is_reserved":false,"is_disabled":false,"rental_uris":{"android":"levelo://app?vid=a3ecf696-99e3-4564-9db0-ea6d6a4f4c9b","ios":"levelo://app?vid=a3ecf696-99e3-4564-9db0-ea6d6a4f4c9b"},"vehicle_type_id":"4","last_reported":1747163291,"current_range_meters":19200,"station_id":"ce4bhc92rcd13ifvqetg","pricing_plan_id":"cebpf4jnsgd1na2vs0mg"},{"bike_id":"29ce2bff-29c9-4638-a93d-53611c79a41e","system_id":"levelo_inurba_marseille","lat":43.32367,"lon":5.38899,"is_reserved":false,"is_disabled":false,"rental_uris":{"android":"levelo://app?vid=29ce2bff-29c9-4638-a93d-53611c79a41e","ios":"levelo://app?vid=29ce2bff-29c9-4638-a93d-53611c79a41e"},"vehicle_type_id":"4","last_reported":1747163291,"current_range_meters":19200,"station_id":"ce4bhqp2rcd13ifvqhog","pricing_plan_id":"cebpf4jnsgd1na2vs0mg"},{"bike_id":"c5a6038e-e242-4c42-a6da-186787771b16","system_id":"levelo_inurba_marseille","lat":43.21731,"lon":5.34613,"is_reserved":false,"is_disabled":false,"rental_uris":{"android":"levelo://app?vid=c5a6038e-e242-4c42-a6da-186787771b16","ios":"levelo://app?vid=c5a6038e-e242-4c42-a6da-186787771b16"},"vehicle_type_id":"4","last_reported":1747163291,"current_range_meters":19200,"station_id":"st_cvj6r9ubvosntc0bgbag","pricing_plan_id":"cebpf4jnsgd1na2vs0mg"},{"bike_id":"a7290915-1571-422b-9893-a4ef6214b1cc","system_id":"levelo_inurba_marseille","lat":43.29417,"lon":5.38625,"is_reserved":false,"is_disabled":false,"rental_uris":{"android":"levelo://app?vid=a7290915-1571-422b-9893-a4ef6214b1cc","ios":"levelo://app?vid=a7290915-1571-422b-9893-a4ef6214b1cc"},"vehicle_type_id":"4","last_reported":1747163291,"current_range_meters":19600,"station_id":"ce4bh2h2rcd13ifvqdh0","pricing_plan_id":"cebpf4jnsgd1na2vs0mg"},{"bike_id":"73e221f0-db48-485f-9ec1-22c63a62dbc8","system_id":"levelo_inurba_marseille","lat":43.29254,"lon":5.38449,"is_reserved":false,"is_disabled":false,"rental_uris":{"android":"levelo://app?vid=73e221f0-db48-485f-9ec1-22c63a62dbc8","ios":"levelo://app?vid=73e221f0-db48-485f-9ec1-22c63a62dbc8"},"vehicle_type_id":"4","last_reported":1747163291,"current_range_meters":19600,"station_id":"ce4bh692rcd13ifvqea0","pricing_plan_id":"cebpf4jnsgd1na2vs0mg"},{"bike_id":"1c1778c1-b3fd-4c2c-bf63-2b0db82ebc31","system_id":"levelo_inurba_marseille","lat":43.28669,"lon":5.3636,"is_reserved":false,"is_disabled":false,"rental_uris":{"android":"levelo://app?vid=1c1778c1-b3fd-4c2c-bf63-2b0db82ebc31","ios":"levelo://app?vid=1c1778c1-b3fd-4c2c-bf63-2b0db82ebc31"},"vehicle_type_id":"4","last_reported":1747163291,"current_range_meters":19600,"station_id":"ce4bhah2rcd13ifvqej0","pricing_plan_id":"cebpf4jnsgd1na2vs0mg"},{"bike_id":"8e4435c1-885f-4f0a-9f4a-fe02b3a08c42","system_id":"levelo_inurba_marseille","lat":43.29221,"lon":5.36087,"is_reserved":false,"is_disabled":false,"rental_uris":{"android":"levelo://app?vid=8e4435c1-885f-4f0a-9f4a-fe02b3a08c42","ios":"levelo://app?vid=8e4435c1-885f-4f0a-9f4a-fe02b3a08c42"},"vehicle_type_id":"4","last_reported":1747163291,"current_range_meters":19600,"station_id":"ce4bhbh2rcd13ifvqeqg","pricing_plan_id":"cebpf4jnsgd1na2vs0mg"},{"bike_id":"7eebed0b-e9ef-4bc0-9284-a01443c18031","system_id":"levelo_inurba_marseille","lat":43.24808,"lon":5.37455,"is_reserved":false,"is_disabled":false,"rental_uris":{"android":"levelo://app?vid=7eebed0b-e9ef-4bc0-9284-a01443c18031","ios":"levelo://app?vid=7eebed0b-e9ef-4bc0-9284-a01443c18031"},"vehicle_type_id":"4","last_reported":1747163291,"current_range_meters":19600,"station_id":"ce4bhgh2rcd13ifvqfb0","pricing_plan_id":"cebpf4jnsgd1na2vs0mg"},{"bike_id":"4fc49f79-fa67-4460-a03b-8373ee1b7092","system_id":"levelo_inurba_marseille","lat":43.26799,"lon":5.40256,"is_reserved":false,"is_disabled":false,"rental_uris":{"android":"levelo://app?vid=4fc49f79-fa67-4460-a03b-8373ee1b7092","ios":"levelo://app?vid=4fc49f79-fa67-4460-a03b-8373ee1b7092"},"vehicle_type_id":"4","last_reported":1747163291,"current_range_meters":19600,"station_id":"ce501612rcd8frsf0b60","pricing_plan_id":"cebpf4jnsgd1na2vs0mg"},{"bike_id":"d4f816b7-61d0-43ff-90bf-fe88395c8242","system_id":"levelo_inurba_marseille","lat":43.30252,"lon":5.40079,"is_reserved":false,"is_disabled":false,"rental_uris":{"android":"levelo://app?vid=d4f816b7-61d0-43ff-90bf-fe88395c8242","ios":"levelo://app?vid=d4f816b7-61d0-43ff-90bf-fe88395c8242"},"vehicle_type_id":"4","last_reported":1747163291,"current_range_meters":20000,"station_id":"ce4bgvh2rcd13ifvqcs0","pricing_plan_id":"cebpf4jnsgd1na2vs0mg"},{"bike_id":"20912d74-5aee-4528-9afe-82219472b1ab","system_id":"levelo_inurba_marseille","lat":43.29263,"lon":5.40897,"is_reserved":false,"is_disabled":false,"rental_uris":{"android":"levelo://app?vid=20912d74-5aee-4528-9afe-82219472b1ab","ios":"levelo://app?vid=20912d74-5aee-4528-9afe-82219472b1ab"},"vehicle_type_id":"4","last_reported":1747163291,"current_range_meters":20000,"station_id":"ce4bh192rcd13ifvqdc0","pricing_plan_id":"cebpf4jnsgd1na2vs0mg"},{"bike_id":"b2adbd83-997c-4d85-9a4f-edb94859014e","system_id":"levelo_inurba_marseille","lat":43.29434,"lon":5.3861,"is_reserved":false,"is_disabled":false,"rental_uris":{"android":"levelo://app?vid=b2adbd83-997c-4d85-9a4f-edb94859014e","ios":"levelo://app?vid=b2adbd83-997c-4d85-9a4f-edb94859014e"},"vehicle_type_id":"4","last_reported":1747163291,"current_range_meters":20000,"station_id":"ce4bh2h2rcd13ifvqdh0","pricing_plan_id":"cebpf4jnsgd1na2vs0mg"},{"bike_id":"920982d9-fd6f-4967-a94a-d297265c6b0e","system_id":"levelo_inurba_marseille","lat":43.27974,"lon":5.38739,"is_reserved":false,"is_disabled":false,"rental_uris":{"android":"levelo://app?vid=920982d9-fd6f-4967-a94a-d297265c6b0e","ios":"levelo://app?vid=920982d9-fd6f-4967-a94a-d297265c6b0e"},"vehicle_type_id":"4","last_reported":1747163291,"current_range_meters":20000,"station_id":"ce4bhg12rcd13ifvqf80","pricing_plan_id":"cebpf4jnsgd1na2vs0mg"},{"bike_id":"ab61f6f9-2a2c-4d43-b753-1b3d779f800e","system_id":"levelo_inurba_marseille","lat":43.27654,"lon":5.38912,"is_reserved":false,"is_disabled":false,"rental_uris":{"android":"levelo://app?vid=ab61f6f9-2a2c-4d43-b753-1b3d779f800e","ios":"levelo://app?vid=ab61f6f9-2a2c-4d43-b753-1b3d779f800e"},"vehicle_type_id":"4","last_reported":1747163291,"current_range_meters":20000,"station_id":"ce4bhi12rcd13ifvqfo0","pricing_plan_id":"cebpf4jnsgd1na2vs0mg"},{"bike_id":"5647a91f-31a6-41fb-82bb-83893a94fc73","system_id":"levelo_inurba_marseille","lat":43.21183,"lon":5.35031,"is_reserved":false,"is_disabled":false,"rental_uris":{"android":"levelo://app?vid=5647a91f-31a6-41fb-82bb-83893a94fc73","ios":"levelo://app?vid=5647a91f-31a6-41fb-82bb-83893a94fc73"},"vehicle_type_id":"4","last_reported":1747163291,"current_range_meters":20000,"station_id":"st_cvj6sg6p6f1abm77japg","pricing_plan_id":"cebpf4jnsgd1na2vs0mg"},{"bike_id":"c77744cd-dd85-473a-952b-e9873b6afa4f","system_id":"levelo_inurba_marseille","lat":43.33222,"lon":5.40438,"is_reserved":false,"is_disabled":false,"rental_uris":{"android":"levelo://app?vid=c77744cd-dd85-473a-952b-e9873b6afa4f","ios":"levelo://app?vid=c77744cd-dd85-473a-952b-e9873b6afa4f"},"vehicle_type_id":"4","last_reported":1747163291,"current_range_meters":20400,"station_id":"","pricing_plan_id":"cebpf4jnsgd1na2vs0mg"},{"bike_id":"675258a9-f6b9-4ce5-9d53-80bc482c1ef4","system_id":"levelo_inurba_marseille","lat":43.314782,"lon":5.373323,"is_reserved":false,"is_disabled":false,"rental_uris":{"android":"levelo://app?vid=675258a9-f6b9-4ce5-9d53-80bc482c1ef4","ios":"levelo://app?vid=675258a9-f6b9-4ce5-9d53-80bc482c1ef4"},"vehicle_type_id":"4","last_reported":1747163291,"current_range_meters":20400,"station_id":"ce4bgt12rcd13ifvqcd0","pricing_plan_id":"cebpf4jnsgd1na2vs0mg"},{"bike_id":"b5b512b8-a59b-4d1a-ab75-9c0ee3529171","system_id":"levelo_inurba_marseille","lat":43.30639,"lon":5.40099,"is_reserved":false,"is_disabled":false,"rental_uris":{"android":"levelo://app?vid=b5b512b8-a59b-4d1a-ab75-9c0ee3529171","ios":"levelo://app?vid=b5b512b8-a59b-4d1a-ab75-9c0ee3529171"},"vehicle_type_id":"4","last_reported":1747163291,"current_range_meters":20400,"station_id":"ce4bh112rcd13ifvqda0","pricing_plan_id":"cebpf4jnsgd1na2vs0mg"},{"bike_id":"2faf72be-b097-4da2-9b0a-967edd5b16a8","system_id":"levelo_inurba_marseille","lat":43.29194,"lon":5.39312,"is_reserved":false,"is_disabled":false,"rental_uris":{"android":"levelo://app?vid=2faf72be-b097-4da2-9b0a-967edd5b16a8","ios":"levelo://app?vid=2faf72be-b097-4da2-9b0a-967edd5b16a8"},"vehicle_type_id":"4","last_reported":1747163291,"current_range_meters":20400,"station_id":"ce4bh192rcd13ifvqdd0","pricing_plan_id":"cebpf4jnsgd1na2vs0mg"},{"bike_id":"f613e2f9-a25c-44ff-bfc4-17da004a4a95","system_id":"levelo_inurba_marseille","lat":43.294192,"lon":5.386144,"is_reserved":false,"is_disabled":false,"rental_uris":{"android":"levelo://app?vid=f613e2f9-a25c-44ff-bfc4-17da004a4a95","ios":"levelo://app?vid=f613e2f9-a25c-44ff-bfc4-17da004a4a95"},"vehicle_type_id":"4","last_reported":1747163291,"current_range_meters":20400,"station_id":"ce4bh2h2rcd13ifvqdh0","pricing_plan_id":"cebpf4jnsgd1na2vs0mg"},{"bike_id":"b2b480e2-3d9a-45bf-96e7-3ceef422d7ef","system_id":"levelo_inurba_marseille","lat":43.31699,"lon":5.43702,"is_reserved":false,"is_disabled":false,"rental_uris":{"android":"levelo://app?vid=b2b480e2-3d9a-45bf-96e7-3ceef422d7ef","ios":"levelo://app?vid=b2b480e2-3d9a-45bf-96e7-3ceef422d7ef"},"vehicle_type_id":"4","last_reported":1747163291,"current_range_meters":20400,"station_id":"ce4bhp92rcd13ifvqhcg","pricing_plan_id":"cebpf4jnsgd1na2vs0mg"},{"bike_id":"8a114e08-b45c-453a-8954-c268fbcc9a13","system_id":"levelo_inurba_marseille","lat":43.34157,"lon":5.40901,"is_reserved":false,"is_disabled":false,"rental_uris":{"android":"levelo://app?vid=8a114e08-b45c-453a-8954-c268fbcc9a13","ios":"levelo://app?vid=8a114e08-b45c-453a-8954-c268fbcc9a13"},"vehicle_type_id":"4","last_reported":1747163291,"current_range_meters":20400,"station_id":"ce4bhqh2rcd13ifvqhlg","pricing_plan_id":"cebpf4jnsgd1na2vs0mg"},{"bike_id":"52040ebf-18ac-4b6a-be75-3ad86ed8f2b0","system_id":"levelo_inurba_marseille","lat":43.31758,"lon":5.39023,"is_reserved":false,"is_disabled":false,"rental_uris":{"android":"levelo://app?vid=52040ebf-18ac-4b6a-be75-3ad86ed8f2b0","ios":"levelo://app?vid=52040ebf-18ac-4b6a-be75-3ad86ed8f2b0"},"vehicle_type_id":"4","last_reported":1747163291,"current_range_meters":20400,"station_id":"ce4bhqp2rcd13ifvqhng","pricing_plan_id":"cebpf4jnsgd1na2vs0mg"},{"bike_id":"0b9607ef-f196-4c2a-a63c-3384ebed5fb2","system_id":"levelo_inurba_marseille","lat":43.29882,"lon":5.39744,"is_reserved":false,"is_disabled":false,"rental_uris":{"android":"levelo://app?vid=0b9607ef-f196-4c2a-a63c-3384ebed5fb2","ios":"levelo://app?vid=0b9607ef-f196-4c2a-a63c-3384ebed5fb2"},"vehicle_type_id":"4","last_reported":1747163291,"current_range_meters":20800,"station_id":"ce4bh0h2rcd13ifvqd50","pricing_plan_id":"cebpf4jnsgd1na2vs0mg"},{"bike_id":"c37a5dfe-cd40-47bc-8993-f764300e6864","system_id":"levelo_inurba_marseille","lat":43.28862,"lon":5.3585,"is_reserved":false,"is_disabled":false,"rental_uris":{"android":"levelo://app?vid=c37a5dfe-cd40-47bc-8993-f764300e6864","ios":"levelo://app?vid=c37a5dfe-cd40-47bc-8993-f764300e6864"},"vehicle_type_id":"4","last_reported":1747163291,"current_range_meters":20800,"station_id":"ce4bhb12rcd13ifvqem0","pricing_plan_id":"cebpf4jnsgd1na2vs0mg"},{"bike_id":"ac0112c9-313e-422c-910b-a3523b05b0c9","system_id":"levelo_inurba_marseille","lat":43.2305,"lon":5.35492,"is_reserved":false,"is_disabled":false,"rental_uris":{"android":"levelo://app?vid=ac0112c9-313e-422c-910b-a3523b05b0c9","ios":"levelo://app?vid=ac0112c9-313e-422c-910b-a3523b05b0c9"},"vehicle_type_id":"4","last_reported":1747163291,"current_range_meters":20800,"station_id":"cpo3342slgdg3j2ifvpg","pricing_plan_id":"cebpf4jnsgd1na2vs0mg"},{"bike_id":"a60683f3-d94a-4a4b-a7cc-2a89323d8160","system_id":"levelo_inurba_marseille","lat":43.30649,"lon":5.40093,"is_reserved":false,"is_disabled":false,"rental_uris":{"android":"levelo://app?vid=a60683f3-d94a-4a4b-a7cc-2a89323d8160","ios":"levelo://app?vid=a60683f3-d94a-4a4b-a7cc-2a89323d8160"},"vehicle_type_id":"4","last_reported":1747163291,"current_range_meters":21600,"station_id":"ce4bh112rcd13ifvqda0","pricing_plan_id":"cebpf4jnsgd1na2vs0mg"},{"bike_id":"4f5240e6-f013-4a1a-85be-c57373681e75","system_id":"levelo_inurba_marseille","lat":43.29885,"lon":5.3891,"is_reserved":false,"is_disabled":false,"rental_uris":{"android":"levelo://app?vid=4f5240e6-f013-4a1a-85be-c57373681e75","ios":"levelo://app?vid=4f5240e6-f013-4a1a-85be-c57373681e75"},"vehicle_type_id":"4","last_reported":1747163291,"current_range_meters":21600,"station_id":"ce4bh392rcd13ifvqdl0","pricing_plan_id":"cebpf4jnsgd1na2vs0mg"},{"bike_id":"8c7bb7cb-4fc7-4d8d-99ed-5046162f8cd1","system_id":"levelo_inurba_marseille","lat":43.29262,"lon":5.38438,"is_reserved":false,"is_disabled":false,"rental_uris":{"android":"levelo://app?vid=8c7bb7cb-4fc7-4d8d-99ed-5046162f8cd1","ios":"levelo://app?vid=8c7bb7cb-4fc7-4d8d-99ed-5046162f8cd1"},"vehicle_type_id":"4","last_reported":1747163291,"current_range_meters":21600,"station_id":"ce4bh692rcd13ifvqea0","pricing_plan_id":"cebpf4jnsgd1na2vs0mg"},{"bike_id":"e5772145-df56-414a-9b78-d6cbcdf2e7dd","system_id":"levelo_inurba_marseille","lat":43.28934,"lon":5.36638,"is_reserved":false,"is_disabled":false,"rental_uris":{"android":"levelo://app?vid=e5772145-df56-414a-9b78-d6cbcdf2e7dd","ios":"levelo://app?vid=e5772145-df56-414a-9b78-d6cbcdf2e7dd"},"vehicle_type_id":"4","last_reported":1747163291,"current_range_meters":21600,"station_id":"ce4bhap2rcd13ifvqek0","pricing_plan_id":"cebpf4jnsgd1na2vs0mg"},{"bike_id":"f0649364-0107-4d97-ae7e-c2cb5ebd23f0","system_id":"levelo_inurba_marseille","lat":43.21737,"lon":5.34617,"is_reserved":false,"is_disabled":false,"rental_uris":{"android":"levelo://app?vid=f0649364-0107-4d97-ae7e-c2cb5ebd23f0","ios":"levelo://app?vid=f0649364-0107-4d97-ae7e-c2cb5ebd23f0"},"vehicle_type_id":"4","last_reported":1747163291,"current_range_meters":21600,"station_id":"st_cvj6r9ubvosntc0bgbag","pricing_plan_id":"cebpf4jnsgd1na2vs0mg"},{"bike_id":"e409cd08-b9c4-4d62-aefb-05d029e2c480","system_id":"levelo_inurba_marseille","lat":43.3059,"lon":5.42936,"is_reserved":false,"is_disabled":false,"rental_uris":{"android":"levelo://app?vid=e409cd08-b9c4-4d62-aefb-05d029e2c480","ios":"levelo://app?vid=e409cd08-b9c4-4d62-aefb-05d029e2c480"},"vehicle_type_id":"4","last_reported":1747163291,"current_range_meters":22000,"station_id":"","pricing_plan_id":"cebpf4jnsgd1na2vs0mg"},{"bike_id":"548cf4ae-731d-4ce1-aeea-a43823f686bb","system_id":"levelo_inurba_marseille","lat":43.33023,"lon":5.39048,"is_reserved":false,"is_disabled":false,"rental_uris":{"android":"levelo://app?vid=548cf4ae-731d-4ce1-aeea-a43823f686bb","ios":"levelo://app?vid=548cf4ae-731d-4ce1-aeea-a43823f686bb"},"vehicle_type_id":"4","last_reported":1747163291,"current_range_meters":22000,"station_id":"","pricing_plan_id":"cebpf4jnsgd1na2vs0mg"},{"bike_id":"83fdb553-7ec4-4c85-9098-a66fe802de68","system_id":"levelo_inurba_marseille","lat":43.29204,"lon":5.39319,"is_reserved":false,"is_disabled":false,"rental_uris":{"android":"levelo://app?vid=83fdb553-7ec4-4c85-9098-a66fe802de68","ios":"levelo://app?vid=83fdb553-7ec4-4c85-9098-a66fe802de68"},"vehicle_type_id":"4","last_reported":1747163291,"current_range_meters":22000,"station_id":"ce4bh192rcd13ifvqdd0","pricing_plan_id":"cebpf4jnsgd1na2vs0mg"},{"bike_id":"c27e4973-7e8a-4188-b49d-478d9188ac42","system_id":"levelo_inurba_marseille","lat":43.31781,"lon":5.38983,"is_reserved":false,"is_disabled":false,"rental_uris":{"android":"levelo://app?vid=c27e4973-7e8a-4188-b49d-478d9188ac42","ios":"levelo://app?vid=c27e4973-7e8a-4188-b49d-478d9188ac42"},"vehicle_type_id":"4","last_reported":1747163291,"current_range_meters":22000,"station_id":"ce4bhqp2rcd13ifvqhng","pricing_plan_id":"cebpf4jnsgd1na2vs0mg"},{"bike_id":"e46528c9-be4d-4b17-9919-22ec681c2159","system_id":"levelo_inurba_marseille","lat":43.29934,"lon":5.38518,"is_reserved":false,"is_disabled":false,"rental_uris":{"android":"levelo://app?vid=e46528c9-be4d-4b17-9919-22ec681c2159","ios":"levelo://app?vid=e46528c9-be4d-4b17-9919-22ec681c2159"},"vehicle_type_id":"4","last_reported":1747163291,"current_range_meters":22400,"station_id":"","pricing_plan_id":"cebpf4jnsgd1na2vs0mg"},{"bike_id":"8e279dca-9425-4bc2-b384-77b204171643","system_id":"levelo_inurba_marseille","lat":43.29428,"lon":5.38094,"is_reserved":false,"is_disabled":false,"rental_uris":{"android":"levelo://app?vid=8e279dca-9425-4bc2-b384-77b204171643","ios":"levelo://app?vid=8e279dca-9425-4bc2-b384-77b204171643"},"vehicle_type_id":"4","last_reported":1747163291,"current_range_meters":22400,"station_id":"","pricing_plan_id":"cebpf4jnsgd1na2vs0mg"},{"bike_id":"9c06be39-3c5f-4d0a-95bb-2e900bc5596f","system_id":"levelo_inurba_marseille","lat":43.29533,"lon":5.38546,"is_reserved":false,"is_disabled":false,"rental_uris":{"android":"levelo://app?vid=9c06be39-3c5f-4d0a-95bb-2e900bc5596f","ios":"levelo://app?vid=9c06be39-3c5f-4d0a-95bb-2e900bc5596f"},"vehicle_type_id":"4","last_reported":1747163291,"current_range_meters":22400,"station_id":"ce4bgih2rcd13ifvqba0","pricing_plan_id":"cebpf4jnsgd1na2vs0mg"},{"bike_id":"ae0e2686-d43e-49f5-9cf6-fc74f3d13e4c","system_id":"levelo_inurba_marseille","lat":43.31356,"lon":5.36709,"is_reserved":false,"is_disabled":false,"rental_uris":{"android":"levelo://app?vid=ae0e2686-d43e-49f5-9cf6-fc74f3d13e4c","ios":"levelo://app?vid=ae0e2686-d43e-49f5-9cf6-fc74f3d13e4c"},"vehicle_type_id":"4","last_reported":1747163291,"current_range_meters":22400,"station_id":"ce4bgr92rcd13ifvqc6g","pricing_plan_id":"cebpf4jnsgd1na2vs0mg"},{"bike_id":"c78d93b6-1518-4fbe-8e7f-1f051f9cdb2a","system_id":"levelo_inurba_marseille","lat":43.28347,"lon":5.381,"is_reserved":false,"is_disabled":false,"rental_uris":{"android":"levelo://app?vid=c78d93b6-1518-4fbe-8e7f-1f051f9cdb2a","ios":"levelo://app?vid=c78d93b6-1518-4fbe-8e7f-1f051f9cdb2a"},"vehicle_type_id":"4","last_reported":1747163291,"current_range_meters":22400,"station_id":"ce4bh412rcd13ifvqdr0","pricing_plan_id":"cebpf4jnsgd1na2vs0mg"},{"bike_id":"644511a3-94a8-4d9e-a99e-a8a4681f0634","system_id":"levelo_inurba_marseille","lat":43.24179,"lon":5.39736,"is_reserved":false,"is_disabled":false,"rental_uris":{"android":"levelo://app?vid=644511a3-94a8-4d9e-a99e-a8a4681f0634","ios":"levelo://app?vid=644511a3-94a8-4d9e-a99e-a8a4681f0634"},"vehicle_type_id":"4","last_reported":1747163291,"current_range_meters":22400,"station_id":"ce4bhn12rcd13ifvqgpg","pricing_plan_id":"cebpf4jnsgd1na2vs0mg"},{"bike_id":"06ee2d2b-4f6f-4319-8973-ea1f8adb225f","system_id":"levelo_inurba_marseille","lat":43.31362,"lon":5.38486,"is_reserved":false,"is_disabled":false,"rental_uris":{"android":"levelo://app?vid=06ee2d2b-4f6f-4319-8973-ea1f8adb225f","ios":"levelo://app?vid=06ee2d2b-4f6f-4319-8973-ea1f8adb225f"},"vehicle_type_id":"4","last_reported":1747163291,"current_range_meters":22800,"station_id":"ce4bgt92rcd13ifvqcf0","pricing_plan_id":"cebpf4jnsgd1na2vs0mg"},{"bike_id":"5cd39746-5d16-4543-aae1-92e1a0d2d76f","system_id":"levelo_inurba_marseille","lat":43.28458,"lon":5.3842,"is_reserved":false,"is_disabled":false,"rental_uris":{"android":"levelo://app?vid=5cd39746-5d16-4543-aae1-92e1a0d2d76f","ios":"levelo://app?vid=5cd39746-5d16-4543-aae1-92e1a0d2d76f"},"vehicle_type_id":"4","last_reported":1747163291,"current_range_meters":22800,"station_id":"ce4bh512rcd13ifvqe3g","pricing_plan_id":"cebpf4jnsgd1na2vs0mg"},{"bike_id":"6f93b75b-9a65-465c-91fd-779dda4631d8","system_id":"levelo_inurba_marseille","lat":43.284607,"lon":5.358872,"is_reserved":false,"is_disabled":false,"rental_uris":{"android":"levelo://app?vid=6f93b75b-9a65-465c-91fd-779dda4631d8","ios":"levelo://app?vid=6f93b75b-9a65-465c-91fd-779dda4631d8"},"vehicle_type_id":"4","last_reported":1747163291,"current_range_meters":22800,"station_id":"ce4bhah2rcd13ifvqei0","pricing_plan_id":"cebpf4jnsgd1na2vs0mg"},{"bike_id":"08a93b84-f9e2-4480-b23a-2ee7a592645e","system_id":"levelo_inurba_marseille","lat":43.21758,"lon":5.34606,"is_reserved":false,"is_disabled":false,"rental_uris":{"android":"levelo://app?vid=08a93b84-f9e2-4480-b23a-2ee7a592645e","ios":"levelo://app?vid=08a93b84-f9e2-4480-b23a-2ee7a592645e"},"vehicle_type_id":"4","last_reported":1747163291,"current_range_meters":22800,"station_id":"st_cvj6r9ubvosntc0bgbag","pricing_plan_id":"cebpf4jnsgd1na2vs0mg"},{"bike_id":"0501c8ee-298b-49c1-ae23-c729ffc1cf7c","system_id":"levelo_inurba_marseille","lat":43.2931,"lon":5.3716,"is_reserved":false,"is_disabled":false,"rental_uris":{"android":"levelo://app?vid=0501c8ee-298b-49c1-ae23-c729ffc1cf7c","ios":"levelo://app?vid=0501c8ee-298b-49c1-ae23-c729ffc1cf7c"},"vehicle_type_id":"4","last_reported":1747163291,"current_range_meters":23200,"station_id":"ce4bgh92rcd13ifvqb40","pricing_plan_id":"cebpf4jnsgd1na2vs0mg"},{"bike_id":"f2b54ab9-92f6-4b19-8e1a-a5caa674b2d5","system_id":"levelo_inurba_marseille","lat":43.31178,"lon":5.3872,"is_reserved":false,"is_disabled":false,"rental_uris":{"android":"levelo://app?vid=f2b54ab9-92f6-4b19-8e1a-a5caa674b2d5","ios":"levelo://app?vid=f2b54ab9-92f6-4b19-8e1a-a5caa674b2d5"},"vehicle_type_id":"4","last_reported":1747163291,"current_range_meters":23200,"station_id":"ce4bgv12rcd13ifvqcp0","pricing_plan_id":"cebpf4jnsgd1na2vs0mg"},{"bike_id":"a08d8010-c7f5-4554-9a62-20c7392e3aad","system_id":"levelo_inurba_marseille","lat":43.296326,"lon":5.405973,"is_reserved":false,"is_disabled":false,"rental_uris":{"android":"levelo://app?vid=a08d8010-c7f5-4554-9a62-20c7392e3aad","ios":"levelo://app?vid=a08d8010-c7f5-4554-9a62-20c7392e3aad"},"vehicle_type_id":"4","last_reported":1747163291,"current_range_meters":23200,"station_id":"ce4bh0h2rcd13ifvqd60","pricing_plan_id":"cebpf4jnsgd1na2vs0mg"},