{"last_updated":1702372042,"ttl":30,"version":"2.2","data":{"bikes":[{"bike_id":"a1a881a7-a7fc-4869-9d8f-f27ce37dd081","system_id":"levelo_inurba_marseille","lat":43.31341,"lon":5.367098,"is_reserved":false,"is_disabled":false,"rental_uris":{"android":"levelo://app?vid=a1a881a7-a7fc-4869-9d8f-f27ce37dd081","ios":"levelo://app?vid=a1a881a7-a7fc-4869-9d8f-f27ce37dd081"},"vehicle_type_id":"4","last_reported":1702372043,"current_range_meters":17200,"station_id":"ce4bgr92rcd13ifvqc6g","pricing_plan_id":"free"},{"bike_id":"448c2d1c-c5fc-429a-81a3-ebbfd4ac3390","system_id":"levelo_inurba_marseille","lat":43.313391,"lon":5.36706,"is_reserved":false,"is_disabled":false,"rental_uris":{"android":"levelo://app?vid=448c2d1c-c5fc-429a-81a3-ebbfd4ac3390","ios":"levelo://app?vid=448c2d1c-c5fc-429a-81a3-ebbfd4ac3390"},"vehicle_type_id":"4","last_reported":1702372043,"current_range_meters":18400,"station_id":"ce4bgr92rcd13ifvqc6g","pricing_plan_id":"free"},{"bike_id":"91a6ad9b-fb43-467f-8fb1-c151b8833ea0","system_id":"levelo_inurba_marseille","lat":43.31341,"lon":5.367098,"is_reserved":false,"is_disabled":false,"rental_uris":{"android":"levelo://app?vid=91a6ad9b-fb43-467f-8fb1-c151b8833ea0","ios":"levelo://app?vid=91a6ad9b-fb43-467f-8fb1-c151b8833ea0"},"vehicle_type_id":"4","last_reported":1702372043,"current_range_meters":24800,"station_id":"ce4bgr92rcd13ifvqc6g","pricing_plan_id":"free"},{"bike_id":"002cfb12-6112-4936-a860-5e8ece7463a3","system_id":"levelo_inurba_marseille","lat":43.31341,"lon":5.367098,"is_reserved":false,"is_disabled":false,"rental_uris":{"android":"levelo://app?vid=002cfb12-6112-4936-a860-5e8ece7463a3","ios":"levelo://app?vid=002cfb12-6112-4936-a860-5e8ece7463a3"},"vehicle_type_id":"4","last_reported":1702372043,"current_range_meters":31200,"station_id":"ce4bgr92rcd13ifvqc6g","pricing_plan_id":"free"},{"bike_id":"225995f4-8a71-478f-a276-8977d37a3f7c","system_id":"levelo_inurba_marseille","lat":43.313391,"lon":5.36706,"is_reserved":false,"is_disabled":false,"rental_uris":{"android":"levelo://app?vid=225995f4-8a71-478f-a276-8977d37a3f7c","ios":"levelo://app?vid=225995f4-8a71-478f-a276-8977d37a3f7c"},"vehicle_type_id":"4","last_reported":1702372043,"current_range_meters":31200,"station_id":"ce4bgr92rcd13ifvqc6g","pricing_plan_id":"free"},{"bike_id":"40341bd1-dc5e-4783-946d-7fb035bf9942","system_id":"levelo_inurba_marseille","lat":43.313391,"lon":5.36706,"is_reserved":false,"is_disabled":false,"rental_uris":{"android":"levelo://app?vid=40341bd1-dc5e-4783-946d-7fb035bf9942","ios":"levelo://app?vid=40341bd1-dc5e-4783-946d-7fb035bf9942"},"vehicle_type_id":"4","last_reported":1702372043,"current_range_meters":13600,"station_id":"ce4bgr92rcd13ifvqc6g","pricing_plan_id":"free"},{"bike_id":"9d35372a-8d80-45db-a79c-af75593f578b","system_id":"levelo_inurba_marseille","lat":43.309076,"lon":5.368465,"is_reserved":false,"is_disabled":false,"rental_uris":{"android":"levelo://app?vid=9d35372a-8d80-45db-a79c-af75593f578b","ios":"levelo://app?vid=9d35372a-8d80-45db-a79c-af75593f578b"},"vehicle_type_id":"4","last_reported":1702372043,"current_range_meters":19200,"station_id":"ce4bgn92rcd13ifvqbvg","pricing_plan_id":"free"},{"bike_id":"9d4bbe0e-12fb-4ffc-8ca0-523c84fa4c56","system_id":"levelo_inurba_marseille","lat":43.309076,"lon":5.368465,"is_reserved":false,"is_disabled":false,"rental_uris":{"android":"levelo://app?vid=9d4bbe0e-12fb-4ffc-8ca0-523c84fa4c56","ios":"levelo://app?vid=9d4bbe0e-12fb-4ffc-8ca0-523c84fa4c56"},"vehicle_type_id":"4","last_reported":1702372043,"current_range_meters":6000,"station_id":"ce4bgn92rcd13ifvqbvg","pricing_plan_id":"free"},{"bike_id":"a8885a9f-f1b9-417f-bf7a-885e0dc8d126","system_id":"levelo_inurba_marseille","lat":43.314811,"lon":5.373103,"is_reserved":false,"is_disabled":false,"rental_uris":{"android":"levelo://app?vid=a8885a9f-f1b9-417f-bf7a-885e0dc8d126","ios":"levelo://app?vid=a8885a9f-f1b9-417f-bf7a-885e0dc8d126"},"vehicle_type_id":"4","last_reported":1702372043,"current_range_meters":24800,"station_id":"ce4bgt12rcd13ifvqcd0","pricing_plan_id":"free"},{"bike_id":"31a42e56-93e6-413e-9897-e4e6fe4bb8d1","system_id":"levelo_inurba_marseille","lat":43.314811,"lon":5.373103,"is_reserved":false,"is_disabled":false,"rental_uris":{"android":"levelo://app?vid=31a42e56-93e6-413e-9897-e4e6fe4bb8d1","ios":"levelo://app?vid=31a42e56-93e6-413e-9897-e4e6fe4bb8d1"},"vehicle_type_id":"4","last_reported":1702372043,"current_range_meters":14000,"station_id":"ce4bgt12rcd13ifvqcd0","pricing_plan_id":"free"},{"bike_id":"742ad1d3-6e08-4d12-92d4-cc8bba79968b","system_id":"levelo_inurba_marseille","lat":43.305712,"lon":5.365641,"is_reserved":false,"is_disabled":false,"rental_uris":{"android":"levelo://app?vid=742ad1d3-6e08-4d12-92d4-cc8bba79968b","ios":"levelo://app?vid=742ad1d3-6e08-4d12-92d4-cc8bba79968b"},"vehicle_type_id":"4","last_reported":1702372043,"current_range_meters":24800,"station_id":"ce4bgs12rcd13ifvqcag","pricing_plan_id":"free"},{"bike_id":"690cea3f-12db-45a1-b4d0-121afbab5e43","system_id":"levelo_inurba_marseille","lat":43.30538,"lon":5.36714,"is_reserved":false,"is_disabled":false,"rental_uris":{"android":"levelo://app?vid=690cea3f-12db-45a1-b4d0-121afbab5e43","ios":"levelo://app?vid=690cea3f-12db-45a1-b4d0-121afbab5e43"},"vehicle_type_id":"4","last_reported":1702372043,"current_range_meters":800,"station_id":"ce4bgrp2rcd13ifvqc9g","pricing_plan_id":"free"},{"bike_id":"cb57c367-17e9-4790-bea6-801fb719723d","system_id":"levelo_inurba_marseille","lat":43.305714,"lon":5.365633,"is_reserved":false,"is_disabled":false,"rental_uris":{"android":"levelo://app?vid=cb57c367-17e9-4790-bea6-801fb719723d","ios":"levelo://app?vid=cb57c367-17e9-4790-bea6-801fb719723d"},"vehicle_type_id":"4","last_reported":1702372043,"current_range_meters":6800,"station_id":"ce4bgs12rcd13ifvqcag","pricing_plan_id":"free"},{"bike_id":"f36debdb-6bea-4678-967a-886219dbe8b9","system_id":"levelo_inurba_marseille","lat":43.30536,"lon":5.367047,"is_reserved":false,"is_disabled":false,"rental_uris":{"android":"levelo://app?vid=f36debdb-6bea-4678-967a-886219dbe8b9","ios":"levelo://app?vid=f36debdb-6bea-4678-967a-886219dbe8b9"},"vehicle_type_id":"4","last_reported":1702372043,"current_range_meters":0,"station_id":"ce4bgrp2rcd13ifvqc9g","pricing_plan_id":"free"},{"bike_id":"0d6600a0-3d63-462f-8086-616428ce9303","system_id":"levelo_inurba_marseille","lat":43.305368,"lon":5.367343,"is_reserved":false,"is_disabled":false,"rental_uris":{"android":"levelo://app?vid=0d6600a0-3d63-462f-8086-616428ce9303","ios":"levelo://app?vid=0d6600a0-3d63-462f-8086-616428ce9303"},"vehicle_type_id":"4","last_reported":1702372043,"current_range_meters":16800,"station_id":"ce4bgrp2rcd13ifvqc9g","pricing_plan_id":"free"},{"bike_id":"27a49efa-e1c2-4c6b-875d-7832d9ea9a66","system_id":"levelo_inurba_marseille","lat":43.305368,"lon":5.367343,"is_reserved":false,"is_disabled":false,"rental_uris":{"android":"levelo://app?vid=27a49efa-e1c2-4c6b-875d-7832d9ea9a66","ios":"levelo://app?vid=27a49efa-e1c2-4c6b-875d-7832d9ea9a66"},"vehicle_type_id":"4","last_reported":1702372043,"current_range_meters":21600,"station_id":"ce4bgrp2rcd13ifvqc9g","pricing_plan_id":"free"},{"bike_id":"9da4132a-6f1b-4c84-8d6c-76109c4c288a","system_id":"levelo_inurba_marseille","lat":43.305368,"lon":5.367343,"is_reserved":false,"is_disabled":false,"rental_uris":{"android":"levelo://app?vid=9da4132a-6f1b-4c84-8d6c-76109c4c288a","ios":"levelo://app?vid=9da4132a-6f1b-4c84-8d6c-76109c4c288a"},"vehicle_type_id":"4","last_reported":1702372043,"current_range_meters":14400,"station_id":"ce4bgrp2rcd13ifvqc9g","pricing_plan_id":"free"},{"bike_id":"55f1035c-70f3-42e2-9037-3e0d3840ad46","system_id":"levelo_inurba_marseille","lat":43.305706,"lon":5.365654,"is_reserved":false,"is_disabled":false,"rental_uris":{"android":"levelo://app?vid=55f1035c-70f3-42e2-9037-3e0d3840ad46","ios":"levelo://app?vid=55f1035c-70f3-42e2-9037-3e0d3840ad46"},"vehicle_type_id":"4","last_reported":1702372043,"current_range_meters":14400,"station_id":"ce4bgs12rcd13ifvqcag","pricing_plan_id":"free"},{"bike_id":"d81e989e-0b3b-486c-b400-ebdc2da54e2b","system_id":"levelo_inurba_marseille","lat":43.305714,"lon":5.365633,"is_reserved":false,"is_disabled":false,"rental_uris":{"android":"levelo://app?vid=d81e989e-0b3b-486c-b400-ebdc2da54e2b","ios":"levelo://app?vid=d81e989e-0b3b-486c-b400-ebdc2da54e2b"},"vehicle_type_id":"4","last_reported":1702372043,"current_range_meters":31200,"station_id":"ce4bgs12rcd13ifvqcag","pricing_plan_id":"free"},{"bike_id":"4ce376a2-9207-4c47-98be-4be2e8cbf753","system_id":"levelo_inurba_marseille","lat":43.305706,"lon":5.365654,"is_reserved":false,"is_disabled":false,"rental_uris":{"android":"levelo://app?vid=4ce376a2-9207-4c47-98be-4be2e8cbf753","ios":"levelo://app?vid=4ce376a2-9207-4c47-98be-4be2e8cbf753"},"vehicle_type_id":"4","last_reported":1702372043,"current_range_meters":16400,"station_id":"ce4bgs12rcd13ifvqcag","pricing_plan_id":"free"},{"bike_id":"6f179f71-9639-4219-80c3-3710070ec185","system_id":"levelo_inurba_marseille","lat":43.305706,"lon":5.365654,"is_reserved":false,"is_disabled":false,"rental_uris":{"android":"levelo://app?vid=6f179f71-9639-4219-80c3-3710070ec185","ios":"levelo://app?vid=6f179f71-9639-4219-80c3-3710070ec185"},"vehicle_type_id":"4","last_reported":1702372043,"current_range_meters":12400,"station_id":"ce4bgs12rcd13ifvqcag","pricing_plan_id":"free"},{"bike_id":"67d7040b-cccd-46c5-8e87-b7669794113e","system_id":"levelo_inurba_marseille","lat":43.305706,"lon":5.365654,"is_reserved":false,"is_disabled":false,"rental_uris":{"android":"levelo://app?vid=67d7040b-cccd-46c5-8e87-b7669794113e","ios":"levelo://app?vid=67d7040b-cccd-46c5-8e87-b7669794113e"},"vehicle_type_id":"4","last_reported":1702372043,"current_range_meters":15600,"station_id":"ce4bgs12rcd13ifvqcag","pricing_plan_id":"free"},{"bike_id":"6ddf65a5-04f6-4af6-90da-7d5bfaa7d9e2","system_id":"levelo_inurba_marseille","lat":43.305706,"lon":5.365654,"is_reserved":false,"is_disabled":false,"rental_uris":{"android":"levelo://app?vid=6ddf65a5-04f6-4af6-90da-7d5bfaa7d9e2","ios":"levelo://app?vid=6ddf65a5-04f6-4af6-90da-7d5bfaa7d9e2"},"vehicle_type_id":"4","last_reported":1702372043,"current_range_meters":31200,"station_id":"ce4bgs12rcd13ifvqcag","pricing_plan_id":"free"},{"bike_id":"0acdaee8-d693-432d-9773-7c20815311dc","system_id":"levelo_inurba_marseille","lat":43.30304,"lon":5.368987,"is_reserved":false,"is_disabled":false,"rental_uris":{"android":"levelo://app?vid=0acdaee8-d693-432d-9773-7c20815311dc","ios":"levelo://app?vid=0acdaee8-d693-432d-9773-7c20815311dc"},"vehicle_type_id":"4","last_reported":1702372043,"current_range_meters":24800,"station_id":"ce4bgqh2rcd13ifvqc5g","pricing_plan_id":"free"},{"bike_id":"6a5d63a8-649a-4907-950e-8caa62588880","system_id":"levelo_inurba_marseille","lat":43.30304,"lon":5.368987,"is_reserved":false,"is_disabled":false,"rental_uris":{"android":"levelo://app?vid=6a5d63a8-649a-4907-950e-8caa62588880","ios":"levelo://app?vid=6a5d63a8-649a-4907-950e-8caa62588880"},"vehicle_type_id":"4","last_reported":1702372043,"current_range_meters":14800,"station_id":"ce4bgqh2rcd13ifvqc5g","pricing_plan_id":"free"},{"bike_id":"0a024822-4639-433a-a2d5-47b05ddcb3bc","system_id":"levelo_inurba_marseille","lat":43.301939,"lon":5.366286,"is_reserved":false,"is_disabled":false,"rental_uris":{"android":"levelo://app?vid=0a024822-4639-433a-a2d5-47b05ddcb3bc","ios":"levelo://app?vid=0a024822-4639-433a-a2d5-47b05ddcb3bc"},"vehicle_type_id":"4","last_reported":1702372043,"current_range_meters":11200,"station_id":"ce4bgrh2rcd13ifvqc8g","pricing_plan_id":"free"},{"bike_id":"ab020e04-01b3-495d-9cd6-f101c70fc76e","system_id":"levelo_inurba_marseille","lat":43.304606,"lon":5.379026,"is_reserved":false,"is_disabled":false,"rental_uris":{"android":"levelo://app?vid=ab020e04-01b3-495d-9cd6-f101c70fc76e","ios":"levelo://app?vid=ab020e04-01b3-495d-9cd6-f101c70fc76e"},"vehicle_type_id":"4","last_reported":1702372043,"current_range_meters":22800,"station_id":"ce4bgup2rcd13ifvqcn0","pricing_plan_id":"free"},{"bike_id":"223df545-e73b-4e56-8276-b037bafa4793","system_id":"levelo_inurba_marseille","lat":43.304606,"lon":5.379026,"is_reserved":false,"is_disabled":false,"rental_uris":{"android":"levelo://app?vid=223df545-e73b-4e56-8276-b037bafa4793","ios":"levelo://app?vid=223df545-e73b-4e56-8276-b037bafa4793"},"vehicle_type_id":"4","last_reported":1702372043,"current_range_meters":20400,"station_id":"ce4bgup2rcd13ifvqcn0","pricing_plan_id":"free"},{"bike_id":"f5dc9f4c-6a45-44d2-81d3-682788c49fd3","system_id":"levelo_inurba_marseille","lat":43.30455,"lon":5.37894,"is_reserved":false,"is_disabled":false,"rental_uris":{"android":"levelo://app?vid=f5dc9f4c-6a45-44d2-81d3-682788c49fd3","ios":"levelo://app?vid=f5dc9f4c-6a45-44d2-81d3-682788c49fd3"},"vehicle_type_id":"4","last_reported":1702372043,"current_range_meters":20000,"station_id":"ce4bgup2rcd13ifvqcn0","pricing_plan_id":"free"},{"bike_id":"625c6e73-2ac3-4f1e-b206-393df4c0324b","system_id":"levelo_inurba_marseille","lat":43.304606,"lon":5.379026,"is_reserved":false,"is_disabled":false,"rental_uris":{"android":"levelo://app?vid=625c6e73-2ac3-4f1e-b206-393df4c0324b","ios":"levelo://app?vid=625c6e73-2ac3-4f1e-b206-393df4c0324b"},"vehicle_type_id":"4","last_reported":1702372043,"current_range_meters":21200,"station_id":"ce4bgup2rcd13ifvqcn0","pricing_plan_id":"free"},{"bike_id":"8c7511a8-cf5a-4076-a24d-77dd0897cf49","system_id":"levelo_inurba_marseille","lat":43.304606,"lon":5.379026,"is_reserved":false,"is_disabled":false,"rental_uris":{"android":"levelo://app?vid=8c7511a8-cf5a-4076-a24d-77dd0897cf49","ios":"levelo://app?vid=8c7511a8-cf5a-4076-a24d-77dd0897cf49"},"vehicle_type_id":"4","last_reported":1702372043,"current_range_meters":0,"station_id":"ce4bgup2rcd13ifvqcn0","pricing_plan_id":"free"},{"bike_id":"fb700912-9b49-4108-b90a-66db80c52ac6","system_id":"levelo_inurba_marseille","lat":43.301429,"lon":5.37413,"is_reserved":false,"is_disabled":false,"rental_uris":{"android":"levelo://app?vid=fb700912-9b49-4108-b90a-66db80c52ac6","ios":"levelo://app?vid=fb700912-9b49-4108-b90a-66db80c52ac6"},"vehicle_type_id":"4","last_reported":1702372043,"current_range_meters":21200,"station_id":"ce4bgs92rcd13ifvqcc0","pricing_plan_id":"free"},{"bike_id":"8728139c-1be5-4244-9d8d-9b78c70e73a9","system_id":"levelo_inurba_marseille","lat":43.301429,"lon":5.37413,"is_reserved":false,"is_disabled":false,"rental_uris":{"android":"levelo://app?vid=8728139c-1be5-4244-9d8d-9b78c70e73a9","ios":"levelo://app?vid=8728139c-1be5-4244-9d8d-9b78c70e73a9"},"vehicle_type_id":"4","last_reported":1702372043,"current_range_meters":20000,"station_id":"ce4bgs92rcd13ifvqcc0","pricing_plan_id":"free"},{"bike_id":"7f5e0e6b-854e-4664-99ad-d0de6f870740","system_id":"levelo_inurba_marseille","lat":43.31356,"lon":5.38493,"is_reserved":false,"is_disabled":false,"rental_uris":{"android":"levelo://app?vid=7f5e0e6b-854e-4664-99ad-d0de6f870740","ios":"levelo://app?vid=7f5e0e6b-854e-4664-99ad-d0de6f870740"},"vehicle_type_id":"4","last_reported":1702372043,"current_range_meters":13200,"station_id":"ce4bgt92rcd13ifvqcf0","pricing_plan_id":"free"},{"bike_id":"df4d049d-b8e6-4243-967e-0826f396041a","system_id":"levelo_inurba_marseille","lat":43.299222,"lon":5.365554,"is_reserved":false,"is_disabled":false,"rental_uris":{"android":"levelo://app?vid=df4d049d-b8e6-4243-967e-0826f396041a","ios":"levelo://app?vid=df4d049d-b8e6-4243-967e-0826f396041a"},"vehicle_type_id":"4","last_reported":1702372043,"current_range_meters":21600,"station_id":"ce4bgm92rcd13ifvqbr0","pricing_plan_id":"free"},{"bike_id":"f7128290-e439-40b2-92b0-d9d3ec497370","system_id":"levelo_inurba_marseille","lat":43.298433,"lon":5.362774,"is_reserved":false,"is_disabled":false,"rental_uris":{"android":"levelo://app?vid=f7128290-e439-40b2-92b0-d9d3ec497370","ios":"levelo://app?vid=f7128290-e439-40b2-92b0-d9d3ec497370"},"vehicle_type_id":"4","last_reported":1702372043,"current_range_meters":22000,"station_id":"ce4bgpp2rcd13ifvqc3g","pricing_plan_id":"free"},{"bike_id":"435a4a87-80bd-4b7f-949d-d1ab669a5cac","system_id":"levelo_inurba_marseille","lat":43.298433,"lon":5.362774,"is_reserved":false,"is_disabled":false,"rental_uris":{"android":"levelo://app?vid=435a4a87-80bd-4b7f-949d-d1ab669a5cac","ios":"levelo://app?vid=435a4a87-80bd-4b7f-949d-d1ab669a5cac"},"vehicle_type_id":"4","last_reported":1702372043,"current_range_meters":28800,"station_id":"ce4bgpp2rcd13ifvqc3g","pricing_plan_id":"free"},{"bike_id":"1ee2e56b-21da-4bd6-bb84-81427f352779","system_id":"levelo_inurba_marseille","lat":43.299243,"lon":5.37481,"is_reserved":false,"is_disabled":false,"rental_uris":{"android":"levelo://app?vid=1ee2e56b-21da-4bd6-bb84-81427f352779","ios":"levelo://app?vid=1ee2e56b-21da-4bd6-bb84-81427f352779"},"vehicle_type_id":"4","last_reported":1702372043,"current_range_meters":26400,"station_id":"ce4bgjh2rcd13ifvqbg0","pricing_plan_id":"free"},{"bike_id":"b264a3b3-4bc5-4c58-898c-ce1530282d80","system_id":"levelo_inurba_marseille","lat":43.299243,"lon":5.374807,"is_reserved":false,"is_disabled":false,"rental_uris":{"android":"levelo://app?vid=b264a3b3-4bc5-4c58-898c-ce1530282d80","ios":"levelo://app?vid=b264a3b3-4bc5-4c58-898c-ce1530282d80"},"vehicle_type_id":"4","last_reported":1702372043,"current_range_meters":18000,"station_id":"ce4bgjh2rcd13ifvqbg0","pricing_plan_id":"free"},{"bike_id":"41f60a0b-3ef7-4fd8-81f3-c0f1b227235b","system_id":"levelo_inurba_marseille","lat":43.297774,"lon":5.370875,"is_reserved":false,"is_disabled":false,"rental_uris":{"android":"levelo://app?vid=41f60a0b-3ef7-4fd8-81f3-c0f1b227235b","ios":"levelo://app?vid=41f60a0b-3ef7-4fd8-81f3-c0f1b227235b"},"vehicle_type_id":"4","last_reported":1702372043,"current_range_meters":15600,"station_id":"ce4bgop2rcd13ifvqc1g","pricing_plan_id":"free"},{"bike_id":"ecf18d98-bf5f-40d6-a1dd-4d229e6206e6","system_id":"levelo_inurba_marseille","lat":43.297163,"lon":5.365866,"is_reserved":false,"is_disabled":false,"rental_uris":{"android":"levelo://app?vid=ecf18d98-bf5f-40d6-a1dd-4d229e6206e6","ios":"levelo://app?vid=ecf18d98-bf5f-40d6-a1dd-4d229e6206e6"},"vehicle_type_id":"4","last_reported":1702372043,"current_range_meters":14000,"station_id":"ce4bgn12rcd13ifvqbt0","pricing_plan_id":"free"},{"bike_id":"1794aa73-86e1-41a2-931c-ad4a31373372","system_id":"levelo_inurba_marseille","lat":43.29573,"lon":5.367355,"is_reserved":false,"is_disabled":false,"rental_uris":{"android":"levelo://app?vid=1794aa73-86e1-41a2-931c-ad4a31373372","ios":"levelo://app?vid=1794aa73-86e1-41a2-931c-ad4a31373372"},"vehicle_type_id":"4","last_reported":1702372043,"current_range_meters":26800,"station_id":"ce4bgph2rcd13ifvqc2g","pricing_plan_id":"free"},{"bike_id":"b97f116f-fef1-4493-bd34-f6745c829e9a","system_id":"levelo_inurba_marseille","lat":43.296935,"lon":5.376544,"is_reserved":false,"is_disabled":false,"rental_uris":{"android":"levelo://app?vid=b97f116f-fef1-4493-bd34-f6745c829e9a","ios":"levelo://app?vid=b97f116f-fef1-4493-bd34-f6745c829e9a"},"vehicle_type_id":"4","last_reported":1702372043,"current_range_meters":22000,"station_id":"ce4bgkh2rcd13ifvqbl0","pricing_plan_id":"free"},{"bike_id":"e9ed3663-a551-4c74-bf8f-6a2b9e66c3e3","system_id":"levelo_inurba_marseille","lat":43.309589,"lon":5.390258,"is_reserved":false,"is_disabled":false,"rental_uris":{"android":"levelo://app?vid=e9ed3663-a551-4c74-bf8f-6a2b9e66c3e3","ios":"levelo://app?vid=e9ed3663-a551-4c74-bf8f-6a2b9e66c3e3"},"vehicle_type_id":"4","last_reported":1702372043,"current_range_meters":0,"station_id":"ce4bgup2rcd13ifvqco0","pricing_plan_id":"free"},{"bike_id":"f5149518-088a-4b5c-b137-118e3ac18bce","system_id":"levelo_inurba_marseille","lat":43.313571,"lon":5.384829,"is_reserved":false,"is_disabled":false,"rental_uris":{"android":"levelo://app?vid=f5149518-088a-4b5c-b137-118e3ac18bce","ios":"levelo://app?vid=f5149518-088a-4b5c-b137-118e3ac18bce"},"vehicle_type_id":"4","last_reported":1702372043,"current_range_meters":17200,"station_id":"ce4bgt92rcd13ifvqcf0","pricing_plan_id":"free"},{"bike_id":"fd86a6ef-a91a-4523-8013-762d44b65626","system_id":"levelo_inurba_marseille","lat":43.309589,"lon":5.390258,"is_reserved":false,"is_disabled":false,"rental_uris":{"android":"levelo://app?vid=fd86a6ef-a91a-4523-8013-762d44b65626","ios":"levelo://app?vid=fd86a6ef-a91a-4523-8013-762d44b65626"},"vehicle_type_id":"4","last_reported":1702372043,"current_range_meters":30800,"station_id":"ce4bgup2rcd13ifvqco0","pricing_plan_id":"free"},{"bike_id":"0099546d-a434-4354-849a-9f6cb96d3aa4","system_id":"levelo_inurba_marseille","lat":43.30954,"lon":5.39042,"is_reserved":false,"is_disabled":false,"rental_uris":{"android":"levelo://app?vid=0099546d-a434-4354-849a-9f6cb96d3aa4","ios":"levelo://app?vid=0099546d-a434-4354-849a-9f6cb96d3aa4"},"vehicle_type_id":"4","last_reported":1702372043,"current_range_meters":21200,"station_id":"ce4bgup2rcd13ifvqco0","pricing_plan_id":"free"},{"bike_id":"c84ca40a-c0ce-47c9-85da-f1431c26b777","system_id":"levelo_inurba_marseille","lat":43.309589,"lon":5.390258,"is_reserved":false,"is_disabled":false,"rental_uris":{"android":"levelo://app?vid=c84ca40a-c0ce-47c9-85da-f1431c26b777","ios":"levelo://app?vid=c84ca40a-c0ce-47c9-85da-f1431c26b777"},"vehicle_type_id":"4","last_reported":1702372043,"current_range_meters":31200,"station_id":"ce4bgup2rcd13ifvqco0","pricing_plan_id":"free"},{"bike_id":"77a6c46d-d898-4e4f-8846-efa91689c7f0","system_id":"levelo_inurba_marseille","lat":43.297827,"lon":5.38093,"is_reserved":false,"is_disabled":false,"rental_uris":{"android":"levelo://app?vid=77a6c46d-d898-4e4f-8846-efa91689c7f0","ios":"levelo://app?vid=77a6c46d-d898-4e4f-8846-efa91689c7f0"},"vehicle_type_id":"4","last_reported":1702372043,"current_range_meters":0,"station_id":"","pricing_plan_id":"free"},{"bike_id":"fce004ec-0811-472d-96e0-6d67cd1ee266","system_id":"levelo_inurba_marseille","lat":43.296263,"lon":5.377094,"is_reserved":false,"is_disabled":false,"rental_uris":{"android":"levelo://app?vid=fce004ec-0811-472d-96e0-6d67cd1ee266","ios":"levelo://app?vid=fce004ec-0811-472d-96e0-6d67cd1ee266"},"vehicle_type_id":"4","last_reported":1702372043,"current_range_meters":20000,"station_id":"ce4bgi92rcd13ifvqb90","pricing_plan_id":"free"},{"bike_id":"b6ed93b9-2d52-4c7b-a7ee-77fcaa1446b2","system_id":"levelo_inurba_marseille","lat":43.295279,"lon":5.375048,"is_reserved":false,"is_disabled":false,"rental_uris":{"android":"levelo://app?vid=b6ed93b9-2d52-4c7b-a7ee-77fcaa1446b2","ios":"levelo://app?vid=b6ed93b9-2d52-4c7b-a7ee-77fcaa1446b2"},"vehicle_type_id":"4","last_reported":1702372043,"current_range_meters":1600,"station_id":"ce4bgkp2rcd13ifvqbmg","pricing_plan_id":"free"},{"bike_id":"59da21fc-b961-4965-bea4-8f754955db54","system_id":"levelo_inurba_marseille","lat":43.295279,"lon":5.375048,"is_reserved":false,"is_disabled":false,"rental_uris":{"android":"levelo://app?vid=59da21fc-b961-4965-bea4-8f754955db54","ios":"levelo://app?vid=59da21fc-b961-4965-bea4-8f754955db54"},"vehicle_type_id":"4","last_reported":1702372043,"current_range_meters":20800,"station_id":"ce4bgkp2rcd13ifvqbmg","pricing_plan_id":"free"},{"bike_id":"f6e991f8-d43a-4928-85d7-9b1ba365a56a","system_id":"levelo_inurba_marseille","lat":43.299672,"lon":5.384968,"is_reserved":false,"is_disabled":false,"rental_uris":{"android":"levelo://app?vid=f6e991f8-d43a-4928-85d7-9b1ba365a56a","ios":"levelo://app?vid=f6e991f8-d43a-4928-85d7-9b1ba365a56a"},"vehicle_type_id":"4","last_reported":1702372043,"current_range_meters":9200,"station_id":"","pricing_plan_id":"free"},{"bike_id":"59bbd41f-61e5-4fc2-bf31-7e8e5ad513ca","system_id":"levelo_inurba_marseille","lat":43.29602,"lon":5.381084,"is_reserved":false,"is_disabled":false,"rental_uris":{"android":"levelo://app?vid=59bbd41f-61e5-4fc2-bf31-7e8e5ad513ca","ios":"levelo://app?vid=59bbd41f-61e5-4fc2-bf31-7e8e5ad513ca"},"vehicle_type_id":"4","last_reported":1702372043,"current_range_meters":29200,"station_id":"ce4bgl12rcd13ifvqbo0","pricing_plan_id":"free"},{"bike_id":"f1b036c1-cfd3-4265-b66a-554d314aa8af","system_id":"levelo_inurba_marseille","lat":43.29601,"lon":5.381084,"is_reserved":false,"is_disabled":false,"rental_uris":{"android":"levelo://app?vid=f1b036c1-cfd3-4265-b66a-554d314aa8af","ios":"levelo://app?vid=f1b036c1-cfd3-4265-b66a-554d314aa8af"},"vehicle_type_id":"4","last_reported":1702372043,"current_range_meters":2400,"station_id":"ce4bgl12rcd13ifvqbo0","pricing_plan_id":"free"},{"bike_id":"47b1cd6f-44e8-4efb-a4ea-d76db800afbe","system_id":"levelo_inurba_marseille","lat":43.29336,"lon":5.370947,"is_reserved":false,"is_disabled":false,"rental_uris":{"android":"levelo://app?vid=47b1cd6f-44e8-4efb-a4ea-d76db800afbe","ios":"levelo://app?vid=47b1cd6f-44e8-4efb-a4ea-d76db800afbe"},"vehicle_type_id":"4","last_reported":1702372043,"current_range_meters":13600,"station_id":"ce4bgh92rcd13ifvqb40","pricing_plan_id":"free"},{"bike_id":"a1d99e00-c3bd-4a90-9254-26479b0e2877","system_id":"levelo_inurba_marseille","lat":43.293259,"lon":5.371586,"is_reserved":false,"is_disabled":false,"rental_uris":{"android":"levelo://app?vid=a1d99e00-c3bd-4a90-9254-26479b0e2877","ios":"levelo://app?vid=a1d99e00-c3bd-4a90-9254-26479b0e2877"},"vehicle_type_id":"4","last_reported":1702372043,"current_range_meters":22400,"station_id":"ce4bgh92rcd13ifvqb40","pricing_plan_id":"free"},{"bike_id":"3aacc977-f4f6-462d-a163-f5af625a61d9","system_id":"levelo_inurba_marseille","lat":43.29275,"lon":5.3684,"is_reserved":false,"is_disabled":false,"rental_uris":{"android":"levelo://app?vid=3aacc977-f4f6-462d-a163-f5af625a61d9","ios":"levelo://app?vid=3aacc977-f4f6-462d-a163-f5af625a61d9"},"vehicle_type_id":"4","last_reported":1702372043,"current_range_meters":10400,"station_id":"ce4bhbp2rcd13ifvqesg","pricing_plan_id":"free"},{"bike_id":"64d59f9f-9b84-4be2-b6e0-39dffbe98dcb","system_id":"levelo_inurba_marseille","lat":43.305994,"lon":5.393687,"is_reserved":false,"is_disabled":false,"rental_uris":{"android":"levelo://app?vid=64d59f9f-9b84-4be2-b6e0-39dffbe98dcb","ios":"levelo://app?vid=64d59f9f-9b84-4be2-b6e0-39dffbe98dcb"},"vehicle_type_id":"4","last_reported":1702372043,"current_range_meters":23600,"station_id":"ce4bh0p2rcd13ifvqd80","pricing_plan_id":"free"},{"bike_id":"c427c4fa-3133-4e2a-a729-f78ff6d18b95","system_id":"levelo_inurba_marseille","lat":43.2936,"lon":5.37835,"is_reserved":false,"is_disabled":false,"rental_uris":{"android":"levelo://app?vid=c427c4fa-3133-4e2a-a729-f78ff6d18b95","ios":"levelo://app?vid=c427c4fa-3133-4e2a-a729-f78ff6d18b95"},"vehicle_type_id":"4","last_reported":1702372043,"current_range_meters":18800,"station_id":"ce4bgjh2rcd13ifvqbf0","pricing_plan_id":"free"},{"bike_id":"2b739983-7b70-4a72-b8f9-4301eecb8806","system_id":"levelo_inurba_marseille","lat":43.2936,"lon":5.37835,"is_reserved":false,"is_disabled":false,"rental_uris":{"android":"levelo://app?vid=2b739983-7b70-4a72-b8f9-4301eecb8806","ios":"levelo://app?vid=2b739983-7b70-4a72-b8f9-4301eecb8806"},"vehicle_type_id":"4","last_reported":1702372043,"current_range_meters":16000,"station_id":"ce4bgjh2rcd13ifvqbf0","pricing_plan_id":"free"},{"bike_id":"77b75f2a-1035-4ed1-8e2e-106342831ad3","system_id":"levelo_inurba_marseille","lat":43.300852,"lon":5.390859,"is_reserved":false,"is_disabled":false,"rental_uris":{"android":"levelo://app?vid=77b75f2a-1035-4ed1-8e2e-106342831ad3","ios":"levelo://app?vid=77b75f2a-1035-4ed1-8e2e-106342831ad3"},"vehicle_type_id":"4","last_reported":1702372043,"current_range_meters":13600,"station_id":"ce4bh192rcd13ifvqdb0","pricing_plan_id":"free"},{"bike_id":"4eda0adf-dc88-464b-9231-fed12e9012df","system_id":"levelo_inurba_marseille","lat":43.292663,"lon":5.376394,"is_reserved":false,"is_disabled":false,"rental_uris":{"android":"levelo://app?vid=4eda0adf-dc88-464b-9231-fed12e9012df","ios":"levelo://app?vid=4eda0adf-dc88-464b-9231-fed12e9012df"},"vehicle_type_id":"4","last_reported":1702372043,"current_range_meters":12800,"station_id":"ce4bgi12rcd13ifvqb80","pricing_plan_id":"free"},{"bike_id":"d00d8624-e9f4-4406-a9e0-8fffb8de27bb","system_id":"levelo_inurba_marseille","lat":43.29529,"lon":5.385581,"is_reserved":false,"is_disabled":false,"rental_uris":{"android":"levelo://app?vid=d00d8624-e9f4-4406-a9e0-8fffb8de27bb","ios":"levelo://app?vid=d00d8624-e9f4-4406-a9e0-8fffb8de27bb"},"vehicle_type_id":"4","last_reported":1702372043,"current_range_meters":19200,"station_id":"ce4bgih2rcd13ifvqba0","pricing_plan_id":"free"},{"bike_id":"42aab73a-5f7c-4810-8a57-14865d63fd5f","system_id":"levelo_inurba_marseille","lat":43.29529,"lon":5.385581,"is_reserved":false,"is_disabled":false,"rental_uris":{"android":"levelo://app?vid=42aab73a-5f7c-4810-8a57-14865d63fd5f","ios":"levelo://app?vid=42aab73a-5f7c-4810-8a57-14865d63fd5f"},"vehicle_type_id":"4","last_reported":1702372043,"current_range_meters":29600,"station_id":"ce4bgih2rcd13ifvqba0","pricing_plan_id":"free"},{"bike_id":"5a60731f-c3eb-47f1-9606-a5e523ceec39","system_id":"levelo_inurba_marseille","lat":43.302008,"lon":5.394694,"is_reserved":false,"is_disabled":false,"rental_uris":{"android":"levelo://app?vid=5a60731f-c3eb-47f1-9606-a5e523ceec39","ios":"levelo://app?vid=5a60731f-c3eb-47f1-9606-a5e523ceec39"},"vehicle_type_id":"4","last_reported":1702372043,"current_range_meters":19600,"station_id":"ce4bh0p2rcd13ifvqd70","pricing_plan_id":"free"},{"bike_id":"17f09398-a94b-4a14-8a91-2fd0a0f5e1b9","system_id":"levelo_inurba_marseille","lat":43.294162,"lon":5.386292,"is_reserved":false,"is_disabled":false,"rental_uris":{"android":"levelo://app?vid=17f09398-a94b-4a14-8a91-2fd0a0f5e1b9","ios":"levelo://app?vid=17f09398-a94b-4a14-8a91-2fd0a0f5e1b9"},"vehicle_type_id":"4","last_reported":1702372043,"current_range_meters":11600,"station_id":"ce4bh2h2rcd13ifvqdh0","pricing_plan_id":"free"},{"bike_id":"40fdbd59-0973-4b01-8eb4-08334430812f","system_id":"levelo_inurba_marseille","lat":43.289184,"lon":5.366408,"is_reserved":false,"is_disabled":false,"rental_uris":{"android":"levelo://app?vid=40fdbd59-0973-4b01-8eb4-08334430812f","ios":"levelo://app?vid=40fdbd59-0973-4b01-8eb4-08334430812f"},"vehicle_type_id":"4","last_reported":1702372043,"current_range_meters":24000,"station_id":"ce4bhap2rcd13ifvqek0","pricing_plan_id":"free"},{"bike_id":"2b7b668e-0ca0-48b4-827d-6767be8e9a48","system_id":"levelo_inurba_marseille","lat":43.290103,"lon":5.356114,"is_reserved":false,"is_disabled":false,"rental_uris":{"android":"levelo://app?vid=2b7b668e-0ca0-48b4-827d-6767be8e9a48","ios":"levelo://app?vid=2b7b668e-0ca0-48b4-827d-6767be8e9a48"},"vehicle_type_id":"4","last_reported":1702372043,"current_range_meters":5600,"station_id":"ce4bhb92rcd13ifvqen0","pricing_plan_id":"free"},{"bike_id":"6303eecf-faed-4eaa-b06b-204c926aa042","system_id":"levelo_inurba_marseille","lat":43.289743,"lon":5.378304,"is_reserved":false,"is_disabled":false,"rental_uris":{"android":"levelo://app?vid=6303eecf-faed-4eaa-b06b-204c926aa042","ios":"levelo://app?vid=6303eecf-faed-4eaa-b06b-204c926aa042"},"vehicle_type_id":"4","last_reported":1702372043,"current_range_meters":13200,"station_id":"ce4bh9p2rcd13ifvqed0","pricing_plan_id":"free"},{"bike_id":"a1b2ebb9-1def-470c-b16f-daa870a67bfa","system_id":"levelo_inurba_marseille","lat":43.2901,"lon":5.381269,"is_reserved":false,"is_disabled":false,"rental_uris":{"android":"levelo://app?vid=a1b2ebb9-1def-470c-b16f-daa870a67bfa","ios":"levelo://app?vid=a1b2ebb9-1def-470c-b16f-daa870a67bfa"},"vehicle_type_id":"4","last_reported":1702372043,"current_range_meters":19600,"station_id":"ce4bh4p2rcd13ifvqe1g","pricing_plan_id":"free"},{"bike_id":"e1115d16-a177-4b09-99f4-d84a7f0a9df4","system_id":"levelo_inurba_marseille","lat":43.33744,"lon":5.37468,"is_reserved":false,"is_disabled":false,"rental_uris":{"android":"levelo://app?vid=e1115d16-a177-4b09-99f4-d84a7f0a9df4","ios":"levelo://app?vid=e1115d16-a177-4b09-99f4-d84a7f0a9df4"},"vehicle_type_id":"4","last_reported":1702372043,"current_range_meters":24400,"station_id":"","pricing_plan_id":"free"},{"bike_id":"1ffa6cab-2192-4490-9617-61044011c6b1","system_id":"levelo_inurba_marseille","lat":43.33747,"lon":5.374709,"is_reserved":false,"is_disabled":false,"rental_uris":{"android":"levelo://app?vid=1ffa6cab-2192-4490-9617-61044011c6b1","ios":"levelo://app?vid=1ffa6cab-2192-4490-9617-61044011c6b1"},"vehicle_type_id":"4","last_reported":1702372043,"current_range_meters":16800,"station_id":"","pricing_plan_id":"free"},{"bike_id":"1a9123ca-1ac0-4cbb-b622-534f88bcae20","system_id":"levelo_inurba_marseille","lat":43.337563,"lon":5.374598,"is_reserved":false,"is_disabled":false,"rental_uris":{"android":"levelo://app?vid=1a9123ca-1ac0-4cbb-b622-534f88bcae20","ios":"levelo://app?vid=1a9123ca-1ac0-4cbb-b622-534f88bcae20"},"vehicle_type_id":"4","last_reported":1702372043,"current_range_meters":29200,"station_id":"","pricing_plan_id":"free"},{"bike_id":"24f3ba54-031b-4e82-a112-cb6484159b6c","system_id":"levelo_inurba_marseille","lat":43.306412,"lon":5.401035,"is_reserved":false,"is_disabled":false,"rental_uris":{"android":"levelo://app?vid=24f3ba54-031b-4e82-a112-cb6484159b6c","ios":"levelo://app?vid=24f3ba54-031b-4e82-a112-cb6484159b6c"},"vehicle_type_id":"4","last_reported":1702372043,"current_range_meters":6000,"station_id":"ce4bh112rcd13ifvqda0","pricing_plan_id":"free"},{"bike_id":"e48ee79a-7a0b-4b83-83d7-e382af872136","system_id":"levelo_inurba_marseille","lat":43.301117,"lon":5.398795,"is_reserved":false,"is_disabled":false,"rental_uris":{"android":"levelo://app?vid=e48ee79a-7a0b-4b83-83d7-e382af872136","ios":"levelo://app?vid=e48ee79a-7a0b-4b83-83d7-e382af872136"},"vehicle_type_id":"4","last_reported":1702372043,"current_range_meters":8000,"station_id":"ce4bh0h2rcd13ifvqd40","pricing_plan_id":"free"},{"bike_id":"ed5fde0b-d646-4eab-b259-650bfd4719a6","system_id":"levelo_inurba_marseille","lat":43.301117,"lon":5.398795,"is_reserved":false,"is_disabled":false,"rental_uris":{"android":"levelo://app?vid=ed5fde0b-d646-4eab-b259-650bfd4719a6","ios":"levelo://app?vid=ed5fde0b-d646-4eab-b259-650bfd4719a6"},"vehicle_type_id":"4","last_reported":1702372043,"current_range_meters":15200,"station_id":"ce4bh0h2rcd13ifvqd40","pricing_plan_id":"free"},{"bike_id":"1d940a77-e649-44a7-aefe-2166da6ba2ec","system_id":"levelo_inurba_marseille","lat":43.286593,"lon":5.363346,"is_reserved":false,"is_disabled":false,"rental_uris":{"android":"levelo://app?vid=1d940a77-e649-44a7-aefe-2166da6ba2ec","ios":"levelo://app?vid=1d940a77-e649-44a7-aefe-2166da6ba2ec"},"vehicle_type_id":"4","last_reported":1702372043,"current_range_meters":31200,"station_id":"ce4bhah2rcd13ifvqej0","pricing_plan_id":"free"},{"bike_id":"dd55c571-beb8-4144-9eee-a018fae0dfc2","system_id":"levelo_inurba_marseille","lat":43.286039,"lon":5.370681,"is_reserved":false,"is_disabled":false,"rental_uris":{"android":"levelo://app?vid=dd55c571-beb8-4144-9eee-a018fae0dfc2","ios":"levelo://app?vid=dd55c571-beb8-4144-9eee-a018fae0dfc2"},"vehicle_type_id":"4","last_reported":1702372043,"current_range_meters":24000,"station_id":"ce4bht12rcd13ifvqi60","pricing_plan_id":"free"},{"bike_id":"2cf4b79c-9201-48b2-ad9c-fda25cb80501","system_id":"levelo_inurba_marseille","lat":43.287185,"lon":5.379373,"is_reserved":false,"is_disabled":false,"rental_uris":{"android":"levelo://app?vid=2cf4b79c-9201-48b2-ad9c-fda25cb80501","ios":"levelo://app?vid=2cf4b79c-9201-48b2-ad9c-fda25cb80501"},"vehicle_type_id":"4","last_reported":1702372043,"current_range_meters":15600,"station_id":"ce4bh9p2rcd13ifvqec0","pricing_plan_id":"free"},{"bike_id":"11a33d85-3275-4dbe-a281-53f96f5ea4e9","system_id":"levelo_inurba_marseille","lat":43.296668,"lon":5.397863,"is_reserved":false,"is_disabled":false,"rental_uris":{"android":"levelo://app?vid=11a33d85-3275-4dbe-a281-53f96f5ea4e9","ios":"levelo://app?vid=11a33d85-3275-4dbe-a281-53f96f5ea4e9"},"vehicle_type_id":"4","last_reported":1702372043,"current_range_meters":0,"station_id":"","pricing_plan_id":"free"},{"bike_id":"a53f5d02-c724-41b5-bc50-53d39b8c48d9","system_id":"levelo_inurba_marseille","lat":43.323464,"lon":5.406297,"is_reserved":false,"is_disabled":false,"rental_uris":{"android":"levelo://app?vid=a53f5d02-c724-41b5-bc50-53d39b8c48d9","ios":"levelo://app?vid=a53f5d02-c724-41b5-bc50-53d39b8c48d9"},"vehicle_type_id":"4","last_reported":1702372043,"current_range_meters":30400,"station_id":"ce4bhq92rcd13ifvqhjg","pricing_plan_id":"free"},{"bike_id":"d59e853c-4b50-4b54-824e-de4966184c3b","system_id":"levelo_inurba_marseille","lat":43.289363,"lon":5.396322,"is_reserved":false,"is_disabled":false,"rental_uris":{"android":"levelo://app?vid=d59e853c-4b50-4b54-824e-de4966184c3b","ios":"levelo://app?vid=d59e853c-4b50-4b54-824e-de4966184c3b"},"vehicle_type_id":"4","last_reported":1702372043,"current_range_meters":30400,"station_id":"ce4bh3h2rcd13ifvqdn0","pricing_plan_id":"free"},{"bike_id":"4ee53fc3-95fe-4ec3-ae50-b9a8cd12442e","system_id":"levelo_inurba_marseille","lat":43.28039,"lon":5.369297,"is_reserved":false,"is_disabled":false,"rental_uris":{"android":"levelo://app?vid=4ee53fc3-95fe-4ec3-ae50-b9a8cd12442e","ios":"levelo://app?vid=4ee53fc3-95fe-4ec3-ae50-b9a8cd12442e"},"vehicle_type_id":"4","last_reported":1702372043,"current_range_meters":27200,"station_id":"ce4bha12rcd13ifvqef0","pricing_plan_id":"free"},{"bike_id":"696bf1ec-ecac-48e5-aca0-6e8a0eb3f4b8","system_id":"levelo_inurba_marseille","lat":43.28031,"lon":5.3694,"is_reserved":false,"is_disabled":false,"rental_uris":{"android":"levelo://app?vid=696bf1ec-ecac-48e5-aca0-6e8a0eb3f4b8","ios":"levelo://app?vid=696bf1ec-ecac-48e5-aca0-6e8a0eb3f4b8"},"vehicle_type_id":"4","last_reported":1702372043,"current_range_meters":26400,"station_id":"ce4bha12rcd13ifvqef0","pricing_plan_id":"free"},{"bike_id":"252be24b-7c7b-419c-af3c-1b04e8806b16","system_id":"levelo_inurba_marseille","lat":43.304188,"lon":5.412904,"is_reserved":false,"is_disabled":false,"rental_uris":{"android":"levelo://app?vid=252be24b-7c7b-419c-af3c-1b04e8806b16","ios":"levelo://app?vid=252be24b-7c7b-419c-af3c-1b04e8806b16"},"vehicle_type_id":"4","last_reported":1702372043,"current_range_meters":28400,"station_id":"ce4bhop2rcd13ifvqh8g","pricing_plan_id":"free"},{"bike_id":"18246b14-f06b-44f2-8b6e-75d3445abb05","system_id":"levelo_inurba_marseille","lat":43.304265,"lon":5.412826,"is_reserved":false,"is_disabled":false,"rental_uris":{"android":"levelo://app?vid=18246b14-f06b-44f2-8b6e-75d3445abb05","ios":"levelo://app?vid=18246b14-f06b-44f2-8b6e-75d3445abb05"},"vehicle_type_id":"4","last_reported":1702372043,"current_range_meters":15200,"station_id":"ce4bhop2rcd13ifvqh8g","pricing_plan_id":"free"},{"bike_id":"96ea0b03-8571-41c4-ab1d-4e8180ee3a47","system_id":"levelo_inurba_marseille","lat":43.279742,"lon":5.38744,"is_reserved":false,"is_disabled":false,"rental_uris":{"android":"levelo://app?vid=96ea0b03-8571-41c4-ab1d-4e8180ee3a47","ios":"levelo://app?vid=96ea0b03-8571-41c4-ab1d-4e8180ee3a47"},"vehicle_type_id":"4","last_reported":1702372043,"current_range_meters":31200,"station_id":"ce4bhg12rcd13ifvqf80","pricing_plan_id":"free"},{"bike_id":"6bab95e6-a10f-490d-a41a-c15fa97e6371","system_id":"levelo_inurba_marseille","lat":43.279742,"lon":5.38744,"is_reserved":false,"is_disabled":false,"rental_uris":{"android":"levelo://app?vid=6bab95e6-a10f-490d-a41a-c15fa97e6371","ios":"levelo://app?vid=6bab95e6-a10f-490d-a41a-c15fa97e6371"},"vehicle_type_id":"4","last_reported":1702372043,"current_range_meters":12400,"station_id":"ce4bhg12rcd13ifvqf80","pricing_plan_id":"free"},{"bike_id":"65e1ae28-1c77-4a28-8715-8c3739062dc3","system_id":"levelo_inurba_marseille","lat":43.325233,"lon":5.414318,"is_reserved":false,"is_disabled":false,"rental_uris":{"android":"levelo://app?vid=65e1ae28-1c77-4a28-8715-8c3739062dc3","ios":"levelo://app?vid=65e1ae28-1c77-4a28-8715-8c3739062dc3"},"vehicle_type_id":"4","last_reported":1702372043,"current_range_meters":7600,"station_id":"ce4bhq12rcd13ifvqhhg","pricing_plan_id":"free"},{"bike_id":"65587601-77ac-4e01-a980-47f6cbfdd6ae","system_id":"levelo_inurba_marseille","lat":43.325233,"lon":5.414318,"is_reserved":false,"is_disabled":false,"rental_uris":{"android":"levelo://app?vid=65587601-77ac-4e01-a980-47f6cbfdd6ae","ios":"levelo://app?vid=65587601-77ac-4e01-a980-47f6cbfdd6ae"},"vehicle_type_id":"4","last_reported":1702372043,"current_range_meters":16800,"station_id":"ce4bhq12rcd13ifvqhhg","pricing_plan_id":"free"},{"bike_id":"37ee48a7-36d1-4b6a-b01d-79c94e9a988c","system_id":"levelo_inurba_marseille","lat":43.325233,"lon":5.414318,"is_reserved":false,"is_disabled":false,"rental_uris":{"android":"levelo://app?vid=37ee48a7-36d1-4b6a-b01d-79c94e9a988c","ios":"levelo://app?vid=37ee48a7-36d1-4b6a-b01d-79c94e9a988c"},"vehicle_type_id":"4","last_reported":1702372043,"current_range_meters":25600,"station_id":"ce4bhq12rcd13ifvqhhg","pricing_plan_id":"free"},{"bike_id":"9c5de2c0-7ece-43a5-b6d4-d4765296e485","system_id":"levelo_inurba_marseille","lat":43.27618,"lon":5.361009,"is_reserved":false,"is_disabled":false,"rental_uris":{"android":"levelo://app?vid=9c5de2c0-7ece-43a5-b6d4-d4765296e485","ios":"levelo://app?vid=9c5de2c0-7ece-43a5-b6d4-d4765296e485"},"vehicle_type_id":"4","last_reported":1702372043,"current_range_meters":4000,"station_id":"ce4bgj92rcd13ifvqbe0","pricing_plan_id":"free"},{"bike_id":"0affd34a-26a3-4b23-9979-f74eada3d752","system_id":"levelo_inurba_marseille","lat":43.27623,"lon":5.3611,"is_reserved":false,"is_disabled":false,"rental_uris":{"android":"levelo://app?vid=0affd34a-26a3-4b23-9979-f74eada3d752","ios":"levelo://app?vid=0affd34a-26a3-4b23-9979-f74eada3d752"},"vehicle_type_id":"4","last_reported":1702372043,"current_range_meters":13200,"station_id":"ce4bgj92rcd13ifvqbe0","pricing_plan_id":"free"},{"bike_id":"1c737c4b-b7a0-41e6-8844-dae534cfc794","system_id":"levelo_inurba_marseille","lat":43.325233,"lon":5.414318,"is_reserved":false,"is_disabled":false,"rental_uris":{"android":"levelo://app?vid=1c737c4b-b7a0-41e6-8844-dae534cfc794","ios":"levelo://app?vid=1c737c4b-b7a0-41e6-8844-dae534cfc794"},"vehicle_type_id":"4","last_reported":1702372043,"current_range_meters":19600,"station_id":"ce4bhq12rcd13ifvqhhg","pricing_plan_id":"free"},{"bike_id":"7cddd4cc-2c7d-4381-9bfa-f684cdc32fa0","system_id":"levelo_inurba_marseille","lat":43.28009,"lon":5.39022,"is_reserved":false,"is_disabled":false,"rental_uris":{"android":"levelo://app?vid=7cddd4cc-2c7d-4381-9bfa-f684cdc32fa0","ios":"levelo://app?vid=7cddd4cc-2c7d-4381-9bfa-f684cdc32fa0"},"vehicle_type_id":"4","last_reported":1702372043,"current_range_meters":16000,"station_id":"","pricing_plan_id":"free"},{"bike_id":"f1b5931d-d3b9-4483-b874-4227e70f363c","system_id":"levelo_inurba_marseille","lat":43.27615,"lon":5.36107,"is_reserved":false,"is_disabled":false,"rental_uris":{"android":"levelo://app?vid=f1b5931d-d3b9-4483-b874-4227e70f363c","ios":"levelo://app?vid=f1b5931d-d3b9-4483-b874-4227e70f363c"},"vehicle_type_id":"4","last_reported":1702372043,"current_range_meters":30400,"station_id":"ce4bgj92rcd13ifvqbe0","pricing_plan_id":"free"},{"bike_id":"d5ea5ccc-606f-4e22-9e31-95152b58dc5c","system_id":"levelo_inurba_marseille","lat":43.325243,"lon":5.414326,"is_reserved":false,"is_disabled":false,"rental_uris":{"android":"levelo://app?vid=d5ea5ccc-606f-4e22-9e31-95152b58dc5c","ios":"levelo://app?vid=d5ea5ccc-606f-4e22-9e31-95152b58dc5c"},"vehicle_type_id":"4","last_reported":1702372043,"current_range_meters":20800,"station_id":"ce4bhq12rcd13ifvqhhg","pricing_plan_id":"free"},{"bike_id":"81d596eb-8c73-49fc-b52b-43413cf55be6","system_id":"levelo_inurba_marseille","lat":43.276129,"lon":5.361049,"is_reserved":false,"is_disabled":false,"rental_uris":{"android":"levelo://app?vid=81d596eb-8c73-49fc-b52b-43413cf55be6","ios":"levelo://app?vid=81d596eb-8c73-49fc-b52b-43413cf55be6"},"vehicle_type_id":"4","last_reported":1702372043,"current_range_meters":14800,"station_id":"ce4bgj92rcd13ifvqbe0","pricing_plan_id":"free"},{"bike_id":"a99acea3-1215-42f2-86fb-746ced356554","system_id":"levelo_inurba_marseille","lat":43.280784,"lon":5.396622,"is_reserved":false,"is_disabled":false,"rental_uris":{"android":"levelo://app?vid=a99acea3-1215-42f2-86fb-746ced356554","ios":"levelo://app?vid=a99acea3-1215-42f2-86fb-746ced356554"},"vehicle_type_id":"4","last_reported":1702372043,"current_range_meters":10400,"station_id":"ce4bho12rcd13ifvqh2g","pricing_plan_id":"free"},{"bike_id":"4738efbd-8a85-4838-b9d2-5741f42f7af5","system_id":"levelo_inurba_marseille","lat":43.280784,"lon":5.396622,"is_reserved":false,"is_disabled":false,"rental_uris":{"android":"levelo://app?vid=4738efbd-8a85-4838-b9d2-5741f42f7af5","ios":"levelo://app?vid=4738efbd-8a85-4838-b9d2-5741f42f7af5"},"vehicle_type_id":"4","last_reported":1702372043,"current_range_meters":21200,"station_id":"ce4bho12rcd13ifvqh2g","pricing_plan_id":"free"},{"bike_id":"924276fb-5dda-4895-b01f-2e4aee480573","system_id":"levelo_inurba_marseille","lat":43.275625,"lon":5.384392,"is_reserved":false,"is_disabled":false,"rental_uris":{"android":"levelo://app?vid=924276fb-5dda-4895-b01f-2e4aee480573","ios":"levelo://app?vid=924276fb-5dda-4895-b01f-2e4aee480573"},"vehicle_type_id":"4","last_reported":1702372043,"current_range_meters":26000,"station_id":"ce4bhh92rcd13ifvqfi0","pricing_plan_id":"free"},{"bike_id":"9ea10af0-3940-4224-a189-633a8d8b6409","system_id":"levelo_inurba_marseille","lat":43.273613,"lon":5.362705,"is_reserved":false,"is_disabled":false,"rental_uris":{"android":"levelo://app?vid=9ea10af0-3940-4224-a189-633a8d8b6409","ios":"levelo://app?vid=9ea10af0-3940-4224-a189-633a8d8b6409"},"vehicle_type_id":"4","last_reported":1702372043,"current_range_meters":29600,"station_id":"ce4bhbh2rcd13ifvqeo0","pricing_plan_id":"free"},{"bike_id":"5b672c33-fef6-4b47-be71-6dce3ae2040f","system_id":"levelo_inurba_marseille","lat":43.33612,"lon":5.410321,"is_reserved":false,"is_disabled":false,"rental_uris":{"android":"levelo://app?vid=5b672c33-fef6-4b47-be71-6dce3ae2040f","ios":"levelo://app?vid=5b672c33-fef6-4b47-be71-6dce3ae2040f"},"vehicle_type_id":"4","last_reported":1702372043,"current_range_meters":31200,"station_id":"ce4bhqh2rcd13ifvqhmg","pricing_plan_id":"free"},{"bike_id":"f42934dd-4164-4bc0-8573-a782bda1c465","system_id":"levelo_inurba_marseille","lat":43.33605,"lon":5.41036,"is_reserved":false,"is_disabled":false,"rental_uris":{"android":"levelo://app?vid=f42934dd-4164-4bc0-8573-a782bda1c465","ios":"levelo://app?vid=f42934dd-4164-4bc0-8573-a782bda1c465"},"vehicle_type_id":"4","last_reported":1702372043,"current_range_meters":22400,"station_id":"ce4bhqh2rcd13ifvqhmg","pricing_plan_id":"free"},{"bike_id":"35c6271e-84c9-493d-bf57-0f3c2760e8b5","system_id":"levelo_inurba_marseille","lat":43.336148,"lon":5.410349,"is_reserved":false,"is_disabled":false,"rental_uris":{"android":"levelo://app?vid=35c6271e-84c9-493d-bf57-0f3c2760e8b5","ios":"levelo://app?vid=35c6271e-84c9-493d-bf57-0f3c2760e8b5"},"vehicle_type_id":"4","last_reported":1702372043,"current_range_meters":31200,"station_id":"ce4bhqh2rcd13ifvqhmg","pricing_plan_id":"free"},{"bike_id":"d3d4f583-a529-46b4-acdd-9cd9aa0be060","system_id":"levelo_inurba_marseille","lat":43.278401,"lon":5.392152,"is_reserved":false,"is_disabled":false,"rental_uris":{"android":"levelo://app?vid=d3d4f583-a529-46b4-acdd-9cd9aa0be060","ios":"levelo://app?vid=d3d4f583-a529-46b4-acdd-9cd9aa0be060"},"vehicle_type_id":"4","last_reported":1702372043,"current_range_meters":3600,"station_id":"ce4bhjp2rcd13ifvqga0","pricing_plan_id":"free"},{"bike_id":"8739d380-2142-45a3-aa29-4d4a36b1c67e","system_id":"levelo_inurba_marseille","lat":43.279952,"lon":5.400085,"is_reserved":false,"is_disabled":false,"rental_uris":{"android":"levelo://app?vid=8739d380-2142-45a3-aa29-4d4a36b1c67e","ios":"levelo://app?vid=8739d380-2142-45a3-aa29-4d4a36b1c67e"},"vehicle_type_id":"4","last_reported":1702372043,"current_range_meters":11200,"station_id":"ce4bho92rcd13ifvqh4g","pricing_plan_id":"free"},{"bike_id":"b1c028eb-0fe1-4afa-b35c-b9783a0e9537","system_id":"levelo_inurba_marseille","lat":43.31723,"lon":5.42405,"is_reserved":false,"is_disabled":false,"rental_uris":{"android":"levelo://app?vid=b1c028eb-0fe1-4afa-b35c-b9783a0e9537","ios":"levelo://app?vid=b1c028eb-0fe1-4afa-b35c-b9783a0e9537"},"vehicle_type_id":"4","last_reported":1702372043,"current_range_meters":6400,"station_id":"ce4bhp92rcd13ifvqhbg","pricing_plan_id":"free"},{"bike_id":"0aad31e3-dc11-4b68-9ebe-aefefa2d7c6d","system_id":"levelo_inurba_marseille","lat":43.304136,"lon":5.42535,"is_reserved":false,"is_disabled":false,"rental_uris":{"android":"levelo://app?vid=0aad31e3-dc11-4b68-9ebe-aefefa2d7c6d","ios":"levelo://app?vid=0aad31e3-dc11-4b68-9ebe-aefefa2d7c6d"},"vehicle_type_id":"4","last_reported":1702372043,"current_range_meters":28000,"station_id":"ce4bhoh2rcd13ifvqh6g","pricing_plan_id":"free"},{"bike_id":"18f06cf1-d5a7-4a16-b243-ff63553116c6","system_id":"levelo_inurba_marseille","lat":43.295523,"lon":5.422926,"is_reserved":false,"is_disabled":false,"rental_uris":{"android":"levelo://app?vid=18f06cf1-d5a7-4a16-b243-ff63553116c6","ios":"levelo://app?vid=18f06cf1-d5a7-4a16-b243-ff63553116c6"},"vehicle_type_id":"4","last_reported":1702372043,"current_range_meters":0,"station_id":"ce4bhph2rcd13ifvqhdg","pricing_plan_id":"free"},{"bike_id":"dab6bfc2-c9fd-4daa-a622-37368ecfa3b2","system_id":"levelo_inurba_marseille","lat":43.295511,"lon":5.422926,"is_reserved":false,"is_disabled":false,"rental_uris":{"android":"levelo://app?vid=dab6bfc2-c9fd-4daa-a622-37368ecfa3b2","ios":"levelo://app?vid=dab6bfc2-c9fd-4daa-a622-37368ecfa3b2"},"vehicle_type_id":"4","last_reported":1702372043,"current_range_meters":27200,"station_id":"ce4bhph2rcd13ifvqhdg","pricing_plan_id":"free"},{"bike_id":"5e6d790d-6bf6-4855-b87b-b07ea9a51fc8","system_id":"levelo_inurba_marseille","lat":43.27216,"lon":5.39211,"is_reserved":false,"is_disabled":false,"rental_uris":{"android":"levelo://app?vid=5e6d790d-6bf6-4855-b87b-b07ea9a51fc8","ios":"levelo://app?vid=5e6d790d-6bf6-4855-b87b-b07ea9a51fc8"},"vehicle_type_id":"4","last_reported":1702372043,"current_range_meters":10000,"station_id":"","pricing_plan_id":"free"},{"bike_id":"e34d02d6-e57a-4281-ad04-6cfa4be4a17a","system_id":"levelo_inurba_marseille","lat":43.278128,"lon":5.407195,"is_reserved":false,"is_disabled":false,"rental_uris":{"android":"levelo://app?vid=e34d02d6-e57a-4281-ad04-6cfa4be4a17a","ios":"levelo://app?vid=e34d02d6-e57a-4281-ad04-6cfa4be4a17a"},"vehicle_type_id":"4","last_reported":1702372043,"current_range_meters":28000,"station_id":"ce4bhnh2rcd13ifvqgtg","pricing_plan_id":"free"},{"bike_id":"9bf15568-0b1c-4a35-aceb-300a1186e53a","system_id":"levelo_inurba_marseille","lat":43.269467,"lon":5.386439,"is_reserved":false,"is_disabled":false,"rental_uris":{"android":"levelo://app?vid=9bf15568-0b1c-4a35-aceb-300a1186e53a","ios":"levelo://app?vid=9bf15568-0b1c-4a35-aceb-300a1186e53a"},"vehicle_type_id":"4","last_reported":1702372043,"current_range_meters":14000,"station_id":"ce4bhh92rcd13ifvqfh0","pricing_plan_id":"free"},{"bike_id":"bf01dd2b-7083-4cac-aef7-7f6bb3ec0f49","system_id":"levelo_inurba_marseille","lat":43.279465,"lon":5.410561,"is_reserved":false,"is_disabled":false,"rental_uris":{"android":"levelo://app?vid=bf01dd2b-7083-4cac-aef7-7f6bb3ec0f49","ios":"levelo://app?vid=bf01dd2b-7083-4cac-aef7-7f6bb3ec0f49"},"vehicle_type_id":"4","last_reported":1702372043,"current_range_meters":11600,"station_id":"ce4bhnp2rcd13ifvqh0g","pricing_plan_id":"free"},{"bike_id":"c1c2710b-ff99-4646-a62d-d29f6e4da773","system_id":"levelo_inurba_marseille","lat":43.265562,"lon":5.372828,"is_reserved":false,"is_disabled":false,"rental_uris":{"android":"levelo://app?vid=c1c2710b-ff99-4646-a62d-d29f6e4da773","ios":"levelo://app?vid=c1c2710b-ff99-4646-a62d-d29f6e4da773"},"vehicle_type_id":"4","last_reported":1702372043,"current_range_meters":30400,"station_id":"ce4bhg12rcd13ifvqf70","pricing_plan_id":"free"},{"bike_id":"58ab54db-266c-4b20-b212-f8fecdb30b55","system_id":"levelo_inurba_marseille","lat":43.27996,"lon":5.416624,"is_reserved":false,"is_disabled":false,"rental_uris":{"android":"levelo://app?vid=58ab54db-266c-4b20-b212-f8fecdb30b55","ios":"levelo://app?vid=58ab54db-266c-4b20-b212-f8fecdb30b55"},"vehicle_type_id":"4","last_reported":1702372043,"current_range_meters":18800,"station_id":"ce4bho12rcd13ifvqh1g","pricing_plan_id":"free"},{"bike_id":"c7c8fe7a-0ff8-4906-bee9-be584f8b5f98","system_id":"levelo_inurba_marseille","lat":43.267966,"lon":5.393976,"is_reserved":false,"is_disabled":false,"rental_uris":{"android":"levelo://app?vid=c7c8fe7a-0ff8-4906-bee9-be584f8b5f98","ios":"levelo://app?vid=c7c8fe7a-0ff8-4906-bee9-be584f8b5f98"},"vehicle_type_id":"4","last_reported":1702372043,"current_range_meters":16800,"station_id":"ce4bhh12rcd13ifvqfg0","pricing_plan_id":"free"},{"bike_id":"c37f4bb1-b5d3-432c-b1a9-9f57c890460c","system_id":"levelo_inurba_marseille","lat":43.271368,"lon":5.40928,"is_reserved":false,"is_disabled":false,"rental_uris":{"android":"levelo://app?vid=c37f4bb1-b5d3-432c-b1a9-9f57c890460c","ios":"levelo://app?vid=c37f4bb1-b5d3-432c-b1a9-9f57c890460c"},"vehicle_type_id":"4","last_reported":1702372043,"current_range_meters":24000,"station_id":"ce4bhl12rcd13ifvqgf0","pricing_plan_id":"free"},{"bike_id":"1acf6805-7adc-4d3c-b52b-7b0895430b1f","system_id":"levelo_inurba_marseille","lat":43.26202,"lon":5.379299,"is_reserved":false,"is_disabled":false,"rental_uris":{"android":"levelo://app?vid=1acf6805-7adc-4d3c-b52b-7b0895430b1f","ios":"levelo://app?vid=1acf6805-7adc-4d3c-b52b-7b0895430b1f"},"vehicle_type_id":"4","last_reported":1702372043,"current_range_meters":28000,"station_id":"ce4bhjp2rcd13ifvqg90","pricing_plan_id":"free"},{"bike_id":"ed2a037b-9a83-4b16-b573-d588d78bf987","system_id":"levelo_inurba_marseille","lat":43.267959,"lon":5.402687,"is_reserved":false,"is_disabled":false,"rental_uris":{"android":"levelo://app?vid=ed2a037b-9a83-4b16-b573-d588d78bf987","ios":"levelo://app?vid=ed2a037b-9a83-4b16-b573-d588d78bf987"},"vehicle_type_id":"4","last_reported":1702372043,"current_range_meters":3600,"station_id":"ce501612rcd8frsf0b60","pricing_plan_id":"free"},{"bike_id":"b93170e5-0d66-4771-86b8-7b2b65ab1044","system_id":"levelo_inurba_marseille","lat":43.281548,"lon":5.42643,"is_reserved":false,"is_disabled":false,"rental_uris":{"android":"levelo://app?vid=b93170e5-0d66-4771-86b8-7b2b65ab1044","ios":"levelo://app?vid=b93170e5-0d66-4771-86b8-7b2b65ab1044"},"vehicle_type_id":"4","last_reported":1702372043,"current_range_meters":26800,"station_id":"ce4bhnh2rcd13ifvqgug","pricing_plan_id":"free"},{"bike_id":"01274612-b6ca-4c62-b217-d3c00f10189e","system_id":"levelo_inurba_marseille","lat":43.27896,"lon":5.42645,"is_reserved":false,"is_disabled":false,"rental_uris":{"android":"levelo://app?vid=01274612-b6ca-4c62-b217-d3c00f10189e","ios":"levelo://app?vid=01274612-b6ca-4c62-b217-d3c00f10189e"},"vehicle_type_id":"4","last_reported":1702372043,"current_range_meters":26000,"station_id":"","pricing_plan_id":"free"},{"bike_id":"a8dd2e3f-74b3-4cc1-b7b6-14f44ef40c5f","system_id":"levelo_inurba_marseille","lat":43.2607,"lon":5.393983,"is_reserved":false,"is_disabled":false,"rental_uris":{"android":"levelo://app?vid=a8dd2e3f-74b3-4cc1-b7b6-14f44ef40c5f","ios":"levelo://app?vid=a8dd2e3f-74b3-4cc1-b7b6-14f44ef40c5f"},"vehicle_type_id":"4","last_reported":1702372043,"current_range_meters":27200,"station_id":"ce4bhh92rcd13ifvqfj0","pricing_plan_id":"free"},{"bike_id":"0dda4808-002f-4a15-88cd-8bd85bd87743","system_id":"levelo_inurba_marseille","lat":43.275028,"lon":5.424534,"is_reserved":false,"is_disabled":false,"rental_uris":{"android":"levelo://app?vid=0dda4808-002f-4a15-88cd-8bd85bd87743","ios":"levelo://app?vid=0dda4808-002f-4a15-88cd-8bd85bd87743"},"vehicle_type_id":"4","last_reported":1702372043,"current_range_meters":31600,"station_id":"ce4bhn92rcd13ifvqgrg","pricing_plan_id":"free"},{"bike_id":"85d55389-78ad-4b5c-a35e-24834617397b","system_id":"levelo_inurba_marseille","lat":43.275028,"lon":5.424534,"is_reserved":false,"is_disabled":false,"rental_uris":{"android":"levelo://app?vid=85d55389-78ad-4b5c-a35e-24834617397b","ios":"levelo://app?vid=85d55389-78ad-4b5c-a35e-24834617397b"},"vehicle_type_id":"4","last_reported":1702372043,"current_range_meters":30800,"station_id":"ce4bhn92rcd13ifvqgrg","pricing_plan_id":"free"},{"bike_id":"bde24fe8-8aa9-4e3d-828f-87958916caef","system_id":"levelo_inurba_marseille","lat":43.275028,"lon":5.424534,"is_reserved":false,"is_disabled":false,"rental_uris":{"android":"levelo://app?vid=bde24fe8-8aa9-4e3d-828f-87958916caef","ios":"levelo://app?vid=bde24fe8-8aa9-4e3d-828f-87958916caef"},"vehicle_type_id":"4","last_reported":1702372043,"current_range_meters":25600,"station_id":"ce4bhn92rcd13ifvqgrg","pricing_plan_id":"free"},{"bike_id":"577a97cb-4f59-4cd1-a29d-1d657ac4c0ea","system_id":"levelo_inurba_marseille","lat":43.275028,"lon":5.424534,"is_reserved":false,"is_disabled":false,"rental_uris":{"android":"levelo://app?vid=577a97cb-4f59-4cd1-a29d-1d657ac4c0ea","ios":"levelo://app?vid=577a97cb-4f59-4cd1-a29d-1d657ac4c0ea"},"vehicle_type_id":"4","last_reported":1702372043,"current_range_meters":31600,"station_id":"ce4bhn92rcd13ifvqgrg","pricing_plan_id":"free"},{"bike_id":"c51d16be-6729-4d09-978b-9b4e7f7a9fbe","system_id":"levelo_inurba_marseille","lat":43.275028,"lon":5.424534,"is_reserved":false,"is_disabled":false,"rental_uris":{"android":"levelo://app?vid=c51d16be-6729-4d09-978b-9b4e7f7a9fbe","ios":"levelo://app?vid=c51d16be-6729-4d09-978b-9b4e7f7a9fbe"},"vehicle_type_id":"4","last_reported":1702372043,"current_range_meters":31600,"station_id":"ce4bhn92rcd13ifvqgrg","pricing_plan_id":"free"},{"bike_id":"0e5509cc-88fe-4461-8aeb-72ce783dbe39","system_id":"levelo_inurba_marseille","lat":43.275028,"lon":5.424534,"is_reserved":false,"is_disabled":false,"rental_uris":{"android":"levelo://app?vid=0e5509cc-88fe-4461-8aeb-72ce783dbe39","ios":"levelo://app?vid=0e5509cc-88fe-4461-8aeb-72ce783dbe39"},"vehicle_type_id":"4","last_reported":1702372043,"current_range_meters":31600,"station_id":"ce4bhn92rcd13ifvqgrg","pricing_plan_id":"free"},{"bike_id":"2904fadb-7bd9-4958-ab41-36e416d618b9","system_id":"levelo_inurba_marseille","lat":43.275028,"lon":5.424534,"is_reserved":false,"is_disabled":false,"rental_uris":{"android":"levelo://app?vid=2904fadb-7bd9-4958-ab41-36e416d618b9","ios":"levelo://app?vid=2904fadb-7bd9-4958-ab41-36e416d618b9"},"vehicle_type_id":"4","last_reported":1702372043,"current_range_meters":30000,"station_id":"ce4bhn92rcd13ifvqgrg","pricing_plan_id":"free"},{"bike_id":"6f9f3012-fa4e-4aa2-8f81-f8657ef762ef","system_id":"levelo_inurba_marseille","lat":43.25584,"lon":5.38229,"is_reserved":false,"is_disabled":false,"rental_uris":{"android":"levelo://app?vid=6f9f3012-fa4e-4aa2-8f81-f8657ef762ef","ios":"levelo://app?vid=6f9f3012-fa4e-4aa2-8f81-f8657ef762ef"},"vehicle_type_id":"4","last_reported":1702372043,"current_range_meters":18400,"station_id":"ce4bhih2rcd13ifvqfs0","pricing_plan_id":"free"},{"bike_id":"18825a53-5f53-4e3f-9b29-229253e7e46b","system_id":"levelo_inurba_marseille","lat":43.255756,"lon":5.382303,"is_reserved":false,"is_disabled":false,"rental_uris":{"android":"levelo://app?vid=18825a53-5f53-4e3f-9b29-229253e7e46b","ios":"levelo://app?vid=18825a53-5f53-4e3f-9b29-229253e7e46b"},"vehicle_type_id":"4","last_reported":1702372043,"current_range_meters":28000,"station_id":"ce4bhih2rcd13ifvqfs0","pricing_plan_id":"free"},{"bike_id":"b4b605fd-101e-49fb-9a6d-6c2e220da34c","system_id":"levelo_inurba_marseille","lat":43.255756,"lon":5.382303,"is_reserved":false,"is_disabled":false,"rental_uris":{"android":"levelo://app?vid=b4b605fd-101e-49fb-9a6d-6c2e220da34c","ios":"levelo://app?vid=b4b605fd-101e-49fb-9a6d-6c2e220da34c"},"vehicle_type_id":"4","last_reported":1702372043,"current_range_meters":17600,"station_id":"ce4bhih2rcd13ifvqfs0","pricing_plan_id":"free"},{"bike_id":"dc6f7d26-cfad-4f68-adb3-c7641dfe17b0","system_id":"levelo_inurba_marseille","lat":43.258658,"lon":5.398935,"is_reserved":false,"is_disabled":false,"rental_uris":{"android":"levelo://app?vid=dc6f7d26-cfad-4f68-adb3-c7641dfe17b0","ios":"levelo://app?vid=dc6f7d26-cfad-4f68-adb3-c7641dfe17b0"},"vehicle_type_id":"4","last_reported":1702372043,"current_range_meters":22800,"station_id":"ce4bhl92rcd13ifvqghg","pricing_plan_id":"free"},{"bike_id":"b53c5dbf-1080-415c-88cd-967020f6ef1f","system_id":"levelo_inurba_marseille","lat":43.25937,"lon":5.40907,"is_reserved":false,"is_disabled":false,"rental_uris":{"android":"levelo://app?vid=b53c5dbf-1080-415c-88cd-967020f6ef1f","ios":"levelo://app?vid=b53c5dbf-1080-415c-88cd-967020f6ef1f"},"vehicle_type_id":"4","last_reported":1702372043,"current_range_meters":20000,"station_id":"ce4bhm92rcd13ifvqglg","pricing_plan_id":"free"},{"bike_id":"1430f021-fbab-498e-827b-8075d7fae950","system_id":"levelo_inurba_marseille","lat":43.259013,"lon":5.409301,"is_reserved":false,"is_disabled":false,"rental_uris":{"android":"levelo://app?vid=1430f021-fbab-498e-827b-8075d7fae950","ios":"levelo://app?vid=1430f021-fbab-498e-827b-8075d7fae950"},"vehicle_type_id":"4","last_reported":1702372043,"current_range_meters":17200,"station_id":"ce4bhm92rcd13ifvqglg","pricing_plan_id":"free"},{"bike_id":"3dbd92bf-e0af-40c6-9b48-7dbcf151cd06","system_id":"levelo_inurba_marseille","lat":43.259318,"lon":5.409102,"is_reserved":false,"is_disabled":false,"rental_uris":{"android":"levelo://app?vid=3dbd92bf-e0af-40c6-9b48-7dbcf151cd06","ios":"levelo://app?vid=3dbd92bf-e0af-40c6-9b48-7dbcf151cd06"},"vehicle_type_id":"4","last_reported":1702372043,"current_range_meters":18800,"station_id":"ce4bhm92rcd13ifvqglg","pricing_plan_id":"free"},{"bike_id":"4fab0b12-e519-43c3-a5a6-d53bac131378","system_id":"levelo_inurba_marseille","lat":43.257079,"lon":5.411051,"is_reserved":false,"is_disabled":false,"rental_uris":{"android":"levelo://app?vid=4fab0b12-e519-43c3-a5a6-d53bac131378","ios":"levelo://app?vid=4fab0b12-e519-43c3-a5a6-d53bac131378"},"vehicle_type_id":"4","last_reported":1702372043,"current_range_meters":26800,"station_id":"ce4bhkp2rcd13ifvqgd0","pricing_plan_id":"free"},{"bike_id":"3c75fbf9-8c9a-40e6-b667-39ae0780b435","system_id":"levelo_inurba_marseille","lat":43.250009,"lon":5.389195,"is_reserved":false,"is_disabled":false,"rental_uris":{"android":"levelo://app?vid=3c75fbf9-8c9a-40e6-b667-39ae0780b435","ios":"levelo://app?vid=3c75fbf9-8c9a-40e6-b667-39ae0780b435"},"vehicle_type_id":"4","last_reported":1702372043,"current_range_meters":19200,"station_id":"ce4bhgp2rcd13ifvqfd0","pricing_plan_id":"free"},{"bike_id":"c76e1da4-db34-44cf-b1e7-e73aa7c1e00d","system_id":"levelo_inurba_marseille","lat":43.24693,"lon":5.382096,"is_reserved":false,"is_disabled":false,"rental_uris":{"android":"levelo://app?vid=c76e1da4-db34-44cf-b1e7-e73aa7c1e00d","ios":"levelo://app?vid=c76e1da4-db34-44cf-b1e7-e73aa7c1e00d"},"vehicle_type_id":"4","last_reported":1702372043,"current_range_meters":17200,"station_id":"ce4bhih2rcd13ifvqfr0","pricing_plan_id":"free"},{"bike_id":"a708a1fb-4394-43ee-be91-78016fccd0e6","system_id":"levelo_inurba_marseille","lat":43.25102,"lon":5.403214,"is_reserved":false,"is_disabled":false,"rental_uris":{"android":"levelo://app?vid=a708a1fb-4394-43ee-be91-78016fccd0e6","ios":"levelo://app?vid=a708a1fb-4394-43ee-be91-78016fccd0e6"},"vehicle_type_id":"4","last_reported":1702372043,"current_range_meters":18000,"station_id":"ce4bhlh2rcd13ifvqgig","pricing_plan_id":"free"},{"bike_id":"116bf660-cc16-415d-a9ff-29b0926d7c1c","system_id":"levelo_inurba_marseille","lat":43.243884,"lon":5.370737,"is_reserved":false,"is_disabled":false,"rental_uris":{"android":"levelo://app?vid=116bf660-cc16-415d-a9ff-29b0926d7c1c","ios":"levelo://app?vid=116bf660-cc16-415d-a9ff-29b0926d7c1c"},"vehicle_type_id":"4","last_reported":1702372043,"current_range_meters":27600,"station_id":"ce4bhhh2rcd13ifvqfk0","pricing_plan_id":"free"},{"bike_id":"a858f3ae-eb10-4d86-a6e2-f1435cc80342","system_id":"levelo_inurba_marseille","lat":43.245581,"lon":5.395069,"is_reserved":false,"is_disabled":false,"rental_uris":{"android":"levelo://app?vid=a858f3ae-eb10-4d86-a6e2-f1435cc80342","ios":"levelo://app?vid=a858f3ae-eb10-4d86-a6e2-f1435cc80342"},"vehicle_type_id":"4","last_reported":1702372043,"current_range_meters":19200,"station_id":"ce4bhlp2rcd13ifvqgjg","pricing_plan_id":"free"},{"bike_id":"ca732888-20d0-4283-9146-7280dadbaf65","system_id":"levelo_inurba_marseille","lat":43.24077,"lon":5.37753,"is_reserved":false,"is_disabled":false,"rental_uris":{"android":"levelo://app?vid=ca732888-20d0-4283-9146-7280dadbaf65","ios":"levelo://app?vid=ca732888-20d0-4283-9146-7280dadbaf65"},"vehicle_type_id":"4","last_reported":1702372043,"current_range_meters":0,"station_id":"ce4bhnp2rcd13ifvqgvg","pricing_plan_id":"free"},{"bike_id":"69de3de2-6d9d-488f-96c8-7eff50a9701b","system_id":"levelo_inurba_marseille","lat":43.24076,"lon":5.37756,"is_reserved":false,"is_disabled":false,"rental_uris":{"android":"levelo://app?vid=69de3de2-6d9d-488f-96c8-7eff50a9701b","ios":"levelo://app?vid=69de3de2-6d9d-488f-96c8-7eff50a9701b"},"vehicle_type_id":"4","last_reported":1702372043,"current_range_meters":18000,"station_id":"ce4bhnp2rcd13ifvqgvg","pricing_plan_id":"free"},{"bike_id":"8adc57dc-5f99-4b7f-82a8-97089dc07b4b","system_id":"levelo_inurba_marseille","lat":43.240623,"lon":5.377642,"is_reserved":false,"is_disabled":false,"rental_uris":{"android":"levelo://app?vid=8adc57dc-5f99-4b7f-82a8-97089dc07b4b","ios":"levelo://app?vid=8adc57dc-5f99-4b7f-82a8-97089dc07b4b"},"vehicle_type_id":"4","last_reported":1702372043,"current_range_meters":31200,"station_id":"ce4bhnp2rcd13ifvqgvg","pricing_plan_id":"free"},{"bike_id":"001f209b-d5c4-4c7d-b994-4c956f96ba16","system_id":"levelo_inurba_marseille","lat":43.24074,"lon":5.3776,"is_reserved":false,"is_disabled":false,"rental_uris":{"android":"levelo://app?vid=001f209b-d5c4-4c7d-b994-4c956f96ba16","ios":"levelo://app?vid=001f209b-d5c4-4c7d-b994-4c956f96ba16"},"vehicle_type_id":"4","last_reported":1702372043,"current_range_meters":10000,"station_id":"ce4bhnp2rcd13ifvqgvg","pricing_plan_id":"free"},{"bike_id":"26fc98a1-421b-40f6-9946-f321a92baa03","system_id":"levelo_inurba_marseille","lat":43.240618,"lon":5.377636,"is_reserved":false,"is_disabled":false,"rental_uris":{"android":"levelo://app?vid=26fc98a1-421b-40f6-9946-f321a92baa03","ios":"levelo://app?vid=26fc98a1-421b-40f6-9946-f321a92baa03"},"vehicle_type_id":"4","last_reported":1702372043,"current_range_meters":14400,"station_id":"ce4bhnp2rcd13ifvqgvg","pricing_plan_id":"free"},{"bike_id":"6ed1aa78-92c9-420b-8a27-4a6cb2f0340f","system_id":"levelo_inurba_marseille","lat":43.240623,"lon":5.377642,"is_reserved":false,"is_disabled":false,"rental_uris":{"android":"levelo://app?vid=6ed1aa78-92c9-420b-8a27-4a6cb2f0340f","ios":"levelo://app?vid=6ed1aa78-92c9-420b-8a27-4a6cb2f0340f"},"vehicle_type_id":"4","last_reported":1702372043,"current_range_meters":30400,"station_id":"ce4bhnp2rcd13ifvqgvg","pricing_plan_id":"free"},{"bike_id":"ab4ab83c-9573-4892-b386-19aaa2864f1c","system_id":"levelo_inurba_marseille","lat":43.239588,"lon":5.366238,"is_reserved":false,"is_disabled":false,"rental_uris":{"android":"levelo://app?vid=ab4ab83c-9573-4892-b386-19aaa2864f1c","ios":"levelo://app?vid=ab4ab83c-9573-4892-b386-19aaa2864f1c"},"vehicle_type_id":"4","last_reported":1702372043,"current_range_meters":30000,"station_id":"ce4bhi12rcd13ifvqfp0","pricing_plan_id":"free"},{"bike_id":"7f16109b-0556-4b97-951f-9783cbc06adf","system_id":"levelo_inurba_marseille","lat":43.239588,"lon":5.366238,"is_reserved":false,"is_disabled":false,"rental_uris":{"android":"levelo://app?vid=7f16109b-0556-4b97-951f-9783cbc06adf","ios":"levelo://app?vid=7f16109b-0556-4b97-951f-9783cbc06adf"},"vehicle_type_id":"4","last_reported":1702372043,"current_range_meters":16800,"station_id":"ce4bhi12rcd13ifvqfp0","pricing_plan_id":"free"},{"bike_id":"bdcfbfec-0af0-4b23-a86d-ce48dfabb003","system_id":"levelo_inurba_marseille","lat":43.239588,"lon":5.366238,"is_reserved":false,"is_disabled":false,"rental_uris":{"android":"levelo://app?vid=bdcfbfec-0af0-4b23-a86d-ce48dfabb003","ios":"levelo://app?vid=bdcfbfec-0af0-4b23-a86d-ce48dfabb003"},"vehicle_type_id":"4","last_reported":1702372043,"current_range_meters":10400,"station_id":"ce4bhi12rcd13ifvqfp0","pricing_plan_id":"free"},{"bike_id":"a252b06b-9958-4176-879b-301288bcf11a","system_id":"levelo_inurba_marseille","lat":43.2418,"lon":5.39725,"is_reserved":false,"is_disabled":false,"rental_uris":{"android":"levelo://app?vid=a252b06b-9958-4176-879b-301288bcf11a","ios":"levelo://app?vid=a252b06b-9958-4176-879b-301288bcf11a"},"vehicle_type_id":"4","last_reported":1702372043,"current_range_meters":21200,"station_id":"ce4bhn12rcd13ifvqgpg","pricing_plan_id":"free"},{"bike_id":"eacd6c12-ad78-4aca-8a4b-0a9c50552238","system_id":"levelo_inurba_marseille","lat":43.241782,"lon":5.397261,"is_reserved":false,"is_disabled":false,"rental_uris":{"android":"levelo://app?vid=eacd6c12-ad78-4aca-8a4b-0a9c50552238","ios":"levelo://app?vid=eacd6c12-ad78-4aca-8a4b-0a9c50552238"},"vehicle_type_id":"4","last_reported":1702372043,"current_range_meters":0,"station_id":"ce4bhn12rcd13ifvqgpg","pricing_plan_id":"free"},{"bike_id":"e5f8a3f9-ad33-4c96-8f80-c9bb436ceb1b","system_id":"levelo_inurba_marseille","lat":43.235778,"lon":5.410434,"is_reserved":false,"is_disabled":false,"rental_uris":{"android":"levelo://app?vid=e5f8a3f9-ad33-4c96-8f80-c9bb436ceb1b","ios":"levelo://app?vid=e5f8a3f9-ad33-4c96-8f80-c9bb436ceb1b"},"vehicle_type_id":"4","last_reported":1702372043,"current_range_meters":16400,"station_id":"","pricing_plan_id":"free"},{"bike_id":"e51ebd50-a871-4ca2-945d-47be1e8d7fb4","system_id":"levelo_inurba_marseille","lat":43.231562,"lon":5.436933,"is_reserved":false,"is_disabled":false,"rental_uris":{"android":"levelo://app?vid=e51ebd50-a871-4ca2-945d-47be1e8d7fb4","ios":"levelo://app?vid=e51ebd50-a871-4ca2-945d-47be1e8d7fb4"},"vehicle_type_id":"4","last_reported":1702372043,"current_range_meters":14400,"station_id":"ce4bhmp2rcd13ifvqgog","pricing_plan_id":"free"},{"bike_id":"5c5d811b-920e-4dc2-8b5a-a33a7df9bc05","system_id":"levelo_inurba_marseille","lat":43.231562,"lon":5.436933,"is_reserved":false,"is_disabled":false,"rental_uris":{"android":"levelo://app?vid=5c5d811b-920e-4dc2-8b5a-a33a7df9bc05","ios":"levelo://app?vid=5c5d811b-920e-4dc2-8b5a-a33a7df9bc05"},"vehicle_type_id":"4","last_reported":1702372043,"current_range_meters":22800,"station_id":"ce4bhmp2rcd13ifvqgog","pricing_plan_id":"free"},{"bike_id":"87530223-81b1-4c77-90b6-29d507f8a04a","system_id":"levelo_inurba_marseille","lat":43.231562,"lon":5.436933,"is_reserved":false,"is_disabled":false,"rental_uris":{"android":"levelo://app?vid=87530223-81b1-4c77-90b6-29d507f8a04a","ios":"levelo://app?vid=87530223-81b1-4c77-90b6-29d507f8a04a"},"vehicle_type_id":"4","last_reported":1702372043,"current_range_meters":13200,"station_id":"ce4bhmp2rcd13ifvqgog","pricing_plan_id":"free"},{"bike_id":"8891a0f4-62f7-41f4-a47b-6a9ecbe8bd0d","system_id":"levelo_inurba_marseille","lat":43.231562,"lon":5.436933,"is_reserved":false,"is_disabled":false,"rental_uris":{"android":"levelo://app?vid=8891a0f4-62f7-41f4-a47b-6a9ecbe8bd0d","ios":"levelo://app?vid=8891a0f4-62f7-41f4-a47b-6a9ecbe8bd0d"},"vehicle_type_id":"4","last_reported":1702372043,"current_range_meters":10800,"station_id":"ce4bhmp2rcd13ifvqgog","pricing_plan_id":"free"},{"bike_id":"5b1e43e1-157b-41db-80f1-c39aaeb1c62f","system_id":"levelo_inurba_marseille","lat":43.231562,"lon":5.436933,"is_reserved":false,"is_disabled":false,"rental_uris":{"android":"levelo://app?vid=5b1e43e1-157b-41db-80f1-c39aaeb1c62f","ios":"levelo://app?vid=5b1e43e1-157b-41db-80f1-c39aaeb1c62f"},"vehicle_type_id":"4","last_reported":1702372043,"current_range_meters":10400,"station_id":"ce4bhmp2rcd13ifvqgog","pricing_plan_id":"free"},{"bike_id":"b98a457e-cf5f-41f0-830e-89a07a2fd902","system_id":"levelo_inurba_marseille","lat":43.231562,"lon":5.436933,"is_reserved":false,"is_disabled":false,"rental_uris":{"android":"levelo://app?vid=b98a457e-cf5f-41f0-830e-89a07a2fd902","ios":"levelo://app?vid=b98a457e-cf5f-41f0-830e-89a07a2fd902"},"vehicle_type_id":"4","last_reported":1702372043,"current_range_meters":17200,"station_id":"ce4bhmp2rcd13ifvqgog","pricing_plan_id":"free"},{"bike_id":"b1e3cd70-38f8-4d10-854a-5c0a5d45a7ae","system_id":"levelo_inurba_marseille","lat":43.231562,"lon":5.436933,"is_reserved":false,"is_disabled":false,"rental_uris":{"android":"levelo://app?vid=b1e3cd70-38f8-4d10-854a-5c0a5d45a7ae","ios":"levelo://app?vid=b1e3cd70-38f8-4d10-854a-5c0a5d45a7ae"},"vehicle_type_id":"4","last_reported":1702372043,"current_range_meters":5600,"station_id":"ce4bhmp2rcd13ifvqgog","pricing_plan_id":"free"},{"bike_id":"1096f6e6-3c78-4219-9a60-069b3ef5e818","system_id":"levelo_inurba_marseille","lat":43.231562,"lon":5.436933,"is_reserved":false,"is_disabled":false,"rental_uris":{"android":"levelo://app?vid=1096f6e6-3c78-4219-9a60-069b3ef5e818","ios":"levelo://app?vid=1096f6e6-3c78-4219-9a60-069b3ef5e818"},"vehicle_type_id":"4","last_reported":1702372043,"current_range_meters":14400,"station_id":"ce4bhmp2rcd13ifvqgog","pricing_plan_id":"free"}]}}