{"last_updated":1737410919,"ttl":60,"version":"2.2","data":{"bikes":[{"bike_id":"2d837e6e-a55b-44a6-8c8b-9ab1fd8a260a","system_id":"levelo_inurba_marseille","lat":43.31082,"lon":5.42444,"is_reserved":false,"is_disabled":false,"rental_uris":{"android":"levelo://app?vid=2d837e6e-a55b-44a6-8c8b-9ab1fd8a260a","ios":"levelo://app?vid=2d837e6e-a55b-44a6-8c8b-9ab1fd8a260a"},"vehicle_type_id":"4","last_reported":1737410919,"current_range_meters":38800,"station_id":"ce4bhp92rcd13ifvqhag","pricing_plan_id":"cebpf4jnsgd1na2vs0mg"},{"bike_id":"16a6e79b-15d3-42d6-9173-c187c18a1c2e","system_id":"levelo_inurba_marseille","lat":43.30877,"lon":5.39639,"is_reserved":false,"is_disabled":false,"rental_uris":{"android":"levelo://app?vid=16a6e79b-15d3-42d6-9173-c187c18a1c2e","ios":"levelo://app?vid=16a6e79b-15d3-42d6-9173-c187c18a1c2e"},"vehicle_type_id":"4","last_reported":1737410919,"current_range_meters":33600,"station_id":"ce4bh012rcd13ifvqcv0","pricing_plan_id":"cebpf4jnsgd1na2vs0mg"},{"bike_id":"75082f77-be79-491b-8678-426fe7196d9c","system_id":"levelo_inurba_marseille","lat":43.28145,"lon":5.42665,"is_reserved":false,"is_disabled":false,"rental_uris":{"android":"levelo://app?vid=75082f77-be79-491b-8678-426fe7196d9c","ios":"levelo://app?vid=75082f77-be79-491b-8678-426fe7196d9c"},"vehicle_type_id":"4","last_reported":1737410919,"current_range_meters":22800,"station_id":"ce4bhnh2rcd13ifvqgug","pricing_plan_id":"cebpf4jnsgd1na2vs0mg"},{"bike_id":"a3d0aefc-a2f5-45cd-9489-1be9c32278de","system_id":"levelo_inurba_marseille","lat":43.23958,"lon":5.36629,"is_reserved":false,"is_disabled":false,"rental_uris":{"android":"levelo://app?vid=a3d0aefc-a2f5-45cd-9489-1be9c32278de","ios":"levelo://app?vid=a3d0aefc-a2f5-45cd-9489-1be9c32278de"},"vehicle_type_id":"4","last_reported":1737410919,"current_range_meters":31200,"station_id":"ce4bhi12rcd13ifvqfp0","pricing_plan_id":"cebpf4jnsgd1na2vs0mg"},{"bike_id":"ff1df0fd-be2f-4894-8690-e8a61da9c700","system_id":"levelo_inurba_marseille","lat":43.28694,"lon":5.37389,"is_reserved":false,"is_disabled":true,"rental_uris":{"android":"levelo://app?vid=ff1df0fd-be2f-4894-8690-e8a61da9c700","ios":"levelo://app?vid=ff1df0fd-be2f-4894-8690-e8a61da9c700"},"vehicle_type_id":"4","last_reported":1737410919,"current_range_meters":38800,"station_id":"ce4bh3p2rcd13ifvqdq0","pricing_plan_id":"cebpf4jnsgd1na2vs0mg"},{"bike_id":"434a60f9-dcd2-4593-9cfa-9bfbda6fb835","system_id":"levelo_inurba_marseille","lat":43.28263,"lon":5.35086,"is_reserved":false,"is_disabled":false,"rental_uris":{"android":"levelo://app?vid=434a60f9-dcd2-4593-9cfa-9bfbda6fb835","ios":"levelo://app?vid=434a60f9-dcd2-4593-9cfa-9bfbda6fb835"},"vehicle_type_id":"4","last_reported":1737410919,"current_range_meters":39200,"station_id":"ce4bhbp2rcd13ifvqerg","pricing_plan_id":"cebpf4jnsgd1na2vs0mg"},{"bike_id":"d7e75527-c346-4215-8d90-37cb08e036e7","system_id":"levelo_inurba_marseille","lat":43.30588,"lon":5.39336,"is_reserved":false,"is_disabled":false,"rental_uris":{"android":"levelo://app?vid=d7e75527-c346-4215-8d90-37cb08e036e7","ios":"levelo://app?vid=d7e75527-c346-4215-8d90-37cb08e036e7"},"vehicle_type_id":"4","last_reported":1737410919,"current_range_meters":38800,"station_id":"ce4bh0p2rcd13ifvqd80","pricing_plan_id":"cebpf4jnsgd1na2vs0mg"},{"bike_id":"5cb1264a-175f-4702-b950-5c526f1c16bb","system_id":"levelo_inurba_marseille","lat":43.28697,"lon":5.37403,"is_reserved":false,"is_disabled":false,"rental_uris":{"android":"levelo://app?vid=5cb1264a-175f-4702-b950-5c526f1c16bb","ios":"levelo://app?vid=5cb1264a-175f-4702-b950-5c526f1c16bb"},"vehicle_type_id":"4","last_reported":1737410919,"current_range_meters":38800,"station_id":"ce4bh3p2rcd13ifvqdq0","pricing_plan_id":"cebpf4jnsgd1na2vs0mg"},{"bike_id":"a3b3d045-dd7b-4eb3-bd8d-20ffd36b83c0","system_id":"levelo_inurba_marseille","lat":43.30935,"lon":5.40159,"is_reserved":false,"is_disabled":false,"rental_uris":{"android":"levelo://app?vid=a3b3d045-dd7b-4eb3-bd8d-20ffd36b83c0","ios":"levelo://app?vid=a3b3d045-dd7b-4eb3-bd8d-20ffd36b83c0"},"vehicle_type_id":"4","last_reported":1737410919,"current_range_meters":38800,"station_id":"ce4bgvp2rcd13ifvqct0","pricing_plan_id":"cebpf4jnsgd1na2vs0mg"},{"bike_id":"f7f5b063-963a-44bd-8272-8ba2bb78525d","system_id":"levelo_inurba_marseille","lat":43.31689,"lon":5.37788,"is_reserved":false,"is_disabled":false,"rental_uris":{"android":"levelo://app?vid=f7f5b063-963a-44bd-8272-8ba2bb78525d","ios":"levelo://app?vid=f7f5b063-963a-44bd-8272-8ba2bb78525d"},"vehicle_type_id":"4","last_reported":1737410919,"current_range_meters":20000,"station_id":"ce4bgth2rcd13ifvqch0","pricing_plan_id":"cebpf4jnsgd1na2vs0mg"},{"bike_id":"222cf047-f998-4d64-843c-220b836d2dc0","system_id":"levelo_inurba_marseille","lat":43.29687,"lon":5.37305,"is_reserved":false,"is_disabled":false,"rental_uris":{"android":"levelo://app?vid=222cf047-f998-4d64-843c-220b836d2dc0","ios":"levelo://app?vid=222cf047-f998-4d64-843c-220b836d2dc0"},"vehicle_type_id":"4","last_reported":1737410919,"current_range_meters":39200,"station_id":"ce4bgk12rcd13ifvqbj0","pricing_plan_id":"cebpf4jnsgd1na2vs0mg"},{"bike_id":"3b676d4b-f61f-4eda-8ae2-a5c9becc118e","system_id":"levelo_inurba_marseille","lat":43.292744,"lon":5.378769,"is_reserved":false,"is_disabled":false,"rental_uris":{"android":"levelo://app?vid=3b676d4b-f61f-4eda-8ae2-a5c9becc118e","ios":"levelo://app?vid=3b676d4b-f61f-4eda-8ae2-a5c9becc118e"},"vehicle_type_id":"4","last_reported":1737410919,"current_range_meters":30400,"station_id":"ce4bh492rcd13ifvqdvg","pricing_plan_id":"cebpf4jnsgd1na2vs0mg"},{"bike_id":"e3d5a69f-7604-4ab5-bfce-dc9cf0dd7b56","system_id":"levelo_inurba_marseille","lat":43.29571,"lon":5.39976,"is_reserved":false,"is_disabled":true,"rental_uris":{"android":"levelo://app?vid=e3d5a69f-7604-4ab5-bfce-dc9cf0dd7b56","ios":"levelo://app?vid=e3d5a69f-7604-4ab5-bfce-dc9cf0dd7b56"},"vehicle_type_id":"4","last_reported":1737410919,"current_range_meters":38400,"station_id":"ce4bh312rcd13ifvqdj0","pricing_plan_id":"cebpf4jnsgd1na2vs0mg"},{"bike_id":"0201f603-d5d0-4632-997b-bedabf6b9fc6","system_id":"levelo_inurba_marseille","lat":43.29249,"lon":5.40924,"is_reserved":false,"is_disabled":false,"rental_uris":{"android":"levelo://app?vid=0201f603-d5d0-4632-997b-bedabf6b9fc6","ios":"levelo://app?vid=0201f603-d5d0-4632-997b-bedabf6b9fc6"},"vehicle_type_id":"4","last_reported":1737410919,"current_range_meters":38800,"station_id":"ce4bh192rcd13ifvqdc0","pricing_plan_id":"cebpf4jnsgd1na2vs0mg"},{"bike_id":"f3b3ab0f-c6dd-4c46-a81a-8afa3cc6374b","system_id":"levelo_inurba_marseille","lat":43.30213,"lon":5.39461,"is_reserved":false,"is_disabled":false,"rental_uris":{"android":"levelo://app?vid=f3b3ab0f-c6dd-4c46-a81a-8afa3cc6374b","ios":"levelo://app?vid=f3b3ab0f-c6dd-4c46-a81a-8afa3cc6374b"},"vehicle_type_id":"4","last_reported":1737410919,"current_range_meters":32800,"station_id":"ce4bh0p2rcd13ifvqd70","pricing_plan_id":"cebpf4jnsgd1na2vs0mg"},{"bike_id":"6d38c9b3-d1d0-4471-85ef-1836c051c027","system_id":"levelo_inurba_marseille","lat":43.3176,"lon":5.39013,"is_reserved":false,"is_disabled":false,"rental_uris":{"android":"levelo://app?vid=6d38c9b3-d1d0-4471-85ef-1836c051c027","ios":"levelo://app?vid=6d38c9b3-d1d0-4471-85ef-1836c051c027"},"vehicle_type_id":"4","last_reported":1737410919,"current_range_meters":30000,"station_id":"ce4bhqp2rcd13ifvqhng","pricing_plan_id":"cebpf4jnsgd1na2vs0mg"},{"bike_id":"fcf9f59d-f488-4081-8a0e-520b1462b18b","system_id":"levelo_inurba_marseille","lat":43.28714,"lon":5.37936,"is_reserved":false,"is_disabled":false,"rental_uris":{"android":"levelo://app?vid=fcf9f59d-f488-4081-8a0e-520b1462b18b","ios":"levelo://app?vid=fcf9f59d-f488-4081-8a0e-520b1462b18b"},"vehicle_type_id":"4","last_reported":1737410919,"current_range_meters":26000,"station_id":"ce4bh9p2rcd13ifvqec0","pricing_plan_id":"cebpf4jnsgd1na2vs0mg"},{"bike_id":"48d60ac7-a2bd-44ea-8ae7-f8e68106fc06","system_id":"levelo_inurba_marseille","lat":43.29269,"lon":5.38432,"is_reserved":false,"is_disabled":true,"rental_uris":{"android":"levelo://app?vid=48d60ac7-a2bd-44ea-8ae7-f8e68106fc06","ios":"levelo://app?vid=48d60ac7-a2bd-44ea-8ae7-f8e68106fc06"},"vehicle_type_id":"4","last_reported":1737410919,"current_range_meters":36000,"station_id":"ce4bh692rcd13ifvqea0","pricing_plan_id":"cebpf4jnsgd1na2vs0mg"},{"bike_id":"763ed4fc-16fd-47a0-aedf-62c028daa66f","system_id":"levelo_inurba_marseille","lat":43.36387,"lon":5.35564,"is_reserved":false,"is_disabled":false,"rental_uris":{"android":"levelo://app?vid=763ed4fc-16fd-47a0-aedf-62c028daa66f","ios":"levelo://app?vid=763ed4fc-16fd-47a0-aedf-62c028daa66f"},"vehicle_type_id":"4","last_reported":1737410919,"current_range_meters":8000,"station_id":"","pricing_plan_id":"cebpf4jnsgd1na2vs0mg"},{"bike_id":"54e47bbf-d358-4fc6-9623-23d2eb6b92a9","system_id":"levelo_inurba_marseille","lat":43.276747,"lon":5.388474,"is_reserved":false,"is_disabled":true,"rental_uris":{"android":"levelo://app?vid=54e47bbf-d358-4fc6-9623-23d2eb6b92a9","ios":"levelo://app?vid=54e47bbf-d358-4fc6-9623-23d2eb6b92a9"},"vehicle_type_id":"4","last_reported":1737410919,"current_range_meters":15200,"station_id":"","pricing_plan_id":"cebpf4jnsgd1na2vs0mg"},{"bike_id":"a2771881-b956-4a9a-9bc9-a89642d437c9","system_id":"levelo_inurba_marseille","lat":43.23202,"lon":5.35549,"is_reserved":false,"is_disabled":false,"rental_uris":{"android":"levelo://app?vid=a2771881-b956-4a9a-9bc9-a89642d437c9","ios":"levelo://app?vid=a2771881-b956-4a9a-9bc9-a89642d437c9"},"vehicle_type_id":"4","last_reported":1737410919,"current_range_meters":38800,"station_id":"ce4bhu92rcd13ifvqi70","pricing_plan_id":"cebpf4jnsgd1na2vs0mg"},{"bike_id":"3b26ab37-3b51-49df-bcb5-b23c8b5b2a76","system_id":"levelo_inurba_marseille","lat":43.32083,"lon":5.36832,"is_reserved":false,"is_disabled":false,"rental_uris":{"android":"levelo://app?vid=3b26ab37-3b51-49df-bcb5-b23c8b5b2a76","ios":"levelo://app?vid=3b26ab37-3b51-49df-bcb5-b23c8b5b2a76"},"vehicle_type_id":"4","last_reported":1737410919,"current_range_meters":16400,"station_id":"","pricing_plan_id":"cebpf4jnsgd1na2vs0mg"},{"bike_id":"1f46188d-5e81-46fa-8687-79c4e15ba169","system_id":"levelo_inurba_marseille","lat":43.25868,"lon":5.39902,"is_reserved":false,"is_disabled":false,"rental_uris":{"android":"levelo://app?vid=1f46188d-5e81-46fa-8687-79c4e15ba169","ios":"levelo://app?vid=1f46188d-5e81-46fa-8687-79c4e15ba169"},"vehicle_type_id":"4","last_reported":1737410919,"current_range_meters":38800,"station_id":"ce4bhl92rcd13ifvqghg","pricing_plan_id":"cebpf4jnsgd1na2vs0mg"},{"bike_id":"f94a5c2d-1c3e-4ab5-8a5c-704e78d1f001","system_id":"levelo_inurba_marseille","lat":43.302458,"lon":5.400706,"is_reserved":false,"is_disabled":false,"rental_uris":{"android":"levelo://app?vid=f94a5c2d-1c3e-4ab5-8a5c-704e78d1f001","ios":"levelo://app?vid=f94a5c2d-1c3e-4ab5-8a5c-704e78d1f001"},"vehicle_type_id":"4","last_reported":1737410919,"current_range_meters":38800,"station_id":"ce4bgvh2rcd13ifvqcs0","pricing_plan_id":"cebpf4jnsgd1na2vs0mg"},{"bike_id":"eab45ce9-f931-4048-8712-ef4ff14837a7","system_id":"levelo_inurba_marseille","lat":43.31174,"lon":5.3871,"is_reserved":false,"is_disabled":false,"rental_uris":{"android":"levelo://app?vid=eab45ce9-f931-4048-8712-ef4ff14837a7","ios":"levelo://app?vid=eab45ce9-f931-4048-8712-ef4ff14837a7"},"vehicle_type_id":"4","last_reported":1737410919,"current_range_meters":37600,"station_id":"ce4bgv12rcd13ifvqcp0","pricing_plan_id":"cebpf4jnsgd1na2vs0mg"},{"bike_id":"079bb072-bfe9-4cb5-9947-3f9e03f9ed52","system_id":"levelo_inurba_marseille","lat":43.29262,"lon":5.40148,"is_reserved":false,"is_disabled":false,"rental_uris":{"android":"levelo://app?vid=079bb072-bfe9-4cb5-9947-3f9e03f9ed52","ios":"levelo://app?vid=079bb072-bfe9-4cb5-9947-3f9e03f9ed52"},"vehicle_type_id":"4","last_reported":1737410919,"current_range_meters":36400,"station_id":"ce4bh312rcd13ifvqdk0","pricing_plan_id":"cebpf4jnsgd1na2vs0mg"},{"bike_id":"d7ee63f8-0fa8-4e53-b6bd-5a1bde076f8a","system_id":"levelo_inurba_marseille","lat":43.27814,"lon":5.40727,"is_reserved":false,"is_disabled":false,"rental_uris":{"android":"levelo://app?vid=d7ee63f8-0fa8-4e53-b6bd-5a1bde076f8a","ios":"levelo://app?vid=d7ee63f8-0fa8-4e53-b6bd-5a1bde076f8a"},"vehicle_type_id":"4","last_reported":1737410919,"current_range_meters":6400,"station_id":"ce4bhnh2rcd13ifvqgtg","pricing_plan_id":"cebpf4jnsgd1na2vs0mg"},{"bike_id":"c29020e0-83ef-4b06-ac4f-c4422257f84a","system_id":"levelo_inurba_marseille","lat":43.36395,"lon":5.35621,"is_reserved":false,"is_disabled":false,"rental_uris":{"android":"levelo://app?vid=c29020e0-83ef-4b06-ac4f-c4422257f84a","ios":"levelo://app?vid=c29020e0-83ef-4b06-ac4f-c4422257f84a"},"vehicle_type_id":"4","last_reported":1737410919,"current_range_meters":11200,"station_id":"","pricing_plan_id":"cebpf4jnsgd1na2vs0mg"},{"bike_id":"80f92e05-422e-45b3-9d9f-66c23a3baa48","system_id":"levelo_inurba_marseille","lat":43.28149,"lon":5.42649,"is_reserved":false,"is_disabled":false,"rental_uris":{"android":"levelo://app?vid=80f92e05-422e-45b3-9d9f-66c23a3baa48","ios":"levelo://app?vid=80f92e05-422e-45b3-9d9f-66c23a3baa48"},"vehicle_type_id":"4","last_reported":1737410919,"current_range_meters":28400,"station_id":"ce4bhnh2rcd13ifvqgug","pricing_plan_id":"cebpf4jnsgd1na2vs0mg"},{"bike_id":"414603a2-f495-4e60-9a1e-27b48ae935b9","system_id":"levelo_inurba_marseille","lat":43.29534,"lon":5.39047,"is_reserved":false,"is_disabled":false,"rental_uris":{"android":"levelo://app?vid=414603a2-f495-4e60-9a1e-27b48ae935b9","ios":"levelo://app?vid=414603a2-f495-4e60-9a1e-27b48ae935b9"},"vehicle_type_id":"4","last_reported":1737410919,"current_range_meters":38000,"station_id":"ce4bh3p2rcd13ifvqdp0","pricing_plan_id":"cebpf4jnsgd1na2vs0mg"},{"bike_id":"e9ed4198-3645-4c82-a7b1-536b1aba6d12","system_id":"levelo_inurba_marseille","lat":43.32365,"lon":5.38889,"is_reserved":false,"is_disabled":false,"rental_uris":{"android":"levelo://app?vid=e9ed4198-3645-4c82-a7b1-536b1aba6d12","ios":"levelo://app?vid=e9ed4198-3645-4c82-a7b1-536b1aba6d12"},"vehicle_type_id":"4","last_reported":1737410919,"current_range_meters":38800,"station_id":"ce4bhqp2rcd13ifvqhog","pricing_plan_id":"cebpf4jnsgd1na2vs0mg"},{"bike_id":"a4929f10-be42-40bd-9958-40ba2c4eec72","system_id":"levelo_inurba_marseille","lat":43.33015,"lon":5.3903,"is_reserved":false,"is_disabled":false,"rental_uris":{"android":"levelo://app?vid=a4929f10-be42-40bd-9958-40ba2c4eec72","ios":"levelo://app?vid=a4929f10-be42-40bd-9958-40ba2c4eec72"},"vehicle_type_id":"4","last_reported":1737410919,"current_range_meters":16800,"station_id":"ce4bhr92rcd13ifvqhrg","pricing_plan_id":"cebpf4jnsgd1na2vs0mg"},{"bike_id":"ab7b1d7a-8ae0-4c4a-9611-7e663b41825a","system_id":"levelo_inurba_marseille","lat":43.32283,"lon":5.38297,"is_reserved":false,"is_disabled":false,"rental_uris":{"android":"levelo://app?vid=ab7b1d7a-8ae0-4c4a-9611-7e663b41825a","ios":"levelo://app?vid=ab7b1d7a-8ae0-4c4a-9611-7e663b41825a"},"vehicle_type_id":"4","last_reported":1737410919,"current_range_meters":38800,"station_id":"ce4bhr12rcd13ifvqhqg","pricing_plan_id":"cebpf4jnsgd1na2vs0mg"},{"bike_id":"629f0718-cf09-4c6c-aac5-30e94504c5f3","system_id":"levelo_inurba_marseille","lat":43.26811,"lon":5.40249,"is_reserved":false,"is_disabled":false,"rental_uris":{"android":"levelo://app?vid=629f0718-cf09-4c6c-aac5-30e94504c5f3","ios":"levelo://app?vid=629f0718-cf09-4c6c-aac5-30e94504c5f3"},"vehicle_type_id":"4","last_reported":1737410919,"current_range_meters":39200,"station_id":"ce501612rcd8frsf0b60","pricing_plan_id":"cebpf4jnsgd1na2vs0mg"},{"bike_id":"4a31d953-a351-4e4b-a04e-ac11058ef623","system_id":"levelo_inurba_marseille","lat":43.27851,"lon":5.40591,"is_reserved":false,"is_disabled":false,"rental_uris":{"android":"levelo://app?vid=4a31d953-a351-4e4b-a04e-ac11058ef623","ios":"levelo://app?vid=4a31d953-a351-4e4b-a04e-ac11058ef623"},"vehicle_type_id":"4","last_reported":1737410919,"current_range_meters":28400,"station_id":"","pricing_plan_id":"cebpf4jnsgd1na2vs0mg"},{"bike_id":"f84f394e-2917-447e-93c4-9487928d7f87","system_id":"levelo_inurba_marseille","lat":43.27815,"lon":5.40722,"is_reserved":false,"is_disabled":false,"rental_uris":{"android":"levelo://app?vid=f84f394e-2917-447e-93c4-9487928d7f87","ios":"levelo://app?vid=f84f394e-2917-447e-93c4-9487928d7f87"},"vehicle_type_id":"4","last_reported":1737410919,"current_range_meters":38800,"station_id":"ce4bhnh2rcd13ifvqgtg","pricing_plan_id":"cebpf4jnsgd1na2vs0mg"},{"bike_id":"a5f0a85d-e511-441d-8563-576f08845eeb","system_id":"levelo_inurba_marseille","lat":43.30885,"lon":5.39641,"is_reserved":false,"is_disabled":false,"rental_uris":{"android":"levelo://app?vid=a5f0a85d-e511-441d-8563-576f08845eeb","ios":"levelo://app?vid=a5f0a85d-e511-441d-8563-576f08845eeb"},"vehicle_type_id":"4","last_reported":1737410919,"current_range_meters":28800,"station_id":"ce4bh012rcd13ifvqcv0","pricing_plan_id":"cebpf4jnsgd1na2vs0mg"},{"bike_id":"a7a469bb-9876-4757-8816-55025c18f7f5","system_id":"levelo_inurba_marseille","lat":43.29204,"lon":5.35802,"is_reserved":false,"is_disabled":false,"rental_uris":{"android":"levelo://app?vid=a7a469bb-9876-4757-8816-55025c18f7f5","ios":"levelo://app?vid=a7a469bb-9876-4757-8816-55025c18f7f5"},"vehicle_type_id":"4","last_reported":1737410919,"current_range_meters":38800,"station_id":"ce4bhb12rcd13ifvqel0","pricing_plan_id":"cebpf4jnsgd1na2vs0mg"},{"bike_id":"ad70f329-8aa6-4840-9d88-12491727b0b0","system_id":"levelo_inurba_marseille","lat":43.25732,"lon":5.41108,"is_reserved":false,"is_disabled":false,"rental_uris":{"android":"levelo://app?vid=ad70f329-8aa6-4840-9d88-12491727b0b0","ios":"levelo://app?vid=ad70f329-8aa6-4840-9d88-12491727b0b0"},"vehicle_type_id":"4","last_reported":1737410919,"current_range_meters":8400,"station_id":"ce4bhkp2rcd13ifvqgd0","pricing_plan_id":"cebpf4jnsgd1na2vs0mg"},{"bike_id":"de8d9fdf-7b46-48ad-a51d-f0132537ad32","system_id":"levelo_inurba_marseille","lat":43.32349,"lon":5.38881,"is_reserved":false,"is_disabled":false,"rental_uris":{"android":"levelo://app?vid=de8d9fdf-7b46-48ad-a51d-f0132537ad32","ios":"levelo://app?vid=de8d9fdf-7b46-48ad-a51d-f0132537ad32"},"vehicle_type_id":"4","last_reported":1737410919,"current_range_meters":23200,"station_id":"ce4bhqp2rcd13ifvqhog","pricing_plan_id":"cebpf4jnsgd1na2vs0mg"},{"bike_id":"263584a7-b721-4333-8e39-8a470df48382","system_id":"levelo_inurba_marseille","lat":43.26188,"lon":5.4042,"is_reserved":false,"is_disabled":false,"rental_uris":{"android":"levelo://app?vid=263584a7-b721-4333-8e39-8a470df48382","ios":"levelo://app?vid=263584a7-b721-4333-8e39-8a470df48382"},"vehicle_type_id":"4","last_reported":1737410919,"current_range_meters":29600,"station_id":"","pricing_plan_id":"cebpf4jnsgd1na2vs0mg"},{"bike_id":"437e9a0d-847e-4225-9c71-0c081626b1a8","system_id":"levelo_inurba_marseille","lat":43.29534,"lon":5.3905,"is_reserved":false,"is_disabled":false,"rental_uris":{"android":"levelo://app?vid=437e9a0d-847e-4225-9c71-0c081626b1a8","ios":"levelo://app?vid=437e9a0d-847e-4225-9c71-0c081626b1a8"},"vehicle_type_id":"4","last_reported":1737410919,"current_range_meters":17600,"station_id":"ce4bh3p2rcd13ifvqdp0","pricing_plan_id":"cebpf4jnsgd1na2vs0mg"},{"bike_id":"db090fa3-42a7-4621-ba95-24031c78cef7","system_id":"levelo_inurba_marseille","lat":43.26535,"lon":5.39569,"is_reserved":false,"is_disabled":true,"rental_uris":{"android":"levelo://app?vid=db090fa3-42a7-4621-ba95-24031c78cef7","ios":"levelo://app?vid=db090fa3-42a7-4621-ba95-24031c78cef7"},"vehicle_type_id":"4","last_reported":1737410919,"current_range_meters":0,"station_id":"ce4bhi12rcd13ifvqfq0","pricing_plan_id":"cebpf4jnsgd1na2vs0mg"},{"bike_id":"2cca0472-e2a4-439d-914d-f9fce7966f79","system_id":"levelo_inurba_marseille","lat":43.28843,"lon":5.35848,"is_reserved":false,"is_disabled":false,"rental_uris":{"android":"levelo://app?vid=2cca0472-e2a4-439d-914d-f9fce7966f79","ios":"levelo://app?vid=2cca0472-e2a4-439d-914d-f9fce7966f79"},"vehicle_type_id":"4","last_reported":1737410919,"current_range_meters":38800,"station_id":"ce4bhb12rcd13ifvqem0","pricing_plan_id":"cebpf4jnsgd1na2vs0mg"},{"bike_id":"97c9f760-eae3-41a1-b6c5-9a4aa00bae53","system_id":"levelo_inurba_marseille","lat":43.28366,"lon":5.3863,"is_reserved":false,"is_disabled":false,"rental_uris":{"android":"levelo://app?vid=97c9f760-eae3-41a1-b6c5-9a4aa00bae53","ios":"levelo://app?vid=97c9f760-eae3-41a1-b6c5-9a4aa00bae53"},"vehicle_type_id":"4","last_reported":1737410919,"current_range_meters":38800,"station_id":"ce4bh492rcd13ifvqdvg","pricing_plan_id":"cebpf4jnsgd1na2vs0mg"},{"bike_id":"1df86f32-2cf2-4763-b0a8-e4c3956472b6","system_id":"levelo_inurba_marseille","lat":43.28696,"lon":5.37399,"is_reserved":false,"is_disabled":false,"rental_uris":{"android":"levelo://app?vid=1df86f32-2cf2-4763-b0a8-e4c3956472b6","ios":"levelo://app?vid=1df86f32-2cf2-4763-b0a8-e4c3956472b6"},"vehicle_type_id":"4","last_reported":1737410919,"current_range_meters":17200,"station_id":"ce4bh3p2rcd13ifvqdq0","pricing_plan_id":"cebpf4jnsgd1na2vs0mg"},{"bike_id":"a182fc4c-8bc2-4ced-a900-365aea0e4cec","system_id":"levelo_inurba_marseille","lat":43.279992,"lon":5.400191,"is_reserved":false,"is_disabled":false,"rental_uris":{"android":"levelo://app?vid=a182fc4c-8bc2-4ced-a900-365aea0e4cec","ios":"levelo://app?vid=a182fc4c-8bc2-4ced-a900-365aea0e4cec"},"vehicle_type_id":"4","last_reported":1737410919,"current_range_meters":34800,"station_id":"ce4bho92rcd13ifvqh4g","pricing_plan_id":"cebpf4jnsgd1na2vs0mg"},{"bike_id":"62bf0473-baaf-4ced-b8ff-c57da3495cce","system_id":"levelo_inurba_marseille","lat":43.29881,"lon":5.39749,"is_reserved":false,"is_disabled":false,"rental_uris":{"android":"levelo://app?vid=62bf0473-baaf-4ced-b8ff-c57da3495cce","ios":"levelo://app?vid=62bf0473-baaf-4ced-b8ff-c57da3495cce"},"vehicle_type_id":"4","last_reported":1737410919,"current_range_meters":38800,"station_id":"ce4bh0h2rcd13ifvqd50","pricing_plan_id":"cebpf4jnsgd1na2vs0mg"},{"bike_id":"35f17cf8-4827-4bc9-a34c-2d3cc931696f","system_id":"levelo_inurba_marseille","lat":43.296277,"lon":5.405957,"is_reserved":false,"is_disabled":false,"rental_uris":{"android":"levelo://app?vid=35f17cf8-4827-4bc9-a34c-2d3cc931696f","ios":"levelo://app?vid=35f17cf8-4827-4bc9-a34c-2d3cc931696f"},"vehicle_type_id":"4","last_reported":1737410919,"current_range_meters":39200,"station_id":"ce4bh0h2rcd13ifvqd60","pricing_plan_id":"cebpf4jnsgd1na2vs0mg"},{"bike_id":"2fed15fe-6c9e-4a3e-9d35-a13e2d995cbb","system_id":"levelo_inurba_marseille","lat":43.30469,"lon":5.38199,"is_reserved":false,"is_disabled":false,"rental_uris":{"android":"levelo://app?vid=2fed15fe-6c9e-4a3e-9d35-a13e2d995cbb","ios":"levelo://app?vid=2fed15fe-6c9e-4a3e-9d35-a13e2d995cbb"},"vehicle_type_id":"4","last_reported":1737410919,"current_range_meters":12800,"station_id":"","pricing_plan_id":"cebpf4jnsgd1na2vs0mg"},{"bike_id":"b01a0517-838b-46fa-b08a-ced719493443","system_id":"levelo_inurba_marseille","lat":43.29884,"lon":5.39761,"is_reserved":false,"is_disabled":false,"rental_uris":{"android":"levelo://app?vid=b01a0517-838b-46fa-b08a-ced719493443","ios":"levelo://app?vid=b01a0517-838b-46fa-b08a-ced719493443"},"vehicle_type_id":"4","last_reported":1737410919,"current_range_meters":38800,"station_id":"ce4bh0h2rcd13ifvqd50","pricing_plan_id":"cebpf4jnsgd1na2vs0mg"},{"bike_id":"3860f79b-6390-4baa-9962-103869425bc6","system_id":"levelo_inurba_marseille","lat":43.29898,"lon":5.43671,"is_reserved":false,"is_disabled":false,"rental_uris":{"android":"levelo://app?vid=3860f79b-6390-4baa-9962-103869425bc6","ios":"levelo://app?vid=3860f79b-6390-4baa-9962-103869425bc6"},"vehicle_type_id":"4","last_reported":1737410919,"current_range_meters":16000,"station_id":"ce4bhpp2rcd13ifvqhfg","pricing_plan_id":"cebpf4jnsgd1na2vs0mg"},{"bike_id":"c6aec08a-95b2-468e-b6ba-3552b798296e","system_id":"levelo_inurba_marseille","lat":43.3362,"lon":5.41005,"is_reserved":false,"is_disabled":false,"rental_uris":{"android":"levelo://app?vid=c6aec08a-95b2-468e-b6ba-3552b798296e","ios":"levelo://app?vid=c6aec08a-95b2-468e-b6ba-3552b798296e"},"vehicle_type_id":"4","last_reported":1737410919,"current_range_meters":30400,"station_id":"ce4bhqh2rcd13ifvqhmg","pricing_plan_id":"cebpf4jnsgd1na2vs0mg"},{"bike_id":"57b9fcf7-ed67-49fd-bf0a-8cfaa7d29c57","system_id":"levelo_inurba_marseille","lat":43.29889,"lon":5.39727,"is_reserved":false,"is_disabled":false,"rental_uris":{"android":"levelo://app?vid=57b9fcf7-ed67-49fd-bf0a-8cfaa7d29c57","ios":"levelo://app?vid=57b9fcf7-ed67-49fd-bf0a-8cfaa7d29c57"},"vehicle_type_id":"4","last_reported":1737410919,"current_range_meters":26800,"station_id":"ce4bh0h2rcd13ifvqd50","pricing_plan_id":"cebpf4jnsgd1na2vs0mg"},{"bike_id":"0e70fc2a-e4e1-4eb4-a5cd-569d0da579a3","system_id":"levelo_inurba_marseille","lat":43.29787,"lon":5.38126,"is_reserved":false,"is_disabled":false,"rental_uris":{"android":"levelo://app?vid=0e70fc2a-e4e1-4eb4-a5cd-569d0da579a3","ios":"levelo://app?vid=0e70fc2a-e4e1-4eb4-a5cd-569d0da579a3"},"vehicle_type_id":"4","last_reported":1737410919,"current_range_meters":38800,"station_id":"ce4bgip2rcd13ifvqbb0","pricing_plan_id":"cebpf4jnsgd1na2vs0mg"},{"bike_id":"f77bba92-4bd7-4b47-82bd-449cc86c42a5","system_id":"levelo_inurba_marseille","lat":43.32241,"lon":5.40639,"is_reserved":false,"is_disabled":false,"rental_uris":{"android":"levelo://app?vid=f77bba92-4bd7-4b47-82bd-449cc86c42a5","ios":"levelo://app?vid=f77bba92-4bd7-4b47-82bd-449cc86c42a5"},"vehicle_type_id":"4","last_reported":1737410919,"current_range_meters":34800,"station_id":"ce4bhq92rcd13ifvqhjg","pricing_plan_id":"cebpf4jnsgd1na2vs0mg"},{"bike_id":"f1f5e33d-2d8c-4533-8e21-efc4c8a6790b","system_id":"levelo_inurba_marseille","lat":43.2846,"lon":5.39081,"is_reserved":false,"is_disabled":false,"rental_uris":{"android":"levelo://app?vid=f1f5e33d-2d8c-4533-8e21-efc4c8a6790b","ios":"levelo://app?vid=f1f5e33d-2d8c-4533-8e21-efc4c8a6790b"},"vehicle_type_id":"4","last_reported":1737410919,"current_range_meters":38800,"station_id":"ce4bhoh2rcd13ifvqh5g","pricing_plan_id":"cebpf4jnsgd1na2vs0mg"},{"bike_id":"a36b9fb5-2bd8-4acb-a1f7-387150f52ee2","system_id":"levelo_inurba_marseille","lat":43.28849,"lon":5.35836,"is_reserved":false,"is_disabled":false,"rental_uris":{"android":"levelo://app?vid=a36b9fb5-2bd8-4acb-a1f7-387150f52ee2","ios":"levelo://app?vid=a36b9fb5-2bd8-4acb-a1f7-387150f52ee2"},"vehicle_type_id":"4","last_reported":1737410919,"current_range_meters":6400,"station_id":"ce4bhb12rcd13ifvqem0","pricing_plan_id":"cebpf4jnsgd1na2vs0mg"},{"bike_id":"8d392e92-e3c9-4e4d-9d12-6b9a7a4ebd37","system_id":"levelo_inurba_marseille","lat":43.29793,"lon":5.37098,"is_reserved":false,"is_disabled":false,"rental_uris":{"android":"levelo://app?vid=8d392e92-e3c9-4e4d-9d12-6b9a7a4ebd37","ios":"levelo://app?vid=8d392e92-e3c9-4e4d-9d12-6b9a7a4ebd37"},"vehicle_type_id":"4","last_reported":1737410919,"current_range_meters":36800,"station_id":"ce4bgop2rcd13ifvqc1g","pricing_plan_id":"cebpf4jnsgd1na2vs0mg"},{"bike_id":"218637f8-c406-4114-98c5-7ae81f36ee0c","system_id":"levelo_inurba_marseille","lat":43.30803,"lon":5.4352,"is_reserved":false,"is_disabled":false,"rental_uris":{"android":"levelo://app?vid=218637f8-c406-4114-98c5-7ae81f36ee0c","ios":"levelo://app?vid=218637f8-c406-4114-98c5-7ae81f36ee0c"},"vehicle_type_id":"4","last_reported":1737410919,"current_range_meters":9200,"station_id":"ce4bhph2rcd13ifvqheg","pricing_plan_id":"cebpf4jnsgd1na2vs0mg"},{"bike_id":"e7ad8032-7d51-432d-8891-1b85f3e7060a","system_id":"levelo_inurba_marseille","lat":43.28038,"lon":5.36946,"is_reserved":false,"is_disabled":false,"rental_uris":{"android":"levelo://app?vid=e7ad8032-7d51-432d-8891-1b85f3e7060a","ios":"levelo://app?vid=e7ad8032-7d51-432d-8891-1b85f3e7060a"},"vehicle_type_id":"4","last_reported":1737410919,"current_range_meters":38400,"station_id":"ce4bha12rcd13ifvqef0","pricing_plan_id":"cebpf4jnsgd1na2vs0mg"},{"bike_id":"ad6c039d-169e-4be2-9f20-740d5f479877","system_id":"levelo_inurba_marseille","lat":43.29504,"lon":5.39058,"is_reserved":false,"is_disabled":false,"rental_uris":{"android":"levelo://app?vid=ad6c039d-169e-4be2-9f20-740d5f479877","ios":"levelo://app?vid=ad6c039d-169e-4be2-9f20-740d5f479877"},"vehicle_type_id":"4","last_reported":1737410919,"current_range_meters":38800,"station_id":"ce4bh3p2rcd13ifvqdp0","pricing_plan_id":"cebpf4jnsgd1na2vs0mg"},{"bike_id":"616d4f49-a5fd-43a7-9261-6729c7c62b8d","system_id":"levelo_inurba_marseille","lat":43.29883,"lon":5.39733,"is_reserved":false,"is_disabled":false,"rental_uris":{"android":"levelo://app?vid=616d4f49-a5fd-43a7-9261-6729c7c62b8d","ios":"levelo://app?vid=616d4f49-a5fd-43a7-9261-6729c7c62b8d"},"vehicle_type_id":"4","last_reported":1737410919,"current_range_meters":38800,"station_id":"ce4bh0h2rcd13ifvqd50","pricing_plan_id":"cebpf4jnsgd1na2vs0mg"},{"bike_id":"62dcc5df-44c0-490c-8162-a881f96a5817","system_id":"levelo_inurba_marseille","lat":43.29283,"lon":5.40119,"is_reserved":false,"is_disabled":false,"rental_uris":{"android":"levelo://app?vid=62dcc5df-44c0-490c-8162-a881f96a5817","ios":"levelo://app?vid=62dcc5df-44c0-490c-8162-a881f96a5817"},"vehicle_type_id":"4","last_reported":1737410919,"current_range_meters":35600,"station_id":"ce4bh312rcd13ifvqdk0","pricing_plan_id":"cebpf4jnsgd1na2vs0mg"},{"bike_id":"724cc43c-9f87-4afe-ac3d-7d41bc77c0b1","system_id":"levelo_inurba_marseille","lat":43.290543,"lon":5.359017,"is_reserved":false,"is_disabled":false,"rental_uris":{"android":"levelo://app?vid=724cc43c-9f87-4afe-ac3d-7d41bc77c0b1","ios":"levelo://app?vid=724cc43c-9f87-4afe-ac3d-7d41bc77c0b1"},"vehicle_type_id":"4","last_reported":1737410919,"current_range_meters":38800,"station_id":"ce4bha92rcd13ifvqeg0","pricing_plan_id":"cebpf4jnsgd1na2vs0mg"},{"bike_id":"8d4dad67-1a20-4110-a84a-bab69a150a55","system_id":"levelo_inurba_marseille","lat":43.29219,"lon":5.36075,"is_reserved":false,"is_disabled":false,"rental_uris":{"android":"levelo://app?vid=8d4dad67-1a20-4110-a84a-bab69a150a55","ios":"levelo://app?vid=8d4dad67-1a20-4110-a84a-bab69a150a55"},"vehicle_type_id":"4","last_reported":1737410919,"current_range_meters":24400,"station_id":"ce4bhbh2rcd13ifvqeqg","pricing_plan_id":"cebpf4jnsgd1na2vs0mg"},{"bike_id":"6d06bc90-1d32-4516-9bc9-b423317e82c4","system_id":"levelo_inurba_marseille","lat":43.31602,"lon":5.37789,"is_reserved":false,"is_disabled":true,"rental_uris":{"android":"levelo://app?vid=6d06bc90-1d32-4516-9bc9-b423317e82c4","ios":"levelo://app?vid=6d06bc90-1d32-4516-9bc9-b423317e82c4"},"vehicle_type_id":"4","last_reported":1737410919,"current_range_meters":27600,"station_id":"ce4bgth2rcd13ifvqch0","pricing_plan_id":"cebpf4jnsgd1na2vs0mg"},{"bike_id":"5dabbcc7-853f-4c2e-8974-e24e536472db","system_id":"levelo_inurba_marseille","lat":43.27408,"lon":5.39407,"is_reserved":false,"is_disabled":false,"rental_uris":{"android":"levelo://app?vid=5dabbcc7-853f-4c2e-8974-e24e536472db","ios":"levelo://app?vid=5dabbcc7-853f-4c2e-8974-e24e536472db"},"vehicle_type_id":"4","last_reported":1737410919,"current_range_meters":39200,"station_id":"ce4bhdp2rcd13ifvqf20","pricing_plan_id":"cebpf4jnsgd1na2vs0mg"},{"bike_id":"9dfce2ac-c3f6-496c-ab7f-826b7c85599c","system_id":"levelo_inurba_marseille","lat":43.24073,"lon":5.37762,"is_reserved":false,"is_disabled":false,"rental_uris":{"android":"levelo://app?vid=9dfce2ac-c3f6-496c-ab7f-826b7c85599c","ios":"levelo://app?vid=9dfce2ac-c3f6-496c-ab7f-826b7c85599c"},"vehicle_type_id":"4","last_reported":1737410919,"current_range_meters":24800,"station_id":"ce4bhnp2rcd13ifvqgvg","pricing_plan_id":"cebpf4jnsgd1na2vs0mg"},{"bike_id":"b6cc31be-151e-4d56-8839-e71a9cd45b18","system_id":"levelo_inurba_marseille","lat":43.2319,"lon":5.35553,"is_reserved":false,"is_disabled":false,"rental_uris":{"android":"levelo://app?vid=b6cc31be-151e-4d56-8839-e71a9cd45b18","ios":"levelo://app?vid=b6cc31be-151e-4d56-8839-e71a9cd45b18"},"vehicle_type_id":"4","last_reported":1737410919,"current_range_meters":38800,"station_id":"ce4bhu92rcd13ifvqi70","pricing_plan_id":"cebpf4jnsgd1na2vs0mg"},{"bike_id":"4104cbba-088f-4383-b2a0-261d17699731","system_id":"levelo_inurba_marseille","lat":43.23965,"lon":5.36643,"is_reserved":false,"is_disabled":false,"rental_uris":{"android":"levelo://app?vid=4104cbba-088f-4383-b2a0-261d17699731","ios":"levelo://app?vid=4104cbba-088f-4383-b2a0-261d17699731"},"vehicle_type_id":"4","last_reported":1737410919,"current_range_meters":30400,"station_id":"ce4bhi12rcd13ifvqfp0","pricing_plan_id":"cebpf4jnsgd1na2vs0mg"},{"bike_id":"28bc3cb4-2612-400a-83bf-7b03d2d7e732","system_id":"levelo_inurba_marseille","lat":43.25125,"lon":5.40324,"is_reserved":false,"is_disabled":false,"rental_uris":{"android":"levelo://app?vid=28bc3cb4-2612-400a-83bf-7b03d2d7e732","ios":"levelo://app?vid=28bc3cb4-2612-400a-83bf-7b03d2d7e732"},"vehicle_type_id":"4","last_reported":1737410919,"current_range_meters":18000,"station_id":"ce4bhlh2rcd13ifvqgig","pricing_plan_id":"cebpf4jnsgd1na2vs0mg"},{"bike_id":"e4f8bbc0-3e71-4438-9c78-7d4251a5823b","system_id":"levelo_inurba_marseille","lat":43.2958,"lon":5.37505,"is_reserved":false,"is_disabled":false,"rental_uris":{"android":"levelo://app?vid=e4f8bbc0-3e71-4438-9c78-7d4251a5823b","ios":"levelo://app?vid=e4f8bbc0-3e71-4438-9c78-7d4251a5823b"},"vehicle_type_id":"4","last_reported":1737410919,"current_range_meters":28400,"station_id":"ce4bgh92rcd13ifvqb50","pricing_plan_id":"cebpf4jnsgd1na2vs0mg"},{"bike_id":"e769477c-b503-4bb8-b7d3-b7f7ff9ddf2d","system_id":"levelo_inurba_marseille","lat":43.292,"lon":5.36916,"is_reserved":false,"is_disabled":false,"rental_uris":{"android":"levelo://app?vid=e769477c-b503-4bb8-b7d3-b7f7ff9ddf2d","ios":"levelo://app?vid=e769477c-b503-4bb8-b7d3-b7f7ff9ddf2d"},"vehicle_type_id":"4","last_reported":1737410919,"current_range_meters":12800,"station_id":"","pricing_plan_id":"cebpf4jnsgd1na2vs0mg"},{"bike_id":"28ef1c1e-dd89-43e8-817b-9b489831397b","system_id":"levelo_inurba_marseille","lat":43.271181,"lon":5.39612,"is_reserved":false,"is_disabled":true,"rental_uris":{"android":"levelo://app?vid=28ef1c1e-dd89-43e8-817b-9b489831397b","ios":"levelo://app?vid=28ef1c1e-dd89-43e8-817b-9b489831397b"},"vehicle_type_id":"4","last_reported":1737410919,"current_range_meters":0,"station_id":"","pricing_plan_id":"cebpf4jnsgd1na2vs0mg"},{"bike_id":"776f7a4d-f452-49fc-8e87-1dac725c40a0","system_id":"levelo_inurba_marseille","lat":43.2416,"lon":5.39736,"is_reserved":false,"is_disabled":false,"rental_uris":{"android":"levelo://app?vid=776f7a4d-f452-49fc-8e87-1dac725c40a0","ios":"levelo://app?vid=776f7a4d-f452-49fc-8e87-1dac725c40a0"},"vehicle_type_id":"4","last_reported":1737410919,"current_range_meters":36400,"station_id":"ce4bhn12rcd13ifvqgpg","pricing_plan_id":"cebpf4jnsgd1na2vs0mg"},{"bike_id":"ef9f5283-1c36-47ba-ba58-583e077e7770","system_id":"levelo_inurba_marseille","lat":43.23191,"lon":5.39991,"is_reserved":false,"is_disabled":false,"rental_uris":{"android":"levelo://app?vid=ef9f5283-1c36-47ba-ba58-583e077e7770","ios":"levelo://app?vid=ef9f5283-1c36-47ba-ba58-583e077e7770"},"vehicle_type_id":"4","last_reported":1737410919,"current_range_meters":39200,"station_id":"ce4bhn12rcd13ifvqgqg","pricing_plan_id":"cebpf4jnsgd1na2vs0mg"},{"bike_id":"973357c8-dead-42ca-92e9-500225bc994c","system_id":"levelo_inurba_marseille","lat":43.3302,"lon":5.39046,"is_reserved":false,"is_disabled":false,"rental_uris":{"android":"levelo://app?vid=973357c8-dead-42ca-92e9-500225bc994c","ios":"levelo://app?vid=973357c8-dead-42ca-92e9-500225bc994c"},"vehicle_type_id":"4","last_reported":1737410919,"current_range_meters":39200,"station_id":"ce4bhr92rcd13ifvqhrg","pricing_plan_id":"cebpf4jnsgd1na2vs0mg"},{"bike_id":"91c9f4c6-30a9-44b2-a8b8-8fcf35cfb666","system_id":"levelo_inurba_marseille","lat":43.28039,"lon":5.36944,"is_reserved":false,"is_disabled":false,"rental_uris":{"android":"levelo://app?vid=91c9f4c6-30a9-44b2-a8b8-8fcf35cfb666","ios":"levelo://app?vid=91c9f4c6-30a9-44b2-a8b8-8fcf35cfb666"},"vehicle_type_id":"4","last_reported":1737410919,"current_range_meters":33200,"station_id":"ce4bha12rcd13ifvqef0","pricing_plan_id":"cebpf4jnsgd1na2vs0mg"},{"bike_id":"0819d272-57a1-4229-b5b1-2e5abe9114be","system_id":"levelo_inurba_marseille","lat":43.30435,"lon":5.38891,"is_reserved":false,"is_disabled":false,"rental_uris":{"android":"levelo://app?vid=0819d272-57a1-4229-b5b1-2e5abe9114be","ios":"levelo://app?vid=0819d272-57a1-4229-b5b1-2e5abe9114be"},"vehicle_type_id":"4","last_reported":1737410919,"current_range_meters":13600,"station_id":"ce4bgk12rcd13ifvqbi0","pricing_plan_id":"cebpf4jnsgd1na2vs0mg"},{"bike_id":"5fa49ac5-f5fb-407d-9f73-7837cb4b4991","system_id":"levelo_inurba_marseille","lat":43.28629,"lon":5.35093,"is_reserved":false,"is_disabled":false,"rental_uris":{"android":"levelo://app?vid=5fa49ac5-f5fb-407d-9f73-7837cb4b4991","ios":"levelo://app?vid=5fa49ac5-f5fb-407d-9f73-7837cb4b4991"},"vehicle_type_id":"4","last_reported":1737410919,"current_range_meters":33200,"station_id":"ce4bhch2rcd13ifvqeug","pricing_plan_id":"cebpf4jnsgd1na2vs0mg"},{"bike_id":"4a61c313-14d2-4abc-89d4-a7e228d4ddd4","system_id":"levelo_inurba_marseille","lat":43.30799,"lon":5.38145,"is_reserved":false,"is_disabled":false,"rental_uris":{"android":"levelo://app?vid=4a61c313-14d2-4abc-89d4-a7e228d4ddd4","ios":"levelo://app?vid=4a61c313-14d2-4abc-89d4-a7e228d4ddd4"},"vehicle_type_id":"4","last_reported":1737410919,"current_range_meters":25600,"station_id":"ce4bgt12rcd13ifvqce0","pricing_plan_id":"cebpf4jnsgd1na2vs0mg"},{"bike_id":"f476d878-7cd0-4f0c-8ec2-9d9f08b67a27","system_id":"levelo_inurba_marseille","lat":43.31274,"lon":5.40168,"is_reserved":false,"is_disabled":false,"rental_uris":{"android":"levelo://app?vid=f476d878-7cd0-4f0c-8ec2-9d9f08b67a27","ios":"levelo://app?vid=f476d878-7cd0-4f0c-8ec2-9d9f08b67a27"},"vehicle_type_id":"4","last_reported":1737410919,"current_range_meters":38400,"station_id":"ce4bh092rcd13ifvqd30","pricing_plan_id":"cebpf4jnsgd1na2vs0mg"},{"bike_id":"572111e7-56a7-4348-acc2-ff87890d28e9","system_id":"levelo_inurba_marseille","lat":43.2954,"lon":5.38537,"is_reserved":false,"is_disabled":false,"rental_uris":{"android":"levelo://app?vid=572111e7-56a7-4348-acc2-ff87890d28e9","ios":"levelo://app?vid=572111e7-56a7-4348-acc2-ff87890d28e9"},"vehicle_type_id":"4","last_reported":1737410919,"current_range_meters":30400,"station_id":"ce4bgih2rcd13ifvqba0","pricing_plan_id":"cebpf4jnsgd1na2vs0mg"},{"bike_id":"a045cda1-9bcf-4c63-bb44-33bc0a9ae45a","system_id":"levelo_inurba_marseille","lat":43.28861,"lon":5.39304,"is_reserved":false,"is_disabled":false,"rental_uris":{"android":"levelo://app?vid=a045cda1-9bcf-4c63-bb44-33bc0a9ae45a","ios":"levelo://app?vid=a045cda1-9bcf-4c63-bb44-33bc0a9ae45a"},"vehicle_type_id":"4","last_reported":1737410919,"current_range_meters":32400,"station_id":"ce4bh2p2rcd13ifvqdi0","pricing_plan_id":"cebpf4jnsgd1na2vs0mg"},{"bike_id":"0ec67957-cf9a-485c-9a8b-aa729d02d428","system_id":"levelo_inurba_marseille","lat":43.29529,"lon":5.39057,"is_reserved":false,"is_disabled":false,"rental_uris":{"android":"levelo://app?vid=0ec67957-cf9a-485c-9a8b-aa729d02d428","ios":"levelo://app?vid=0ec67957-cf9a-485c-9a8b-aa729d02d428"},"vehicle_type_id":"4","last_reported":1737410919,"current_range_meters":38000,"station_id":"ce4bh3p2rcd13ifvqdp0","pricing_plan_id":"cebpf4jnsgd1na2vs0mg"},{"bike_id":"6c25f2eb-6f4e-4ee1-8c7a-fb3bd07b7c8b","system_id":"levelo_inurba_marseille","lat":43.3009,"lon":5.39085,"is_reserved":false,"is_disabled":false,"rental_uris":{"android":"levelo://app?vid=6c25f2eb-6f4e-4ee1-8c7a-fb3bd07b7c8b","ios":"levelo://app?vid=6c25f2eb-6f4e-4ee1-8c7a-fb3bd07b7c8b"},"vehicle_type_id":"4","last_reported":1737410919,"current_range_meters":33200,"station_id":"ce4bh192rcd13ifvqdb0","pricing_plan_id":"cebpf4jnsgd1na2vs0mg"},{"bike_id":"e7030034-320d-4608-a776-a72500cf3c13","system_id":"levelo_inurba_marseille","lat":43.30326,"lon":5.40439,"is_reserved":false,"is_disabled":false,"rental_uris":{"android":"levelo://app?vid=e7030034-320d-4608-a776-a72500cf3c13","ios":"levelo://app?vid=e7030034-320d-4608-a776-a72500cf3c13"},"vehicle_type_id":"4","last_reported":1737410919,"current_range_meters":36000,"station_id":"ce4bh012rcd13ifvqd10","pricing_plan_id":"cebpf4jnsgd1na2vs0mg"},{"bike_id":"01a07bd9-36a1-4c19-a88b-7c9e3a6ee490","system_id":"levelo_inurba_marseille","lat":43.25089,"lon":5.39543,"is_reserved":false,"is_disabled":false,"rental_uris":{"android":"levelo://app?vid=01a07bd9-36a1-4c19-a88b-7c9e3a6ee490","ios":"levelo://app?vid=01a07bd9-36a1-4c19-a88b-7c9e3a6ee490"},"vehicle_type_id":"4","last_reported":1737410919,"current_range_meters":28000,"station_id":"ce4bhm12rcd13ifvqgkg","pricing_plan_id":"cebpf4jnsgd1na2vs0mg"},{"bike_id":"30868fb9-be18-4137-b148-fea1b914be52","system_id":"levelo_inurba_marseille","lat":43.28002,"lon":5.40011,"is_reserved":false,"is_disabled":false,"rental_uris":{"android":"levelo://app?vid=30868fb9-be18-4137-b148-fea1b914be52","ios":"levelo://app?vid=30868fb9-be18-4137-b148-fea1b914be52"},"vehicle_type_id":"4","last_reported":1737410919,"current_range_meters":36000,"station_id":"ce4bho92rcd13ifvqh4g","pricing_plan_id":"cebpf4jnsgd1na2vs0mg"},{"bike_id":"77ff5724-d727-4cb9-9e22-72b1fa336373","system_id":"levelo_inurba_marseille","lat":43.23064,"lon":5.35488,"is_reserved":false,"is_disabled":false,"rental_uris":{"android":"levelo://app?vid=77ff5724-d727-4cb9-9e22-72b1fa336373","ios":"levelo://app?vid=77ff5724-d727-4cb9-9e22-72b1fa336373"},"vehicle_type_id":"4","last_reported":1737410919,"current_range_meters":10800,"station_id":"cpo3342slgdg3j2ifvpg","pricing_plan_id":"cebpf4jnsgd1na2vs0mg"},{"bike_id":"ec46ee25-07c5-496b-970c-cee81379a2ba","system_id":"levelo_inurba_marseille","lat":43.24649,"lon":5.389,"is_reserved":false,"is_disabled":false,"rental_uris":{"android":"levelo://app?vid=ec46ee25-07c5-496b-970c-cee81379a2ba","ios":"levelo://app?vid=ec46ee25-07c5-496b-970c-cee81379a2ba"},"vehicle_type_id":"4","last_reported":1737410919,"current_range_meters":35600,"station_id":"ce4bhg12rcd13ifvqf60","pricing_plan_id":"cebpf4jnsgd1na2vs0mg"},{"bike_id":"74e4ae2b-d416-435b-ab65-bad6e8afdc65","system_id":"levelo_inurba_marseille","lat":43.3059,"lon":5.39356,"is_reserved":false,"is_disabled":false,"rental_uris":{"android":"levelo://app?vid=74e4ae2b-d416-435b-ab65-bad6e8afdc65","ios":"levelo://app?vid=74e4ae2b-d416-435b-ab65-bad6e8afdc65"},"vehicle_type_id":"4","last_reported":1737410919,"current_range_meters":11600,"station_id":"ce4bh0p2rcd13ifvqd80","pricing_plan_id":"cebpf4jnsgd1na2vs0mg"},{"bike_id":"e9dd2133-923f-488a-8f8f-c7bddf3f0b40","system_id":"levelo_inurba_marseille","lat":43.2846,"lon":5.35885,"is_reserved":false,"is_disabled":false,"rental_uris":{"android":"levelo://app?vid=e9dd2133-923f-488a-8f8f-c7bddf3f0b40","ios":"levelo://app?vid=e9dd2133-923f-488a-8f8f-c7bddf3f0b40"},"vehicle_type_id":"4","last_reported":1737410919,"current_range_meters":28000,"station_id":"ce4bhah2rcd13ifvqei0","pricing_plan_id":"cebpf4jnsgd1na2vs0mg"},{"bike_id":"ef00dd28-9ff7-4102-a96b-f3c8768f47ca","system_id":"levelo_inurba_marseille","lat":43.28107,"lon":5.37836,"is_reserved":false,"is_disabled":false,"rental_uris":{"android":"levelo://app?vid=ef00dd28-9ff7-4102-a96b-f3c8768f47ca","ios":"levelo://app?vid=ef00dd28-9ff7-4102-a96b-f3c8768f47ca"},"vehicle_type_id":"4","last_reported":1737410919,"current_range_meters":38400,"station_id":"ce4bha12rcd13ifvqee0","pricing_plan_id":"cebpf4jnsgd1na2vs0mg"},{"bike_id":"3f73cdce-5679-4f8e-bdfa-397be04d5b8c","system_id":"levelo_inurba_marseille","lat":43.29526,"lon":5.3905,"is_reserved":false,"is_disabled":false,"rental_uris":{"android":"levelo://app?vid=3f73cdce-5679-4f8e-bdfa-397be04d5b8c","ios":"levelo://app?vid=3f73cdce-5679-4f8e-bdfa-397be04d5b8c"},"vehicle_type_id":"4","last_reported":1737410919,"current_range_meters":36800,"station_id":"ce4bh3p2rcd13ifvqdp0","pricing_plan_id":"cebpf4jnsgd1na2vs0mg"},{"bike_id":"be6540b7-7d75-4ee5-9d69-49255103c2e1","system_id":"levelo_inurba_marseille","lat":43.28689,"lon":5.3739,"is_reserved":false,"is_disabled":false,"rental_uris":{"android":"levelo://app?vid=be6540b7-7d75-4ee5-9d69-49255103c2e1","ios":"levelo://app?vid=be6540b7-7d75-4ee5-9d69-49255103c2e1"},"vehicle_type_id":"4","last_reported":1737410919,"current_range_meters":22800,"station_id":"ce4bh3p2rcd13ifvqdq0","pricing_plan_id":"cebpf4jnsgd1na2vs0mg"},{"bike_id":"2fe00ee8-6da5-45f1-b974-c51928fce30d","system_id":"levelo_inurba_marseille","lat":43.2573,"lon":5.41122,"is_reserved":false,"is_disabled":false,"rental_uris":{"android":"levelo://app?vid=2fe00ee8-6da5-45f1-b974-c51928fce30d","ios":"levelo://app?vid=2fe00ee8-6da5-45f1-b974-c51928fce30d"},"vehicle_type_id":"4","last_reported":1737410919,"current_range_meters":39200,"station_id":"ce4bhkp2rcd13ifvqgd0","pricing_plan_id":"cebpf4jnsgd1na2vs0mg"},{"bike_id":"49cdd9d0-bce7-4168-b807-5a16c335f2c6","system_id":"levelo_inurba_marseille","lat":43.28461,"lon":5.358853,"is_reserved":false,"is_disabled":false,"rental_uris":{"android":"levelo://app?vid=49cdd9d0-bce7-4168-b807-5a16c335f2c6","ios":"levelo://app?vid=49cdd9d0-bce7-4168-b807-5a16c335f2c6"},"vehicle_type_id":"4","last_reported":1737410919,"current_range_meters":37600,"station_id":"ce4bhah2rcd13ifvqei0","pricing_plan_id":"cebpf4jnsgd1na2vs0mg"},{"bike_id":"7f095a12-4f92-4659-8967-ab82406b1c77","system_id":"levelo_inurba_marseille","lat":43.2319,"lon":5.39987,"is_reserved":false,"is_disabled":false,"rental_uris":{"android":"levelo://app?vid=7f095a12-4f92-4659-8967-ab82406b1c77","ios":"levelo://app?vid=7f095a12-4f92-4659-8967-ab82406b1c77"},"vehicle_type_id":"4","last_reported":1737410919,"current_range_meters":39200,"station_id":"ce4bhn12rcd13ifvqgqg","pricing_plan_id":"cebpf4jnsgd1na2vs0mg"},{"bike_id":"aa720aaf-80a4-4d1e-a239-c9eefeb2c46d","system_id":"levelo_inurba_marseille","lat":43.30355,"lon":5.41881,"is_reserved":false,"is_disabled":false,"rental_uris":{"android":"levelo://app?vid=aa720aaf-80a4-4d1e-a239-c9eefeb2c46d","ios":"levelo://app?vid=aa720aaf-80a4-4d1e-a239-c9eefeb2c46d"},"vehicle_type_id":"4","last_reported":1737410919,"current_range_meters":22800,"station_id":"ce4bhop2rcd13ifvqh7g","pricing_plan_id":"cebpf4jnsgd1na2vs0mg"},{"bike_id":"5d54aab2-88c1-48af-a910-7cc379c457ee","system_id":"levelo_inurba_marseille","lat":43.28854,"lon":5.35859,"is_reserved":false,"is_disabled":false,"rental_uris":{"android":"levelo://app?vid=5d54aab2-88c1-48af-a910-7cc379c457ee","ios":"levelo://app?vid=5d54aab2-88c1-48af-a910-7cc379c457ee"},"vehicle_type_id":"4","last_reported":1737410919,"current_range_meters":38800,"station_id":"ce4bhb12rcd13ifvqem0","pricing_plan_id":"cebpf4jnsgd1na2vs0mg"},{"bike_id":"76fc3200-f33f-4190-ae84-57b96cd0c3c7","system_id":"levelo_inurba_marseille","lat":43.24807,"lon":5.374513,"is_reserved":false,"is_disabled":false,"rental_uris":{"android":"levelo://app?vid=76fc3200-f33f-4190-ae84-57b96cd0c3c7","ios":"levelo://app?vid=76fc3200-f33f-4190-ae84-57b96cd0c3c7"},"vehicle_type_id":"4","last_reported":1737410919,"current_range_meters":38800,"station_id":"ce4bhgh2rcd13ifvqfb0","pricing_plan_id":"cebpf4jnsgd1na2vs0mg"},{"bike_id":"06d7b650-1ece-4daf-acd1-ba5375622409","system_id":"levelo_inurba_marseille","lat":43.29531,"lon":5.39041,"is_reserved":false,"is_disabled":false,"rental_uris":{"android":"levelo://app?vid=06d7b650-1ece-4daf-acd1-ba5375622409","ios":"levelo://app?vid=06d7b650-1ece-4daf-acd1-ba5375622409"},"vehicle_type_id":"4","last_reported":1737410919,"current_range_meters":38000,"station_id":"ce4bh3p2rcd13ifvqdp0","pricing_plan_id":"cebpf4jnsgd1na2vs0mg"},{"bike_id":"f4769da4-49a1-4f09-884e-dbb121e5aacd","system_id":"levelo_inurba_marseille","lat":43.28174,"lon":5.42668,"is_reserved":false,"is_disabled":false,"rental_uris":{"android":"levelo://app?vid=f4769da4-49a1-4f09-884e-dbb121e5aacd","ios":"levelo://app?vid=f4769da4-49a1-4f09-884e-dbb121e5aacd"},"vehicle_type_id":"4","last_reported":1737410919,"current_range_meters":33600,"station_id":"ce4bhnh2rcd13ifvqgug","pricing_plan_id":"cebpf4jnsgd1na2vs0mg"},{"bike_id":"eaa638d9-7e2e-43a0-989a-f3e72ed09d7b","system_id":"levelo_inurba_marseille","lat":43.279,"lon":5.38002,"is_reserved":false,"is_disabled":false,"rental_uris":{"android":"levelo://app?vid=eaa638d9-7e2e-43a0-989a-f3e72ed09d7b","ios":"levelo://app?vid=eaa638d9-7e2e-43a0-989a-f3e72ed09d7b"},"vehicle_type_id":"4","last_reported":1737410919,"current_range_meters":28800,"station_id":"ce4bhf92rcd13ifvqf50","pricing_plan_id":"cebpf4jnsgd1na2vs0mg"},{"bike_id":"4c707804-82f9-40c7-bd5a-c2828deb4c32","system_id":"levelo_inurba_marseille","lat":43.31176,"lon":5.38726,"is_reserved":false,"is_disabled":false,"rental_uris":{"android":"levelo://app?vid=4c707804-82f9-40c7-bd5a-c2828deb4c32","ios":"levelo://app?vid=4c707804-82f9-40c7-bd5a-c2828deb4c32"},"vehicle_type_id":"4","last_reported":1737410919,"current_range_meters":38000,"station_id":"ce4bgv12rcd13ifvqcp0","pricing_plan_id":"cebpf4jnsgd1na2vs0mg"},{"bike_id":"9a29d2fd-f204-4cd2-8075-881b8211a878","system_id":"levelo_inurba_marseille","lat":43.2808,"lon":5.39653,"is_reserved":false,"is_disabled":false,"rental_uris":{"android":"levelo://app?vid=9a29d2fd-f204-4cd2-8075-881b8211a878","ios":"levelo://app?vid=9a29d2fd-f204-4cd2-8075-881b8211a878"},"vehicle_type_id":"4","last_reported":1737410919,"current_range_meters":27600,"station_id":"ce4bho12rcd13ifvqh2g","pricing_plan_id":"cebpf4jnsgd1na2vs0mg"},{"bike_id":"e8766598-b2f6-417b-a2f3-b73d56d88e6d","system_id":"levelo_inurba_marseille","lat":43.28679,"lon":5.38668,"is_reserved":false,"is_disabled":false,"rental_uris":{"android":"levelo://app?vid=e8766598-b2f6-417b-a2f3-b73d56d88e6d","ios":"levelo://app?vid=e8766598-b2f6-417b-a2f3-b73d56d88e6d"},"vehicle_type_id":"4","last_reported":1737410919,"current_range_meters":38800,"station_id":"ce4bh492rcd13ifvqdug","pricing_plan_id":"cebpf4jnsgd1na2vs0mg"},{"bike_id":"80bcc3e7-77de-44a5-8965-f19acb6d7452","system_id":"levelo_inurba_marseille","lat":43.330146,"lon":5.390364,"is_reserved":false,"is_disabled":false,"rental_uris":{"android":"levelo://app?vid=80bcc3e7-77de-44a5-8965-f19acb6d7452","ios":"levelo://app?vid=80bcc3e7-77de-44a5-8965-f19acb6d7452"},"vehicle_type_id":"4","last_reported":1737410919,"current_range_meters":39200,"station_id":"ce4bhr92rcd13ifvqhrg","pricing_plan_id":"cebpf4jnsgd1na2vs0mg"},{"bike_id":"dcda65e2-f8e1-4db2-80d2-ac1e7c6ed43f","system_id":"levelo_inurba_marseille","lat":43.30795,"lon":5.3816,"is_reserved":false,"is_disabled":false,"rental_uris":{"android":"levelo://app?vid=dcda65e2-f8e1-4db2-80d2-ac1e7c6ed43f","ios":"levelo://app?vid=dcda65e2-f8e1-4db2-80d2-ac1e7c6ed43f"},"vehicle_type_id":"4","last_reported":1737410919,"current_range_meters":34800,"station_id":"ce4bgt12rcd13ifvqce0","pricing_plan_id":"cebpf4jnsgd1na2vs0mg"},{"bike_id":"76458d9c-debe-4829-9595-db34e50d2ccc","system_id":"levelo_inurba_marseille","lat":43.28607,"lon":5.37056,"is_reserved":false,"is_disabled":false,"rental_uris":{"android":"levelo://app?vid=76458d9c-debe-4829-9595-db34e50d2ccc","ios":"levelo://app?vid=76458d9c-debe-4829-9595-db34e50d2ccc"},"vehicle_type_id":"4","last_reported":1737410919,"current_range_meters":38400,"station_id":"ce4bht12rcd13ifvqi60","pricing_plan_id":"cebpf4jnsgd1na2vs0mg"},{"bike_id":"5c647c6a-f36f-4ac4-a081-cf09345ba7c6","system_id":"levelo_inurba_marseille","lat":43.2585,"lon":5.39927,"is_reserved":false,"is_disabled":false,"rental_uris":{"android":"levelo://app?vid=5c647c6a-f36f-4ac4-a081-cf09345ba7c6","ios":"levelo://app?vid=5c647c6a-f36f-4ac4-a081-cf09345ba7c6"},"vehicle_type_id":"4","last_reported":1737410919,"current_range_meters":38800,"station_id":"ce4bhl92rcd13ifvqghg","pricing_plan_id":"cebpf4jnsgd1na2vs0mg"},{"bike_id":"fecdf35a-1464-4217-ba93-ef7c6566c9ce","system_id":"levelo_inurba_marseille","lat":43.28264,"lon":5.35072,"is_reserved":false,"is_disabled":false,"rental_uris":{"android":"levelo://app?vid=fecdf35a-1464-4217-ba93-ef7c6566c9ce","ios":"levelo://app?vid=fecdf35a-1464-4217-ba93-ef7c6566c9ce"},"vehicle_type_id":"4","last_reported":1737410919,"current_range_meters":28800,"station_id":"ce4bhbp2rcd13ifvqerg","pricing_plan_id":"cebpf4jnsgd1na2vs0mg"},{"bike_id":"0557c506-23a4-4447-953d-fa48ca882c8d","system_id":"levelo_inurba_marseille","lat":43.29264,"lon":5.38447,"is_reserved":false,"is_disabled":false,"rental_uris":{"android":"levelo://app?vid=0557c506-23a4-4447-953d-fa48ca882c8d","ios":"levelo://app?vid=0557c506-23a4-4447-953d-fa48ca882c8d"},"vehicle_type_id":"4","last_reported":1737410919,"current_range_meters":36000,"station_id":"ce4bh692rcd13ifvqea0","pricing_plan_id":"cebpf4jnsgd1na2vs0mg"},{"bike_id":"ef452395-3be9-454d-b5f5-c3f11f867018","system_id":"levelo_inurba_marseille","lat":43.31534,"lon":5.38055,"is_reserved":false,"is_disabled":false,"rental_uris":{"android":"levelo://app?vid=ef452395-3be9-454d-b5f5-c3f11f867018","ios":"levelo://app?vid=ef452395-3be9-454d-b5f5-c3f11f867018"},"vehicle_type_id":"4","last_reported":1737410919,"current_range_meters":32800,"station_id":"ce4bhsp2rcd13ifvqi50","pricing_plan_id":"cebpf4jnsgd1na2vs0mg"},{"bike_id":"b887ec45-2824-4a19-a327-1b38cefbc7dc","system_id":"levelo_inurba_marseille","lat":43.30888,"lon":5.36902,"is_reserved":false,"is_disabled":true,"rental_uris":{"android":"levelo://app?vid=b887ec45-2824-4a19-a327-1b38cefbc7dc","ios":"levelo://app?vid=b887ec45-2824-4a19-a327-1b38cefbc7dc"},"vehicle_type_id":"4","last_reported":1737410919,"current_range_meters":32800,"station_id":"ce4bgn92rcd13ifvqbvg","pricing_plan_id":"cebpf4jnsgd1na2vs0mg"},{"bike_id":"68e40f89-e6fb-4b2b-ac6f-49cf6a245ce1","system_id":"levelo_inurba_marseille","lat":43.25116,"lon":5.40287,"is_reserved":false,"is_disabled":false,"rental_uris":{"android":"levelo://app?vid=68e40f89-e6fb-4b2b-ac6f-49cf6a245ce1","ios":"levelo://app?vid=68e40f89-e6fb-4b2b-ac6f-49cf6a245ce1"},"vehicle_type_id":"4","last_reported":1737410919,"current_range_meters":30400,"station_id":"ce4bhlh2rcd13ifvqgig","pricing_plan_id":"cebpf4jnsgd1na2vs0mg"},{"bike_id":"41377ca0-a1f0-4559-b784-108df3d23a17","system_id":"levelo_inurba_marseille","lat":43.33611,"lon":5.41035,"is_reserved":false,"is_disabled":false,"rental_uris":{"android":"levelo://app?vid=41377ca0-a1f0-4559-b784-108df3d23a17","ios":"levelo://app?vid=41377ca0-a1f0-4559-b784-108df3d23a17"},"vehicle_type_id":"4","last_reported":1737410919,"current_range_meters":32000,"station_id":"ce4bhqh2rcd13ifvqhmg","pricing_plan_id":"cebpf4jnsgd1na2vs0mg"},{"bike_id":"4b344f4f-63b5-4284-b400-eb66c5cbadff","system_id":"levelo_inurba_marseille","lat":43.31273,"lon":5.40167,"is_reserved":false,"is_disabled":false,"rental_uris":{"android":"levelo://app?vid=4b344f4f-63b5-4284-b400-eb66c5cbadff","ios":"levelo://app?vid=4b344f4f-63b5-4284-b400-eb66c5cbadff"},"vehicle_type_id":"4","last_reported":1737410919,"current_range_meters":28000,"station_id":"ce4bh092rcd13ifvqd30","pricing_plan_id":"cebpf4jnsgd1na2vs0mg"},{"bike_id":"b39f6109-7f56-4b17-b737-eaa8ed0334b8","system_id":"levelo_inurba_marseille","lat":43.3046,"lon":5.37904,"is_reserved":false,"is_disabled":true,"rental_uris":{"android":"levelo://app?vid=b39f6109-7f56-4b17-b737-eaa8ed0334b8","ios":"levelo://app?vid=b39f6109-7f56-4b17-b737-eaa8ed0334b8"},"vehicle_type_id":"4","last_reported":1737410919,"current_range_meters":36800,"station_id":"ce4bgup2rcd13ifvqcn0","pricing_plan_id":"cebpf4jnsgd1na2vs0mg"},{"bike_id":"db9233a0-541f-470e-96f3-96db6f81cf0f","system_id":"levelo_inurba_marseille","lat":43.27815,"lon":5.40709,"is_reserved":false,"is_disabled":false,"rental_uris":{"android":"levelo://app?vid=db9233a0-541f-470e-96f3-96db6f81cf0f","ios":"levelo://app?vid=db9233a0-541f-470e-96f3-96db6f81cf0f"},"vehicle_type_id":"4","last_reported":1737410919,"current_range_meters":25600,"station_id":"ce4bhnh2rcd13ifvqgtg","pricing_plan_id":"cebpf4jnsgd1na2vs0mg"},{"bike_id":"3ae0cecc-63f5-481f-a82f-b1527c58f8be","system_id":"levelo_inurba_marseille","lat":43.28109,"lon":5.37833,"is_reserved":false,"is_disabled":false,"rental_uris":{"android":"levelo://app?vid=3ae0cecc-63f5-481f-a82f-b1527c58f8be","ios":"levelo://app?vid=3ae0cecc-63f5-481f-a82f-b1527c58f8be"},"vehicle_type_id":"4","last_reported":1737410919,"current_range_meters":30800,"station_id":"ce4bha12rcd13ifvqee0","pricing_plan_id":"cebpf4jnsgd1na2vs0mg"},{"bike_id":"81cb1c92-ecff-4fab-a4f3-2fbc65c9feaf","system_id":"levelo_inurba_marseille","lat":43.30961,"lon":5.39039,"is_reserved":false,"is_disabled":false,"rental_uris":{"android":"levelo://app?vid=81cb1c92-ecff-4fab-a4f3-2fbc65c9feaf","ios":"levelo://app?vid=81cb1c92-ecff-4fab-a4f3-2fbc65c9feaf"},"vehicle_type_id":"4","last_reported":1737410919,"current_range_meters":38000,"station_id":"ce4bgup2rcd13ifvqco0","pricing_plan_id":"cebpf4jnsgd1na2vs0mg"},{"bike_id":"08f67f24-9e69-4d0e-a5a0-2b30ac65212d","system_id":"levelo_inurba_marseille","lat":43.31339,"lon":5.39685,"is_reserved":false,"is_disabled":false,"rental_uris":{"android":"levelo://app?vid=08f67f24-9e69-4d0e-a5a0-2b30ac65212d","ios":"levelo://app?vid=08f67f24-9e69-4d0e-a5a0-2b30ac65212d"},"vehicle_type_id":"4","last_reported":1737410919,"current_range_meters":38800,"station_id":"ce4bgvp2rcd13ifvqcu0","pricing_plan_id":"cebpf4jnsgd1na2vs0mg"},{"bike_id":"ca297010-5c72-47d6-b03a-6ec90012fb07","system_id":"levelo_inurba_marseille","lat":43.26811,"lon":5.40253,"is_reserved":false,"is_disabled":false,"rental_uris":{"android":"levelo://app?vid=ca297010-5c72-47d6-b03a-6ec90012fb07","ios":"levelo://app?vid=ca297010-5c72-47d6-b03a-6ec90012fb07"},"vehicle_type_id":"4","last_reported":1737410919,"current_range_meters":12000,"station_id":"ce501612rcd8frsf0b60","pricing_plan_id":"cebpf4jnsgd1na2vs0mg"},{"bike_id":"0c741d55-e6bb-4be5-8dab-c41aff9bf1f7","system_id":"levelo_inurba_marseille","lat":43.281488,"lon":5.42635,"is_reserved":false,"is_disabled":false,"rental_uris":{"android":"levelo://app?vid=0c741d55-e6bb-4be5-8dab-c41aff9bf1f7","ios":"levelo://app?vid=0c741d55-e6bb-4be5-8dab-c41aff9bf1f7"},"vehicle_type_id":"4","last_reported":1737410919,"current_range_meters":38400,"station_id":"ce4bhnh2rcd13ifvqgug","pricing_plan_id":"cebpf4jnsgd1na2vs0mg"},{"bike_id":"6268930e-3e42-41b7-98d4-6a047f93f6c4","system_id":"levelo_inurba_marseille","lat":43.28685,"lon":5.38657,"is_reserved":false,"is_disabled":false,"rental_uris":{"android":"levelo://app?vid=6268930e-3e42-41b7-98d4-6a047f93f6c4","ios":"levelo://app?vid=6268930e-3e42-41b7-98d4-6a047f93f6c4"},"vehicle_type_id":"4","last_reported":1737410919,"current_range_meters":36800,"station_id":"ce4bh492rcd13ifvqdug","pricing_plan_id":"cebpf4jnsgd1na2vs0mg"},{"bike_id":"de5adbf7-c4d4-49e3-ba68-72cc812f5662","system_id":"levelo_inurba_marseille","lat":43.29622,"lon":5.37705,"is_reserved":false,"is_disabled":true,"rental_uris":{"android":"levelo://app?vid=de5adbf7-c4d4-49e3-ba68-72cc812f5662","ios":"levelo://app?vid=de5adbf7-c4d4-49e3-ba68-72cc812f5662"},"vehicle_type_id":"4","last_reported":1737410919,"current_range_meters":38800,"station_id":"ce4bgi92rcd13ifvqb90","pricing_plan_id":"cebpf4jnsgd1na2vs0mg"},{"bike_id":"b697c026-1a3f-4173-8937-04c71439dde2","system_id":"levelo_inurba_marseille","lat":43.29787,"lon":5.39341,"is_reserved":false,"is_disabled":false,"rental_uris":{"android":"levelo://app?vid=b697c026-1a3f-4173-8937-04c71439dde2","ios":"levelo://app?vid=b697c026-1a3f-4173-8937-04c71439dde2"},"vehicle_type_id":"4","last_reported":1737410919,"current_range_meters":36000,"station_id":"chh1huq6cuj3fo74tm60","pricing_plan_id":"cebpf4jnsgd1na2vs0mg"},{"bike_id":"15e163a8-a719-47cc-8649-f9068b3f66eb","system_id":"levelo_inurba_marseille","lat":43.24672,"lon":5.38181,"is_reserved":false,"is_disabled":false,"rental_uris":{"android":"levelo://app?vid=15e163a8-a719-47cc-8649-f9068b3f66eb","ios":"levelo://app?vid=15e163a8-a719-47cc-8649-f9068b3f66eb"},"vehicle_type_id":"4","last_reported":1737410919,"current_range_meters":25600,"station_id":"ce4bhih2rcd13ifvqfr0","pricing_plan_id":"cebpf4jnsgd1na2vs0mg"},{"bike_id":"de0e2046-c69d-4a1d-a36c-55284d20df28","system_id":"levelo_inurba_marseille","lat":43.29713,"lon":5.3658,"is_reserved":false,"is_disabled":false,"rental_uris":{"android":"levelo://app?vid=de0e2046-c69d-4a1d-a36c-55284d20df28","ios":"levelo://app?vid=de0e2046-c69d-4a1d-a36c-55284d20df28"},"vehicle_type_id":"4","last_reported":1737410919,"current_range_meters":38800,"station_id":"ce4bgn12rcd13ifvqbt0","pricing_plan_id":"cebpf4jnsgd1na2vs0mg"},{"bike_id":"a64eab1e-dbe6-4f77-87db-641966b43236","system_id":"levelo_inurba_marseille","lat":43.25084,"lon":5.39511,"is_reserved":false,"is_disabled":false,"rental_uris":{"android":"levelo://app?vid=a64eab1e-dbe6-4f77-87db-641966b43236","ios":"levelo://app?vid=a64eab1e-dbe6-4f77-87db-641966b43236"},"vehicle_type_id":"4","last_reported":1737410919,"current_range_meters":32800,"station_id":"ce4bhm12rcd13ifvqgkg","pricing_plan_id":"cebpf4jnsgd1na2vs0mg"},{"bike_id":"07ff9b6a-df59-4190-9009-d72a7d347da0","system_id":"levelo_inurba_marseille","lat":43.31762,"lon":5.39023,"is_reserved":false,"is_disabled":false,"rental_uris":{"android":"levelo://app?vid=07ff9b6a-df59-4190-9009-d72a7d347da0","ios":"levelo://app?vid=07ff9b6a-df59-4190-9009-d72a7d347da0"},"vehicle_type_id":"4","last_reported":1737410919,"current_range_meters":33200,"station_id":"ce4bhqp2rcd13ifvqhng","pricing_plan_id":"cebpf4jnsgd1na2vs0mg"},{"bike_id":"3c19884d-bb21-42e2-ae9c-8e80a218508d","system_id":"levelo_inurba_marseille","lat":43.28935,"lon":5.36414,"is_reserved":false,"is_disabled":false,"rental_uris":{"android":"levelo://app?vid=3c19884d-bb21-42e2-ae9c-8e80a218508d","ios":"levelo://app?vid=3c19884d-bb21-42e2-ae9c-8e80a218508d"},"vehicle_type_id":"4","last_reported":1737410919,"current_range_meters":38800,"station_id":"ce4bhc92rcd13ifvqetg","pricing_plan_id":"cebpf4jnsgd1na2vs0mg"},{"bike_id":"9504b7e0-2f20-49ea-814e-e380f0d8ec79","system_id":"levelo_inurba_marseille","lat":43.32075,"lon":5.36832,"is_reserved":false,"is_disabled":false,"rental_uris":{"android":"levelo://app?vid=9504b7e0-2f20-49ea-814e-e380f0d8ec79","ios":"levelo://app?vid=9504b7e0-2f20-49ea-814e-e380f0d8ec79"},"vehicle_type_id":"4","last_reported":1737410919,"current_range_meters":38800,"station_id":"","pricing_plan_id":"cebpf4jnsgd1na2vs0mg"},{"bike_id":"def4261b-ecda-4bf3-aa61-0e5e8ee4c990","system_id":"levelo_inurba_marseille","lat":43.323388,"lon":5.406194,"is_reserved":false,"is_disabled":false,"rental_uris":{"android":"levelo://app?vid=def4261b-ecda-4bf3-aa61-0e5e8ee4c990","ios":"levelo://app?vid=def4261b-ecda-4bf3-aa61-0e5e8ee4c990"},"vehicle_type_id":"4","last_reported":1737410919,"current_range_meters":39200,"station_id":"ce4bhq92rcd13ifvqhjg","pricing_plan_id":"cebpf4jnsgd1na2vs0mg"},{"bike_id":"f7817e8d-eab7-43f4-8262-b0948daf0edd","system_id":"levelo_inurba_marseille","lat":43.31696,"lon":5.37767,"is_reserved":false,"is_disabled":false,"rental_uris":{"android":"levelo://app?vid=f7817e8d-eab7-43f4-8262-b0948daf0edd","ios":"levelo://app?vid=f7817e8d-eab7-43f4-8262-b0948daf0edd"},"vehicle_type_id":"4","last_reported":1737410919,"current_range_meters":38800,"station_id":"ce4bgth2rcd13ifvqch0","pricing_plan_id":"cebpf4jnsgd1na2vs0mg"},{"bike_id":"c5b1bb1a-781d-4a34-a876-7b91eb7cd37f","system_id":"levelo_inurba_marseille","lat":43.28602,"lon":5.35143,"is_reserved":false,"is_disabled":false,"rental_uris":{"android":"levelo://app?vid=c5b1bb1a-781d-4a34-a876-7b91eb7cd37f","ios":"levelo://app?vid=c5b1bb1a-781d-4a34-a876-7b91eb7cd37f"},"vehicle_type_id":"4","last_reported":1737410919,"current_range_meters":34000,"station_id":"ce4bhch2rcd13ifvqeug","pricing_plan_id":"cebpf4jnsgd1na2vs0mg"},{"bike_id":"794621e3-3124-4bb3-96e3-bbeccc7c03ca","system_id":"levelo_inurba_marseille","lat":43.27803,"lon":5.40704,"is_reserved":false,"is_disabled":false,"rental_uris":{"android":"levelo://app?vid=794621e3-3124-4bb3-96e3-bbeccc7c03ca","ios":"levelo://app?vid=794621e3-3124-4bb3-96e3-bbeccc7c03ca"},"vehicle_type_id":"4","last_reported":1737410919,"current_range_meters":29600,"station_id":"ce4bhnh2rcd13ifvqgtg","pricing_plan_id":"cebpf4jnsgd1na2vs0mg"},{"bike_id":"e49401c7-f7a8-418d-8b78-718a422cd25d","system_id":"levelo_inurba_marseille","lat":43.29176,"lon":5.37143,"is_reserved":false,"is_disabled":true,"rental_uris":{"android":"levelo://app?vid=e49401c7-f7a8-418d-8b78-718a422cd25d","ios":"levelo://app?vid=e49401c7-f7a8-418d-8b78-718a422cd25d"},"vehicle_type_id":"4","last_reported":1737410919,"current_range_meters":27600,"station_id":"ce4bha92rcd13ifvqeh0","pricing_plan_id":"cebpf4jnsgd1na2vs0mg"},{"bike_id":"da3a7eb9-5fa6-49b3-9e5b-6452969eedf1","system_id":"levelo_inurba_marseille","lat":43.244,"lon":5.37056,"is_reserved":false,"is_disabled":true,"rental_uris":{"android":"levelo://app?vid=da3a7eb9-5fa6-49b3-9e5b-6452969eedf1","ios":"levelo://app?vid=da3a7eb9-5fa6-49b3-9e5b-6452969eedf1"},"vehicle_type_id":"4","last_reported":1737410919,"current_range_meters":23200,"station_id":"ce4bhhh2rcd13ifvqfk0","pricing_plan_id":"cebpf4jnsgd1na2vs0mg"},{"bike_id":"1c92ca80-b478-4b98-8b2b-ce49639e8b36","system_id":"levelo_inurba_marseille","lat":43.29538,"lon":5.38548,"is_reserved":false,"is_disabled":false,"rental_uris":{"android":"levelo://app?vid=1c92ca80-b478-4b98-8b2b-ce49639e8b36","ios":"levelo://app?vid=1c92ca80-b478-4b98-8b2b-ce49639e8b36"},"vehicle_type_id":"4","last_reported":1737410919,"current_range_meters":36800,"station_id":"ce4bgih2rcd13ifvqba0","pricing_plan_id":"cebpf4jnsgd1na2vs0mg"},{"bike_id":"46fff60c-da93-4e15-9cbf-bedd254fc83d","system_id":"levelo_inurba_marseille","lat":43.22906,"lon":5.35405,"is_reserved":false,"is_disabled":false,"rental_uris":{"android":"levelo://app?vid=46fff60c-da93-4e15-9cbf-bedd254fc83d","ios":"levelo://app?vid=46fff60c-da93-4e15-9cbf-bedd254fc83d"},"vehicle_type_id":"4","last_reported":1737410919,"current_range_meters":38400,"station_id":"cpo3532slgdg3j2ikp40","pricing_plan_id":"cebpf4jnsgd1na2vs0mg"},{"bike_id":"026c5cbe-081d-480e-8260-80cc91166677","system_id":"levelo_inurba_marseille","lat":43.28716,"lon":5.3999,"is_reserved":false,"is_disabled":true,"rental_uris":{"android":"levelo://app?vid=026c5cbe-081d-480e-8260-80cc91166677","ios":"levelo://app?vid=026c5cbe-081d-480e-8260-80cc91166677"},"vehicle_type_id":"4","last_reported":1737410919,"current_range_meters":1200,"station_id":"ce4bho92rcd13ifvqh3g","pricing_plan_id":"cebpf4jnsgd1na2vs0mg"},{"bike_id":"07d66405-2e98-4f47-a9c9-b19f49a1104c","system_id":"levelo_inurba_marseille","lat":43.294223,"lon":5.386232,"is_reserved":false,"is_disabled":false,"rental_uris":{"android":"levelo://app?vid=07d66405-2e98-4f47-a9c9-b19f49a1104c","ios":"levelo://app?vid=07d66405-2e98-4f47-a9c9-b19f49a1104c"},"vehicle_type_id":"4","last_reported":1737410919,"current_range_meters":39200,"station_id":"ce4bh2h2rcd13ifvqdh0","pricing_plan_id":"cebpf4jnsgd1na2vs0mg"},{"bike_id":"201184dd-de12-42f6-b9a8-f94cf04ddff5","system_id":"levelo_inurba_marseille","lat":43.31274,"lon":5.40178,"is_reserved":false,"is_disabled":false,"rental_uris":{"android":"levelo://app?vid=201184dd-de12-42f6-b9a8-f94cf04ddff5","ios":"levelo://app?vid=201184dd-de12-42f6-b9a8-f94cf04ddff5"},"vehicle_type_id":"4","last_reported":1737410919,"current_range_meters":30800,"station_id":"ce4bh092rcd13ifvqd30","pricing_plan_id":"cebpf4jnsgd1na2vs0mg"},{"bike_id":"1debdbc0-8302-406d-920b-a40130efb080","system_id":"levelo_inurba_marseille","lat":43.289341,"lon":5.363802,"is_reserved":false,"is_disabled":false,"rental_uris":{"android":"levelo://app?vid=1debdbc0-8302-406d-920b-a40130efb080","ios":"levelo://app?vid=1debdbc0-8302-406d-920b-a40130efb080"},"vehicle_type_id":"4","last_reported":1737410919,"current_range_meters":28400,"station_id":"ce4bhc92rcd13ifvqetg","pricing_plan_id":"cebpf4jnsgd1na2vs0mg"},{"bike_id":"a36ee2d1-1d7f-42c5-9a98-f1d3e9db357d","system_id":"levelo_inurba_marseille","lat":43.23963,"lon":5.36632,"is_reserved":false,"is_disabled":false,"rental_uris":{"android":"levelo://app?vid=a36ee2d1-1d7f-42c5-9a98-f1d3e9db357d","ios":"levelo://app?vid=a36ee2d1-1d7f-42c5-9a98-f1d3e9db357d"},"vehicle_type_id":"4","last_reported":1737410919,"current_range_meters":21600,"station_id":"ce4bhi12rcd13ifvqfp0","pricing_plan_id":"cebpf4jnsgd1na2vs0mg"},{"bike_id":"a8a68a08-c628-497b-bfe5-57204ba5cc39","system_id":"levelo_inurba_marseille","lat":43.28168,"lon":5.42654,"is_reserved":false,"is_disabled":false,"rental_uris":{"android":"levelo://app?vid=a8a68a08-c628-497b-bfe5-57204ba5cc39","ios":"levelo://app?vid=a8a68a08-c628-497b-bfe5-57204ba5cc39"},"vehicle_type_id":"4","last_reported":1737410919,"current_range_meters":38400,"station_id":"ce4bhnh2rcd13ifvqgug","pricing_plan_id":"cebpf4jnsgd1na2vs0mg"},{"bike_id":"910c1c8e-72a6-432d-b380-8feaf18dbd89","system_id":"levelo_inurba_marseille","lat":43.28565,"lon":5.39517,"is_reserved":false,"is_disabled":true,"rental_uris":{"android":"levelo://app?vid=910c1c8e-72a6-432d-b380-8feaf18dbd89","ios":"levelo://app?vid=910c1c8e-72a6-432d-b380-8feaf18dbd89"},"vehicle_type_id":"4","last_reported":1737410919,"current_range_meters":16000,"station_id":"ce4bh292rcd13ifvqdg0","pricing_plan_id":"cebpf4jnsgd1na2vs0mg"},{"bike_id":"4bc49912-71c9-48b2-8244-21e1aeecfe85","system_id":"levelo_inurba_marseille","lat":43.29518,"lon":5.39029,"is_reserved":false,"is_disabled":false,"rental_uris":{"android":"levelo://app?vid=4bc49912-71c9-48b2-8244-21e1aeecfe85","ios":"levelo://app?vid=4bc49912-71c9-48b2-8244-21e1aeecfe85"},"vehicle_type_id":"4","last_reported":1737410919,"current_range_meters":39200,"station_id":"ce4bh3p2rcd13ifvqdp0","pricing_plan_id":"cebpf4jnsgd1na2vs0mg"},{"bike_id":"4b88b371-38a3-443d-96cf-2b99cc4f3954","system_id":"levelo_inurba_marseille","lat":43.29742,"lon":5.37689,"is_reserved":false,"is_disabled":true,"rental_uris":{"android":"levelo://app?vid=4b88b371-38a3-443d-96cf-2b99cc4f3954","ios":"levelo://app?vid=4b88b371-38a3-443d-96cf-2b99cc4f3954"},"vehicle_type_id":"4","last_reported":1737410919,"current_range_meters":38800,"station_id":"ce4bgkh2rcd13ifvqbl0","pricing_plan_id":"cebpf4jnsgd1na2vs0mg"},{"bike_id":"2bf84fae-92e5-47ce-b291-12655f6324c8","system_id":"levelo_inurba_marseille","lat":43.30296,"lon":5.39211,"is_reserved":false,"is_disabled":false,"rental_uris":{"android":"levelo://app?vid=2bf84fae-92e5-47ce-b291-12655f6324c8","ios":"levelo://app?vid=2bf84fae-92e5-47ce-b291-12655f6324c8"},"vehicle_type_id":"4","last_reported":1737410919,"current_range_meters":3200,"station_id":"ce4bgkh2rcd13ifvqbk0","pricing_plan_id":"cebpf4jnsgd1na2vs0mg"},{"bike_id":"8b4019b1-336c-4cba-b37d-d3b7cc1a9f6e","system_id":"levelo_inurba_marseille","lat":43.29792,"lon":5.39342,"is_reserved":false,"is_disabled":false,"rental_uris":{"android":"levelo://app?vid=8b4019b1-336c-4cba-b37d-d3b7cc1a9f6e","ios":"levelo://app?vid=8b4019b1-336c-4cba-b37d-d3b7cc1a9f6e"},"vehicle_type_id":"4","last_reported":1737410919,"current_range_meters":10000,"station_id":"chh1huq6cuj3fo74tm60","pricing_plan_id":"cebpf4jnsgd1na2vs0mg"},{"bike_id":"5d019ed7-1e64-4277-b06e-2501a40d1cd1","system_id":"levelo_inurba_marseille","lat":43.30427,"lon":5.39743,"is_reserved":false,"is_disabled":false,"rental_uris":{"android":"levelo://app?vid=5d019ed7-1e64-4277-b06e-2501a40d1cd1","ios":"levelo://app?vid=5d019ed7-1e64-4277-b06e-2501a40d1cd1"},"vehicle_type_id":"4","last_reported":1737410919,"current_range_meters":26800,"station_id":"ce4bh092rcd13ifvqd20","pricing_plan_id":"cebpf4jnsgd1na2vs0mg"},{"bike_id":"7ed62c12-e1f9-4b2c-935b-6efd4f0f7302","system_id":"levelo_inurba_marseille","lat":43.30601,"lon":5.39365,"is_reserved":false,"is_disabled":false,"rental_uris":{"android":"levelo://app?vid=7ed62c12-e1f9-4b2c-935b-6efd4f0f7302","ios":"levelo://app?vid=7ed62c12-e1f9-4b2c-935b-6efd4f0f7302"},"vehicle_type_id":"4","last_reported":1737410919,"current_range_meters":35600,"station_id":"ce4bh0p2rcd13ifvqd80","pricing_plan_id":"cebpf4jnsgd1na2vs0mg"},{"bike_id":"4877d44e-678a-42f3-8060-4d320b49a6e3","system_id":"levelo_inurba_marseille","lat":43.28693,"lon":5.3735,"is_reserved":false,"is_disabled":false,"rental_uris":{"android":"levelo://app?vid=4877d44e-678a-42f3-8060-4d320b49a6e3","ios":"levelo://app?vid=4877d44e-678a-42f3-8060-4d320b49a6e3"},"vehicle_type_id":"4","last_reported":1737410919,"current_range_meters":15200,"station_id":"ce4bh3p2rcd13ifvqdq0","pricing_plan_id":"cebpf4jnsgd1na2vs0mg"},{"bike_id":"53a56d87-3330-4a04-ac5d-8290ef1b226e","system_id":"levelo_inurba_marseille","lat":43.31527,"lon":5.38028,"is_reserved":false,"is_disabled":false,"rental_uris":{"android":"levelo://app?vid=53a56d87-3330-4a04-ac5d-8290ef1b226e","ios":"levelo://app?vid=53a56d87-3330-4a04-ac5d-8290ef1b226e"},"vehicle_type_id":"4","last_reported":1737410919,"current_range_meters":38800,"station_id":"ce4bhsp2rcd13ifvqi50","pricing_plan_id":"cebpf4jnsgd1na2vs0mg"},{"bike_id":"95ea00aa-ca76-4e7a-86a1-450db46c5b23","system_id":"levelo_inurba_marseille","lat":43.31171,"lon":5.38711,"is_reserved":false,"is_disabled":false,"rental_uris":{"android":"levelo://app?vid=95ea00aa-ca76-4e7a-86a1-450db46c5b23","ios":"levelo://app?vid=95ea00aa-ca76-4e7a-86a1-450db46c5b23"},"vehicle_type_id":"4","last_reported":1737410919,"current_range_meters":26000,"station_id":"ce4bgv12rcd13ifvqcp0","pricing_plan_id":"cebpf4jnsgd1na2vs0mg"},{"bike_id":"669e5a89-d103-4189-acc1-182a1374b67b","system_id":"levelo_inurba_marseille","lat":43.27853,"lon":5.39216,"is_reserved":false,"is_disabled":false,"rental_uris":{"android":"levelo://app?vid=669e5a89-d103-4189-acc1-182a1374b67b","ios":"levelo://app?vid=669e5a89-d103-4189-acc1-182a1374b67b"},"vehicle_type_id":"4","last_reported":1737410919,"current_range_meters":10800,"station_id":"ce4bhjp2rcd13ifvqga0","pricing_plan_id":"cebpf4jnsgd1na2vs0mg"},{"bike_id":"a4c27cc3-c38b-466c-95a1-4dd1f3789e48","system_id":"levelo_inurba_marseille","lat":43.33021,"lon":5.39044,"is_reserved":false,"is_disabled":false,"rental_uris":{"android":"levelo://app?vid=a4c27cc3-c38b-466c-95a1-4dd1f3789e48","ios":"levelo://app?vid=a4c27cc3-c38b-466c-95a1-4dd1f3789e48"},"vehicle_type_id":"4","last_reported":1737410919,"current_range_meters":38800,"station_id":"ce4bhr92rcd13ifvqhrg","pricing_plan_id":"cebpf4jnsgd1na2vs0mg"},{"bike_id":"f2390374-e060-4fe1-bcfa-cb2711193e58","system_id":"levelo_inurba_marseille","lat":43.25101,"lon":5.39504,"is_reserved":false,"is_disabled":false,"rental_uris":{"android":"levelo://app?vid=f2390374-e060-4fe1-bcfa-cb2711193e58","ios":"levelo://app?vid=f2390374-e060-4fe1-bcfa-cb2711193e58"},"vehicle_type_id":"4","last_reported":1737410919,"current_range_meters":33600,"station_id":"ce4bhm12rcd13ifvqgkg","pricing_plan_id":"cebpf4jnsgd1na2vs0mg"},{"bike_id":"ce1e1135-9398-41aa-a5e0-903767080811","system_id":"levelo_inurba_marseille","lat":43.27837,"lon":5.39213,"is_reserved":false,"is_disabled":true,"rental_uris":{"android":"levelo://app?vid=ce1e1135-9398-41aa-a5e0-903767080811","ios":"levelo://app?vid=ce1e1135-9398-41aa-a5e0-903767080811"},"vehicle_type_id":"4","last_reported":1737410919,"current_range_meters":1600,"station_id":"ce4bhjp2rcd13ifvqga0","pricing_plan_id":"cebpf4jnsgd1na2vs0mg"},{"bike_id":"9f3ee6aa-4bec-4f76-91c0-b7e5047ea1b6","system_id":"levelo_inurba_marseille","lat":43.28418,"lon":5.37512,"is_reserved":false,"is_disabled":false,"rental_uris":{"android":"levelo://app?vid=9f3ee6aa-4bec-4f76-91c0-b7e5047ea1b6","ios":"levelo://app?vid=9f3ee6aa-4bec-4f76-91c0-b7e5047ea1b6"},"vehicle_type_id":"4","last_reported":1737410919,"current_range_meters":38000,"station_id":"ce4bh412rcd13ifvqds0","pricing_plan_id":"cebpf4jnsgd1na2vs0mg"},{"bike_id":"6fa96e81-a119-436e-b985-1cf31a85cc4c","system_id":"levelo_inurba_marseille","lat":43.279,"lon":5.3801,"is_reserved":false,"is_disabled":false,"rental_uris":{"android":"levelo://app?vid=6fa96e81-a119-436e-b985-1cf31a85cc4c","ios":"levelo://app?vid=6fa96e81-a119-436e-b985-1cf31a85cc4c"},"vehicle_type_id":"4","last_reported":1737410919,"current_range_meters":32400,"station_id":"ce4bhf92rcd13ifvqf50","pricing_plan_id":"cebpf4jnsgd1na2vs0mg"},{"bike_id":"7dc4c089-36da-4b26-86a7-52656659851f","system_id":"levelo_inurba_marseille","lat":43.29605,"lon":5.38103,"is_reserved":false,"is_disabled":false,"rental_uris":{"android":"levelo://app?vid=7dc4c089-36da-4b26-86a7-52656659851f","ios":"levelo://app?vid=7dc4c089-36da-4b26-86a7-52656659851f"},"vehicle_type_id":"4","last_reported":1737410919,"current_range_meters":35200,"station_id":"ce4bgl12rcd13ifvqbo0","pricing_plan_id":"cebpf4jnsgd1na2vs0mg"},{"bike_id":"2fa94927-dd37-49be-944b-425d90e5c2aa","system_id":"levelo_inurba_marseille","lat":43.29916,"lon":5.38167,"is_reserved":false,"is_disabled":false,"rental_uris":{"android":"levelo://app?vid=2fa94927-dd37-49be-944b-425d90e5c2aa","ios":"levelo://app?vid=2fa94927-dd37-49be-944b-425d90e5c2aa"},"vehicle_type_id":"4","last_reported":1737410919,"current_range_meters":36800,"station_id":"ce4bgj12rcd13ifvqbc0","pricing_plan_id":"cebpf4jnsgd1na2vs0mg"},{"bike_id":"32836426-dfc7-4f53-adf5-da81f2475316","system_id":"levelo_inurba_marseille","lat":43.30809,"lon":5.38165,"is_reserved":false,"is_disabled":false,"rental_uris":{"android":"levelo://app?vid=32836426-dfc7-4f53-adf5-da81f2475316","ios":"levelo://app?vid=32836426-dfc7-4f53-adf5-da81f2475316"},"vehicle_type_id":"4","last_reported":1737410919,"current_range_meters":22400,"station_id":"ce4bgt12rcd13ifvqce0","pricing_plan_id":"cebpf4jnsgd1na2vs0mg"},{"bike_id":"412d2955-5a84-4ed2-ac27-b087c6be0824","system_id":"levelo_inurba_marseille","lat":43.3198,"lon":5.38158,"is_reserved":false,"is_disabled":false,"rental_uris":{"android":"levelo://app?vid=412d2955-5a84-4ed2-ac27-b087c6be0824","ios":"levelo://app?vid=412d2955-5a84-4ed2-ac27-b087c6be0824"},"vehicle_type_id":"4","last_reported":1737410919,"current_range_meters":37600,"station_id":"ce4bhr12rcd13ifvqhpg","pricing_plan_id":"cebpf4jnsgd1na2vs0mg"},{"bike_id":"52089089-6b0f-4002-987c-9582afac735e","system_id":"levelo_inurba_marseille","lat":43.28688,"lon":5.38691,"is_reserved":false,"is_disabled":false,"rental_uris":{"android":"levelo://app?vid=52089089-6b0f-4002-987c-9582afac735e","ios":"levelo://app?vid=52089089-6b0f-4002-987c-9582afac735e"},"vehicle_type_id":"4","last_reported":1737410919,"current_range_meters":38800,"station_id":"ce4bh492rcd13ifvqdug","pricing_plan_id":"cebpf4jnsgd1na2vs0mg"},{"bike_id":"0e55de22-ee77-43a3-9d28-87cdb62c7b4f","system_id":"levelo_inurba_marseille","lat":43.28722,"lon":5.36099,"is_reserved":false,"is_disabled":false,"rental_uris":{"android":"levelo://app?vid=0e55de22-ee77-43a3-9d28-87cdb62c7b4f","ios":"levelo://app?vid=0e55de22-ee77-43a3-9d28-87cdb62c7b4f"},"vehicle_type_id":"4","last_reported":1737410919,"current_range_meters":39200,"station_id":"cki0cbj6b192h4jlfktg","pricing_plan_id":"cebpf4jnsgd1na2vs0mg"},{"bike_id":"2893081e-c520-4bfc-ab5e-f25f3b4b1457","system_id":"levelo_inurba_marseille","lat":43.28262,"lon":5.35065,"is_reserved":false,"is_disabled":false,"rental_uris":{"android":"levelo://app?vid=2893081e-c520-4bfc-ab5e-f25f3b4b1457","ios":"levelo://app?vid=2893081e-c520-4bfc-ab5e-f25f3b4b1457"},"vehicle_type_id":"4","last_reported":1737410919,"current_range_meters":28800,"station_id":"ce4bhbp2rcd13ifvqerg","pricing_plan_id":"cebpf4jnsgd1na2vs0mg"},{"bike_id":"3c75e182-45fc-46fc-b9ed-74fd618f5526","system_id":"levelo_inurba_marseille","lat":43.27993,"lon":5.41685,"is_reserved":false,"is_disabled":false,"rental_uris":{"android":"levelo://app?vid=3c75e182-45fc-46fc-b9ed-74fd618f5526","ios":"levelo://app?vid=3c75e182-45fc-46fc-b9ed-74fd618f5526"},"vehicle_type_id":"4","last_reported":1737410919,"current_range_meters":18800,"station_id":"ce4bho12rcd13ifvqh1g","pricing_plan_id":"cebpf4jnsgd1na2vs0mg"},{"bike_id":"36b02f5b-366d-4c8d-ac75-9c5f7c4d6ba1","system_id":"levelo_inurba_marseille","lat":43.31268,"lon":5.40167,"is_reserved":false,"is_disabled":false,"rental_uris":{"android":"levelo://app?vid=36b02f5b-366d-4c8d-ac75-9c5f7c4d6ba1","ios":"levelo://app?vid=36b02f5b-366d-4c8d-ac75-9c5f7c4d6ba1"},"vehicle_type_id":"4","last_reported":1737410919,"current_range_meters":38800,"station_id":"ce4bh092rcd13ifvqd30","pricing_plan_id":"cebpf4jnsgd1na2vs0mg"},{"bike_id":"0e37a4bd-7850-41b7-91e1-556e8b5c7017","system_id":"levelo_inurba_marseille","lat":43.28183,"lon":5.42639,"is_reserved":false,"is_disabled":false,"rental_uris":{"android":"levelo://app?vid=0e37a4bd-7850-41b7-91e1-556e8b5c7017","ios":"levelo://app?vid=0e37a4bd-7850-41b7-91e1-556e8b5c7017"},"vehicle_type_id":"4","last_reported":1737410919,"current_range_meters":28400,"station_id":"ce4bhnh2rcd13ifvqgug","pricing_plan_id":"cebpf4jnsgd1na2vs0mg"},{"bike_id":"9099465c-e42b-455f-892a-773115556934","system_id":"levelo_inurba_marseille","lat":43.31537,"lon":5.38017,"is_reserved":false,"is_disabled":false,"rental_uris":{"android":"levelo://app?vid=9099465c-e42b-455f-892a-773115556934","ios":"levelo://app?vid=9099465c-e42b-455f-892a-773115556934"},"vehicle_type_id":"4","last_reported":1737410919,"current_range_meters":38800,"station_id":"ce4bhsp2rcd13ifvqi50","pricing_plan_id":"cebpf4jnsgd1na2vs0mg"},{"bike_id":"16e3eef4-42f0-4b9f-8603-faaf29a4b50b","system_id":"levelo_inurba_marseille","lat":43.30099,"lon":5.39077,"is_reserved":false,"is_disabled":false,"rental_uris":{"android":"levelo://app?vid=16e3eef4-42f0-4b9f-8603-faaf29a4b50b","ios":"levelo://app?vid=16e3eef4-42f0-4b9f-8603-faaf29a4b50b"},"vehicle_type_id":"4","last_reported":1737410919,"current_range_meters":38800,"station_id":"ce4bh192rcd13ifvqdb0","pricing_plan_id":"cebpf4jnsgd1na2vs0mg"},{"bike_id":"efcc716b-2d37-4b9a-8156-06013547ef4e","system_id":"levelo_inurba_marseille","lat":43.27999,"lon":5.40023,"is_reserved":false,"is_disabled":false,"rental_uris":{"android":"levelo://app?vid=efcc716b-2d37-4b9a-8156-06013547ef4e","ios":"levelo://app?vid=efcc716b-2d37-4b9a-8156-06013547ef4e"},"vehicle_type_id":"4","last_reported":1737410919,"current_range_meters":21600,"station_id":"ce4bho92rcd13ifvqh4g","pricing_plan_id":"cebpf4jnsgd1na2vs0mg"},{"bike_id":"5957b55c-bbf3-4d79-a9fa-182e34bda710","system_id":"levelo_inurba_marseille","lat":43.26696,"lon":5.40266,"is_reserved":false,"is_disabled":false,"rental_uris":{"android":"levelo://app?vid=5957b55c-bbf3-4d79-a9fa-182e34bda710","ios":"levelo://app?vid=5957b55c-bbf3-4d79-a9fa-182e34bda710"},"vehicle_type_id":"4","last_reported":1737410919,"current_range_meters":9200,"station_id":"","pricing_plan_id":"cebpf4jnsgd1na2vs0mg"},{"bike_id":"380fe268-78de-4206-955a-560ab674eeab","system_id":"levelo_inurba_marseille","lat":43.28439,"lon":5.39199,"is_reserved":false,"is_disabled":false,"rental_uris":{"android":"levelo://app?vid=380fe268-78de-4206-955a-560ab674eeab","ios":"levelo://app?vid=380fe268-78de-4206-955a-560ab674eeab"},"vehicle_type_id":"4","last_reported":1737410919,"current_range_meters":38000,"station_id":"ce4bhoh2rcd13ifvqh5g","pricing_plan_id":"cebpf4jnsgd1na2vs0mg"},{"bike_id":"bf3ae1cd-0146-41f6-bb71-866074e25b89","system_id":"levelo_inurba_marseille","lat":43.3024,"lon":5.40068,"is_reserved":false,"is_disabled":false,"rental_uris":{"android":"levelo://app?vid=bf3ae1cd-0146-41f6-bb71-866074e25b89","ios":"levelo://app?vid=bf3ae1cd-0146-41f6-bb71-866074e25b89"},"vehicle_type_id":"4","last_reported":1737410919,"current_range_meters":38800,"station_id":"ce4bgvh2rcd13ifvqcs0","pricing_plan_id":"cebpf4jnsgd1na2vs0mg"},{"bike_id":"668f9767-c78d-438a-96bb-c0760f782967","system_id":"levelo_inurba_marseille","lat":43.26189,"lon":5.37946,"is_reserved":false,"is_disabled":false,"rental_uris":{"android":"levelo://app?vid=668f9767-c78d-438a-96bb-c0760f782967","ios":"levelo://app?vid=668f9767-c78d-438a-96bb-c0760f782967"},"vehicle_type_id":"4","last_reported":1737410919,"current_range_meters":30400,"station_id":"ce4bhjp2rcd13ifvqg90","pricing_plan_id":"cebpf4jnsgd1na2vs0mg"},{"bike_id":"19b99117-ca2c-41ff-b4a2-4386488e4773","system_id":"levelo_inurba_marseille","lat":43.3108,"lon":5.38365,"is_reserved":false,"is_disabled":false,"rental_uris":{"android":"levelo://app?vid=19b99117-ca2c-41ff-b4a2-4386488e4773","ios":"levelo://app?vid=19b99117-ca2c-41ff-b4a2-4386488e4773"},"vehicle_type_id":"4","last_reported":1737410919,"current_range_meters":26800,"station_id":"ce4bgv92rcd13ifvqcr0","pricing_plan_id":"cebpf4jnsgd1na2vs0mg"},{"bike_id":"f12aed8b-8f71-4d26-81ab-45ae907f9bc5","system_id":"levelo_inurba_marseille","lat":43.28278,"lon":5.35085,"is_reserved":false,"is_disabled":false,"rental_uris":{"android":"levelo://app?vid=f12aed8b-8f71-4d26-81ab-45ae907f9bc5","ios":"levelo://app?vid=f12aed8b-8f71-4d26-81ab-45ae907f9bc5"},"vehicle_type_id":"4","last_reported":1737410919,"current_range_meters":38800,"station_id":"ce4bhbp2rcd13ifvqerg","pricing_plan_id":"cebpf4jnsgd1na2vs0mg"},{"bike_id":"4f40d972-06fd-42b6-87d8-47b7f66628c5","system_id":"levelo_inurba_marseille","lat":43.2397,"lon":5.36637,"is_reserved":false,"is_disabled":false,"rental_uris":{"android":"levelo://app?vid=4f40d972-06fd-42b6-87d8-47b7f66628c5","ios":"levelo://app?vid=4f40d972-06fd-42b6-87d8-47b7f66628c5"},"vehicle_type_id":"4","last_reported":1737410919,"current_range_meters":4400,"station_id":"ce4bhi12rcd13ifvqfp0","pricing_plan_id":"cebpf4jnsgd1na2vs0mg"},{"bike_id":"d13e1ce9-dfb9-4338-9d34-66a2c5529080","system_id":"levelo_inurba_marseille","lat":43.28046,"lon":5.36964,"is_reserved":false,"is_disabled":false,"rental_uris":{"android":"levelo://app?vid=d13e1ce9-dfb9-4338-9d34-66a2c5529080","ios":"levelo://app?vid=d13e1ce9-dfb9-4338-9d34-66a2c5529080"},"vehicle_type_id":"4","last_reported":1737410919,"current_range_meters":38000,"station_id":"ce4bha12rcd13ifvqef0","pricing_plan_id":"cebpf4jnsgd1na2vs0mg"},{"bike_id":"98cda36c-1f84-43e1-acd0-cf6070d9f0ff","system_id":"levelo_inurba_marseille","lat":43.2987,"lon":5.39765,"is_reserved":false,"is_disabled":false,"rental_uris":{"android":"levelo://app?vid=98cda36c-1f84-43e1-acd0-cf6070d9f0ff","ios":"levelo://app?vid=98cda36c-1f84-43e1-acd0-cf6070d9f0ff"},"vehicle_type_id":"4","last_reported":1737410919,"current_range_meters":36800,"station_id":"ce4bh0h2rcd13ifvqd50","pricing_plan_id":"cebpf4jnsgd1na2vs0mg"},{"bike_id":"8a0b14e2-52d8-4680-82c0-475610217fd9","system_id":"levelo_inurba_marseille","lat":43.28039,"lon":5.36938,"is_reserved":false,"is_disabled":false,"rental_uris":{"android":"levelo://app?vid=8a0b14e2-52d8-4680-82c0-475610217fd9","ios":"levelo://app?vid=8a0b14e2-52d8-4680-82c0-475610217fd9"},"vehicle_type_id":"4","last_reported":1737410919,"current_range_meters":38400,"station_id":"ce4bha12rcd13ifvqef0","pricing_plan_id":"cebpf4jnsgd1na2vs0mg"},{"bike_id":"228d4274-5f58-4358-8ddb-c0d44329a1bf","system_id":"levelo_inurba_marseille","lat":43.30929,"lon":5.40151,"is_reserved":false,"is_disabled":false,"rental_uris":{"android":"levelo://app?vid=228d4274-5f58-4358-8ddb-c0d44329a1bf","ios":"levelo://app?vid=228d4274-5f58-4358-8ddb-c0d44329a1bf"},"vehicle_type_id":"4","last_reported":1737410919,"current_range_meters":39200,"station_id":"ce4bgvp2rcd13ifvqct0","pricing_plan_id":"cebpf4jnsgd1na2vs0mg"},{"bike_id":"3381f83f-288c-4747-85d2-07c6d42a6f6b","system_id":"levelo_inurba_marseille","lat":43.31356,"lon":5.385,"is_reserved":false,"is_disabled":false,"rental_uris":{"android":"levelo://app?vid=3381f83f-288c-4747-85d2-07c6d42a6f6b","ios":"levelo://app?vid=3381f83f-288c-4747-85d2-07c6d42a6f6b"},"vehicle_type_id":"4","last_reported":1737410919,"current_range_meters":24000,"station_id":"ce4bgt92rcd13ifvqcf0","pricing_plan_id":"cebpf4jnsgd1na2vs0mg"},{"bike_id":"5731cd32-e18c-4dbb-9b82-289b20681341","system_id":"levelo_inurba_marseille","lat":43.30431,"lon":5.39753,"is_reserved":false,"is_disabled":false,"rental_uris":{"android":"levelo://app?vid=5731cd32-e18c-4dbb-9b82-289b20681341","ios":"levelo://app?vid=5731cd32-e18c-4dbb-9b82-289b20681341"},"vehicle_type_id":"4","last_reported":1737410919,"current_range_meters":38000,"station_id":"ce4bh092rcd13ifvqd20","pricing_plan_id":"cebpf4jnsgd1na2vs0mg"},{"bike_id":"03fb29f2-1269-4635-bb09-90c9ff46f885","system_id":"levelo_inurba_marseille","lat":43.29597,"lon":5.38094,"is_reserved":false,"is_disabled":false,"rental_uris":{"android":"levelo://app?vid=03fb29f2-1269-4635-bb09-90c9ff46f885","ios":"levelo://app?vid=03fb29f2-1269-4635-bb09-90c9ff46f885"},"vehicle_type_id":"4","last_reported":1737410919,"current_range_meters":37600,"station_id":"ce4bgl12rcd13ifvqbo0","pricing_plan_id":"cebpf4jnsgd1na2vs0mg"},{"bike_id":"964ce173-84ec-41ca-ab18-97532a895c83","system_id":"levelo_inurba_marseille","lat":43.3107,"lon":5.38346,"is_reserved":false,"is_disabled":false,"rental_uris":{"android":"levelo://app?vid=964ce173-84ec-41ca-ab18-97532a895c83","ios":"levelo://app?vid=964ce173-84ec-41ca-ab18-97532a895c83"},"vehicle_type_id":"4","last_reported":1737410919,"current_range_meters":32400,"station_id":"ce4bgv92rcd13ifvqcr0","pricing_plan_id":"cebpf4jnsgd1na2vs0mg"},{"bike_id":"6116d7f9-1e8a-4a79-8080-3af906745c55","system_id":"levelo_inurba_marseille","lat":43.2846,"lon":5.35888,"is_reserved":false,"is_disabled":false,"rental_uris":{"android":"levelo://app?vid=6116d7f9-1e8a-4a79-8080-3af906745c55","ios":"levelo://app?vid=6116d7f9-1e8a-4a79-8080-3af906745c55"},"vehicle_type_id":"4","last_reported":1737410919,"current_range_meters":30400,"station_id":"ce4bhah2rcd13ifvqei0","pricing_plan_id":"cebpf4jnsgd1na2vs0mg"},{"bike_id":"3133a507-5996-4484-a064-80f7bc3eca44","system_id":"levelo_inurba_marseille","lat":43.30311,"lon":5.40451,"is_reserved":false,"is_disabled":false,"rental_uris":{"android":"levelo://app?vid=3133a507-5996-4484-a064-80f7bc3eca44","ios":"levelo://app?vid=3133a507-5996-4484-a064-80f7bc3eca44"},"vehicle_type_id":"4","last_reported":1737410919,"current_range_meters":38800,"station_id":"ce4bh012rcd13ifvqd10","pricing_plan_id":"cebpf4jnsgd1na2vs0mg"},{"bike_id":"187a71e0-c1c3-4e71-8a26-0d48a596fe6b","system_id":"levelo_inurba_marseille","lat":43.251,"lon":5.39532,"is_reserved":false,"is_disabled":false,"rental_uris":{"android":"levelo://app?vid=187a71e0-c1c3-4e71-8a26-0d48a596fe6b","ios":"levelo://app?vid=187a71e0-c1c3-4e71-8a26-0d48a596fe6b"},"vehicle_type_id":"4","last_reported":1737410919,"current_range_meters":28800,"station_id":"ce4bhm12rcd13ifvqgkg","pricing_plan_id":"cebpf4jnsgd1na2vs0mg"},{"bike_id":"5b4a5c93-c345-4b32-961a-b6e3d1fd64a4","system_id":"levelo_inurba_marseille","lat":43.29227,"lon":5.36071,"is_reserved":false,"is_disabled":false,"rental_uris":{"android":"levelo://app?vid=5b4a5c93-c345-4b32-961a-b6e3d1fd64a4","ios":"levelo://app?vid=5b4a5c93-c345-4b32-961a-b6e3d1fd64a4"},"vehicle_type_id":"4","last_reported":1737410919,"current_range_meters":38800,"station_id":"ce4bhbh2rcd13ifvqeqg","pricing_plan_id":"cebpf4jnsgd1na2vs0mg"},{"bike_id":"259e9165-0cfd-4102-82f0-813d391e62b0","system_id":"levelo_inurba_marseille","lat":43.30606,"lon":5.39344,"is_reserved":false,"is_disabled":false,"rental_uris":{"android":"levelo://app?vid=259e9165-0cfd-4102-82f0-813d391e62b0","ios":"levelo://app?vid=259e9165-0cfd-4102-82f0-813d391e62b0"},"vehicle_type_id":"4","last_reported":1737410919,"current_range_meters":38800,"station_id":"ce4bh0p2rcd13ifvqd80","pricing_plan_id":"cebpf4jnsgd1na2vs0mg"},{"bike_id":"7e1e3e5c-3b71-4538-93eb-de319f9bfe1b","system_id":"levelo_inurba_marseille","lat":43.29723,"lon":5.36596,"is_reserved":false,"is_disabled":false,"rental_uris":{"android":"levelo://app?vid=7e1e3e5c-3b71-4538-93eb-de319f9bfe1b","ios":"levelo://app?vid=7e1e3e5c-3b71-4538-93eb-de319f9bfe1b"},"vehicle_type_id":"4","last_reported":1737410919,"current_range_meters":38800,"station_id":"ce4bgn12rcd13ifvqbt0","pricing_plan_id":"cebpf4jnsgd1na2vs0mg"},{"bike_id":"6b9b5078-0e80-4c1b-a140-38e5f336da7b","system_id":"levelo_inurba_marseille","lat":43.29028,"lon":5.37547,"is_reserved":false,"is_disabled":false,"rental_uris":{"android":"levelo://app?vid=6b9b5078-0e80-4c1b-a140-38e5f336da7b","ios":"levelo://app?vid=6b9b5078-0e80-4c1b-a140-38e5f336da7b"},"vehicle_type_id":"4","last_reported":1737410919,"current_range_meters":32800,"station_id":"ce4bh692rcd13ifvqe90","pricing_plan_id":"cebpf4jnsgd1na2vs0mg"},{"bike_id":"9f3c892f-5e98-4686-913a-2029f2b3cc60","system_id":"levelo_inurba_marseille","lat":43.28735,"lon":5.3608,"is_reserved":false,"is_disabled":false,"rental_uris":{"android":"levelo://app?vid=9f3c892f-5e98-4686-913a-2029f2b3cc60","ios":"levelo://app?vid=9f3c892f-5e98-4686-913a-2029f2b3cc60"},"vehicle_type_id":"4","last_reported":1737410919,"current_range_meters":38800,"station_id":"cki0cbj6b192h4jlfktg","pricing_plan_id":"cebpf4jnsgd1na2vs0mg"},{"bike_id":"7367feb8-850f-40bd-9f83-f7a7405621fa","system_id":"levelo_inurba_marseille","lat":43.30803,"lon":5.43517,"is_reserved":false,"is_disabled":false,"rental_uris":{"android":"levelo://app?vid=7367feb8-850f-40bd-9f83-f7a7405621fa","ios":"levelo://app?vid=7367feb8-850f-40bd-9f83-f7a7405621fa"},"vehicle_type_id":"4","last_reported":1737410919,"current_range_meters":11200,"station_id":"ce4bhph2rcd13ifvqheg","pricing_plan_id":"cebpf4jnsgd1na2vs0mg"},{"bike_id":"ba834d37-a138-4e00-bc01-7355fbf3fb3d","system_id":"levelo_inurba_marseille","lat":43.24648,"lon":5.38161,"is_reserved":false,"is_disabled":false,"rental_uris":{"android":"levelo://app?vid=ba834d37-a138-4e00-bc01-7355fbf3fb3d","ios":"levelo://app?vid=ba834d37-a138-4e00-bc01-7355fbf3fb3d"},"vehicle_type_id":"4","last_reported":1737410919,"current_range_meters":24000,"station_id":"ce4bhih2rcd13ifvqfr0","pricing_plan_id":"cebpf4jnsgd1na2vs0mg"},{"bike_id":"5434439c-80a7-45ef-8e7d-a897cb833684","system_id":"levelo_inurba_marseille","lat":43.32414,"lon":5.36728,"is_reserved":false,"is_disabled":false,"rental_uris":{"android":"levelo://app?vid=5434439c-80a7-45ef-8e7d-a897cb833684","ios":"levelo://app?vid=5434439c-80a7-45ef-8e7d-a897cb833684"},"vehicle_type_id":"4","last_reported":1737410919,"current_range_meters":6000,"station_id":"","pricing_plan_id":"cebpf4jnsgd1na2vs0mg"},{"bike_id":"90d74cb4-b93d-4fee-9fe7-94530e417bbf","system_id":"levelo_inurba_marseille","lat":43.26938,"lon":5.40251,"is_reserved":false,"is_disabled":false,"rental_uris":{"android":"levelo://app?vid=90d74cb4-b93d-4fee-9fe7-94530e417bbf","ios":"levelo://app?vid=90d74cb4-b93d-4fee-9fe7-94530e417bbf"},"vehicle_type_id":"4","last_reported":1737410919,"current_range_meters":38800,"station_id":"cjm6bp8fraef2m0cb0m0","pricing_plan_id":"cebpf4jnsgd1na2vs0mg"},{"bike_id":"de845b11-b1de-4b1a-9895-599299c3c05b","system_id":"levelo_inurba_marseille","lat":43.316894,"lon":5.404598,"is_reserved":false,"is_disabled":false,"rental_uris":{"android":"levelo://app?vid=de845b11-b1de-4b1a-9895-599299c3c05b","ios":"levelo://app?vid=de845b11-b1de-4b1a-9895-599299c3c05b"},"vehicle_type_id":"4","last_reported":1737410919,"current_range_meters":20000,"station_id":"ce4bh012rcd13ifvqd00","pricing_plan_id":"cebpf4jnsgd1na2vs0mg"},{"bike_id":"5ee40e2b-77fe-4cb6-b1eb-2fd2ad8318d4","system_id":"levelo_inurba_marseille","lat":43.30425,"lon":5.38886,"is_reserved":false,"is_disabled":false,"rental_uris":{"android":"levelo://app?vid=5ee40e2b-77fe-4cb6-b1eb-2fd2ad8318d4","ios":"levelo://app?vid=5ee40e2b-77fe-4cb6-b1eb-2fd2ad8318d4"},"vehicle_type_id":"4","last_reported":1737410919,"current_range_meters":36400,"station_id":"ce4bgk12rcd13ifvqbi0","pricing_plan_id":"cebpf4jnsgd1na2vs0mg"},{"bike_id":"50267a36-8428-4ee1-ac27-ac6a771a71af","system_id":"levelo_inurba_marseille","lat":43.3368,"lon":5.35596,"is_reserved":false,"is_disabled":true,"rental_uris":{"android":"levelo://app?vid=50267a36-8428-4ee1-ac27-ac6a771a71af","ios":"levelo://app?vid=50267a36-8428-4ee1-ac27-ac6a771a71af"},"vehicle_type_id":"4","last_reported":1737410919,"current_range_meters":0,"station_id":"","pricing_plan_id":"cebpf4jnsgd1na2vs0mg"},{"bike_id":"847599be-93fb-4e9a-962a-28a9a381acfc","system_id":"levelo_inurba_marseille","lat":43.29038,"lon":5.39961,"is_reserved":false,"is_disabled":false,"rental_uris":{"android":"levelo://app?vid=847599be-93fb-4e9a-962a-28a9a381acfc","ios":"levelo://app?vid=847599be-93fb-4e9a-962a-28a9a381acfc"},"vehicle_type_id":"4","last_reported":1737410919,"current_range_meters":36000,"station_id":"ce4bh392rcd13ifvqdm0","pricing_plan_id":"cebpf4jnsgd1na2vs0mg"},{"bike_id":"f5863b18-13a1-4c6e-92de-5668ea912ad3","system_id":"levelo_inurba_marseille","lat":43.26234,"lon":5.40439,"is_reserved":false,"is_disabled":true,"rental_uris":{"android":"levelo://app?vid=f5863b18-13a1-4c6e-92de-5668ea912ad3","ios":"levelo://app?vid=f5863b18-13a1-4c6e-92de-5668ea912ad3"},"vehicle_type_id":"4","last_reported":1737410919,"current_range_meters":0,"station_id":"","pricing_plan_id":"cebpf4jnsgd1na2vs0mg"},{"bike_id":"d56f3ba3-9723-41f7-9882-3ad30310eb78","system_id":"levelo_inurba_marseille","lat":43.31277,"lon":5.40173,"is_reserved":false,"is_disabled":false,"rental_uris":{"android":"levelo://app?vid=d56f3ba3-9723-41f7-9882-3ad30310eb78","ios":"levelo://app?vid=d56f3ba3-9723-41f7-9882-3ad30310eb78"},"vehicle_type_id":"4","last_reported":1737410919,"current_range_meters":39200,"station_id":"ce4bh092rcd13ifvqd30","pricing_plan_id":"cebpf4jnsgd1na2vs0mg"},{"bike_id":"0799ebb0-aab6-4f2e-81f9-a7187e44db6a","system_id":"levelo_inurba_marseille","lat":43.24391,"lon":5.37053,"is_reserved":false,"is_disabled":false,"rental_uris":{"android":"levelo://app?vid=0799ebb0-aab6-4f2e-81f9-a7187e44db6a","ios":"levelo://app?vid=0799ebb0-aab6-4f2e-81f9-a7187e44db6a"},"vehicle_type_id":"4","last_reported":1737410919,"current_range_meters":38000,"station_id":"ce4bhhh2rcd13ifvqfk0","pricing_plan_id":"cebpf4jnsgd1na2vs0mg"},{"bike_id":"eb6fcbf2-4dba-4dcc-a3a1-6b992d95097c","system_id":"levelo_inurba_marseille","lat":43.23968,"lon":5.36632,"is_reserved":false,"is_disabled":false,"rental_uris":{"android":"levelo://app?vid=eb6fcbf2-4dba-4dcc-a3a1-6b992d95097c","ios":"levelo://app?vid=eb6fcbf2-4dba-4dcc-a3a1-6b992d95097c"},"vehicle_type_id":"4","last_reported":1737410919,"current_range_meters":27200,"station_id":"ce4bhi12rcd13ifvqfp0","pricing_plan_id":"cebpf4jnsgd1na2vs0mg"},{"bike_id":"0aeb76cc-df0e-455c-8b8f-b39861cc3945","system_id":"levelo_inurba_marseille","lat":43.26499,"lon":5.3954,"is_reserved":false,"is_disabled":false,"rental_uris":{"android":"levelo://app?vid=0aeb76cc-df0e-455c-8b8f-b39861cc3945","ios":"levelo://app?vid=0aeb76cc-df0e-455c-8b8f-b39861cc3945"},"vehicle_type_id":"4","last_reported":1737410919,"current_range_meters":24800,"station_id":"ce4bhi12rcd13ifvqfq0","pricing_plan_id":"cebpf4jnsgd1na2vs0mg"},{"bike_id":"5c113fff-0b3b-4140-bfee-3a0572f1f34f","system_id":"levelo_inurba_marseille","lat":43.308867,"lon":5.396593,"is_reserved":false,"is_disabled":false,"rental_uris":{"android":"levelo://app?vid=5c113fff-0b3b-4140-bfee-3a0572f1f34f","ios":"levelo://app?vid=5c113fff-0b3b-4140-bfee-3a0572f1f34f"},"vehicle_type_id":"4","last_reported":1737410919,"current_range_meters":39200,"station_id":"ce4bh012rcd13ifvqcv0","pricing_plan_id":"cebpf4jnsgd1na2vs0mg"},{"bike_id":"b432cf90-61c4-46b1-a90c-f67e2495711b","system_id":"levelo_inurba_marseille","lat":43.2795,"lon":5.4104,"is_reserved":false,"is_disabled":false,"rental_uris":{"android":"levelo://app?vid=b432cf90-61c4-46b1-a90c-f67e2495711b","ios":"levelo://app?vid=b432cf90-61c4-46b1-a90c-f67e2495711b"},"vehicle_type_id":"4","last_reported":1737410919,"current_range_meters":30800,"station_id":"ce4bhnp2rcd13ifvqh0g","pricing_plan_id":"cebpf4jnsgd1na2vs0mg"},{"bike_id":"69fd60eb-66ec-4326-aed9-944af0aa1f80","system_id":"levelo_inurba_marseille","lat":43.28839,"lon":5.3584,"is_reserved":false,"is_disabled":false,"rental_uris":{"android":"levelo://app?vid=69fd60eb-66ec-4326-aed9-944af0aa1f80","ios":"levelo://app?vid=69fd60eb-66ec-4326-aed9-944af0aa1f80"},"vehicle_type_id":"4","last_reported":1737410919,"current_range_meters":19200,"station_id":"ce4bhb12rcd13ifvqem0","pricing_plan_id":"cebpf4jnsgd1na2vs0mg"},{"bike_id":"4fe58642-8ec3-4f25-a4fc-eb5dc3dc47a8","system_id":"levelo_inurba_marseille","lat":43.33547,"lon":5.36139,"is_reserved":false,"is_disabled":true,"rental_uris":{"android":"levelo://app?vid=4fe58642-8ec3-4f25-a4fc-eb5dc3dc47a8","ios":"levelo://app?vid=4fe58642-8ec3-4f25-a4fc-eb5dc3dc47a8"},"vehicle_type_id":"4","last_reported":1737410919,"current_range_meters":24400,"station_id":"","pricing_plan_id":"cebpf4jnsgd1na2vs0mg"},