{"last_updated":1768389177,"ttl":60,"version":"2.2","data":{"bikes":[{"bike_id":"9af6439d-78fa-4b0d-a1a0-dc05ff49244a","system_id":"levelo_inurba_marseille","lat":43.23764,"lon":5.36608,"is_reserved":false,"is_disabled":false,"rental_uris":{"android":"levelo://app?vid=9af6439d-78fa-4b0d-a1a0-dc05ff49244a","ios":"levelo://app?vid=9af6439d-78fa-4b0d-a1a0-dc05ff49244a"},"vehicle_type_id":"4","last_reported":1768389178,"current_range_meters":2800,"station_id":"st_d3nk18o9ro0c73en2l3g","pricing_plan_id":"cebpf4jnsgd1na2vs0mg"},{"bike_id":"3baa03b2-5aa1-4ed2-bd5e-eff67c4bcc79","system_id":"levelo_inurba_marseille","lat":43.26057,"lon":5.39389,"is_reserved":false,"is_disabled":false,"rental_uris":{"android":"levelo://app?vid=3baa03b2-5aa1-4ed2-bd5e-eff67c4bcc79","ios":"levelo://app?vid=3baa03b2-5aa1-4ed2-bd5e-eff67c4bcc79"},"vehicle_type_id":"4","last_reported":1768389178,"current_range_meters":2800,"station_id":"ce4bhh92rcd13ifvqfj0","pricing_plan_id":"cebpf4jnsgd1na2vs0mg"},{"bike_id":"002c0e22-e718-435d-99de-a2198c1a8519","system_id":"levelo_inurba_marseille","lat":43.31167,"lon":5.38716,"is_reserved":false,"is_disabled":false,"rental_uris":{"android":"levelo://app?vid=002c0e22-e718-435d-99de-a2198c1a8519","ios":"levelo://app?vid=002c0e22-e718-435d-99de-a2198c1a8519"},"vehicle_type_id":"4","last_reported":1768389178,"current_range_meters":2800,"station_id":"ce4bgv12rcd13ifvqcp0","pricing_plan_id":"cebpf4jnsgd1na2vs0mg"},{"bike_id":"a7519a85-2725-4e3d-b396-cc9357235a1e","system_id":"levelo_inurba_marseille","lat":43.25007,"lon":5.38923,"is_reserved":false,"is_disabled":false,"rental_uris":{"android":"levelo://app?vid=a7519a85-2725-4e3d-b396-cc9357235a1e","ios":"levelo://app?vid=a7519a85-2725-4e3d-b396-cc9357235a1e"},"vehicle_type_id":"4","last_reported":1768389178,"current_range_meters":2800,"station_id":"ce4bhgp2rcd13ifvqfd0","pricing_plan_id":"cebpf4jnsgd1na2vs0mg"},{"bike_id":"6688a629-7822-4dde-a1b1-aa24df94d1e6","system_id":"levelo_inurba_marseille","lat":43.31385,"lon":5.36702,"is_reserved":false,"is_disabled":false,"rental_uris":{"android":"levelo://app?vid=6688a629-7822-4dde-a1b1-aa24df94d1e6","ios":"levelo://app?vid=6688a629-7822-4dde-a1b1-aa24df94d1e6"},"vehicle_type_id":"4","last_reported":1768389178,"current_range_meters":2800,"station_id":"ce4bgr92rcd13ifvqc6g","pricing_plan_id":"cebpf4jnsgd1na2vs0mg"},{"bike_id":"6f340d65-8a96-4245-a37f-c84a4e9a1d07","system_id":"levelo_inurba_marseille","lat":43.32363,"lon":5.36742,"is_reserved":false,"is_disabled":false,"rental_uris":{"android":"levelo://app?vid=6f340d65-8a96-4245-a37f-c84a4e9a1d07","ios":"levelo://app?vid=6f340d65-8a96-4245-a37f-c84a4e9a1d07"},"vehicle_type_id":"4","last_reported":1768389178,"current_range_meters":2800,"station_id":"ce4bhsh2rcd13ifvqi2g","pricing_plan_id":"cebpf4jnsgd1na2vs0mg"},{"bike_id":"43e01561-f315-4b5c-9679-61c62ad2fa14","system_id":"levelo_inurba_marseille","lat":43.30417,"lon":5.41296,"is_reserved":false,"is_disabled":false,"rental_uris":{"android":"levelo://app?vid=43e01561-f315-4b5c-9679-61c62ad2fa14","ios":"levelo://app?vid=43e01561-f315-4b5c-9679-61c62ad2fa14"},"vehicle_type_id":"4","last_reported":1768389178,"current_range_meters":2800,"station_id":"ce4bhop2rcd13ifvqh8g","pricing_plan_id":"cebpf4jnsgd1na2vs0mg"},{"bike_id":"f44e7fc0-57ad-4c5c-87c8-d57ce9d37a8a","system_id":"levelo_inurba_marseille","lat":43.26194,"lon":5.37452,"is_reserved":false,"is_disabled":false,"rental_uris":{"android":"levelo://app?vid=f44e7fc0-57ad-4c5c-87c8-d57ce9d37a8a","ios":"levelo://app?vid=f44e7fc0-57ad-4c5c-87c8-d57ce9d37a8a"},"vehicle_type_id":"4","last_reported":1768389178,"current_range_meters":2800,"station_id":"ce4bhgp2rcd13ifvqfc0","pricing_plan_id":"cebpf4jnsgd1na2vs0mg"},{"bike_id":"3db0fcf7-9abc-4be1-b3b7-ce569865437a","system_id":"levelo_inurba_marseille","lat":43.24951,"lon":5.40499,"is_reserved":false,"is_disabled":false,"rental_uris":{"android":"levelo://app?vid=3db0fcf7-9abc-4be1-b3b7-ce569865437a","ios":"levelo://app?vid=3db0fcf7-9abc-4be1-b3b7-ce569865437a"},"vehicle_type_id":"4","last_reported":1768389178,"current_range_meters":3200,"station_id":"st_d2ngiaodas8pm72gd1h0","pricing_plan_id":"cebpf4jnsgd1na2vs0mg"},{"bike_id":"0b0bd9e8-0e91-4cd7-8087-c13549508128","system_id":"levelo_inurba_marseille","lat":43.28533,"lon":5.44096,"is_reserved":false,"is_disabled":false,"rental_uris":{"android":"levelo://app?vid=0b0bd9e8-0e91-4cd7-8087-c13549508128","ios":"levelo://app?vid=0b0bd9e8-0e91-4cd7-8087-c13549508128"},"vehicle_type_id":"4","last_reported":1768389178,"current_range_meters":3200,"station_id":"st_d3j3df2ikq2c7380ej80","pricing_plan_id":"cebpf4jnsgd1na2vs0mg"},{"bike_id":"b945bd28-a3b4-4961-a0bf-743fe57cc1a5","system_id":"levelo_inurba_marseille","lat":43.29906,"lon":5.43673,"is_reserved":false,"is_disabled":false,"rental_uris":{"android":"levelo://app?vid=b945bd28-a3b4-4961-a0bf-743fe57cc1a5","ios":"levelo://app?vid=b945bd28-a3b4-4961-a0bf-743fe57cc1a5"},"vehicle_type_id":"4","last_reported":1768389178,"current_range_meters":3200,"station_id":"ce4bhpp2rcd13ifvqhfg","pricing_plan_id":"cebpf4jnsgd1na2vs0mg"},{"bike_id":"6d8dcd4b-4c7a-4d36-9b4f-04193007d73b","system_id":"levelo_inurba_marseille","lat":43.25579,"lon":5.38237,"is_reserved":false,"is_disabled":false,"rental_uris":{"android":"levelo://app?vid=6d8dcd4b-4c7a-4d36-9b4f-04193007d73b","ios":"levelo://app?vid=6d8dcd4b-4c7a-4d36-9b4f-04193007d73b"},"vehicle_type_id":"4","last_reported":1768389178,"current_range_meters":3200,"station_id":"ce4bhih2rcd13ifvqfs0","pricing_plan_id":"cebpf4jnsgd1na2vs0mg"},{"bike_id":"ec75e894-985d-4e7e-b4ba-cecc7b09defd","system_id":"levelo_inurba_marseille","lat":43.30484,"lon":5.379,"is_reserved":false,"is_disabled":false,"rental_uris":{"android":"levelo://app?vid=ec75e894-985d-4e7e-b4ba-cecc7b09defd","ios":"levelo://app?vid=ec75e894-985d-4e7e-b4ba-cecc7b09defd"},"vehicle_type_id":"4","last_reported":1768389178,"current_range_meters":3200,"station_id":"ce4bgup2rcd13ifvqcn0","pricing_plan_id":"cebpf4jnsgd1na2vs0mg"},{"bike_id":"4f96e7e9-3c4c-4d3a-a015-8e17396c5d85","system_id":"levelo_inurba_marseille","lat":43.27212,"lon":5.39202,"is_reserved":false,"is_disabled":false,"rental_uris":{"android":"levelo://app?vid=4f96e7e9-3c4c-4d3a-a015-8e17396c5d85","ios":"levelo://app?vid=4f96e7e9-3c4c-4d3a-a015-8e17396c5d85"},"vehicle_type_id":"4","last_reported":1768389178,"current_range_meters":3200,"station_id":"ce4bhhp2rcd13ifvqfm0","pricing_plan_id":"cebpf4jnsgd1na2vs0mg"},{"bike_id":"3655a9f7-901b-4885-8038-e7046951f14d","system_id":"levelo_inurba_marseille","lat":43.29765,"lon":5.42786,"is_reserved":false,"is_disabled":false,"rental_uris":{"android":"levelo://app?vid=3655a9f7-901b-4885-8038-e7046951f14d","ios":"levelo://app?vid=3655a9f7-901b-4885-8038-e7046951f14d"},"vehicle_type_id":"4","last_reported":1768389178,"current_range_meters":3200,"station_id":"st_d3md5207bmas73dh9klg","pricing_plan_id":"cebpf4jnsgd1na2vs0mg"},{"bike_id":"3a590ed4-aec3-4638-a634-4556fd1b33e0","system_id":"levelo_inurba_marseille","lat":43.27328,"lon":5.39109,"is_reserved":false,"is_disabled":false,"rental_uris":{"android":"levelo://app?vid=3a590ed4-aec3-4638-a634-4556fd1b33e0","ios":"levelo://app?vid=3a590ed4-aec3-4638-a634-4556fd1b33e0"},"vehicle_type_id":"4","last_reported":1768389178,"current_range_meters":3600,"station_id":"ce4bhgp2rcd13ifvqfe0","pricing_plan_id":"cebpf4jnsgd1na2vs0mg"},{"bike_id":"4210b5e1-14c0-4350-9f09-b328efe96417","system_id":"levelo_inurba_marseille","lat":43.3017,"lon":5.37114,"is_reserved":false,"is_disabled":false,"rental_uris":{"android":"levelo://app?vid=4210b5e1-14c0-4350-9f09-b328efe96417","ios":"levelo://app?vid=4210b5e1-14c0-4350-9f09-b328efe96417"},"vehicle_type_id":"4","last_reported":1768389178,"current_range_meters":3600,"station_id":"","pricing_plan_id":"cebpf4jnsgd1na2vs0mg"},{"bike_id":"754deb6d-b707-4695-aea3-a1b1544cd133","system_id":"levelo_inurba_marseille","lat":43.31586,"lon":5.36629,"is_reserved":false,"is_disabled":false,"rental_uris":{"android":"levelo://app?vid=754deb6d-b707-4695-aea3-a1b1544cd133","ios":"levelo://app?vid=754deb6d-b707-4695-aea3-a1b1544cd133"},"vehicle_type_id":"4","last_reported":1768389178,"current_range_meters":3600,"station_id":"","pricing_plan_id":"cebpf4jnsgd1na2vs0mg"},{"bike_id":"3de0a2ff-05e4-444a-a313-a7aa2da25619","system_id":"levelo_inurba_marseille","lat":43.295294,"lon":5.385488,"is_reserved":false,"is_disabled":true,"rental_uris":{"android":"levelo://app?vid=3de0a2ff-05e4-444a-a313-a7aa2da25619","ios":"levelo://app?vid=3de0a2ff-05e4-444a-a313-a7aa2da25619"},"vehicle_type_id":"4","last_reported":1768389178,"current_range_meters":3600,"station_id":"ce4bgih2rcd13ifvqba0","pricing_plan_id":"cebpf4jnsgd1na2vs0mg"},{"bike_id":"ea9769ab-39d8-4325-b701-f75eef547046","system_id":"levelo_inurba_marseille","lat":43.22528,"lon":5.34843,"is_reserved":false,"is_disabled":false,"rental_uris":{"android":"levelo://app?vid=ea9769ab-39d8-4325-b701-f75eef547046","ios":"levelo://app?vid=ea9769ab-39d8-4325-b701-f75eef547046"},"vehicle_type_id":"4","last_reported":1768389178,"current_range_meters":3600,"station_id":"st_cvj5dfep6f1abm77gieg","pricing_plan_id":"cebpf4jnsgd1na2vs0mg"},{"bike_id":"93ee6405-db38-4ca6-acc1-e8de6e8d2bdc","system_id":"levelo_inurba_marseille","lat":43.324798,"lon":5.365728,"is_reserved":false,"is_disabled":false,"rental_uris":{"android":"levelo://app?vid=93ee6405-db38-4ca6-acc1-e8de6e8d2bdc","ios":"levelo://app?vid=93ee6405-db38-4ca6-acc1-e8de6e8d2bdc"},"vehicle_type_id":"4","last_reported":1768389178,"current_range_meters":3600,"station_id":"ce4bhs12rcd13ifvqhvg","pricing_plan_id":"cebpf4jnsgd1na2vs0mg"},{"bike_id":"c8ae3415-c729-4343-878c-40d0371d5214","system_id":"levelo_inurba_marseille","lat":43.309501,"lon":5.390538,"is_reserved":false,"is_disabled":false,"rental_uris":{"android":"levelo://app?vid=c8ae3415-c729-4343-878c-40d0371d5214","ios":"levelo://app?vid=c8ae3415-c729-4343-878c-40d0371d5214"},"vehicle_type_id":"4","last_reported":1768389178,"current_range_meters":3600,"station_id":"ce4bgup2rcd13ifvqco0","pricing_plan_id":"cebpf4jnsgd1na2vs0mg"},{"bike_id":"b41f9551-ae47-4da7-a60d-f3352e00b4ad","system_id":"levelo_inurba_marseille","lat":43.28481,"lon":5.48389,"is_reserved":false,"is_disabled":false,"rental_uris":{"android":"levelo://app?vid=b41f9551-ae47-4da7-a60d-f3352e00b4ad","ios":"levelo://app?vid=b41f9551-ae47-4da7-a60d-f3352e00b4ad"},"vehicle_type_id":"4","last_reported":1768389178,"current_range_meters":3600,"station_id":"st_d3svhcjqgbts73a3dn0g","pricing_plan_id":"cebpf4jnsgd1na2vs0mg"},{"bike_id":"841440e5-4cf2-4432-a161-4904d9a6bd15","system_id":"levelo_inurba_marseille","lat":43.28541,"lon":5.44127,"is_reserved":false,"is_disabled":false,"rental_uris":{"android":"levelo://app?vid=841440e5-4cf2-4432-a161-4904d9a6bd15","ios":"levelo://app?vid=841440e5-4cf2-4432-a161-4904d9a6bd15"},"vehicle_type_id":"4","last_reported":1768389178,"current_range_meters":3600,"station_id":"st_d3j3df2ikq2c7380ej80","pricing_plan_id":"cebpf4jnsgd1na2vs0mg"},{"bike_id":"3502b945-707a-499e-b3af-6caf8e3903bc","system_id":"levelo_inurba_marseille","lat":43.28473,"lon":5.48394,"is_reserved":false,"is_disabled":false,"rental_uris":{"android":"levelo://app?vid=3502b945-707a-499e-b3af-6caf8e3903bc","ios":"levelo://app?vid=3502b945-707a-499e-b3af-6caf8e3903bc"},"vehicle_type_id":"4","last_reported":1768389178,"current_range_meters":3600,"station_id":"","pricing_plan_id":"cebpf4jnsgd1na2vs0mg"},{"bike_id":"aa9bfe41-4888-41bd-b859-aff3182b6684","system_id":"levelo_inurba_marseille","lat":43.29896,"lon":5.37485,"is_reserved":false,"is_disabled":false,"rental_uris":{"android":"levelo://app?vid=aa9bfe41-4888-41bd-b859-aff3182b6684","ios":"levelo://app?vid=aa9bfe41-4888-41bd-b859-aff3182b6684"},"vehicle_type_id":"4","last_reported":1768389178,"current_range_meters":3600,"station_id":"ce4bgjh2rcd13ifvqbg0","pricing_plan_id":"cebpf4jnsgd1na2vs0mg"},{"bike_id":"1104f587-3777-4d17-9b58-b6d053090d96","system_id":"levelo_inurba_marseille","lat":43.23183,"lon":5.35563,"is_reserved":false,"is_disabled":false,"rental_uris":{"android":"levelo://app?vid=1104f587-3777-4d17-9b58-b6d053090d96","ios":"levelo://app?vid=1104f587-3777-4d17-9b58-b6d053090d96"},"vehicle_type_id":"4","last_reported":1768389178,"current_range_meters":3600,"station_id":"ce4bhu92rcd13ifvqi70","pricing_plan_id":"cebpf4jnsgd1na2vs0mg"},{"bike_id":"d12a5c37-df8a-440d-b99b-49d121d9a484","system_id":"levelo_inurba_marseille","lat":43.229244,"lon":5.353808,"is_reserved":false,"is_disabled":false,"rental_uris":{"android":"levelo://app?vid=d12a5c37-df8a-440d-b99b-49d121d9a484","ios":"levelo://app?vid=d12a5c37-df8a-440d-b99b-49d121d9a484"},"vehicle_type_id":"4","last_reported":1768389178,"current_range_meters":3600,"station_id":"cpo3532slgdg3j2ikp40","pricing_plan_id":"cebpf4jnsgd1na2vs0mg"},{"bike_id":"bee2231a-aedd-4f8a-ae11-883f123d575e","system_id":"levelo_inurba_marseille","lat":43.31231,"lon":5.38179,"is_reserved":false,"is_disabled":false,"rental_uris":{"android":"levelo://app?vid=bee2231a-aedd-4f8a-ae11-883f123d575e","ios":"levelo://app?vid=bee2231a-aedd-4f8a-ae11-883f123d575e"},"vehicle_type_id":"4","last_reported":1768389178,"current_range_meters":3600,"station_id":"","pricing_plan_id":"cebpf4jnsgd1na2vs0mg"},{"bike_id":"1801c6f9-0c65-4e78-bbf2-c91fed55b8f3","system_id":"levelo_inurba_marseille","lat":43.26211,"lon":5.37447,"is_reserved":false,"is_disabled":false,"rental_uris":{"android":"levelo://app?vid=1801c6f9-0c65-4e78-bbf2-c91fed55b8f3","ios":"levelo://app?vid=1801c6f9-0c65-4e78-bbf2-c91fed55b8f3"},"vehicle_type_id":"4","last_reported":1768389178,"current_range_meters":4000,"station_id":"ce4bhgp2rcd13ifvqfc0","pricing_plan_id":"cebpf4jnsgd1na2vs0mg"},{"bike_id":"24d74ada-8458-4e55-89f1-c769491de4a9","system_id":"levelo_inurba_marseille","lat":43.289949,"lon":5.381549,"is_reserved":false,"is_disabled":false,"rental_uris":{"android":"levelo://app?vid=24d74ada-8458-4e55-89f1-c769491de4a9","ios":"levelo://app?vid=24d74ada-8458-4e55-89f1-c769491de4a9"},"vehicle_type_id":"4","last_reported":1768389178,"current_range_meters":4000,"station_id":"ce4bh4p2rcd13ifvqe1g","pricing_plan_id":"cebpf4jnsgd1na2vs0mg"},{"bike_id":"e7e05fd4-e640-492f-ab7c-0006c2b4672f","system_id":"levelo_inurba_marseille","lat":43.33171,"lon":5.37669,"is_reserved":false,"is_disabled":false,"rental_uris":{"android":"levelo://app?vid=e7e05fd4-e640-492f-ab7c-0006c2b4672f","ios":"levelo://app?vid=e7e05fd4-e640-492f-ab7c-0006c2b4672f"},"vehicle_type_id":"4","last_reported":1768389178,"current_range_meters":4000,"station_id":"st_d46cu089ee8s73dldbu0","pricing_plan_id":"cebpf4jnsgd1na2vs0mg"},{"bike_id":"8a7b85d3-c7d2-4196-b1ab-690364287dcf","system_id":"levelo_inurba_marseille","lat":43.31353,"lon":5.36722,"is_reserved":false,"is_disabled":false,"rental_uris":{"android":"levelo://app?vid=8a7b85d3-c7d2-4196-b1ab-690364287dcf","ios":"levelo://app?vid=8a7b85d3-c7d2-4196-b1ab-690364287dcf"},"vehicle_type_id":"4","last_reported":1768389178,"current_range_meters":4000,"station_id":"ce4bgr92rcd13ifvqc6g","pricing_plan_id":"cebpf4jnsgd1na2vs0mg"},{"bike_id":"7af13e9c-1761-41d0-87e5-35c03d8aedd1","system_id":"levelo_inurba_marseille","lat":43.310552,"lon":5.371659,"is_reserved":false,"is_disabled":false,"rental_uris":{"android":"levelo://app?vid=7af13e9c-1761-41d0-87e5-35c03d8aedd1","ios":"levelo://app?vid=7af13e9c-1761-41d0-87e5-35c03d8aedd1"},"vehicle_type_id":"4","last_reported":1768389178,"current_range_meters":4000,"station_id":"","pricing_plan_id":"cebpf4jnsgd1na2vs0mg"},{"bike_id":"19acb0d9-5641-4610-b2b2-7ba868c5f563","system_id":"levelo_inurba_marseille","lat":43.239546,"lon":5.366296,"is_reserved":false,"is_disabled":false,"rental_uris":{"android":"levelo://app?vid=19acb0d9-5641-4610-b2b2-7ba868c5f563","ios":"levelo://app?vid=19acb0d9-5641-4610-b2b2-7ba868c5f563"},"vehicle_type_id":"4","last_reported":1768389178,"current_range_meters":4000,"station_id":"ce4bhi12rcd13ifvqfp0","pricing_plan_id":"cebpf4jnsgd1na2vs0mg"},{"bike_id":"2a79143f-3d8b-4742-85af-e8ce69787652","system_id":"levelo_inurba_marseille","lat":43.32121,"lon":5.36777,"is_reserved":false,"is_disabled":false,"rental_uris":{"android":"levelo://app?vid=2a79143f-3d8b-4742-85af-e8ce69787652","ios":"levelo://app?vid=2a79143f-3d8b-4742-85af-e8ce69787652"},"vehicle_type_id":"4","last_reported":1768389178,"current_range_meters":4000,"station_id":"ce4bhrh2rcd13ifvqhug","pricing_plan_id":"cebpf4jnsgd1na2vs0mg"},{"bike_id":"1d115a65-13c1-4f91-aeb5-e8e1e9fe8ea5","system_id":"levelo_inurba_marseille","lat":43.28106,"lon":5.37845,"is_reserved":false,"is_disabled":false,"rental_uris":{"android":"levelo://app?vid=1d115a65-13c1-4f91-aeb5-e8e1e9fe8ea5","ios":"levelo://app?vid=1d115a65-13c1-4f91-aeb5-e8e1e9fe8ea5"},"vehicle_type_id":"4","last_reported":1768389178,"current_range_meters":4400,"station_id":"ce4bha12rcd13ifvqee0","pricing_plan_id":"cebpf4jnsgd1na2vs0mg"},{"bike_id":"d93aad5b-726f-4681-895f-a4263493fbd8","system_id":"levelo_inurba_marseille","lat":43.3015,"lon":5.38083,"is_reserved":false,"is_disabled":false,"rental_uris":{"android":"levelo://app?vid=d93aad5b-726f-4681-895f-a4263493fbd8","ios":"levelo://app?vid=d93aad5b-726f-4681-895f-a4263493fbd8"},"vehicle_type_id":"4","last_reported":1768389178,"current_range_meters":4400,"station_id":"ce4bgjp2rcd13ifvqbh0","pricing_plan_id":"cebpf4jnsgd1na2vs0mg"},{"bike_id":"08f195d6-672a-4d28-85c2-10ff934342ea","system_id":"levelo_inurba_marseille","lat":43.33607,"lon":5.4103,"is_reserved":false,"is_disabled":false,"rental_uris":{"android":"levelo://app?vid=08f195d6-672a-4d28-85c2-10ff934342ea","ios":"levelo://app?vid=08f195d6-672a-4d28-85c2-10ff934342ea"},"vehicle_type_id":"4","last_reported":1768389178,"current_range_meters":4400,"station_id":"ce4bhqh2rcd13ifvqhmg","pricing_plan_id":"cebpf4jnsgd1na2vs0mg"},{"bike_id":"8a689e49-1449-46e9-9d9f-6cee66305474","system_id":"levelo_inurba_marseille","lat":43.29232,"lon":5.40902,"is_reserved":false,"is_disabled":false,"rental_uris":{"android":"levelo://app?vid=8a689e49-1449-46e9-9d9f-6cee66305474","ios":"levelo://app?vid=8a689e49-1449-46e9-9d9f-6cee66305474"},"vehicle_type_id":"4","last_reported":1768389178,"current_range_meters":4400,"station_id":"ce4bh192rcd13ifvqdc0","pricing_plan_id":"cebpf4jnsgd1na2vs0mg"},{"bike_id":"ee6bb603-2e1d-4a52-ab5e-41c6bc6127f2","system_id":"levelo_inurba_marseille","lat":43.25506,"lon":5.37656,"is_reserved":false,"is_disabled":false,"rental_uris":{"android":"levelo://app?vid=ee6bb603-2e1d-4a52-ab5e-41c6bc6127f2","ios":"levelo://app?vid=ee6bb603-2e1d-4a52-ab5e-41c6bc6127f2"},"vehicle_type_id":"4","last_reported":1768389178,"current_range_meters":4400,"station_id":"ce4bhh12rcd13ifvqff0","pricing_plan_id":"cebpf4jnsgd1na2vs0mg"},{"bike_id":"13cd38e8-d512-4cfd-951f-24fea91e2d49","system_id":"levelo_inurba_marseille","lat":43.30196,"lon":5.3662,"is_reserved":false,"is_disabled":false,"rental_uris":{"android":"levelo://app?vid=13cd38e8-d512-4cfd-951f-24fea91e2d49","ios":"levelo://app?vid=13cd38e8-d512-4cfd-951f-24fea91e2d49"},"vehicle_type_id":"4","last_reported":1768389178,"current_range_meters":4400,"station_id":"ce4bgrh2rcd13ifvqc8g","pricing_plan_id":"cebpf4jnsgd1na2vs0mg"},{"bike_id":"162df2af-c479-4dd8-b4e8-25c451ec3ee6","system_id":"levelo_inurba_marseille","lat":43.302736,"lon":5.376971,"is_reserved":false,"is_disabled":true,"rental_uris":{"android":"levelo://app?vid=162df2af-c479-4dd8-b4e8-25c451ec3ee6","ios":"levelo://app?vid=162df2af-c479-4dd8-b4e8-25c451ec3ee6"},"vehicle_type_id":"4","last_reported":1768389178,"current_range_meters":4400,"station_id":"","pricing_plan_id":"cebpf4jnsgd1na2vs0mg"},{"bike_id":"23a3eada-dea7-4044-b22b-1e0f7c60e76c","system_id":"levelo_inurba_marseille","lat":43.29535,"lon":5.39213,"is_reserved":false,"is_disabled":true,"rental_uris":{"android":"levelo://app?vid=23a3eada-dea7-4044-b22b-1e0f7c60e76c","ios":"levelo://app?vid=23a3eada-dea7-4044-b22b-1e0f7c60e76c"},"vehicle_type_id":"4","last_reported":1768389178,"current_range_meters":4400,"station_id":"","pricing_plan_id":"cebpf4jnsgd1na2vs0mg"},{"bike_id":"486f5db0-76e1-427e-8da6-b795f5aacf8d","system_id":"levelo_inurba_marseille","lat":43.24392,"lon":5.37074,"is_reserved":false,"is_disabled":false,"rental_uris":{"android":"levelo://app?vid=486f5db0-76e1-427e-8da6-b795f5aacf8d","ios":"levelo://app?vid=486f5db0-76e1-427e-8da6-b795f5aacf8d"},"vehicle_type_id":"4","last_reported":1768389178,"current_range_meters":4400,"station_id":"ce4bhhh2rcd13ifvqfk0","pricing_plan_id":"cebpf4jnsgd1na2vs0mg"},{"bike_id":"39becb68-37d2-4fe5-af83-65d5813b987b","system_id":"levelo_inurba_marseille","lat":43.32525,"lon":5.36877,"is_reserved":false,"is_disabled":false,"rental_uris":{"android":"levelo://app?vid=39becb68-37d2-4fe5-af83-65d5813b987b","ios":"levelo://app?vid=39becb68-37d2-4fe5-af83-65d5813b987b"},"vehicle_type_id":"4","last_reported":1768389178,"current_range_meters":4400,"station_id":"","pricing_plan_id":"cebpf4jnsgd1na2vs0mg"},{"bike_id":"99eb6c51-7f0f-4137-8b85-23f4caea2333","system_id":"levelo_inurba_marseille","lat":43.29875,"lon":5.39671,"is_reserved":false,"is_disabled":false,"rental_uris":{"android":"levelo://app?vid=99eb6c51-7f0f-4137-8b85-23f4caea2333","ios":"levelo://app?vid=99eb6c51-7f0f-4137-8b85-23f4caea2333"},"vehicle_type_id":"4","last_reported":1768389178,"current_range_meters":4400,"station_id":"ce4bh0h2rcd13ifvqd50","pricing_plan_id":"cebpf4jnsgd1na2vs0mg"},{"bike_id":"a9696b97-4dbf-419f-93ae-7098259f541f","system_id":"levelo_inurba_marseille","lat":43.30896,"lon":5.36841,"is_reserved":false,"is_disabled":false,"rental_uris":{"android":"levelo://app?vid=a9696b97-4dbf-419f-93ae-7098259f541f","ios":"levelo://app?vid=a9696b97-4dbf-419f-93ae-7098259f541f"},"vehicle_type_id":"4","last_reported":1768389178,"current_range_meters":4400,"station_id":"ce4bgn92rcd13ifvqbvg","pricing_plan_id":"cebpf4jnsgd1na2vs0mg"},{"bike_id":"b70f3d61-cba9-49c5-9c00-1aa5298b7f6f","system_id":"levelo_inurba_marseille","lat":43.26494,"lon":5.39531,"is_reserved":false,"is_disabled":false,"rental_uris":{"android":"levelo://app?vid=b70f3d61-cba9-49c5-9c00-1aa5298b7f6f","ios":"levelo://app?vid=b70f3d61-cba9-49c5-9c00-1aa5298b7f6f"},"vehicle_type_id":"4","last_reported":1768389178,"current_range_meters":4400,"station_id":"ce4bhi12rcd13ifvqfq0","pricing_plan_id":"cebpf4jnsgd1na2vs0mg"},{"bike_id":"05d4c39b-0c04-44e1-a2e1-1abf5f4d7fd6","system_id":"levelo_inurba_marseille","lat":43.290833,"lon":5.380978,"is_reserved":false,"is_disabled":false,"rental_uris":{"android":"levelo://app?vid=05d4c39b-0c04-44e1-a2e1-1abf5f4d7fd6","ios":"levelo://app?vid=05d4c39b-0c04-44e1-a2e1-1abf5f4d7fd6"},"vehicle_type_id":"4","last_reported":1768389178,"current_range_meters":4400,"station_id":"ce4bh512rcd13ifvqe2g","pricing_plan_id":"cebpf4jnsgd1na2vs0mg"},{"bike_id":"641d6ea7-6c91-4875-a825-d0eb7c8a0731","system_id":"levelo_inurba_marseille","lat":43.29542,"lon":5.38545,"is_reserved":false,"is_disabled":false,"rental_uris":{"android":"levelo://app?vid=641d6ea7-6c91-4875-a825-d0eb7c8a0731","ios":"levelo://app?vid=641d6ea7-6c91-4875-a825-d0eb7c8a0731"},"vehicle_type_id":"4","last_reported":1768389178,"current_range_meters":4400,"station_id":"ce4bgih2rcd13ifvqba0","pricing_plan_id":"cebpf4jnsgd1na2vs0mg"},{"bike_id":"99f29460-4f10-4fbb-8a1d-e1ebf5603f00","system_id":"levelo_inurba_marseille","lat":43.248047,"lon":5.374592,"is_reserved":false,"is_disabled":false,"rental_uris":{"android":"levelo://app?vid=99f29460-4f10-4fbb-8a1d-e1ebf5603f00","ios":"levelo://app?vid=99f29460-4f10-4fbb-8a1d-e1ebf5603f00"},"vehicle_type_id":"4","last_reported":1768389178,"current_range_meters":4400,"station_id":"ce4bhgh2rcd13ifvqfb0","pricing_plan_id":"cebpf4jnsgd1na2vs0mg"},{"bike_id":"b523c110-d25e-4af1-b7ea-2ae80dfe757b","system_id":"levelo_inurba_marseille","lat":43.23793,"lon":5.36636,"is_reserved":false,"is_disabled":false,"rental_uris":{"android":"levelo://app?vid=b523c110-d25e-4af1-b7ea-2ae80dfe757b","ios":"levelo://app?vid=b523c110-d25e-4af1-b7ea-2ae80dfe757b"},"vehicle_type_id":"4","last_reported":1768389178,"current_range_meters":4800,"station_id":"st_d3nk18o9ro0c73en2l3g","pricing_plan_id":"cebpf4jnsgd1na2vs0mg"},{"bike_id":"c9da304b-df64-469f-a8fe-783a041f993b","system_id":"levelo_inurba_marseille","lat":43.30536,"lon":5.36534,"is_reserved":false,"is_disabled":false,"rental_uris":{"android":"levelo://app?vid=c9da304b-df64-469f-a8fe-783a041f993b","ios":"levelo://app?vid=c9da304b-df64-469f-a8fe-783a041f993b"},"vehicle_type_id":"4","last_reported":1768389178,"current_range_meters":4800,"station_id":"ce4bgs12rcd13ifvqcag","pricing_plan_id":"cebpf4jnsgd1na2vs0mg"},{"bike_id":"c7abc581-c1e2-4eb4-888d-9d1cf33dbdd8","system_id":"levelo_inurba_marseille","lat":43.25085,"lon":5.39508,"is_reserved":false,"is_disabled":false,"rental_uris":{"android":"levelo://app?vid=c7abc581-c1e2-4eb4-888d-9d1cf33dbdd8","ios":"levelo://app?vid=c7abc581-c1e2-4eb4-888d-9d1cf33dbdd8"},"vehicle_type_id":"4","last_reported":1768389178,"current_range_meters":4800,"station_id":"ce4bhm12rcd13ifvqgkg","pricing_plan_id":"cebpf4jnsgd1na2vs0mg"},{"bike_id":"bbb74105-3be2-48fe-95ba-d328ecd4aedb","system_id":"levelo_inurba_marseille","lat":43.246505,"lon":5.388937,"is_reserved":false,"is_disabled":false,"rental_uris":{"android":"levelo://app?vid=bbb74105-3be2-48fe-95ba-d328ecd4aedb","ios":"levelo://app?vid=bbb74105-3be2-48fe-95ba-d328ecd4aedb"},"vehicle_type_id":"4","last_reported":1768389178,"current_range_meters":4800,"station_id":"ce4bhg12rcd13ifvqf60","pricing_plan_id":"cebpf4jnsgd1na2vs0mg"},{"bike_id":"ce50a3ca-a541-440d-b0b0-5836315612b0","system_id":"levelo_inurba_marseille","lat":43.25491,"lon":5.37652,"is_reserved":false,"is_disabled":false,"rental_uris":{"android":"levelo://app?vid=ce50a3ca-a541-440d-b0b0-5836315612b0","ios":"levelo://app?vid=ce50a3ca-a541-440d-b0b0-5836315612b0"},"vehicle_type_id":"4","last_reported":1768389178,"current_range_meters":4800,"station_id":"ce4bhh12rcd13ifvqff0","pricing_plan_id":"cebpf4jnsgd1na2vs0mg"},{"bike_id":"644dfc11-0852-4e9f-9cb3-1fbca54c69b9","system_id":"levelo_inurba_marseille","lat":43.24173,"lon":5.39724,"is_reserved":false,"is_disabled":false,"rental_uris":{"android":"levelo://app?vid=644dfc11-0852-4e9f-9cb3-1fbca54c69b9","ios":"levelo://app?vid=644dfc11-0852-4e9f-9cb3-1fbca54c69b9"},"vehicle_type_id":"4","last_reported":1768389178,"current_range_meters":4800,"station_id":"ce4bhn12rcd13ifvqgpg","pricing_plan_id":"cebpf4jnsgd1na2vs0mg"},{"bike_id":"685ca00a-84c3-4cf8-b427-f42354127fab","system_id":"levelo_inurba_marseille","lat":43.30951,"lon":5.39048,"is_reserved":false,"is_disabled":false,"rental_uris":{"android":"levelo://app?vid=685ca00a-84c3-4cf8-b427-f42354127fab","ios":"levelo://app?vid=685ca00a-84c3-4cf8-b427-f42354127fab"},"vehicle_type_id":"4","last_reported":1768389178,"current_range_meters":4800,"station_id":"ce4bgup2rcd13ifvqco0","pricing_plan_id":"cebpf4jnsgd1na2vs0mg"},{"bike_id":"20dfd869-45e6-4006-9159-9978d938bbe1","system_id":"levelo_inurba_marseille","lat":43.3104,"lon":5.37159,"is_reserved":false,"is_disabled":false,"rental_uris":{"android":"levelo://app?vid=20dfd869-45e6-4006-9159-9978d938bbe1","ios":"levelo://app?vid=20dfd869-45e6-4006-9159-9978d938bbe1"},"vehicle_type_id":"4","last_reported":1768389178,"current_range_meters":4800,"station_id":"st_d4kl2rp97mjs73e7tdfg","pricing_plan_id":"cebpf4jnsgd1na2vs0mg"},{"bike_id":"7e09f6aa-6a01-490d-a5d4-56de9c0277ad","system_id":"levelo_inurba_marseille","lat":43.28535,"lon":5.44099,"is_reserved":false,"is_disabled":false,"rental_uris":{"android":"levelo://app?vid=7e09f6aa-6a01-490d-a5d4-56de9c0277ad","ios":"levelo://app?vid=7e09f6aa-6a01-490d-a5d4-56de9c0277ad"},"vehicle_type_id":"4","last_reported":1768389178,"current_range_meters":5600,"station_id":"st_d3j3df2ikq2c7380ej80","pricing_plan_id":"cebpf4jnsgd1na2vs0mg"},{"bike_id":"18e7aed4-7cab-4e5f-b147-5c98f8a1e192","system_id":"levelo_inurba_marseille","lat":43.32371,"lon":5.36772,"is_reserved":false,"is_disabled":false,"rental_uris":{"android":"levelo://app?vid=18e7aed4-7cab-4e5f-b147-5c98f8a1e192","ios":"levelo://app?vid=18e7aed4-7cab-4e5f-b147-5c98f8a1e192"},"vehicle_type_id":"4","last_reported":1768389178,"current_range_meters":5600,"station_id":"ce4bhsh2rcd13ifvqi2g","pricing_plan_id":"cebpf4jnsgd1na2vs0mg"},{"bike_id":"810b9a6b-fadd-4695-9aaa-a5e731e585a2","system_id":"levelo_inurba_marseille","lat":43.29771,"lon":5.38091,"is_reserved":false,"is_disabled":true,"rental_uris":{"android":"levelo://app?vid=810b9a6b-fadd-4695-9aaa-a5e731e585a2","ios":"levelo://app?vid=810b9a6b-fadd-4695-9aaa-a5e731e585a2"},"vehicle_type_id":"4","last_reported":1768389178,"current_range_meters":5600,"station_id":"ce4bgip2rcd13ifvqbb0","pricing_plan_id":"cebpf4jnsgd1na2vs0mg"},{"bike_id":"d8b52035-9107-4203-ba3b-8ab85229defc","system_id":"levelo_inurba_marseille","lat":43.25885,"lon":5.39923,"is_reserved":false,"is_disabled":false,"rental_uris":{"android":"levelo://app?vid=d8b52035-9107-4203-ba3b-8ab85229defc","ios":"levelo://app?vid=d8b52035-9107-4203-ba3b-8ab85229defc"},"vehicle_type_id":"4","last_reported":1768389178,"current_range_meters":5600,"station_id":"ce4bhl92rcd13ifvqghg","pricing_plan_id":"cebpf4jnsgd1na2vs0mg"},{"bike_id":"940c8108-faeb-4510-8d32-88a45143975a","system_id":"levelo_inurba_marseille","lat":43.28857,"lon":5.42518,"is_reserved":false,"is_disabled":false,"rental_uris":{"android":"levelo://app?vid=940c8108-faeb-4510-8d32-88a45143975a","ios":"levelo://app?vid=940c8108-faeb-4510-8d32-88a45143975a"},"vehicle_type_id":"4","last_reported":1768389178,"current_range_meters":5600,"station_id":"st_d3b462108ojc7389ooeg","pricing_plan_id":"cebpf4jnsgd1na2vs0mg"},{"bike_id":"e0a5ddf7-3934-4aa7-b48c-e3b1ec851634","system_id":"levelo_inurba_marseille","lat":43.29879,"lon":5.39737,"is_reserved":false,"is_disabled":false,"rental_uris":{"android":"levelo://app?vid=e0a5ddf7-3934-4aa7-b48c-e3b1ec851634","ios":"levelo://app?vid=e0a5ddf7-3934-4aa7-b48c-e3b1ec851634"},"vehicle_type_id":"4","last_reported":1768389178,"current_range_meters":5600,"station_id":"ce4bh0h2rcd13ifvqd50","pricing_plan_id":"cebpf4jnsgd1na2vs0mg"},{"bike_id":"4da4b9b5-8e34-4a21-a7eb-76e6a1792527","system_id":"levelo_inurba_marseille","lat":43.28243,"lon":5.43048,"is_reserved":false,"is_disabled":false,"rental_uris":{"android":"levelo://app?vid=4da4b9b5-8e34-4a21-a7eb-76e6a1792527","ios":"levelo://app?vid=4da4b9b5-8e34-4a21-a7eb-76e6a1792527"},"vehicle_type_id":"4","last_reported":1768389178,"current_range_meters":5600,"station_id":"","pricing_plan_id":"cebpf4jnsgd1na2vs0mg"},{"bike_id":"27f242f3-3ae7-4945-8a79-3968179ff814","system_id":"levelo_inurba_marseille","lat":43.324848,"lon":5.365777,"is_reserved":false,"is_disabled":false,"rental_uris":{"android":"levelo://app?vid=27f242f3-3ae7-4945-8a79-3968179ff814","ios":"levelo://app?vid=27f242f3-3ae7-4945-8a79-3968179ff814"},"vehicle_type_id":"4","last_reported":1768389178,"current_range_meters":5600,"station_id":"ce4bhs12rcd13ifvqhvg","pricing_plan_id":"cebpf4jnsgd1na2vs0mg"},{"bike_id":"1cc7ab25-688b-48d8-84f8-63da59107ff1","system_id":"levelo_inurba_marseille","lat":43.262512,"lon":5.374298,"is_reserved":false,"is_disabled":false,"rental_uris":{"android":"levelo://app?vid=1cc7ab25-688b-48d8-84f8-63da59107ff1","ios":"levelo://app?vid=1cc7ab25-688b-48d8-84f8-63da59107ff1"},"vehicle_type_id":"4","last_reported":1768389178,"current_range_meters":5600,"station_id":"ce4bhgp2rcd13ifvqfc0","pricing_plan_id":"cebpf4jnsgd1na2vs0mg"},{"bike_id":"a31c8f9e-9708-4ea2-9e5d-05e3441bc85f","system_id":"levelo_inurba_marseille","lat":43.28475,"lon":5.48386,"is_reserved":false,"is_disabled":false,"rental_uris":{"android":"levelo://app?vid=a31c8f9e-9708-4ea2-9e5d-05e3441bc85f","ios":"levelo://app?vid=a31c8f9e-9708-4ea2-9e5d-05e3441bc85f"},"vehicle_type_id":"4","last_reported":1768389178,"current_range_meters":5600,"station_id":"","pricing_plan_id":"cebpf4jnsgd1na2vs0mg"},{"bike_id":"f386e451-0ff7-4c2a-a6cd-27139c57272a","system_id":"levelo_inurba_marseille","lat":43.28533,"lon":5.44112,"is_reserved":false,"is_disabled":false,"rental_uris":{"android":"levelo://app?vid=f386e451-0ff7-4c2a-a6cd-27139c57272a","ios":"levelo://app?vid=f386e451-0ff7-4c2a-a6cd-27139c57272a"},"vehicle_type_id":"4","last_reported":1768389178,"current_range_meters":6000,"station_id":"st_d3j3df2ikq2c7380ej80","pricing_plan_id":"cebpf4jnsgd1na2vs0mg"},{"bike_id":"dccf6443-2690-4508-8f9a-a0435732725f","system_id":"levelo_inurba_marseille","lat":43.25491,"lon":5.37645,"is_reserved":false,"is_disabled":false,"rental_uris":{"android":"levelo://app?vid=dccf6443-2690-4508-8f9a-a0435732725f","ios":"levelo://app?vid=dccf6443-2690-4508-8f9a-a0435732725f"},"vehicle_type_id":"4","last_reported":1768389178,"current_range_meters":6000,"station_id":"ce4bhh12rcd13ifvqff0","pricing_plan_id":"cebpf4jnsgd1na2vs0mg"},{"bike_id":"b7f4c54f-f481-4643-9c7b-e12e55533981","system_id":"levelo_inurba_marseille","lat":43.28411,"lon":5.37548,"is_reserved":false,"is_disabled":false,"rental_uris":{"android":"levelo://app?vid=b7f4c54f-f481-4643-9c7b-e12e55533981","ios":"levelo://app?vid=b7f4c54f-f481-4643-9c7b-e12e55533981"},"vehicle_type_id":"4","last_reported":1768389178,"current_range_meters":6000,"station_id":"ce4bh412rcd13ifvqds0","pricing_plan_id":"cebpf4jnsgd1na2vs0mg"},{"bike_id":"cbdc031a-f7a8-4ff1-8b01-803b2dfeb125","system_id":"levelo_inurba_marseille","lat":43.26781,"lon":5.3942,"is_reserved":false,"is_disabled":false,"rental_uris":{"android":"levelo://app?vid=cbdc031a-f7a8-4ff1-8b01-803b2dfeb125","ios":"levelo://app?vid=cbdc031a-f7a8-4ff1-8b01-803b2dfeb125"},"vehicle_type_id":"4","last_reported":1768389178,"current_range_meters":6000,"station_id":"ce4bhh12rcd13ifvqfg0","pricing_plan_id":"cebpf4jnsgd1na2vs0mg"},{"bike_id":"ea5a0539-d10a-493d-b63d-e4e8abdbd9c8","system_id":"levelo_inurba_marseille","lat":43.291825,"lon":5.388302,"is_reserved":false,"is_disabled":false,"rental_uris":{"android":"levelo://app?vid=ea5a0539-d10a-493d-b63d-e4e8abdbd9c8","ios":"levelo://app?vid=ea5a0539-d10a-493d-b63d-e4e8abdbd9c8"},"vehicle_type_id":"4","last_reported":1768389178,"current_range_meters":6000,"station_id":"","pricing_plan_id":"cebpf4jnsgd1na2vs0mg"},{"bike_id":"96f9b611-3f33-4f31-bff7-3ba158a075c7","system_id":"levelo_inurba_marseille","lat":43.29861,"lon":5.38911,"is_reserved":false,"is_disabled":true,"rental_uris":{"android":"levelo://app?vid=96f9b611-3f33-4f31-bff7-3ba158a075c7","ios":"levelo://app?vid=96f9b611-3f33-4f31-bff7-3ba158a075c7"},"vehicle_type_id":"4","last_reported":1768389178,"current_range_meters":6000,"station_id":"ce4bh392rcd13ifvqdl0","pricing_plan_id":"cebpf4jnsgd1na2vs0mg"},{"bike_id":"edae41ff-efa7-45e8-b9af-a8202fc573da","system_id":"levelo_inurba_marseille","lat":43.249925,"lon":5.389349,"is_reserved":false,"is_disabled":false,"rental_uris":{"android":"levelo://app?vid=edae41ff-efa7-45e8-b9af-a8202fc573da","ios":"levelo://app?vid=edae41ff-efa7-45e8-b9af-a8202fc573da"},"vehicle_type_id":"4","last_reported":1768389178,"current_range_meters":6000,"station_id":"ce4bhgp2rcd13ifvqfd0","pricing_plan_id":"cebpf4jnsgd1na2vs0mg"},{"bike_id":"371e5509-524c-4125-8713-7c273ee478b2","system_id":"levelo_inurba_marseille","lat":43.2872,"lon":5.37932,"is_reserved":false,"is_disabled":false,"rental_uris":{"android":"levelo://app?vid=371e5509-524c-4125-8713-7c273ee478b2","ios":"levelo://app?vid=371e5509-524c-4125-8713-7c273ee478b2"},"vehicle_type_id":"4","last_reported":1768389178,"current_range_meters":6000,"station_id":"ce4bh9p2rcd13ifvqec0","pricing_plan_id":"cebpf4jnsgd1na2vs0mg"},{"bike_id":"940d2258-5999-4dd1-b6e0-006f48f29504","system_id":"levelo_inurba_marseille","lat":43.299251,"lon":5.365491,"is_reserved":false,"is_disabled":false,"rental_uris":{"android":"levelo://app?vid=940d2258-5999-4dd1-b6e0-006f48f29504","ios":"levelo://app?vid=940d2258-5999-4dd1-b6e0-006f48f29504"},"vehicle_type_id":"4","last_reported":1768389178,"current_range_meters":6000,"station_id":"ce4bgm92rcd13ifvqbr0","pricing_plan_id":"cebpf4jnsgd1na2vs0mg"},{"bike_id":"edcf3188-4a6b-46e2-aa32-dc6a17ca3c7d","system_id":"levelo_inurba_marseille","lat":43.2558,"lon":5.38238,"is_reserved":false,"is_disabled":false,"rental_uris":{"android":"levelo://app?vid=edcf3188-4a6b-46e2-aa32-dc6a17ca3c7d","ios":"levelo://app?vid=edcf3188-4a6b-46e2-aa32-dc6a17ca3c7d"},"vehicle_type_id":"4","last_reported":1768389178,"current_range_meters":6000,"station_id":"ce4bhih2rcd13ifvqfs0","pricing_plan_id":"cebpf4jnsgd1na2vs0mg"},{"bike_id":"3eb54054-7a23-486c-9375-33b176f65b40","system_id":"levelo_inurba_marseille","lat":43.2868,"lon":5.39997,"is_reserved":false,"is_disabled":false,"rental_uris":{"android":"levelo://app?vid=3eb54054-7a23-486c-9375-33b176f65b40","ios":"levelo://app?vid=3eb54054-7a23-486c-9375-33b176f65b40"},"vehicle_type_id":"4","last_reported":1768389178,"current_range_meters":6400,"station_id":"ce4bho92rcd13ifvqh3g","pricing_plan_id":"cebpf4jnsgd1na2vs0mg"},{"bike_id":"1621444e-17e7-4c3c-bee0-067ccd01ec41","system_id":"levelo_inurba_marseille","lat":43.28164,"lon":5.42684,"is_reserved":false,"is_disabled":false,"rental_uris":{"android":"levelo://app?vid=1621444e-17e7-4c3c-bee0-067ccd01ec41","ios":"levelo://app?vid=1621444e-17e7-4c3c-bee0-067ccd01ec41"},"vehicle_type_id":"4","last_reported":1768389178,"current_range_meters":6400,"station_id":"ce4bhnh2rcd13ifvqgug","pricing_plan_id":"cebpf4jnsgd1na2vs0mg"},{"bike_id":"09274d01-4a95-409b-8171-0131639b6dc1","system_id":"levelo_inurba_marseille","lat":43.289954,"lon":5.381656,"is_reserved":false,"is_disabled":false,"rental_uris":{"android":"levelo://app?vid=09274d01-4a95-409b-8171-0131639b6dc1","ios":"levelo://app?vid=09274d01-4a95-409b-8171-0131639b6dc1"},"vehicle_type_id":"4","last_reported":1768389178,"current_range_meters":6400,"station_id":"ce4bgjh2rcd13ifvqbg0","pricing_plan_id":"cebpf4jnsgd1na2vs0mg"},{"bike_id":"6bf9b665-e6b2-4284-811c-60ec4f0cb3b7","system_id":"levelo_inurba_marseille","lat":43.29605,"lon":5.38109,"is_reserved":false,"is_disabled":false,"rental_uris":{"android":"levelo://app?vid=6bf9b665-e6b2-4284-811c-60ec4f0cb3b7","ios":"levelo://app?vid=6bf9b665-e6b2-4284-811c-60ec4f0cb3b7"},"vehicle_type_id":"4","last_reported":1768389178,"current_range_meters":6400,"station_id":"ce4bgl12rcd13ifvqbo0","pricing_plan_id":"cebpf4jnsgd1na2vs0mg"},{"bike_id":"0b32360e-8748-4626-b6b9-c1bfb33896e7","system_id":"levelo_inurba_marseille","lat":43.24052,"lon":5.37739,"is_reserved":false,"is_disabled":false,"rental_uris":{"android":"levelo://app?vid=0b32360e-8748-4626-b6b9-c1bfb33896e7","ios":"levelo://app?vid=0b32360e-8748-4626-b6b9-c1bfb33896e7"},"vehicle_type_id":"4","last_reported":1768389178,"current_range_meters":6400,"station_id":"ce4bhnp2rcd13ifvqgvg","pricing_plan_id":"cebpf4jnsgd1na2vs0mg"},{"bike_id":"54a665b1-efb8-4a74-a5c5-3658aaf489a2","system_id":"levelo_inurba_marseille","lat":43.28485,"lon":5.484,"is_reserved":false,"is_disabled":false,"rental_uris":{"android":"levelo://app?vid=54a665b1-efb8-4a74-a5c5-3658aaf489a2","ios":"levelo://app?vid=54a665b1-efb8-4a74-a5c5-3658aaf489a2"},"vehicle_type_id":"4","last_reported":1768389178,"current_range_meters":6400,"station_id":"","pricing_plan_id":"cebpf4jnsgd1na2vs0mg"},{"bike_id":"7308a9cd-5481-4d85-93b9-ff0bb2a1e255","system_id":"levelo_inurba_marseille","lat":43.297382,"lon":5.368587,"is_reserved":false,"is_disabled":true,"rental_uris":{"android":"levelo://app?vid=7308a9cd-5481-4d85-93b9-ff0bb2a1e255","ios":"levelo://app?vid=7308a9cd-5481-4d85-93b9-ff0bb2a1e255"},"vehicle_type_id":"4","last_reported":1768389178,"current_range_meters":6400,"station_id":"st_cvj6r9ubvosntc0bgbag","pricing_plan_id":"cebpf4jnsgd1na2vs0mg"},{"bike_id":"315aa932-3065-405d-a1ba-cddb8a2198a9","system_id":"levelo_inurba_marseille","lat":43.27934,"lon":5.41128,"is_reserved":false,"is_disabled":false,"rental_uris":{"android":"levelo://app?vid=315aa932-3065-405d-a1ba-cddb8a2198a9","ios":"levelo://app?vid=315aa932-3065-405d-a1ba-cddb8a2198a9"},"vehicle_type_id":"4","last_reported":1768389178,"current_range_meters":6400,"station_id":"","pricing_plan_id":"cebpf4jnsgd1na2vs0mg"},{"bike_id":"a41afe78-53cf-4544-bc4e-f67c85d3e8c4","system_id":"levelo_inurba_marseille","lat":43.31373,"lon":5.36754,"is_reserved":false,"is_disabled":false,"rental_uris":{"android":"levelo://app?vid=a41afe78-53cf-4544-bc4e-f67c85d3e8c4","ios":"levelo://app?vid=a41afe78-53cf-4544-bc4e-f67c85d3e8c4"},"vehicle_type_id":"4","last_reported":1768389178,"current_range_meters":6400,"station_id":"","pricing_plan_id":"cebpf4jnsgd1na2vs0mg"},{"bike_id":"444df318-90f4-40d1-9256-1ebf4ac95caa","system_id":"levelo_inurba_marseille","lat":43.30249,"lon":5.37703,"is_reserved":false,"is_disabled":false,"rental_uris":{"android":"levelo://app?vid=444df318-90f4-40d1-9256-1ebf4ac95caa","ios":"levelo://app?vid=444df318-90f4-40d1-9256-1ebf4ac95caa"},"vehicle_type_id":"4","last_reported":1768389178,"current_range_meters":6400,"station_id":"ce4bguh2rcd13ifvqcj0","pricing_plan_id":"cebpf4jnsgd1na2vs0mg"},{"bike_id":"8df3de44-b977-4419-9d48-ab52e581c78c","system_id":"levelo_inurba_marseille","lat":43.30476,"lon":5.37909,"is_reserved":false,"is_disabled":false,"rental_uris":{"android":"levelo://app?vid=8df3de44-b977-4419-9d48-ab52e581c78c","ios":"levelo://app?vid=8df3de44-b977-4419-9d48-ab52e581c78c"},"vehicle_type_id":"4","last_reported":1768389178,"current_range_meters":6400,"station_id":"ce4bgup2rcd13ifvqcn0","pricing_plan_id":"cebpf4jnsgd1na2vs0mg"},{"bike_id":"27ea8170-0361-438d-b591-2ebcd05d2dfe","system_id":"levelo_inurba_marseille","lat":43.28424,"lon":5.34999,"is_reserved":false,"is_disabled":false,"rental_uris":{"android":"levelo://app?vid=27ea8170-0361-438d-b591-2ebcd05d2dfe","ios":"levelo://app?vid=27ea8170-0361-438d-b591-2ebcd05d2dfe"},"vehicle_type_id":"4","last_reported":1768389178,"current_range_meters":6800,"station_id":"ce4bhbh2rcd13ifvqepg","pricing_plan_id":"cebpf4jnsgd1na2vs0mg"},{"bike_id":"2ee0fab5-7040-4975-9414-0b1e23a72b5b","system_id":"levelo_inurba_marseille","lat":43.32365,"lon":5.36761,"is_reserved":false,"is_disabled":false,"rental_uris":{"android":"levelo://app?vid=2ee0fab5-7040-4975-9414-0b1e23a72b5b","ios":"levelo://app?vid=2ee0fab5-7040-4975-9414-0b1e23a72b5b"},"vehicle_type_id":"4","last_reported":1768389178,"current_range_meters":6800,"station_id":"ce4bhsh2rcd13ifvqi2g","pricing_plan_id":"cebpf4jnsgd1na2vs0mg"},{"bike_id":"7cccb604-f149-4e8e-9ee8-78300c58372e","system_id":"levelo_inurba_marseille","lat":43.2319,"lon":5.40058,"is_reserved":false,"is_disabled":false,"rental_uris":{"android":"levelo://app?vid=7cccb604-f149-4e8e-9ee8-78300c58372e","ios":"levelo://app?vid=7cccb604-f149-4e8e-9ee8-78300c58372e"},"vehicle_type_id":"4","last_reported":1768389178,"current_range_meters":6800,"station_id":"ce4bhn12rcd13ifvqgqg","pricing_plan_id":"cebpf4jnsgd1na2vs0mg"},{"bike_id":"323bdf5a-fc85-45ab-8b18-361a392bbea5","system_id":"levelo_inurba_marseille","lat":43.29939,"lon":5.37931,"is_reserved":false,"is_disabled":false,"rental_uris":{"android":"levelo://app?vid=323bdf5a-fc85-45ab-8b18-361a392bbea5","ios":"levelo://app?vid=323bdf5a-fc85-45ab-8b18-361a392bbea5"},"vehicle_type_id":"4","last_reported":1768389178,"current_range_meters":6800,"station_id":"","pricing_plan_id":"cebpf4jnsgd1na2vs0mg"},{"bike_id":"0496460c-cd9f-43fd-8720-c5e183ef0a0e","system_id":"levelo_inurba_marseille","lat":43.23808,"lon":5.36623,"is_reserved":false,"is_disabled":false,"rental_uris":{"android":"levelo://app?vid=0496460c-cd9f-43fd-8720-c5e183ef0a0e","ios":"levelo://app?vid=0496460c-cd9f-43fd-8720-c5e183ef0a0e"},"vehicle_type_id":"4","last_reported":1768389178,"current_range_meters":6800,"station_id":"st_d3nk18o9ro0c73en2l3g","pricing_plan_id":"cebpf4jnsgd1na2vs0mg"},{"bike_id":"f5a138dc-cad1-4436-ac3d-b0b90ebf4006","system_id":"levelo_inurba_marseille","lat":43.32473,"lon":5.36582,"is_reserved":false,"is_disabled":false,"rental_uris":{"android":"levelo://app?vid=f5a138dc-cad1-4436-ac3d-b0b90ebf4006","ios":"levelo://app?vid=f5a138dc-cad1-4436-ac3d-b0b90ebf4006"},"vehicle_type_id":"4","last_reported":1768389178,"current_range_meters":6800,"station_id":"ce4bhs12rcd13ifvqhvg","pricing_plan_id":"cebpf4jnsgd1na2vs0mg"},{"bike_id":"886207cb-2d68-4c0c-a6af-349e1c6d9f05","system_id":"levelo_inurba_marseille","lat":43.279844,"lon":5.416606,"is_reserved":false,"is_disabled":true,"rental_uris":{"android":"levelo://app?vid=886207cb-2d68-4c0c-a6af-349e1c6d9f05","ios":"levelo://app?vid=886207cb-2d68-4c0c-a6af-349e1c6d9f05"},"vehicle_type_id":"4","last_reported":1768389178,"current_range_meters":6800,"station_id":"ce4bho12rcd13ifvqh1g","pricing_plan_id":"cebpf4jnsgd1na2vs0mg"},{"bike_id":"b0591438-4f8b-458b-95d3-396e832bb098","system_id":"levelo_inurba_marseille","lat":43.22546,"lon":5.41638,"is_reserved":false,"is_disabled":false,"rental_uris":{"android":"levelo://app?vid=b0591438-4f8b-458b-95d3-396e832bb098","ios":"levelo://app?vid=b0591438-4f8b-458b-95d3-396e832bb098"},"vehicle_type_id":"4","last_reported":1768389178,"current_range_meters":6800,"station_id":"st_d2o4gvlbi1j2169b742g","pricing_plan_id":"cebpf4jnsgd1na2vs0mg"},{"bike_id":"3628cfe9-19f5-43ff-9270-69e7b74c63cf","system_id":"levelo_inurba_marseille","lat":43.29347,"lon":5.40441,"is_reserved":false,"is_disabled":false,"rental_uris":{"android":"levelo://app?vid=3628cfe9-19f5-43ff-9270-69e7b74c63cf","ios":"levelo://app?vid=3628cfe9-19f5-43ff-9270-69e7b74c63cf"},"vehicle_type_id":"4","last_reported":1768389178,"current_range_meters":6800,"station_id":"","pricing_plan_id":"cebpf4jnsgd1na2vs0mg"},{"bike_id":"d10c3e03-17c1-4a18-84d3-e167ce7531e2","system_id":"levelo_inurba_marseille","lat":43.32333,"lon":5.36746,"is_reserved":false,"is_disabled":false,"rental_uris":{"android":"levelo://app?vid=d10c3e03-17c1-4a18-84d3-e167ce7531e2","ios":"levelo://app?vid=d10c3e03-17c1-4a18-84d3-e167ce7531e2"},"vehicle_type_id":"4","last_reported":1768389178,"current_range_meters":6800,"station_id":"ce4bhsh2rcd13ifvqi2g","pricing_plan_id":"cebpf4jnsgd1na2vs0mg"},{"bike_id":"1ce5e2b5-3008-4422-93cb-3b93a60fb22f","system_id":"levelo_inurba_marseille","lat":43.27949,"lon":5.38732,"is_reserved":false,"is_disabled":false,"rental_uris":{"android":"levelo://app?vid=1ce5e2b5-3008-4422-93cb-3b93a60fb22f","ios":"levelo://app?vid=1ce5e2b5-3008-4422-93cb-3b93a60fb22f"},"vehicle_type_id":"4","last_reported":1768389178,"current_range_meters":6800,"station_id":"ce4bhg12rcd13ifvqf80","pricing_plan_id":"cebpf4jnsgd1na2vs0mg"},{"bike_id":"fbe88db2-416a-478a-ac7c-29c397f79fa0","system_id":"levelo_inurba_marseille","lat":43.24617,"lon":5.38915,"is_reserved":false,"is_disabled":false,"rental_uris":{"android":"levelo://app?vid=fbe88db2-416a-478a-ac7c-29c397f79fa0","ios":"levelo://app?vid=fbe88db2-416a-478a-ac7c-29c397f79fa0"},"vehicle_type_id":"4","last_reported":1768389178,"current_range_meters":6800,"station_id":"ce4bhg12rcd13ifvqf60","pricing_plan_id":"cebpf4jnsgd1na2vs0mg"},{"bike_id":"759a3458-28d0-46d6-8d86-0388870eac28","system_id":"levelo_inurba_marseille","lat":43.29482,"lon":5.383037,"is_reserved":false,"is_disabled":false,"rental_uris":{"android":"levelo://app?vid=759a3458-28d0-46d6-8d86-0388870eac28","ios":"levelo://app?vid=759a3458-28d0-46d6-8d86-0388870eac28"},"vehicle_type_id":"4","last_reported":1768389178,"current_range_meters":6800,"station_id":"ce4bgk12rcd13ifvqbi0","pricing_plan_id":"cebpf4jnsgd1na2vs0mg"},{"bike_id":"6a4a1ebd-8c7d-4994-93f6-96c7adcc3fb5","system_id":"levelo_inurba_marseille","lat":43.25932,"lon":5.40895,"is_reserved":false,"is_disabled":false,"rental_uris":{"android":"levelo://app?vid=6a4a1ebd-8c7d-4994-93f6-96c7adcc3fb5","ios":"levelo://app?vid=6a4a1ebd-8c7d-4994-93f6-96c7adcc3fb5"},"vehicle_type_id":"4","last_reported":1768389178,"current_range_meters":7200,"station_id":"ce4bhm92rcd13ifvqglg","pricing_plan_id":"cebpf4jnsgd1na2vs0mg"},{"bike_id":"80e1cacf-c38d-4e99-beb6-97caf9f5d5a5","system_id":"levelo_inurba_marseille","lat":43.282,"lon":5.39048,"is_reserved":false,"is_disabled":false,"rental_uris":{"android":"levelo://app?vid=80e1cacf-c38d-4e99-beb6-97caf9f5d5a5","ios":"levelo://app?vid=80e1cacf-c38d-4e99-beb6-97caf9f5d5a5"},"vehicle_type_id":"4","last_reported":1768389178,"current_range_meters":7200,"station_id":"","pricing_plan_id":"cebpf4jnsgd1na2vs0mg"},{"bike_id":"168666e0-3d53-4b8d-9cb3-997d2a5a4f6e","system_id":"levelo_inurba_marseille","lat":43.26186,"lon":5.38828,"is_reserved":false,"is_disabled":false,"rental_uris":{"android":"levelo://app?vid=168666e0-3d53-4b8d-9cb3-997d2a5a4f6e","ios":"levelo://app?vid=168666e0-3d53-4b8d-9cb3-997d2a5a4f6e"},"vehicle_type_id":"4","last_reported":1768389178,"current_range_meters":7200,"station_id":"","pricing_plan_id":"cebpf4jnsgd1na2vs0mg"},{"bike_id":"05f63fa9-494d-453c-8fbd-b43a99415aa7","system_id":"levelo_inurba_marseille","lat":43.26693,"lon":5.38272,"is_reserved":false,"is_disabled":false,"rental_uris":{"android":"levelo://app?vid=05f63fa9-494d-453c-8fbd-b43a99415aa7","ios":"levelo://app?vid=05f63fa9-494d-453c-8fbd-b43a99415aa7"},"vehicle_type_id":"4","last_reported":1768389178,"current_range_meters":7200,"station_id":"ce4bhg92rcd13ifvqf90","pricing_plan_id":"cebpf4jnsgd1na2vs0mg"},{"bike_id":"47e8d937-7ec7-4d88-84dd-f958423c70de","system_id":"levelo_inurba_marseille","lat":43.263705,"lon":5.410836,"is_reserved":false,"is_disabled":false,"rental_uris":{"android":"levelo://app?vid=47e8d937-7ec7-4d88-84dd-f958423c70de","ios":"levelo://app?vid=47e8d937-7ec7-4d88-84dd-f958423c70de"},"vehicle_type_id":"4","last_reported":1768389178,"current_range_meters":7200,"station_id":"","pricing_plan_id":"cebpf4jnsgd1na2vs0mg"},{"bike_id":"b7d49573-3e66-48d0-a113-0b261fcd2347","system_id":"levelo_inurba_marseille","lat":43.3012,"lon":5.37437,"is_reserved":false,"is_disabled":false,"rental_uris":{"android":"levelo://app?vid=b7d49573-3e66-48d0-a113-0b261fcd2347","ios":"levelo://app?vid=b7d49573-3e66-48d0-a113-0b261fcd2347"},"vehicle_type_id":"4","last_reported":1768389178,"current_range_meters":7200,"station_id":"ce4bgs92rcd13ifvqcc0","pricing_plan_id":"cebpf4jnsgd1na2vs0mg"},{"bike_id":"d8e03ef6-0c5e-49db-943c-98c26bf654da","system_id":"levelo_inurba_marseille","lat":43.29973,"lon":5.37428,"is_reserved":false,"is_disabled":false,"rental_uris":{"android":"levelo://app?vid=d8e03ef6-0c5e-49db-943c-98c26bf654da","ios":"levelo://app?vid=d8e03ef6-0c5e-49db-943c-98c26bf654da"},"vehicle_type_id":"4","last_reported":1768389178,"current_range_meters":7200,"station_id":"","pricing_plan_id":"cebpf4jnsgd1na2vs0mg"},{"bike_id":"f401dd76-04e8-4124-8fda-5925231c5a9b","system_id":"levelo_inurba_marseille","lat":43.27266,"lon":5.39157,"is_reserved":false,"is_disabled":false,"rental_uris":{"android":"levelo://app?vid=f401dd76-04e8-4124-8fda-5925231c5a9b","ios":"levelo://app?vid=f401dd76-04e8-4124-8fda-5925231c5a9b"},"vehicle_type_id":"4","last_reported":1768389178,"current_range_meters":7200,"station_id":"ce4bhhp2rcd13ifvqfm0","pricing_plan_id":"cebpf4jnsgd1na2vs0mg"},{"bike_id":"b18474e9-ad34-4b8a-8d2c-347f7a79d1bb","system_id":"levelo_inurba_marseille","lat":43.25002,"lon":5.38941,"is_reserved":false,"is_disabled":false,"rental_uris":{"android":"levelo://app?vid=b18474e9-ad34-4b8a-8d2c-347f7a79d1bb","ios":"levelo://app?vid=b18474e9-ad34-4b8a-8d2c-347f7a79d1bb"},"vehicle_type_id":"4","last_reported":1768389178,"current_range_meters":7200,"station_id":"ce4bhgp2rcd13ifvqfd0","pricing_plan_id":"cebpf4jnsgd1na2vs0mg"},{"bike_id":"a0f9b52c-bbb7-4f7a-b55f-b65905b6c8ef","system_id":"levelo_inurba_marseille","lat":43.24959,"lon":5.40545,"is_reserved":false,"is_disabled":false,"rental_uris":{"android":"levelo://app?vid=a0f9b52c-bbb7-4f7a-b55f-b65905b6c8ef","ios":"levelo://app?vid=a0f9b52c-bbb7-4f7a-b55f-b65905b6c8ef"},"vehicle_type_id":"4","last_reported":1768389178,"current_range_meters":7200,"station_id":"st_d2ngiaodas8pm72gd1h0","pricing_plan_id":"cebpf4jnsgd1na2vs0mg"},{"bike_id":"0261c6fd-283d-4283-af45-cb4a9ce5e8c4","system_id":"levelo_inurba_marseille","lat":43.23523,"lon":5.35945,"is_reserved":false,"is_disabled":false,"rental_uris":{"android":"levelo://app?vid=0261c6fd-283d-4283-af45-cb4a9ce5e8c4","ios":"levelo://app?vid=0261c6fd-283d-4283-af45-cb4a9ce5e8c4"},"vehicle_type_id":"4","last_reported":1768389178,"current_range_meters":7200,"station_id":"","pricing_plan_id":"cebpf4jnsgd1na2vs0mg"},{"bike_id":"a2c3fda5-fb1e-4329-88c2-2e7960229574","system_id":"levelo_inurba_marseille","lat":43.31203,"lon":5.40305,"is_reserved":false,"is_disabled":false,"rental_uris":{"android":"levelo://app?vid=a2c3fda5-fb1e-4329-88c2-2e7960229574","ios":"levelo://app?vid=a2c3fda5-fb1e-4329-88c2-2e7960229574"},"vehicle_type_id":"4","last_reported":1768389178,"current_range_meters":7200,"station_id":"","pricing_plan_id":"cebpf4jnsgd1na2vs0mg"},{"bike_id":"c584537b-62c7-4948-a162-60dcd0d33c4c","system_id":"levelo_inurba_marseille","lat":43.32347,"lon":5.36734,"is_reserved":false,"is_disabled":false,"rental_uris":{"android":"levelo://app?vid=c584537b-62c7-4948-a162-60dcd0d33c4c","ios":"levelo://app?vid=c584537b-62c7-4948-a162-60dcd0d33c4c"},"vehicle_type_id":"4","last_reported":1768389178,"current_range_meters":7200,"station_id":"ce4bhsh2rcd13ifvqi2g","pricing_plan_id":"cebpf4jnsgd1na2vs0mg"},{"bike_id":"f680f50c-74ae-434a-9907-5a62e8f7d3ec","system_id":"levelo_inurba_marseille","lat":43.30548,"lon":5.36707,"is_reserved":false,"is_disabled":false,"rental_uris":{"android":"levelo://app?vid=f680f50c-74ae-434a-9907-5a62e8f7d3ec","ios":"levelo://app?vid=f680f50c-74ae-434a-9907-5a62e8f7d3ec"},"vehicle_type_id":"4","last_reported":1768389178,"current_range_meters":7200,"station_id":"ce4bgrp2rcd13ifvqc9g","pricing_plan_id":"cebpf4jnsgd1na2vs0mg"},{"bike_id":"1570c673-c874-467d-9935-cb3965903422","system_id":"levelo_inurba_marseille","lat":43.27062,"lon":5.40261,"is_reserved":false,"is_disabled":false,"rental_uris":{"android":"levelo://app?vid=1570c673-c874-467d-9935-cb3965903422","ios":"levelo://app?vid=1570c673-c874-467d-9935-cb3965903422"},"vehicle_type_id":"4","last_reported":1768389178,"current_range_meters":7200,"station_id":"ce4bhk92rcd13ifvqgc0","pricing_plan_id":"cebpf4jnsgd1na2vs0mg"},{"bike_id":"2469529a-4c4f-45b7-b2ce-c4433e05b931","system_id":"levelo_inurba_marseille","lat":43.28476,"lon":5.48391,"is_reserved":false,"is_disabled":false,"rental_uris":{"android":"levelo://app?vid=2469529a-4c4f-45b7-b2ce-c4433e05b931","ios":"levelo://app?vid=2469529a-4c4f-45b7-b2ce-c4433e05b931"},"vehicle_type_id":"4","last_reported":1768389178,"current_range_meters":7200,"station_id":"st_d3svhcjqgbts73a3dn0g","pricing_plan_id":"cebpf4jnsgd1na2vs0mg"},{"bike_id":"f779cea2-2439-4f21-8a92-51321276319a","system_id":"levelo_inurba_marseille","lat":43.2678,"lon":5.40257,"is_reserved":false,"is_disabled":false,"rental_uris":{"android":"levelo://app?vid=f779cea2-2439-4f21-8a92-51321276319a","ios":"levelo://app?vid=f779cea2-2439-4f21-8a92-51321276319a"},"vehicle_type_id":"4","last_reported":1768389178,"current_range_meters":7200,"station_id":"ce501612rcd8frsf0b60","pricing_plan_id":"cebpf4jnsgd1na2vs0mg"},{"bike_id":"ecceacbb-2af9-4744-b57c-8a431c57e27b","system_id":"levelo_inurba_marseille","lat":43.289319,"lon":5.384007,"is_reserved":false,"is_disabled":false,"rental_uris":{"android":"levelo://app?vid=ecceacbb-2af9-4744-b57c-8a431c57e27b","ios":"levelo://app?vid=ecceacbb-2af9-4744-b57c-8a431c57e27b"},"vehicle_type_id":"4","last_reported":1768389178,"current_range_meters":7200,"station_id":"ce4bh612rcd13ifvqe6g","pricing_plan_id":"cebpf4jnsgd1na2vs0mg"},{"bike_id":"0852f0d1-f3ce-4f08-bd1e-798d203a66bb","system_id":"levelo_inurba_marseille","lat":43.281583,"lon":5.42645,"is_reserved":false,"is_disabled":false,"rental_uris":{"android":"levelo://app?vid=0852f0d1-f3ce-4f08-bd1e-798d203a66bb","ios":"levelo://app?vid=0852f0d1-f3ce-4f08-bd1e-798d203a66bb"},"vehicle_type_id":"4","last_reported":1768389178,"current_range_meters":7200,"station_id":"ce4bhnh2rcd13ifvqgug","pricing_plan_id":"cebpf4jnsgd1na2vs0mg"},{"bike_id":"3b02a338-8512-4a11-aeff-c1ab54b2d644","system_id":"levelo_inurba_marseille","lat":43.30951,"lon":5.39045,"is_reserved":false,"is_disabled":false,"rental_uris":{"android":"levelo://app?vid=3b02a338-8512-4a11-aeff-c1ab54b2d644","ios":"levelo://app?vid=3b02a338-8512-4a11-aeff-c1ab54b2d644"},"vehicle_type_id":"4","last_reported":1768389178,"current_range_meters":7200,"station_id":"ce4bgup2rcd13ifvqco0","pricing_plan_id":"cebpf4jnsgd1na2vs0mg"},{"bike_id":"a58f59e5-c695-4724-9409-f8408af03486","system_id":"levelo_inurba_marseille","lat":43.27082,"lon":5.42275,"is_reserved":false,"is_disabled":true,"rental_uris":{"android":"levelo://app?vid=a58f59e5-c695-4724-9409-f8408af03486","ios":"levelo://app?vid=a58f59e5-c695-4724-9409-f8408af03486"},"vehicle_type_id":"4","last_reported":1768389178,"current_range_meters":7200,"station_id":"ce4bhk92rcd13ifvqgb0","pricing_plan_id":"cebpf4jnsgd1na2vs0mg"},{"bike_id":"c5ca41df-a10b-4946-8859-f377e5e5fca6","system_id":"levelo_inurba_marseille","lat":43.32526,"lon":5.41481,"is_reserved":false,"is_disabled":false,"rental_uris":{"android":"levelo://app?vid=c5ca41df-a10b-4946-8859-f377e5e5fca6","ios":"levelo://app?vid=c5ca41df-a10b-4946-8859-f377e5e5fca6"},"vehicle_type_id":"4","last_reported":1768389178,"current_range_meters":7200,"station_id":"ce4bhq12rcd13ifvqhhg","pricing_plan_id":"cebpf4jnsgd1na2vs0mg"},{"bike_id":"fd23208f-6a30-4228-8568-fd42e4225b28","system_id":"levelo_inurba_marseille","lat":43.295287,"lon":5.394014,"is_reserved":false,"is_disabled":false,"rental_uris":{"android":"levelo://app?vid=fd23208f-6a30-4228-8568-fd42e4225b28","ios":"levelo://app?vid=fd23208f-6a30-4228-8568-fd42e4225b28"},"vehicle_type_id":"4","last_reported":1768389178,"current_range_meters":8000,"station_id":"ce4bh292rcd13ifvqdf0","pricing_plan_id":"cebpf4jnsgd1na2vs0mg"},{"bike_id":"eff1c099-2175-4cfc-822d-368ef04ab989","system_id":"levelo_inurba_marseille","lat":43.27074,"lon":5.42289,"is_reserved":false,"is_disabled":false,"rental_uris":{"android":"levelo://app?vid=eff1c099-2175-4cfc-822d-368ef04ab989","ios":"levelo://app?vid=eff1c099-2175-4cfc-822d-368ef04ab989"},"vehicle_type_id":"4","last_reported":1768389178,"current_range_meters":8000,"station_id":"ce4bhk92rcd13ifvqgb0","pricing_plan_id":"cebpf4jnsgd1na2vs0mg"},{"bike_id":"da08bf7c-0f44-467a-8676-45eba072e516","system_id":"levelo_inurba_marseille","lat":43.29997,"lon":5.38519,"is_reserved":false,"is_disabled":false,"rental_uris":{"android":"levelo://app?vid=da08bf7c-0f44-467a-8676-45eba072e516","ios":"levelo://app?vid=da08bf7c-0f44-467a-8676-45eba072e516"},"vehicle_type_id":"4","last_reported":1768389178,"current_range_meters":8000,"station_id":"ce4bgj92rcd13ifvqbd0","pricing_plan_id":"cebpf4jnsgd1na2vs0mg"},{"bike_id":"52b1696a-4946-4218-bad2-363e78c37719","system_id":"levelo_inurba_marseille","lat":43.3014,"lon":5.3809,"is_reserved":false,"is_disabled":false,"rental_uris":{"android":"levelo://app?vid=52b1696a-4946-4218-bad2-363e78c37719","ios":"levelo://app?vid=52b1696a-4946-4218-bad2-363e78c37719"},"vehicle_type_id":"4","last_reported":1768389178,"current_range_meters":8000,"station_id":"ce4bgjp2rcd13ifvqbh0","pricing_plan_id":"cebpf4jnsgd1na2vs0mg"},{"bike_id":"e6a4415e-66da-4886-926f-dde89eafb0da","system_id":"levelo_inurba_marseille","lat":43.265395,"lon":5.372878,"is_reserved":false,"is_disabled":false,"rental_uris":{"android":"levelo://app?vid=e6a4415e-66da-4886-926f-dde89eafb0da","ios":"levelo://app?vid=e6a4415e-66da-4886-926f-dde89eafb0da"},"vehicle_type_id":"4","last_reported":1768389178,"current_range_meters":8000,"station_id":"ce4bhg12rcd13ifvqf70","pricing_plan_id":"cebpf4jnsgd1na2vs0mg"},{"bike_id":"e0ee75ca-d010-4ce6-94b9-286d10280aac","system_id":"levelo_inurba_marseille","lat":43.28143,"lon":5.42644,"is_reserved":false,"is_disabled":false,"rental_uris":{"android":"levelo://app?vid=e0ee75ca-d010-4ce6-94b9-286d10280aac","ios":"levelo://app?vid=e0ee75ca-d010-4ce6-94b9-286d10280aac"},"vehicle_type_id":"4","last_reported":1768389178,"current_range_meters":8000,"station_id":"ce4bhnh2rcd13ifvqgug","pricing_plan_id":"cebpf4jnsgd1na2vs0mg"},{"bike_id":"1c368511-4dc5-413e-9320-5c9141f9acf7","system_id":"levelo_inurba_marseille","lat":43.26408,"lon":5.39891,"is_reserved":false,"is_disabled":false,"rental_uris":{"android":"levelo://app?vid=1c368511-4dc5-413e-9320-5c9141f9acf7","ios":"levelo://app?vid=1c368511-4dc5-413e-9320-5c9141f9acf7"},"vehicle_type_id":"4","last_reported":1768389178,"current_range_meters":8000,"station_id":"","pricing_plan_id":"cebpf4jnsgd1na2vs0mg"},{"bike_id":"5410fd45-b8b4-470d-9bd7-ad1acafbc363","system_id":"levelo_inurba_marseille","lat":43.28477,"lon":5.48392,"is_reserved":false,"is_disabled":false,"rental_uris":{"android":"levelo://app?vid=5410fd45-b8b4-470d-9bd7-ad1acafbc363","ios":"levelo://app?vid=5410fd45-b8b4-470d-9bd7-ad1acafbc363"},"vehicle_type_id":"4","last_reported":1768389178,"current_range_meters":8000,"station_id":"","pricing_plan_id":"cebpf4jnsgd1na2vs0mg"},{"bike_id":"7dd08ae0-15c1-430e-b90c-31bae0657aec","system_id":"levelo_inurba_marseille","lat":43.28396,"lon":5.35003,"is_reserved":false,"is_disabled":false,"rental_uris":{"android":"levelo://app?vid=7dd08ae0-15c1-430e-b90c-31bae0657aec","ios":"levelo://app?vid=7dd08ae0-15c1-430e-b90c-31bae0657aec"},"vehicle_type_id":"4","last_reported":1768389178,"current_range_meters":8000,"station_id":"ce4bhbh2rcd13ifvqepg","pricing_plan_id":"cebpf4jnsgd1na2vs0mg"},{"bike_id":"f7abde8f-7468-4866-b223-898f45c00d6c","system_id":"levelo_inurba_marseille","lat":43.26675,"lon":5.38264,"is_reserved":false,"is_disabled":false,"rental_uris":{"android":"levelo://app?vid=f7abde8f-7468-4866-b223-898f45c00d6c","ios":"levelo://app?vid=f7abde8f-7468-4866-b223-898f45c00d6c"},"vehicle_type_id":"4","last_reported":1768389178,"current_range_meters":8000,"station_id":"ce4bhg92rcd13ifvqf90","pricing_plan_id":"cebpf4jnsgd1na2vs0mg"},{"bike_id":"a0b3c393-788e-427a-ba12-453c908bd9de","system_id":"levelo_inurba_marseille","lat":43.22926,"lon":5.35377,"is_reserved":false,"is_disabled":false,"rental_uris":{"android":"levelo://app?vid=a0b3c393-788e-427a-ba12-453c908bd9de","ios":"levelo://app?vid=a0b3c393-788e-427a-ba12-453c908bd9de"},"vehicle_type_id":"4","last_reported":1768389178,"current_range_meters":8000,"station_id":"cpo3532slgdg3j2ikp40","pricing_plan_id":"cebpf4jnsgd1na2vs0mg"},{"bike_id":"dbd86f85-5b5f-4ae9-8c1d-698ae30b47da","system_id":"levelo_inurba_marseille","lat":43.29704,"lon":5.36604,"is_reserved":false,"is_disabled":false,"rental_uris":{"android":"levelo://app?vid=dbd86f85-5b5f-4ae9-8c1d-698ae30b47da","ios":"levelo://app?vid=dbd86f85-5b5f-4ae9-8c1d-698ae30b47da"},"vehicle_type_id":"4","last_reported":1768389178,"current_range_meters":8000,"station_id":"ce4bgn12rcd13ifvqbt0","pricing_plan_id":"cebpf4jnsgd1na2vs0mg"},{"bike_id":"8803a6e9-67a3-479e-b849-a893754260d5","system_id":"levelo_inurba_marseille","lat":43.22928,"lon":5.3538,"is_reserved":false,"is_disabled":false,"rental_uris":{"android":"levelo://app?vid=8803a6e9-67a3-479e-b849-a893754260d5","ios":"levelo://app?vid=8803a6e9-67a3-479e-b849-a893754260d5"},"vehicle_type_id":"4","last_reported":1768389178,"current_range_meters":8000,"station_id":"cpo3532slgdg3j2ikp40","pricing_plan_id":"cebpf4jnsgd1na2vs0mg"},{"bike_id":"a95b6f12-0846-4420-87fd-d24a14a6b78d","system_id":"levelo_inurba_marseille","lat":43.26197,"lon":5.37957,"is_reserved":false,"is_disabled":false,"rental_uris":{"android":"levelo://app?vid=a95b6f12-0846-4420-87fd-d24a14a6b78d","ios":"levelo://app?vid=a95b6f12-0846-4420-87fd-d24a14a6b78d"},"vehicle_type_id":"4","last_reported":1768389178,"current_range_meters":8000,"station_id":"ce4bhjp2rcd13ifvqg90","pricing_plan_id":"cebpf4jnsgd1na2vs0mg"},{"bike_id":"2b6134c4-e044-4e14-a88c-decf59e24f4e","system_id":"levelo_inurba_marseille","lat":43.26364,"lon":5.41076,"is_reserved":false,"is_disabled":false,"rental_uris":{"android":"levelo://app?vid=2b6134c4-e044-4e14-a88c-decf59e24f4e","ios":"levelo://app?vid=2b6134c4-e044-4e14-a88c-decf59e24f4e"},"vehicle_type_id":"4","last_reported":1768389178,"current_range_meters":8000,"station_id":"st_d4e5ca6na9uc73bfl5fg","pricing_plan_id":"cebpf4jnsgd1na2vs0mg"},{"bike_id":"a45f187f-4ab2-403a-85d2-aa48ef73c203","system_id":"levelo_inurba_marseille","lat":43.30596,"lon":5.37232,"is_reserved":false,"is_disabled":false,"rental_uris":{"android":"levelo://app?vid=a45f187f-4ab2-403a-85d2-aa48ef73c203","ios":"levelo://app?vid=a45f187f-4ab2-403a-85d2-aa48ef73c203"},"vehicle_type_id":"4","last_reported":1768389178,"current_range_meters":8000,"station_id":"ce4bgqh2rcd13ifvqc4g","pricing_plan_id":"cebpf4jnsgd1na2vs0mg"},{"bike_id":"a4158126-cc64-4f65-ac5f-55229fc9a715","system_id":"levelo_inurba_marseille","lat":43.26382,"lon":5.41071,"is_reserved":false,"is_disabled":false,"rental_uris":{"android":"levelo://app?vid=a4158126-cc64-4f65-ac5f-55229fc9a715","ios":"levelo://app?vid=a4158126-cc64-4f65-ac5f-55229fc9a715"},"vehicle_type_id":"4","last_reported":1768389178,"current_range_meters":8000,"station_id":"st_d4e5ca6na9uc73bfl5fg","pricing_plan_id":"cebpf4jnsgd1na2vs0mg"},{"bike_id":"bbca5a78-1ee0-4dab-ba7e-f05d9beea402","system_id":"levelo_inurba_marseille","lat":43.24165,"lon":5.36392,"is_reserved":false,"is_disabled":false,"rental_uris":{"android":"levelo://app?vid=bbca5a78-1ee0-4dab-ba7e-f05d9beea402","ios":"levelo://app?vid=bbca5a78-1ee0-4dab-ba7e-f05d9beea402"},"vehicle_type_id":"4","last_reported":1768389178,"current_range_meters":8000,"station_id":"cpo36qri1sfpv3e86is0","pricing_plan_id":"cebpf4jnsgd1na2vs0mg"},{"bike_id":"037a0099-1ded-43c7-8e30-7e3e2a0dc4bc","system_id":"levelo_inurba_marseille","lat":43.2494,"lon":5.40499,"is_reserved":false,"is_disabled":false,"rental_uris":{"android":"levelo://app?vid=037a0099-1ded-43c7-8e30-7e3e2a0dc4bc","ios":"levelo://app?vid=037a0099-1ded-43c7-8e30-7e3e2a0dc4bc"},"vehicle_type_id":"4","last_reported":1768389178,"current_range_meters":8000,"station_id":"st_d2ngiaodas8pm72gd1h0","pricing_plan_id":"cebpf4jnsgd1na2vs0mg"},{"bike_id":"96f4447e-4a7e-42c4-bcb9-3bc38db3e748","system_id":"levelo_inurba_marseille","lat":43.319965,"lon":5.381641,"is_reserved":false,"is_disabled":false,"rental_uris":{"android":"levelo://app?vid=96f4447e-4a7e-42c4-bcb9-3bc38db3e748","ios":"levelo://app?vid=96f4447e-4a7e-42c4-bcb9-3bc38db3e748"},"vehicle_type_id":"4","last_reported":1768389178,"current_range_meters":8000,"station_id":"ce4bhr12rcd13ifvqhpg","pricing_plan_id":"cebpf4jnsgd1na2vs0mg"},{"bike_id":"e132dfde-773d-467b-b281-4eeb31a6b007","system_id":"levelo_inurba_marseille","lat":43.24831,"lon":5.37466,"is_reserved":false,"is_disabled":false,"rental_uris":{"android":"levelo://app?vid=e132dfde-773d-467b-b281-4eeb31a6b007","ios":"levelo://app?vid=e132dfde-773d-467b-b281-4eeb31a6b007"},"vehicle_type_id":"4","last_reported":1768389178,"current_range_meters":8400,"station_id":"ce4bhgh2rcd13ifvqfb0","pricing_plan_id":"cebpf4jnsgd1na2vs0mg"},{"bike_id":"c4c5a3df-e90e-4579-88a2-9cc4ceac9cd9","system_id":"levelo_inurba_marseille","lat":43.30554,"lon":5.36707,"is_reserved":false,"is_disabled":false,"rental_uris":{"android":"levelo://app?vid=c4c5a3df-e90e-4579-88a2-9cc4ceac9cd9","ios":"levelo://app?vid=c4c5a3df-e90e-4579-88a2-9cc4ceac9cd9"},"vehicle_type_id":"4","last_reported":1768389178,"current_range_meters":8400,"station_id":"ce4bgrp2rcd13ifvqc9g","pricing_plan_id":"cebpf4jnsgd1na2vs0mg"},{"bike_id":"54328619-cff2-4dca-bb9d-3f5f45c6b8d8","system_id":"levelo_inurba_marseille","lat":43.27221,"lon":5.3922,"is_reserved":false,"is_disabled":false,"rental_uris":{"android":"levelo://app?vid=54328619-cff2-4dca-bb9d-3f5f45c6b8d8","ios":"levelo://app?vid=54328619-cff2-4dca-bb9d-3f5f45c6b8d8"},"vehicle_type_id":"4","last_reported":1768389178,"current_range_meters":8400,"station_id":"ce4bhhp2rcd13ifvqfm0","pricing_plan_id":"cebpf4jnsgd1na2vs0mg"},{"bike_id":"c75b139b-6977-457c-8fab-86c172554976","system_id":"levelo_inurba_marseille","lat":43.25107,"lon":5.40474,"is_reserved":false,"is_disabled":false,"rental_uris":{"android":"levelo://app?vid=c75b139b-6977-457c-8fab-86c172554976","ios":"levelo://app?vid=c75b139b-6977-457c-8fab-86c172554976"},"vehicle_type_id":"4","last_reported":1768389178,"current_range_meters":8400,"station_id":"","pricing_plan_id":"cebpf4jnsgd1na2vs0mg"},{"bike_id":"feba94b8-89e0-43a3-bcc3-4d546088cc4d","system_id":"levelo_inurba_marseille","lat":43.29053,"lon":5.39956,"is_reserved":false,"is_disabled":false,"rental_uris":{"android":"levelo://app?vid=feba94b8-89e0-43a3-bcc3-4d546088cc4d","ios":"levelo://app?vid=feba94b8-89e0-43a3-bcc3-4d546088cc4d"},"vehicle_type_id":"4","last_reported":1768389178,"current_range_meters":8400,"station_id":"ce4bh392rcd13ifvqdm0","pricing_plan_id":"cebpf4jnsgd1na2vs0mg"},{"bike_id":"ac51e41a-d68d-43fd-8cda-0bb66198b83a","system_id":"levelo_inurba_marseille","lat":43.2904,"lon":5.37162,"is_reserved":false,"is_disabled":false,"rental_uris":{"android":"levelo://app?vid=ac51e41a-d68d-43fd-8cda-0bb66198b83a","ios":"levelo://app?vid=ac51e41a-d68d-43fd-8cda-0bb66198b83a"},"vehicle_type_id":"4","last_reported":1768389178,"current_range_meters":8400,"station_id":"ce4bh5p2rcd13ifvqe4g","pricing_plan_id":"cebpf4jnsgd1na2vs0mg"},{"bike_id":"2f317efe-a01b-468a-9036-21dfc4cc3358","system_id":"levelo_inurba_marseille","lat":43.25822,"lon":5.39438,"is_reserved":false,"is_disabled":false,"rental_uris":{"android":"levelo://app?vid=2f317efe-a01b-468a-9036-21dfc4cc3358","ios":"levelo://app?vid=2f317efe-a01b-468a-9036-21dfc4cc3358"},"vehicle_type_id":"4","last_reported":1768389178,"current_range_meters":8400,"station_id":"ce4bhip2rcd13ifvqft0","pricing_plan_id":"cebpf4jnsgd1na2vs0mg"},{"bike_id":"660f8d3d-996c-4d0c-a098-476ebc30f600","system_id":"levelo_inurba_marseille","lat":43.22567,"lon":5.41634,"is_reserved":false,"is_disabled":false,"rental_uris":{"android":"levelo://app?vid=660f8d3d-996c-4d0c-a098-476ebc30f600","ios":"levelo://app?vid=660f8d3d-996c-4d0c-a098-476ebc30f600"},"vehicle_type_id":"4","last_reported":1768389178,"current_range_meters":8400,"station_id":"st_d2o4gvlbi1j2169b742g","pricing_plan_id":"cebpf4jnsgd1na2vs0mg"},{"bike_id":"2c1cbf9a-b592-4076-8e79-74a89cb7989a","system_id":"levelo_inurba_marseille","lat":43.32514,"lon":5.36577,"is_reserved":false,"is_disabled":false,"rental_uris":{"android":"levelo://app?vid=2c1cbf9a-b592-4076-8e79-74a89cb7989a","ios":"levelo://app?vid=2c1cbf9a-b592-4076-8e79-74a89cb7989a"},"vehicle_type_id":"4","last_reported":1768389178,"current_range_meters":8400,"station_id":"","pricing_plan_id":"cebpf4jnsgd1na2vs0mg"},{"bike_id":"e3689fe5-a0aa-4258-8eec-13656f1f8382","system_id":"levelo_inurba_marseille","lat":43.24824,"lon":5.37448,"is_reserved":false,"is_disabled":false,"rental_uris":{"android":"levelo://app?vid=e3689fe5-a0aa-4258-8eec-13656f1f8382","ios":"levelo://app?vid=e3689fe5-a0aa-4258-8eec-13656f1f8382"},"vehicle_type_id":"4","last_reported":1768389178,"current_range_meters":8400,"station_id":"ce4bhgh2rcd13ifvqfb0","pricing_plan_id":"cebpf4jnsgd1na2vs0mg"},{"bike_id":"52dc7a23-02b1-49ea-88fe-a1d65ef8f548","system_id":"levelo_inurba_marseille","lat":43.229334,"lon":5.35379,"is_reserved":false,"is_disabled":false,"rental_uris":{"android":"levelo://app?vid=52dc7a23-02b1-49ea-88fe-a1d65ef8f548","ios":"levelo://app?vid=52dc7a23-02b1-49ea-88fe-a1d65ef8f548"},"vehicle_type_id":"4","last_reported":1768389178,"current_range_meters":8400,"station_id":"cpo3532slgdg3j2ikp40","pricing_plan_id":"cebpf4jnsgd1na2vs0mg"},{"bike_id":"f27272d4-b42c-4660-aff8-11729aa104cc","system_id":"levelo_inurba_marseille","lat":43.31229,"lon":5.3686,"is_reserved":false,"is_disabled":false,"rental_uris":{"android":"levelo://app?vid=f27272d4-b42c-4660-aff8-11729aa104cc","ios":"levelo://app?vid=f27272d4-b42c-4660-aff8-11729aa104cc"},"vehicle_type_id":"4","last_reported":1768389178,"current_range_meters":8400,"station_id":"ce4bgl92rcd13ifvqbq0","pricing_plan_id":"cebpf4jnsgd1na2vs0mg"},{"bike_id":"fca6ade4-fb97-4735-aea0-e5bf0b1d331c","system_id":"levelo_inurba_marseille","lat":43.31186,"lon":5.38714,"is_reserved":false,"is_disabled":false,"rental_uris":{"android":"levelo://app?vid=fca6ade4-fb97-4735-aea0-e5bf0b1d331c","ios":"levelo://app?vid=fca6ade4-fb97-4735-aea0-e5bf0b1d331c"},"vehicle_type_id":"4","last_reported":1768389178,"current_range_meters":8400,"station_id":"ce4bgv12rcd13ifvqcp0","pricing_plan_id":"cebpf4jnsgd1na2vs0mg"},{"bike_id":"a293b5ac-cc9d-4eaf-9c82-287a9bc7812d","system_id":"levelo_inurba_marseille","lat":43.28946,"lon":5.38844,"is_reserved":false,"is_disabled":false,"rental_uris":{"android":"levelo://app?vid=a293b5ac-cc9d-4eaf-9c82-287a9bc7812d","ios":"levelo://app?vid=a293b5ac-cc9d-4eaf-9c82-287a9bc7812d"},"vehicle_type_id":"4","last_reported":1768389178,"current_range_meters":8400,"station_id":"","pricing_plan_id":"cebpf4jnsgd1na2vs0mg"},{"bike_id":"326fd45d-11eb-4826-92b5-835d5b4d7fbd","system_id":"levelo_inurba_marseille","lat":43.300324,"lon":5.388794,"is_reserved":false,"is_disabled":false,"rental_uris":{"android":"levelo://app?vid=326fd45d-11eb-4826-92b5-835d5b4d7fbd","ios":"levelo://app?vid=326fd45d-11eb-4826-92b5-835d5b4d7fbd"},"vehicle_type_id":"4","last_reported":1768389178,"current_range_meters":8400,"station_id":"","pricing_plan_id":"cebpf4jnsgd1na2vs0mg"},{"bike_id":"cb91171a-b433-4d62-9e48-7aa16e13fdf7","system_id":"levelo_inurba_marseille","lat":43.29762,"lon":5.42781,"is_reserved":false,"is_disabled":false,"rental_uris":{"android":"levelo://app?vid=cb91171a-b433-4d62-9e48-7aa16e13fdf7","ios":"levelo://app?vid=cb91171a-b433-4d62-9e48-7aa16e13fdf7"},"vehicle_type_id":"4","last_reported":1768389178,"current_range_meters":8400,"station_id":"st_d3md5207bmas73dh9klg","pricing_plan_id":"cebpf4jnsgd1na2vs0mg"},{"bike_id":"7757c024-8de5-4d60-ba36-3581873ca4bd","system_id":"levelo_inurba_marseille","lat":43.29266,"lon":5.38438,"is_reserved":false,"is_disabled":true,"rental_uris":{"android":"levelo://app?vid=7757c024-8de5-4d60-ba36-3581873ca4bd","ios":"levelo://app?vid=7757c024-8de5-4d60-ba36-3581873ca4bd"},"vehicle_type_id":"4","last_reported":1768389178,"current_range_meters":8400,"station_id":"ce4bh692rcd13ifvqea0","pricing_plan_id":"cebpf4jnsgd1na2vs0mg"},{"bike_id":"55194f29-42dd-4454-96b2-a5d4401446b6","system_id":"levelo_inurba_marseille","lat":43.2993,"lon":5.42758,"is_reserved":false,"is_disabled":false,"rental_uris":{"android":"levelo://app?vid=55194f29-42dd-4454-96b2-a5d4401446b6","ios":"levelo://app?vid=55194f29-42dd-4454-96b2-a5d4401446b6"},"vehicle_type_id":"4","last_reported":1768389178,"current_range_meters":8400,"station_id":"","pricing_plan_id":"cebpf4jnsgd1na2vs0mg"},{"bike_id":"1756a08a-aa6b-4eec-8559-c44cdd87138a","system_id":"levelo_inurba_marseille","lat":43.30954,"lon":5.39057,"is_reserved":false,"is_disabled":false,"rental_uris":{"android":"levelo://app?vid=1756a08a-aa6b-4eec-8559-c44cdd87138a","ios":"levelo://app?vid=1756a08a-aa6b-4eec-8559-c44cdd87138a"},"vehicle_type_id":"4","last_reported":1768389178,"current_range_meters":8400,"station_id":"ce4bgup2rcd13ifvqco0","pricing_plan_id":"cebpf4jnsgd1na2vs0mg"},{"bike_id":"ae1d99b1-82a1-460d-bd96-dc1d194fe893","system_id":"levelo_inurba_marseille","lat":43.29823,"lon":5.37648,"is_reserved":false,"is_disabled":false,"rental_uris":{"android":"levelo://app?vid=ae1d99b1-82a1-460d-bd96-dc1d194fe893","ios":"levelo://app?vid=ae1d99b1-82a1-460d-bd96-dc1d194fe893"},"vehicle_type_id":"4","last_reported":1768389178,"current_range_meters":8400,"station_id":"","pricing_plan_id":"cebpf4jnsgd1na2vs0mg"},{"bike_id":"091c8081-61de-43ac-bb2c-74077a5d4149","system_id":"levelo_inurba_marseille","lat":43.2257,"lon":5.41645,"is_reserved":false,"is_disabled":false,"rental_uris":{"android":"levelo://app?vid=091c8081-61de-43ac-bb2c-74077a5d4149","ios":"levelo://app?vid=091c8081-61de-43ac-bb2c-74077a5d4149"},"vehicle_type_id":"4","last_reported":1768389178,"current_range_meters":8400,"station_id":"st_d2o4gvlbi1j2169b742g","pricing_plan_id":"cebpf4jnsgd1na2vs0mg"},{"bike_id":"204ac4ab-e203-4329-9ff0-720626e1f908","system_id":"levelo_inurba_marseille","lat":43.270658,"lon":5.383118,"is_reserved":false,"is_disabled":true,"rental_uris":{"android":"levelo://app?vid=204ac4ab-e203-4329-9ff0-720626e1f908","ios":"levelo://app?vid=204ac4ab-e203-4329-9ff0-720626e1f908"},"vehicle_type_id":"4","last_reported":1768389178,"current_range_meters":8400,"station_id":"st_d3n2fo6cfp8s73cte1j0","pricing_plan_id":"cebpf4jnsgd1na2vs0mg"},{"bike_id":"d822d21f-2a31-408a-b00b-b3387695630b","system_id":"levelo_inurba_marseille","lat":43.21181,"lon":5.3507,"is_reserved":false,"is_disabled":false,"rental_uris":{"android":"levelo://app?vid=d822d21f-2a31-408a-b00b-b3387695630b","ios":"levelo://app?vid=d822d21f-2a31-408a-b00b-b3387695630b"},"vehicle_type_id":"4","last_reported":1768389178,"current_range_meters":8400,"station_id":"st_cvj6sg6p6f1abm77japg","pricing_plan_id":"cebpf4jnsgd1na2vs0mg"},{"bike_id":"7b6dccec-5abb-4dad-9197-7a7032cf29ed","system_id":"levelo_inurba_marseille","lat":43.29061,"lon":5.37167,"is_reserved":false,"is_disabled":false,"rental_uris":{"android":"levelo://app?vid=7b6dccec-5abb-4dad-9197-7a7032cf29ed","ios":"levelo://app?vid=7b6dccec-5abb-4dad-9197-7a7032cf29ed"},"vehicle_type_id":"4","last_reported":1768389178,"current_range_meters":8400,"station_id":"ce4bh5p2rcd13ifvqe4g","pricing_plan_id":"cebpf4jnsgd1na2vs0mg"},{"bike_id":"0225d6f9-8fa4-4312-b36f-2519c9fc71b6","system_id":"levelo_inurba_marseille","lat":43.31373,"lon":5.36769,"is_reserved":false,"is_disabled":false,"rental_uris":{"android":"levelo://app?vid=0225d6f9-8fa4-4312-b36f-2519c9fc71b6","ios":"levelo://app?vid=0225d6f9-8fa4-4312-b36f-2519c9fc71b6"},"vehicle_type_id":"4","last_reported":1768389178,"current_range_meters":8400,"station_id":"","pricing_plan_id":"cebpf4jnsgd1na2vs0mg"},{"bike_id":"7aebede3-29e7-422e-9949-e6406848b636","system_id":"levelo_inurba_marseille","lat":43.25116,"lon":5.40346,"is_reserved":false,"is_disabled":false,"rental_uris":{"android":"levelo://app?vid=7aebede3-29e7-422e-9949-e6406848b636","ios":"levelo://app?vid=7aebede3-29e7-422e-9949-e6406848b636"},"vehicle_type_id":"4","last_reported":1768389178,"current_range_meters":8800,"station_id":"ce4bhlh2rcd13ifvqgig","pricing_plan_id":"cebpf4jnsgd1na2vs0mg"},{"bike_id":"5b09bda2-27b8-404f-b1ea-ff8b174b2601","system_id":"levelo_inurba_marseille","lat":43.25103,"lon":5.40343,"is_reserved":false,"is_disabled":false,"rental_uris":{"android":"levelo://app?vid=5b09bda2-27b8-404f-b1ea-ff8b174b2601","ios":"levelo://app?vid=5b09bda2-27b8-404f-b1ea-ff8b174b2601"},"vehicle_type_id":"4","last_reported":1768389178,"current_range_meters":8800,"station_id":"ce4bhlh2rcd13ifvqgig","pricing_plan_id":"cebpf4jnsgd1na2vs0mg"},{"bike_id":"a0ed72f1-dc59-432b-8e70-da903904b93f","system_id":"levelo_inurba_marseille","lat":43.2707,"lon":5.42281,"is_reserved":false,"is_disabled":false,"rental_uris":{"android":"levelo://app?vid=a0ed72f1-dc59-432b-8e70-da903904b93f","ios":"levelo://app?vid=a0ed72f1-dc59-432b-8e70-da903904b93f"},"vehicle_type_id":"4","last_reported":1768389178,"current_range_meters":8800,"station_id":"ce4bhk92rcd13ifvqgb0","pricing_plan_id":"cebpf4jnsgd1na2vs0mg"},{"bike_id":"f1177697-24b8-4122-96be-92006a04ddc7","system_id":"levelo_inurba_marseille","lat":43.27825,"lon":5.40709,"is_reserved":false,"is_disabled":false,"rental_uris":{"android":"levelo://app?vid=f1177697-24b8-4122-96be-92006a04ddc7","ios":"levelo://app?vid=f1177697-24b8-4122-96be-92006a04ddc7"},"vehicle_type_id":"4","last_reported":1768389178,"current_range_meters":8800,"station_id":"ce4bhnh2rcd13ifvqgtg","pricing_plan_id":"cebpf4jnsgd1na2vs0mg"},{"bike_id":"80005d5d-6f7e-40ec-a003-9995e83c7ab8","system_id":"levelo_inurba_marseille","lat":43.23963,"lon":5.36638,"is_reserved":false,"is_disabled":false,"rental_uris":{"android":"levelo://app?vid=80005d5d-6f7e-40ec-a003-9995e83c7ab8","ios":"levelo://app?vid=80005d5d-6f7e-40ec-a003-9995e83c7ab8"},"vehicle_type_id":"4","last_reported":1768389178,"current_range_meters":8800,"station_id":"ce4bhi12rcd13ifvqfp0","pricing_plan_id":"cebpf4jnsgd1na2vs0mg"},{"bike_id":"86aaef4b-aac1-4248-ac79-0d9f37b8c62f","system_id":"levelo_inurba_marseille","lat":43.27317,"lon":5.41682,"is_reserved":false,"is_disabled":false,"rental_uris":{"android":"levelo://app?vid=86aaef4b-aac1-4248-ac79-0d9f37b8c62f","ios":"levelo://app?vid=86aaef4b-aac1-4248-ac79-0d9f37b8c62f"},"vehicle_type_id":"4","last_reported":1768389178,"current_range_meters":8800,"station_id":"","pricing_plan_id":"cebpf4jnsgd1na2vs0mg"},{"bike_id":"396fbd50-99cc-4598-ada2-23bb3a56180e","system_id":"levelo_inurba_marseille","lat":43.250045,"lon":5.389159,"is_reserved":false,"is_disabled":true,"rental_uris":{"android":"levelo://app?vid=396fbd50-99cc-4598-ada2-23bb3a56180e","ios":"levelo://app?vid=396fbd50-99cc-4598-ada2-23bb3a56180e"},"vehicle_type_id":"4","last_reported":1768389178,"current_range_meters":8800,"station_id":"ce4bhgp2rcd13ifvqfd0","pricing_plan_id":"cebpf4jnsgd1na2vs0mg"},{"bike_id":"32a6fb2e-0d07-41f5-98d9-49c5a72b9745","system_id":"levelo_inurba_marseille","lat":43.258321,"lon":5.394302,"is_reserved":false,"is_disabled":false,"rental_uris":{"android":"levelo://app?vid=32a6fb2e-0d07-41f5-98d9-49c5a72b9745","ios":"levelo://app?vid=32a6fb2e-0d07-41f5-98d9-49c5a72b9745"},"vehicle_type_id":"4","last_reported":1768389178,"current_range_meters":8800,"station_id":"ce4bhip2rcd13ifvqft0","pricing_plan_id":"cebpf4jnsgd1na2vs0mg"},{"bike_id":"a96f45c6-ae2a-4863-b3e8-7567bc1a9fb0","system_id":"levelo_inurba_marseille","lat":43.24555,"lon":5.39528,"is_reserved":false,"is_disabled":false,"rental_uris":{"android":"levelo://app?vid=a96f45c6-ae2a-4863-b3e8-7567bc1a9fb0","ios":"levelo://app?vid=a96f45c6-ae2a-4863-b3e8-7567bc1a9fb0"},"vehicle_type_id":"4","last_reported":1768389178,"current_range_meters":8800,"station_id":"ce4bhlp2rcd13ifvqgjg","pricing_plan_id":"cebpf4jnsgd1na2vs0mg"},{"bike_id":"c81b7509-5dd7-4492-9100-68af9d411ee1","system_id":"levelo_inurba_marseille","lat":43.29061,"lon":5.40237,"is_reserved":false,"is_disabled":false,"rental_uris":{"android":"levelo://app?vid=c81b7509-5dd7-4492-9100-68af9d411ee1","ios":"levelo://app?vid=c81b7509-5dd7-4492-9100-68af9d411ee1"},"vehicle_type_id":"4","last_reported":1768389178,"current_range_meters":8800,"station_id":"","pricing_plan_id":"cebpf4jnsgd1na2vs0mg"},{"bike_id":"4883c970-634b-4de4-9e21-df47a68eb757","system_id":"levelo_inurba_marseille","lat":43.28482,"lon":5.48394,"is_reserved":false,"is_disabled":false,"rental_uris":{"android":"levelo://app?vid=4883c970-634b-4de4-9e21-df47a68eb757","ios":"levelo://app?vid=4883c970-634b-4de4-9e21-df47a68eb757"},"vehicle_type_id":"4","last_reported":1768389178,"current_range_meters":8800,"station_id":"st_d3svhcjqgbts73a3dn0g","pricing_plan_id":"cebpf4jnsgd1na2vs0mg"},{"bike_id":"aea31f42-7f60-48f8-9671-846ca1dee58e","system_id":"levelo_inurba_marseille","lat":43.24399,"lon":5.37083,"is_reserved":false,"is_disabled":false,"rental_uris":{"android":"levelo://app?vid=aea31f42-7f60-48f8-9671-846ca1dee58e","ios":"levelo://app?vid=aea31f42-7f60-48f8-9671-846ca1dee58e"},"vehicle_type_id":"4","last_reported":1768389178,"current_range_meters":8800,"station_id":"ce4bhhh2rcd13ifvqfk0","pricing_plan_id":"cebpf4jnsgd1na2vs0mg"},{"bike_id":"a17e8d5f-3b35-487b-a91b-1f29ad7b4c5b","system_id":"levelo_inurba_marseille","lat":43.2497,"lon":5.40517,"is_reserved":false,"is_disabled":false,"rental_uris":{"android":"levelo://app?vid=a17e8d5f-3b35-487b-a91b-1f29ad7b4c5b","ios":"levelo://app?vid=a17e8d5f-3b35-487b-a91b-1f29ad7b4c5b"},"vehicle_type_id":"4","last_reported":1768389178,"current_range_meters":8800,"station_id":"st_d2ngiaodas8pm72gd1h0","pricing_plan_id":"cebpf4jnsgd1na2vs0mg"},{"bike_id":"6b5ad948-3184-49f0-819d-831c6c664a72","system_id":"levelo_inurba_marseille","lat":43.2453,"lon":5.39521,"is_reserved":false,"is_disabled":false,"rental_uris":{"android":"levelo://app?vid=6b5ad948-3184-49f0-819d-831c6c664a72","ios":"levelo://app?vid=6b5ad948-3184-49f0-819d-831c6c664a72"},"vehicle_type_id":"4","last_reported":1768389178,"current_range_meters":8800,"station_id":"ce4bhlp2rcd13ifvqgjg","pricing_plan_id":"cebpf4jnsgd1na2vs0mg"},{"bike_id":"2affcc58-a48c-4f75-a5fe-69678b4f9b77","system_id":"levelo_inurba_marseille","lat":43.24663,"lon":5.38158,"is_reserved":false,"is_disabled":false,"rental_uris":{"android":"levelo://app?vid=2affcc58-a48c-4f75-a5fe-69678b4f9b77","ios":"levelo://app?vid=2affcc58-a48c-4f75-a5fe-69678b4f9b77"},"vehicle_type_id":"4","last_reported":1768389178,"current_range_meters":8800,"station_id":"ce4bhih2rcd13ifvqfr0","pricing_plan_id":"cebpf4jnsgd1na2vs0mg"},{"bike_id":"634a5032-07c2-4ad0-b886-0e21c013fdce","system_id":"levelo_inurba_marseille","lat":43.2557,"lon":5.38235,"is_reserved":false,"is_disabled":false,"rental_uris":{"android":"levelo://app?vid=634a5032-07c2-4ad0-b886-0e21c013fdce","ios":"levelo://app?vid=634a5032-07c2-4ad0-b886-0e21c013fdce"},"vehicle_type_id":"4","last_reported":1768389178,"current_range_meters":9200,"station_id":"ce4bhih2rcd13ifvqfs0","pricing_plan_id":"cebpf4jnsgd1na2vs0mg"},{"bike_id":"dfef29dc-2d4d-46b6-a9c1-7904609250fe","system_id":"levelo_inurba_marseille","lat":43.3042,"lon":5.38903,"is_reserved":false,"is_disabled":false,"rental_uris":{"android":"levelo://app?vid=dfef29dc-2d4d-46b6-a9c1-7904609250fe","ios":"levelo://app?vid=dfef29dc-2d4d-46b6-a9c1-7904609250fe"},"vehicle_type_id":"4","last_reported":1768389178,"current_range_meters":9200,"station_id":"ce4bgk12rcd13ifvqbi0","pricing_plan_id":"cebpf4jnsgd1na2vs0mg"},{"bike_id":"246d8529-9758-4c85-bc5c-2c9d949a1050","system_id":"levelo_inurba_marseille","lat":43.304657,"lon":5.379049,"is_reserved":false,"is_disabled":false,"rental_uris":{"android":"levelo://app?vid=246d8529-9758-4c85-bc5c-2c9d949a1050","ios":"levelo://app?vid=246d8529-9758-4c85-bc5c-2c9d949a1050"},"vehicle_type_id":"4","last_reported":1768389178,"current_range_meters":9200,"station_id":"ce4bgup2rcd13ifvqcn0","pricing_plan_id":"cebpf4jnsgd1na2vs0mg"},{"bike_id":"1d4a4fad-6302-435f-a955-d4f4ff25438d","system_id":"levelo_inurba_marseille","lat":43.26775,"lon":5.39424,"is_reserved":false,"is_disabled":false,"rental_uris":{"android":"levelo://app?vid=1d4a4fad-6302-435f-a955-d4f4ff25438d","ios":"levelo://app?vid=1d4a4fad-6302-435f-a955-d4f4ff25438d"},"vehicle_type_id":"4","last_reported":1768389178,"current_range_meters":9200,"station_id":"ce4bhh12rcd13ifvqfg0","pricing_plan_id":"cebpf4jnsgd1na2vs0mg"},{"bike_id":"984953dd-4d3f-44ad-bb8d-cee2582bab23","system_id":"levelo_inurba_marseille","lat":43.27824,"lon":5.40723,"is_reserved":false,"is_disabled":false,"rental_uris":{"android":"levelo://app?vid=984953dd-4d3f-44ad-bb8d-cee2582bab23","ios":"levelo://app?vid=984953dd-4d3f-44ad-bb8d-cee2582bab23"},"vehicle_type_id":"4","last_reported":1768389178,"current_range_meters":9200,"station_id":"ce4bhnh2rcd13ifvqgtg","pricing_plan_id":"cebpf4jnsgd1na2vs0mg"},{"bike_id":"0018a145-5229-40b3-8721-56b2cedfd3d6","system_id":"levelo_inurba_marseille","lat":43.27994,"lon":5.39943,"is_reserved":false,"is_disabled":false,"rental_uris":{"android":"levelo://app?vid=0018a145-5229-40b3-8721-56b2cedfd3d6","ios":"levelo://app?vid=0018a145-5229-40b3-8721-56b2cedfd3d6"},"vehicle_type_id":"4","last_reported":1768389178,"current_range_meters":9200,"station_id":"","pricing_plan_id":"cebpf4jnsgd1na2vs0mg"},{"bike_id":"9d739adc-d986-4a89-b7a7-e04664fee89f","system_id":"levelo_inurba_marseille","lat":43.281559,"lon":5.426421,"is_reserved":false,"is_disabled":false,"rental_uris":{"android":"levelo://app?vid=9d739adc-d986-4a89-b7a7-e04664fee89f","ios":"levelo://app?vid=9d739adc-d986-4a89-b7a7-e04664fee89f"},"vehicle_type_id":"4","last_reported":1768389178,"current_range_meters":9200,"station_id":"ce4bhnh2rcd13ifvqgug","pricing_plan_id":"cebpf4jnsgd1na2vs0mg"},{"bike_id":"5e235d9b-dff6-4fbf-8802-b61848997207","system_id":"levelo_inurba_marseille","lat":43.29884,"lon":5.38492,"is_reserved":false,"is_disabled":false,"rental_uris":{"android":"levelo://app?vid=5e235d9b-dff6-4fbf-8802-b61848997207","ios":"levelo://app?vid=5e235d9b-dff6-4fbf-8802-b61848997207"},"vehicle_type_id":"4","last_reported":1768389178,"current_range_meters":9200,"station_id":"","pricing_plan_id":"cebpf4jnsgd1na2vs0mg"},{"bike_id":"aac02660-451c-4466-97cc-03bd6873da26","system_id":"levelo_inurba_marseille","lat":43.248,"lon":5.37457,"is_reserved":false,"is_disabled":false,"rental_uris":{"android":"levelo://app?vid=aac02660-451c-4466-97cc-03bd6873da26","ios":"levelo://app?vid=aac02660-451c-4466-97cc-03bd6873da26"},"vehicle_type_id":"4","last_reported":1768389178,"current_range_meters":9200,"station_id":"ce4bhgh2rcd13ifvqfb0","pricing_plan_id":"cebpf4jnsgd1na2vs0mg"},{"bike_id":"f5ba1a76-ac52-47e9-b281-d655ce5e97aa","system_id":"levelo_inurba_marseille","lat":43.26561,"lon":5.37289,"is_reserved":false,"is_disabled":false,"rental_uris":{"android":"levelo://app?vid=f5ba1a76-ac52-47e9-b281-d655ce5e97aa","ios":"levelo://app?vid=f5ba1a76-ac52-47e9-b281-d655ce5e97aa"},"vehicle_type_id":"4","last_reported":1768389178,"current_range_meters":9200,"station_id":"ce4bhg12rcd13ifvqf70","pricing_plan_id":"cebpf4jnsgd1na2vs0mg"},{"bike_id":"4a0910bc-2cb8-4117-a88f-aa517b88b474","system_id":"levelo_inurba_marseille","lat":43.34422,"lon":5.39984,"is_reserved":false,"is_disabled":false,"rental_uris":{"android":"levelo://app?vid=4a0910bc-2cb8-4117-a88f-aa517b88b474","ios":"levelo://app?vid=4a0910bc-2cb8-4117-a88f-aa517b88b474"},"vehicle_type_id":"4","last_reported":1768389178,"current_range_meters":9200,"station_id":"","pricing_plan_id":"cebpf4jnsgd1na2vs0mg"},{"bike_id":"c346eb24-1f5d-44d1-ae14-b1d91d1535fa","system_id":"levelo_inurba_marseille","lat":43.284732,"lon":5.38574,"is_reserved":false,"is_disabled":false,"rental_uris":{"android":"levelo://app?vid=c346eb24-1f5d-44d1-ae14-b1d91d1535fa","ios":"levelo://app?vid=c346eb24-1f5d-44d1-ae14-b1d91d1535fa"},"vehicle_type_id":"4","last_reported":1768389178,"current_range_meters":9200,"station_id":"ce4bh8p2rcd13ifvqeb0","pricing_plan_id":"cebpf4jnsgd1na2vs0mg"},{"bike_id":"65986d91-85c5-474e-947d-18564972c265","system_id":"levelo_inurba_marseille","lat":43.25008,"lon":5.38925,"is_reserved":false,"is_disabled":false,"rental_uris":{"android":"levelo://app?vid=65986d91-85c5-474e-947d-18564972c265","ios":"levelo://app?vid=65986d91-85c5-474e-947d-18564972c265"},"vehicle_type_id":"4","last_reported":1768389178,"current_range_meters":9200,"station_id":"ce4bhgp2rcd13ifvqfd0","pricing_plan_id":"cebpf4jnsgd1na2vs0mg"},{"bike_id":"774ca479-5bb9-49b9-8ea6-99c5cf896279","system_id":"levelo_inurba_marseille","lat":43.24622,"lon":5.43159,"is_reserved":false,"is_disabled":false,"rental_uris":{"android":"levelo://app?vid=774ca479-5bb9-49b9-8ea6-99c5cf896279","ios":"levelo://app?vid=774ca479-5bb9-49b9-8ea6-99c5cf896279"},"vehicle_type_id":"4","last_reported":1768389178,"current_range_meters":9200,"station_id":"st_d2m6c4gdas8pm72e190g","pricing_plan_id":"cebpf4jnsgd1na2vs0mg"},{"bike_id":"18dc8c62-b29b-42f7-9621-fffcbbc18a5c","system_id":"levelo_inurba_marseille","lat":43.23965,"lon":5.36632,"is_reserved":false,"is_disabled":false,"rental_uris":{"android":"levelo://app?vid=18dc8c62-b29b-42f7-9621-fffcbbc18a5c","ios":"levelo://app?vid=18dc8c62-b29b-42f7-9621-fffcbbc18a5c"},"vehicle_type_id":"4","last_reported":1768389178,"current_range_meters":9200,"station_id":"ce4bhi12rcd13ifvqfp0","pricing_plan_id":"cebpf4jnsgd1na2vs0mg"},{"bike_id":"c08f6702-3ab0-4bca-8f12-dcb31e6ffd5c","system_id":"levelo_inurba_marseille","lat":43.24818,"lon":5.37461,"is_reserved":false,"is_disabled":false,"rental_uris":{"android":"levelo://app?vid=c08f6702-3ab0-4bca-8f12-dcb31e6ffd5c","ios":"levelo://app?vid=c08f6702-3ab0-4bca-8f12-dcb31e6ffd5c"},"vehicle_type_id":"4","last_reported":1768389178,"current_range_meters":9200,"station_id":"ce4bhgh2rcd13ifvqfb0","pricing_plan_id":"cebpf4jnsgd1na2vs0mg"},{"bike_id":"82989d1b-a82e-4a5c-a4ed-8744d6572479","system_id":"levelo_inurba_marseille","lat":43.315222,"lon":5.380359,"is_reserved":false,"is_disabled":false,"rental_uris":{"android":"levelo://app?vid=82989d1b-a82e-4a5c-a4ed-8744d6572479","ios":"levelo://app?vid=82989d1b-a82e-4a5c-a4ed-8744d6572479"},"vehicle_type_id":"4","last_reported":1768389178,"current_range_meters":9200,"station_id":"ce4bhsp2rcd13ifvqi50","pricing_plan_id":"cebpf4jnsgd1na2vs0mg"},{"bike_id":"96056386-d9a6-4636-bb5c-976733254508","system_id":"levelo_inurba_marseille","lat":43.2119,"lon":5.35081,"is_reserved":false,"is_disabled":false,"rental_uris":{"android":"levelo://app?vid=96056386-d9a6-4636-bb5c-976733254508","ios":"levelo://app?vid=96056386-d9a6-4636-bb5c-976733254508"},"vehicle_type_id":"4","last_reported":1768389178,"current_range_meters":9200,"station_id":"","pricing_plan_id":"cebpf4jnsgd1na2vs0mg"},{"bike_id":"d6ede3ca-f3e5-48a7-9638-980e4a4826a0","system_id":"levelo_inurba_marseille","lat":43.28078,"lon":5.39661,"is_reserved":false,"is_disabled":false,"rental_uris":{"android":"levelo://app?vid=d6ede3ca-f3e5-48a7-9638-980e4a4826a0","ios":"levelo://app?vid=d6ede3ca-f3e5-48a7-9638-980e4a4826a0"},"vehicle_type_id":"4","last_reported":1768389178,"current_range_meters":9200,"station_id":"ce4bho12rcd13ifvqh2g","pricing_plan_id":"cebpf4jnsgd1na2vs0mg"},{"bike_id":"d3b9d1f0-186a-42e9-90d5-1ceec84c26a0","system_id":"levelo_inurba_marseille","lat":43.29524,"lon":5.39403,"is_reserved":false,"is_disabled":false,"rental_uris":{"android":"levelo://app?vid=d3b9d1f0-186a-42e9-90d5-1ceec84c26a0","ios":"levelo://app?vid=d3b9d1f0-186a-42e9-90d5-1ceec84c26a0"},"vehicle_type_id":"4","last_reported":1768389178,"current_range_meters":9200,"station_id":"ce4bh292rcd13ifvqdf0","pricing_plan_id":"cebpf4jnsgd1na2vs0mg"},{"bike_id":"f47045fb-5fed-4385-9ece-45040895fa02","system_id":"levelo_inurba_marseille","lat":43.24805,"lon":5.37457,"is_reserved":false,"is_disabled":false,"rental_uris":{"android":"levelo://app?vid=f47045fb-5fed-4385-9ece-45040895fa02","ios":"levelo://app?vid=f47045fb-5fed-4385-9ece-45040895fa02"},"vehicle_type_id":"4","last_reported":1768389178,"current_range_meters":9200,"station_id":"ce4bhgh2rcd13ifvqfb0","pricing_plan_id":"cebpf4jnsgd1na2vs0mg"},{"bike_id":"03e9f015-73ba-4c3e-a345-a62206b593d1","system_id":"levelo_inurba_marseille","lat":43.32478,"lon":5.36586,"is_reserved":false,"is_disabled":false,"rental_uris":{"android":"levelo://app?vid=03e9f015-73ba-4c3e-a345-a62206b593d1","ios":"levelo://app?vid=03e9f015-73ba-4c3e-a345-a62206b593d1"},"vehicle_type_id":"4","last_reported":1768389178,"current_range_meters":9600,"station_id":"ce4bhs12rcd13ifvqhvg","pricing_plan_id":"cebpf4jnsgd1na2vs0mg"},{"bike_id":"79376015-3122-4808-a82b-adae5ce6e9d3","system_id":"levelo_inurba_marseille","lat":43.26203,"lon":5.37944,"is_reserved":false,"is_disabled":false,"rental_uris":{"android":"levelo://app?vid=79376015-3122-4808-a82b-adae5ce6e9d3","ios":"levelo://app?vid=79376015-3122-4808-a82b-adae5ce6e9d3"},"vehicle_type_id":"4","last_reported":1768389178,"current_range_meters":9600,"station_id":"ce4bhjp2rcd13ifvqg90","pricing_plan_id":"cebpf4jnsgd1na2vs0mg"},{"bike_id":"a506f01a-3ec0-482c-b7b0-af3d10e76371","system_id":"levelo_inurba_marseille","lat":43.29521,"lon":5.3855,"is_reserved":false,"is_disabled":false,"rental_uris":{"android":"levelo://app?vid=a506f01a-3ec0-482c-b7b0-af3d10e76371","ios":"levelo://app?vid=a506f01a-3ec0-482c-b7b0-af3d10e76371"},"vehicle_type_id":"4","last_reported":1768389178,"current_range_meters":9600,"station_id":"ce4bgih2rcd13ifvqba0","pricing_plan_id":"cebpf4jnsgd1na2vs0mg"},{"bike_id":"8e0999dc-194d-4ada-880f-1483d07b109c","system_id":"levelo_inurba_marseille","lat":43.25002,"lon":5.38944,"is_reserved":false,"is_disabled":false,"rental_uris":{"android":"levelo://app?vid=8e0999dc-194d-4ada-880f-1483d07b109c","ios":"levelo://app?vid=8e0999dc-194d-4ada-880f-1483d07b109c"},"vehicle_type_id":"4","last_reported":1768389178,"current_range_meters":9600,"station_id":"ce4bhgp2rcd13ifvqfd0","pricing_plan_id":"cebpf4jnsgd1na2vs0mg"},{"bike_id":"ab4c7e8d-c082-49f2-ad38-3b04b1436978","system_id":"levelo_inurba_marseille","lat":43.22569,"lon":5.41626,"is_reserved":false,"is_disabled":false,"rental_uris":{"android":"levelo://app?vid=ab4c7e8d-c082-49f2-ad38-3b04b1436978","ios":"levelo://app?vid=ab4c7e8d-c082-49f2-ad38-3b04b1436978"},"vehicle_type_id":"4","last_reported":1768389178,"current_range_meters":9600,"station_id":"st_d2o4gvlbi1j2169b742g","pricing_plan_id":"cebpf4jnsgd1na2vs0mg"},{"bike_id":"76971c30-a8f6-4a00-b030-b14396b1d766","system_id":"levelo_inurba_marseille","lat":43.28523,"lon":5.38419,"is_reserved":false,"is_disabled":false,"rental_uris":{"android":"levelo://app?vid=76971c30-a8f6-4a00-b030-b14396b1d766","ios":"levelo://app?vid=76971c30-a8f6-4a00-b030-b14396b1d766"},"vehicle_type_id":"4","last_reported":1768389178,"current_range_meters":9600,"station_id":"ce4bh512rcd13ifvqe3g","pricing_plan_id":"cebpf4jnsgd1na2vs0mg"},{"bike_id":"3b326f81-b0c4-4b16-a9c9-f528a517d078","system_id":"levelo_inurba_marseille","lat":43.23196,"lon":5.35562,"is_reserved":false,"is_disabled":false,"rental_uris":{"android":"levelo://app?vid=3b326f81-b0c4-4b16-a9c9-f528a517d078","ios":"levelo://app?vid=3b326f81-b0c4-4b16-a9c9-f528a517d078"},"vehicle_type_id":"4","last_reported":1768389178,"current_range_meters":9600,"station_id":"ce4bhu92rcd13ifvqi70","pricing_plan_id":"cebpf4jnsgd1na2vs0mg"},{"bike_id":"641b863c-a59f-4c4a-9dd7-5a69be5d3503","system_id":"levelo_inurba_marseille","lat":43.29756,"lon":5.42776,"is_reserved":false,"is_disabled":false,"rental_uris":{"android":"levelo://app?vid=641b863c-a59f-4c4a-9dd7-5a69be5d3503","ios":"levelo://app?vid=641b863c-a59f-4c4a-9dd7-5a69be5d3503"},"vehicle_type_id":"4","last_reported":1768389178,"current_range_meters":9600,"station_id":"st_d3md5207bmas73dh9klg","pricing_plan_id":"cebpf4jnsgd1na2vs0mg"},{"bike_id":"7c326d90-31eb-4853-9a15-5c3c9d97a630","system_id":"levelo_inurba_marseille","lat":43.28866,"lon":5.37786,"is_reserved":false,"is_disabled":false,"rental_uris":{"android":"levelo://app?vid=7c326d90-31eb-4853-9a15-5c3c9d97a630","ios":"levelo://app?vid=7c326d90-31eb-4853-9a15-5c3c9d97a630"},"vehicle_type_id":"4","last_reported":1768389178,"current_range_meters":9600,"station_id":"","pricing_plan_id":"cebpf4jnsgd1na2vs0mg"},{"bike_id":"83b24877-4fa1-4cbc-9729-5d9b1f26a09d","system_id":"levelo_inurba_marseille","lat":43.29652,"lon":5.39164,"is_reserved":false,"is_disabled":false,"rental_uris":{"android":"levelo://app?vid=83b24877-4fa1-4cbc-9729-5d9b1f26a09d","ios":"levelo://app?vid=83b24877-4fa1-4cbc-9729-5d9b1f26a09d"},"vehicle_type_id":"4","last_reported":1768389178,"current_range_meters":9600,"station_id":"","pricing_plan_id":"cebpf4jnsgd1na2vs0mg"},{"bike_id":"120cc349-17d0-4351-9d3c-7ae6e8597071","system_id":"levelo_inurba_marseille","lat":43.30537,"lon":5.36556,"is_reserved":false,"is_disabled":false,"rental_uris":{"android":"levelo://app?vid=120cc349-17d0-4351-9d3c-7ae6e8597071","ios":"levelo://app?vid=120cc349-17d0-4351-9d3c-7ae6e8597071"},"vehicle_type_id":"4","last_reported":1768389178,"current_range_meters":9600,"station_id":"ce4bgs12rcd13ifvqcag","pricing_plan_id":"cebpf4jnsgd1na2vs0mg"},{"bike_id":"03bea929-ded9-4f0a-b535-3ced67ddbf39","system_id":"levelo_inurba_marseille","lat":43.24639,"lon":5.43145,"is_reserved":false,"is_disabled":false,"rental_uris":{"android":"levelo://app?vid=03bea929-ded9-4f0a-b535-3ced67ddbf39","ios":"levelo://app?vid=03bea929-ded9-4f0a-b535-3ced67ddbf39"},"vehicle_type_id":"4","last_reported":1768389178,"current_range_meters":9600,"station_id":"st_d2m6c4gdas8pm72e190g","pricing_plan_id":"cebpf4jnsgd1na2vs0mg"},{"bike_id":"ce705002-36e9-4a86-ba6d-0f075dbe99d7","system_id":"levelo_inurba_marseille","lat":43.29768,"lon":5.36243,"is_reserved":false,"is_disabled":false,"rental_uris":{"android":"levelo://app?vid=ce705002-36e9-4a86-ba6d-0f075dbe99d7","ios":"levelo://app?vid=ce705002-36e9-4a86-ba6d-0f075dbe99d7"},"vehicle_type_id":"4","last_reported":1768389178,"current_range_meters":9600,"station_id":"","pricing_plan_id":"cebpf4jnsgd1na2vs0mg"},