{"last_updated":1727629587,"ttl":60,"version":"2.2","data":{"bikes":[{"bike_id":"fc63f147-84a5-415c-bb98-25ba16874896","system_id":"levelo_inurba_marseille","lat":43.23194,"lon":5.35558,"is_reserved":false,"is_disabled":false,"rental_uris":{"android":"levelo://app?vid=fc63f147-84a5-415c-bb98-25ba16874896","ios":"levelo://app?vid=fc63f147-84a5-415c-bb98-25ba16874896"},"vehicle_type_id":"4","last_reported":1727629587,"current_range_meters":38800,"station_id":"ce4bhu92rcd13ifvqi70","pricing_plan_id":"cebpf4jnsgd1na2vs0mg"},{"bike_id":"81095694-67c9-432f-9794-7bda73dcf5c5","system_id":"levelo_inurba_marseille","lat":43.23191,"lon":5.35566,"is_reserved":false,"is_disabled":false,"rental_uris":{"android":"levelo://app?vid=81095694-67c9-432f-9794-7bda73dcf5c5","ios":"levelo://app?vid=81095694-67c9-432f-9794-7bda73dcf5c5"},"vehicle_type_id":"4","last_reported":1727629587,"current_range_meters":38800,"station_id":"ce4bhu92rcd13ifvqi70","pricing_plan_id":"cebpf4jnsgd1na2vs0mg"},{"bike_id":"f3b66d61-a485-40e6-8d85-a2de5d60618f","system_id":"levelo_inurba_marseille","lat":43.29911,"lon":5.40182,"is_reserved":false,"is_disabled":false,"rental_uris":{"android":"levelo://app?vid=f3b66d61-a485-40e6-8d85-a2de5d60618f","ios":"levelo://app?vid=f3b66d61-a485-40e6-8d85-a2de5d60618f"},"vehicle_type_id":"4","last_reported":1727629587,"current_range_meters":12400,"station_id":"ce4bho92rcd13ifvqh4g","pricing_plan_id":"cebpf4jnsgd1na2vs0mg"},{"bike_id":"0ea9e4c4-cc08-41d9-862d-a80f7d54740c","system_id":"levelo_inurba_marseille","lat":43.3268,"lon":5.37494,"is_reserved":false,"is_disabled":false,"rental_uris":{"android":"levelo://app?vid=0ea9e4c4-cc08-41d9-862d-a80f7d54740c","ios":"levelo://app?vid=0ea9e4c4-cc08-41d9-862d-a80f7d54740c"},"vehicle_type_id":"4","last_reported":1727629587,"current_range_meters":36000,"station_id":"","pricing_plan_id":"cebpf4jnsgd1na2vs0mg"},{"bike_id":"431acd76-2fda-479a-af23-895917a7252a","system_id":"levelo_inurba_marseille","lat":43.32313,"lon":5.38529,"is_reserved":false,"is_disabled":false,"rental_uris":{"android":"levelo://app?vid=431acd76-2fda-479a-af23-895917a7252a","ios":"levelo://app?vid=431acd76-2fda-479a-af23-895917a7252a"},"vehicle_type_id":"4","last_reported":1727629587,"current_range_meters":22800,"station_id":"","pricing_plan_id":"cebpf4jnsgd1na2vs0mg"},{"bike_id":"d4c74265-2442-4454-aa29-65e3cce400cc","system_id":"levelo_inurba_marseille","lat":43.32331,"lon":5.38516,"is_reserved":false,"is_disabled":false,"rental_uris":{"android":"levelo://app?vid=d4c74265-2442-4454-aa29-65e3cce400cc","ios":"levelo://app?vid=d4c74265-2442-4454-aa29-65e3cce400cc"},"vehicle_type_id":"4","last_reported":1727629587,"current_range_meters":37600,"station_id":"","pricing_plan_id":"cebpf4jnsgd1na2vs0mg"},{"bike_id":"63ee71f4-b484-4969-a1f1-8669f6bdc22e","system_id":"levelo_inurba_marseille","lat":43.2655,"lon":5.37287,"is_reserved":false,"is_disabled":false,"rental_uris":{"android":"levelo://app?vid=63ee71f4-b484-4969-a1f1-8669f6bdc22e","ios":"levelo://app?vid=63ee71f4-b484-4969-a1f1-8669f6bdc22e"},"vehicle_type_id":"4","last_reported":1727629587,"current_range_meters":8000,"station_id":"ce4bhg12rcd13ifvqf70","pricing_plan_id":"cebpf4jnsgd1na2vs0mg"},{"bike_id":"9a47dcb1-61bb-411f-affb-55731480b4cc","system_id":"levelo_inurba_marseille","lat":43.23955,"lon":5.36642,"is_reserved":false,"is_disabled":false,"rental_uris":{"android":"levelo://app?vid=9a47dcb1-61bb-411f-affb-55731480b4cc","ios":"levelo://app?vid=9a47dcb1-61bb-411f-affb-55731480b4cc"},"vehicle_type_id":"4","last_reported":1727629587,"current_range_meters":36800,"station_id":"ce4bhi12rcd13ifvqfp0","pricing_plan_id":"cebpf4jnsgd1na2vs0mg"},{"bike_id":"9cdd9873-d8e7-4fc8-a830-5012ebfc6087","system_id":"levelo_inurba_marseille","lat":43.265923,"lon":5.380906,"is_reserved":false,"is_disabled":false,"rental_uris":{"android":"levelo://app?vid=9cdd9873-d8e7-4fc8-a830-5012ebfc6087","ios":"levelo://app?vid=9cdd9873-d8e7-4fc8-a830-5012ebfc6087"},"vehicle_type_id":"4","last_reported":1727629587,"current_range_meters":11600,"station_id":"ce4bhg92rcd13ifvqf90","pricing_plan_id":"cebpf4jnsgd1na2vs0mg"},{"bike_id":"ea6d877b-5181-4f29-a8e9-363c5c8a5da3","system_id":"levelo_inurba_marseille","lat":43.27811,"lon":5.40727,"is_reserved":false,"is_disabled":false,"rental_uris":{"android":"levelo://app?vid=ea6d877b-5181-4f29-a8e9-363c5c8a5da3","ios":"levelo://app?vid=ea6d877b-5181-4f29-a8e9-363c5c8a5da3"},"vehicle_type_id":"4","last_reported":1727629587,"current_range_meters":18800,"station_id":"ce4bhnh2rcd13ifvqgtg","pricing_plan_id":"cebpf4jnsgd1na2vs0mg"},{"bike_id":"96aec292-b5f8-4eb1-ace4-a5b0b63e6ac7","system_id":"levelo_inurba_marseille","lat":43.28153,"lon":5.42648,"is_reserved":false,"is_disabled":false,"rental_uris":{"android":"levelo://app?vid=96aec292-b5f8-4eb1-ace4-a5b0b63e6ac7","ios":"levelo://app?vid=96aec292-b5f8-4eb1-ace4-a5b0b63e6ac7"},"vehicle_type_id":"4","last_reported":1727629587,"current_range_meters":33600,"station_id":"ce4bhnh2rcd13ifvqgug","pricing_plan_id":"cebpf4jnsgd1na2vs0mg"},{"bike_id":"8d1a489d-3857-43f6-98f6-b64deae8c6ee","system_id":"levelo_inurba_marseille","lat":43.2987,"lon":5.3974,"is_reserved":false,"is_disabled":false,"rental_uris":{"android":"levelo://app?vid=8d1a489d-3857-43f6-98f6-b64deae8c6ee","ios":"levelo://app?vid=8d1a489d-3857-43f6-98f6-b64deae8c6ee"},"vehicle_type_id":"4","last_reported":1727629587,"current_range_meters":36400,"station_id":"ce4bh0h2rcd13ifvqd50","pricing_plan_id":"cebpf4jnsgd1na2vs0mg"},{"bike_id":"2c6c816a-e290-431a-b493-613db26d1ea8","system_id":"levelo_inurba_marseille","lat":43.30895,"lon":5.3966,"is_reserved":false,"is_disabled":false,"rental_uris":{"android":"levelo://app?vid=2c6c816a-e290-431a-b493-613db26d1ea8","ios":"levelo://app?vid=2c6c816a-e290-431a-b493-613db26d1ea8"},"vehicle_type_id":"4","last_reported":1727629587,"current_range_meters":8400,"station_id":"ce4bh012rcd13ifvqcv0","pricing_plan_id":"cebpf4jnsgd1na2vs0mg"},{"bike_id":"0521cc37-3a0f-4bc8-964a-96f026706e98","system_id":"levelo_inurba_marseille","lat":43.28011,"lon":5.36072,"is_reserved":false,"is_disabled":false,"rental_uris":{"android":"levelo://app?vid=0521cc37-3a0f-4bc8-964a-96f026706e98","ios":"levelo://app?vid=0521cc37-3a0f-4bc8-964a-96f026706e98"},"vehicle_type_id":"4","last_reported":1727629587,"current_range_meters":23200,"station_id":"","pricing_plan_id":"cebpf4jnsgd1na2vs0mg"},{"bike_id":"77c81e87-58ef-42bb-84ad-9b824a5b5b11","system_id":"levelo_inurba_marseille","lat":43.31484,"lon":5.37311,"is_reserved":false,"is_disabled":false,"rental_uris":{"android":"levelo://app?vid=77c81e87-58ef-42bb-84ad-9b824a5b5b11","ios":"levelo://app?vid=77c81e87-58ef-42bb-84ad-9b824a5b5b11"},"vehicle_type_id":"4","last_reported":1727629587,"current_range_meters":12400,"station_id":"ce4bgt12rcd13ifvqcd0","pricing_plan_id":"cebpf4jnsgd1na2vs0mg"},{"bike_id":"1ce7c25b-6bd2-4b64-b4ae-543ea784fc5d","system_id":"levelo_inurba_marseille","lat":43.337444,"lon":5.374475,"is_reserved":false,"is_disabled":false,"rental_uris":{"android":"levelo://app?vid=1ce7c25b-6bd2-4b64-b4ae-543ea784fc5d","ios":"levelo://app?vid=1ce7c25b-6bd2-4b64-b4ae-543ea784fc5d"},"vehicle_type_id":"4","last_reported":1727629587,"current_range_meters":32000,"station_id":"","pricing_plan_id":"cebpf4jnsgd1na2vs0mg"},{"bike_id":"f2cec66c-2fa4-4b45-8216-d6c9099d1621","system_id":"levelo_inurba_marseille","lat":43.23963,"lon":5.36622,"is_reserved":false,"is_disabled":false,"rental_uris":{"android":"levelo://app?vid=f2cec66c-2fa4-4b45-8216-d6c9099d1621","ios":"levelo://app?vid=f2cec66c-2fa4-4b45-8216-d6c9099d1621"},"vehicle_type_id":"4","last_reported":1727629587,"current_range_meters":10800,"station_id":"ce4bhi12rcd13ifvqfp0","pricing_plan_id":"cebpf4jnsgd1na2vs0mg"},{"bike_id":"eeb4b54b-284a-4a51-af38-bfe005d55c3e","system_id":"levelo_inurba_marseille","lat":43.24808,"lon":5.37452,"is_reserved":false,"is_disabled":false,"rental_uris":{"android":"levelo://app?vid=eeb4b54b-284a-4a51-af38-bfe005d55c3e","ios":"levelo://app?vid=eeb4b54b-284a-4a51-af38-bfe005d55c3e"},"vehicle_type_id":"4","last_reported":1727629587,"current_range_meters":38800,"station_id":"ce4bhgh2rcd13ifvqfb0","pricing_plan_id":"cebpf4jnsgd1na2vs0mg"},{"bike_id":"01415abe-8e98-4433-bed9-53d2fb56ea30","system_id":"levelo_inurba_marseille","lat":43.2833,"lon":5.38545,"is_reserved":false,"is_disabled":false,"rental_uris":{"android":"levelo://app?vid=01415abe-8e98-4433-bed9-53d2fb56ea30","ios":"levelo://app?vid=01415abe-8e98-4433-bed9-53d2fb56ea30"},"vehicle_type_id":"4","last_reported":1727629587,"current_range_meters":24800,"station_id":"","pricing_plan_id":"cebpf4jnsgd1na2vs0mg"},{"bike_id":"0c6a3edd-0259-43fd-a8d1-3d4bb6023605","system_id":"levelo_inurba_marseille","lat":43.2439,"lon":5.37053,"is_reserved":false,"is_disabled":false,"rental_uris":{"android":"levelo://app?vid=0c6a3edd-0259-43fd-a8d1-3d4bb6023605","ios":"levelo://app?vid=0c6a3edd-0259-43fd-a8d1-3d4bb6023605"},"vehicle_type_id":"4","last_reported":1727629587,"current_range_meters":38800,"station_id":"ce4bhhh2rcd13ifvqfk0","pricing_plan_id":"cebpf4jnsgd1na2vs0mg"},{"bike_id":"6a5e2183-9386-4a43-9491-1450489af833","system_id":"levelo_inurba_marseille","lat":43.24083,"lon":5.37751,"is_reserved":false,"is_disabled":false,"rental_uris":{"android":"levelo://app?vid=6a5e2183-9386-4a43-9491-1450489af833","ios":"levelo://app?vid=6a5e2183-9386-4a43-9491-1450489af833"},"vehicle_type_id":"4","last_reported":1727629587,"current_range_meters":28400,"station_id":"ce4bhnp2rcd13ifvqgvg","pricing_plan_id":"cebpf4jnsgd1na2vs0mg"},{"bike_id":"08e7508f-1589-4962-ae84-39b9c643d138","system_id":"levelo_inurba_marseille","lat":43.29953,"lon":5.413182,"is_reserved":false,"is_disabled":false,"rental_uris":{"android":"levelo://app?vid=08e7508f-1589-4962-ae84-39b9c643d138","ios":"levelo://app?vid=08e7508f-1589-4962-ae84-39b9c643d138"},"vehicle_type_id":"4","last_reported":1727629587,"current_range_meters":12000,"station_id":"ce4bhp12rcd13ifvqh9g","pricing_plan_id":"cebpf4jnsgd1na2vs0mg"},{"bike_id":"6a52f468-9bf5-46c2-819d-2c732c18128e","system_id":"levelo_inurba_marseille","lat":43.23961,"lon":5.36628,"is_reserved":false,"is_disabled":false,"rental_uris":{"android":"levelo://app?vid=6a52f468-9bf5-46c2-819d-2c732c18128e","ios":"levelo://app?vid=6a52f468-9bf5-46c2-819d-2c732c18128e"},"vehicle_type_id":"4","last_reported":1727629587,"current_range_meters":34800,"station_id":"ce4bhi12rcd13ifvqfp0","pricing_plan_id":"cebpf4jnsgd1na2vs0mg"},{"bike_id":"d2084bc9-c4ff-4f4a-9690-b66bb8b978c2","system_id":"levelo_inurba_marseille","lat":43.30128,"lon":5.37384,"is_reserved":false,"is_disabled":false,"rental_uris":{"android":"levelo://app?vid=d2084bc9-c4ff-4f4a-9690-b66bb8b978c2","ios":"levelo://app?vid=d2084bc9-c4ff-4f4a-9690-b66bb8b978c2"},"vehicle_type_id":"4","last_reported":1727629587,"current_range_meters":12000,"station_id":"ce4bgs92rcd13ifvqcc0","pricing_plan_id":"cebpf4jnsgd1na2vs0mg"},{"bike_id":"b7970621-381d-4d32-9d4f-e6f7117a2874","system_id":"levelo_inurba_marseille","lat":43.29564,"lon":5.42292,"is_reserved":false,"is_disabled":false,"rental_uris":{"android":"levelo://app?vid=b7970621-381d-4d32-9d4f-e6f7117a2874","ios":"levelo://app?vid=b7970621-381d-4d32-9d4f-e6f7117a2874"},"vehicle_type_id":"4","last_reported":1727629587,"current_range_meters":16800,"station_id":"ce4bhph2rcd13ifvqhdg","pricing_plan_id":"cebpf4jnsgd1na2vs0mg"},{"bike_id":"240b6ed0-de28-4b78-b2af-b6ff5eb271e9","system_id":"levelo_inurba_marseille","lat":43.23594,"lon":5.36607,"is_reserved":false,"is_disabled":false,"rental_uris":{"android":"levelo://app?vid=240b6ed0-de28-4b78-b2af-b6ff5eb271e9","ios":"levelo://app?vid=240b6ed0-de28-4b78-b2af-b6ff5eb271e9"},"vehicle_type_id":"4","last_reported":1727629587,"current_range_meters":30000,"station_id":"","pricing_plan_id":"cebpf4jnsgd1na2vs0mg"},{"bike_id":"9cab4b77-e73b-485b-9196-05681379298d","system_id":"levelo_inurba_marseille","lat":43.32322,"lon":5.38287,"is_reserved":false,"is_disabled":false,"rental_uris":{"android":"levelo://app?vid=9cab4b77-e73b-485b-9196-05681379298d","ios":"levelo://app?vid=9cab4b77-e73b-485b-9196-05681379298d"},"vehicle_type_id":"4","last_reported":1727629587,"current_range_meters":36800,"station_id":"ce4bhr12rcd13ifvqhqg","pricing_plan_id":"cebpf4jnsgd1na2vs0mg"},{"bike_id":"368dd4d1-5d47-4396-8056-2808c166fdac","system_id":"levelo_inurba_marseille","lat":43.30946,"lon":5.39035,"is_reserved":false,"is_disabled":false,"rental_uris":{"android":"levelo://app?vid=368dd4d1-5d47-4396-8056-2808c166fdac","ios":"levelo://app?vid=368dd4d1-5d47-4396-8056-2808c166fdac"},"vehicle_type_id":"4","last_reported":1727629587,"current_range_meters":2800,"station_id":"ce4bgup2rcd13ifvqco0","pricing_plan_id":"cebpf4jnsgd1na2vs0mg"},{"bike_id":"001df783-e729-4f10-b9c4-59ffbd7173f5","system_id":"levelo_inurba_marseille","lat":43.29788,"lon":5.37089,"is_reserved":false,"is_disabled":false,"rental_uris":{"android":"levelo://app?vid=001df783-e729-4f10-b9c4-59ffbd7173f5","ios":"levelo://app?vid=001df783-e729-4f10-b9c4-59ffbd7173f5"},"vehicle_type_id":"4","last_reported":1727629587,"current_range_meters":28800,"station_id":"ce4bgop2rcd13ifvqc1g","pricing_plan_id":"cebpf4jnsgd1na2vs0mg"},{"bike_id":"e2c73b2c-38b6-41a4-9a72-1ac59e60501c","system_id":"levelo_inurba_marseille","lat":43.29025,"lon":5.38131,"is_reserved":false,"is_disabled":false,"rental_uris":{"android":"levelo://app?vid=e2c73b2c-38b6-41a4-9a72-1ac59e60501c","ios":"levelo://app?vid=e2c73b2c-38b6-41a4-9a72-1ac59e60501c"},"vehicle_type_id":"4","last_reported":1727629587,"current_range_meters":36800,"station_id":"ce4bh4p2rcd13ifvqe1g","pricing_plan_id":"cebpf4jnsgd1na2vs0mg"},{"bike_id":"5b4a633f-0b63-474b-abd4-9003a7b86eed","system_id":"levelo_inurba_marseille","lat":43.32336,"lon":5.40622,"is_reserved":false,"is_disabled":false,"rental_uris":{"android":"levelo://app?vid=5b4a633f-0b63-474b-abd4-9003a7b86eed","ios":"levelo://app?vid=5b4a633f-0b63-474b-abd4-9003a7b86eed"},"vehicle_type_id":"4","last_reported":1727629587,"current_range_meters":21600,"station_id":"ce4bhq92rcd13ifvqhjg","pricing_plan_id":"cebpf4jnsgd1na2vs0mg"},{"bike_id":"e150718b-3b11-4746-aaf5-ed9fe54bd243","system_id":"levelo_inurba_marseille","lat":43.24084,"lon":5.37755,"is_reserved":false,"is_disabled":false,"rental_uris":{"android":"levelo://app?vid=e150718b-3b11-4746-aaf5-ed9fe54bd243","ios":"levelo://app?vid=e150718b-3b11-4746-aaf5-ed9fe54bd243"},"vehicle_type_id":"4","last_reported":1727629587,"current_range_meters":16800,"station_id":"ce4bhnp2rcd13ifvqgvg","pricing_plan_id":"cebpf4jnsgd1na2vs0mg"},{"bike_id":"883dbd06-c2fc-4488-9b5e-ef4f05339f9b","system_id":"levelo_inurba_marseille","lat":43.30212,"lon":5.36626,"is_reserved":false,"is_disabled":false,"rental_uris":{"android":"levelo://app?vid=883dbd06-c2fc-4488-9b5e-ef4f05339f9b","ios":"levelo://app?vid=883dbd06-c2fc-4488-9b5e-ef4f05339f9b"},"vehicle_type_id":"4","last_reported":1727629587,"current_range_meters":28800,"station_id":"ce4bgrh2rcd13ifvqc8g","pricing_plan_id":"cebpf4jnsgd1na2vs0mg"},{"bike_id":"6c8b138c-21e2-45bf-a989-ce45493ac988","system_id":"levelo_inurba_marseille","lat":43.23198,"lon":5.35549,"is_reserved":false,"is_disabled":false,"rental_uris":{"android":"levelo://app?vid=6c8b138c-21e2-45bf-a989-ce45493ac988","ios":"levelo://app?vid=6c8b138c-21e2-45bf-a989-ce45493ac988"},"vehicle_type_id":"4","last_reported":1727629587,"current_range_meters":38800,"station_id":"ce4bhu92rcd13ifvqi70","pricing_plan_id":"cebpf4jnsgd1na2vs0mg"},{"bike_id":"813e2c28-4f2a-410e-8089-6614808225c4","system_id":"levelo_inurba_marseille","lat":43.28346,"lon":5.3811,"is_reserved":false,"is_disabled":false,"rental_uris":{"android":"levelo://app?vid=813e2c28-4f2a-410e-8089-6614808225c4","ios":"levelo://app?vid=813e2c28-4f2a-410e-8089-6614808225c4"},"vehicle_type_id":"4","last_reported":1727629587,"current_range_meters":24800,"station_id":"ce4bh412rcd13ifvqdr0","pricing_plan_id":"cebpf4jnsgd1na2vs0mg"},{"bike_id":"cf2a99f0-171d-46e2-b5f9-b8e518581e33","system_id":"levelo_inurba_marseille","lat":43.23966,"lon":5.36621,"is_reserved":false,"is_disabled":false,"rental_uris":{"android":"levelo://app?vid=cf2a99f0-171d-46e2-b5f9-b8e518581e33","ios":"levelo://app?vid=cf2a99f0-171d-46e2-b5f9-b8e518581e33"},"vehicle_type_id":"4","last_reported":1727629587,"current_range_meters":32000,"station_id":"ce4bhi12rcd13ifvqfp0","pricing_plan_id":"cebpf4jnsgd1na2vs0mg"},{"bike_id":"9d69c389-2dd6-4ff3-bbc5-237a6da8c5de","system_id":"levelo_inurba_marseille","lat":43.31702,"lon":5.37734,"is_reserved":false,"is_disabled":false,"rental_uris":{"android":"levelo://app?vid=9d69c389-2dd6-4ff3-bbc5-237a6da8c5de","ios":"levelo://app?vid=9d69c389-2dd6-4ff3-bbc5-237a6da8c5de"},"vehicle_type_id":"4","last_reported":1727629587,"current_range_meters":36400,"station_id":"ce4bgth2rcd13ifvqch0","pricing_plan_id":"cebpf4jnsgd1na2vs0mg"},{"bike_id":"264d998b-8277-40d1-9be9-c64c78efa92d","system_id":"levelo_inurba_marseille","lat":43.29534,"lon":5.39408,"is_reserved":false,"is_disabled":false,"rental_uris":{"android":"levelo://app?vid=264d998b-8277-40d1-9be9-c64c78efa92d","ios":"levelo://app?vid=264d998b-8277-40d1-9be9-c64c78efa92d"},"vehicle_type_id":"4","last_reported":1727629587,"current_range_meters":5600,"station_id":"ce4bh292rcd13ifvqdf0","pricing_plan_id":"cebpf4jnsgd1na2vs0mg"},{"bike_id":"52f17877-110a-422d-89ae-fdeda162e6f3","system_id":"levelo_inurba_marseille","lat":43.23962,"lon":5.36626,"is_reserved":false,"is_disabled":false,"rental_uris":{"android":"levelo://app?vid=52f17877-110a-422d-89ae-fdeda162e6f3","ios":"levelo://app?vid=52f17877-110a-422d-89ae-fdeda162e6f3"},"vehicle_type_id":"4","last_reported":1727629587,"current_range_meters":6400,"station_id":"ce4bhi12rcd13ifvqfp0","pricing_plan_id":"cebpf4jnsgd1na2vs0mg"},{"bike_id":"c93b6d63-f099-4f2f-8f5f-d15a7e0f1a6a","system_id":"levelo_inurba_marseille","lat":43.28446,"lon":5.39204,"is_reserved":false,"is_disabled":false,"rental_uris":{"android":"levelo://app?vid=c93b6d63-f099-4f2f-8f5f-d15a7e0f1a6a","ios":"levelo://app?vid=c93b6d63-f099-4f2f-8f5f-d15a7e0f1a6a"},"vehicle_type_id":"4","last_reported":1727629587,"current_range_meters":8400,"station_id":"ce4bhoh2rcd13ifvqh5g","pricing_plan_id":"cebpf4jnsgd1na2vs0mg"},{"bike_id":"f8b18255-c3e2-4e84-b3b5-d53a069d9e0c","system_id":"levelo_inurba_marseille","lat":43.23964,"lon":5.3662,"is_reserved":false,"is_disabled":false,"rental_uris":{"android":"levelo://app?vid=f8b18255-c3e2-4e84-b3b5-d53a069d9e0c","ios":"levelo://app?vid=f8b18255-c3e2-4e84-b3b5-d53a069d9e0c"},"vehicle_type_id":"4","last_reported":1727629587,"current_range_meters":4800,"station_id":"ce4bhi12rcd13ifvqfp0","pricing_plan_id":"cebpf4jnsgd1na2vs0mg"},{"bike_id":"124cc49e-bc3f-4ee2-96b6-78f4c29aba27","system_id":"levelo_inurba_marseille","lat":43.2501,"lon":5.38916,"is_reserved":false,"is_disabled":false,"rental_uris":{"android":"levelo://app?vid=124cc49e-bc3f-4ee2-96b6-78f4c29aba27","ios":"levelo://app?vid=124cc49e-bc3f-4ee2-96b6-78f4c29aba27"},"vehicle_type_id":"4","last_reported":1727629587,"current_range_meters":22800,"station_id":"ce4bhgp2rcd13ifvqfd0","pricing_plan_id":"cebpf4jnsgd1na2vs0mg"},{"bike_id":"fd14ba81-3f44-4ac1-b066-8941269a20c6","system_id":"levelo_inurba_marseille","lat":43.2926,"lon":5.42672,"is_reserved":false,"is_disabled":false,"rental_uris":{"android":"levelo://app?vid=fd14ba81-3f44-4ac1-b066-8941269a20c6","ios":"levelo://app?vid=fd14ba81-3f44-4ac1-b066-8941269a20c6"},"vehicle_type_id":"4","last_reported":1727629587,"current_range_meters":18800,"station_id":"ce4bhnh2rcd13ifvqgug","pricing_plan_id":"cebpf4jnsgd1na2vs0mg"},{"bike_id":"e0546139-a5ea-4f3c-86de-3abebf300b84","system_id":"levelo_inurba_marseille","lat":43.23973,"lon":5.36628,"is_reserved":false,"is_disabled":false,"rental_uris":{"android":"levelo://app?vid=e0546139-a5ea-4f3c-86de-3abebf300b84","ios":"levelo://app?vid=e0546139-a5ea-4f3c-86de-3abebf300b84"},"vehicle_type_id":"4","last_reported":1727629587,"current_range_meters":38800,"station_id":"ce4bhi12rcd13ifvqfp0","pricing_plan_id":"cebpf4jnsgd1na2vs0mg"},{"bike_id":"580725f5-deff-4696-9eab-76f574f072b0","system_id":"levelo_inurba_marseille","lat":43.29875,"lon":5.39741,"is_reserved":false,"is_disabled":false,"rental_uris":{"android":"levelo://app?vid=580725f5-deff-4696-9eab-76f574f072b0","ios":"levelo://app?vid=580725f5-deff-4696-9eab-76f574f072b0"},"vehicle_type_id":"4","last_reported":1727629587,"current_range_meters":26800,"station_id":"ce4bh0h2rcd13ifvqd50","pricing_plan_id":"cebpf4jnsgd1na2vs0mg"},{"bike_id":"d7ef811d-49c8-4c74-812f-8dd1bca16a06","system_id":"levelo_inurba_marseille","lat":43.26193,"lon":5.37455,"is_reserved":false,"is_disabled":false,"rental_uris":{"android":"levelo://app?vid=d7ef811d-49c8-4c74-812f-8dd1bca16a06","ios":"levelo://app?vid=d7ef811d-49c8-4c74-812f-8dd1bca16a06"},"vehicle_type_id":"4","last_reported":1727629587,"current_range_meters":28400,"station_id":"ce4bhgp2rcd13ifvqfc0","pricing_plan_id":"cebpf4jnsgd1na2vs0mg"},{"bike_id":"9116828f-d560-4357-84f5-0b8af952d459","system_id":"levelo_inurba_marseille","lat":43.23194,"lon":5.35556,"is_reserved":false,"is_disabled":false,"rental_uris":{"android":"levelo://app?vid=9116828f-d560-4357-84f5-0b8af952d459","ios":"levelo://app?vid=9116828f-d560-4357-84f5-0b8af952d459"},"vehicle_type_id":"4","last_reported":1727629587,"current_range_meters":20800,"station_id":"ce4bhu92rcd13ifvqi70","pricing_plan_id":"cebpf4jnsgd1na2vs0mg"},{"bike_id":"07ab11cd-dbaf-44b3-96fc-9f1de1d31415","system_id":"levelo_inurba_marseille","lat":43.23197,"lon":5.35555,"is_reserved":false,"is_disabled":false,"rental_uris":{"android":"levelo://app?vid=07ab11cd-dbaf-44b3-96fc-9f1de1d31415","ios":"levelo://app?vid=07ab11cd-dbaf-44b3-96fc-9f1de1d31415"},"vehicle_type_id":"4","last_reported":1727629587,"current_range_meters":22000,"station_id":"ce4bhu92rcd13ifvqi70","pricing_plan_id":"cebpf4jnsgd1na2vs0mg"},{"bike_id":"c5d045c3-9a7f-46a4-a2ea-bfc8a83cf1e2","system_id":"levelo_inurba_marseille","lat":43.27838,"lon":5.39216,"is_reserved":false,"is_disabled":false,"rental_uris":{"android":"levelo://app?vid=c5d045c3-9a7f-46a4-a2ea-bfc8a83cf1e2","ios":"levelo://app?vid=c5d045c3-9a7f-46a4-a2ea-bfc8a83cf1e2"},"vehicle_type_id":"4","last_reported":1727629587,"current_range_meters":25600,"station_id":"ce4bhjp2rcd13ifvqga0","pricing_plan_id":"cebpf4jnsgd1na2vs0mg"},{"bike_id":"408d9401-5194-45b1-948e-a2c15040c41f","system_id":"levelo_inurba_marseille","lat":43.23198,"lon":5.35545,"is_reserved":false,"is_disabled":false,"rental_uris":{"android":"levelo://app?vid=408d9401-5194-45b1-948e-a2c15040c41f","ios":"levelo://app?vid=408d9401-5194-45b1-948e-a2c15040c41f"},"vehicle_type_id":"4","last_reported":1727629587,"current_range_meters":16000,"station_id":"ce4bhu92rcd13ifvqi70","pricing_plan_id":"cebpf4jnsgd1na2vs0mg"},{"bike_id":"94fdfe10-8c09-41e0-b800-38c859b3f321","system_id":"levelo_inurba_marseille","lat":43.32917,"lon":5.39071,"is_reserved":false,"is_disabled":false,"rental_uris":{"android":"levelo://app?vid=94fdfe10-8c09-41e0-b800-38c859b3f321","ios":"levelo://app?vid=94fdfe10-8c09-41e0-b800-38c859b3f321"},"vehicle_type_id":"4","last_reported":1727629587,"current_range_meters":37600,"station_id":"","pricing_plan_id":"cebpf4jnsgd1na2vs0mg"},{"bike_id":"4d77a95e-882f-40bf-b9b0-318925f283ac","system_id":"levelo_inurba_marseille","lat":43.31121,"lon":5.37775,"is_reserved":false,"is_disabled":false,"rental_uris":{"android":"levelo://app?vid=4d77a95e-882f-40bf-b9b0-318925f283ac","ios":"levelo://app?vid=4d77a95e-882f-40bf-b9b0-318925f283ac"},"vehicle_type_id":"4","last_reported":1727629587,"current_range_meters":37600,"station_id":"ce4bgt92rcd13ifvqcg0","pricing_plan_id":"cebpf4jnsgd1na2vs0mg"},{"bike_id":"3a33dbcc-abdf-4fc2-9e66-67baa98e356e","system_id":"levelo_inurba_marseille","lat":43.27974,"lon":5.38738,"is_reserved":false,"is_disabled":false,"rental_uris":{"android":"levelo://app?vid=3a33dbcc-abdf-4fc2-9e66-67baa98e356e","ios":"levelo://app?vid=3a33dbcc-abdf-4fc2-9e66-67baa98e356e"},"vehicle_type_id":"4","last_reported":1727629587,"current_range_meters":8400,"station_id":"ce4bhg12rcd13ifvqf80","pricing_plan_id":"cebpf4jnsgd1na2vs0mg"},{"bike_id":"921741de-4af2-4ea5-a92b-98e3525c8571","system_id":"levelo_inurba_marseille","lat":43.24078,"lon":5.3776,"is_reserved":false,"is_disabled":false,"rental_uris":{"android":"levelo://app?vid=921741de-4af2-4ea5-a92b-98e3525c8571","ios":"levelo://app?vid=921741de-4af2-4ea5-a92b-98e3525c8571"},"vehicle_type_id":"4","last_reported":1727629587,"current_range_meters":12800,"station_id":"ce4bhnp2rcd13ifvqgvg","pricing_plan_id":"cebpf4jnsgd1na2vs0mg"},{"bike_id":"f6bde5fa-4a9a-467a-9b94-8abab37204e4","system_id":"levelo_inurba_marseille","lat":43.27621,"lon":5.36107,"is_reserved":false,"is_disabled":false,"rental_uris":{"android":"levelo://app?vid=f6bde5fa-4a9a-467a-9b94-8abab37204e4","ios":"levelo://app?vid=f6bde5fa-4a9a-467a-9b94-8abab37204e4"},"vehicle_type_id":"4","last_reported":1727629587,"current_range_meters":35200,"station_id":"ce4bgj92rcd13ifvqbe0","pricing_plan_id":"cebpf4jnsgd1na2vs0mg"},{"bike_id":"3c1e445d-11e2-4e7e-8acd-563f63df6165","system_id":"levelo_inurba_marseille","lat":43.29876,"lon":5.39735,"is_reserved":false,"is_disabled":false,"rental_uris":{"android":"levelo://app?vid=3c1e445d-11e2-4e7e-8acd-563f63df6165","ios":"levelo://app?vid=3c1e445d-11e2-4e7e-8acd-563f63df6165"},"vehicle_type_id":"4","last_reported":1727629587,"current_range_meters":38800,"station_id":"ce4bh0h2rcd13ifvqd50","pricing_plan_id":"cebpf4jnsgd1na2vs0mg"},{"bike_id":"89319f78-0e5f-4e10-837e-7463227de8fc","system_id":"levelo_inurba_marseille","lat":43.28611,"lon":5.37061,"is_reserved":false,"is_disabled":false,"rental_uris":{"android":"levelo://app?vid=89319f78-0e5f-4e10-837e-7463227de8fc","ios":"levelo://app?vid=89319f78-0e5f-4e10-837e-7463227de8fc"},"vehicle_type_id":"4","last_reported":1727629587,"current_range_meters":10800,"station_id":"ce4bht12rcd13ifvqi60","pricing_plan_id":"cebpf4jnsgd1na2vs0mg"},{"bike_id":"40af7eb4-6cd7-462c-b9fb-34273e78aa71","system_id":"levelo_inurba_marseille","lat":43.24083,"lon":5.37765,"is_reserved":false,"is_disabled":false,"rental_uris":{"android":"levelo://app?vid=40af7eb4-6cd7-462c-b9fb-34273e78aa71","ios":"levelo://app?vid=40af7eb4-6cd7-462c-b9fb-34273e78aa71"},"vehicle_type_id":"4","last_reported":1727629587,"current_range_meters":10000,"station_id":"ce4bhnp2rcd13ifvqgvg","pricing_plan_id":"cebpf4jnsgd1na2vs0mg"},{"bike_id":"a63d4449-4f5a-4f1c-9a3c-27c8d74bd2a3","system_id":"levelo_inurba_marseille","lat":43.24395,"lon":5.37063,"is_reserved":false,"is_disabled":false,"rental_uris":{"android":"levelo://app?vid=a63d4449-4f5a-4f1c-9a3c-27c8d74bd2a3","ios":"levelo://app?vid=a63d4449-4f5a-4f1c-9a3c-27c8d74bd2a3"},"vehicle_type_id":"4","last_reported":1727629587,"current_range_meters":9200,"station_id":"ce4bhhh2rcd13ifvqfk0","pricing_plan_id":"cebpf4jnsgd1na2vs0mg"},{"bike_id":"67ffd6f3-fea5-4bda-84fd-9e85d557bf8a","system_id":"levelo_inurba_marseille","lat":43.26213,"lon":5.37445,"is_reserved":false,"is_disabled":false,"rental_uris":{"android":"levelo://app?vid=67ffd6f3-fea5-4bda-84fd-9e85d557bf8a","ios":"levelo://app?vid=67ffd6f3-fea5-4bda-84fd-9e85d557bf8a"},"vehicle_type_id":"4","last_reported":1727629587,"current_range_meters":30400,"station_id":"ce4bhgp2rcd13ifvqfc0","pricing_plan_id":"cebpf4jnsgd1na2vs0mg"},{"bike_id":"cd525fe5-ea60-46c0-bd29-b850f527988a","system_id":"levelo_inurba_marseille","lat":43.29558,"lon":5.42286,"is_reserved":false,"is_disabled":false,"rental_uris":{"android":"levelo://app?vid=cd525fe5-ea60-46c0-bd29-b850f527988a","ios":"levelo://app?vid=cd525fe5-ea60-46c0-bd29-b850f527988a"},"vehicle_type_id":"4","last_reported":1727629587,"current_range_meters":38000,"station_id":"ce4bhph2rcd13ifvqhdg","pricing_plan_id":"cebpf4jnsgd1na2vs0mg"},{"bike_id":"7eda30fe-d024-4258-b0e3-cac7d23be01b","system_id":"levelo_inurba_marseille","lat":43.24809,"lon":5.37456,"is_reserved":false,"is_disabled":false,"rental_uris":{"android":"levelo://app?vid=7eda30fe-d024-4258-b0e3-cac7d23be01b","ios":"levelo://app?vid=7eda30fe-d024-4258-b0e3-cac7d23be01b"},"vehicle_type_id":"4","last_reported":1727629587,"current_range_meters":22000,"station_id":"ce4bhgh2rcd13ifvqfb0","pricing_plan_id":"cebpf4jnsgd1na2vs0mg"},{"bike_id":"bc7dc6a9-589f-4649-9e06-6ce7434d3293","system_id":"levelo_inurba_marseille","lat":43.2905,"lon":5.36949,"is_reserved":false,"is_disabled":false,"rental_uris":{"android":"levelo://app?vid=bc7dc6a9-589f-4649-9e06-6ce7434d3293","ios":"levelo://app?vid=bc7dc6a9-589f-4649-9e06-6ce7434d3293"},"vehicle_type_id":"4","last_reported":1727629587,"current_range_meters":25200,"station_id":"ce4bhah2rcd13ifvqej0","pricing_plan_id":"cebpf4jnsgd1na2vs0mg"},{"bike_id":"1fca37a0-f9fe-4423-a8a1-16a4ed711350","system_id":"levelo_inurba_marseille","lat":43.28862,"lon":5.39315,"is_reserved":false,"is_disabled":false,"rental_uris":{"android":"levelo://app?vid=1fca37a0-f9fe-4423-a8a1-16a4ed711350","ios":"levelo://app?vid=1fca37a0-f9fe-4423-a8a1-16a4ed711350"},"vehicle_type_id":"4","last_reported":1727629587,"current_range_meters":38800,"station_id":"ce4bh2p2rcd13ifvqdi0","pricing_plan_id":"cebpf4jnsgd1na2vs0mg"},{"bike_id":"efaa473e-89cc-48dc-8692-aea827ab8f1c","system_id":"levelo_inurba_marseille","lat":43.286669,"lon":5.363442,"is_reserved":false,"is_disabled":false,"rental_uris":{"android":"levelo://app?vid=efaa473e-89cc-48dc-8692-aea827ab8f1c","ios":"levelo://app?vid=efaa473e-89cc-48dc-8692-aea827ab8f1c"},"vehicle_type_id":"4","last_reported":1727629587,"current_range_meters":19200,"station_id":"ce4bhjp2rcd13ifvqga0","pricing_plan_id":"cebpf4jnsgd1na2vs0mg"},{"bike_id":"00eb24e1-f0df-4ba7-b5da-994e66c8203d","system_id":"levelo_inurba_marseille","lat":43.285823,"lon":5.370284,"is_reserved":false,"is_disabled":false,"rental_uris":{"android":"levelo://app?vid=00eb24e1-f0df-4ba7-b5da-994e66c8203d","ios":"levelo://app?vid=00eb24e1-f0df-4ba7-b5da-994e66c8203d"},"vehicle_type_id":"4","last_reported":1727629587,"current_range_meters":15200,"station_id":"ce4bhap2rcd13ifvqek0","pricing_plan_id":"cebpf4jnsgd1na2vs0mg"},{"bike_id":"80888999-8ba1-47f2-9028-e8a1f3b64255","system_id":"levelo_inurba_marseille","lat":43.24673,"lon":5.38158,"is_reserved":false,"is_disabled":false,"rental_uris":{"android":"levelo://app?vid=80888999-8ba1-47f2-9028-e8a1f3b64255","ios":"levelo://app?vid=80888999-8ba1-47f2-9028-e8a1f3b64255"},"vehicle_type_id":"4","last_reported":1727629587,"current_range_meters":25200,"station_id":"ce4bhih2rcd13ifvqfr0","pricing_plan_id":"cebpf4jnsgd1na2vs0mg"},{"bike_id":"8efa76d1-2607-4a69-86be-e5f2e5f25df1","system_id":"levelo_inurba_marseille","lat":43.26571,"lon":5.39007,"is_reserved":false,"is_disabled":false,"rental_uris":{"android":"levelo://app?vid=8efa76d1-2607-4a69-86be-e5f2e5f25df1","ios":"levelo://app?vid=8efa76d1-2607-4a69-86be-e5f2e5f25df1"},"vehicle_type_id":"4","last_reported":1727629587,"current_range_meters":19200,"station_id":"ce4bhe12rcd13ifvqf30","pricing_plan_id":"cebpf4jnsgd1na2vs0mg"},{"bike_id":"9b8aef9a-2b3c-4254-98b7-474d88c91d56","system_id":"levelo_inurba_marseille","lat":43.297974,"lon":5.381057,"is_reserved":false,"is_disabled":false,"rental_uris":{"android":"levelo://app?vid=9b8aef9a-2b3c-4254-98b7-474d88c91d56","ios":"levelo://app?vid=9b8aef9a-2b3c-4254-98b7-474d88c91d56"},"vehicle_type_id":"4","last_reported":1727629587,"current_range_meters":17600,"station_id":"ce4bgip2rcd13ifvqbb0","pricing_plan_id":"cebpf4jnsgd1na2vs0mg"},{"bike_id":"ed84faff-17c5-48fb-8753-c2f883b40c1d","system_id":"levelo_inurba_marseille","lat":43.23967,"lon":5.36636,"is_reserved":false,"is_disabled":false,"rental_uris":{"android":"levelo://app?vid=ed84faff-17c5-48fb-8753-c2f883b40c1d","ios":"levelo://app?vid=ed84faff-17c5-48fb-8753-c2f883b40c1d"},"vehicle_type_id":"4","last_reported":1727629587,"current_range_meters":37600,"station_id":"ce4bhi12rcd13ifvqfp0","pricing_plan_id":"cebpf4jnsgd1na2vs0mg"},{"bike_id":"29f38da5-2fff-4949-a290-5d4e17fc7555","system_id":"levelo_inurba_marseille","lat":43.24667,"lon":5.38172,"is_reserved":false,"is_disabled":false,"rental_uris":{"android":"levelo://app?vid=29f38da5-2fff-4949-a290-5d4e17fc7555","ios":"levelo://app?vid=29f38da5-2fff-4949-a290-5d4e17fc7555"},"vehicle_type_id":"4","last_reported":1727629587,"current_range_meters":28000,"station_id":"ce4bhih2rcd13ifvqfr0","pricing_plan_id":"cebpf4jnsgd1na2vs0mg"},{"bike_id":"7497ada0-4e52-442c-9aa1-86afe522b93f","system_id":"levelo_inurba_marseille","lat":43.29904,"lon":5.43663,"is_reserved":false,"is_disabled":false,"rental_uris":{"android":"levelo://app?vid=7497ada0-4e52-442c-9aa1-86afe522b93f","ios":"levelo://app?vid=7497ada0-4e52-442c-9aa1-86afe522b93f"},"vehicle_type_id":"4","last_reported":1727629587,"current_range_meters":24400,"station_id":"ce4bhpp2rcd13ifvqhfg","pricing_plan_id":"cebpf4jnsgd1na2vs0mg"},{"bike_id":"8a2141b5-4ed1-48ef-bcb9-2550c31a6897","system_id":"levelo_inurba_marseille","lat":43.2396,"lon":5.36628,"is_reserved":false,"is_disabled":false,"rental_uris":{"android":"levelo://app?vid=8a2141b5-4ed1-48ef-bcb9-2550c31a6897","ios":"levelo://app?vid=8a2141b5-4ed1-48ef-bcb9-2550c31a6897"},"vehicle_type_id":"4","last_reported":1727629587,"current_range_meters":17200,"station_id":"ce4bhi12rcd13ifvqfp0","pricing_plan_id":"cebpf4jnsgd1na2vs0mg"},{"bike_id":"f552dd11-1b7e-49e7-83e5-0ec02a2e3489","system_id":"levelo_inurba_marseille","lat":43.31115,"lon":5.3778,"is_reserved":false,"is_disabled":false,"rental_uris":{"android":"levelo://app?vid=f552dd11-1b7e-49e7-83e5-0ec02a2e3489","ios":"levelo://app?vid=f552dd11-1b7e-49e7-83e5-0ec02a2e3489"},"vehicle_type_id":"4","last_reported":1727629587,"current_range_meters":8800,"station_id":"ce4bgt92rcd13ifvqcg0","pricing_plan_id":"cebpf4jnsgd1na2vs0mg"},{"bike_id":"a2efe7bd-fe4c-4781-b119-3f59d58a7512","system_id":"levelo_inurba_marseille","lat":43.241455,"lon":5.363691,"is_reserved":false,"is_disabled":false,"rental_uris":{"android":"levelo://app?vid=a2efe7bd-fe4c-4781-b119-3f59d58a7512","ios":"levelo://app?vid=a2efe7bd-fe4c-4781-b119-3f59d58a7512"},"vehicle_type_id":"4","last_reported":1727629587,"current_range_meters":25600,"station_id":"cpo36qri1sfpv3e86is0","pricing_plan_id":"cebpf4jnsgd1na2vs0mg"},{"bike_id":"def2f0d9-0e40-4b4a-8628-1cf315714737","system_id":"levelo_inurba_marseille","lat":43.30554,"lon":5.36543,"is_reserved":false,"is_disabled":false,"rental_uris":{"android":"levelo://app?vid=def2f0d9-0e40-4b4a-8628-1cf315714737","ios":"levelo://app?vid=def2f0d9-0e40-4b4a-8628-1cf315714737"},"vehicle_type_id":"4","last_reported":1727629587,"current_range_meters":9200,"station_id":"ce4bgs12rcd13ifvqcag","pricing_plan_id":"cebpf4jnsgd1na2vs0mg"},{"bike_id":"83c5a04d-213a-461b-8aa5-105a7c11538d","system_id":"levelo_inurba_marseille","lat":43.25087,"lon":5.39521,"is_reserved":false,"is_disabled":false,"rental_uris":{"android":"levelo://app?vid=83c5a04d-213a-461b-8aa5-105a7c11538d","ios":"levelo://app?vid=83c5a04d-213a-461b-8aa5-105a7c11538d"},"vehicle_type_id":"4","last_reported":1727629587,"current_range_meters":37600,"station_id":"ce4bhm12rcd13ifvqgkg","pricing_plan_id":"cebpf4jnsgd1na2vs0mg"},{"bike_id":"530ebee0-3821-4918-8f9b-3c2003125331","system_id":"levelo_inurba_marseille","lat":43.24083,"lon":5.37751,"is_reserved":false,"is_disabled":false,"rental_uris":{"android":"levelo://app?vid=530ebee0-3821-4918-8f9b-3c2003125331","ios":"levelo://app?vid=530ebee0-3821-4918-8f9b-3c2003125331"},"vehicle_type_id":"4","last_reported":1727629587,"current_range_meters":11600,"station_id":"ce4bhnp2rcd13ifvqgvg","pricing_plan_id":"cebpf4jnsgd1na2vs0mg"},{"bike_id":"9b171863-2c43-4cbf-8fa0-e6762c2b2b1f","system_id":"levelo_inurba_marseille","lat":43.31484,"lon":5.3731,"is_reserved":false,"is_disabled":false,"rental_uris":{"android":"levelo://app?vid=9b171863-2c43-4cbf-8fa0-e6762c2b2b1f","ios":"levelo://app?vid=9b171863-2c43-4cbf-8fa0-e6762c2b2b1f"},"vehicle_type_id":"4","last_reported":1727629587,"current_range_meters":38000,"station_id":"ce4bgt12rcd13ifvqcd0","pricing_plan_id":"cebpf4jnsgd1na2vs0mg"},{"bike_id":"9f05bc58-98dc-4d91-89c9-625701f10a87","system_id":"levelo_inurba_marseille","lat":43.25107,"lon":5.40326,"is_reserved":false,"is_disabled":false,"rental_uris":{"android":"levelo://app?vid=9f05bc58-98dc-4d91-89c9-625701f10a87","ios":"levelo://app?vid=9f05bc58-98dc-4d91-89c9-625701f10a87"},"vehicle_type_id":"4","last_reported":1727629587,"current_range_meters":25600,"station_id":"ce4bhlh2rcd13ifvqgig","pricing_plan_id":"cebpf4jnsgd1na2vs0mg"},{"bike_id":"40b2ad3e-0c05-4a0d-adbf-d065a9f1e34f","system_id":"levelo_inurba_marseille","lat":43.27979,"lon":5.41653,"is_reserved":false,"is_disabled":false,"rental_uris":{"android":"levelo://app?vid=40b2ad3e-0c05-4a0d-adbf-d065a9f1e34f","ios":"levelo://app?vid=40b2ad3e-0c05-4a0d-adbf-d065a9f1e34f"},"vehicle_type_id":"4","last_reported":1727629587,"current_range_meters":28400,"station_id":"ce4bho12rcd13ifvqh1g","pricing_plan_id":"cebpf4jnsgd1na2vs0mg"},{"bike_id":"4bf17278-821c-44d9-9e1b-8440f028916f","system_id":"levelo_inurba_marseille","lat":43.2481,"lon":5.37457,"is_reserved":false,"is_disabled":false,"rental_uris":{"android":"levelo://app?vid=4bf17278-821c-44d9-9e1b-8440f028916f","ios":"levelo://app?vid=4bf17278-821c-44d9-9e1b-8440f028916f"},"vehicle_type_id":"4","last_reported":1727629587,"current_range_meters":14800,"station_id":"ce4bhgh2rcd13ifvqfb0","pricing_plan_id":"cebpf4jnsgd1na2vs0mg"},{"bike_id":"351ad424-b32f-42c8-a3ca-1b8f26e960f1","system_id":"levelo_inurba_marseille","lat":43.24667,"lon":5.3817,"is_reserved":false,"is_disabled":false,"rental_uris":{"android":"levelo://app?vid=351ad424-b32f-42c8-a3ca-1b8f26e960f1","ios":"levelo://app?vid=351ad424-b32f-42c8-a3ca-1b8f26e960f1"},"vehicle_type_id":"4","last_reported":1727629587,"current_range_meters":6000,"station_id":"ce4bhih2rcd13ifvqfr0","pricing_plan_id":"cebpf4jnsgd1na2vs0mg"},{"bike_id":"80052677-a184-47b6-b7ba-4401badcd8a9","system_id":"levelo_inurba_marseille","lat":43.32297,"lon":5.38266,"is_reserved":false,"is_disabled":false,"rental_uris":{"android":"levelo://app?vid=80052677-a184-47b6-b7ba-4401badcd8a9","ios":"levelo://app?vid=80052677-a184-47b6-b7ba-4401badcd8a9"},"vehicle_type_id":"4","last_reported":1727629587,"current_range_meters":37600,"station_id":"ce4bhr12rcd13ifvqhqg","pricing_plan_id":"cebpf4jnsgd1na2vs0mg"},{"bike_id":"ccc2a243-a811-4b7b-9d5a-f2329201cb6e","system_id":"levelo_inurba_marseille","lat":43.290314,"lon":5.375599,"is_reserved":false,"is_disabled":false,"rental_uris":{"android":"levelo://app?vid=ccc2a243-a811-4b7b-9d5a-f2329201cb6e","ios":"levelo://app?vid=ccc2a243-a811-4b7b-9d5a-f2329201cb6e"},"vehicle_type_id":"4","last_reported":1727629587,"current_range_meters":2000,"station_id":"ce4bh692rcd13ifvqe90","pricing_plan_id":"cebpf4jnsgd1na2vs0mg"},{"bike_id":"b4be6982-30b1-448c-a991-a1ec0f037018","system_id":"levelo_inurba_marseille","lat":43.25002,"lon":5.38925,"is_reserved":false,"is_disabled":false,"rental_uris":{"android":"levelo://app?vid=b4be6982-30b1-448c-a991-a1ec0f037018","ios":"levelo://app?vid=b4be6982-30b1-448c-a991-a1ec0f037018"},"vehicle_type_id":"4","last_reported":1727629587,"current_range_meters":20000,"station_id":"ce4bhgp2rcd13ifvqfd0","pricing_plan_id":"cebpf4jnsgd1na2vs0mg"},{"bike_id":"9fba07de-7c15-4708-a05e-e3705ea28bd5","system_id":"levelo_inurba_marseille","lat":43.30788,"lon":5.38163,"is_reserved":false,"is_disabled":false,"rental_uris":{"android":"levelo://app?vid=9fba07de-7c15-4708-a05e-e3705ea28bd5","ios":"levelo://app?vid=9fba07de-7c15-4708-a05e-e3705ea28bd5"},"vehicle_type_id":"4","last_reported":1727629587,"current_range_meters":25600,"station_id":"ce4bgt12rcd13ifvqce0","pricing_plan_id":"cebpf4jnsgd1na2vs0mg"},{"bike_id":"e066dc2c-b95f-4470-8cdf-2b5c7e7ec864","system_id":"levelo_inurba_marseille","lat":43.29632,"lon":5.40596,"is_reserved":false,"is_disabled":false,"rental_uris":{"android":"levelo://app?vid=e066dc2c-b95f-4470-8cdf-2b5c7e7ec864","ios":"levelo://app?vid=e066dc2c-b95f-4470-8cdf-2b5c7e7ec864"},"vehicle_type_id":"4","last_reported":1727629587,"current_range_meters":10000,"station_id":"ce4bh0h2rcd13ifvqd60","pricing_plan_id":"cebpf4jnsgd1na2vs0mg"},{"bike_id":"e6600d77-27d8-41af-a5a5-b257b2237faa","system_id":"levelo_inurba_marseille","lat":43.30246,"lon":5.40083,"is_reserved":false,"is_disabled":false,"rental_uris":{"android":"levelo://app?vid=e6600d77-27d8-41af-a5a5-b257b2237faa","ios":"levelo://app?vid=e6600d77-27d8-41af-a5a5-b257b2237faa"},"vehicle_type_id":"4","last_reported":1727629587,"current_range_meters":22800,"station_id":"ce4bgvh2rcd13ifvqcs0","pricing_plan_id":"cebpf4jnsgd1na2vs0mg"},{"bike_id":"a974d009-942e-477b-b4db-19f84bd48313","system_id":"levelo_inurba_marseille","lat":43.32327,"lon":5.38518,"is_reserved":false,"is_disabled":false,"rental_uris":{"android":"levelo://app?vid=a974d009-942e-477b-b4db-19f84bd48313","ios":"levelo://app?vid=a974d009-942e-477b-b4db-19f84bd48313"},"vehicle_type_id":"4","last_reported":1727629587,"current_range_meters":38800,"station_id":"","pricing_plan_id":"cebpf4jnsgd1na2vs0mg"},{"bike_id":"6a66b30d-b7e8-4317-88c5-fb9f52bf2878","system_id":"levelo_inurba_marseille","lat":43.23969,"lon":5.36614,"is_reserved":false,"is_disabled":false,"rental_uris":{"android":"levelo://app?vid=6a66b30d-b7e8-4317-88c5-fb9f52bf2878","ios":"levelo://app?vid=6a66b30d-b7e8-4317-88c5-fb9f52bf2878"},"vehicle_type_id":"4","last_reported":1727629587,"current_range_meters":37600,"station_id":"ce4bhi12rcd13ifvqfp0","pricing_plan_id":"cebpf4jnsgd1na2vs0mg"},{"bike_id":"571b3665-e9e1-4342-800a-4cb59b7b7d6c","system_id":"levelo_inurba_marseille","lat":43.27217,"lon":5.42249,"is_reserved":false,"is_disabled":false,"rental_uris":{"android":"levelo://app?vid=571b3665-e9e1-4342-800a-4cb59b7b7d6c","ios":"levelo://app?vid=571b3665-e9e1-4342-800a-4cb59b7b7d6c"},"vehicle_type_id":"4","last_reported":1727629587,"current_range_meters":2800,"station_id":"ce4bhn92rcd13ifvqgrg","pricing_plan_id":"cebpf4jnsgd1na2vs0mg"},{"bike_id":"49df06d5-2919-499d-ad19-7762099b2215","system_id":"levelo_inurba_marseille","lat":43.2927,"lon":5.38452,"is_reserved":false,"is_disabled":false,"rental_uris":{"android":"levelo://app?vid=49df06d5-2919-499d-ad19-7762099b2215","ios":"levelo://app?vid=49df06d5-2919-499d-ad19-7762099b2215"},"vehicle_type_id":"4","last_reported":1727629587,"current_range_meters":14800,"station_id":"ce4bh692rcd13ifvqea0","pricing_plan_id":"cebpf4jnsgd1na2vs0mg"},{"bike_id":"3ae16357-9b43-46d1-bbc8-483fcc70804b","system_id":"levelo_inurba_marseille","lat":43.25724,"lon":5.41113,"is_reserved":false,"is_disabled":false,"rental_uris":{"android":"levelo://app?vid=3ae16357-9b43-46d1-bbc8-483fcc70804b","ios":"levelo://app?vid=3ae16357-9b43-46d1-bbc8-483fcc70804b"},"vehicle_type_id":"4","last_reported":1727629587,"current_range_meters":28000,"station_id":"ce4bhkp2rcd13ifvqgd0","pricing_plan_id":"cebpf4jnsgd1na2vs0mg"},{"bike_id":"461e78e7-332c-472d-ab61-e63eb6fd7e45","system_id":"levelo_inurba_marseille","lat":43.27976,"lon":5.38744,"is_reserved":false,"is_disabled":false,"rental_uris":{"android":"levelo://app?vid=461e78e7-332c-472d-ab61-e63eb6fd7e45","ios":"levelo://app?vid=461e78e7-332c-472d-ab61-e63eb6fd7e45"},"vehicle_type_id":"4","last_reported":1727629587,"current_range_meters":6400,"station_id":"ce4bhg12rcd13ifvqf80","pricing_plan_id":"cebpf4jnsgd1na2vs0mg"},{"bike_id":"199f764e-7942-4511-a407-33ff4a7dc457","system_id":"levelo_inurba_marseille","lat":43.26025,"lon":5.3755,"is_reserved":false,"is_disabled":false,"rental_uris":{"android":"levelo://app?vid=199f764e-7942-4511-a407-33ff4a7dc457","ios":"levelo://app?vid=199f764e-7942-4511-a407-33ff4a7dc457"},"vehicle_type_id":"4","last_reported":1727629587,"current_range_meters":36400,"station_id":"ce4bhgh2rcd13ifvqfa0","pricing_plan_id":"cebpf4jnsgd1na2vs0mg"},{"bike_id":"0701cf2a-674c-4c9d-af1e-6650acbaaf74","system_id":"levelo_inurba_marseille","lat":43.28377,"lon":5.37303,"is_reserved":false,"is_disabled":false,"rental_uris":{"android":"levelo://app?vid=0701cf2a-674c-4c9d-af1e-6650acbaaf74","ios":"levelo://app?vid=0701cf2a-674c-4c9d-af1e-6650acbaaf74"},"vehicle_type_id":"4","last_reported":1727629587,"current_range_meters":9200,"station_id":"","pricing_plan_id":"cebpf4jnsgd1na2vs0mg"},{"bike_id":"a48460e4-d4da-4877-ad08-62dca9d34780","system_id":"levelo_inurba_marseille","lat":43.24165,"lon":5.36395,"is_reserved":false,"is_disabled":false,"rental_uris":{"android":"levelo://app?vid=a48460e4-d4da-4877-ad08-62dca9d34780","ios":"levelo://app?vid=a48460e4-d4da-4877-ad08-62dca9d34780"},"vehicle_type_id":"4","last_reported":1727629587,"current_range_meters":32800,"station_id":"cpo36qri1sfpv3e86is0","pricing_plan_id":"cebpf4jnsgd1na2vs0mg"},{"bike_id":"e38dfe88-953e-487d-81a0-95b11d98a127","system_id":"levelo_inurba_marseille","lat":43.24817,"lon":5.37465,"is_reserved":false,"is_disabled":false,"rental_uris":{"android":"levelo://app?vid=e38dfe88-953e-487d-81a0-95b11d98a127","ios":"levelo://app?vid=e38dfe88-953e-487d-81a0-95b11d98a127"},"vehicle_type_id":"4","last_reported":1727629587,"current_range_meters":25200,"station_id":"ce4bhgh2rcd13ifvqfb0","pricing_plan_id":"cebpf4jnsgd1na2vs0mg"},{"bike_id":"7199a17f-8505-4d54-b9b6-2ec943c49cf2","system_id":"levelo_inurba_marseille","lat":43.33034,"lon":5.39383,"is_reserved":false,"is_disabled":false,"rental_uris":{"android":"levelo://app?vid=7199a17f-8505-4d54-b9b6-2ec943c49cf2","ios":"levelo://app?vid=7199a17f-8505-4d54-b9b6-2ec943c49cf2"},"vehicle_type_id":"4","last_reported":1727629587,"current_range_meters":38400,"station_id":"","pricing_plan_id":"cebpf4jnsgd1na2vs0mg"},{"bike_id":"22b91507-0bd3-4338-8c58-3541defe8643","system_id":"levelo_inurba_marseille","lat":43.30794,"lon":5.37653,"is_reserved":false,"is_disabled":false,"rental_uris":{"android":"levelo://app?vid=22b91507-0bd3-4338-8c58-3541defe8643","ios":"levelo://app?vid=22b91507-0bd3-4338-8c58-3541defe8643"},"vehicle_type_id":"4","last_reported":1727629587,"current_range_meters":29600,"station_id":"ce4bgv92rcd13ifvqcq0","pricing_plan_id":"cebpf4jnsgd1na2vs0mg"},{"bike_id":"6cdca13d-24d1-4302-912a-54d18c748242","system_id":"levelo_inurba_marseille","lat":43.31083,"lon":5.40132,"is_reserved":false,"is_disabled":false,"rental_uris":{"android":"levelo://app?vid=6cdca13d-24d1-4302-912a-54d18c748242","ios":"levelo://app?vid=6cdca13d-24d1-4302-912a-54d18c748242"},"vehicle_type_id":"4","last_reported":1727629587,"current_range_meters":4000,"station_id":"","pricing_plan_id":"cebpf4jnsgd1na2vs0mg"},{"bike_id":"dfad4ecb-988f-4be2-aad8-64930902dc0b","system_id":"levelo_inurba_marseille","lat":43.27619,"lon":5.36108,"is_reserved":false,"is_disabled":false,"rental_uris":{"android":"levelo://app?vid=dfad4ecb-988f-4be2-aad8-64930902dc0b","ios":"levelo://app?vid=dfad4ecb-988f-4be2-aad8-64930902dc0b"},"vehicle_type_id":"4","last_reported":1727629587,"current_range_meters":32400,"station_id":"ce4bgj92rcd13ifvqbe0","pricing_plan_id":"cebpf4jnsgd1na2vs0mg"},{"bike_id":"048aa954-d116-4043-80a8-f18cffae0c8c","system_id":"levelo_inurba_marseille","lat":43.251089,"lon":5.403211,"is_reserved":false,"is_disabled":false,"rental_uris":{"android":"levelo://app?vid=048aa954-d116-4043-80a8-f18cffae0c8c","ios":"levelo://app?vid=048aa954-d116-4043-80a8-f18cffae0c8c"},"vehicle_type_id":"4","last_reported":1727629587,"current_range_meters":37600,"station_id":"ce4bhlh2rcd13ifvqgig","pricing_plan_id":"cebpf4jnsgd1na2vs0mg"},{"bike_id":"42e20a9d-5773-4a4d-bffe-96c7c76eeb71","system_id":"levelo_inurba_marseille","lat":43.279983,"lon":5.400007,"is_reserved":false,"is_disabled":false,"rental_uris":{"android":"levelo://app?vid=42e20a9d-5773-4a4d-bffe-96c7c76eeb71","ios":"levelo://app?vid=42e20a9d-5773-4a4d-bffe-96c7c76eeb71"},"vehicle_type_id":"4","last_reported":1727629587,"current_range_meters":38800,"station_id":"ce4bho92rcd13ifvqh4g","pricing_plan_id":"cebpf4jnsgd1na2vs0mg"},{"bike_id":"44c4f3e7-8cbf-40c8-8863-ad595d4813dd","system_id":"levelo_inurba_marseille","lat":43.26687,"lon":5.38281,"is_reserved":false,"is_disabled":false,"rental_uris":{"android":"levelo://app?vid=44c4f3e7-8cbf-40c8-8863-ad595d4813dd","ios":"levelo://app?vid=44c4f3e7-8cbf-40c8-8863-ad595d4813dd"},"vehicle_type_id":"4","last_reported":1727629587,"current_range_meters":38400,"station_id":"ce4bhg92rcd13ifvqf90","pricing_plan_id":"cebpf4jnsgd1na2vs0mg"},{"bike_id":"2ab05bf8-eca7-437d-b897-4c5c531ec1af","system_id":"levelo_inurba_marseille","lat":43.31528,"lon":5.38038,"is_reserved":false,"is_disabled":false,"rental_uris":{"android":"levelo://app?vid=2ab05bf8-eca7-437d-b897-4c5c531ec1af","ios":"levelo://app?vid=2ab05bf8-eca7-437d-b897-4c5c531ec1af"},"vehicle_type_id":"4","last_reported":1727629587,"current_range_meters":9200,"station_id":"ce4bhsp2rcd13ifvqi50","pricing_plan_id":"cebpf4jnsgd1na2vs0mg"},{"bike_id":"41ca4c63-8def-4c31-9103-fc1045ebe4a5","system_id":"levelo_inurba_marseille","lat":43.23196,"lon":5.35562,"is_reserved":false,"is_disabled":false,"rental_uris":{"android":"levelo://app?vid=41ca4c63-8def-4c31-9103-fc1045ebe4a5","ios":"levelo://app?vid=41ca4c63-8def-4c31-9103-fc1045ebe4a5"},"vehicle_type_id":"4","last_reported":1727629587,"current_range_meters":24400,"station_id":"ce4bhu92rcd13ifvqi70","pricing_plan_id":"cebpf4jnsgd1na2vs0mg"},{"bike_id":"dad475a0-04cd-4ba0-8054-6c4b049a3ea9","system_id":"levelo_inurba_marseille","lat":43.293152,"lon":5.371715,"is_reserved":false,"is_disabled":false,"rental_uris":{"android":"levelo://app?vid=dad475a0-04cd-4ba0-8054-6c4b049a3ea9","ios":"levelo://app?vid=dad475a0-04cd-4ba0-8054-6c4b049a3ea9"},"vehicle_type_id":"4","last_reported":1727629587,"current_range_meters":17600,"station_id":"ce4bgh92rcd13ifvqb40","pricing_plan_id":"cebpf4jnsgd1na2vs0mg"},{"bike_id":"6e62888a-f4d3-46c0-bed2-e8c2be96f004","system_id":"levelo_inurba_marseille","lat":43.27968,"lon":5.3875,"is_reserved":false,"is_disabled":false,"rental_uris":{"android":"levelo://app?vid=6e62888a-f4d3-46c0-bed2-e8c2be96f004","ios":"levelo://app?vid=6e62888a-f4d3-46c0-bed2-e8c2be96f004"},"vehicle_type_id":"4","last_reported":1727629587,"current_range_meters":3600,"station_id":"ce4bhg12rcd13ifvqf80","pricing_plan_id":"cebpf4jnsgd1na2vs0mg"},{"bike_id":"16aef7bc-6e34-4da1-be38-669be00420e2","system_id":"levelo_inurba_marseille","lat":43.29903,"lon":5.43673,"is_reserved":false,"is_disabled":false,"rental_uris":{"android":"levelo://app?vid=16aef7bc-6e34-4da1-be38-669be00420e2","ios":"levelo://app?vid=16aef7bc-6e34-4da1-be38-669be00420e2"},"vehicle_type_id":"4","last_reported":1727629587,"current_range_meters":27600,"station_id":"ce4bhpp2rcd13ifvqhfg","pricing_plan_id":"cebpf4jnsgd1na2vs0mg"},{"bike_id":"275b0a25-1a9f-498c-9202-be550b06c3de","system_id":"levelo_inurba_marseille","lat":43.32292,"lon":5.38281,"is_reserved":false,"is_disabled":false,"rental_uris":{"android":"levelo://app?vid=275b0a25-1a9f-498c-9202-be550b06c3de","ios":"levelo://app?vid=275b0a25-1a9f-498c-9202-be550b06c3de"},"vehicle_type_id":"4","last_reported":1727629587,"current_range_meters":38800,"station_id":"ce4bhr12rcd13ifvqhqg","pricing_plan_id":"cebpf4jnsgd1na2vs0mg"},{"bike_id":"0c3f0369-7cdf-4cba-a0db-09435ab8c8da","system_id":"levelo_inurba_marseille","lat":43.23197,"lon":5.3999,"is_reserved":false,"is_disabled":false,"rental_uris":{"android":"levelo://app?vid=0c3f0369-7cdf-4cba-a0db-09435ab8c8da","ios":"levelo://app?vid=0c3f0369-7cdf-4cba-a0db-09435ab8c8da"},"vehicle_type_id":"4","last_reported":1727629587,"current_range_meters":25200,"station_id":"ce4bhn12rcd13ifvqgqg","pricing_plan_id":"cebpf4jnsgd1na2vs0mg"},{"bike_id":"bc1d0df4-b8e6-47e3-ae86-a51b9bfea8c1","system_id":"levelo_inurba_marseille","lat":43.23192,"lon":5.35564,"is_reserved":false,"is_disabled":false,"rental_uris":{"android":"levelo://app?vid=bc1d0df4-b8e6-47e3-ae86-a51b9bfea8c1","ios":"levelo://app?vid=bc1d0df4-b8e6-47e3-ae86-a51b9bfea8c1"},"vehicle_type_id":"4","last_reported":1727629587,"current_range_meters":14800,"station_id":"ce4bhu92rcd13ifvqi70","pricing_plan_id":"cebpf4jnsgd1na2vs0mg"},{"bike_id":"fa9abb02-b0db-4451-9015-5020e12c99d6","system_id":"levelo_inurba_marseille","lat":43.29279,"lon":5.40118,"is_reserved":false,"is_disabled":false,"rental_uris":{"android":"levelo://app?vid=fa9abb02-b0db-4451-9015-5020e12c99d6","ios":"levelo://app?vid=fa9abb02-b0db-4451-9015-5020e12c99d6"},"vehicle_type_id":"4","last_reported":1727629587,"current_range_meters":36800,"station_id":"ce4bh312rcd13ifvqdk0","pricing_plan_id":"cebpf4jnsgd1na2vs0mg"},{"bike_id":"f9544fb1-c02e-4ef0-828d-b520c9bc1616","system_id":"levelo_inurba_marseille","lat":43.2439,"lon":5.37064,"is_reserved":false,"is_disabled":false,"rental_uris":{"android":"levelo://app?vid=f9544fb1-c02e-4ef0-828d-b520c9bc1616","ios":"levelo://app?vid=f9544fb1-c02e-4ef0-828d-b520c9bc1616"},"vehicle_type_id":"4","last_reported":1727629587,"current_range_meters":7200,"station_id":"ce4bhhh2rcd13ifvqfk0","pricing_plan_id":"cebpf4jnsgd1na2vs0mg"},{"bike_id":"4db49256-52da-4b24-bc91-56eb058f00e1","system_id":"levelo_inurba_marseille","lat":43.25726,"lon":5.41116,"is_reserved":false,"is_disabled":false,"rental_uris":{"android":"levelo://app?vid=4db49256-52da-4b24-bc91-56eb058f00e1","ios":"levelo://app?vid=4db49256-52da-4b24-bc91-56eb058f00e1"},"vehicle_type_id":"4","last_reported":1727629587,"current_range_meters":38400,"station_id":"ce4bhkp2rcd13ifvqgd0","pricing_plan_id":"cebpf4jnsgd1na2vs0mg"},{"bike_id":"83a13b63-dfac-4e20-8d88-4cae179033ca","system_id":"levelo_inurba_marseille","lat":43.27496,"lon":5.42447,"is_reserved":false,"is_disabled":false,"rental_uris":{"android":"levelo://app?vid=83a13b63-dfac-4e20-8d88-4cae179033ca","ios":"levelo://app?vid=83a13b63-dfac-4e20-8d88-4cae179033ca"},"vehicle_type_id":"4","last_reported":1727629587,"current_range_meters":9200,"station_id":"ce4bhn92rcd13ifvqgrg","pricing_plan_id":"cebpf4jnsgd1na2vs0mg"},{"bike_id":"4e3f6116-8d0e-493b-9e27-0fdc77667890","system_id":"levelo_inurba_marseille","lat":43.23962,"lon":5.3663,"is_reserved":false,"is_disabled":false,"rental_uris":{"android":"levelo://app?vid=4e3f6116-8d0e-493b-9e27-0fdc77667890","ios":"levelo://app?vid=4e3f6116-8d0e-493b-9e27-0fdc77667890"},"vehicle_type_id":"4","last_reported":1727629587,"current_range_meters":22000,"station_id":"ce4bhi12rcd13ifvqfp0","pricing_plan_id":"cebpf4jnsgd1na2vs0mg"},{"bike_id":"e4361fa2-90d9-45ff-9d8a-e7b112f4e011","system_id":"levelo_inurba_marseille","lat":43.28531,"lon":5.39151,"is_reserved":false,"is_disabled":false,"rental_uris":{"android":"levelo://app?vid=e4361fa2-90d9-45ff-9d8a-e7b112f4e011","ios":"levelo://app?vid=e4361fa2-90d9-45ff-9d8a-e7b112f4e011"},"vehicle_type_id":"4","last_reported":1727629587,"current_range_meters":27600,"station_id":"ce4bh3p2rcd13ifvqdp0","pricing_plan_id":"cebpf4jnsgd1na2vs0mg"},{"bike_id":"99c53807-72fe-4e29-9a67-ac2c40041a62","system_id":"levelo_inurba_marseille","lat":43.2621,"lon":5.37447,"is_reserved":false,"is_disabled":false,"rental_uris":{"android":"levelo://app?vid=99c53807-72fe-4e29-9a67-ac2c40041a62","ios":"levelo://app?vid=99c53807-72fe-4e29-9a67-ac2c40041a62"},"vehicle_type_id":"4","last_reported":1727629587,"current_range_meters":38800,"station_id":"ce4bhgp2rcd13ifvqfc0","pricing_plan_id":"cebpf4jnsgd1na2vs0mg"},{"bike_id":"6e476f28-902d-4971-ad1c-83bd552282b4","system_id":"levelo_inurba_marseille","lat":43.2871,"lon":5.37392,"is_reserved":false,"is_disabled":false,"rental_uris":{"android":"levelo://app?vid=6e476f28-902d-4971-ad1c-83bd552282b4","ios":"levelo://app?vid=6e476f28-902d-4971-ad1c-83bd552282b4"},"vehicle_type_id":"4","last_reported":1727629587,"current_range_meters":38800,"station_id":"ce4bh3p2rcd13ifvqdq0","pricing_plan_id":"cebpf4jnsgd1na2vs0mg"},{"bike_id":"484a138b-4985-4ede-a428-ba494eb2c658","system_id":"levelo_inurba_marseille","lat":43.29775,"lon":5.37105,"is_reserved":false,"is_disabled":false,"rental_uris":{"android":"levelo://app?vid=484a138b-4985-4ede-a428-ba494eb2c658","ios":"levelo://app?vid=484a138b-4985-4ede-a428-ba494eb2c658"},"vehicle_type_id":"4","last_reported":1727629587,"current_range_meters":10000,"station_id":"ce4bgop2rcd13ifvqc1g","pricing_plan_id":"cebpf4jnsgd1na2vs0mg"},{"bike_id":"6eff8d2d-61fa-4715-9388-b30a052d3e98","system_id":"levelo_inurba_marseille","lat":43.337444,"lon":5.374475,"is_reserved":false,"is_disabled":false,"rental_uris":{"android":"levelo://app?vid=6eff8d2d-61fa-4715-9388-b30a052d3e98","ios":"levelo://app?vid=6eff8d2d-61fa-4715-9388-b30a052d3e98"},"vehicle_type_id":"4","last_reported":1727629587,"current_range_meters":27600,"station_id":"","pricing_plan_id":"cebpf4jnsgd1na2vs0mg"},{"bike_id":"5561ba97-cc61-4a9c-bb93-36a893b9716f","system_id":"levelo_inurba_marseille","lat":43.28922,"lon":5.42431,"is_reserved":false,"is_disabled":false,"rental_uris":{"android":"levelo://app?vid=5561ba97-cc61-4a9c-bb93-36a893b9716f","ios":"levelo://app?vid=5561ba97-cc61-4a9c-bb93-36a893b9716f"},"vehicle_type_id":"4","last_reported":1727629587,"current_range_meters":32800,"station_id":"","pricing_plan_id":"cebpf4jnsgd1na2vs0mg"},{"bike_id":"49103c36-092f-43a6-a665-96ac4218adb8","system_id":"levelo_inurba_marseille","lat":43.32297,"lon":5.38265,"is_reserved":false,"is_disabled":false,"rental_uris":{"android":"levelo://app?vid=49103c36-092f-43a6-a665-96ac4218adb8","ios":"levelo://app?vid=49103c36-092f-43a6-a665-96ac4218adb8"},"vehicle_type_id":"4","last_reported":1727629587,"current_range_meters":38800,"station_id":"ce4bhr12rcd13ifvqhqg","pricing_plan_id":"cebpf4jnsgd1na2vs0mg"},{"bike_id":"0379360f-0899-4a4c-83b7-29ed13d84adb","system_id":"levelo_inurba_marseille","lat":43.23963,"lon":5.36626,"is_reserved":false,"is_disabled":false,"rental_uris":{"android":"levelo://app?vid=0379360f-0899-4a4c-83b7-29ed13d84adb","ios":"levelo://app?vid=0379360f-0899-4a4c-83b7-29ed13d84adb"},"vehicle_type_id":"4","last_reported":1727629587,"current_range_meters":38800,"station_id":"ce4bhi12rcd13ifvqfp0","pricing_plan_id":"cebpf4jnsgd1na2vs0mg"},{"bike_id":"28e078aa-bb91-4180-90ca-c27bf27de668","system_id":"levelo_inurba_marseille","lat":43.28942,"lon":5.39627,"is_reserved":false,"is_disabled":false,"rental_uris":{"android":"levelo://app?vid=28e078aa-bb91-4180-90ca-c27bf27de668","ios":"levelo://app?vid=28e078aa-bb91-4180-90ca-c27bf27de668"},"vehicle_type_id":"4","last_reported":1727629587,"current_range_meters":38800,"station_id":"ce4bh3h2rcd13ifvqdn0","pricing_plan_id":"cebpf4jnsgd1na2vs0mg"},{"bike_id":"6f0f9c32-de70-4574-9b89-cca29ab0554e","system_id":"levelo_inurba_marseille","lat":43.337444,"lon":5.374475,"is_reserved":false,"is_disabled":false,"rental_uris":{"android":"levelo://app?vid=6f0f9c32-de70-4574-9b89-cca29ab0554e","ios":"levelo://app?vid=6f0f9c32-de70-4574-9b89-cca29ab0554e"},"vehicle_type_id":"4","last_reported":1727629587,"current_range_meters":25200,"station_id":"","pricing_plan_id":"cebpf4jnsgd1na2vs0mg"},{"bike_id":"44839918-e841-4578-a34d-4d8014b09bc8","system_id":"levelo_inurba_marseille","lat":43.312277,"lon":5.368523,"is_reserved":false,"is_disabled":false,"rental_uris":{"android":"levelo://app?vid=44839918-e841-4578-a34d-4d8014b09bc8","ios":"levelo://app?vid=44839918-e841-4578-a34d-4d8014b09bc8"},"vehicle_type_id":"4","last_reported":1727629587,"current_range_meters":36800,"station_id":"ce4bgl92rcd13ifvqbq0","pricing_plan_id":"cebpf4jnsgd1na2vs0mg"},{"bike_id":"b9897cf6-b27e-4987-8a36-ce737823aa7b","system_id":"levelo_inurba_marseille","lat":43.32315,"lon":5.3828,"is_reserved":false,"is_disabled":false,"rental_uris":{"android":"levelo://app?vid=b9897cf6-b27e-4987-8a36-ce737823aa7b","ios":"levelo://app?vid=b9897cf6-b27e-4987-8a36-ce737823aa7b"},"vehicle_type_id":"4","last_reported":1727629587,"current_range_meters":38800,"station_id":"ce4bhr12rcd13ifvqhqg","pricing_plan_id":"cebpf4jnsgd1na2vs0mg"},{"bike_id":"0687a646-be72-47a3-8907-22e0afb02a46","system_id":"levelo_inurba_marseille","lat":43.23963,"lon":5.36618,"is_reserved":false,"is_disabled":false,"rental_uris":{"android":"levelo://app?vid=0687a646-be72-47a3-8907-22e0afb02a46","ios":"levelo://app?vid=0687a646-be72-47a3-8907-22e0afb02a46"},"vehicle_type_id":"4","last_reported":1727629587,"current_range_meters":28800,"station_id":"ce4bhi12rcd13ifvqfp0","pricing_plan_id":"cebpf4jnsgd1na2vs0mg"},{"bike_id":"36848950-bc07-4f03-a670-355bde36f542","system_id":"levelo_inurba_marseille","lat":43.29965,"lon":5.41323,"is_reserved":false,"is_disabled":false,"rental_uris":{"android":"levelo://app?vid=36848950-bc07-4f03-a670-355bde36f542","ios":"levelo://app?vid=36848950-bc07-4f03-a670-355bde36f542"},"vehicle_type_id":"4","last_reported":1727629587,"current_range_meters":11200,"station_id":"ce4bhp12rcd13ifvqh9g","pricing_plan_id":"cebpf4jnsgd1na2vs0mg"},{"bike_id":"cd9be591-f408-4cdd-85d0-55e40694b5ff","system_id":"levelo_inurba_marseille","lat":43.29567,"lon":5.42284,"is_reserved":false,"is_disabled":false,"rental_uris":{"android":"levelo://app?vid=cd9be591-f408-4cdd-85d0-55e40694b5ff","ios":"levelo://app?vid=cd9be591-f408-4cdd-85d0-55e40694b5ff"},"vehicle_type_id":"4","last_reported":1727629587,"current_range_meters":2800,"station_id":"ce4bhph2rcd13ifvqhdg","pricing_plan_id":"cebpf4jnsgd1na2vs0mg"},{"bike_id":"90c05d40-f5db-4a12-95b3-f8d41ae2e51b","system_id":"levelo_inurba_marseille","lat":43.32377,"lon":5.3892,"is_reserved":false,"is_disabled":false,"rental_uris":{"android":"levelo://app?vid=90c05d40-f5db-4a12-95b3-f8d41ae2e51b","ios":"levelo://app?vid=90c05d40-f5db-4a12-95b3-f8d41ae2e51b"},"vehicle_type_id":"4","last_reported":1727629587,"current_range_meters":29600,"station_id":"ce4bhqp2rcd13ifvqhog","pricing_plan_id":"cebpf4jnsgd1na2vs0mg"},{"bike_id":"7a28c501-02b5-4db0-b6d7-27db9b11a1c4","system_id":"levelo_inurba_marseille","lat":43.326563,"lon":5.409947,"is_reserved":false,"is_disabled":false,"rental_uris":{"android":"levelo://app?vid=7a28c501-02b5-4db0-b6d7-27db9b11a1c4","ios":"levelo://app?vid=7a28c501-02b5-4db0-b6d7-27db9b11a1c4"},"vehicle_type_id":"4","last_reported":1727629587,"current_range_meters":24400,"station_id":"ce4bhpp2rcd13ifvqhgg","pricing_plan_id":"cebpf4jnsgd1na2vs0mg"},{"bike_id":"b18fb3e3-4ebe-4164-ba10-8087d6fcc0f0","system_id":"levelo_inurba_marseille","lat":43.24809,"lon":5.37455,"is_reserved":false,"is_disabled":false,"rental_uris":{"android":"levelo://app?vid=b18fb3e3-4ebe-4164-ba10-8087d6fcc0f0","ios":"levelo://app?vid=b18fb3e3-4ebe-4164-ba10-8087d6fcc0f0"},"vehicle_type_id":"4","last_reported":1727629587,"current_range_meters":38800,"station_id":"ce4bhgh2rcd13ifvqfb0","pricing_plan_id":"cebpf4jnsgd1na2vs0mg"},{"bike_id":"7f8eb560-af51-48a2-88a1-2714aa170059","system_id":"levelo_inurba_marseille","lat":43.27432,"lon":5.39414,"is_reserved":false,"is_disabled":false,"rental_uris":{"android":"levelo://app?vid=7f8eb560-af51-48a2-88a1-2714aa170059","ios":"levelo://app?vid=7f8eb560-af51-48a2-88a1-2714aa170059"},"vehicle_type_id":"4","last_reported":1727629587,"current_range_meters":36000,"station_id":"ce4bhdp2rcd13ifvqf20","pricing_plan_id":"cebpf4jnsgd1na2vs0mg"},{"bike_id":"cb10da0d-6f1a-4027-9833-bcd18835335d","system_id":"levelo_inurba_marseille","lat":43.28349,"lon":5.38107,"is_reserved":false,"is_disabled":false,"rental_uris":{"android":"levelo://app?vid=cb10da0d-6f1a-4027-9833-bcd18835335d","ios":"levelo://app?vid=cb10da0d-6f1a-4027-9833-bcd18835335d"},"vehicle_type_id":"4","last_reported":1727629587,"current_range_meters":19600,"station_id":"ce4bh412rcd13ifvqdr0","pricing_plan_id":"cebpf4jnsgd1na2vs0mg"},{"bike_id":"0fa8b223-8090-4672-8b04-b57125694314","system_id":"levelo_inurba_marseille","lat":43.28965,"lon":5.3684,"is_reserved":false,"is_disabled":false,"rental_uris":{"android":"levelo://app?vid=0fa8b223-8090-4672-8b04-b57125694314","ios":"levelo://app?vid=0fa8b223-8090-4672-8b04-b57125694314"},"vehicle_type_id":"4","last_reported":1727629587,"current_range_meters":34000,"station_id":"","pricing_plan_id":"cebpf4jnsgd1na2vs0mg"},{"bike_id":"1ffe0df5-2892-465a-8162-ac62429c4be7","system_id":"levelo_inurba_marseille","lat":43.29262,"lon":5.40903,"is_reserved":false,"is_disabled":false,"rental_uris":{"android":"levelo://app?vid=1ffe0df5-2892-465a-8162-ac62429c4be7","ios":"levelo://app?vid=1ffe0df5-2892-465a-8162-ac62429c4be7"},"vehicle_type_id":"4","last_reported":1727629587,"current_range_meters":1600,"station_id":"ce4bh192rcd13ifvqdc0","pricing_plan_id":"cebpf4jnsgd1na2vs0mg"},{"bike_id":"db630383-d2d1-428d-b9f0-973005a9160a","system_id":"levelo_inurba_marseille","lat":43.24392,"lon":5.37055,"is_reserved":false,"is_disabled":false,"rental_uris":{"android":"levelo://app?vid=db630383-d2d1-428d-b9f0-973005a9160a","ios":"levelo://app?vid=db630383-d2d1-428d-b9f0-973005a9160a"},"vehicle_type_id":"4","last_reported":1727629587,"current_range_meters":39200,"station_id":"ce4bhhh2rcd13ifvqfk0","pricing_plan_id":"cebpf4jnsgd1na2vs0mg"},{"bike_id":"9d933d2a-f72c-492c-ae3d-eb238dac3442","system_id":"levelo_inurba_marseille","lat":43.317589,"lon":5.390251,"is_reserved":false,"is_disabled":false,"rental_uris":{"android":"levelo://app?vid=9d933d2a-f72c-492c-ae3d-eb238dac3442","ios":"levelo://app?vid=9d933d2a-f72c-492c-ae3d-eb238dac3442"},"vehicle_type_id":"4","last_reported":1727629587,"current_range_meters":12400,"station_id":"ce4bhqp2rcd13ifvqhng","pricing_plan_id":"cebpf4jnsgd1na2vs0mg"},{"bike_id":"e5caedb3-e9d3-40ba-84ce-bc37b396d9df","system_id":"levelo_inurba_marseille","lat":43.29893,"lon":5.43637,"is_reserved":false,"is_disabled":false,"rental_uris":{"android":"levelo://app?vid=e5caedb3-e9d3-40ba-84ce-bc37b396d9df","ios":"levelo://app?vid=e5caedb3-e9d3-40ba-84ce-bc37b396d9df"},"vehicle_type_id":"4","last_reported":1727629587,"current_range_meters":17200,"station_id":"ce4bhpp2rcd13ifvqhfg","pricing_plan_id":"cebpf4jnsgd1na2vs0mg"},{"bike_id":"9a634e2c-38a6-4fd7-823a-84e176568dd3","system_id":"levelo_inurba_marseille","lat":43.27906,"lon":5.38013,"is_reserved":false,"is_disabled":false,"rental_uris":{"android":"levelo://app?vid=9a634e2c-38a6-4fd7-823a-84e176568dd3","ios":"levelo://app?vid=9a634e2c-38a6-4fd7-823a-84e176568dd3"},"vehicle_type_id":"4","last_reported":1727629587,"current_range_meters":38800,"station_id":"ce4bhf92rcd13ifvqf50","pricing_plan_id":"cebpf4jnsgd1na2vs0mg"},{"bike_id":"3379ce87-35d1-4b20-809b-857955ede2d8","system_id":"levelo_inurba_marseille","lat":43.30933,"lon":5.40147,"is_reserved":false,"is_disabled":false,"rental_uris":{"android":"levelo://app?vid=3379ce87-35d1-4b20-809b-857955ede2d8","ios":"levelo://app?vid=3379ce87-35d1-4b20-809b-857955ede2d8"},"vehicle_type_id":"4","last_reported":1727629587,"current_range_meters":2000,"station_id":"ce4bgvp2rcd13ifvqct0","pricing_plan_id":"cebpf4jnsgd1na2vs0mg"},{"bike_id":"a58d5f9a-1192-4193-b6bf-5fc6760ade3f","system_id":"levelo_inurba_marseille","lat":43.302064,"lon":5.394337,"is_reserved":false,"is_disabled":false,"rental_uris":{"android":"levelo://app?vid=a58d5f9a-1192-4193-b6bf-5fc6760ade3f","ios":"levelo://app?vid=a58d5f9a-1192-4193-b6bf-5fc6760ade3f"},"vehicle_type_id":"4","last_reported":1727629587,"current_range_meters":24400,"station_id":"ce4bh0p2rcd13ifvqd70","pricing_plan_id":"cebpf4jnsgd1na2vs0mg"},{"bike_id":"ae420688-5730-4c04-90f7-fb439220597f","system_id":"levelo_inurba_marseille","lat":43.337444,"lon":5.374475,"is_reserved":false,"is_disabled":false,"rental_uris":{"android":"levelo://app?vid=ae420688-5730-4c04-90f7-fb439220597f","ios":"levelo://app?vid=ae420688-5730-4c04-90f7-fb439220597f"},"vehicle_type_id":"4","last_reported":1727629587,"current_range_meters":28000,"station_id":"","pricing_plan_id":"cebpf4jnsgd1na2vs0mg"},{"bike_id":"64c5a41d-9764-4555-8564-e0109a27d62f","system_id":"levelo_inurba_marseille","lat":43.32266,"lon":5.38284,"is_reserved":false,"is_disabled":false,"rental_uris":{"android":"levelo://app?vid=64c5a41d-9764-4555-8564-e0109a27d62f","ios":"levelo://app?vid=64c5a41d-9764-4555-8564-e0109a27d62f"},"vehicle_type_id":"4","last_reported":1727629587,"current_range_meters":9600,"station_id":"ce4bhr12rcd13ifvqhqg","pricing_plan_id":"cebpf4jnsgd1na2vs0mg"},{"bike_id":"07e1756b-f593-4a59-b5c7-4d143a07d2fe","system_id":"levelo_inurba_marseille","lat":43.29797,"lon":5.39339,"is_reserved":false,"is_disabled":false,"rental_uris":{"android":"levelo://app?vid=07e1756b-f593-4a59-b5c7-4d143a07d2fe","ios":"levelo://app?vid=07e1756b-f593-4a59-b5c7-4d143a07d2fe"},"vehicle_type_id":"4","last_reported":1727629587,"current_range_meters":37600,"station_id":"chh1huq6cuj3fo74tm60","pricing_plan_id":"cebpf4jnsgd1na2vs0mg"},{"bike_id":"a69134e1-5cec-47e2-948e-ff44b5fa2ef7","system_id":"levelo_inurba_marseille","lat":43.243953,"lon":5.371303,"is_reserved":false,"is_disabled":false,"rental_uris":{"android":"levelo://app?vid=a69134e1-5cec-47e2-948e-ff44b5fa2ef7","ios":"levelo://app?vid=a69134e1-5cec-47e2-948e-ff44b5fa2ef7"},"vehicle_type_id":"4","last_reported":1727629587,"current_range_meters":38400,"station_id":"ce4bhhh2rcd13ifvqfk0","pricing_plan_id":"cebpf4jnsgd1na2vs0mg"},{"bike_id":"1d120e83-3e47-438c-ad2e-ee0c593707f6","system_id":"levelo_inurba_marseille","lat":43.24674,"lon":5.38161,"is_reserved":false,"is_disabled":false,"rental_uris":{"android":"levelo://app?vid=1d120e83-3e47-438c-ad2e-ee0c593707f6","ios":"levelo://app?vid=1d120e83-3e47-438c-ad2e-ee0c593707f6"},"vehicle_type_id":"4","last_reported":1727629587,"current_range_meters":14800,"station_id":"ce4bhih2rcd13ifvqfr0","pricing_plan_id":"cebpf4jnsgd1na2vs0mg"},{"bike_id":"f9c1f672-c172-4dfb-b84c-70f626e76aec","system_id":"levelo_inurba_marseille","lat":43.29573,"lon":5.375274,"is_reserved":false,"is_disabled":false,"rental_uris":{"android":"levelo://app?vid=f9c1f672-c172-4dfb-b84c-70f626e76aec","ios":"levelo://app?vid=f9c1f672-c172-4dfb-b84c-70f626e76aec"},"vehicle_type_id":"4","last_reported":1727629587,"current_range_meters":20000,"station_id":"ce4bgv12rcd13ifvqcp0","pricing_plan_id":"cebpf4jnsgd1na2vs0mg"},{"bike_id":"d0d32fa9-6465-45a2-a1ab-72e5532aaf5d","system_id":"levelo_inurba_marseille","lat":43.30244,"lon":5.400893,"is_reserved":false,"is_disabled":false,"rental_uris":{"android":"levelo://app?vid=d0d32fa9-6465-45a2-a1ab-72e5532aaf5d","ios":"levelo://app?vid=d0d32fa9-6465-45a2-a1ab-72e5532aaf5d"},"vehicle_type_id":"4","last_reported":1727629587,"current_range_meters":19200,"station_id":"ce4bgvh2rcd13ifvqcs0","pricing_plan_id":"cebpf4jnsgd1na2vs0mg"},{"bike_id":"1f1955f1-bed6-439b-b8cb-d07b1d9ef4bc","system_id":"levelo_inurba_marseille","lat":43.23961,"lon":5.36626,"is_reserved":false,"is_disabled":false,"rental_uris":{"android":"levelo://app?vid=1f1955f1-bed6-439b-b8cb-d07b1d9ef4bc","ios":"levelo://app?vid=1f1955f1-bed6-439b-b8cb-d07b1d9ef4bc"},"vehicle_type_id":"4","last_reported":1727629587,"current_range_meters":38800,"station_id":"ce4bhi12rcd13ifvqfp0","pricing_plan_id":"cebpf4jnsgd1na2vs0mg"},{"bike_id":"f870556f-080f-46a2-a332-dda8367f241a","system_id":"levelo_inurba_marseille","lat":43.29039,"lon":5.37566,"is_reserved":false,"is_disabled":false,"rental_uris":{"android":"levelo://app?vid=f870556f-080f-46a2-a332-dda8367f241a","ios":"levelo://app?vid=f870556f-080f-46a2-a332-dda8367f241a"},"vehicle_type_id":"4","last_reported":1727629587,"current_range_meters":6400,"station_id":"ce4bh692rcd13ifvqe90","pricing_plan_id":"cebpf4jnsgd1na2vs0mg"},{"bike_id":"4e621a61-8ed4-4621-b51f-7e613c9c07ff","system_id":"levelo_inurba_marseille","lat":43.29449,"lon":5.39746,"is_reserved":false,"is_disabled":false,"rental_uris":{"android":"levelo://app?vid=4e621a61-8ed4-4621-b51f-7e613c9c07ff","ios":"levelo://app?vid=4e621a61-8ed4-4621-b51f-7e613c9c07ff"},"vehicle_type_id":"4","last_reported":1727629587,"current_range_meters":17200,"station_id":"ce4bh3h2rcd13ifvqdo0","pricing_plan_id":"cebpf4jnsgd1na2vs0mg"},{"bike_id":"9cb3412e-3587-47af-8a8a-114bb5acd038","system_id":"levelo_inurba_marseille","lat":43.29896,"lon":5.4366,"is_reserved":false,"is_disabled":false,"rental_uris":{"android":"levelo://app?vid=9cb3412e-3587-47af-8a8a-114bb5acd038","ios":"levelo://app?vid=9cb3412e-3587-47af-8a8a-114bb5acd038"},"vehicle_type_id":"4","last_reported":1727629587,"current_range_meters":39200,"station_id":"ce4bhpp2rcd13ifvqhfg","pricing_plan_id":"cebpf4jnsgd1na2vs0mg"},{"bike_id":"514406d6-130c-4404-b7cb-e9c48856d761","system_id":"levelo_inurba_marseille","lat":43.24671,"lon":5.38166,"is_reserved":false,"is_disabled":false,"rental_uris":{"android":"levelo://app?vid=514406d6-130c-4404-b7cb-e9c48856d761","ios":"levelo://app?vid=514406d6-130c-4404-b7cb-e9c48856d761"},"vehicle_type_id":"4","last_reported":1727629587,"current_range_meters":12800,"station_id":"ce4bhih2rcd13ifvqfr0","pricing_plan_id":"cebpf4jnsgd1na2vs0mg"},{"bike_id":"232a27c0-86cc-436e-9988-dd61c29b689e","system_id":"levelo_inurba_marseille","lat":43.26194,"lon":5.37449,"is_reserved":false,"is_disabled":false,"rental_uris":{"android":"levelo://app?vid=232a27c0-86cc-436e-9988-dd61c29b689e","ios":"levelo://app?vid=232a27c0-86cc-436e-9988-dd61c29b689e"},"vehicle_type_id":"4","last_reported":1727629587,"current_range_meters":24400,"station_id":"ce4bhgp2rcd13ifvqfc0","pricing_plan_id":"cebpf4jnsgd1na2vs0mg"},{"bike_id":"a6f3456f-f73f-4350-91cf-0ecbb08350d1","system_id":"levelo_inurba_marseille","lat":43.32321,"lon":5.38524,"is_reserved":false,"is_disabled":false,"rental_uris":{"android":"levelo://app?vid=a6f3456f-f73f-4350-91cf-0ecbb08350d1","ios":"levelo://app?vid=a6f3456f-f73f-4350-91cf-0ecbb08350d1"},"vehicle_type_id":"4","last_reported":1727629587,"current_range_meters":27200,"station_id":"ce4bhqp2rcd13ifvqhog","pricing_plan_id":"cebpf4jnsgd1na2vs0mg"},{"bike_id":"d92c2bfd-c9d5-449c-a0f1-0f388c9c4fd9","system_id":"levelo_inurba_marseille","lat":43.3176,"lon":5.39016,"is_reserved":false,"is_disabled":false,"rental_uris":{"android":"levelo://app?vid=d92c2bfd-c9d5-449c-a0f1-0f388c9c4fd9","ios":"levelo://app?vid=d92c2bfd-c9d5-449c-a0f1-0f388c9c4fd9"},"vehicle_type_id":"4","last_reported":1727629587,"current_range_meters":3200,"station_id":"ce4bhqp2rcd13ifvqhng","pricing_plan_id":"cebpf4jnsgd1na2vs0mg"},{"bike_id":"721b0a3c-a79a-46e0-8cb8-6967a5484852","system_id":"levelo_inurba_marseille","lat":43.29875,"lon":5.38912,"is_reserved":false,"is_disabled":false,"rental_uris":{"android":"levelo://app?vid=721b0a3c-a79a-46e0-8cb8-6967a5484852","ios":"levelo://app?vid=721b0a3c-a79a-46e0-8cb8-6967a5484852"},"vehicle_type_id":"4","last_reported":1727629587,"current_range_meters":5600,"station_id":"ce4bh392rcd13ifvqdl0","pricing_plan_id":"cebpf4jnsgd1na2vs0mg"},{"bike_id":"51e287a5-b406-4bc2-885f-17e3718b5849","system_id":"levelo_inurba_marseille","lat":43.307213,"lon":5.386447,"is_reserved":false,"is_disabled":false,"rental_uris":{"android":"levelo://app?vid=51e287a5-b406-4bc2-885f-17e3718b5849","ios":"levelo://app?vid=51e287a5-b406-4bc2-885f-17e3718b5849"},"vehicle_type_id":"4","last_reported":1727629587,"current_range_meters":32400,"station_id":"","pricing_plan_id":"cebpf4jnsgd1na2vs0mg"},{"bike_id":"6e40abeb-5f51-4b9d-8cde-ce391902b5cc","system_id":"levelo_inurba_marseille","lat":43.23054,"lon":5.35489,"is_reserved":false,"is_disabled":false,"rental_uris":{"android":"levelo://app?vid=6e40abeb-5f51-4b9d-8cde-ce391902b5cc","ios":"levelo://app?vid=6e40abeb-5f51-4b9d-8cde-ce391902b5cc"},"vehicle_type_id":"4","last_reported":1727629587,"current_range_meters":38800,"station_id":"cpo3342slgdg3j2ifvpg","pricing_plan_id":"cebpf4jnsgd1na2vs0mg"},{"bike_id":"72644075-504b-485d-99e5-6a7047bb56ca","system_id":"levelo_inurba_marseille","lat":43.29341,"lon":5.42833,"is_reserved":false,"is_disabled":false,"rental_uris":{"android":"levelo://app?vid=72644075-504b-485d-99e5-6a7047bb56ca","ios":"levelo://app?vid=72644075-504b-485d-99e5-6a7047bb56ca"},"vehicle_type_id":"4","last_reported":1727629587,"current_range_meters":23200,"station_id":"","pricing_plan_id":"cebpf4jnsgd1na2vs0mg"},{"bike_id":"9875a1f0-e592-46f9-8699-96387cfa5ee3","system_id":"levelo_inurba_marseille","lat":43.25721,"lon":5.41114,"is_reserved":false,"is_disabled":false,"rental_uris":{"android":"levelo://app?vid=9875a1f0-e592-46f9-8699-96387cfa5ee3","ios":"levelo://app?vid=9875a1f0-e592-46f9-8699-96387cfa5ee3"},"vehicle_type_id":"4","last_reported":1727629587,"current_range_meters":17200,"station_id":"ce4bhkp2rcd13ifvqgd0","pricing_plan_id":"cebpf4jnsgd1na2vs0mg"},{"bike_id":"a36e8dd2-a807-4cda-af86-54a935b9baed","system_id":"levelo_inurba_marseille","lat":43.27187,"lon":5.40995,"is_reserved":false,"is_disabled":false,"rental_uris":{"android":"levelo://app?vid=a36e8dd2-a807-4cda-af86-54a935b9baed","ios":"levelo://app?vid=a36e8dd2-a807-4cda-af86-54a935b9baed"},"vehicle_type_id":"4","last_reported":1727629587,"current_range_meters":26000,"station_id":"ce4bhl12rcd13ifvqgf0","pricing_plan_id":"cebpf4jnsgd1na2vs0mg"},{"bike_id":"b0c31863-9489-4555-8c14-cc83b377024c","system_id":"levelo_inurba_marseille","lat":43.26039,"lon":5.38199,"is_reserved":false,"is_disabled":false,"rental_uris":{"android":"levelo://app?vid=b0c31863-9489-4555-8c14-cc83b377024c","ios":"levelo://app?vid=b0c31863-9489-4555-8c14-cc83b377024c"},"vehicle_type_id":"4","last_reported":1727629587,"current_range_meters":24400,"station_id":"","pricing_plan_id":"cebpf4jnsgd1na2vs0mg"},{"bike_id":"6ad8e49a-e1a9-4cc0-80cc-2cc93ad13b06","system_id":"levelo_inurba_marseille","lat":43.28511,"lon":5.36886,"is_reserved":false,"is_disabled":false,"rental_uris":{"android":"levelo://app?vid=6ad8e49a-e1a9-4cc0-80cc-2cc93ad13b06","ios":"levelo://app?vid=6ad8e49a-e1a9-4cc0-80cc-2cc93ad13b06"},"vehicle_type_id":"4","last_reported":1727629587,"current_range_meters":27600,"station_id":"","pricing_plan_id":"cebpf4jnsgd1na2vs0mg"},{"bike_id":"c5780541-b30d-4d72-9466-9846f9352508","system_id":"levelo_inurba_marseille","lat":43.24394,"lon":5.37066,"is_reserved":false,"is_disabled":false,"rental_uris":{"android":"levelo://app?vid=c5780541-b30d-4d72-9466-9846f9352508","ios":"levelo://app?vid=c5780541-b30d-4d72-9466-9846f9352508"},"vehicle_type_id":"4","last_reported":1727629587,"current_range_meters":28400,"station_id":"ce4bhhh2rcd13ifvqfk0","pricing_plan_id":"cebpf4jnsgd1na2vs0mg"},{"bike_id":"0ef43791-b94c-4b59-8e7d-cbafbe4d6b3b","system_id":"levelo_inurba_marseille","lat":43.25002,"lon":5.38924,"is_reserved":false,"is_disabled":false,"rental_uris":{"android":"levelo://app?vid=0ef43791-b94c-4b59-8e7d-cbafbe4d6b3b","ios":"levelo://app?vid=0ef43791-b94c-4b59-8e7d-cbafbe4d6b3b"},"vehicle_type_id":"4","last_reported":1727629587,"current_range_meters":17200,"station_id":"ce4bhgp2rcd13ifvqfd0","pricing_plan_id":"cebpf4jnsgd1na2vs0mg"},{"bike_id":"a371f3ca-2c24-4ae8-9bd3-d7f7f2713aee","system_id":"levelo_inurba_marseille","lat":43.25489,"lon":5.37648,"is_reserved":false,"is_disabled":false,"rental_uris":{"android":"levelo://app?vid=a371f3ca-2c24-4ae8-9bd3-d7f7f2713aee","ios":"levelo://app?vid=a371f3ca-2c24-4ae8-9bd3-d7f7f2713aee"},"vehicle_type_id":"4","last_reported":1727629587,"current_range_meters":32000,"station_id":"ce4bhh12rcd13ifvqff0","pricing_plan_id":"cebpf4jnsgd1na2vs0mg"},{"bike_id":"bbf952ac-e334-4066-8586-c2a54f21154f","system_id":"levelo_inurba_marseille","lat":43.24494,"lon":5.37832,"is_reserved":false,"is_disabled":false,"rental_uris":{"android":"levelo://app?vid=bbf952ac-e334-4066-8586-c2a54f21154f","ios":"levelo://app?vid=bbf952ac-e334-4066-8586-c2a54f21154f"},"vehicle_type_id":"4","last_reported":1727629587,"current_range_meters":20800,"station_id":"","pricing_plan_id":"cebpf4jnsgd1na2vs0mg"},{"bike_id":"5627cb7a-e073-4ac2-8676-558ca5b24af2","system_id":"levelo_inurba_marseille","lat":43.292969,"lon":5.3746,"is_reserved":false,"is_disabled":false,"rental_uris":{"android":"levelo://app?vid=5627cb7a-e073-4ac2-8676-558ca5b24af2","ios":"levelo://app?vid=5627cb7a-e073-4ac2-8676-558ca5b24af2"},"vehicle_type_id":"4","last_reported":1727629587,"current_range_meters":32000,"station_id":"ce4bgi12rcd13ifvqb70","pricing_plan_id":"cebpf4jnsgd1na2vs0mg"},{"bike_id":"cc189bdb-be15-4ec1-9a90-3ed3ce93f053","system_id":"levelo_inurba_marseille","lat":43.34071,"lon":5.42052,"is_reserved":false,"is_disabled":false,"rental_uris":{"android":"levelo://app?vid=cc189bdb-be15-4ec1-9a90-3ed3ce93f053","ios":"levelo://app?vid=cc189bdb-be15-4ec1-9a90-3ed3ce93f053"},"vehicle_type_id":"4","last_reported":1727629587,"current_range_meters":28000,"station_id":"","pricing_plan_id":"cebpf4jnsgd1na2vs0mg"},{"bike_id":"6db6ea78-ba34-4a53-a4a8-4d7391f2ac26","system_id":"levelo_inurba_marseille","lat":43.23065,"lon":5.35491,"is_reserved":false,"is_disabled":false,"rental_uris":{"android":"levelo://app?vid=6db6ea78-ba34-4a53-a4a8-4d7391f2ac26","ios":"levelo://app?vid=6db6ea78-ba34-4a53-a4a8-4d7391f2ac26"},"vehicle_type_id":"4","last_reported":1727629587,"current_range_meters":19600,"station_id":"cpo3342slgdg3j2ifvpg","pricing_plan_id":"cebpf4jnsgd1na2vs0mg"},{"bike_id":"89e1fecc-e103-443c-aead-ca2fc17072aa","system_id":"levelo_inurba_marseille","lat":43.28706,"lon":5.39982,"is_reserved":false,"is_disabled":false,"rental_uris":{"android":"levelo://app?vid=89e1fecc-e103-443c-aead-ca2fc17072aa","ios":"levelo://app?vid=89e1fecc-e103-443c-aead-ca2fc17072aa"},"vehicle_type_id":"4","last_reported":1727629587,"current_range_meters":6800,"station_id":"ce4bho92rcd13ifvqh3g","pricing_plan_id":"cebpf4jnsgd1na2vs0mg"},{"bike_id":"7264439b-10e6-4b4f-ac54-270ec07e772b","system_id":"levelo_inurba_marseille","lat":43.28929,"lon":5.38402,"is_reserved":false,"is_disabled":false,"rental_uris":{"android":"levelo://app?vid=7264439b-10e6-4b4f-ac54-270ec07e772b","ios":"levelo://app?vid=7264439b-10e6-4b4f-ac54-270ec07e772b"},"vehicle_type_id":"4","last_reported":1727629587,"current_range_meters":6400,"station_id":"ce4bh612rcd13ifvqe6g","pricing_plan_id":"cebpf4jnsgd1na2vs0mg"},{"bike_id":"5d5a76cf-b385-40f2-b609-439e6ff2e253","system_id":"levelo_inurba_marseille","lat":43.32295,"lon":5.38269,"is_reserved":false,"is_disabled":false,"rental_uris":{"android":"levelo://app?vid=5d5a76cf-b385-40f2-b609-439e6ff2e253","ios":"levelo://app?vid=5d5a76cf-b385-40f2-b609-439e6ff2e253"},"vehicle_type_id":"4","last_reported":1727629587,"current_range_meters":28800,"station_id":"ce4bhr12rcd13ifvqhqg","pricing_plan_id":"cebpf4jnsgd1na2vs0mg"},{"bike_id":"4655ee1c-92f5-4e61-ba50-5b57ef7514bc","system_id":"levelo_inurba_marseille","lat":43.32291,"lon":5.38273,"is_reserved":false,"is_disabled":false,"rental_uris":{"android":"levelo://app?vid=4655ee1c-92f5-4e61-ba50-5b57ef7514bc","ios":"levelo://app?vid=4655ee1c-92f5-4e61-ba50-5b57ef7514bc"},"vehicle_type_id":"4","last_reported":1727629587,"current_range_meters":32000,"station_id":"ce4bhr12rcd13ifvqhqg","pricing_plan_id":"cebpf4jnsgd1na2vs0mg"},{"bike_id":"7aaa20d7-bbd6-4990-9808-fdaf13f751b5","system_id":"levelo_inurba_marseille","lat":43.29873,"lon":5.39746,"is_reserved":false,"is_disabled":false,"rental_uris":{"android":"levelo://app?vid=7aaa20d7-bbd6-4990-9808-fdaf13f751b5","ios":"levelo://app?vid=7aaa20d7-bbd6-4990-9808-fdaf13f751b5"},"vehicle_type_id":"4","last_reported":1727629587,"current_range_meters":38800,"station_id":"ce4bh0h2rcd13ifvqd50","pricing_plan_id":"cebpf4jnsgd1na2vs0mg"},{"bike_id":"315f785c-44b2-4e6a-9594-bf07df59dc9d","system_id":"levelo_inurba_marseille","lat":43.29789,"lon":5.37094,"is_reserved":false,"is_disabled":false,"rental_uris":{"android":"levelo://app?vid=315f785c-44b2-4e6a-9594-bf07df59dc9d","ios":"levelo://app?vid=315f785c-44b2-4e6a-9594-bf07df59dc9d"},"vehicle_type_id":"4","last_reported":1727629587,"current_range_meters":38800,"station_id":"ce4bgop2rcd13ifvqc1g","pricing_plan_id":"cebpf4jnsgd1na2vs0mg"},{"bike_id":"f9907c14-2e98-4992-9fac-86a0d516fb1f","system_id":"levelo_inurba_marseille","lat":43.29909,"lon":5.43662,"is_reserved":false,"is_disabled":false,"rental_uris":{"android":"levelo://app?vid=f9907c14-2e98-4992-9fac-86a0d516fb1f","ios":"levelo://app?vid=f9907c14-2e98-4992-9fac-86a0d516fb1f"},"vehicle_type_id":"4","last_reported":1727629587,"current_range_meters":18800,"station_id":"ce4bhpp2rcd13ifvqhfg","pricing_plan_id":"cebpf4jnsgd1na2vs0mg"},{"bike_id":"0f79231b-c8c6-4c75-ab06-d2306c42eabe","system_id":"levelo_inurba_marseille","lat":43.28617,"lon":5.37028,"is_reserved":false,"is_disabled":false,"rental_uris":{"android":"levelo://app?vid=0f79231b-c8c6-4c75-ab06-d2306c42eabe","ios":"levelo://app?vid=0f79231b-c8c6-4c75-ab06-d2306c42eabe"},"vehicle_type_id":"4","last_reported":1727629587,"current_range_meters":31200,"station_id":"ce4bht12rcd13ifvqi60","pricing_plan_id":"cebpf4jnsgd1na2vs0mg"},{"bike_id":"e03136bf-e2fb-44b1-9b2e-f68c228824a7","system_id":"levelo_inurba_marseille","lat":43.24817,"lon":5.37456,"is_reserved":false,"is_disabled":false,"rental_uris":{"android":"levelo://app?vid=e03136bf-e2fb-44b1-9b2e-f68c228824a7","ios":"levelo://app?vid=e03136bf-e2fb-44b1-9b2e-f68c228824a7"},"vehicle_type_id":"4","last_reported":1727629587,"current_range_meters":30400,"station_id":"ce4bhgh2rcd13ifvqfb0","pricing_plan_id":"cebpf4jnsgd1na2vs0mg"},{"bike_id":"6d7daa3b-af39-4a7e-a368-df745386430d","system_id":"levelo_inurba_marseille","lat":43.32292,"lon":5.38283,"is_reserved":false,"is_disabled":false,"rental_uris":{"android":"levelo://app?vid=6d7daa3b-af39-4a7e-a368-df745386430d","ios":"levelo://app?vid=6d7daa3b-af39-4a7e-a368-df745386430d"},"vehicle_type_id":"4","last_reported":1727629587,"current_range_meters":28400,"station_id":"ce4bhr12rcd13ifvqhqg","pricing_plan_id":"cebpf4jnsgd1na2vs0mg"},{"bike_id":"4b60eb55-0c86-46ee-9e71-bc1b508abefb","system_id":"levelo_inurba_marseille","lat":43.31715,"lon":5.43707,"is_reserved":false,"is_disabled":false,"rental_uris":{"android":"levelo://app?vid=4b60eb55-0c86-46ee-9e71-bc1b508abefb","ios":"levelo://app?vid=4b60eb55-0c86-46ee-9e71-bc1b508abefb"},"vehicle_type_id":"4","last_reported":1727629587,"current_range_meters":25200,"station_id":"ce4bhp92rcd13ifvqhcg","pricing_plan_id":"cebpf4jnsgd1na2vs0mg"},{"bike_id":"59fec70d-b5f6-4e16-a525-d411feee9b58","system_id":"levelo_inurba_marseille","lat":43.27909,"lon":5.38011,"is_reserved":false,"is_disabled":false,"rental_uris":{"android":"levelo://app?vid=59fec70d-b5f6-4e16-a525-d411feee9b58","ios":"levelo://app?vid=59fec70d-b5f6-4e16-a525-d411feee9b58"},"vehicle_type_id":"4","last_reported":1727629587,"current_range_meters":36400,"station_id":"ce4bhf92rcd13ifvqf50","pricing_plan_id":"cebpf4jnsgd1na2vs0mg"},{"bike_id":"b29b3d15-94da-47f4-9c3e-61641b543ee3","system_id":"levelo_inurba_marseille","lat":43.32488,"lon":5.36578,"is_reserved":false,"is_disabled":false,"rental_uris":{"android":"levelo://app?vid=b29b3d15-94da-47f4-9c3e-61641b543ee3","ios":"levelo://app?vid=b29b3d15-94da-47f4-9c3e-61641b543ee3"},"vehicle_type_id":"4","last_reported":1727629587,"current_range_meters":36000,"station_id":"ce4bhs12rcd13ifvqhvg","pricing_plan_id":"cebpf4jnsgd1na2vs0mg"},{"bike_id":"2e731cd4-a8be-46d0-be1f-0f73c59e3e73","system_id":"levelo_inurba_marseille","lat":43.30314,"lon":5.36905,"is_reserved":false,"is_disabled":false,"rental_uris":{"android":"levelo://app?vid=2e731cd4-a8be-46d0-be1f-0f73c59e3e73","ios":"levelo://app?vid=2e731cd4-a8be-46d0-be1f-0f73c59e3e73"},"vehicle_type_id":"4","last_reported":1727629587,"current_range_meters":36800,"station_id":"ce4bgqh2rcd13ifvqc5g","pricing_plan_id":"cebpf4jnsgd1na2vs0mg"},{"bike_id":"701714d1-9a54-446d-b287-028f4c1a1be5","system_id":"levelo_inurba_marseille","lat":43.24169,"lon":5.36394,"is_reserved":false,"is_disabled":false,"rental_uris":{"android":"levelo://app?vid=701714d1-9a54-446d-b287-028f4c1a1be5","ios":"levelo://app?vid=701714d1-9a54-446d-b287-028f4c1a1be5"},"vehicle_type_id":"4","last_reported":1727629587,"current_range_meters":36800,"station_id":"cpo36qri1sfpv3e86is0","pricing_plan_id":"cebpf4jnsgd1na2vs0mg"},{"bike_id":"586e8006-58ad-4fe0-9242-0a2e899b3c08","system_id":"levelo_inurba_marseille","lat":43.29266,"lon":5.3845,"is_reserved":false,"is_disabled":false,"rental_uris":{"android":"levelo://app?vid=586e8006-58ad-4fe0-9242-0a2e899b3c08","ios":"levelo://app?vid=586e8006-58ad-4fe0-9242-0a2e899b3c08"},"vehicle_type_id":"4","last_reported":1727629587,"current_range_meters":36400,"station_id":"ce4bh692rcd13ifvqea0","pricing_plan_id":"cebpf4jnsgd1na2vs0mg"},{"bike_id":"db88a575-3fee-40bd-b643-16dd61e96803","system_id":"levelo_inurba_marseille","lat":43.26948,"lon":5.38627,"is_reserved":false,"is_disabled":false,"rental_uris":{"android":"levelo://app?vid=db88a575-3fee-40bd-b643-16dd61e96803","ios":"levelo://app?vid=db88a575-3fee-40bd-b643-16dd61e96803"},"vehicle_type_id":"4","last_reported":1727629587,"current_range_meters":38800,"station_id":"ce4bhh92rcd13ifvqfh0","pricing_plan_id":"cebpf4jnsgd1na2vs0mg"},{"bike_id":"027dac6a-c205-48aa-a12e-c694c228cb29","system_id":"levelo_inurba_marseille","lat":43.26025,"lon":5.37554,"is_reserved":false,"is_disabled":false,"rental_uris":{"android":"levelo://app?vid=027dac6a-c205-48aa-a12e-c694c228cb29","ios":"levelo://app?vid=027dac6a-c205-48aa-a12e-c694c228cb29"},"vehicle_type_id":"4","last_reported":1727629587,"current_range_meters":28800,"station_id":"ce4bhgh2rcd13ifvqfa0","pricing_plan_id":"cebpf4jnsgd1na2vs0mg"},{"bike_id":"43abfc89-93d2-4579-9267-f39890d2a05b","system_id":"levelo_inurba_marseille","lat":43.25905,"lon":5.38572,"is_reserved":false,"is_disabled":false,"rental_uris":{"android":"levelo://app?vid=43abfc89-93d2-4579-9267-f39890d2a05b","ios":"levelo://app?vid=43abfc89-93d2-4579-9267-f39890d2a05b"},"vehicle_type_id":"4","last_reported":1727629587,"current_range_meters":20400,"station_id":"","pricing_plan_id":"cebpf4jnsgd1na2vs0mg"},{"bike_id":"d797d5b5-2162-436f-a4ea-a5f3b2565cb7","system_id":"levelo_inurba_marseille","lat":43.27839,"lon":5.39209,"is_reserved":false,"is_disabled":false,"rental_uris":{"android":"levelo://app?vid=d797d5b5-2162-436f-a4ea-a5f3b2565cb7","ios":"levelo://app?vid=d797d5b5-2162-436f-a4ea-a5f3b2565cb7"},"vehicle_type_id":"4","last_reported":1727629587,"current_range_meters":28000,"station_id":"ce4bhjp2rcd13ifvqga0","pricing_plan_id":"cebpf4jnsgd1na2vs0mg"},{"bike_id":"e2669f06-ff2f-4f7f-b8af-72de68ed9794","system_id":"levelo_inurba_marseille","lat":43.28977,"lon":5.37852,"is_reserved":false,"is_disabled":false,"rental_uris":{"android":"levelo://app?vid=e2669f06-ff2f-4f7f-b8af-72de68ed9794","ios":"levelo://app?vid=e2669f06-ff2f-4f7f-b8af-72de68ed9794"},"vehicle_type_id":"4","last_reported":1727629587,"current_range_meters":24400,"station_id":"ce4bh9p2rcd13ifvqed0","pricing_plan_id":"cebpf4jnsgd1na2vs0mg"},{"bike_id":"fb482fbb-0d15-466c-aa5e-581accf78930","system_id":"levelo_inurba_marseille","lat":43.293,"lon":5.44268,"is_reserved":false,"is_disabled":false,"rental_uris":{"android":"levelo://app?vid=fb482fbb-0d15-466c-aa5e-581accf78930","ios":"levelo://app?vid=fb482fbb-0d15-466c-aa5e-581accf78930"},"vehicle_type_id":"4","last_reported":1727629587,"current_range_meters":4000,"station_id":"","pricing_plan_id":"cebpf4jnsgd1na2vs0mg"},{"bike_id":"72dce3a0-e8fe-4426-8949-61acb211c606","system_id":"levelo_inurba_marseille","lat":43.25004,"lon":5.38911,"is_reserved":false,"is_disabled":false,"rental_uris":{"android":"levelo://app?vid=72dce3a0-e8fe-4426-8949-61acb211c606","ios":"levelo://app?vid=72dce3a0-e8fe-4426-8949-61acb211c606"},"vehicle_type_id":"4","last_reported":1727629587,"current_range_meters":25200,"station_id":"ce4bhgp2rcd13ifvqfd0","pricing_plan_id":"cebpf4jnsgd1na2vs0mg"},{"bike_id":"dae43acd-31ea-4fda-b070-9140410604a5","system_id":"levelo_inurba_marseille","lat":43.28705,"lon":5.37385,"is_reserved":false,"is_disabled":false,"rental_uris":{"android":"levelo://app?vid=dae43acd-31ea-4fda-b070-9140410604a5","ios":"levelo://app?vid=dae43acd-31ea-4fda-b070-9140410604a5"},"vehicle_type_id":"4","last_reported":1727629587,"current_range_meters":25600,"station_id":"ce4bh3p2rcd13ifvqdq0","pricing_plan_id":"cebpf4jnsgd1na2vs0mg"},{"bike_id":"e826dc69-06c4-4531-9dfc-44430beb0f73","system_id":"levelo_inurba_marseille","lat":43.24814,"lon":5.37459,"is_reserved":false,"is_disabled":false,"rental_uris":{"android":"levelo://app?vid=e826dc69-06c4-4531-9dfc-44430beb0f73","ios":"levelo://app?vid=e826dc69-06c4-4531-9dfc-44430beb0f73"},"vehicle_type_id":"4","last_reported":1727629587,"current_range_meters":29600,"station_id":"ce4bhgh2rcd13ifvqfb0","pricing_plan_id":"cebpf4jnsgd1na2vs0mg"},{"bike_id":"5609bde0-774f-465a-a273-1ea408973abb","system_id":"levelo_inurba_marseille","lat":43.32296,"lon":5.3828,"is_reserved":false,"is_disabled":false,"rental_uris":{"android":"levelo://app?vid=5609bde0-774f-465a-a273-1ea408973abb","ios":"levelo://app?vid=5609bde0-774f-465a-a273-1ea408973abb"},"vehicle_type_id":"4","last_reported":1727629587,"current_range_meters":28400,"station_id":"ce4bhr12rcd13ifvqhqg","pricing_plan_id":"cebpf4jnsgd1na2vs0mg"},{"bike_id":"0d3f6118-6a81-4e10-a419-d373df82abbe","system_id":"levelo_inurba_marseille","lat":43.24805,"lon":5.37454,"is_reserved":false,"is_disabled":false,"rental_uris":{"android":"levelo://app?vid=0d3f6118-6a81-4e10-a419-d373df82abbe","ios":"levelo://app?vid=0d3f6118-6a81-4e10-a419-d373df82abbe"},"vehicle_type_id":"4","last_reported":1727629587,"current_range_meters":22000,"station_id":"ce4bhgh2rcd13ifvqfb0","pricing_plan_id":"cebpf4jnsgd1na2vs0mg"},{"bike_id":"34c3f05d-2c1f-4d5e-9313-f690a2ae814d","system_id":"levelo_inurba_marseille","lat":43.23965,"lon":5.36631,"is_reserved":false,"is_disabled":false,"rental_uris":{"android":"levelo://app?vid=34c3f05d-2c1f-4d5e-9313-f690a2ae814d","ios":"levelo://app?vid=34c3f05d-2c1f-4d5e-9313-f690a2ae814d"},"vehicle_type_id":"4","last_reported":1727629587,"current_range_meters":22800,"station_id":"ce4bhi12rcd13ifvqfp0","pricing_plan_id":"cebpf4jnsgd1na2vs0mg"},{"bike_id":"6e61cbb1-ff14-40f5-8d7f-ba14f1e4b312","system_id":"levelo_inurba_marseille","lat":43.23966,"lon":5.36634,"is_reserved":false,"is_disabled":false,"rental_uris":{"android":"levelo://app?vid=6e61cbb1-ff14-40f5-8d7f-ba14f1e4b312","ios":"levelo://app?vid=6e61cbb1-ff14-40f5-8d7f-ba14f1e4b312"},"vehicle_type_id":"4","last_reported":1727629587,"current_range_meters":39200,"station_id":"ce4bhi12rcd13ifvqfp0","pricing_plan_id":"cebpf4jnsgd1na2vs0mg"},{"bike_id":"e78f28aa-0842-49f3-88f1-fe7e09f9413f","system_id":"levelo_inurba_marseille","lat":43.28476,"lon":5.38416,"is_reserved":false,"is_disabled":false,"rental_uris":{"android":"levelo://app?vid=e78f28aa-0842-49f3-88f1-fe7e09f9413f","ios":"levelo://app?vid=e78f28aa-0842-49f3-88f1-fe7e09f9413f"},"vehicle_type_id":"4","last_reported":1727629587,"current_range_meters":2000,"station_id":"ce4bh512rcd13ifvqe3g","pricing_plan_id":"cebpf4jnsgd1na2vs0mg"},{"bike_id":"8b06bb71-371c-4392-8f43-35b92201b678","system_id":"levelo_inurba_marseille","lat":43.3248,"lon":5.36575,"is_reserved":false,"is_disabled":false,"rental_uris":{"android":"levelo://app?vid=8b06bb71-371c-4392-8f43-35b92201b678","ios":"levelo://app?vid=8b06bb71-371c-4392-8f43-35b92201b678"},"vehicle_type_id":"4","last_reported":1727629587,"current_range_meters":14400,"station_id":"ce4bhs12rcd13ifvqhvg","pricing_plan_id":"cebpf4jnsgd1na2vs0mg"},{"bike_id":"6d001758-b010-4fa3-b109-13acf2a6fb93","system_id":"levelo_inurba_marseille","lat":43.271275,"lon":5.392478,"is_reserved":false,"is_disabled":false,"rental_uris":{"android":"levelo://app?vid=6d001758-b010-4fa3-b109-13acf2a6fb93","ios":"levelo://app?vid=6d001758-b010-4fa3-b109-13acf2a6fb93"},"vehicle_type_id":"4","last_reported":1727629587,"current_range_meters":6400,"station_id":"ce4bhhp2rcd13ifvqfm0","pricing_plan_id":"cebpf4jnsgd1na2vs0mg"},{"bike_id":"0e5de09d-d6d3-4010-a1e9-9e0395f71170","system_id":"levelo_inurba_marseille","lat":43.295163,"lon":5.375062,"is_reserved":false,"is_disabled":false,"rental_uris":{"android":"levelo://app?vid=0e5de09d-d6d3-4010-a1e9-9e0395f71170","ios":"levelo://app?vid=0e5de09d-d6d3-4010-a1e9-9e0395f71170"},"vehicle_type_id":"4","last_reported":1727629587,"current_range_meters":35600,"station_id":"ce4bgk12rcd13ifvqbj0","pricing_plan_id":"cebpf4jnsgd1na2vs0mg"},{"bike_id":"4e49d0b7-2504-483a-a9ec-cfa96c67bb6a","system_id":"levelo_inurba_marseille","lat":43.28444,"lon":5.39197,"is_reserved":false,"is_disabled":false,"rental_uris":{"android":"levelo://app?vid=4e49d0b7-2504-483a-a9ec-cfa96c67bb6a","ios":"levelo://app?vid=4e49d0b7-2504-483a-a9ec-cfa96c67bb6a"},"vehicle_type_id":"4","last_reported":1727629587,"current_range_meters":8400,"station_id":"ce4bhoh2rcd13ifvqh5g","pricing_plan_id":"cebpf4jnsgd1na2vs0mg"},{"bike_id":"23200dcb-ff1b-495b-9ec8-7f25946bb399","system_id":"levelo_inurba_marseille","lat":43.29876,"lon":5.39741,"is_reserved":false,"is_disabled":false,"rental_uris":{"android":"levelo://app?vid=23200dcb-ff1b-495b-9ec8-7f25946bb399","ios":"levelo://app?vid=23200dcb-ff1b-495b-9ec8-7f25946bb399"},"vehicle_type_id":"4","last_reported":1727629587,"current_range_meters":38400,"station_id":"ce4bh0h2rcd13ifvqd50","pricing_plan_id":"cebpf4jnsgd1na2vs0mg"},{"bike_id":"de002eb0-8753-470c-8cbc-5db3a101fcf5","system_id":"levelo_inurba_marseille","lat":43.31113,"lon":5.3834,"is_reserved":false,"is_disabled":false,"rental_uris":{"android":"levelo://app?vid=de002eb0-8753-470c-8cbc-5db3a101fcf5","ios":"levelo://app?vid=de002eb0-8753-470c-8cbc-5db3a101fcf5"},"vehicle_type_id":"4","last_reported":1727629587,"current_range_meters":14800,"station_id":"ce4bgv92rcd13ifvqcr0","pricing_plan_id":"cebpf4jnsgd1na2vs0mg"},{"bike_id":"45d121d3-8d12-49dd-bd93-e38483250f66","system_id":"levelo_inurba_marseille","lat":43.261997,"lon":5.379276,"is_reserved":false,"is_disabled":false,"rental_uris":{"android":"levelo://app?vid=45d121d3-8d12-49dd-bd93-e38483250f66","ios":"levelo://app?vid=45d121d3-8d12-49dd-bd93-e38483250f66"},"vehicle_type_id":"4","last_reported":1727629587,"current_range_meters":16000,"station_id":"ce4bhjp2rcd13ifvqg90","pricing_plan_id":"cebpf4jnsgd1na2vs0mg"},{"bike_id":"a63e71d5-081b-4c76-884f-e61f506d62b6","system_id":"levelo_inurba_marseille","lat":43.23959,"lon":5.36621,"is_reserved":false,"is_disabled":false,"rental_uris":{"android":"levelo://app?vid=a63e71d5-081b-4c76-884f-e61f506d62b6","ios":"levelo://app?vid=a63e71d5-081b-4c76-884f-e61f506d62b6"},"vehicle_type_id":"4","last_reported":1727629587,"current_range_meters":12000,"station_id":"ce4bhi12rcd13ifvqfp0","pricing_plan_id":"cebpf4jnsgd1na2vs0mg"},{"bike_id":"e6b50f9e-fc8a-4cf1-8126-08dca46e0021","system_id":"levelo_inurba_marseille","lat":43.31479,"lon":5.37307,"is_reserved":false,"is_disabled":false,"rental_uris":{"android":"levelo://app?vid=e6b50f9e-fc8a-4cf1-8126-08dca46e0021","ios":"levelo://app?vid=e6b50f9e-fc8a-4cf1-8126-08dca46e0021"},"vehicle_type_id":"4","last_reported":1727629587,"current_range_meters":4400,"station_id":"ce4bgt12rcd13ifvqcd0","pricing_plan_id":"cebpf4jnsgd1na2vs0mg"},{"bike_id":"00fe0a87-2df1-4e51-b0db-f49d707d1107","system_id":"levelo_inurba_marseille","lat":43.25721,"lon":5.41107,"is_reserved":false,"is_disabled":false,"rental_uris":{"android":"levelo://app?vid=00fe0a87-2df1-4e51-b0db-f49d707d1107","ios":"levelo://app?vid=00fe0a87-2df1-4e51-b0db-f49d707d1107"},"vehicle_type_id":"4","last_reported":1727629587,"current_range_meters":22000,"station_id":"ce4bhkp2rcd13ifvqgd0","pricing_plan_id":"cebpf4jnsgd1na2vs0mg"},{"bike_id":"f3b3a9e2-82d0-4049-b3cd-df094d49c012","system_id":"levelo_inurba_marseille","lat":43.32471,"lon":5.36796,"is_reserved":false,"is_disabled":false,"rental_uris":{"android":"levelo://app?vid=f3b3a9e2-82d0-4049-b3cd-df094d49c012","ios":"levelo://app?vid=f3b3a9e2-82d0-4049-b3cd-df094d49c012"},"vehicle_type_id":"4","last_reported":1727629587,"current_range_meters":24400,"station_id":"","pricing_plan_id":"cebpf4jnsgd1na2vs0mg"},{"bike_id":"983303ff-dd0f-49e7-b80f-4c51a0aaa072","system_id":"levelo_inurba_marseille","lat":43.30602,"lon":5.37225,"is_reserved":false,"is_disabled":false,"rental_uris":{"android":"levelo://app?vid=983303ff-dd0f-49e7-b80f-4c51a0aaa072","ios":"levelo://app?vid=983303ff-dd0f-49e7-b80f-4c51a0aaa072"},"vehicle_type_id":"4","last_reported":1727629587,"current_range_meters":12400,"station_id":"ce4bgqh2rcd13ifvqc4g","pricing_plan_id":"cebpf4jnsgd1na2vs0mg"},{"bike_id":"06a36fd8-0cee-4a52-8c87-da929c89cafc","system_id":"levelo_inurba_marseille","lat":43.29543,"lon":5.38538,"is_reserved":false,"is_disabled":false,"rental_uris":{"android":"levelo://app?vid=06a36fd8-0cee-4a52-8c87-da929c89cafc","ios":"levelo://app?vid=06a36fd8-0cee-4a52-8c87-da929c89cafc"},