{"last_updated":1768893601,"ttl":60,"version":"2.2","data":{"bikes":[{"bike_id":"fa1138be-8281-443a-aa82-11bedfaaa43c","system_id":"levelo_inurba_marseille","lat":43.29588,"lon":5.38094,"is_reserved":false,"is_disabled":false,"rental_uris":{"android":"levelo://app?vid=fa1138be-8281-443a-aa82-11bedfaaa43c","ios":"levelo://app?vid=fa1138be-8281-443a-aa82-11bedfaaa43c"},"vehicle_type_id":"4","last_reported":1768893602,"current_range_meters":2800,"station_id":"ce4bgl12rcd13ifvqbo0","pricing_plan_id":"cebpf4jnsgd1na2vs0mg"},{"bike_id":"35df58ab-77a3-4070-9ec0-1c9995a3f5b6","system_id":"levelo_inurba_marseille","lat":43.25335,"lon":5.42169,"is_reserved":false,"is_disabled":false,"rental_uris":{"android":"levelo://app?vid=35df58ab-77a3-4070-9ec0-1c9995a3f5b6","ios":"levelo://app?vid=35df58ab-77a3-4070-9ec0-1c9995a3f5b6"},"vehicle_type_id":"4","last_reported":1768893602,"current_range_meters":2800,"station_id":"st_d2m65c5bi1j21697t3ng","pricing_plan_id":"cebpf4jnsgd1na2vs0mg"},{"bike_id":"5f120a86-cc0b-40c7-9c31-6878b214f823","system_id":"levelo_inurba_marseille","lat":43.24804,"lon":5.37457,"is_reserved":false,"is_disabled":false,"rental_uris":{"android":"levelo://app?vid=5f120a86-cc0b-40c7-9c31-6878b214f823","ios":"levelo://app?vid=5f120a86-cc0b-40c7-9c31-6878b214f823"},"vehicle_type_id":"4","last_reported":1768893602,"current_range_meters":2800,"station_id":"ce4bhgh2rcd13ifvqfb0","pricing_plan_id":"cebpf4jnsgd1na2vs0mg"},{"bike_id":"40a51611-9c8e-4d07-89e8-8531c33c355b","system_id":"levelo_inurba_marseille","lat":43.27935,"lon":5.39586,"is_reserved":false,"is_disabled":false,"rental_uris":{"android":"levelo://app?vid=40a51611-9c8e-4d07-89e8-8531c33c355b","ios":"levelo://app?vid=40a51611-9c8e-4d07-89e8-8531c33c355b"},"vehicle_type_id":"4","last_reported":1768893602,"current_range_meters":2800,"station_id":"ce4bhf92rcd13ifvqf40","pricing_plan_id":"cebpf4jnsgd1na2vs0mg"},{"bike_id":"65d540a3-6b25-4335-8357-ca6e40a2c0bf","system_id":"levelo_inurba_marseille","lat":43.28485,"lon":5.38536,"is_reserved":false,"is_disabled":false,"rental_uris":{"android":"levelo://app?vid=65d540a3-6b25-4335-8357-ca6e40a2c0bf","ios":"levelo://app?vid=65d540a3-6b25-4335-8357-ca6e40a2c0bf"},"vehicle_type_id":"4","last_reported":1768893602,"current_range_meters":2800,"station_id":"ce4bh8p2rcd13ifvqeb0","pricing_plan_id":"cebpf4jnsgd1na2vs0mg"},{"bike_id":"529aa04a-360e-4ef3-a35e-912a79e48983","system_id":"levelo_inurba_marseille","lat":43.30463,"lon":5.37907,"is_reserved":false,"is_disabled":false,"rental_uris":{"android":"levelo://app?vid=529aa04a-360e-4ef3-a35e-912a79e48983","ios":"levelo://app?vid=529aa04a-360e-4ef3-a35e-912a79e48983"},"vehicle_type_id":"4","last_reported":1768893602,"current_range_meters":2800,"station_id":"ce4bgup2rcd13ifvqcn0","pricing_plan_id":"cebpf4jnsgd1na2vs0mg"},{"bike_id":"82a972ff-c30f-4326-8a02-4f8fe3b37884","system_id":"levelo_inurba_marseille","lat":43.237816,"lon":5.366285,"is_reserved":false,"is_disabled":false,"rental_uris":{"android":"levelo://app?vid=82a972ff-c30f-4326-8a02-4f8fe3b37884","ios":"levelo://app?vid=82a972ff-c30f-4326-8a02-4f8fe3b37884"},"vehicle_type_id":"4","last_reported":1768893602,"current_range_meters":2800,"station_id":"st_d3nk18o9ro0c73en2l3g","pricing_plan_id":"cebpf4jnsgd1na2vs0mg"},{"bike_id":"317dea54-40fb-4f2d-aa87-3d2f63dbed1d","system_id":"levelo_inurba_marseille","lat":43.29039,"lon":5.39965,"is_reserved":false,"is_disabled":false,"rental_uris":{"android":"levelo://app?vid=317dea54-40fb-4f2d-aa87-3d2f63dbed1d","ios":"levelo://app?vid=317dea54-40fb-4f2d-aa87-3d2f63dbed1d"},"vehicle_type_id":"4","last_reported":1768893602,"current_range_meters":2800,"station_id":"ce4bh392rcd13ifvqdm0","pricing_plan_id":"cebpf4jnsgd1na2vs0mg"},{"bike_id":"5eaccc9d-2b69-4116-b8f4-6671095c29ff","system_id":"levelo_inurba_marseille","lat":43.287548,"lon":5.371457,"is_reserved":false,"is_disabled":false,"rental_uris":{"android":"levelo://app?vid=5eaccc9d-2b69-4116-b8f4-6671095c29ff","ios":"levelo://app?vid=5eaccc9d-2b69-4116-b8f4-6671095c29ff"},"vehicle_type_id":"4","last_reported":1768893602,"current_range_meters":2800,"station_id":"","pricing_plan_id":"cebpf4jnsgd1na2vs0mg"},{"bike_id":"98831236-6741-4339-9875-3df8d0608896","system_id":"levelo_inurba_marseille","lat":43.26569,"lon":5.39012,"is_reserved":false,"is_disabled":false,"rental_uris":{"android":"levelo://app?vid=98831236-6741-4339-9875-3df8d0608896","ios":"levelo://app?vid=98831236-6741-4339-9875-3df8d0608896"},"vehicle_type_id":"4","last_reported":1768893602,"current_range_meters":2800,"station_id":"ce4bhe12rcd13ifvqf30","pricing_plan_id":"cebpf4jnsgd1na2vs0mg"},{"bike_id":"2dd4fbb2-8c9f-4388-8318-b6db9ff034d4","system_id":"levelo_inurba_marseille","lat":43.30871,"lon":5.39635,"is_reserved":false,"is_disabled":false,"rental_uris":{"android":"levelo://app?vid=2dd4fbb2-8c9f-4388-8318-b6db9ff034d4","ios":"levelo://app?vid=2dd4fbb2-8c9f-4388-8318-b6db9ff034d4"},"vehicle_type_id":"4","last_reported":1768893602,"current_range_meters":2800,"station_id":"ce4bh012rcd13ifvqcv0","pricing_plan_id":"cebpf4jnsgd1na2vs0mg"},{"bike_id":"920c26d8-8ebc-4174-b996-b489c0a23e3d","system_id":"levelo_inurba_marseille","lat":43.241744,"lon":5.39727,"is_reserved":false,"is_disabled":false,"rental_uris":{"android":"levelo://app?vid=920c26d8-8ebc-4174-b996-b489c0a23e3d","ios":"levelo://app?vid=920c26d8-8ebc-4174-b996-b489c0a23e3d"},"vehicle_type_id":"4","last_reported":1768893602,"current_range_meters":2800,"station_id":"ce4bhn12rcd13ifvqgpg","pricing_plan_id":"cebpf4jnsgd1na2vs0mg"},{"bike_id":"50c47a6e-8921-4008-8c5d-86f87ed06be3","system_id":"levelo_inurba_marseille","lat":43.28006,"lon":5.4,"is_reserved":false,"is_disabled":false,"rental_uris":{"android":"levelo://app?vid=50c47a6e-8921-4008-8c5d-86f87ed06be3","ios":"levelo://app?vid=50c47a6e-8921-4008-8c5d-86f87ed06be3"},"vehicle_type_id":"4","last_reported":1768893602,"current_range_meters":3200,"station_id":"ce4bho92rcd13ifvqh4g","pricing_plan_id":"cebpf4jnsgd1na2vs0mg"},{"bike_id":"0e03e69f-43b1-4ace-a2b0-c54c7a2e43e9","system_id":"levelo_inurba_marseille","lat":43.23962,"lon":5.36626,"is_reserved":false,"is_disabled":false,"rental_uris":{"android":"levelo://app?vid=0e03e69f-43b1-4ace-a2b0-c54c7a2e43e9","ios":"levelo://app?vid=0e03e69f-43b1-4ace-a2b0-c54c7a2e43e9"},"vehicle_type_id":"4","last_reported":1768893602,"current_range_meters":3200,"station_id":"ce4bhi12rcd13ifvqfp0","pricing_plan_id":"cebpf4jnsgd1na2vs0mg"},{"bike_id":"07d71416-deb7-4cc7-9f86-0f69e2a32773","system_id":"levelo_inurba_marseille","lat":43.24187,"lon":5.39731,"is_reserved":false,"is_disabled":false,"rental_uris":{"android":"levelo://app?vid=07d71416-deb7-4cc7-9f86-0f69e2a32773","ios":"levelo://app?vid=07d71416-deb7-4cc7-9f86-0f69e2a32773"},"vehicle_type_id":"4","last_reported":1768893602,"current_range_meters":3200,"station_id":"ce4bhn12rcd13ifvqgpg","pricing_plan_id":"cebpf4jnsgd1na2vs0mg"},{"bike_id":"0be1b7c2-2a16-4cfb-b6c6-31dc9a4a8cf1","system_id":"levelo_inurba_marseille","lat":43.27809,"lon":5.40717,"is_reserved":false,"is_disabled":false,"rental_uris":{"android":"levelo://app?vid=0be1b7c2-2a16-4cfb-b6c6-31dc9a4a8cf1","ios":"levelo://app?vid=0be1b7c2-2a16-4cfb-b6c6-31dc9a4a8cf1"},"vehicle_type_id":"4","last_reported":1768893602,"current_range_meters":3200,"station_id":"ce4bhnh2rcd13ifvqgtg","pricing_plan_id":"cebpf4jnsgd1na2vs0mg"},{"bike_id":"55d21a02-07fb-46ba-838f-eeef1264b7b0","system_id":"levelo_inurba_marseille","lat":43.2408,"lon":5.37751,"is_reserved":false,"is_disabled":false,"rental_uris":{"android":"levelo://app?vid=55d21a02-07fb-46ba-838f-eeef1264b7b0","ios":"levelo://app?vid=55d21a02-07fb-46ba-838f-eeef1264b7b0"},"vehicle_type_id":"4","last_reported":1768893602,"current_range_meters":3200,"station_id":"ce4bhnp2rcd13ifvqgvg","pricing_plan_id":"cebpf4jnsgd1na2vs0mg"},{"bike_id":"f18bc030-feac-4290-98f5-ef3dbe2dffcf","system_id":"levelo_inurba_marseille","lat":43.26492,"lon":5.39543,"is_reserved":false,"is_disabled":false,"rental_uris":{"android":"levelo://app?vid=f18bc030-feac-4290-98f5-ef3dbe2dffcf","ios":"levelo://app?vid=f18bc030-feac-4290-98f5-ef3dbe2dffcf"},"vehicle_type_id":"4","last_reported":1768893602,"current_range_meters":3200,"station_id":"ce4bhi12rcd13ifvqfq0","pricing_plan_id":"cebpf4jnsgd1na2vs0mg"},{"bike_id":"30648a60-6241-4603-ac25-c5c5b1d6ed82","system_id":"levelo_inurba_marseille","lat":43.29037,"lon":5.39955,"is_reserved":false,"is_disabled":false,"rental_uris":{"android":"levelo://app?vid=30648a60-6241-4603-ac25-c5c5b1d6ed82","ios":"levelo://app?vid=30648a60-6241-4603-ac25-c5c5b1d6ed82"},"vehicle_type_id":"4","last_reported":1768893602,"current_range_meters":3200,"station_id":"ce4bh392rcd13ifvqdm0","pricing_plan_id":"cebpf4jnsgd1na2vs0mg"},{"bike_id":"0ffa3a37-1efe-4773-9c0c-0281daa15b60","system_id":"levelo_inurba_marseille","lat":43.253098,"lon":5.380161,"is_reserved":false,"is_disabled":false,"rental_uris":{"android":"levelo://app?vid=0ffa3a37-1efe-4773-9c0c-0281daa15b60","ios":"levelo://app?vid=0ffa3a37-1efe-4773-9c0c-0281daa15b60"},"vehicle_type_id":"4","last_reported":1768893602,"current_range_meters":3200,"station_id":"","pricing_plan_id":"cebpf4jnsgd1na2vs0mg"},{"bike_id":"677a7507-9fa8-4b3b-bc9d-d833305c9270","system_id":"levelo_inurba_marseille","lat":43.30134,"lon":5.38095,"is_reserved":false,"is_disabled":false,"rental_uris":{"android":"levelo://app?vid=677a7507-9fa8-4b3b-bc9d-d833305c9270","ios":"levelo://app?vid=677a7507-9fa8-4b3b-bc9d-d833305c9270"},"vehicle_type_id":"4","last_reported":1768893602,"current_range_meters":3200,"station_id":"ce4bgjp2rcd13ifvqbh0","pricing_plan_id":"cebpf4jnsgd1na2vs0mg"},{"bike_id":"601c2709-22a4-464b-ac88-e378165071d7","system_id":"levelo_inurba_marseille","lat":43.253415,"lon":5.421616,"is_reserved":false,"is_disabled":false,"rental_uris":{"android":"levelo://app?vid=601c2709-22a4-464b-ac88-e378165071d7","ios":"levelo://app?vid=601c2709-22a4-464b-ac88-e378165071d7"},"vehicle_type_id":"4","last_reported":1768893602,"current_range_meters":3600,"station_id":"st_d2m65c5bi1j21697t3ng","pricing_plan_id":"cebpf4jnsgd1na2vs0mg"},{"bike_id":"92030df9-3983-40dd-ae8e-c537cab0af80","system_id":"levelo_inurba_marseille","lat":43.26485,"lon":5.39546,"is_reserved":false,"is_disabled":false,"rental_uris":{"android":"levelo://app?vid=92030df9-3983-40dd-ae8e-c537cab0af80","ios":"levelo://app?vid=92030df9-3983-40dd-ae8e-c537cab0af80"},"vehicle_type_id":"4","last_reported":1768893602,"current_range_meters":3600,"station_id":"ce4bhi12rcd13ifvqfq0","pricing_plan_id":"cebpf4jnsgd1na2vs0mg"},{"bike_id":"8fa47ca2-da7e-4316-ae96-082d0f48fc3f","system_id":"levelo_inurba_marseille","lat":43.29041,"lon":5.39966,"is_reserved":false,"is_disabled":false,"rental_uris":{"android":"levelo://app?vid=8fa47ca2-da7e-4316-ae96-082d0f48fc3f","ios":"levelo://app?vid=8fa47ca2-da7e-4316-ae96-082d0f48fc3f"},"vehicle_type_id":"4","last_reported":1768893602,"current_range_meters":3600,"station_id":"ce4bh392rcd13ifvqdm0","pricing_plan_id":"cebpf4jnsgd1na2vs0mg"},{"bike_id":"d94b0719-67c8-4a98-823a-17ee81ceae99","system_id":"levelo_inurba_marseille","lat":43.27985,"lon":5.39988,"is_reserved":false,"is_disabled":false,"rental_uris":{"android":"levelo://app?vid=d94b0719-67c8-4a98-823a-17ee81ceae99","ios":"levelo://app?vid=d94b0719-67c8-4a98-823a-17ee81ceae99"},"vehicle_type_id":"4","last_reported":1768893602,"current_range_meters":3600,"station_id":"ce4bho92rcd13ifvqh4g","pricing_plan_id":"cebpf4jnsgd1na2vs0mg"},{"bike_id":"7203e830-a3e8-48b3-874d-a33c2d2d3056","system_id":"levelo_inurba_marseille","lat":43.33753,"lon":5.37462,"is_reserved":false,"is_disabled":false,"rental_uris":{"android":"levelo://app?vid=7203e830-a3e8-48b3-874d-a33c2d2d3056","ios":"levelo://app?vid=7203e830-a3e8-48b3-874d-a33c2d2d3056"},"vehicle_type_id":"4","last_reported":1768893602,"current_range_meters":3600,"station_id":"","pricing_plan_id":"cebpf4jnsgd1na2vs0mg"},{"bike_id":"dc834293-0369-40ef-a636-a79fe6ea905b","system_id":"levelo_inurba_marseille","lat":43.26567,"lon":5.3901,"is_reserved":false,"is_disabled":false,"rental_uris":{"android":"levelo://app?vid=dc834293-0369-40ef-a636-a79fe6ea905b","ios":"levelo://app?vid=dc834293-0369-40ef-a636-a79fe6ea905b"},"vehicle_type_id":"4","last_reported":1768893602,"current_range_meters":3600,"station_id":"ce4bhe12rcd13ifvqf30","pricing_plan_id":"cebpf4jnsgd1na2vs0mg"},{"bike_id":"53d7389e-67e7-4845-ae5c-1cd339660b50","system_id":"levelo_inurba_marseille","lat":43.2656,"lon":5.40323,"is_reserved":false,"is_disabled":false,"rental_uris":{"android":"levelo://app?vid=53d7389e-67e7-4845-ae5c-1cd339660b50","ios":"levelo://app?vid=53d7389e-67e7-4845-ae5c-1cd339660b50"},"vehicle_type_id":"4","last_reported":1768893602,"current_range_meters":3600,"station_id":"ce4bhmp2rcd13ifvqgng","pricing_plan_id":"cebpf4jnsgd1na2vs0mg"},{"bike_id":"3e7944d2-897d-4013-9196-cd48e205db05","system_id":"levelo_inurba_marseille","lat":43.30465,"lon":5.37912,"is_reserved":false,"is_disabled":false,"rental_uris":{"android":"levelo://app?vid=3e7944d2-897d-4013-9196-cd48e205db05","ios":"levelo://app?vid=3e7944d2-897d-4013-9196-cd48e205db05"},"vehicle_type_id":"4","last_reported":1768893602,"current_range_meters":3600,"station_id":"ce4bgup2rcd13ifvqcn0","pricing_plan_id":"cebpf4jnsgd1na2vs0mg"},{"bike_id":"b7343a24-32ed-4961-866d-05110184ad77","system_id":"levelo_inurba_marseille","lat":43.30907,"lon":5.36846,"is_reserved":false,"is_disabled":false,"rental_uris":{"android":"levelo://app?vid=b7343a24-32ed-4961-866d-05110184ad77","ios":"levelo://app?vid=b7343a24-32ed-4961-866d-05110184ad77"},"vehicle_type_id":"4","last_reported":1768893602,"current_range_meters":4000,"station_id":"ce4bgn92rcd13ifvqbvg","pricing_plan_id":"cebpf4jnsgd1na2vs0mg"},{"bike_id":"aa734ba7-ce92-4c1b-86f8-f1622bce223c","system_id":"levelo_inurba_marseille","lat":43.2982,"lon":5.44058,"is_reserved":false,"is_disabled":true,"rental_uris":{"android":"levelo://app?vid=aa734ba7-ce92-4c1b-86f8-f1622bce223c","ios":"levelo://app?vid=aa734ba7-ce92-4c1b-86f8-f1622bce223c"},"vehicle_type_id":"4","last_reported":1768893602,"current_range_meters":4000,"station_id":"","pricing_plan_id":"cebpf4jnsgd1na2vs0mg"},{"bike_id":"4b5aa404-a223-4202-a9b4-4364010f0fb4","system_id":"levelo_inurba_marseille","lat":43.33758,"lon":5.37493,"is_reserved":false,"is_disabled":false,"rental_uris":{"android":"levelo://app?vid=4b5aa404-a223-4202-a9b4-4364010f0fb4","ios":"levelo://app?vid=4b5aa404-a223-4202-a9b4-4364010f0fb4"},"vehicle_type_id":"4","last_reported":1768893602,"current_range_meters":4000,"station_id":"","pricing_plan_id":"cebpf4jnsgd1na2vs0mg"},{"bike_id":"d16668c1-3494-42a0-89aa-a7fc6a4a19f9","system_id":"levelo_inurba_marseille","lat":43.22921,"lon":5.3538,"is_reserved":false,"is_disabled":false,"rental_uris":{"android":"levelo://app?vid=d16668c1-3494-42a0-89aa-a7fc6a4a19f9","ios":"levelo://app?vid=d16668c1-3494-42a0-89aa-a7fc6a4a19f9"},"vehicle_type_id":"4","last_reported":1768893602,"current_range_meters":4000,"station_id":"cpo3532slgdg3j2ikp40","pricing_plan_id":"cebpf4jnsgd1na2vs0mg"},{"bike_id":"58922b42-b0dc-43fd-bf81-dd6ae427768e","system_id":"levelo_inurba_marseille","lat":43.251914,"lon":5.40076,"is_reserved":false,"is_disabled":false,"rental_uris":{"android":"levelo://app?vid=58922b42-b0dc-43fd-bf81-dd6ae427768e","ios":"levelo://app?vid=58922b42-b0dc-43fd-bf81-dd6ae427768e"},"vehicle_type_id":"4","last_reported":1768893602,"current_range_meters":4000,"station_id":"","pricing_plan_id":"cebpf4jnsgd1na2vs0mg"},{"bike_id":"24c89c87-4e34-4758-98ab-4279f78b4108","system_id":"levelo_inurba_marseille","lat":43.25839,"lon":5.39431,"is_reserved":false,"is_disabled":false,"rental_uris":{"android":"levelo://app?vid=24c89c87-4e34-4758-98ab-4279f78b4108","ios":"levelo://app?vid=24c89c87-4e34-4758-98ab-4279f78b4108"},"vehicle_type_id":"4","last_reported":1768893602,"current_range_meters":4000,"station_id":"ce4bhip2rcd13ifvqft0","pricing_plan_id":"cebpf4jnsgd1na2vs0mg"},{"bike_id":"1c263368-f912-49d2-b079-de25ff89f105","system_id":"levelo_inurba_marseille","lat":43.27497,"lon":5.42456,"is_reserved":false,"is_disabled":false,"rental_uris":{"android":"levelo://app?vid=1c263368-f912-49d2-b079-de25ff89f105","ios":"levelo://app?vid=1c263368-f912-49d2-b079-de25ff89f105"},"vehicle_type_id":"4","last_reported":1768893602,"current_range_meters":4000,"station_id":"ce4bhn92rcd13ifvqgrg","pricing_plan_id":"cebpf4jnsgd1na2vs0mg"},{"bike_id":"1f98d89c-8dec-45fe-8489-d4b0908ef42d","system_id":"levelo_inurba_marseille","lat":43.26559,"lon":5.39019,"is_reserved":false,"is_disabled":false,"rental_uris":{"android":"levelo://app?vid=1f98d89c-8dec-45fe-8489-d4b0908ef42d","ios":"levelo://app?vid=1f98d89c-8dec-45fe-8489-d4b0908ef42d"},"vehicle_type_id":"4","last_reported":1768893602,"current_range_meters":4000,"station_id":"ce4bhe12rcd13ifvqf30","pricing_plan_id":"cebpf4jnsgd1na2vs0mg"},{"bike_id":"38992b65-200e-46e0-af7d-69d3313effee","system_id":"levelo_inurba_marseille","lat":43.326706,"lon":5.409799,"is_reserved":false,"is_disabled":false,"rental_uris":{"android":"levelo://app?vid=38992b65-200e-46e0-af7d-69d3313effee","ios":"levelo://app?vid=38992b65-200e-46e0-af7d-69d3313effee"},"vehicle_type_id":"4","last_reported":1768893602,"current_range_meters":4000,"station_id":"ce4bhpp2rcd13ifvqhgg","pricing_plan_id":"cebpf4jnsgd1na2vs0mg"},{"bike_id":"ba75286d-81a9-4a4b-af97-595813259f4f","system_id":"levelo_inurba_marseille","lat":43.28341,"lon":5.38097,"is_reserved":false,"is_disabled":false,"rental_uris":{"android":"levelo://app?vid=ba75286d-81a9-4a4b-af97-595813259f4f","ios":"levelo://app?vid=ba75286d-81a9-4a4b-af97-595813259f4f"},"vehicle_type_id":"4","last_reported":1768893602,"current_range_meters":4000,"station_id":"ce4bh412rcd13ifvqdr0","pricing_plan_id":"cebpf4jnsgd1na2vs0mg"},{"bike_id":"e46ab373-ef45-463d-9ac1-1303f2a97847","system_id":"levelo_inurba_marseille","lat":43.31115,"lon":5.37771,"is_reserved":false,"is_disabled":false,"rental_uris":{"android":"levelo://app?vid=e46ab373-ef45-463d-9ac1-1303f2a97847","ios":"levelo://app?vid=e46ab373-ef45-463d-9ac1-1303f2a97847"},"vehicle_type_id":"4","last_reported":1768893602,"current_range_meters":4000,"station_id":"ce4bgt92rcd13ifvqcg0","pricing_plan_id":"cebpf4jnsgd1na2vs0mg"},{"bike_id":"60ceba03-f848-4b58-a6c5-d7c6c8d79ea4","system_id":"levelo_inurba_marseille","lat":43.31475,"lon":5.37293,"is_reserved":false,"is_disabled":false,"rental_uris":{"android":"levelo://app?vid=60ceba03-f848-4b58-a6c5-d7c6c8d79ea4","ios":"levelo://app?vid=60ceba03-f848-4b58-a6c5-d7c6c8d79ea4"},"vehicle_type_id":"4","last_reported":1768893602,"current_range_meters":4000,"station_id":"ce4bgt12rcd13ifvqcd0","pricing_plan_id":"cebpf4jnsgd1na2vs0mg"},{"bike_id":"0c4b813a-77f0-4fac-894f-177b1a0b6e9e","system_id":"levelo_inurba_marseille","lat":43.28207,"lon":5.39084,"is_reserved":false,"is_disabled":false,"rental_uris":{"android":"levelo://app?vid=0c4b813a-77f0-4fac-894f-177b1a0b6e9e","ios":"levelo://app?vid=0c4b813a-77f0-4fac-894f-177b1a0b6e9e"},"vehicle_type_id":"4","last_reported":1768893602,"current_range_meters":4400,"station_id":"ce4bhn92rcd13ifvqgsg","pricing_plan_id":"cebpf4jnsgd1na2vs0mg"},{"bike_id":"55a93059-46da-4326-b3f6-eca54949cf8d","system_id":"levelo_inurba_marseille","lat":43.278169,"lon":5.407092,"is_reserved":false,"is_disabled":false,"rental_uris":{"android":"levelo://app?vid=55a93059-46da-4326-b3f6-eca54949cf8d","ios":"levelo://app?vid=55a93059-46da-4326-b3f6-eca54949cf8d"},"vehicle_type_id":"4","last_reported":1768893602,"current_range_meters":4400,"station_id":"ce4bhnh2rcd13ifvqgtg","pricing_plan_id":"cebpf4jnsgd1na2vs0mg"},{"bike_id":"0352f83e-42c9-4b95-aab1-5eb895fe3a3d","system_id":"levelo_inurba_marseille","lat":43.22563,"lon":5.41647,"is_reserved":false,"is_disabled":false,"rental_uris":{"android":"levelo://app?vid=0352f83e-42c9-4b95-aab1-5eb895fe3a3d","ios":"levelo://app?vid=0352f83e-42c9-4b95-aab1-5eb895fe3a3d"},"vehicle_type_id":"4","last_reported":1768893602,"current_range_meters":4400,"station_id":"st_d2o4gvlbi1j2169b742g","pricing_plan_id":"cebpf4jnsgd1na2vs0mg"},{"bike_id":"70759dae-d4b2-44e6-8a20-87abd20e5a24","system_id":"levelo_inurba_marseille","lat":43.3054,"lon":5.38427,"is_reserved":false,"is_disabled":false,"rental_uris":{"android":"levelo://app?vid=70759dae-d4b2-44e6-8a20-87abd20e5a24","ios":"levelo://app?vid=70759dae-d4b2-44e6-8a20-87abd20e5a24"},"vehicle_type_id":"4","last_reported":1768893602,"current_range_meters":4400,"station_id":"ce4bgg92rcd13ifvqb30","pricing_plan_id":"cebpf4jnsgd1na2vs0mg"},{"bike_id":"7a6cc7e6-e62e-4036-9f3f-d715644b73f9","system_id":"levelo_inurba_marseille","lat":43.249468,"lon":5.404942,"is_reserved":false,"is_disabled":false,"rental_uris":{"android":"levelo://app?vid=7a6cc7e6-e62e-4036-9f3f-d715644b73f9","ios":"levelo://app?vid=7a6cc7e6-e62e-4036-9f3f-d715644b73f9"},"vehicle_type_id":"4","last_reported":1768893602,"current_range_meters":4400,"station_id":"st_d2ngiaodas8pm72gd1h0","pricing_plan_id":"cebpf4jnsgd1na2vs0mg"},{"bike_id":"209885b9-a5a6-483e-aa0a-56d4a39a0d1b","system_id":"levelo_inurba_marseille","lat":43.28346,"lon":5.38106,"is_reserved":false,"is_disabled":false,"rental_uris":{"android":"levelo://app?vid=209885b9-a5a6-483e-aa0a-56d4a39a0d1b","ios":"levelo://app?vid=209885b9-a5a6-483e-aa0a-56d4a39a0d1b"},"vehicle_type_id":"4","last_reported":1768893602,"current_range_meters":4400,"station_id":"ce4bh412rcd13ifvqdr0","pricing_plan_id":"cebpf4jnsgd1na2vs0mg"},{"bike_id":"5a47b597-eb88-4d0f-a0cc-dc9cf6057637","system_id":"levelo_inurba_marseille","lat":43.246515,"lon":5.388939,"is_reserved":false,"is_disabled":false,"rental_uris":{"android":"levelo://app?vid=5a47b597-eb88-4d0f-a0cc-dc9cf6057637","ios":"levelo://app?vid=5a47b597-eb88-4d0f-a0cc-dc9cf6057637"},"vehicle_type_id":"4","last_reported":1768893602,"current_range_meters":4400,"station_id":"ce4bhg12rcd13ifvqf60","pricing_plan_id":"cebpf4jnsgd1na2vs0mg"},{"bike_id":"e5afdae1-8536-48ae-affe-93a7f04d1b80","system_id":"levelo_inurba_marseille","lat":43.28366,"lon":5.39431,"is_reserved":false,"is_disabled":false,"rental_uris":{"android":"levelo://app?vid=e5afdae1-8536-48ae-affe-93a7f04d1b80","ios":"levelo://app?vid=e5afdae1-8536-48ae-affe-93a7f04d1b80"},"vehicle_type_id":"4","last_reported":1768893602,"current_range_meters":4400,"station_id":"","pricing_plan_id":"cebpf4jnsgd1na2vs0mg"},{"bike_id":"72531f71-d042-483c-a024-3dc9ad4c3b33","system_id":"levelo_inurba_marseille","lat":43.27993,"lon":5.40021,"is_reserved":false,"is_disabled":false,"rental_uris":{"android":"levelo://app?vid=72531f71-d042-483c-a024-3dc9ad4c3b33","ios":"levelo://app?vid=72531f71-d042-483c-a024-3dc9ad4c3b33"},"vehicle_type_id":"4","last_reported":1768893602,"current_range_meters":4800,"station_id":"ce4bho92rcd13ifvqh4g","pricing_plan_id":"cebpf4jnsgd1na2vs0mg"},{"bike_id":"4695d6ad-5989-432b-94ea-ac0150fad1f8","system_id":"levelo_inurba_marseille","lat":43.2694,"lon":5.3864,"is_reserved":false,"is_disabled":false,"rental_uris":{"android":"levelo://app?vid=4695d6ad-5989-432b-94ea-ac0150fad1f8","ios":"levelo://app?vid=4695d6ad-5989-432b-94ea-ac0150fad1f8"},"vehicle_type_id":"4","last_reported":1768893602,"current_range_meters":4800,"station_id":"ce4bhh92rcd13ifvqfh0","pricing_plan_id":"cebpf4jnsgd1na2vs0mg"},{"bike_id":"4f2dd164-7013-43b2-a24e-bc13e5296f6a","system_id":"levelo_inurba_marseille","lat":43.241732,"lon":5.397258,"is_reserved":false,"is_disabled":false,"rental_uris":{"android":"levelo://app?vid=4f2dd164-7013-43b2-a24e-bc13e5296f6a","ios":"levelo://app?vid=4f2dd164-7013-43b2-a24e-bc13e5296f6a"},"vehicle_type_id":"4","last_reported":1768893602,"current_range_meters":4800,"station_id":"ce4bhn12rcd13ifvqgpg","pricing_plan_id":"cebpf4jnsgd1na2vs0mg"},{"bike_id":"ec94fe40-faf8-4393-aa9b-19221cfe6b58","system_id":"levelo_inurba_marseille","lat":43.30727,"lon":5.42469,"is_reserved":false,"is_disabled":false,"rental_uris":{"android":"levelo://app?vid=ec94fe40-faf8-4393-aa9b-19221cfe6b58","ios":"levelo://app?vid=ec94fe40-faf8-4393-aa9b-19221cfe6b58"},"vehicle_type_id":"4","last_reported":1768893602,"current_range_meters":4800,"station_id":"st_cvj6ca6bvosntc0bfgr0","pricing_plan_id":"cebpf4jnsgd1na2vs0mg"},{"bike_id":"d52747e8-8d11-49e5-85ba-c7fb86be12dd","system_id":"levelo_inurba_marseille","lat":43.2779,"lon":5.4072,"is_reserved":false,"is_disabled":false,"rental_uris":{"android":"levelo://app?vid=d52747e8-8d11-49e5-85ba-c7fb86be12dd","ios":"levelo://app?vid=d52747e8-8d11-49e5-85ba-c7fb86be12dd"},"vehicle_type_id":"4","last_reported":1768893602,"current_range_meters":4800,"station_id":"ce4bhnh2rcd13ifvqgtg","pricing_plan_id":"cebpf4jnsgd1na2vs0mg"},{"bike_id":"39f1692e-e85b-4af8-beb7-46fcd2b200dd","system_id":"levelo_inurba_marseille","lat":43.2961,"lon":5.38098,"is_reserved":false,"is_disabled":false,"rental_uris":{"android":"levelo://app?vid=39f1692e-e85b-4af8-beb7-46fcd2b200dd","ios":"levelo://app?vid=39f1692e-e85b-4af8-beb7-46fcd2b200dd"},"vehicle_type_id":"4","last_reported":1768893602,"current_range_meters":4800,"station_id":"ce4bgl12rcd13ifvqbo0","pricing_plan_id":"cebpf4jnsgd1na2vs0mg"},{"bike_id":"01a9dfdc-fec3-4957-aa4e-69893e0976c5","system_id":"levelo_inurba_marseille","lat":43.30571,"lon":5.36719,"is_reserved":false,"is_disabled":false,"rental_uris":{"android":"levelo://app?vid=01a9dfdc-fec3-4957-aa4e-69893e0976c5","ios":"levelo://app?vid=01a9dfdc-fec3-4957-aa4e-69893e0976c5"},"vehicle_type_id":"4","last_reported":1768893602,"current_range_meters":4800,"station_id":"ce4bgrp2rcd13ifvqc9g","pricing_plan_id":"cebpf4jnsgd1na2vs0mg"},{"bike_id":"f4fe3e6d-daf2-4673-8635-073d0deedcfd","system_id":"levelo_inurba_marseille","lat":43.25336,"lon":5.4217,"is_reserved":false,"is_disabled":false,"rental_uris":{"android":"levelo://app?vid=f4fe3e6d-daf2-4673-8635-073d0deedcfd","ios":"levelo://app?vid=f4fe3e6d-daf2-4673-8635-073d0deedcfd"},"vehicle_type_id":"4","last_reported":1768893602,"current_range_meters":4800,"station_id":"st_d2m65c5bi1j21697t3ng","pricing_plan_id":"cebpf4jnsgd1na2vs0mg"},{"bike_id":"e1662497-8580-464b-a7e1-2bbce3e9fc3f","system_id":"levelo_inurba_marseille","lat":43.26364,"lon":5.41081,"is_reserved":false,"is_disabled":false,"rental_uris":{"android":"levelo://app?vid=e1662497-8580-464b-a7e1-2bbce3e9fc3f","ios":"levelo://app?vid=e1662497-8580-464b-a7e1-2bbce3e9fc3f"},"vehicle_type_id":"4","last_reported":1768893602,"current_range_meters":4800,"station_id":"st_d4e5ca6na9uc73bfl5fg","pricing_plan_id":"cebpf4jnsgd1na2vs0mg"},{"bike_id":"b8fcd8cb-0594-4218-bff2-939b2eaa3365","system_id":"levelo_inurba_marseille","lat":43.27966,"lon":5.41017,"is_reserved":false,"is_disabled":false,"rental_uris":{"android":"levelo://app?vid=b8fcd8cb-0594-4218-bff2-939b2eaa3365","ios":"levelo://app?vid=b8fcd8cb-0594-4218-bff2-939b2eaa3365"},"vehicle_type_id":"4","last_reported":1768893602,"current_range_meters":5600,"station_id":"ce4bhnp2rcd13ifvqh0g","pricing_plan_id":"cebpf4jnsgd1na2vs0mg"},{"bike_id":"6e900072-d224-40b3-a534-c35f821a2dc2","system_id":"levelo_inurba_marseille","lat":43.29038,"lon":5.39959,"is_reserved":false,"is_disabled":false,"rental_uris":{"android":"levelo://app?vid=6e900072-d224-40b3-a534-c35f821a2dc2","ios":"levelo://app?vid=6e900072-d224-40b3-a534-c35f821a2dc2"},"vehicle_type_id":"4","last_reported":1768893602,"current_range_meters":5600,"station_id":"ce4bh392rcd13ifvqdm0","pricing_plan_id":"cebpf4jnsgd1na2vs0mg"},{"bike_id":"65fa859c-fd52-4fc1-bf24-0348f651f61b","system_id":"levelo_inurba_marseille","lat":43.279932,"lon":5.399942,"is_reserved":false,"is_disabled":false,"rental_uris":{"android":"levelo://app?vid=65fa859c-fd52-4fc1-bf24-0348f651f61b","ios":"levelo://app?vid=65fa859c-fd52-4fc1-bf24-0348f651f61b"},"vehicle_type_id":"4","last_reported":1768893602,"current_range_meters":5600,"station_id":"ce4bho92rcd13ifvqh4g","pricing_plan_id":"cebpf4jnsgd1na2vs0mg"},{"bike_id":"4c18c049-62ae-469f-b2ed-484231c5fbdf","system_id":"levelo_inurba_marseille","lat":43.31064,"lon":5.38351,"is_reserved":false,"is_disabled":false,"rental_uris":{"android":"levelo://app?vid=4c18c049-62ae-469f-b2ed-484231c5fbdf","ios":"levelo://app?vid=4c18c049-62ae-469f-b2ed-484231c5fbdf"},"vehicle_type_id":"4","last_reported":1768893602,"current_range_meters":5600,"station_id":"ce4bgv92rcd13ifvqcr0","pricing_plan_id":"cebpf4jnsgd1na2vs0mg"},{"bike_id":"4171eb03-3d59-473c-8bb8-47235cb3fd1c","system_id":"levelo_inurba_marseille","lat":43.29264,"lon":5.40115,"is_reserved":false,"is_disabled":false,"rental_uris":{"android":"levelo://app?vid=4171eb03-3d59-473c-8bb8-47235cb3fd1c","ios":"levelo://app?vid=4171eb03-3d59-473c-8bb8-47235cb3fd1c"},"vehicle_type_id":"4","last_reported":1768893602,"current_range_meters":5600,"station_id":"ce4bh312rcd13ifvqdk0","pricing_plan_id":"cebpf4jnsgd1na2vs0mg"},{"bike_id":"d9b02a63-6749-4e7c-a41c-f66a10e0384e","system_id":"levelo_inurba_marseille","lat":43.23171,"lon":5.39985,"is_reserved":false,"is_disabled":false,"rental_uris":{"android":"levelo://app?vid=d9b02a63-6749-4e7c-a41c-f66a10e0384e","ios":"levelo://app?vid=d9b02a63-6749-4e7c-a41c-f66a10e0384e"},"vehicle_type_id":"4","last_reported":1768893602,"current_range_meters":5600,"station_id":"ce4bhn12rcd13ifvqgqg","pricing_plan_id":"cebpf4jnsgd1na2vs0mg"},{"bike_id":"e696390d-8036-4f59-a8b6-4285efe55098","system_id":"levelo_inurba_marseille","lat":43.24638,"lon":5.38909,"is_reserved":false,"is_disabled":false,"rental_uris":{"android":"levelo://app?vid=e696390d-8036-4f59-a8b6-4285efe55098","ios":"levelo://app?vid=e696390d-8036-4f59-a8b6-4285efe55098"},"vehicle_type_id":"4","last_reported":1768893602,"current_range_meters":6000,"station_id":"ce4bhg12rcd13ifvqf60","pricing_plan_id":"cebpf4jnsgd1na2vs0mg"},{"bike_id":"526b8503-7faf-448a-b0f6-00cc94ab5971","system_id":"levelo_inurba_marseille","lat":43.24457,"lon":5.42534,"is_reserved":false,"is_disabled":false,"rental_uris":{"android":"levelo://app?vid=526b8503-7faf-448a-b0f6-00cc94ab5971","ios":"levelo://app?vid=526b8503-7faf-448a-b0f6-00cc94ab5971"},"vehicle_type_id":"4","last_reported":1768893602,"current_range_meters":6000,"station_id":"st_d4a3vfp97mjs738cd8kg","pricing_plan_id":"cebpf4jnsgd1na2vs0mg"},{"bike_id":"c97fb824-00a3-4490-920b-04c35b80521d","system_id":"levelo_inurba_marseille","lat":43.26547,"lon":5.39026,"is_reserved":false,"is_disabled":false,"rental_uris":{"android":"levelo://app?vid=c97fb824-00a3-4490-920b-04c35b80521d","ios":"levelo://app?vid=c97fb824-00a3-4490-920b-04c35b80521d"},"vehicle_type_id":"4","last_reported":1768893602,"current_range_meters":6000,"station_id":"ce4bhe12rcd13ifvqf30","pricing_plan_id":"cebpf4jnsgd1na2vs0mg"},{"bike_id":"e30883dd-96d3-4b00-8b5d-c5c36c37f796","system_id":"levelo_inurba_marseille","lat":43.255663,"lon":5.382395,"is_reserved":false,"is_disabled":false,"rental_uris":{"android":"levelo://app?vid=e30883dd-96d3-4b00-8b5d-c5c36c37f796","ios":"levelo://app?vid=e30883dd-96d3-4b00-8b5d-c5c36c37f796"},"vehicle_type_id":"4","last_reported":1768893602,"current_range_meters":6000,"station_id":"ce4bhih2rcd13ifvqfs0","pricing_plan_id":"cebpf4jnsgd1na2vs0mg"},{"bike_id":"b9127574-6b1e-4043-9224-ebb8aeabb571","system_id":"levelo_inurba_marseille","lat":43.301283,"lon":5.38782,"is_reserved":false,"is_disabled":true,"rental_uris":{"android":"levelo://app?vid=b9127574-6b1e-4043-9224-ebb8aeabb571","ios":"levelo://app?vid=b9127574-6b1e-4043-9224-ebb8aeabb571"},"vehicle_type_id":"4","last_reported":1768893602,"current_range_meters":6000,"station_id":"ce4bghh2rcd13ifvqb60","pricing_plan_id":"cebpf4jnsgd1na2vs0mg"},{"bike_id":"f949b1a8-0099-4897-af1c-b4c1c497f28f","system_id":"levelo_inurba_marseille","lat":43.25809,"lon":5.39433,"is_reserved":false,"is_disabled":false,"rental_uris":{"android":"levelo://app?vid=f949b1a8-0099-4897-af1c-b4c1c497f28f","ios":"levelo://app?vid=f949b1a8-0099-4897-af1c-b4c1c497f28f"},"vehicle_type_id":"4","last_reported":1768893602,"current_range_meters":6000,"station_id":"ce4bhip2rcd13ifvqft0","pricing_plan_id":"cebpf4jnsgd1na2vs0mg"},{"bike_id":"82bc016e-ea5f-4e74-95db-96f538282223","system_id":"levelo_inurba_marseille","lat":43.298557,"lon":5.362813,"is_reserved":false,"is_disabled":false,"rental_uris":{"android":"levelo://app?vid=82bc016e-ea5f-4e74-95db-96f538282223","ios":"levelo://app?vid=82bc016e-ea5f-4e74-95db-96f538282223"},"vehicle_type_id":"4","last_reported":1768893602,"current_range_meters":6000,"station_id":"ce4bgpp2rcd13ifvqc3g","pricing_plan_id":"cebpf4jnsgd1na2vs0mg"},{"bike_id":"d0a70439-b068-41ba-bc8d-4fbe10ec4141","system_id":"levelo_inurba_marseille","lat":43.28146,"lon":5.4265,"is_reserved":false,"is_disabled":false,"rental_uris":{"android":"levelo://app?vid=d0a70439-b068-41ba-bc8d-4fbe10ec4141","ios":"levelo://app?vid=d0a70439-b068-41ba-bc8d-4fbe10ec4141"},"vehicle_type_id":"4","last_reported":1768893602,"current_range_meters":6000,"station_id":"ce4bhnh2rcd13ifvqgug","pricing_plan_id":"cebpf4jnsgd1na2vs0mg"},{"bike_id":"90e30c61-c606-4ba6-adb5-183cc649b959","system_id":"levelo_inurba_marseille","lat":43.2794,"lon":5.41066,"is_reserved":false,"is_disabled":false,"rental_uris":{"android":"levelo://app?vid=90e30c61-c606-4ba6-adb5-183cc649b959","ios":"levelo://app?vid=90e30c61-c606-4ba6-adb5-183cc649b959"},"vehicle_type_id":"4","last_reported":1768893602,"current_range_meters":6000,"station_id":"ce4bhnp2rcd13ifvqh0g","pricing_plan_id":"cebpf4jnsgd1na2vs0mg"},{"bike_id":"b6b8ec85-87e8-4040-9579-c3e263420458","system_id":"levelo_inurba_marseille","lat":43.24078,"lon":5.37751,"is_reserved":false,"is_disabled":false,"rental_uris":{"android":"levelo://app?vid=b6b8ec85-87e8-4040-9579-c3e263420458","ios":"levelo://app?vid=b6b8ec85-87e8-4040-9579-c3e263420458"},"vehicle_type_id":"4","last_reported":1768893602,"current_range_meters":6000,"station_id":"ce4bhnp2rcd13ifvqgvg","pricing_plan_id":"cebpf4jnsgd1na2vs0mg"},{"bike_id":"19bcb73a-5c1c-43a7-bb3f-4fc00d3a2be6","system_id":"levelo_inurba_marseille","lat":43.24138,"lon":5.39748,"is_reserved":false,"is_disabled":false,"rental_uris":{"android":"levelo://app?vid=19bcb73a-5c1c-43a7-bb3f-4fc00d3a2be6","ios":"levelo://app?vid=19bcb73a-5c1c-43a7-bb3f-4fc00d3a2be6"},"vehicle_type_id":"4","last_reported":1768893602,"current_range_meters":6000,"station_id":"ce4bhn12rcd13ifvqgpg","pricing_plan_id":"cebpf4jnsgd1na2vs0mg"},{"bike_id":"84612c5b-19ac-4c89-818a-90118ba852a0","system_id":"levelo_inurba_marseille","lat":43.308819,"lon":5.368395,"is_reserved":false,"is_disabled":false,"rental_uris":{"android":"levelo://app?vid=84612c5b-19ac-4c89-818a-90118ba852a0","ios":"levelo://app?vid=84612c5b-19ac-4c89-818a-90118ba852a0"},"vehicle_type_id":"4","last_reported":1768893602,"current_range_meters":6000,"station_id":"ce4bgn92rcd13ifvqbvg","pricing_plan_id":"cebpf4jnsgd1na2vs0mg"},{"bike_id":"96dd3dae-f350-49db-a6e0-c6991dd99f49","system_id":"levelo_inurba_marseille","lat":43.26364,"lon":5.4109,"is_reserved":false,"is_disabled":false,"rental_uris":{"android":"levelo://app?vid=96dd3dae-f350-49db-a6e0-c6991dd99f49","ios":"levelo://app?vid=96dd3dae-f350-49db-a6e0-c6991dd99f49"},"vehicle_type_id":"4","last_reported":1768893602,"current_range_meters":6000,"station_id":"st_d4e5ca6na9uc73bfl5fg","pricing_plan_id":"cebpf4jnsgd1na2vs0mg"},{"bike_id":"facb9b9f-d024-45f5-ba3c-0ea07443eee4","system_id":"levelo_inurba_marseille","lat":43.2903,"lon":5.39963,"is_reserved":false,"is_disabled":false,"rental_uris":{"android":"levelo://app?vid=facb9b9f-d024-45f5-ba3c-0ea07443eee4","ios":"levelo://app?vid=facb9b9f-d024-45f5-ba3c-0ea07443eee4"},"vehicle_type_id":"4","last_reported":1768893602,"current_range_meters":6000,"station_id":"ce4bh392rcd13ifvqdm0","pricing_plan_id":"cebpf4jnsgd1na2vs0mg"},{"bike_id":"d8bfb2e5-5baa-4794-9f56-3108e552202f","system_id":"levelo_inurba_marseille","lat":43.27823,"lon":5.40731,"is_reserved":false,"is_disabled":false,"rental_uris":{"android":"levelo://app?vid=d8bfb2e5-5baa-4794-9f56-3108e552202f","ios":"levelo://app?vid=d8bfb2e5-5baa-4794-9f56-3108e552202f"},"vehicle_type_id":"4","last_reported":1768893602,"current_range_meters":6000,"station_id":"ce4bhnh2rcd13ifvqgtg","pricing_plan_id":"cebpf4jnsgd1na2vs0mg"},{"bike_id":"77a1140a-0d3b-41a6-b6b0-7d28a908c6be","system_id":"levelo_inurba_marseille","lat":43.24396,"lon":5.37084,"is_reserved":false,"is_disabled":false,"rental_uris":{"android":"levelo://app?vid=77a1140a-0d3b-41a6-b6b0-7d28a908c6be","ios":"levelo://app?vid=77a1140a-0d3b-41a6-b6b0-7d28a908c6be"},"vehicle_type_id":"4","last_reported":1768893602,"current_range_meters":6400,"station_id":"ce4bhhh2rcd13ifvqfk0","pricing_plan_id":"cebpf4jnsgd1na2vs0mg"},{"bike_id":"c5527a6e-bcfd-4bc6-90cd-b40ae037aaab","system_id":"levelo_inurba_marseille","lat":43.28475,"lon":5.3842,"is_reserved":false,"is_disabled":false,"rental_uris":{"android":"levelo://app?vid=c5527a6e-bcfd-4bc6-90cd-b40ae037aaab","ios":"levelo://app?vid=c5527a6e-bcfd-4bc6-90cd-b40ae037aaab"},"vehicle_type_id":"4","last_reported":1768893602,"current_range_meters":6400,"station_id":"ce4bh512rcd13ifvqe3g","pricing_plan_id":"cebpf4jnsgd1na2vs0mg"},{"bike_id":"2a7e72c7-7fdf-46b5-8e98-fbe8666dc7c0","system_id":"levelo_inurba_marseille","lat":43.2481,"lon":5.37453,"is_reserved":false,"is_disabled":false,"rental_uris":{"android":"levelo://app?vid=2a7e72c7-7fdf-46b5-8e98-fbe8666dc7c0","ios":"levelo://app?vid=2a7e72c7-7fdf-46b5-8e98-fbe8666dc7c0"},"vehicle_type_id":"4","last_reported":1768893602,"current_range_meters":6400,"station_id":"ce4bhgh2rcd13ifvqfb0","pricing_plan_id":"cebpf4jnsgd1na2vs0mg"},{"bike_id":"06bc447b-16e0-4732-afcc-36d4f751f25b","system_id":"levelo_inurba_marseille","lat":43.23153,"lon":5.43717,"is_reserved":false,"is_disabled":false,"rental_uris":{"android":"levelo://app?vid=06bc447b-16e0-4732-afcc-36d4f751f25b","ios":"levelo://app?vid=06bc447b-16e0-4732-afcc-36d4f751f25b"},"vehicle_type_id":"4","last_reported":1768893602,"current_range_meters":6400,"station_id":"ce4bhmp2rcd13ifvqgog","pricing_plan_id":"cebpf4jnsgd1na2vs0mg"},{"bike_id":"dc8c1109-459c-4368-859d-186168c2462d","system_id":"levelo_inurba_marseille","lat":43.24143,"lon":5.36409,"is_reserved":false,"is_disabled":false,"rental_uris":{"android":"levelo://app?vid=dc8c1109-459c-4368-859d-186168c2462d","ios":"levelo://app?vid=dc8c1109-459c-4368-859d-186168c2462d"},"vehicle_type_id":"4","last_reported":1768893602,"current_range_meters":6400,"station_id":"cpo36qri1sfpv3e86is0","pricing_plan_id":"cebpf4jnsgd1na2vs0mg"},{"bike_id":"cda89745-8f54-4bf5-8360-8da5fc0056d3","system_id":"levelo_inurba_marseille","lat":43.310718,"lon":5.383534,"is_reserved":false,"is_disabled":false,"rental_uris":{"android":"levelo://app?vid=cda89745-8f54-4bf5-8360-8da5fc0056d3","ios":"levelo://app?vid=cda89745-8f54-4bf5-8360-8da5fc0056d3"},"vehicle_type_id":"4","last_reported":1768893602,"current_range_meters":6400,"station_id":"ce4bgv92rcd13ifvqcr0","pricing_plan_id":"cebpf4jnsgd1na2vs0mg"},{"bike_id":"26fa87a8-64e8-4574-88ad-3ef617745c36","system_id":"levelo_inurba_marseille","lat":43.27802,"lon":5.40696,"is_reserved":false,"is_disabled":false,"rental_uris":{"android":"levelo://app?vid=26fa87a8-64e8-4574-88ad-3ef617745c36","ios":"levelo://app?vid=26fa87a8-64e8-4574-88ad-3ef617745c36"},"vehicle_type_id":"4","last_reported":1768893602,"current_range_meters":6400,"station_id":"ce4bhnh2rcd13ifvqgtg","pricing_plan_id":"cebpf4jnsgd1na2vs0mg"},{"bike_id":"17afde82-1b49-42f3-8c35-6f5154e1d612","system_id":"levelo_inurba_marseille","lat":43.26501,"lon":5.39539,"is_reserved":false,"is_disabled":false,"rental_uris":{"android":"levelo://app?vid=17afde82-1b49-42f3-8c35-6f5154e1d612","ios":"levelo://app?vid=17afde82-1b49-42f3-8c35-6f5154e1d612"},"vehicle_type_id":"4","last_reported":1768893602,"current_range_meters":6400,"station_id":"ce4bhi12rcd13ifvqfq0","pricing_plan_id":"cebpf4jnsgd1na2vs0mg"},{"bike_id":"f650aff8-e742-48ca-8e77-f4fd3b3eebb9","system_id":"levelo_inurba_marseille","lat":43.26865,"lon":5.39565,"is_reserved":false,"is_disabled":false,"rental_uris":{"android":"levelo://app?vid=f650aff8-e742-48ca-8e77-f4fd3b3eebb9","ios":"levelo://app?vid=f650aff8-e742-48ca-8e77-f4fd3b3eebb9"},"vehicle_type_id":"4","last_reported":1768893602,"current_range_meters":6400,"station_id":"","pricing_plan_id":"cebpf4jnsgd1na2vs0mg"},{"bike_id":"c945f0ba-a485-4dbc-9c7e-745da3aefd34","system_id":"levelo_inurba_marseille","lat":43.2781,"lon":5.40719,"is_reserved":false,"is_disabled":false,"rental_uris":{"android":"levelo://app?vid=c945f0ba-a485-4dbc-9c7e-745da3aefd34","ios":"levelo://app?vid=c945f0ba-a485-4dbc-9c7e-745da3aefd34"},"vehicle_type_id":"4","last_reported":1768893602,"current_range_meters":6400,"station_id":"ce4bhnh2rcd13ifvqgtg","pricing_plan_id":"cebpf4jnsgd1na2vs0mg"},{"bike_id":"9536640c-8509-446f-ac69-5724173596ab","system_id":"levelo_inurba_marseille","lat":43.284805,"lon":5.38411,"is_reserved":false,"is_disabled":false,"rental_uris":{"android":"levelo://app?vid=9536640c-8509-446f-ac69-5724173596ab","ios":"levelo://app?vid=9536640c-8509-446f-ac69-5724173596ab"},"vehicle_type_id":"4","last_reported":1768893602,"current_range_meters":6400,"station_id":"ce4bh512rcd13ifvqe3g","pricing_plan_id":"cebpf4jnsgd1na2vs0mg"},{"bike_id":"30a4fec0-552e-4f59-a219-04b536436fc8","system_id":"levelo_inurba_marseille","lat":43.237814,"lon":5.366303,"is_reserved":false,"is_disabled":false,"rental_uris":{"android":"levelo://app?vid=30a4fec0-552e-4f59-a219-04b536436fc8","ios":"levelo://app?vid=30a4fec0-552e-4f59-a219-04b536436fc8"},"vehicle_type_id":"4","last_reported":1768893602,"current_range_meters":6400,"station_id":"st_d3nk18o9ro0c73en2l3g","pricing_plan_id":"cebpf4jnsgd1na2vs0mg"},{"bike_id":"9e5998a3-e8ec-4ff6-bdc2-90c25f4c041f","system_id":"levelo_inurba_marseille","lat":43.25803,"lon":5.39433,"is_reserved":false,"is_disabled":false,"rental_uris":{"android":"levelo://app?vid=9e5998a3-e8ec-4ff6-bdc2-90c25f4c041f","ios":"levelo://app?vid=9e5998a3-e8ec-4ff6-bdc2-90c25f4c041f"},"vehicle_type_id":"4","last_reported":1768893602,"current_range_meters":6400,"station_id":"ce4bhip2rcd13ifvqft0","pricing_plan_id":"cebpf4jnsgd1na2vs0mg"},{"bike_id":"5a6fe4a6-b493-4624-af1b-5293739df8a0","system_id":"levelo_inurba_marseille","lat":43.305924,"lon":5.372187,"is_reserved":false,"is_disabled":false,"rental_uris":{"android":"levelo://app?vid=5a6fe4a6-b493-4624-af1b-5293739df8a0","ios":"levelo://app?vid=5a6fe4a6-b493-4624-af1b-5293739df8a0"},"vehicle_type_id":"4","last_reported":1768893602,"current_range_meters":6400,"station_id":"ce4bgqh2rcd13ifvqc4g","pricing_plan_id":"cebpf4jnsgd1na2vs0mg"},{"bike_id":"daee6798-8857-4583-ac1c-a8da4c47a0f8","system_id":"levelo_inurba_marseille","lat":43.29591,"lon":5.38091,"is_reserved":false,"is_disabled":false,"rental_uris":{"android":"levelo://app?vid=daee6798-8857-4583-ac1c-a8da4c47a0f8","ios":"levelo://app?vid=daee6798-8857-4583-ac1c-a8da4c47a0f8"},"vehicle_type_id":"4","last_reported":1768893602,"current_range_meters":6400,"station_id":"ce4bgl12rcd13ifvqbo0","pricing_plan_id":"cebpf4jnsgd1na2vs0mg"},{"bike_id":"704ac3b1-9696-4a13-8322-ee852268fcf2","system_id":"levelo_inurba_marseille","lat":43.28421,"lon":5.3498,"is_reserved":false,"is_disabled":false,"rental_uris":{"android":"levelo://app?vid=704ac3b1-9696-4a13-8322-ee852268fcf2","ios":"levelo://app?vid=704ac3b1-9696-4a13-8322-ee852268fcf2"},"vehicle_type_id":"4","last_reported":1768893602,"current_range_meters":6400,"station_id":"ce4bhbh2rcd13ifvqepg","pricing_plan_id":"cebpf4jnsgd1na2vs0mg"},{"bike_id":"1d96bc89-a55a-4036-8519-21c71a49b3da","system_id":"levelo_inurba_marseille","lat":43.31095,"lon":5.38009,"is_reserved":false,"is_disabled":false,"rental_uris":{"android":"levelo://app?vid=1d96bc89-a55a-4036-8519-21c71a49b3da","ios":"levelo://app?vid=1d96bc89-a55a-4036-8519-21c71a49b3da"},"vehicle_type_id":"4","last_reported":1768893602,"current_range_meters":6400,"station_id":"","pricing_plan_id":"cebpf4jnsgd1na2vs0mg"},{"bike_id":"a8d2063b-b136-4ccb-ad44-f4ea411c2cb1","system_id":"levelo_inurba_marseille","lat":43.24632,"lon":5.43157,"is_reserved":false,"is_disabled":false,"rental_uris":{"android":"levelo://app?vid=a8d2063b-b136-4ccb-ad44-f4ea411c2cb1","ios":"levelo://app?vid=a8d2063b-b136-4ccb-ad44-f4ea411c2cb1"},"vehicle_type_id":"4","last_reported":1768893602,"current_range_meters":6800,"station_id":"st_d2m6c4gdas8pm72e190g","pricing_plan_id":"cebpf4jnsgd1na2vs0mg"},{"bike_id":"0021f08b-142e-437d-99d6-ba98b8723cac","system_id":"levelo_inurba_marseille","lat":43.3361,"lon":5.41047,"is_reserved":false,"is_disabled":false,"rental_uris":{"android":"levelo://app?vid=0021f08b-142e-437d-99d6-ba98b8723cac","ios":"levelo://app?vid=0021f08b-142e-437d-99d6-ba98b8723cac"},"vehicle_type_id":"4","last_reported":1768893602,"current_range_meters":6800,"station_id":"ce4bhqh2rcd13ifvqhmg","pricing_plan_id":"cebpf4jnsgd1na2vs0mg"},{"bike_id":"d98680e2-8519-4eb7-88a9-6aba4c293400","system_id":"levelo_inurba_marseille","lat":43.27988,"lon":5.40004,"is_reserved":false,"is_disabled":false,"rental_uris":{"android":"levelo://app?vid=d98680e2-8519-4eb7-88a9-6aba4c293400","ios":"levelo://app?vid=d98680e2-8519-4eb7-88a9-6aba4c293400"},"vehicle_type_id":"4","last_reported":1768893602,"current_range_meters":6800,"station_id":"ce4bho92rcd13ifvqh4g","pricing_plan_id":"cebpf4jnsgd1na2vs0mg"},{"bike_id":"6e7007a4-50a4-410a-b7bd-d0ebb7830797","system_id":"levelo_inurba_marseille","lat":43.24174,"lon":5.39714,"is_reserved":false,"is_disabled":false,"rental_uris":{"android":"levelo://app?vid=6e7007a4-50a4-410a-b7bd-d0ebb7830797","ios":"levelo://app?vid=6e7007a4-50a4-410a-b7bd-d0ebb7830797"},"vehicle_type_id":"4","last_reported":1768893602,"current_range_meters":6800,"station_id":"ce4bhn12rcd13ifvqgpg","pricing_plan_id":"cebpf4jnsgd1na2vs0mg"},{"bike_id":"fc17e8b9-2adb-4e96-bbab-76941e2577c9","system_id":"levelo_inurba_marseille","lat":43.25727,"lon":5.38977,"is_reserved":false,"is_disabled":false,"rental_uris":{"android":"levelo://app?vid=fc17e8b9-2adb-4e96-bbab-76941e2577c9","ios":"levelo://app?vid=fc17e8b9-2adb-4e96-bbab-76941e2577c9"},"vehicle_type_id":"4","last_reported":1768893602,"current_range_meters":6800,"station_id":"","pricing_plan_id":"cebpf4jnsgd1na2vs0mg"},{"bike_id":"7d639f13-449d-4532-bef0-d072cb92a006","system_id":"levelo_inurba_marseille","lat":43.2905,"lon":5.37153,"is_reserved":false,"is_disabled":false,"rental_uris":{"android":"levelo://app?vid=7d639f13-449d-4532-bef0-d072cb92a006","ios":"levelo://app?vid=7d639f13-449d-4532-bef0-d072cb92a006"},"vehicle_type_id":"4","last_reported":1768893602,"current_range_meters":6800,"station_id":"ce4bh5p2rcd13ifvqe4g","pricing_plan_id":"cebpf4jnsgd1na2vs0mg"},{"bike_id":"71f428f0-7078-4b8c-ac98-cf141cac017d","system_id":"levelo_inurba_marseille","lat":43.24987,"lon":5.38946,"is_reserved":false,"is_disabled":false,"rental_uris":{"android":"levelo://app?vid=71f428f0-7078-4b8c-ac98-cf141cac017d","ios":"levelo://app?vid=71f428f0-7078-4b8c-ac98-cf141cac017d"},"vehicle_type_id":"4","last_reported":1768893602,"current_range_meters":6800,"station_id":"ce4bhgp2rcd13ifvqfd0","pricing_plan_id":"cebpf4jnsgd1na2vs0mg"},{"bike_id":"42b5ad2d-acd8-454f-95e3-acdb00543462","system_id":"levelo_inurba_marseille","lat":43.260598,"lon":5.39391,"is_reserved":false,"is_disabled":false,"rental_uris":{"android":"levelo://app?vid=42b5ad2d-acd8-454f-95e3-acdb00543462","ios":"levelo://app?vid=42b5ad2d-acd8-454f-95e3-acdb00543462"},"vehicle_type_id":"4","last_reported":1768893602,"current_range_meters":6800,"station_id":"ce4bhh92rcd13ifvqfj0","pricing_plan_id":"cebpf4jnsgd1na2vs0mg"},{"bike_id":"97096676-429c-4f07-9652-1523f48f5442","system_id":"levelo_inurba_marseille","lat":43.30266,"lon":5.43429,"is_reserved":false,"is_disabled":false,"rental_uris":{"android":"levelo://app?vid=97096676-429c-4f07-9652-1523f48f5442","ios":"levelo://app?vid=97096676-429c-4f07-9652-1523f48f5442"},"vehicle_type_id":"4","last_reported":1768893602,"current_range_meters":6800,"station_id":"","pricing_plan_id":"cebpf4jnsgd1na2vs0mg"},{"bike_id":"f9521f2f-ef1d-4474-82c2-4520713c5b63","system_id":"levelo_inurba_marseille","lat":43.27991,"lon":5.41671,"is_reserved":false,"is_disabled":false,"rental_uris":{"android":"levelo://app?vid=f9521f2f-ef1d-4474-82c2-4520713c5b63","ios":"levelo://app?vid=f9521f2f-ef1d-4474-82c2-4520713c5b63"},"vehicle_type_id":"4","last_reported":1768893602,"current_range_meters":6800,"station_id":"ce4bho12rcd13ifvqh1g","pricing_plan_id":"cebpf4jnsgd1na2vs0mg"},{"bike_id":"aaff8d94-1fa8-4cba-bdbc-2775e2b840f4","system_id":"levelo_inurba_marseille","lat":43.30903,"lon":5.38037,"is_reserved":false,"is_disabled":false,"rental_uris":{"android":"levelo://app?vid=aaff8d94-1fa8-4cba-bdbc-2775e2b840f4","ios":"levelo://app?vid=aaff8d94-1fa8-4cba-bdbc-2775e2b840f4"},"vehicle_type_id":"4","last_reported":1768893602,"current_range_meters":6800,"station_id":"","pricing_plan_id":"cebpf4jnsgd1na2vs0mg"},{"bike_id":"aaef3ec1-41c8-4c84-860e-bea41a8299bc","system_id":"levelo_inurba_marseille","lat":43.22559,"lon":5.4162,"is_reserved":false,"is_disabled":false,"rental_uris":{"android":"levelo://app?vid=aaef3ec1-41c8-4c84-860e-bea41a8299bc","ios":"levelo://app?vid=aaef3ec1-41c8-4c84-860e-bea41a8299bc"},"vehicle_type_id":"4","last_reported":1768893602,"current_range_meters":6800,"station_id":"st_d2o4gvlbi1j2169b742g","pricing_plan_id":"cebpf4jnsgd1na2vs0mg"},{"bike_id":"d1656b93-1b71-4e85-bf98-22a1e92bb468","system_id":"levelo_inurba_marseille","lat":43.28871,"lon":5.42507,"is_reserved":false,"is_disabled":false,"rental_uris":{"android":"levelo://app?vid=d1656b93-1b71-4e85-bf98-22a1e92bb468","ios":"levelo://app?vid=d1656b93-1b71-4e85-bf98-22a1e92bb468"},"vehicle_type_id":"4","last_reported":1768893602,"current_range_meters":6800,"station_id":"st_d3b462108ojc7389ooeg","pricing_plan_id":"cebpf4jnsgd1na2vs0mg"},{"bike_id":"bb5eb513-2e80-4ca2-8fe7-e4e4affc324a","system_id":"levelo_inurba_marseille","lat":43.27935,"lon":5.41049,"is_reserved":false,"is_disabled":false,"rental_uris":{"android":"levelo://app?vid=bb5eb513-2e80-4ca2-8fe7-e4e4affc324a","ios":"levelo://app?vid=bb5eb513-2e80-4ca2-8fe7-e4e4affc324a"},"vehicle_type_id":"4","last_reported":1768893602,"current_range_meters":6800,"station_id":"ce4bhnp2rcd13ifvqh0g","pricing_plan_id":"cebpf4jnsgd1na2vs0mg"},{"bike_id":"cc08d2b6-69fb-4c32-9f0f-91f88c556b74","system_id":"levelo_inurba_marseille","lat":43.22914,"lon":5.35398,"is_reserved":false,"is_disabled":false,"rental_uris":{"android":"levelo://app?vid=cc08d2b6-69fb-4c32-9f0f-91f88c556b74","ios":"levelo://app?vid=cc08d2b6-69fb-4c32-9f0f-91f88c556b74"},"vehicle_type_id":"4","last_reported":1768893602,"current_range_meters":6800,"station_id":"cpo3532slgdg3j2ikp40","pricing_plan_id":"cebpf4jnsgd1na2vs0mg"},{"bike_id":"3c0bb7d7-7ea2-4502-a02e-c86beaa596bf","system_id":"levelo_inurba_marseille","lat":43.28924,"lon":5.38407,"is_reserved":false,"is_disabled":true,"rental_uris":{"android":"levelo://app?vid=3c0bb7d7-7ea2-4502-a02e-c86beaa596bf","ios":"levelo://app?vid=3c0bb7d7-7ea2-4502-a02e-c86beaa596bf"},"vehicle_type_id":"4","last_reported":1768893602,"current_range_meters":6800,"station_id":"ce4bh612rcd13ifvqe6g","pricing_plan_id":"cebpf4jnsgd1na2vs0mg"},{"bike_id":"0295f9ba-4e73-430a-9e09-5c8e9c5ec835","system_id":"levelo_inurba_marseille","lat":43.279391,"lon":5.410509,"is_reserved":false,"is_disabled":false,"rental_uris":{"android":"levelo://app?vid=0295f9ba-4e73-430a-9e09-5c8e9c5ec835","ios":"levelo://app?vid=0295f9ba-4e73-430a-9e09-5c8e9c5ec835"},"vehicle_type_id":"4","last_reported":1768893602,"current_range_meters":7200,"station_id":"ce4bhnp2rcd13ifvqh0g","pricing_plan_id":"cebpf4jnsgd1na2vs0mg"},{"bike_id":"9a6fa9d6-bd85-41a0-a1be-8f3bc0337c0a","system_id":"levelo_inurba_marseille","lat":43.24462,"lon":5.42539,"is_reserved":false,"is_disabled":false,"rental_uris":{"android":"levelo://app?vid=9a6fa9d6-bd85-41a0-a1be-8f3bc0337c0a","ios":"levelo://app?vid=9a6fa9d6-bd85-41a0-a1be-8f3bc0337c0a"},"vehicle_type_id":"4","last_reported":1768893602,"current_range_meters":7200,"station_id":"st_d4a3vfp97mjs738cd8kg","pricing_plan_id":"cebpf4jnsgd1na2vs0mg"},{"bike_id":"3a73d29d-19a3-4829-b646-774a893045f4","system_id":"levelo_inurba_marseille","lat":43.24356,"lon":5.42649,"is_reserved":false,"is_disabled":false,"rental_uris":{"android":"levelo://app?vid=3a73d29d-19a3-4829-b646-774a893045f4","ios":"levelo://app?vid=3a73d29d-19a3-4829-b646-774a893045f4"},"vehicle_type_id":"4","last_reported":1768893602,"current_range_meters":7200,"station_id":"","pricing_plan_id":"cebpf4jnsgd1na2vs0mg"},{"bike_id":"b4d4d78b-c7ae-46d1-84aa-0c58c638c8ea","system_id":"levelo_inurba_marseille","lat":43.27967,"lon":5.41665,"is_reserved":false,"is_disabled":false,"rental_uris":{"android":"levelo://app?vid=b4d4d78b-c7ae-46d1-84aa-0c58c638c8ea","ios":"levelo://app?vid=b4d4d78b-c7ae-46d1-84aa-0c58c638c8ea"},"vehicle_type_id":"4","last_reported":1768893602,"current_range_meters":7200,"station_id":"ce4bho12rcd13ifvqh1g","pricing_plan_id":"cebpf4jnsgd1na2vs0mg"},{"bike_id":"21af5764-4865-41d2-abcd-e9a740f91eb4","system_id":"levelo_inurba_marseille","lat":43.26609,"lon":5.40321,"is_reserved":false,"is_disabled":false,"rental_uris":{"android":"levelo://app?vid=21af5764-4865-41d2-abcd-e9a740f91eb4","ios":"levelo://app?vid=21af5764-4865-41d2-abcd-e9a740f91eb4"},"vehicle_type_id":"4","last_reported":1768893602,"current_range_meters":7200,"station_id":"","pricing_plan_id":"cebpf4jnsgd1na2vs0mg"},{"bike_id":"73a4e6a5-0c0f-409b-a59b-671187d7eeb4","system_id":"levelo_inurba_marseille","lat":43.24178,"lon":5.39716,"is_reserved":false,"is_disabled":false,"rental_uris":{"android":"levelo://app?vid=73a4e6a5-0c0f-409b-a59b-671187d7eeb4","ios":"levelo://app?vid=73a4e6a5-0c0f-409b-a59b-671187d7eeb4"},"vehicle_type_id":"4","last_reported":1768893602,"current_range_meters":7200,"station_id":"ce4bhn12rcd13ifvqgpg","pricing_plan_id":"cebpf4jnsgd1na2vs0mg"},{"bike_id":"bbca3cac-f4e5-474b-9f41-abeadf4dcf10","system_id":"levelo_inurba_marseille","lat":43.31324,"lon":5.39704,"is_reserved":false,"is_disabled":false,"rental_uris":{"android":"levelo://app?vid=bbca3cac-f4e5-474b-9f41-abeadf4dcf10","ios":"levelo://app?vid=bbca3cac-f4e5-474b-9f41-abeadf4dcf10"},"vehicle_type_id":"4","last_reported":1768893602,"current_range_meters":7200,"station_id":"ce4bgvp2rcd13ifvqcu0","pricing_plan_id":"cebpf4jnsgd1na2vs0mg"},{"bike_id":"26fc839b-76f8-4eaf-9a00-845f28fbda9c","system_id":"levelo_inurba_marseille","lat":43.30479,"lon":5.37906,"is_reserved":false,"is_disabled":false,"rental_uris":{"android":"levelo://app?vid=26fc839b-76f8-4eaf-9a00-845f28fbda9c","ios":"levelo://app?vid=26fc839b-76f8-4eaf-9a00-845f28fbda9c"},"vehicle_type_id":"4","last_reported":1768893602,"current_range_meters":7200,"station_id":"ce4bgup2rcd13ifvqcn0","pricing_plan_id":"cebpf4jnsgd1na2vs0mg"},{"bike_id":"f1d4233d-2911-4edf-a268-ad1589486129","system_id":"levelo_inurba_marseille","lat":43.24179,"lon":5.39736,"is_reserved":false,"is_disabled":false,"rental_uris":{"android":"levelo://app?vid=f1d4233d-2911-4edf-a268-ad1589486129","ios":"levelo://app?vid=f1d4233d-2911-4edf-a268-ad1589486129"},"vehicle_type_id":"4","last_reported":1768893602,"current_range_meters":7200,"station_id":"ce4bhn12rcd13ifvqgpg","pricing_plan_id":"cebpf4jnsgd1na2vs0mg"},{"bike_id":"806e4957-1a5f-4c53-95df-29433d7f8877","system_id":"levelo_inurba_marseille","lat":43.30246,"lon":5.4007,"is_reserved":false,"is_disabled":true,"rental_uris":{"android":"levelo://app?vid=806e4957-1a5f-4c53-95df-29433d7f8877","ios":"levelo://app?vid=806e4957-1a5f-4c53-95df-29433d7f8877"},"vehicle_type_id":"4","last_reported":1768893602,"current_range_meters":7200,"station_id":"ce4bgvh2rcd13ifvqcs0","pricing_plan_id":"cebpf4jnsgd1na2vs0mg"},{"bike_id":"3cf4f121-47f1-4ab7-8209-fc71d72f0a66","system_id":"levelo_inurba_marseille","lat":43.313,"lon":5.38029,"is_reserved":false,"is_disabled":false,"rental_uris":{"android":"levelo://app?vid=3cf4f121-47f1-4ab7-8209-fc71d72f0a66","ios":"levelo://app?vid=3cf4f121-47f1-4ab7-8209-fc71d72f0a66"},"vehicle_type_id":"4","last_reported":1768893602,"current_range_meters":7200,"station_id":"","pricing_plan_id":"cebpf4jnsgd1na2vs0mg"},{"bike_id":"efa38cb7-a84d-49d1-a1ea-367fe8bf17b7","system_id":"levelo_inurba_marseille","lat":43.30297,"lon":5.36913,"is_reserved":false,"is_disabled":false,"rental_uris":{"android":"levelo://app?vid=efa38cb7-a84d-49d1-a1ea-367fe8bf17b7","ios":"levelo://app?vid=efa38cb7-a84d-49d1-a1ea-367fe8bf17b7"},"vehicle_type_id":"4","last_reported":1768893602,"current_range_meters":7200,"station_id":"ce4bgqh2rcd13ifvqc5g","pricing_plan_id":"cebpf4jnsgd1na2vs0mg"},{"bike_id":"b005335c-6b18-438b-8b3c-63321309c058","system_id":"levelo_inurba_marseille","lat":43.31353,"lon":5.36699,"is_reserved":false,"is_disabled":false,"rental_uris":{"android":"levelo://app?vid=b005335c-6b18-438b-8b3c-63321309c058","ios":"levelo://app?vid=b005335c-6b18-438b-8b3c-63321309c058"},"vehicle_type_id":"4","last_reported":1768893602,"current_range_meters":7200,"station_id":"ce4bgr92rcd13ifvqc6g","pricing_plan_id":"cebpf4jnsgd1na2vs0mg"},{"bike_id":"ea1b6251-046e-45fa-99ed-c6d51993189a","system_id":"levelo_inurba_marseille","lat":43.23968,"lon":5.36616,"is_reserved":false,"is_disabled":false,"rental_uris":{"android":"levelo://app?vid=ea1b6251-046e-45fa-99ed-c6d51993189a","ios":"levelo://app?vid=ea1b6251-046e-45fa-99ed-c6d51993189a"},"vehicle_type_id":"4","last_reported":1768893602,"current_range_meters":7200,"station_id":"ce4bhi12rcd13ifvqfp0","pricing_plan_id":"cebpf4jnsgd1na2vs0mg"},{"bike_id":"dc7f2cde-f394-4ae1-b0e4-a51d66aa1255","system_id":"levelo_inurba_marseille","lat":43.28148,"lon":5.43147,"is_reserved":false,"is_disabled":false,"rental_uris":{"android":"levelo://app?vid=dc7f2cde-f394-4ae1-b0e4-a51d66aa1255","ios":"levelo://app?vid=dc7f2cde-f394-4ae1-b0e4-a51d66aa1255"},"vehicle_type_id":"4","last_reported":1768893602,"current_range_meters":7200,"station_id":"","pricing_plan_id":"cebpf4jnsgd1na2vs0mg"},{"bike_id":"7da9ef5c-a10a-4512-bef8-775767daad61","system_id":"levelo_inurba_marseille","lat":43.28867,"lon":5.4252,"is_reserved":false,"is_disabled":false,"rental_uris":{"android":"levelo://app?vid=7da9ef5c-a10a-4512-bef8-775767daad61","ios":"levelo://app?vid=7da9ef5c-a10a-4512-bef8-775767daad61"},"vehicle_type_id":"4","last_reported":1768893602,"current_range_meters":7200,"station_id":"st_d3b462108ojc7389ooeg","pricing_plan_id":"cebpf4jnsgd1na2vs0mg"},{"bike_id":"91aac711-3b13-41d5-bd63-64d53fef3efc","system_id":"levelo_inurba_marseille","lat":43.28677,"lon":5.38702,"is_reserved":false,"is_disabled":false,"rental_uris":{"android":"levelo://app?vid=91aac711-3b13-41d5-bd63-64d53fef3efc","ios":"levelo://app?vid=91aac711-3b13-41d5-bd63-64d53fef3efc"},"vehicle_type_id":"4","last_reported":1768893602,"current_range_meters":7200,"station_id":"ce4bh492rcd13ifvqdug","pricing_plan_id":"cebpf4jnsgd1na2vs0mg"},{"bike_id":"3541ef95-ce05-4a4b-b3fd-478ab53437f6","system_id":"levelo_inurba_marseille","lat":43.29594,"lon":5.38109,"is_reserved":false,"is_disabled":false,"rental_uris":{"android":"levelo://app?vid=3541ef95-ce05-4a4b-b3fd-478ab53437f6","ios":"levelo://app?vid=3541ef95-ce05-4a4b-b3fd-478ab53437f6"},"vehicle_type_id":"4","last_reported":1768893602,"current_range_meters":7200,"station_id":"ce4bgl12rcd13ifvqbo0","pricing_plan_id":"cebpf4jnsgd1na2vs0mg"},{"bike_id":"705085e2-9b40-490f-8b97-ff135b7389a2","system_id":"levelo_inurba_marseille","lat":43.27487,"lon":5.42473,"is_reserved":false,"is_disabled":false,"rental_uris":{"android":"levelo://app?vid=705085e2-9b40-490f-8b97-ff135b7389a2","ios":"levelo://app?vid=705085e2-9b40-490f-8b97-ff135b7389a2"},"vehicle_type_id":"4","last_reported":1768893602,"current_range_meters":7200,"station_id":"ce4bhn92rcd13ifvqgrg","pricing_plan_id":"cebpf4jnsgd1na2vs0mg"},{"bike_id":"2351e1c9-97c0-42ed-8ba7-93d168c64106","system_id":"levelo_inurba_marseille","lat":43.29754,"lon":5.42788,"is_reserved":false,"is_disabled":false,"rental_uris":{"android":"levelo://app?vid=2351e1c9-97c0-42ed-8ba7-93d168c64106","ios":"levelo://app?vid=2351e1c9-97c0-42ed-8ba7-93d168c64106"},"vehicle_type_id":"4","last_reported":1768893602,"current_range_meters":8000,"station_id":"st_d3md5207bmas73dh9klg","pricing_plan_id":"cebpf4jnsgd1na2vs0mg"},{"bike_id":"826aeb2d-9384-4062-9da4-ff770f5b59dd","system_id":"levelo_inurba_marseille","lat":43.26063,"lon":5.39395,"is_reserved":false,"is_disabled":false,"rental_uris":{"android":"levelo://app?vid=826aeb2d-9384-4062-9da4-ff770f5b59dd","ios":"levelo://app?vid=826aeb2d-9384-4062-9da4-ff770f5b59dd"},"vehicle_type_id":"4","last_reported":1768893602,"current_range_meters":8000,"station_id":"ce4bhh92rcd13ifvqfj0","pricing_plan_id":"cebpf4jnsgd1na2vs0mg"},{"bike_id":"23e337e4-d9d6-4170-9b92-706d32a3c3a7","system_id":"levelo_inurba_marseille","lat":43.27416,"lon":5.39414,"is_reserved":false,"is_disabled":false,"rental_uris":{"android":"levelo://app?vid=23e337e4-d9d6-4170-9b92-706d32a3c3a7","ios":"levelo://app?vid=23e337e4-d9d6-4170-9b92-706d32a3c3a7"},"vehicle_type_id":"4","last_reported":1768893602,"current_range_meters":8000,"station_id":"ce4bhdp2rcd13ifvqf20","pricing_plan_id":"cebpf4jnsgd1na2vs0mg"},{"bike_id":"c7344772-1d82-45a6-8b80-bf254e451eef","system_id":"levelo_inurba_marseille","lat":43.31278,"lon":5.37743,"is_reserved":false,"is_disabled":true,"rental_uris":{"android":"levelo://app?vid=c7344772-1d82-45a6-8b80-bf254e451eef","ios":"levelo://app?vid=c7344772-1d82-45a6-8b80-bf254e451eef"},"vehicle_type_id":"4","last_reported":1768893602,"current_range_meters":8000,"station_id":"","pricing_plan_id":"cebpf4jnsgd1na2vs0mg"},{"bike_id":"9cff5037-b95f-4160-aed4-0c6a74c5919b","system_id":"levelo_inurba_marseille","lat":43.28471,"lon":5.48405,"is_reserved":false,"is_disabled":false,"rental_uris":{"android":"levelo://app?vid=9cff5037-b95f-4160-aed4-0c6a74c5919b","ios":"levelo://app?vid=9cff5037-b95f-4160-aed4-0c6a74c5919b"},"vehicle_type_id":"4","last_reported":1768893602,"current_range_meters":8000,"station_id":"","pricing_plan_id":"cebpf4jnsgd1na2vs0mg"},{"bike_id":"4a54421e-c705-4c8b-9b98-a1c176516748","system_id":"levelo_inurba_marseille","lat":43.30586,"lon":5.37222,"is_reserved":false,"is_disabled":false,"rental_uris":{"android":"levelo://app?vid=4a54421e-c705-4c8b-9b98-a1c176516748","ios":"levelo://app?vid=4a54421e-c705-4c8b-9b98-a1c176516748"},"vehicle_type_id":"4","last_reported":1768893602,"current_range_meters":8000,"station_id":"ce4bgqh2rcd13ifvqc4g","pricing_plan_id":"cebpf4jnsgd1na2vs0mg"},{"bike_id":"bfe07a41-51d3-41d5-a367-38ffbd2f5a0b","system_id":"levelo_inurba_marseille","lat":43.26217,"lon":5.38851,"is_reserved":false,"is_disabled":false,"rental_uris":{"android":"levelo://app?vid=bfe07a41-51d3-41d5-a367-38ffbd2f5a0b","ios":"levelo://app?vid=bfe07a41-51d3-41d5-a367-38ffbd2f5a0b"},"vehicle_type_id":"4","last_reported":1768893602,"current_range_meters":8000,"station_id":"","pricing_plan_id":"cebpf4jnsgd1na2vs0mg"},{"bike_id":"7a90f0b5-efb2-4f9b-b145-8cb8cb6e532b","system_id":"levelo_inurba_marseille","lat":43.31116,"lon":5.37771,"is_reserved":false,"is_disabled":false,"rental_uris":{"android":"levelo://app?vid=7a90f0b5-efb2-4f9b-b145-8cb8cb6e532b","ios":"levelo://app?vid=7a90f0b5-efb2-4f9b-b145-8cb8cb6e532b"},"vehicle_type_id":"4","last_reported":1768893602,"current_range_meters":8000,"station_id":"ce4bgt92rcd13ifvqcg0","pricing_plan_id":"cebpf4jnsgd1na2vs0mg"},{"bike_id":"fb399f5a-106d-4e4e-b0b6-eb700dad2449","system_id":"levelo_inurba_marseille","lat":43.28617,"lon":5.39885,"is_reserved":false,"is_disabled":true,"rental_uris":{"android":"levelo://app?vid=fb399f5a-106d-4e4e-b0b6-eb700dad2449","ios":"levelo://app?vid=fb399f5a-106d-4e4e-b0b6-eb700dad2449"},"vehicle_type_id":"4","last_reported":1768893602,"current_range_meters":8000,"station_id":"ce4bho92rcd13ifvqh3g","pricing_plan_id":"cebpf4jnsgd1na2vs0mg"},{"bike_id":"0a3d08de-65a8-4776-bdcd-7f1299a18606","system_id":"levelo_inurba_marseille","lat":43.25725,"lon":5.41109,"is_reserved":false,"is_disabled":false,"rental_uris":{"android":"levelo://app?vid=0a3d08de-65a8-4776-bdcd-7f1299a18606","ios":"levelo://app?vid=0a3d08de-65a8-4776-bdcd-7f1299a18606"},"vehicle_type_id":"4","last_reported":1768893602,"current_range_meters":8000,"station_id":"ce4bhkp2rcd13ifvqgd0","pricing_plan_id":"cebpf4jnsgd1na2vs0mg"},{"bike_id":"801303f1-cf94-4013-b35a-0d38a90415b0","system_id":"levelo_inurba_marseille","lat":43.25818,"lon":5.39426,"is_reserved":false,"is_disabled":false,"rental_uris":{"android":"levelo://app?vid=801303f1-cf94-4013-b35a-0d38a90415b0","ios":"levelo://app?vid=801303f1-cf94-4013-b35a-0d38a90415b0"},"vehicle_type_id":"4","last_reported":1768893602,"current_range_meters":8000,"station_id":"ce4bhip2rcd13ifvqft0","pricing_plan_id":"cebpf4jnsgd1na2vs0mg"},{"bike_id":"1cd68235-0dd0-4a18-b47e-f8a039dc8288","system_id":"levelo_inurba_marseille","lat":43.26388,"lon":5.41024,"is_reserved":false,"is_disabled":false,"rental_uris":{"android":"levelo://app?vid=1cd68235-0dd0-4a18-b47e-f8a039dc8288","ios":"levelo://app?vid=1cd68235-0dd0-4a18-b47e-f8a039dc8288"},"vehicle_type_id":"4","last_reported":1768893602,"current_range_meters":8000,"station_id":"st_d4e5ca6na9uc73bfl5fg","pricing_plan_id":"cebpf4jnsgd1na2vs0mg"},{"bike_id":"a73160f3-b80d-45fe-9040-b5e4cc42983d","system_id":"levelo_inurba_marseille","lat":43.29045,"lon":5.39968,"is_reserved":false,"is_disabled":false,"rental_uris":{"android":"levelo://app?vid=a73160f3-b80d-45fe-9040-b5e4cc42983d","ios":"levelo://app?vid=a73160f3-b80d-45fe-9040-b5e4cc42983d"},"vehicle_type_id":"4","last_reported":1768893602,"current_range_meters":8000,"station_id":"ce4bh392rcd13ifvqdm0","pricing_plan_id":"cebpf4jnsgd1na2vs0mg"},{"bike_id":"e3caaaee-f8d9-44b6-b3d8-e04b5e8c88ba","system_id":"levelo_inurba_marseille","lat":43.27828,"lon":5.40727,"is_reserved":false,"is_disabled":false,"rental_uris":{"android":"levelo://app?vid=e3caaaee-f8d9-44b6-b3d8-e04b5e8c88ba","ios":"levelo://app?vid=e3caaaee-f8d9-44b6-b3d8-e04b5e8c88ba"},"vehicle_type_id":"4","last_reported":1768893602,"current_range_meters":8000,"station_id":"ce4bhnh2rcd13ifvqgtg","pricing_plan_id":"cebpf4jnsgd1na2vs0mg"},{"bike_id":"6c3a5c15-7423-4a25-87ba-05f3c8d2d87e","system_id":"levelo_inurba_marseille","lat":43.323481,"lon":5.367356,"is_reserved":false,"is_disabled":false,"rental_uris":{"android":"levelo://app?vid=6c3a5c15-7423-4a25-87ba-05f3c8d2d87e","ios":"levelo://app?vid=6c3a5c15-7423-4a25-87ba-05f3c8d2d87e"},"vehicle_type_id":"4","last_reported":1768893602,"current_range_meters":8000,"station_id":"ce4bhsh2rcd13ifvqi2g","pricing_plan_id":"cebpf4jnsgd1na2vs0mg"},{"bike_id":"07ea42a8-40d9-4c26-b1ad-4a8dfcb6fb9b","system_id":"levelo_inurba_marseille","lat":43.305513,"lon":5.365394,"is_reserved":false,"is_disabled":true,"rental_uris":{"android":"levelo://app?vid=07ea42a8-40d9-4c26-b1ad-4a8dfcb6fb9b","ios":"levelo://app?vid=07ea42a8-40d9-4c26-b1ad-4a8dfcb6fb9b"},"vehicle_type_id":"4","last_reported":1768893602,"current_range_meters":8000,"station_id":"ce4bgs12rcd13ifvqcag","pricing_plan_id":"cebpf4jnsgd1na2vs0mg"},{"bike_id":"75cfcbff-729c-4a91-a5ba-be119068c2dd","system_id":"levelo_inurba_marseille","lat":43.23964,"lon":5.36634,"is_reserved":false,"is_disabled":false,"rental_uris":{"android":"levelo://app?vid=75cfcbff-729c-4a91-a5ba-be119068c2dd","ios":"levelo://app?vid=75cfcbff-729c-4a91-a5ba-be119068c2dd"},"vehicle_type_id":"4","last_reported":1768893602,"current_range_meters":8000,"station_id":"ce4bhi12rcd13ifvqfp0","pricing_plan_id":"cebpf4jnsgd1na2vs0mg"},{"bike_id":"0634eda3-5170-4755-998a-c89a73b107a3","system_id":"levelo_inurba_marseille","lat":43.30139,"lon":5.38691,"is_reserved":false,"is_disabled":true,"rental_uris":{"android":"levelo://app?vid=0634eda3-5170-4755-998a-c89a73b107a3","ios":"levelo://app?vid=0634eda3-5170-4755-998a-c89a73b107a3"},"vehicle_type_id":"4","last_reported":1768893602,"current_range_meters":8000,"station_id":"ce4bghh2rcd13ifvqb60","pricing_plan_id":"cebpf4jnsgd1na2vs0mg"},{"bike_id":"5762cc16-5ef1-4f87-8d69-3f8323f2739a","system_id":"levelo_inurba_marseille","lat":43.28264,"lon":5.35056,"is_reserved":false,"is_disabled":false,"rental_uris":{"android":"levelo://app?vid=5762cc16-5ef1-4f87-8d69-3f8323f2739a","ios":"levelo://app?vid=5762cc16-5ef1-4f87-8d69-3f8323f2739a"},"vehicle_type_id":"4","last_reported":1768893602,"current_range_meters":8000,"station_id":"ce4bhbp2rcd13ifvqerg","pricing_plan_id":"cebpf4jnsgd1na2vs0mg"},{"bike_id":"9aef67e7-137c-4b86-86cb-03020b150130","system_id":"levelo_inurba_marseille","lat":43.27057,"lon":5.3831,"is_reserved":false,"is_disabled":false,"rental_uris":{"android":"levelo://app?vid=9aef67e7-137c-4b86-86cb-03020b150130","ios":"levelo://app?vid=9aef67e7-137c-4b86-86cb-03020b150130"},"vehicle_type_id":"4","last_reported":1768893602,"current_range_meters":8000,"station_id":"st_d3n2fo6cfp8s73cte1j0","pricing_plan_id":"cebpf4jnsgd1na2vs0mg"},{"bike_id":"108b0029-d01a-4933-8e88-16292523c45d","system_id":"levelo_inurba_marseille","lat":43.24648,"lon":5.38892,"is_reserved":false,"is_disabled":false,"rental_uris":{"android":"levelo://app?vid=108b0029-d01a-4933-8e88-16292523c45d","ios":"levelo://app?vid=108b0029-d01a-4933-8e88-16292523c45d"},"vehicle_type_id":"4","last_reported":1768893602,"current_range_meters":8000,"station_id":"ce4bhg12rcd13ifvqf60","pricing_plan_id":"cebpf4jnsgd1na2vs0mg"},{"bike_id":"5d6ec190-4e3f-4728-8145-239caf53150f","system_id":"levelo_inurba_marseille","lat":43.306788,"lon":5.402968,"is_reserved":false,"is_disabled":false,"rental_uris":{"android":"levelo://app?vid=5d6ec190-4e3f-4728-8145-239caf53150f","ios":"levelo://app?vid=5d6ec190-4e3f-4728-8145-239caf53150f"},"vehicle_type_id":"4","last_reported":1768893602,"current_range_meters":8000,"station_id":"","pricing_plan_id":"cebpf4jnsgd1na2vs0mg"},{"bike_id":"b8dde4d7-c22b-44b8-8a24-2047123237d3","system_id":"levelo_inurba_marseille","lat":43.29805,"lon":5.38091,"is_reserved":false,"is_disabled":false,"rental_uris":{"android":"levelo://app?vid=b8dde4d7-c22b-44b8-8a24-2047123237d3","ios":"levelo://app?vid=b8dde4d7-c22b-44b8-8a24-2047123237d3"},"vehicle_type_id":"4","last_reported":1768893602,"current_range_meters":8400,"station_id":"ce4bgip2rcd13ifvqbb0","pricing_plan_id":"cebpf4jnsgd1na2vs0mg"},{"bike_id":"c90f8d49-c464-4abb-b50f-a6f2833250ba","system_id":"levelo_inurba_marseille","lat":43.26059,"lon":5.394,"is_reserved":false,"is_disabled":false,"rental_uris":{"android":"levelo://app?vid=c90f8d49-c464-4abb-b50f-a6f2833250ba","ios":"levelo://app?vid=c90f8d49-c464-4abb-b50f-a6f2833250ba"},"vehicle_type_id":"4","last_reported":1768893602,"current_range_meters":8400,"station_id":"ce4bhh92rcd13ifvqfj0","pricing_plan_id":"cebpf4jnsgd1na2vs0mg"},{"bike_id":"de773d31-c0ae-4fe9-90d5-b0353b585a1e","system_id":"levelo_inurba_marseille","lat":43.26506,"lon":5.39563,"is_reserved":false,"is_disabled":false,"rental_uris":{"android":"levelo://app?vid=de773d31-c0ae-4fe9-90d5-b0353b585a1e","ios":"levelo://app?vid=de773d31-c0ae-4fe9-90d5-b0353b585a1e"},"vehicle_type_id":"4","last_reported":1768893602,"current_range_meters":8400,"station_id":"ce4bhi12rcd13ifvqfq0","pricing_plan_id":"cebpf4jnsgd1na2vs0mg"},{"bike_id":"19da54de-4602-49e5-a196-11068ea61238","system_id":"levelo_inurba_marseille","lat":43.30692,"lon":5.36522,"is_reserved":false,"is_disabled":false,"rental_uris":{"android":"levelo://app?vid=19da54de-4602-49e5-a196-11068ea61238","ios":"levelo://app?vid=19da54de-4602-49e5-a196-11068ea61238"},"vehicle_type_id":"4","last_reported":1768893602,"current_range_meters":8400,"station_id":"","pricing_plan_id":"cebpf4jnsgd1na2vs0mg"},{"bike_id":"40e2667e-f23a-4ded-8ddb-fef4d5eb0dfe","system_id":"levelo_inurba_marseille","lat":43.25522,"lon":5.37665,"is_reserved":false,"is_disabled":false,"rental_uris":{"android":"levelo://app?vid=40e2667e-f23a-4ded-8ddb-fef4d5eb0dfe","ios":"levelo://app?vid=40e2667e-f23a-4ded-8ddb-fef4d5eb0dfe"},"vehicle_type_id":"4","last_reported":1768893602,"current_range_meters":8400,"station_id":"ce4bhh12rcd13ifvqff0","pricing_plan_id":"cebpf4jnsgd1na2vs0mg"},{"bike_id":"4d9fb050-4361-4bab-ba3c-960b4264587c","system_id":"levelo_inurba_marseille","lat":43.330562,"lon":5.390587,"is_reserved":false,"is_disabled":false,"rental_uris":{"android":"levelo://app?vid=4d9fb050-4361-4bab-ba3c-960b4264587c","ios":"levelo://app?vid=4d9fb050-4361-4bab-ba3c-960b4264587c"},"vehicle_type_id":"4","last_reported":1768893602,"current_range_meters":8400,"station_id":"ce4bhr92rcd13ifvqhrg","pricing_plan_id":"cebpf4jnsgd1na2vs0mg"},{"bike_id":"f58dc067-4dd9-4635-8ae5-365aced9c977","system_id":"levelo_inurba_marseille","lat":43.26225,"lon":5.40458,"is_reserved":false,"is_disabled":false,"rental_uris":{"android":"levelo://app?vid=f58dc067-4dd9-4635-8ae5-365aced9c977","ios":"levelo://app?vid=f58dc067-4dd9-4635-8ae5-365aced9c977"},"vehicle_type_id":"4","last_reported":1768893602,"current_range_meters":8400,"station_id":"ce4bhmh2rcd13ifvqgmg","pricing_plan_id":"cebpf4jnsgd1na2vs0mg"},{"bike_id":"3f2ae978-6d4a-4f24-84ad-6c63c5079754","system_id":"levelo_inurba_marseille","lat":43.24057,"lon":5.37784,"is_reserved":false,"is_disabled":false,"rental_uris":{"android":"levelo://app?vid=3f2ae978-6d4a-4f24-84ad-6c63c5079754","ios":"levelo://app?vid=3f2ae978-6d4a-4f24-84ad-6c63c5079754"},"vehicle_type_id":"4","last_reported":1768893602,"current_range_meters":8400,"station_id":"ce4bhnp2rcd13ifvqgvg","pricing_plan_id":"cebpf4jnsgd1na2vs0mg"},{"bike_id":"10483c0a-1726-407f-8492-2530493c0d67","system_id":"levelo_inurba_marseille","lat":43.25003,"lon":5.38928,"is_reserved":false,"is_disabled":false,"rental_uris":{"android":"levelo://app?vid=10483c0a-1726-407f-8492-2530493c0d67","ios":"levelo://app?vid=10483c0a-1726-407f-8492-2530493c0d67"},"vehicle_type_id":"4","last_reported":1768893602,"current_range_meters":8400,"station_id":"ce4bhgp2rcd13ifvqfd0","pricing_plan_id":"cebpf4jnsgd1na2vs0mg"},{"bike_id":"2560fc6f-d31f-42c0-980f-6141b2721bdd","system_id":"levelo_inurba_marseille","lat":43.28829,"lon":5.42532,"is_reserved":false,"is_disabled":false,"rental_uris":{"android":"levelo://app?vid=2560fc6f-d31f-42c0-980f-6141b2721bdd","ios":"levelo://app?vid=2560fc6f-d31f-42c0-980f-6141b2721bdd"},"vehicle_type_id":"4","last_reported":1768893602,"current_range_meters":8400,"station_id":"st_d3b462108ojc7389ooeg","pricing_plan_id":"cebpf4jnsgd1na2vs0mg"},{"bike_id":"64564d81-7fa9-470c-84f7-e881a2d2d1a5","system_id":"levelo_inurba_marseille","lat":43.24468,"lon":5.4255,"is_reserved":false,"is_disabled":false,"rental_uris":{"android":"levelo://app?vid=64564d81-7fa9-470c-84f7-e881a2d2d1a5","ios":"levelo://app?vid=64564d81-7fa9-470c-84f7-e881a2d2d1a5"},"vehicle_type_id":"4","last_reported":1768893602,"current_range_meters":8400,"station_id":"st_d4a3vfp97mjs738cd8kg","pricing_plan_id":"cebpf4jnsgd1na2vs0mg"},{"bike_id":"7556d810-a815-493d-a5bf-f3939b5a06d1","system_id":"levelo_inurba_marseille","lat":43.29914,"lon":5.37467,"is_reserved":false,"is_disabled":false,"rental_uris":{"android":"levelo://app?vid=7556d810-a815-493d-a5bf-f3939b5a06d1","ios":"levelo://app?vid=7556d810-a815-493d-a5bf-f3939b5a06d1"},"vehicle_type_id":"4","last_reported":1768893602,"current_range_meters":8400,"station_id":"ce4bgjh2rcd13ifvqbg0","pricing_plan_id":"cebpf4jnsgd1na2vs0mg"},{"bike_id":"738ceb7a-1006-4c61-95a5-08832c94eb35","system_id":"levelo_inurba_marseille","lat":43.23957,"lon":5.36619,"is_reserved":false,"is_disabled":false,"rental_uris":{"android":"levelo://app?vid=738ceb7a-1006-4c61-95a5-08832c94eb35","ios":"levelo://app?vid=738ceb7a-1006-4c61-95a5-08832c94eb35"},"vehicle_type_id":"4","last_reported":1768893602,"current_range_meters":8400,"station_id":"ce4bhi12rcd13ifvqfp0","pricing_plan_id":"cebpf4jnsgd1na2vs0mg"},{"bike_id":"a7b9b0ec-83f6-40df-aa25-854c700427e8","system_id":"levelo_inurba_marseille","lat":43.24813,"lon":5.37446,"is_reserved":false,"is_disabled":false,"rental_uris":{"android":"levelo://app?vid=a7b9b0ec-83f6-40df-aa25-854c700427e8","ios":"levelo://app?vid=a7b9b0ec-83f6-40df-aa25-854c700427e8"},"vehicle_type_id":"4","last_reported":1768893602,"current_range_meters":8400,"station_id":"ce4bhgh2rcd13ifvqfb0","pricing_plan_id":"cebpf4jnsgd1na2vs0mg"},{"bike_id":"bbacaa50-4995-4fb9-a030-ae920cf166c7","system_id":"levelo_inurba_marseille","lat":43.30654,"lon":5.40134,"is_reserved":false,"is_disabled":false,"rental_uris":{"android":"levelo://app?vid=bbacaa50-4995-4fb9-a030-ae920cf166c7","ios":"levelo://app?vid=bbacaa50-4995-4fb9-a030-ae920cf166c7"},"vehicle_type_id":"4","last_reported":1768893602,"current_range_meters":8400,"station_id":"ce4bh112rcd13ifvqda0","pricing_plan_id":"cebpf4jnsgd1na2vs0mg"},{"bike_id":"e47dfb0a-fd42-4915-8bd4-c942b77cb4c9","system_id":"levelo_inurba_marseille","lat":43.25574,"lon":5.38238,"is_reserved":false,"is_disabled":false,"rental_uris":{"android":"levelo://app?vid=e47dfb0a-fd42-4915-8bd4-c942b77cb4c9","ios":"levelo://app?vid=e47dfb0a-fd42-4915-8bd4-c942b77cb4c9"},"vehicle_type_id":"4","last_reported":1768893602,"current_range_meters":8400,"station_id":"ce4bhih2rcd13ifvqfs0","pricing_plan_id":"cebpf4jnsgd1na2vs0mg"},{"bike_id":"3f155f0c-a1bd-400f-8289-4fd480af1e73","system_id":"levelo_inurba_marseille","lat":43.29125,"lon":5.38275,"is_reserved":false,"is_disabled":false,"rental_uris":{"android":"levelo://app?vid=3f155f0c-a1bd-400f-8289-4fd480af1e73","ios":"levelo://app?vid=3f155f0c-a1bd-400f-8289-4fd480af1e73"},"vehicle_type_id":"4","last_reported":1768893602,"current_range_meters":8400,"station_id":"","pricing_plan_id":"cebpf4jnsgd1na2vs0mg"},{"bike_id":"544ad0c6-321a-4014-a5c3-ffb32ae71cca","system_id":"levelo_inurba_marseille","lat":43.28483,"lon":5.48388,"is_reserved":false,"is_disabled":false,"rental_uris":{"android":"levelo://app?vid=544ad0c6-321a-4014-a5c3-ffb32ae71cca","ios":"levelo://app?vid=544ad0c6-321a-4014-a5c3-ffb32ae71cca"},"vehicle_type_id":"4","last_reported":1768893602,"current_range_meters":8400,"station_id":"","pricing_plan_id":"cebpf4jnsgd1na2vs0mg"},{"bike_id":"5061baf0-9869-438a-938f-a0ff2b78a8d8","system_id":"levelo_inurba_marseille","lat":43.27991,"lon":5.41671,"is_reserved":false,"is_disabled":false,"rental_uris":{"android":"levelo://app?vid=5061baf0-9869-438a-938f-a0ff2b78a8d8","ios":"levelo://app?vid=5061baf0-9869-438a-938f-a0ff2b78a8d8"},"vehicle_type_id":"4","last_reported":1768893602,"current_range_meters":8400,"station_id":"ce4bho12rcd13ifvqh1g","pricing_plan_id":"cebpf4jnsgd1na2vs0mg"},{"bike_id":"37bce8ff-e978-41d9-b036-84ab06c9528c","system_id":"levelo_inurba_marseille","lat":43.26547,"lon":5.3728,"is_reserved":false,"is_disabled":false,"rental_uris":{"android":"levelo://app?vid=37bce8ff-e978-41d9-b036-84ab06c9528c","ios":"levelo://app?vid=37bce8ff-e978-41d9-b036-84ab06c9528c"},"vehicle_type_id":"4","last_reported":1768893602,"current_range_meters":8400,"station_id":"ce4bhg12rcd13ifvqf70","pricing_plan_id":"cebpf4jnsgd1na2vs0mg"},{"bike_id":"fdc6c686-a63e-42ac-8637-afd5d70ee598","system_id":"levelo_inurba_marseille","lat":43.29286,"lon":5.40095,"is_reserved":false,"is_disabled":true,"rental_uris":{"android":"levelo://app?vid=fdc6c686-a63e-42ac-8637-afd5d70ee598","ios":"levelo://app?vid=fdc6c686-a63e-42ac-8637-afd5d70ee598"},"vehicle_type_id":"4","last_reported":1768893602,"current_range_meters":8400,"station_id":"ce4bh312rcd13ifvqdk0","pricing_plan_id":"cebpf4jnsgd1na2vs0mg"},{"bike_id":"00926366-40d2-4692-a7fe-1fb3b69e53b6","system_id":"levelo_inurba_marseille","lat":43.32473,"lon":5.36591,"is_reserved":false,"is_disabled":false,"rental_uris":{"android":"levelo://app?vid=00926366-40d2-4692-a7fe-1fb3b69e53b6","ios":"levelo://app?vid=00926366-40d2-4692-a7fe-1fb3b69e53b6"},"vehicle_type_id":"4","last_reported":1768893602,"current_range_meters":8800,"station_id":"ce4bhs12rcd13ifvqhvg","pricing_plan_id":"cebpf4jnsgd1na2vs0mg"},{"bike_id":"65f2e28d-b6c3-4183-a528-4abf22dd5335","system_id":"levelo_inurba_marseille","lat":43.23963,"lon":5.36631,"is_reserved":false,"is_disabled":false,"rental_uris":{"android":"levelo://app?vid=65f2e28d-b6c3-4183-a528-4abf22dd5335","ios":"levelo://app?vid=65f2e28d-b6c3-4183-a528-4abf22dd5335"},"vehicle_type_id":"4","last_reported":1768893602,"current_range_meters":8800,"station_id":"ce4bhi12rcd13ifvqfp0","pricing_plan_id":"cebpf4jnsgd1na2vs0mg"},{"bike_id":"a757cfd3-1811-4bce-b9bc-3a371ae284ee","system_id":"levelo_inurba_marseille","lat":43.29916,"lon":5.36532,"is_reserved":false,"is_disabled":false,"rental_uris":{"android":"levelo://app?vid=a757cfd3-1811-4bce-b9bc-3a371ae284ee","ios":"levelo://app?vid=a757cfd3-1811-4bce-b9bc-3a371ae284ee"},"vehicle_type_id":"4","last_reported":1768893602,"current_range_meters":8800,"station_id":"ce4bgm92rcd13ifvqbr0","pricing_plan_id":"cebpf4jnsgd1na2vs0mg"},{"bike_id":"b413f672-6f60-41b8-8f68-1814f77da456","system_id":"levelo_inurba_marseille","lat":43.24161,"lon":5.3639,"is_reserved":false,"is_disabled":false,"rental_uris":{"android":"levelo://app?vid=b413f672-6f60-41b8-8f68-1814f77da456","ios":"levelo://app?vid=b413f672-6f60-41b8-8f68-1814f77da456"},"vehicle_type_id":"4","last_reported":1768893602,"current_range_meters":8800,"station_id":"cpo36qri1sfpv3e86is0","pricing_plan_id":"cebpf4jnsgd1na2vs0mg"},{"bike_id":"a832e334-5c40-4e17-b872-0f0d4cd7d838","system_id":"levelo_inurba_marseille","lat":43.2493,"lon":5.40518,"is_reserved":false,"is_disabled":false,"rental_uris":{"android":"levelo://app?vid=a832e334-5c40-4e17-b872-0f0d4cd7d838","ios":"levelo://app?vid=a832e334-5c40-4e17-b872-0f0d4cd7d838"},"vehicle_type_id":"4","last_reported":1768893602,"current_range_meters":8800,"station_id":"st_d2ngiaodas8pm72gd1h0","pricing_plan_id":"cebpf4jnsgd1na2vs0mg"},{"bike_id":"7d2f250a-191b-441d-876b-7325dd6245a6","system_id":"levelo_inurba_marseille","lat":43.249983,"lon":5.389318,"is_reserved":false,"is_disabled":false,"rental_uris":{"android":"levelo://app?vid=7d2f250a-191b-441d-876b-7325dd6245a6","ios":"levelo://app?vid=7d2f250a-191b-441d-876b-7325dd6245a6"},"vehicle_type_id":"4","last_reported":1768893602,"current_range_meters":8800,"station_id":"ce4bhgp2rcd13ifvqfd0","pricing_plan_id":"cebpf4jnsgd1na2vs0mg"},{"bike_id":"3c05e630-d357-45dc-aca1-778ca0fc296f","system_id":"levelo_inurba_marseille","lat":43.30579,"lon":5.39364,"is_reserved":false,"is_disabled":false,"rental_uris":{"android":"levelo://app?vid=3c05e630-d357-45dc-aca1-778ca0fc296f","ios":"levelo://app?vid=3c05e630-d357-45dc-aca1-778ca0fc296f"},"vehicle_type_id":"4","last_reported":1768893602,"current_range_meters":8800,"station_id":"ce4bh0p2rcd13ifvqd80","pricing_plan_id":"cebpf4jnsgd1na2vs0mg"},{"bike_id":"4ca32394-f8f1-4623-8df9-31249aca63fc","system_id":"levelo_inurba_marseille","lat":43.23184,"lon":5.39998,"is_reserved":false,"is_disabled":false,"rental_uris":{"android":"levelo://app?vid=4ca32394-f8f1-4623-8df9-31249aca63fc","ios":"levelo://app?vid=4ca32394-f8f1-4623-8df9-31249aca63fc"},"vehicle_type_id":"4","last_reported":1768893602,"current_range_meters":8800,"station_id":"ce4bhn12rcd13ifvqgqg","pricing_plan_id":"cebpf4jnsgd1na2vs0mg"},{"bike_id":"b98748e0-bf9f-4b4d-a11b-4ee38619842d","system_id":"levelo_inurba_marseille","lat":43.28258,"lon":5.35067,"is_reserved":false,"is_disabled":false,"rental_uris":{"android":"levelo://app?vid=b98748e0-bf9f-4b4d-a11b-4ee38619842d","ios":"levelo://app?vid=b98748e0-bf9f-4b4d-a11b-4ee38619842d"},"vehicle_type_id":"4","last_reported":1768893602,"current_range_meters":8800,"station_id":"ce4bhbp2rcd13ifvqerg","pricing_plan_id":"cebpf4jnsgd1na2vs0mg"},{"bike_id":"d1b1cf6a-870f-4034-b895-5100ce4a3332","system_id":"levelo_inurba_marseille","lat":43.29557,"lon":5.42279,"is_reserved":false,"is_disabled":false,"rental_uris":{"android":"levelo://app?vid=d1b1cf6a-870f-4034-b895-5100ce4a3332","ios":"levelo://app?vid=d1b1cf6a-870f-4034-b895-5100ce4a3332"},"vehicle_type_id":"4","last_reported":1768893602,"current_range_meters":8800,"station_id":"ce4bhph2rcd13ifvqhdg","pricing_plan_id":"cebpf4jnsgd1na2vs0mg"},{"bike_id":"350a79a1-2120-443a-849c-814a0e198d1b","system_id":"levelo_inurba_marseille","lat":43.25501,"lon":5.37669,"is_reserved":false,"is_disabled":false,"rental_uris":{"android":"levelo://app?vid=350a79a1-2120-443a-849c-814a0e198d1b","ios":"levelo://app?vid=350a79a1-2120-443a-849c-814a0e198d1b"},"vehicle_type_id":"4","last_reported":1768893602,"current_range_meters":8800,"station_id":"ce4bhh12rcd13ifvqff0","pricing_plan_id":"cebpf4jnsgd1na2vs0mg"},{"bike_id":"c766203c-fe51-459b-bf74-dd6b3df74629","system_id":"levelo_inurba_marseille","lat":43.2318,"lon":5.39983,"is_reserved":false,"is_disabled":false,"rental_uris":{"android":"levelo://app?vid=c766203c-fe51-459b-bf74-dd6b3df74629","ios":"levelo://app?vid=c766203c-fe51-459b-bf74-dd6b3df74629"},"vehicle_type_id":"4","last_reported":1768893602,"current_range_meters":8800,"station_id":"ce4bhn12rcd13ifvqgqg","pricing_plan_id":"cebpf4jnsgd1na2vs0mg"},{"bike_id":"26c32585-1ce4-4f1a-b32e-1e0f0a70922d","system_id":"levelo_inurba_marseille","lat":43.30245,"lon":5.42967,"is_reserved":false,"is_disabled":false,"rental_uris":{"android":"levelo://app?vid=26c32585-1ce4-4f1a-b32e-1e0f0a70922d","ios":"levelo://app?vid=26c32585-1ce4-4f1a-b32e-1e0f0a70922d"},"vehicle_type_id":"4","last_reported":1768893602,"current_range_meters":8800,"station_id":"st_d3js3co5814s73ftftug","pricing_plan_id":"cebpf4jnsgd1na2vs0mg"},{"bike_id":"359dab57-8eab-4230-9f1c-aff5baf3cb98","system_id":"levelo_inurba_marseille","lat":43.24075,"lon":5.37755,"is_reserved":false,"is_disabled":false,"rental_uris":{"android":"levelo://app?vid=359dab57-8eab-4230-9f1c-aff5baf3cb98","ios":"levelo://app?vid=359dab57-8eab-4230-9f1c-aff5baf3cb98"},"vehicle_type_id":"4","last_reported":1768893602,"current_range_meters":8800,"station_id":"ce4bhnp2rcd13ifvqgvg","pricing_plan_id":"cebpf4jnsgd1na2vs0mg"},{"bike_id":"35eb0f0f-42a8-4fd5-956e-bec6aa3f7ee3","system_id":"levelo_inurba_marseille","lat":43.23185,"lon":5.39998,"is_reserved":false,"is_disabled":false,"rental_uris":{"android":"levelo://app?vid=35eb0f0f-42a8-4fd5-956e-bec6aa3f7ee3","ios":"levelo://app?vid=35eb0f0f-42a8-4fd5-956e-bec6aa3f7ee3"},"vehicle_type_id":"4","last_reported":1768893602,"current_range_meters":8800,"station_id":"ce4bhn12rcd13ifvqgqg","pricing_plan_id":"cebpf4jnsgd1na2vs0mg"},{"bike_id":"e775e37a-88b9-408c-8364-888bc63e91d3","system_id":"levelo_inurba_marseille","lat":43.24395,"lon":5.37052,"is_reserved":false,"is_disabled":false,"rental_uris":{"android":"levelo://app?vid=e775e37a-88b9-408c-8364-888bc63e91d3","ios":"levelo://app?vid=e775e37a-88b9-408c-8364-888bc63e91d3"},"vehicle_type_id":"4","last_reported":1768893602,"current_range_meters":8800,"station_id":"ce4bhhh2rcd13ifvqfk0","pricing_plan_id":"cebpf4jnsgd1na2vs0mg"},{"bike_id":"25d794a5-5a14-45c5-b587-89f3ec339e95","system_id":"levelo_inurba_marseille","lat":43.32119,"lon":5.36769,"is_reserved":false,"is_disabled":false,"rental_uris":{"android":"levelo://app?vid=25d794a5-5a14-45c5-b587-89f3ec339e95","ios":"levelo://app?vid=25d794a5-5a14-45c5-b587-89f3ec339e95"},"vehicle_type_id":"4","last_reported":1768893602,"current_range_meters":8800,"station_id":"ce4bhrh2rcd13ifvqhug","pricing_plan_id":"cebpf4jnsgd1na2vs0mg"},{"bike_id":"ce65da15-5103-4c08-86e5-b4783ea2b238","system_id":"levelo_inurba_marseille","lat":43.29313,"lon":5.37181,"is_reserved":false,"is_disabled":false,"rental_uris":{"android":"levelo://app?vid=ce65da15-5103-4c08-86e5-b4783ea2b238","ios":"levelo://app?vid=ce65da15-5103-4c08-86e5-b4783ea2b238"},"vehicle_type_id":"4","last_reported":1768893602,"current_range_meters":8800,"station_id":"ce4bgh92rcd13ifvqb40","pricing_plan_id":"cebpf4jnsgd1na2vs0mg"},{"bike_id":"eb81fd44-036e-4814-aa08-f733ab3b57ff","system_id":"levelo_inurba_marseille","lat":43.30468,"lon":5.37912,"is_reserved":false,"is_disabled":false,"rental_uris":{"android":"levelo://app?vid=eb81fd44-036e-4814-aa08-f733ab3b57ff","ios":"levelo://app?vid=eb81fd44-036e-4814-aa08-f733ab3b57ff"},"vehicle_type_id":"4","last_reported":1768893602,"current_range_meters":8800,"station_id":"ce4bgup2rcd13ifvqcn0","pricing_plan_id":"cebpf4jnsgd1na2vs0mg"},{"bike_id":"21463ebe-85fd-4ba6-a61f-3d41c75a1911","system_id":"levelo_inurba_marseille","lat":43.31124,"lon":5.37758,"is_reserved":false,"is_disabled":false,"rental_uris":{"android":"levelo://app?vid=21463ebe-85fd-4ba6-a61f-3d41c75a1911","ios":"levelo://app?vid=21463ebe-85fd-4ba6-a61f-3d41c75a1911"},"vehicle_type_id":"4","last_reported":1768893602,"current_range_meters":9200,"station_id":"ce4bgt92rcd13ifvqcg0","pricing_plan_id":"cebpf4jnsgd1na2vs0mg"},{"bike_id":"03c8b8f6-26d6-43f0-b06e-1c354011d6d4","system_id":"levelo_inurba_marseille","lat":43.30532,"lon":5.36536,"is_reserved":false,"is_disabled":false,"rental_uris":{"android":"levelo://app?vid=03c8b8f6-26d6-43f0-b06e-1c354011d6d4","ios":"levelo://app?vid=03c8b8f6-26d6-43f0-b06e-1c354011d6d4"},"vehicle_type_id":"4","last_reported":1768893602,"current_range_meters":9200,"station_id":"ce4bgs12rcd13ifvqcag","pricing_plan_id":"cebpf4jnsgd1na2vs0mg"},{"bike_id":"ddc940e6-8976-48cb-b5fe-aaf170a35bda","system_id":"levelo_inurba_marseille","lat":43.27988,"lon":5.41667,"is_reserved":false,"is_disabled":false,"rental_uris":{"android":"levelo://app?vid=ddc940e6-8976-48cb-b5fe-aaf170a35bda","ios":"levelo://app?vid=ddc940e6-8976-48cb-b5fe-aaf170a35bda"},"vehicle_type_id":"4","last_reported":1768893602,"current_range_meters":9200,"station_id":"ce4bho12rcd13ifvqh1g","pricing_plan_id":"cebpf4jnsgd1na2vs0mg"},{"bike_id":"df1b9a7e-c928-473d-adba-e2b75f20c556","system_id":"levelo_inurba_marseille","lat":43.254712,"lon":5.376808,"is_reserved":false,"is_disabled":false,"rental_uris":{"android":"levelo://app?vid=df1b9a7e-c928-473d-adba-e2b75f20c556","ios":"levelo://app?vid=df1b9a7e-c928-473d-adba-e2b75f20c556"},"vehicle_type_id":"4","last_reported":1768893602,"current_range_meters":9200,"station_id":"ce4bhh12rcd13ifvqff0","pricing_plan_id":"cebpf4jnsgd1na2vs0mg"},{"bike_id":"13514341-4919-42e4-adfe-f950ab161eba","system_id":"levelo_inurba_marseille","lat":43.23172,"lon":5.39973,"is_reserved":false,"is_disabled":false,"rental_uris":{"android":"levelo://app?vid=13514341-4919-42e4-adfe-f950ab161eba","ios":"levelo://app?vid=13514341-4919-42e4-adfe-f950ab161eba"},"vehicle_type_id":"4","last_reported":1768893602,"current_range_meters":9200,"station_id":"ce4bhn12rcd13ifvqgqg","pricing_plan_id":"cebpf4jnsgd1na2vs0mg"},{"bike_id":"9f4cfbb1-7e6f-4677-b465-72e41d49f0af","system_id":"levelo_inurba_marseille","lat":43.23207,"lon":5.39967,"is_reserved":false,"is_disabled":false,"rental_uris":{"android":"levelo://app?vid=9f4cfbb1-7e6f-4677-b465-72e41d49f0af","ios":"levelo://app?vid=9f4cfbb1-7e6f-4677-b465-72e41d49f0af"},"vehicle_type_id":"4","last_reported":1768893602,"current_range_meters":9200,"station_id":"ce4bhn12rcd13ifvqgqg","pricing_plan_id":"cebpf4jnsgd1na2vs0mg"},{"bike_id":"bd47c088-7a9b-44ec-a68f-65b726393761","system_id":"levelo_inurba_marseille","lat":43.27945,"lon":5.40627,"is_reserved":false,"is_disabled":false,"rental_uris":{"android":"levelo://app?vid=bd47c088-7a9b-44ec-a68f-65b726393761","ios":"levelo://app?vid=bd47c088-7a9b-44ec-a68f-65b726393761"},"vehicle_type_id":"4","last_reported":1768893602,"current_range_meters":9200,"station_id":"","pricing_plan_id":"cebpf4jnsgd1na2vs0mg"},{"bike_id":"6b54e904-2ddf-45c1-bd6f-aa80ca334464","system_id":"levelo_inurba_marseille","lat":43.28616,"lon":5.39871,"is_reserved":false,"is_disabled":false,"rental_uris":{"android":"levelo://app?vid=6b54e904-2ddf-45c1-bd6f-aa80ca334464","ios":"levelo://app?vid=6b54e904-2ddf-45c1-bd6f-aa80ca334464"},"vehicle_type_id":"4","last_reported":1768893602,"current_range_meters":9200,"station_id":"st_d4a7ka997mjs738ck50g","pricing_plan_id":"cebpf4jnsgd1na2vs0mg"},{"bike_id":"a5e5c619-8bc5-4328-9a09-ce54be33b975","system_id":"levelo_inurba_marseille","lat":43.24398,"lon":5.37054,"is_reserved":false,"is_disabled":false,"rental_uris":{"android":"levelo://app?vid=a5e5c619-8bc5-4328-9a09-ce54be33b975","ios":"levelo://app?vid=a5e5c619-8bc5-4328-9a09-ce54be33b975"},"vehicle_type_id":"4","last_reported":1768893602,"current_range_meters":9200,"station_id":"ce4bhhh2rcd13ifvqfk0","pricing_plan_id":"cebpf4jnsgd1na2vs0mg"},{"bike_id":"29b3fe27-3155-4bb1-9d12-be92f522d733","system_id":"levelo_inurba_marseille","lat":43.29753,"lon":5.42785,"is_reserved":false,"is_disabled":false,"rental_uris":{"android":"levelo://app?vid=29b3fe27-3155-4bb1-9d12-be92f522d733","ios":"levelo://app?vid=29b3fe27-3155-4bb1-9d12-be92f522d733"},"vehicle_type_id":"4","last_reported":1768893602,"current_range_meters":9200,"station_id":"st_d3md5207bmas73dh9klg","pricing_plan_id":"cebpf4jnsgd1na2vs0mg"},{"bike_id":"52c85b02-607c-4226-bd7b-fd246dd2dae8","system_id":"levelo_inurba_marseille","lat":43.2256,"lon":5.41626,"is_reserved":false,"is_disabled":false,"rental_uris":{"android":"levelo://app?vid=52c85b02-607c-4226-bd7b-fd246dd2dae8","ios":"levelo://app?vid=52c85b02-607c-4226-bd7b-fd246dd2dae8"},"vehicle_type_id":"4","last_reported":1768893602,"current_range_meters":9200,"station_id":"st_d2o4gvlbi1j2169b742g","pricing_plan_id":"cebpf4jnsgd1na2vs0mg"},{"bike_id":"0e84440f-1425-4251-a28c-38177f781258","system_id":"levelo_inurba_marseille","lat":43.28475,"lon":5.484,"is_reserved":false,"is_disabled":false,"rental_uris":{"android":"levelo://app?vid=0e84440f-1425-4251-a28c-38177f781258","ios":"levelo://app?vid=0e84440f-1425-4251-a28c-38177f781258"},"vehicle_type_id":"4","last_reported":1768893602,"current_range_meters":9200,"station_id":"","pricing_plan_id":"cebpf4jnsgd1na2vs0mg"},{"bike_id":"3e57c784-076f-487c-b622-a075cc851190","system_id":"levelo_inurba_marseille","lat":43.26331,"lon":5.37797,"is_reserved":false,"is_disabled":false,"rental_uris":{"android":"levelo://app?vid=3e57c784-076f-487c-b622-a075cc851190","ios":"levelo://app?vid=3e57c784-076f-487c-b622-a075cc851190"},"vehicle_type_id":"4","last_reported":1768893602,"current_range_meters":9200,"station_id":"ce4bhjp2rcd13ifvqg90","pricing_plan_id":"cebpf4jnsgd1na2vs0mg"},{"bike_id":"4851a828-8c47-4134-9b5d-cf82bafb2fee","system_id":"levelo_inurba_marseille","lat":43.23775,"lon":5.36635,"is_reserved":false,"is_disabled":false,"rental_uris":{"android":"levelo://app?vid=4851a828-8c47-4134-9b5d-cf82bafb2fee","ios":"levelo://app?vid=4851a828-8c47-4134-9b5d-cf82bafb2fee"},"vehicle_type_id":"4","last_reported":1768893602,"current_range_meters":9200,"station_id":"st_d3nk18o9ro0c73en2l3g","pricing_plan_id":"cebpf4jnsgd1na2vs0mg"},{"bike_id":"fac4e5af-2e82-475c-bc31-9567019eded6","system_id":"levelo_inurba_marseille","lat":43.25858,"lon":5.39909,"is_reserved":false,"is_disabled":false,"rental_uris":{"android":"levelo://app?vid=fac4e5af-2e82-475c-bc31-9567019eded6","ios":"levelo://app?vid=fac4e5af-2e82-475c-bc31-9567019eded6"},"vehicle_type_id":"4","last_reported":1768893602,"current_range_meters":9200,"station_id":"ce4bhl92rcd13ifvqghg","pricing_plan_id":"cebpf4jnsgd1na2vs0mg"},{"bike_id":"b05efc28-bf63-458e-9367-ad90ed82af33","system_id":"levelo_inurba_marseille","lat":43.32325,"lon":5.38513,"is_reserved":false,"is_disabled":false,"rental_uris":{"android":"levelo://app?vid=b05efc28-bf63-458e-9367-ad90ed82af33","ios":"levelo://app?vid=b05efc28-bf63-458e-9367-ad90ed82af33"},"vehicle_type_id":"4","last_reported":1768893602,"current_range_meters":9200,"station_id":"st_d45171o9ee8s73djdqug","pricing_plan_id":"cebpf4jnsgd1na2vs0mg"},{"bike_id":"73a5a201-aa6a-4919-8e22-580e5005ee3f","system_id":"levelo_inurba_marseille","lat":43.301251,"lon":5.399072,"is_reserved":false,"is_disabled":false,"rental_uris":{"android":"levelo://app?vid=73a5a201-aa6a-4919-8e22-580e5005ee3f","ios":"levelo://app?vid=73a5a201-aa6a-4919-8e22-580e5005ee3f"},"vehicle_type_id":"4","last_reported":1768893602,"current_range_meters":9200,"station_id":"ce4bh0h2rcd13ifvqd40","pricing_plan_id":"cebpf4jnsgd1na2vs0mg"},{"bike_id":"9dff9bae-d519-49ab-850f-a6b93762d1fc","system_id":"levelo_inurba_marseille","lat":43.25333,"lon":5.4217,"is_reserved":false,"is_disabled":false,"rental_uris":{"android":"levelo://app?vid=9dff9bae-d519-49ab-850f-a6b93762d1fc","ios":"levelo://app?vid=9dff9bae-d519-49ab-850f-a6b93762d1fc"},"vehicle_type_id":"4","last_reported":1768893602,"current_range_meters":9200,"station_id":"st_d2m65c5bi1j21697t3ng","pricing_plan_id":"cebpf4jnsgd1na2vs0mg"},{"bike_id":"624e69c3-6b31-4186-969f-7f4473ab49c7","system_id":"levelo_inurba_marseille","lat":43.259178,"lon":5.387283,"is_reserved":false,"is_disabled":true,"rental_uris":{"android":"levelo://app?vid=624e69c3-6b31-4186-969f-7f4473ab49c7","ios":"levelo://app?vid=624e69c3-6b31-4186-969f-7f4473ab49c7"},"vehicle_type_id":"4","last_reported":1768893602,"current_range_meters":9600,"station_id":"","pricing_plan_id":"cebpf4jnsgd1na2vs0mg"},{"bike_id":"1993e0db-f7ab-443a-86a7-0c39128e0221","system_id":"levelo_inurba_marseille","lat":43.31751,"lon":5.38995,"is_reserved":false,"is_disabled":false,"rental_uris":{"android":"levelo://app?vid=1993e0db-f7ab-443a-86a7-0c39128e0221","ios":"levelo://app?vid=1993e0db-f7ab-443a-86a7-0c39128e0221"},"vehicle_type_id":"4","last_reported":1768893602,"current_range_meters":9600,"station_id":"ce4bhqp2rcd13ifvqhng","pricing_plan_id":"cebpf4jnsgd1na2vs0mg"},{"bike_id":"c9632c24-d4ba-453f-a643-952c5a012a8a","system_id":"levelo_inurba_marseille","lat":43.22566,"lon":5.41631,"is_reserved":false,"is_disabled":false,"rental_uris":{"android":"levelo://app?vid=c9632c24-d4ba-453f-a643-952c5a012a8a","ios":"levelo://app?vid=c9632c24-d4ba-453f-a643-952c5a012a8a"},"vehicle_type_id":"4","last_reported":1768893602,"current_range_meters":9600,"station_id":"st_d2o4gvlbi1j2169b742g","pricing_plan_id":"cebpf4jnsgd1na2vs0mg"},{"bike_id":"2236101a-77cc-4324-92a8-14862df51ab6","system_id":"levelo_inurba_marseille","lat":43.3053,"lon":5.36532,"is_reserved":false,"is_disabled":true,"rental_uris":{"android":"levelo://app?vid=2236101a-77cc-4324-92a8-14862df51ab6","ios":"levelo://app?vid=2236101a-77cc-4324-92a8-14862df51ab6"},"vehicle_type_id":"4","last_reported":1768893602,"current_range_meters":9600,"station_id":"ce4bgs12rcd13ifvqcag","pricing_plan_id":"cebpf4jnsgd1na2vs0mg"},{"bike_id":"f2bccffe-a4f0-4793-bfaa-8fbb6939cb95","system_id":"levelo_inurba_marseille","lat":43.246385,"lon":5.38904,"is_reserved":false,"is_disabled":false,"rental_uris":{"android":"levelo://app?vid=f2bccffe-a4f0-4793-bfaa-8fbb6939cb95","ios":"levelo://app?vid=f2bccffe-a4f0-4793-bfaa-8fbb6939cb95"},"vehicle_type_id":"4","last_reported":1768893602,"current_range_meters":9600,"station_id":"ce4bhg12rcd13ifvqf60","pricing_plan_id":"cebpf4jnsgd1na2vs0mg"},{"bike_id":"ad8c3da5-e1bf-4ab9-bbba-80fb4a6edf69","system_id":"levelo_inurba_marseille","lat":43.341394,"lon":5.409051,"is_reserved":false,"is_disabled":false,"rental_uris":{"android":"levelo://app?vid=ad8c3da5-e1bf-4ab9-bbba-80fb4a6edf69","ios":"levelo://app?vid=ad8c3da5-e1bf-4ab9-bbba-80fb4a6edf69"},"vehicle_type_id":"4","last_reported":1768893602,"current_range_meters":9600,"station_id":"ce4bhqh2rcd13ifvqhlg","pricing_plan_id":"cebpf4jnsgd1na2vs0mg"},{"bike_id":"82be7d97-718d-4ca3-a208-795195883a7c","system_id":"levelo_inurba_marseille","lat":43.25817,"lon":5.39428,"is_reserved":false,"is_disabled":false,"rental_uris":{"android":"levelo://app?vid=82be7d97-718d-4ca3-a208-795195883a7c","ios":"levelo://app?vid=82be7d97-718d-4ca3-a208-795195883a7c"},"vehicle_type_id":"4","last_reported":1768893602,"current_range_meters":9600,"station_id":"ce4bhip2rcd13ifvqft0","pricing_plan_id":"cebpf4jnsgd1na2vs0mg"},{"bike_id":"9a2ad800-0a03-43fa-8c40-1fdb282b6422","system_id":"levelo_inurba_marseille","lat":43.324789,"lon":5.365641,"is_reserved":false,"is_disabled":false,"rental_uris":{"android":"levelo://app?vid=9a2ad800-0a03-43fa-8c40-1fdb282b6422","ios":"levelo://app?vid=9a2ad800-0a03-43fa-8c40-1fdb282b6422"},"vehicle_type_id":"4","last_reported":1768893602,"current_range_meters":9600,"station_id":"ce4bhs12rcd13ifvqhvg","pricing_plan_id":"cebpf4jnsgd1na2vs0mg"},{"bike_id":"c648ce05-faa1-4b25-b283-bb371b3c83ac","system_id":"levelo_inurba_marseille","lat":43.28915,"lon":5.38245,"is_reserved":false,"is_disabled":false,"rental_uris":{"android":"levelo://app?vid=c648ce05-faa1-4b25-b283-bb371b3c83ac","ios":"levelo://app?vid=c648ce05-faa1-4b25-b283-bb371b3c83ac"},"vehicle_type_id":"4","last_reported":1768893602,"current_range_meters":9600,"station_id":"","pricing_plan_id":"cebpf4jnsgd1na2vs0mg"},