{"last_updated":1704380872,"ttl":30,"version":"2.2","data":{"bikes":[{"bike_id":"30623490-7084-45dc-8181-12c79695b407","system_id":"levelo_inurba_marseille","lat":43.31341,"lon":5.367098,"is_reserved":false,"is_disabled":false,"rental_uris":{"android":"levelo://app?vid=30623490-7084-45dc-8181-12c79695b407","ios":"levelo://app?vid=30623490-7084-45dc-8181-12c79695b407"},"vehicle_type_id":"4","last_reported":1704380873,"current_range_meters":31600,"station_id":"ce4bgr92rcd13ifvqc6g","pricing_plan_id":"free"},{"bike_id":"5592f5e3-04d6-4de1-a0c0-0988953bc103","system_id":"levelo_inurba_marseille","lat":43.313391,"lon":5.36706,"is_reserved":false,"is_disabled":false,"rental_uris":{"android":"levelo://app?vid=5592f5e3-04d6-4de1-a0c0-0988953bc103","ios":"levelo://app?vid=5592f5e3-04d6-4de1-a0c0-0988953bc103"},"vehicle_type_id":"4","last_reported":1704380873,"current_range_meters":31200,"station_id":"ce4bgr92rcd13ifvqc6g","pricing_plan_id":"free"},{"bike_id":"109594e6-4b91-44f7-966d-1a7e71aa952f","system_id":"levelo_inurba_marseille","lat":43.31341,"lon":5.367098,"is_reserved":false,"is_disabled":false,"rental_uris":{"android":"levelo://app?vid=109594e6-4b91-44f7-966d-1a7e71aa952f","ios":"levelo://app?vid=109594e6-4b91-44f7-966d-1a7e71aa952f"},"vehicle_type_id":"4","last_reported":1704380873,"current_range_meters":30000,"station_id":"ce4bgr92rcd13ifvqc6g","pricing_plan_id":"free"},{"bike_id":"61b18b37-ad6f-4155-98dc-fe37d39569b9","system_id":"levelo_inurba_marseille","lat":43.31341,"lon":5.367098,"is_reserved":false,"is_disabled":false,"rental_uris":{"android":"levelo://app?vid=61b18b37-ad6f-4155-98dc-fe37d39569b9","ios":"levelo://app?vid=61b18b37-ad6f-4155-98dc-fe37d39569b9"},"vehicle_type_id":"4","last_reported":1704380873,"current_range_meters":18000,"station_id":"ce4bgr92rcd13ifvqc6g","pricing_plan_id":"free"},{"bike_id":"ec568617-ef3f-40ab-b414-30547bcf7c67","system_id":"levelo_inurba_marseille","lat":43.31341,"lon":5.367098,"is_reserved":false,"is_disabled":false,"rental_uris":{"android":"levelo://app?vid=ec568617-ef3f-40ab-b414-30547bcf7c67","ios":"levelo://app?vid=ec568617-ef3f-40ab-b414-30547bcf7c67"},"vehicle_type_id":"4","last_reported":1704380873,"current_range_meters":23600,"station_id":"ce4bgr92rcd13ifvqc6g","pricing_plan_id":"free"},{"bike_id":"e29ab35e-ddb9-48ce-8683-7a3f951e89fb","system_id":"levelo_inurba_marseille","lat":43.313391,"lon":5.36706,"is_reserved":false,"is_disabled":false,"rental_uris":{"android":"levelo://app?vid=e29ab35e-ddb9-48ce-8683-7a3f951e89fb","ios":"levelo://app?vid=e29ab35e-ddb9-48ce-8683-7a3f951e89fb"},"vehicle_type_id":"4","last_reported":1704380873,"current_range_meters":31200,"station_id":"ce4bgr92rcd13ifvqc6g","pricing_plan_id":"free"},{"bike_id":"39d079d5-96aa-4945-8693-ebfbbc65c92d","system_id":"levelo_inurba_marseille","lat":43.313391,"lon":5.36706,"is_reserved":false,"is_disabled":false,"rental_uris":{"android":"levelo://app?vid=39d079d5-96aa-4945-8693-ebfbbc65c92d","ios":"levelo://app?vid=39d079d5-96aa-4945-8693-ebfbbc65c92d"},"vehicle_type_id":"4","last_reported":1704380873,"current_range_meters":31200,"station_id":"ce4bgr92rcd13ifvqc6g","pricing_plan_id":"free"},{"bike_id":"33605fb2-7b88-48b3-93e3-a561c236c502","system_id":"levelo_inurba_marseille","lat":43.31341,"lon":5.367098,"is_reserved":false,"is_disabled":false,"rental_uris":{"android":"levelo://app?vid=33605fb2-7b88-48b3-93e3-a561c236c502","ios":"levelo://app?vid=33605fb2-7b88-48b3-93e3-a561c236c502"},"vehicle_type_id":"4","last_reported":1704380873,"current_range_meters":19600,"station_id":"ce4bgr92rcd13ifvqc6g","pricing_plan_id":"free"},{"bike_id":"c368d17f-0729-44ad-adca-0f22e89f1c85","system_id":"levelo_inurba_marseille","lat":43.312239,"lon":5.368562,"is_reserved":false,"is_disabled":false,"rental_uris":{"android":"levelo://app?vid=c368d17f-0729-44ad-adca-0f22e89f1c85","ios":"levelo://app?vid=c368d17f-0729-44ad-adca-0f22e89f1c85"},"vehicle_type_id":"4","last_reported":1704380873,"current_range_meters":27600,"station_id":"ce4bgl92rcd13ifvqbq0","pricing_plan_id":"free"},{"bike_id":"bff6ec37-cc19-4da6-ad15-ec2d8e671f82","system_id":"levelo_inurba_marseille","lat":43.312239,"lon":5.368562,"is_reserved":false,"is_disabled":false,"rental_uris":{"android":"levelo://app?vid=bff6ec37-cc19-4da6-ad15-ec2d8e671f82","ios":"levelo://app?vid=bff6ec37-cc19-4da6-ad15-ec2d8e671f82"},"vehicle_type_id":"4","last_reported":1704380873,"current_range_meters":31600,"station_id":"ce4bgl92rcd13ifvqbq0","pricing_plan_id":"free"},{"bike_id":"5857b6fb-c03f-484e-90b3-c354be094d08","system_id":"levelo_inurba_marseille","lat":43.312239,"lon":5.368562,"is_reserved":false,"is_disabled":false,"rental_uris":{"android":"levelo://app?vid=5857b6fb-c03f-484e-90b3-c354be094d08","ios":"levelo://app?vid=5857b6fb-c03f-484e-90b3-c354be094d08"},"vehicle_type_id":"4","last_reported":1704380873,"current_range_meters":31200,"station_id":"ce4bgl92rcd13ifvqbq0","pricing_plan_id":"free"},{"bike_id":"4aceaf2f-61cb-4521-95d9-8ca0f1589c3d","system_id":"levelo_inurba_marseille","lat":43.312239,"lon":5.368562,"is_reserved":false,"is_disabled":false,"rental_uris":{"android":"levelo://app?vid=4aceaf2f-61cb-4521-95d9-8ca0f1589c3d","ios":"levelo://app?vid=4aceaf2f-61cb-4521-95d9-8ca0f1589c3d"},"vehicle_type_id":"4","last_reported":1704380873,"current_range_meters":22800,"station_id":"ce4bgl92rcd13ifvqbq0","pricing_plan_id":"free"},{"bike_id":"550067ba-e035-4f4f-b983-57802450d72e","system_id":"levelo_inurba_marseille","lat":43.309076,"lon":5.368465,"is_reserved":false,"is_disabled":false,"rental_uris":{"android":"levelo://app?vid=550067ba-e035-4f4f-b983-57802450d72e","ios":"levelo://app?vid=550067ba-e035-4f4f-b983-57802450d72e"},"vehicle_type_id":"4","last_reported":1704380873,"current_range_meters":16000,"station_id":"ce4bgn92rcd13ifvqbvg","pricing_plan_id":"free"},{"bike_id":"2788c86f-35b3-41ba-99ef-27d5f2e65322","system_id":"levelo_inurba_marseille","lat":43.3091,"lon":5.368579,"is_reserved":false,"is_disabled":false,"rental_uris":{"android":"levelo://app?vid=2788c86f-35b3-41ba-99ef-27d5f2e65322","ios":"levelo://app?vid=2788c86f-35b3-41ba-99ef-27d5f2e65322"},"vehicle_type_id":"4","last_reported":1704380873,"current_range_meters":24800,"station_id":"","pricing_plan_id":"free"},{"bike_id":"cd9160d4-a129-4022-8284-9538823afe37","system_id":"levelo_inurba_marseille","lat":43.309076,"lon":5.368465,"is_reserved":false,"is_disabled":false,"rental_uris":{"android":"levelo://app?vid=cd9160d4-a129-4022-8284-9538823afe37","ios":"levelo://app?vid=cd9160d4-a129-4022-8284-9538823afe37"},"vehicle_type_id":"4","last_reported":1704380873,"current_range_meters":22800,"station_id":"ce4bgn92rcd13ifvqbvg","pricing_plan_id":"free"},{"bike_id":"348c2f52-acb8-4ada-bddd-689d9d31e034","system_id":"levelo_inurba_marseille","lat":43.309076,"lon":5.368465,"is_reserved":false,"is_disabled":false,"rental_uris":{"android":"levelo://app?vid=348c2f52-acb8-4ada-bddd-689d9d31e034","ios":"levelo://app?vid=348c2f52-acb8-4ada-bddd-689d9d31e034"},"vehicle_type_id":"4","last_reported":1704380873,"current_range_meters":31600,"station_id":"ce4bgn92rcd13ifvqbvg","pricing_plan_id":"free"},{"bike_id":"07808651-dad0-40e4-a42f-1b0a91e587f0","system_id":"levelo_inurba_marseille","lat":43.309076,"lon":5.368465,"is_reserved":false,"is_disabled":false,"rental_uris":{"android":"levelo://app?vid=07808651-dad0-40e4-a42f-1b0a91e587f0","ios":"levelo://app?vid=07808651-dad0-40e4-a42f-1b0a91e587f0"},"vehicle_type_id":"4","last_reported":1704380873,"current_range_meters":28800,"station_id":"ce4bgn92rcd13ifvqbvg","pricing_plan_id":"free"},{"bike_id":"41627e24-8b0a-4710-9b0c-94fe225912b6","system_id":"levelo_inurba_marseille","lat":43.31485,"lon":5.37308,"is_reserved":false,"is_disabled":false,"rental_uris":{"android":"levelo://app?vid=41627e24-8b0a-4710-9b0c-94fe225912b6","ios":"levelo://app?vid=41627e24-8b0a-4710-9b0c-94fe225912b6"},"vehicle_type_id":"4","last_reported":1704380873,"current_range_meters":28000,"station_id":"ce4bgt12rcd13ifvqcd0","pricing_plan_id":"free"},{"bike_id":"ab7e17b4-8aee-4206-88ca-2f8b98211ff5","system_id":"levelo_inurba_marseille","lat":43.314811,"lon":5.373103,"is_reserved":false,"is_disabled":false,"rental_uris":{"android":"levelo://app?vid=ab7e17b4-8aee-4206-88ca-2f8b98211ff5","ios":"levelo://app?vid=ab7e17b4-8aee-4206-88ca-2f8b98211ff5"},"vehicle_type_id":"4","last_reported":1704380873,"current_range_meters":30400,"station_id":"ce4bgt12rcd13ifvqcd0","pricing_plan_id":"free"},{"bike_id":"5a401ff7-12a1-4972-a5d8-5d5b6d1c8e98","system_id":"levelo_inurba_marseille","lat":43.314811,"lon":5.373104,"is_reserved":false,"is_disabled":false,"rental_uris":{"android":"levelo://app?vid=5a401ff7-12a1-4972-a5d8-5d5b6d1c8e98","ios":"levelo://app?vid=5a401ff7-12a1-4972-a5d8-5d5b6d1c8e98"},"vehicle_type_id":"4","last_reported":1704380873,"current_range_meters":26800,"station_id":"ce4bgt12rcd13ifvqcd0","pricing_plan_id":"free"},{"bike_id":"d47cad44-a0d6-4d32-b943-3a1ade6b701c","system_id":"levelo_inurba_marseille","lat":43.309039,"lon":5.371797,"is_reserved":false,"is_disabled":false,"rental_uris":{"android":"levelo://app?vid=d47cad44-a0d6-4d32-b943-3a1ade6b701c","ios":"levelo://app?vid=d47cad44-a0d6-4d32-b943-3a1ade6b701c"},"vehicle_type_id":"4","last_reported":1704380873,"current_range_meters":22000,"station_id":"ce4bguh2rcd13ifvqckg","pricing_plan_id":"free"},{"bike_id":"7d01e340-d384-4fd2-b470-26e53f962e45","system_id":"levelo_inurba_marseille","lat":43.309039,"lon":5.371797,"is_reserved":false,"is_disabled":false,"rental_uris":{"android":"levelo://app?vid=7d01e340-d384-4fd2-b470-26e53f962e45","ios":"levelo://app?vid=7d01e340-d384-4fd2-b470-26e53f962e45"},"vehicle_type_id":"4","last_reported":1704380873,"current_range_meters":27200,"station_id":"ce4bguh2rcd13ifvqckg","pricing_plan_id":"free"},{"bike_id":"0561b812-c8d9-42db-9f49-767936d7d1a8","system_id":"levelo_inurba_marseille","lat":43.309039,"lon":5.371797,"is_reserved":false,"is_disabled":false,"rental_uris":{"android":"levelo://app?vid=0561b812-c8d9-42db-9f49-767936d7d1a8","ios":"levelo://app?vid=0561b812-c8d9-42db-9f49-767936d7d1a8"},"vehicle_type_id":"4","last_reported":1704380873,"current_range_meters":28000,"station_id":"ce4bguh2rcd13ifvqckg","pricing_plan_id":"free"},{"bike_id":"6b291123-d48d-4a60-aa49-3dbc95d419e1","system_id":"levelo_inurba_marseille","lat":43.30537,"lon":5.367345,"is_reserved":false,"is_disabled":false,"rental_uris":{"android":"levelo://app?vid=6b291123-d48d-4a60-aa49-3dbc95d419e1","ios":"levelo://app?vid=6b291123-d48d-4a60-aa49-3dbc95d419e1"},"vehicle_type_id":"4","last_reported":1704380873,"current_range_meters":26400,"station_id":"ce4bgrp2rcd13ifvqc9g","pricing_plan_id":"free"},{"bike_id":"a35cd65c-52b3-41ea-9b4b-9415e50618b7","system_id":"levelo_inurba_marseille","lat":43.305712,"lon":5.365641,"is_reserved":false,"is_disabled":false,"rental_uris":{"android":"levelo://app?vid=a35cd65c-52b3-41ea-9b4b-9415e50618b7","ios":"levelo://app?vid=a35cd65c-52b3-41ea-9b4b-9415e50618b7"},"vehicle_type_id":"4","last_reported":1704380873,"current_range_meters":16800,"station_id":"ce4bgs12rcd13ifvqcag","pricing_plan_id":"free"},{"bike_id":"26acb944-f3d6-4686-bc29-014e85ac3bd0","system_id":"levelo_inurba_marseille","lat":43.305714,"lon":5.365633,"is_reserved":false,"is_disabled":false,"rental_uris":{"android":"levelo://app?vid=26acb944-f3d6-4686-bc29-014e85ac3bd0","ios":"levelo://app?vid=26acb944-f3d6-4686-bc29-014e85ac3bd0"},"vehicle_type_id":"4","last_reported":1704380873,"current_range_meters":13600,"station_id":"ce4bgs12rcd13ifvqcag","pricing_plan_id":"free"},{"bike_id":"ff510990-4eff-4959-92fc-9cf98a562bcf","system_id":"levelo_inurba_marseille","lat":43.305368,"lon":5.367343,"is_reserved":false,"is_disabled":false,"rental_uris":{"android":"levelo://app?vid=ff510990-4eff-4959-92fc-9cf98a562bcf","ios":"levelo://app?vid=ff510990-4eff-4959-92fc-9cf98a562bcf"},"vehicle_type_id":"4","last_reported":1704380873,"current_range_meters":26400,"station_id":"ce4bgrp2rcd13ifvqc9g","pricing_plan_id":"free"},{"bike_id":"a225ae67-e48e-4835-ba3b-b071b7b28e78","system_id":"levelo_inurba_marseille","lat":43.305706,"lon":5.365654,"is_reserved":false,"is_disabled":false,"rental_uris":{"android":"levelo://app?vid=a225ae67-e48e-4835-ba3b-b071b7b28e78","ios":"levelo://app?vid=a225ae67-e48e-4835-ba3b-b071b7b28e78"},"vehicle_type_id":"4","last_reported":1704380873,"current_range_meters":19600,"station_id":"ce4bgs12rcd13ifvqcag","pricing_plan_id":"free"},{"bike_id":"ee373b99-2b50-463b-b683-9c4293f38d40","system_id":"levelo_inurba_marseille","lat":43.305706,"lon":5.365654,"is_reserved":false,"is_disabled":false,"rental_uris":{"android":"levelo://app?vid=ee373b99-2b50-463b-b683-9c4293f38d40","ios":"levelo://app?vid=ee373b99-2b50-463b-b683-9c4293f38d40"},"vehicle_type_id":"4","last_reported":1704380873,"current_range_meters":23200,"station_id":"ce4bgs12rcd13ifvqcag","pricing_plan_id":"free"},{"bike_id":"de93f1f4-bc5b-4ad0-b228-1486a65d66d1","system_id":"levelo_inurba_marseille","lat":43.305706,"lon":5.365654,"is_reserved":false,"is_disabled":false,"rental_uris":{"android":"levelo://app?vid=de93f1f4-bc5b-4ad0-b228-1486a65d66d1","ios":"levelo://app?vid=de93f1f4-bc5b-4ad0-b228-1486a65d66d1"},"vehicle_type_id":"4","last_reported":1704380873,"current_range_meters":14000,"station_id":"ce4bgs12rcd13ifvqcag","pricing_plan_id":"free"},{"bike_id":"9fcac5b8-6711-472d-ae60-c00641886fba","system_id":"levelo_inurba_marseille","lat":43.305706,"lon":5.365654,"is_reserved":false,"is_disabled":false,"rental_uris":{"android":"levelo://app?vid=9fcac5b8-6711-472d-ae60-c00641886fba","ios":"levelo://app?vid=9fcac5b8-6711-472d-ae60-c00641886fba"},"vehicle_type_id":"4","last_reported":1704380873,"current_range_meters":16000,"station_id":"ce4bgs12rcd13ifvqcag","pricing_plan_id":"free"},{"bike_id":"ba14d0f5-ed83-485e-89c3-e6f54eef8465","system_id":"levelo_inurba_marseille","lat":43.3112,"lon":5.37768,"is_reserved":false,"is_disabled":false,"rental_uris":{"android":"levelo://app?vid=ba14d0f5-ed83-485e-89c3-e6f54eef8465","ios":"levelo://app?vid=ba14d0f5-ed83-485e-89c3-e6f54eef8465"},"vehicle_type_id":"4","last_reported":1704380873,"current_range_meters":5600,"station_id":"ce4bgt92rcd13ifvqcg0","pricing_plan_id":"free"},{"bike_id":"8f20fd1d-4b5f-4b10-8a6e-fe021223b97b","system_id":"levelo_inurba_marseille","lat":43.3084,"lon":5.37648,"is_reserved":false,"is_disabled":false,"rental_uris":{"android":"levelo://app?vid=8f20fd1d-4b5f-4b10-8a6e-fe021223b97b","ios":"levelo://app?vid=8f20fd1d-4b5f-4b10-8a6e-fe021223b97b"},"vehicle_type_id":"4","last_reported":1704380873,"current_range_meters":8400,"station_id":"","pricing_plan_id":"free"},{"bike_id":"7c3a11d8-391a-4704-9e85-ddfc1b0c7214","system_id":"levelo_inurba_marseille","lat":43.307945,"lon":5.376487,"is_reserved":false,"is_disabled":false,"rental_uris":{"android":"levelo://app?vid=7c3a11d8-391a-4704-9e85-ddfc1b0c7214","ios":"levelo://app?vid=7c3a11d8-391a-4704-9e85-ddfc1b0c7214"},"vehicle_type_id":"4","last_reported":1704380873,"current_range_meters":28800,"station_id":"ce4bgv92rcd13ifvqcq0","pricing_plan_id":"free"},{"bike_id":"c4e90871-bb94-4085-82dc-ccbd997a22ca","system_id":"levelo_inurba_marseille","lat":43.31521,"lon":5.37907,"is_reserved":false,"is_disabled":false,"rental_uris":{"android":"levelo://app?vid=c4e90871-bb94-4085-82dc-ccbd997a22ca","ios":"levelo://app?vid=c4e90871-bb94-4085-82dc-ccbd997a22ca"},"vehicle_type_id":"4","last_reported":1704380873,"current_range_meters":18400,"station_id":"","pricing_plan_id":"free"},{"bike_id":"6fae2a70-2cb1-4903-8120-5f72ba4cfaa3","system_id":"levelo_inurba_marseille","lat":43.30304,"lon":5.368987,"is_reserved":false,"is_disabled":false,"rental_uris":{"android":"levelo://app?vid=6fae2a70-2cb1-4903-8120-5f72ba4cfaa3","ios":"levelo://app?vid=6fae2a70-2cb1-4903-8120-5f72ba4cfaa3"},"vehicle_type_id":"4","last_reported":1704380873,"current_range_meters":27200,"station_id":"ce4bgqh2rcd13ifvqc5g","pricing_plan_id":"free"},{"bike_id":"e97c7912-64a5-475e-903f-0fb0b1ad39ac","system_id":"levelo_inurba_marseille","lat":43.315293,"lon":5.380349,"is_reserved":false,"is_disabled":false,"rental_uris":{"android":"levelo://app?vid=e97c7912-64a5-475e-903f-0fb0b1ad39ac","ios":"levelo://app?vid=e97c7912-64a5-475e-903f-0fb0b1ad39ac"},"vehicle_type_id":"4","last_reported":1704380873,"current_range_meters":18000,"station_id":"ce4bhsp2rcd13ifvqi50","pricing_plan_id":"free"},{"bike_id":"a0e568b1-751b-4c5f-a6bb-8f90afdaf043","system_id":"levelo_inurba_marseille","lat":43.315293,"lon":5.380349,"is_reserved":false,"is_disabled":false,"rental_uris":{"android":"levelo://app?vid=a0e568b1-751b-4c5f-a6bb-8f90afdaf043","ios":"levelo://app?vid=a0e568b1-751b-4c5f-a6bb-8f90afdaf043"},"vehicle_type_id":"4","last_reported":1704380873,"current_range_meters":12000,"station_id":"ce4bhsp2rcd13ifvqi50","pricing_plan_id":"free"},{"bike_id":"520440fa-b152-44a5-b8c2-1b440535faef","system_id":"levelo_inurba_marseille","lat":43.301939,"lon":5.366286,"is_reserved":false,"is_disabled":false,"rental_uris":{"android":"levelo://app?vid=520440fa-b152-44a5-b8c2-1b440535faef","ios":"levelo://app?vid=520440fa-b152-44a5-b8c2-1b440535faef"},"vehicle_type_id":"4","last_reported":1704380873,"current_range_meters":14000,"station_id":"ce4bgrh2rcd13ifvqc8g","pricing_plan_id":"free"},{"bike_id":"345986c8-5af2-48b8-b9a2-ea6e98b63935","system_id":"levelo_inurba_marseille","lat":43.308012,"lon":5.381511,"is_reserved":false,"is_disabled":false,"rental_uris":{"android":"levelo://app?vid=345986c8-5af2-48b8-b9a2-ea6e98b63935","ios":"levelo://app?vid=345986c8-5af2-48b8-b9a2-ea6e98b63935"},"vehicle_type_id":"4","last_reported":1704380873,"current_range_meters":20400,"station_id":"ce4bgt12rcd13ifvqce0","pricing_plan_id":"free"},{"bike_id":"6a2c5b2a-169a-4653-b6ab-d18ba8eca56c","system_id":"levelo_inurba_marseille","lat":43.308012,"lon":5.381511,"is_reserved":false,"is_disabled":false,"rental_uris":{"android":"levelo://app?vid=6a2c5b2a-169a-4653-b6ab-d18ba8eca56c","ios":"levelo://app?vid=6a2c5b2a-169a-4653-b6ab-d18ba8eca56c"},"vehicle_type_id":"4","last_reported":1704380873,"current_range_meters":23600,"station_id":"ce4bgt12rcd13ifvqce0","pricing_plan_id":"free"},{"bike_id":"9f8c5bd9-e5e9-4f52-8fdd-6d301768f3e4","system_id":"levelo_inurba_marseille","lat":43.304606,"lon":5.379026,"is_reserved":false,"is_disabled":false,"rental_uris":{"android":"levelo://app?vid=9f8c5bd9-e5e9-4f52-8fdd-6d301768f3e4","ios":"levelo://app?vid=9f8c5bd9-e5e9-4f52-8fdd-6d301768f3e4"},"vehicle_type_id":"4","last_reported":1704380873,"current_range_meters":22000,"station_id":"ce4bgup2rcd13ifvqcn0","pricing_plan_id":"free"},{"bike_id":"275c26d3-ae78-4dfd-8ae5-9ea38bca16b8","system_id":"levelo_inurba_marseille","lat":43.31371,"lon":5.38324,"is_reserved":false,"is_disabled":false,"rental_uris":{"android":"levelo://app?vid=275c26d3-ae78-4dfd-8ae5-9ea38bca16b8","ios":"levelo://app?vid=275c26d3-ae78-4dfd-8ae5-9ea38bca16b8"},"vehicle_type_id":"4","last_reported":1704380873,"current_range_meters":400,"station_id":"","pricing_plan_id":"free"},{"bike_id":"0983aa71-c834-4e48-86a7-fff592e4c50b","system_id":"levelo_inurba_marseille","lat":43.304606,"lon":5.379026,"is_reserved":false,"is_disabled":false,"rental_uris":{"android":"levelo://app?vid=0983aa71-c834-4e48-86a7-fff592e4c50b","ios":"levelo://app?vid=0983aa71-c834-4e48-86a7-fff592e4c50b"},"vehicle_type_id":"4","last_reported":1704380873,"current_range_meters":18000,"station_id":"ce4bgup2rcd13ifvqcn0","pricing_plan_id":"free"},{"bike_id":"edf7c9b8-2ae2-4c81-befb-c7912d2f8410","system_id":"levelo_inurba_marseille","lat":43.304606,"lon":5.379026,"is_reserved":false,"is_disabled":false,"rental_uris":{"android":"levelo://app?vid=edf7c9b8-2ae2-4c81-befb-c7912d2f8410","ios":"levelo://app?vid=edf7c9b8-2ae2-4c81-befb-c7912d2f8410"},"vehicle_type_id":"4","last_reported":1704380873,"current_range_meters":24800,"station_id":"ce4bgup2rcd13ifvqcn0","pricing_plan_id":"free"},{"bike_id":"2a0cea62-3159-4a29-9fbf-fd26bee37ced","system_id":"levelo_inurba_marseille","lat":43.304606,"lon":5.379026,"is_reserved":false,"is_disabled":false,"rental_uris":{"android":"levelo://app?vid=2a0cea62-3159-4a29-9fbf-fd26bee37ced","ios":"levelo://app?vid=2a0cea62-3159-4a29-9fbf-fd26bee37ced"},"vehicle_type_id":"4","last_reported":1704380873,"current_range_meters":24400,"station_id":"ce4bgup2rcd13ifvqcn0","pricing_plan_id":"free"},{"bike_id":"a7fd0ead-f798-43f4-9bce-33f857d090a5","system_id":"levelo_inurba_marseille","lat":43.304606,"lon":5.379026,"is_reserved":false,"is_disabled":false,"rental_uris":{"android":"levelo://app?vid=a7fd0ead-f798-43f4-9bce-33f857d090a5","ios":"levelo://app?vid=a7fd0ead-f798-43f4-9bce-33f857d090a5"},"vehicle_type_id":"4","last_reported":1704380873,"current_range_meters":26400,"station_id":"ce4bgup2rcd13ifvqcn0","pricing_plan_id":"free"},{"bike_id":"67ad2796-157f-4b40-9067-253c46e4d5e9","system_id":"levelo_inurba_marseille","lat":43.304606,"lon":5.379026,"is_reserved":false,"is_disabled":false,"rental_uris":{"android":"levelo://app?vid=67ad2796-157f-4b40-9067-253c46e4d5e9","ios":"levelo://app?vid=67ad2796-157f-4b40-9067-253c46e4d5e9"},"vehicle_type_id":"4","last_reported":1704380873,"current_range_meters":2400,"station_id":"ce4bgup2rcd13ifvqcn0","pricing_plan_id":"free"},{"bike_id":"e65e20b6-3e92-4d45-a5ea-6e837a273530","system_id":"levelo_inurba_marseille","lat":43.304606,"lon":5.379026,"is_reserved":false,"is_disabled":false,"rental_uris":{"android":"levelo://app?vid=e65e20b6-3e92-4d45-a5ea-6e837a273530","ios":"levelo://app?vid=e65e20b6-3e92-4d45-a5ea-6e837a273530"},"vehicle_type_id":"4","last_reported":1704380873,"current_range_meters":6800,"station_id":"ce4bgup2rcd13ifvqcn0","pricing_plan_id":"free"},{"bike_id":"6131ccbb-72d6-4be8-9b69-61784a393f4d","system_id":"levelo_inurba_marseille","lat":43.30143,"lon":5.37413,"is_reserved":false,"is_disabled":false,"rental_uris":{"android":"levelo://app?vid=6131ccbb-72d6-4be8-9b69-61784a393f4d","ios":"levelo://app?vid=6131ccbb-72d6-4be8-9b69-61784a393f4d"},"vehicle_type_id":"4","last_reported":1704380873,"current_range_meters":30000,"station_id":"ce4bgs92rcd13ifvqcc0","pricing_plan_id":"free"},{"bike_id":"074ba19f-a706-49ad-b2af-771dfad0e128","system_id":"levelo_inurba_marseille","lat":43.313571,"lon":5.384829,"is_reserved":false,"is_disabled":false,"rental_uris":{"android":"levelo://app?vid=074ba19f-a706-49ad-b2af-771dfad0e128","ios":"levelo://app?vid=074ba19f-a706-49ad-b2af-771dfad0e128"},"vehicle_type_id":"4","last_reported":1704380873,"current_range_meters":12000,"station_id":"ce4bgt92rcd13ifvqcf0","pricing_plan_id":"free"},{"bike_id":"e2fcf549-c376-47eb-972a-d52f21370040","system_id":"levelo_inurba_marseille","lat":43.313571,"lon":5.384829,"is_reserved":false,"is_disabled":false,"rental_uris":{"android":"levelo://app?vid=e2fcf549-c376-47eb-972a-d52f21370040","ios":"levelo://app?vid=e2fcf549-c376-47eb-972a-d52f21370040"},"vehicle_type_id":"4","last_reported":1704380873,"current_range_meters":16000,"station_id":"ce4bgt92rcd13ifvqcf0","pricing_plan_id":"free"},{"bike_id":"17504bde-947a-4cd6-98b3-9a4c66aca99b","system_id":"levelo_inurba_marseille","lat":43.313827,"lon":5.385007,"is_reserved":false,"is_disabled":false,"rental_uris":{"android":"levelo://app?vid=17504bde-947a-4cd6-98b3-9a4c66aca99b","ios":"levelo://app?vid=17504bde-947a-4cd6-98b3-9a4c66aca99b"},"vehicle_type_id":"4","last_reported":1704380873,"current_range_meters":13200,"station_id":"ce4bgt92rcd13ifvqcf0","pricing_plan_id":"free"},{"bike_id":"7f327c74-bc94-49ba-9886-dbad4d1920be","system_id":"levelo_inurba_marseille","lat":43.299724,"lon":5.371829,"is_reserved":false,"is_disabled":false,"rental_uris":{"android":"levelo://app?vid=7f327c74-bc94-49ba-9886-dbad4d1920be","ios":"levelo://app?vid=7f327c74-bc94-49ba-9886-dbad4d1920be"},"vehicle_type_id":"4","last_reported":1704380873,"current_range_meters":22800,"station_id":"ce4bgr92rcd13ifvqc7g","pricing_plan_id":"free"},{"bike_id":"f67af978-dfca-45af-841a-f47dfeac11fd","system_id":"levelo_inurba_marseille","lat":43.299724,"lon":5.371829,"is_reserved":false,"is_disabled":false,"rental_uris":{"android":"levelo://app?vid=f67af978-dfca-45af-841a-f47dfeac11fd","ios":"levelo://app?vid=f67af978-dfca-45af-841a-f47dfeac11fd"},"vehicle_type_id":"4","last_reported":1704380873,"current_range_meters":3600,"station_id":"ce4bgr92rcd13ifvqc7g","pricing_plan_id":"free"},{"bike_id":"b22604ec-0c4b-41b4-a20e-38add68f7682","system_id":"levelo_inurba_marseille","lat":43.325676,"lon":5.374792,"is_reserved":false,"is_disabled":false,"rental_uris":{"android":"levelo://app?vid=b22604ec-0c4b-41b4-a20e-38add68f7682","ios":"levelo://app?vid=b22604ec-0c4b-41b4-a20e-38add68f7682"},"vehicle_type_id":"4","last_reported":1704380873,"current_range_meters":22000,"station_id":"","pricing_plan_id":"free"},{"bike_id":"8967a620-e25b-4691-9f59-075772b4b64c","system_id":"levelo_inurba_marseille","lat":43.298433,"lon":5.362774,"is_reserved":false,"is_disabled":false,"rental_uris":{"android":"levelo://app?vid=8967a620-e25b-4691-9f59-075772b4b64c","ios":"levelo://app?vid=8967a620-e25b-4691-9f59-075772b4b64c"},"vehicle_type_id":"4","last_reported":1704380873,"current_range_meters":16400,"station_id":"ce4bgpp2rcd13ifvqc3g","pricing_plan_id":"free"},{"bike_id":"f39486f2-222a-497f-bfe5-a6ff0dbd941b","system_id":"levelo_inurba_marseille","lat":43.298433,"lon":5.362774,"is_reserved":false,"is_disabled":false,"rental_uris":{"android":"levelo://app?vid=f39486f2-222a-497f-bfe5-a6ff0dbd941b","ios":"levelo://app?vid=f39486f2-222a-497f-bfe5-a6ff0dbd941b"},"vehicle_type_id":"4","last_reported":1704380873,"current_range_meters":14800,"station_id":"ce4bgpp2rcd13ifvqc3g","pricing_plan_id":"free"},{"bike_id":"90826e4a-415b-493b-ae1a-7d625fc11bd2","system_id":"levelo_inurba_marseille","lat":43.298433,"lon":5.362774,"is_reserved":false,"is_disabled":false,"rental_uris":{"android":"levelo://app?vid=90826e4a-415b-493b-ae1a-7d625fc11bd2","ios":"levelo://app?vid=90826e4a-415b-493b-ae1a-7d625fc11bd2"},"vehicle_type_id":"4","last_reported":1704380873,"current_range_meters":5200,"station_id":"ce4bgpp2rcd13ifvqc3g","pricing_plan_id":"free"},{"bike_id":"4bef8ed9-c3d1-47e9-a1a2-7a1e9ea00e31","system_id":"levelo_inurba_marseille","lat":43.298433,"lon":5.362774,"is_reserved":false,"is_disabled":false,"rental_uris":{"android":"levelo://app?vid=4bef8ed9-c3d1-47e9-a1a2-7a1e9ea00e31","ios":"levelo://app?vid=4bef8ed9-c3d1-47e9-a1a2-7a1e9ea00e31"},"vehicle_type_id":"4","last_reported":1704380873,"current_range_meters":22000,"station_id":"ce4bgpp2rcd13ifvqc3g","pricing_plan_id":"free"},{"bike_id":"a1f6a3e6-d09f-4b11-869f-bd8b7312883a","system_id":"levelo_inurba_marseille","lat":43.299243,"lon":5.374807,"is_reserved":false,"is_disabled":false,"rental_uris":{"android":"levelo://app?vid=a1f6a3e6-d09f-4b11-869f-bd8b7312883a","ios":"levelo://app?vid=a1f6a3e6-d09f-4b11-869f-bd8b7312883a"},"vehicle_type_id":"4","last_reported":1704380873,"current_range_meters":16800,"station_id":"ce4bgjh2rcd13ifvqbg0","pricing_plan_id":"free"},{"bike_id":"db273753-f765-4562-95e2-710ec726c394","system_id":"levelo_inurba_marseille","lat":43.298433,"lon":5.362774,"is_reserved":false,"is_disabled":false,"rental_uris":{"android":"levelo://app?vid=db273753-f765-4562-95e2-710ec726c394","ios":"levelo://app?vid=db273753-f765-4562-95e2-710ec726c394"},"vehicle_type_id":"4","last_reported":1704380873,"current_range_meters":26000,"station_id":"ce4bgpp2rcd13ifvqc3g","pricing_plan_id":"free"},{"bike_id":"e9439ba6-6725-4c12-9e1e-ffab35afb62e","system_id":"levelo_inurba_marseille","lat":43.299243,"lon":5.374807,"is_reserved":false,"is_disabled":false,"rental_uris":{"android":"levelo://app?vid=e9439ba6-6725-4c12-9e1e-ffab35afb62e","ios":"levelo://app?vid=e9439ba6-6725-4c12-9e1e-ffab35afb62e"},"vehicle_type_id":"4","last_reported":1704380873,"current_range_meters":18000,"station_id":"ce4bgjh2rcd13ifvqbg0","pricing_plan_id":"free"},{"bike_id":"c8269f9c-c546-4b57-9121-6533cf9737c7","system_id":"levelo_inurba_marseille","lat":43.299243,"lon":5.37481,"is_reserved":false,"is_disabled":false,"rental_uris":{"android":"levelo://app?vid=c8269f9c-c546-4b57-9121-6533cf9737c7","ios":"levelo://app?vid=c8269f9c-c546-4b57-9121-6533cf9737c7"},"vehicle_type_id":"4","last_reported":1704380873,"current_range_meters":21600,"station_id":"ce4bgjh2rcd13ifvqbg0","pricing_plan_id":"free"},{"bike_id":"e39fd44c-09c0-4e77-8a4c-424d23c58ad6","system_id":"levelo_inurba_marseille","lat":43.297794,"lon":5.370888,"is_reserved":false,"is_disabled":false,"rental_uris":{"android":"levelo://app?vid=e39fd44c-09c0-4e77-8a4c-424d23c58ad6","ios":"levelo://app?vid=e39fd44c-09c0-4e77-8a4c-424d23c58ad6"},"vehicle_type_id":"4","last_reported":1704380873,"current_range_meters":26800,"station_id":"ce4bgop2rcd13ifvqc1g","pricing_plan_id":"free"},{"bike_id":"65681010-83bb-4f17-924f-1d1c20ff79df","system_id":"levelo_inurba_marseille","lat":43.297774,"lon":5.370875,"is_reserved":false,"is_disabled":false,"rental_uris":{"android":"levelo://app?vid=65681010-83bb-4f17-924f-1d1c20ff79df","ios":"levelo://app?vid=65681010-83bb-4f17-924f-1d1c20ff79df"},"vehicle_type_id":"4","last_reported":1704380873,"current_range_meters":0,"station_id":"ce4bgop2rcd13ifvqc1g","pricing_plan_id":"free"},{"bike_id":"e723e507-f58c-49ba-bbed-a6302bf432d4","system_id":"levelo_inurba_marseille","lat":43.322872,"lon":5.382756,"is_reserved":false,"is_disabled":false,"rental_uris":{"android":"levelo://app?vid=e723e507-f58c-49ba-bbed-a6302bf432d4","ios":"levelo://app?vid=e723e507-f58c-49ba-bbed-a6302bf432d4"},"vehicle_type_id":"4","last_reported":1704380873,"current_range_meters":22400,"station_id":"ce4bhr12rcd13ifvqhqg","pricing_plan_id":"free"},{"bike_id":"bf47c930-7b32-4528-8c5e-09966162abe6","system_id":"levelo_inurba_marseille","lat":43.322872,"lon":5.382756,"is_reserved":false,"is_disabled":false,"rental_uris":{"android":"levelo://app?vid=bf47c930-7b32-4528-8c5e-09966162abe6","ios":"levelo://app?vid=bf47c930-7b32-4528-8c5e-09966162abe6"},"vehicle_type_id":"4","last_reported":1704380873,"current_range_meters":26800,"station_id":"ce4bhr12rcd13ifvqhqg","pricing_plan_id":"free"},{"bike_id":"f53e7a9d-7ee6-4428-85bd-3db5d7cc3975","system_id":"levelo_inurba_marseille","lat":43.322872,"lon":5.382756,"is_reserved":false,"is_disabled":false,"rental_uris":{"android":"levelo://app?vid=f53e7a9d-7ee6-4428-85bd-3db5d7cc3975","ios":"levelo://app?vid=f53e7a9d-7ee6-4428-85bd-3db5d7cc3975"},"vehicle_type_id":"4","last_reported":1704380873,"current_range_meters":31600,"station_id":"ce4bhr12rcd13ifvqhqg","pricing_plan_id":"free"},{"bike_id":"a1a0bcb8-017b-4fdf-8f60-2716e4e6fed8","system_id":"levelo_inurba_marseille","lat":43.32827,"lon":5.36691,"is_reserved":false,"is_disabled":false,"rental_uris":{"android":"levelo://app?vid=a1a0bcb8-017b-4fdf-8f60-2716e4e6fed8","ios":"levelo://app?vid=a1a0bcb8-017b-4fdf-8f60-2716e4e6fed8"},"vehicle_type_id":"4","last_reported":1704380873,"current_range_meters":0,"station_id":"ce4bhs92rcd13ifvqi0g","pricing_plan_id":"free"},{"bike_id":"40547a36-645f-4cc6-8bf9-232a8ea96bf6","system_id":"levelo_inurba_marseille","lat":43.32828,"lon":5.36681,"is_reserved":false,"is_disabled":false,"rental_uris":{"android":"levelo://app?vid=40547a36-645f-4cc6-8bf9-232a8ea96bf6","ios":"levelo://app?vid=40547a36-645f-4cc6-8bf9-232a8ea96bf6"},"vehicle_type_id":"4","last_reported":1704380873,"current_range_meters":10000,"station_id":"ce4bhs92rcd13ifvqi0g","pricing_plan_id":"free"},{"bike_id":"2a4fb14d-f1d4-4026-b8f7-c1f2bf4f28c6","system_id":"levelo_inurba_marseille","lat":43.32829,"lon":5.36691,"is_reserved":false,"is_disabled":false,"rental_uris":{"android":"levelo://app?vid=2a4fb14d-f1d4-4026-b8f7-c1f2bf4f28c6","ios":"levelo://app?vid=2a4fb14d-f1d4-4026-b8f7-c1f2bf4f28c6"},"vehicle_type_id":"4","last_reported":1704380873,"current_range_meters":30800,"station_id":"ce4bhs92rcd13ifvqi0g","pricing_plan_id":"free"},{"bike_id":"95e60a05-c3f6-42d6-b8d8-8e09a3364abf","system_id":"levelo_inurba_marseille","lat":43.328371,"lon":5.366909,"is_reserved":false,"is_disabled":false,"rental_uris":{"android":"levelo://app?vid=95e60a05-c3f6-42d6-b8d8-8e09a3364abf","ios":"levelo://app?vid=95e60a05-c3f6-42d6-b8d8-8e09a3364abf"},"vehicle_type_id":"4","last_reported":1704380873,"current_range_meters":12400,"station_id":"ce4bhs92rcd13ifvqi0g","pricing_plan_id":"free"},{"bike_id":"cd4a8987-cdad-4698-b5a2-f2bc1c278d17","system_id":"levelo_inurba_marseille","lat":43.328371,"lon":5.366909,"is_reserved":false,"is_disabled":false,"rental_uris":{"android":"levelo://app?vid=cd4a8987-cdad-4698-b5a2-f2bc1c278d17","ios":"levelo://app?vid=cd4a8987-cdad-4698-b5a2-f2bc1c278d17"},"vehicle_type_id":"4","last_reported":1704380873,"current_range_meters":11600,"station_id":"ce4bhs92rcd13ifvqi0g","pricing_plan_id":"free"},{"bike_id":"9d132c3c-dc2d-4dd1-84d4-bf065bbfba4f","system_id":"levelo_inurba_marseille","lat":43.305364,"lon":5.384119,"is_reserved":false,"is_disabled":false,"rental_uris":{"android":"levelo://app?vid=9d132c3c-dc2d-4dd1-84d4-bf065bbfba4f","ios":"levelo://app?vid=9d132c3c-dc2d-4dd1-84d4-bf065bbfba4f"},"vehicle_type_id":"4","last_reported":1704380873,"current_range_meters":19600,"station_id":"ce4bgg92rcd13ifvqb30","pricing_plan_id":"free"},{"bike_id":"a6953f89-b867-47c2-a99f-949ca50d8a77","system_id":"levelo_inurba_marseille","lat":43.328371,"lon":5.366909,"is_reserved":false,"is_disabled":false,"rental_uris":{"android":"levelo://app?vid=a6953f89-b867-47c2-a99f-949ca50d8a77","ios":"levelo://app?vid=a6953f89-b867-47c2-a99f-949ca50d8a77"},"vehicle_type_id":"4","last_reported":1704380873,"current_range_meters":16800,"station_id":"ce4bhs92rcd13ifvqi0g","pricing_plan_id":"free"},{"bike_id":"4d6cbba3-2e55-4f7b-870f-2fed43f3ec1c","system_id":"levelo_inurba_marseille","lat":43.328352,"lon":5.366906,"is_reserved":false,"is_disabled":false,"rental_uris":{"android":"levelo://app?vid=4d6cbba3-2e55-4f7b-870f-2fed43f3ec1c","ios":"levelo://app?vid=4d6cbba3-2e55-4f7b-870f-2fed43f3ec1c"},"vehicle_type_id":"4","last_reported":1704380873,"current_range_meters":16000,"station_id":"ce4bhs92rcd13ifvqi0g","pricing_plan_id":"free"},{"bike_id":"e3dd8536-128d-422e-9b07-533da27003e7","system_id":"levelo_inurba_marseille","lat":43.297163,"lon":5.365866,"is_reserved":false,"is_disabled":false,"rental_uris":{"android":"levelo://app?vid=e3dd8536-128d-422e-9b07-533da27003e7","ios":"levelo://app?vid=e3dd8536-128d-422e-9b07-533da27003e7"},"vehicle_type_id":"4","last_reported":1704380873,"current_range_meters":17600,"station_id":"ce4bgn12rcd13ifvqbt0","pricing_plan_id":"free"},{"bike_id":"370cccf7-c9ba-46c2-819b-c8e8cacc4c21","system_id":"levelo_inurba_marseille","lat":43.3277,"lon":5.37458,"is_reserved":false,"is_disabled":false,"rental_uris":{"android":"levelo://app?vid=370cccf7-c9ba-46c2-819b-c8e8cacc4c21","ios":"levelo://app?vid=370cccf7-c9ba-46c2-819b-c8e8cacc4c21"},"vehicle_type_id":"4","last_reported":1704380873,"current_range_meters":800,"station_id":"","pricing_plan_id":"free"},{"bike_id":"49e4a38c-5e51-4bd6-9c8c-cf48def6d59a","system_id":"levelo_inurba_marseille","lat":43.2968,"lon":5.37291,"is_reserved":false,"is_disabled":false,"rental_uris":{"android":"levelo://app?vid=49e4a38c-5e51-4bd6-9c8c-cf48def6d59a","ios":"levelo://app?vid=49e4a38c-5e51-4bd6-9c8c-cf48def6d59a"},"vehicle_type_id":"4","last_reported":1704380873,"current_range_meters":30800,"station_id":"ce4bgk12rcd13ifvqbj0","pricing_plan_id":"free"},{"bike_id":"8086169f-b2f5-4457-8f63-97d5bfa1c712","system_id":"levelo_inurba_marseille","lat":43.29573,"lon":5.367355,"is_reserved":false,"is_disabled":false,"rental_uris":{"android":"levelo://app?vid=8086169f-b2f5-4457-8f63-97d5bfa1c712","ios":"levelo://app?vid=8086169f-b2f5-4457-8f63-97d5bfa1c712"},"vehicle_type_id":"4","last_reported":1704380873,"current_range_meters":20000,"station_id":"ce4bgph2rcd13ifvqc2g","pricing_plan_id":"free"},{"bike_id":"87d4fce9-a4f5-4947-bcb3-e924e2cac010","system_id":"levelo_inurba_marseille","lat":43.309589,"lon":5.390258,"is_reserved":false,"is_disabled":false,"rental_uris":{"android":"levelo://app?vid=87d4fce9-a4f5-4947-bcb3-e924e2cac010","ios":"levelo://app?vid=87d4fce9-a4f5-4947-bcb3-e924e2cac010"},"vehicle_type_id":"4","last_reported":1704380873,"current_range_meters":25600,"station_id":"ce4bgup2rcd13ifvqco0","pricing_plan_id":"free"},{"bike_id":"44f06c11-e0b0-4a71-8f6a-7aaf23d97626","system_id":"levelo_inurba_marseille","lat":43.298037,"lon":5.381066,"is_reserved":false,"is_disabled":false,"rental_uris":{"android":"levelo://app?vid=44f06c11-e0b0-4a71-8f6a-7aaf23d97626","ios":"levelo://app?vid=44f06c11-e0b0-4a71-8f6a-7aaf23d97626"},"vehicle_type_id":"4","last_reported":1704380873,"current_range_meters":0,"station_id":"ce4bgip2rcd13ifvqbb0","pricing_plan_id":"free"},{"bike_id":"264573e8-3211-49d1-8ed1-fabe49d12489","system_id":"levelo_inurba_marseille","lat":43.29565,"lon":5.375,"is_reserved":false,"is_disabled":false,"rental_uris":{"android":"levelo://app?vid=264573e8-3211-49d1-8ed1-fabe49d12489","ios":"levelo://app?vid=264573e8-3211-49d1-8ed1-fabe49d12489"},"vehicle_type_id":"4","last_reported":1704380873,"current_range_meters":0,"station_id":"ce4bgh92rcd13ifvqb50","pricing_plan_id":"free"},{"bike_id":"d60802d6-4f47-444a-b234-883690eec05b","system_id":"levelo_inurba_marseille","lat":43.33062,"lon":5.3627,"is_reserved":false,"is_disabled":false,"rental_uris":{"android":"levelo://app?vid=d60802d6-4f47-444a-b234-883690eec05b","ios":"levelo://app?vid=d60802d6-4f47-444a-b234-883690eec05b"},"vehicle_type_id":"4","last_reported":1704380873,"current_range_meters":7600,"station_id":"","pricing_plan_id":"free"},{"bike_id":"aab64a4a-6970-40a3-b31c-a92647f6efb1","system_id":"levelo_inurba_marseille","lat":43.29616,"lon":5.37725,"is_reserved":false,"is_disabled":false,"rental_uris":{"android":"levelo://app?vid=aab64a4a-6970-40a3-b31c-a92647f6efb1","ios":"levelo://app?vid=aab64a4a-6970-40a3-b31c-a92647f6efb1"},"vehicle_type_id":"4","last_reported":1704380873,"current_range_meters":0,"station_id":"ce4bgi92rcd13ifvqb90","pricing_plan_id":"free"},{"bike_id":"b6659ce2-6168-4c46-a161-306a6bb81aae","system_id":"levelo_inurba_marseille","lat":43.29975,"lon":5.38487,"is_reserved":false,"is_disabled":false,"rental_uris":{"android":"levelo://app?vid=b6659ce2-6168-4c46-a161-306a6bb81aae","ios":"levelo://app?vid=b6659ce2-6168-4c46-a161-306a6bb81aae"},"vehicle_type_id":"4","last_reported":1704380873,"current_range_meters":0,"station_id":"ce4bgj92rcd13ifvqbd0","pricing_plan_id":"free"},{"bike_id":"ce88cab8-8f4c-4fcb-a706-dc48930aaccf","system_id":"levelo_inurba_marseille","lat":43.299724,"lon":5.384848,"is_reserved":false,"is_disabled":false,"rental_uris":{"android":"levelo://app?vid=ce88cab8-8f4c-4fcb-a706-dc48930aaccf","ios":"levelo://app?vid=ce88cab8-8f4c-4fcb-a706-dc48930aaccf"},"vehicle_type_id":"4","last_reported":1704380873,"current_range_meters":21200,"station_id":"ce4bgj92rcd13ifvqbd0","pricing_plan_id":"free"},{"bike_id":"80d7ef4d-7f64-407b-86ef-ff5d86c5f1e2","system_id":"levelo_inurba_marseille","lat":43.32367,"lon":5.388836,"is_reserved":false,"is_disabled":false,"rental_uris":{"android":"levelo://app?vid=80d7ef4d-7f64-407b-86ef-ff5d86c5f1e2","ios":"levelo://app?vid=80d7ef4d-7f64-407b-86ef-ff5d86c5f1e2"},"vehicle_type_id":"4","last_reported":1704380873,"current_range_meters":9200,"station_id":"ce4bhqp2rcd13ifvqhog","pricing_plan_id":"free"},{"bike_id":"947d8655-b1d8-4ce9-a1c9-57c013abb65c","system_id":"levelo_inurba_marseille","lat":43.32367,"lon":5.388836,"is_reserved":false,"is_disabled":false,"rental_uris":{"android":"levelo://app?vid=947d8655-b1d8-4ce9-a1c9-57c013abb65c","ios":"levelo://app?vid=947d8655-b1d8-4ce9-a1c9-57c013abb65c"},"vehicle_type_id":"4","last_reported":1704380873,"current_range_meters":25200,"station_id":"ce4bhqp2rcd13ifvqhog","pricing_plan_id":"free"},{"bike_id":"b51cdc71-1e58-4822-b1eb-cc02e37ca6ca","system_id":"levelo_inurba_marseille","lat":43.32367,"lon":5.388836,"is_reserved":false,"is_disabled":false,"rental_uris":{"android":"levelo://app?vid=b51cdc71-1e58-4822-b1eb-cc02e37ca6ca","ios":"levelo://app?vid=b51cdc71-1e58-4822-b1eb-cc02e37ca6ca"},"vehicle_type_id":"4","last_reported":1704380873,"current_range_meters":16400,"station_id":"ce4bhqp2rcd13ifvqhog","pricing_plan_id":"free"},{"bike_id":"7dcc4c1a-493c-418f-b49b-bb7ef2be55a0","system_id":"levelo_inurba_marseille","lat":43.296,"lon":5.381,"is_reserved":false,"is_disabled":false,"rental_uris":{"android":"levelo://app?vid=7dcc4c1a-493c-418f-b49b-bb7ef2be55a0","ios":"levelo://app?vid=7dcc4c1a-493c-418f-b49b-bb7ef2be55a0"},"vehicle_type_id":"4","last_reported":1704380873,"current_range_meters":0,"station_id":"ce4bgl12rcd13ifvqbo0","pricing_plan_id":"free"},{"bike_id":"47162b3f-b134-42d5-8a04-9ea4ed5d0c39","system_id":"levelo_inurba_marseille","lat":43.292749,"lon":5.368402,"is_reserved":false,"is_disabled":false,"rental_uris":{"android":"levelo://app?vid=47162b3f-b134-42d5-8a04-9ea4ed5d0c39","ios":"levelo://app?vid=47162b3f-b134-42d5-8a04-9ea4ed5d0c39"},"vehicle_type_id":"4","last_reported":1704380873,"current_range_meters":0,"station_id":"ce4bhbp2rcd13ifvqesg","pricing_plan_id":"free"},{"bike_id":"2999b6a4-aabb-4e12-a99f-6160ca6b50aa","system_id":"levelo_inurba_marseille","lat":43.2936,"lon":5.37835,"is_reserved":false,"is_disabled":false,"rental_uris":{"android":"levelo://app?vid=2999b6a4-aabb-4e12-a99f-6160ca6b50aa","ios":"levelo://app?vid=2999b6a4-aabb-4e12-a99f-6160ca6b50aa"},"vehicle_type_id":"4","last_reported":1704380873,"current_range_meters":20000,"station_id":"ce4bgjh2rcd13ifvqbf0","pricing_plan_id":"free"},{"bike_id":"dcca8a6a-a7d4-46b8-99b2-a4ed087cdaae","system_id":"levelo_inurba_marseille","lat":43.302992,"lon":5.392136,"is_reserved":false,"is_disabled":false,"rental_uris":{"android":"levelo://app?vid=dcca8a6a-a7d4-46b8-99b2-a4ed087cdaae","ios":"levelo://app?vid=dcca8a6a-a7d4-46b8-99b2-a4ed087cdaae"},"vehicle_type_id":"4","last_reported":1704380873,"current_range_meters":18000,"station_id":"ce4bgkh2rcd13ifvqbk0","pricing_plan_id":"free"},{"bike_id":"23c84734-55c1-46eb-82ad-28d33eec3b8c","system_id":"levelo_inurba_marseille","lat":43.303002,"lon":5.392142,"is_reserved":false,"is_disabled":false,"rental_uris":{"android":"levelo://app?vid=23c84734-55c1-46eb-82ad-28d33eec3b8c","ios":"levelo://app?vid=23c84734-55c1-46eb-82ad-28d33eec3b8c"},"vehicle_type_id":"4","last_reported":1704380873,"current_range_meters":9600,"station_id":"ce4bgkh2rcd13ifvqbk0","pricing_plan_id":"free"},{"bike_id":"4e3a9cf5-47df-4d2f-ac30-25552fef8ba2","system_id":"levelo_inurba_marseille","lat":43.2936,"lon":5.37835,"is_reserved":false,"is_disabled":false,"rental_uris":{"android":"levelo://app?vid=4e3a9cf5-47df-4d2f-ac30-25552fef8ba2","ios":"levelo://app?vid=4e3a9cf5-47df-4d2f-ac30-25552fef8ba2"},"vehicle_type_id":"4","last_reported":1704380873,"current_range_meters":9600,"station_id":"ce4bgjh2rcd13ifvqbf0","pricing_plan_id":"free"},{"bike_id":"b9fe73db-4af6-4714-8400-0e745c6aab90","system_id":"levelo_inurba_marseille","lat":43.2936,"lon":5.37835,"is_reserved":false,"is_disabled":false,"rental_uris":{"android":"levelo://app?vid=b9fe73db-4af6-4714-8400-0e745c6aab90","ios":"levelo://app?vid=b9fe73db-4af6-4714-8400-0e745c6aab90"},"vehicle_type_id":"4","last_reported":1704380873,"current_range_meters":4800,"station_id":"ce4bgjh2rcd13ifvqbf0","pricing_plan_id":"free"},{"bike_id":"6de52930-da0d-4fc9-b48e-7c0063099064","system_id":"levelo_inurba_marseille","lat":43.292311,"lon":5.360731,"is_reserved":false,"is_disabled":false,"rental_uris":{"android":"levelo://app?vid=6de52930-da0d-4fc9-b48e-7c0063099064","ios":"levelo://app?vid=6de52930-da0d-4fc9-b48e-7c0063099064"},"vehicle_type_id":"4","last_reported":1704380873,"current_range_meters":26800,"station_id":"ce4bhbh2rcd13ifvqeqg","pricing_plan_id":"free"},{"bike_id":"d5374c04-4013-4ca2-9a58-b6a9c816f70c","system_id":"levelo_inurba_marseille","lat":43.30085,"lon":5.390856,"is_reserved":false,"is_disabled":false,"rental_uris":{"android":"levelo://app?vid=d5374c04-4013-4ca2-9a58-b6a9c816f70c","ios":"levelo://app?vid=d5374c04-4013-4ca2-9a58-b6a9c816f70c"},"vehicle_type_id":"4","last_reported":1704380873,"current_range_meters":0,"station_id":"ce4bh192rcd13ifvqdb0","pricing_plan_id":"free"},{"bike_id":"0dc3d3e1-553e-4c78-ab4f-2c4cfc4f0b79","system_id":"levelo_inurba_marseille","lat":43.313291,"lon":5.396838,"is_reserved":false,"is_disabled":false,"rental_uris":{"android":"levelo://app?vid=0dc3d3e1-553e-4c78-ab4f-2c4cfc4f0b79","ios":"levelo://app?vid=0dc3d3e1-553e-4c78-ab4f-2c4cfc4f0b79"},"vehicle_type_id":"4","last_reported":1704380873,"current_range_meters":27200,"station_id":"ce4bgvp2rcd13ifvqcu0","pricing_plan_id":"free"},{"bike_id":"12fede00-8d06-403c-ba66-e06ba27e53a9","system_id":"levelo_inurba_marseille","lat":43.29529,"lon":5.385581,"is_reserved":false,"is_disabled":false,"rental_uris":{"android":"levelo://app?vid=12fede00-8d06-403c-ba66-e06ba27e53a9","ios":"levelo://app?vid=12fede00-8d06-403c-ba66-e06ba27e53a9"},"vehicle_type_id":"4","last_reported":1704380873,"current_range_meters":20000,"station_id":"ce4bgih2rcd13ifvqba0","pricing_plan_id":"free"},{"bike_id":"bb8ecb24-f6be-4220-b67e-0468c7091232","system_id":"levelo_inurba_marseille","lat":43.29529,"lon":5.385581,"is_reserved":false,"is_disabled":false,"rental_uris":{"android":"levelo://app?vid=bb8ecb24-f6be-4220-b67e-0468c7091232","ios":"levelo://app?vid=bb8ecb24-f6be-4220-b67e-0468c7091232"},"vehicle_type_id":"4","last_reported":1704380873,"current_range_meters":3600,"station_id":"ce4bgih2rcd13ifvqba0","pricing_plan_id":"free"},{"bike_id":"4a9311c4-4db5-4367-b1f7-d435bd185033","system_id":"levelo_inurba_marseille","lat":43.33273,"lon":5.37989,"is_reserved":false,"is_disabled":false,"rental_uris":{"android":"levelo://app?vid=4a9311c4-4db5-4367-b1f7-d435bd185033","ios":"levelo://app?vid=4a9311c4-4db5-4367-b1f7-d435bd185033"},"vehicle_type_id":"4","last_reported":1704380873,"current_range_meters":6000,"station_id":"","pricing_plan_id":"free"},{"bike_id":"f787737e-2eb7-4fd8-a289-fc55cd970cca","system_id":"levelo_inurba_marseille","lat":43.29529,"lon":5.385581,"is_reserved":false,"is_disabled":false,"rental_uris":{"android":"levelo://app?vid=f787737e-2eb7-4fd8-a289-fc55cd970cca","ios":"levelo://app?vid=f787737e-2eb7-4fd8-a289-fc55cd970cca"},"vehicle_type_id":"4","last_reported":1704380873,"current_range_meters":4400,"station_id":"ce4bgih2rcd13ifvqba0","pricing_plan_id":"free"},{"bike_id":"9e43ea5a-2776-4787-80f7-12b0a07ec707","system_id":"levelo_inurba_marseille","lat":43.290779,"lon":5.371482,"is_reserved":false,"is_disabled":false,"rental_uris":{"android":"levelo://app?vid=9e43ea5a-2776-4787-80f7-12b0a07ec707","ios":"levelo://app?vid=9e43ea5a-2776-4787-80f7-12b0a07ec707"},"vehicle_type_id":"4","last_reported":1704380873,"current_range_meters":4400,"station_id":"ce4bh5p2rcd13ifvqe4g","pricing_plan_id":"free"},{"bike_id":"2af82ec2-226a-4054-b480-ca4d8a2e32f4","system_id":"levelo_inurba_marseille","lat":43.290779,"lon":5.371482,"is_reserved":false,"is_disabled":false,"rental_uris":{"android":"levelo://app?vid=2af82ec2-226a-4054-b480-ca4d8a2e32f4","ios":"levelo://app?vid=2af82ec2-226a-4054-b480-ca4d8a2e32f4"},"vehicle_type_id":"4","last_reported":1704380873,"current_range_meters":6400,"station_id":"ce4bh5p2rcd13ifvqe4g","pricing_plan_id":"free"},{"bike_id":"62b86841-bb49-407d-be87-b69243840d60","system_id":"levelo_inurba_marseille","lat":43.290779,"lon":5.371482,"is_reserved":false,"is_disabled":false,"rental_uris":{"android":"levelo://app?vid=62b86841-bb49-407d-be87-b69243840d60","ios":"levelo://app?vid=62b86841-bb49-407d-be87-b69243840d60"},"vehicle_type_id":"4","last_reported":1704380873,"current_range_meters":8000,"station_id":"ce4bh5p2rcd13ifvqe4g","pricing_plan_id":"free"},{"bike_id":"1945189a-1ed0-46b7-b0fe-037538de9d1d","system_id":"levelo_inurba_marseille","lat":43.290631,"lon":5.359244,"is_reserved":false,"is_disabled":false,"rental_uris":{"android":"levelo://app?vid=1945189a-1ed0-46b7-b0fe-037538de9d1d","ios":"levelo://app?vid=1945189a-1ed0-46b7-b0fe-037538de9d1d"},"vehicle_type_id":"4","last_reported":1704380873,"current_range_meters":31600,"station_id":"ce4bha92rcd13ifvqeg0","pricing_plan_id":"free"},{"bike_id":"4896b891-0969-45d8-a905-f6b1cc160319","system_id":"levelo_inurba_marseille","lat":43.290631,"lon":5.359244,"is_reserved":false,"is_disabled":false,"rental_uris":{"android":"levelo://app?vid=4896b891-0969-45d8-a905-f6b1cc160319","ios":"levelo://app?vid=4896b891-0969-45d8-a905-f6b1cc160319"},"vehicle_type_id":"4","last_reported":1704380873,"current_range_meters":13200,"station_id":"ce4bha92rcd13ifvqeg0","pricing_plan_id":"free"},{"bike_id":"cad46d3d-ad69-4e99-bfe5-12932d2b5330","system_id":"levelo_inurba_marseille","lat":43.290327,"lon":5.375711,"is_reserved":false,"is_disabled":false,"rental_uris":{"android":"levelo://app?vid=cad46d3d-ad69-4e99-bfe5-12932d2b5330","ios":"levelo://app?vid=cad46d3d-ad69-4e99-bfe5-12932d2b5330"},"vehicle_type_id":"4","last_reported":1704380873,"current_range_meters":30800,"station_id":"ce4bh692rcd13ifvqe90","pricing_plan_id":"free"},{"bike_id":"427fc47f-1eaa-4d11-8132-a7f4577a3ddc","system_id":"levelo_inurba_marseille","lat":43.289184,"lon":5.366408,"is_reserved":false,"is_disabled":false,"rental_uris":{"android":"levelo://app?vid=427fc47f-1eaa-4d11-8132-a7f4577a3ddc","ios":"levelo://app?vid=427fc47f-1eaa-4d11-8132-a7f4577a3ddc"},"vehicle_type_id":"4","last_reported":1704380873,"current_range_meters":28800,"station_id":"ce4bhap2rcd13ifvqek0","pricing_plan_id":"free"},{"bike_id":"a9e240ff-c99d-41c7-abdb-0701703bdb96","system_id":"levelo_inurba_marseille","lat":43.289184,"lon":5.366408,"is_reserved":false,"is_disabled":false,"rental_uris":{"android":"levelo://app?vid=a9e240ff-c99d-41c7-abdb-0701703bdb96","ios":"levelo://app?vid=a9e240ff-c99d-41c7-abdb-0701703bdb96"},"vehicle_type_id":"4","last_reported":1704380873,"current_range_meters":13200,"station_id":"ce4bhap2rcd13ifvqek0","pricing_plan_id":"free"},{"bike_id":"ea5ad420-104b-4d87-98af-69575af26173","system_id":"levelo_inurba_marseille","lat":43.289184,"lon":5.366408,"is_reserved":false,"is_disabled":false,"rental_uris":{"android":"levelo://app?vid=ea5ad420-104b-4d87-98af-69575af26173","ios":"levelo://app?vid=ea5ad420-104b-4d87-98af-69575af26173"},"vehicle_type_id":"4","last_reported":1704380873,"current_range_meters":7600,"station_id":"ce4bhap2rcd13ifvqek0","pricing_plan_id":"free"},{"bike_id":"455d1f01-4bfb-4452-9378-7ac9f7526cce","system_id":"levelo_inurba_marseille","lat":43.294153,"lon":5.386305,"is_reserved":false,"is_disabled":false,"rental_uris":{"android":"levelo://app?vid=455d1f01-4bfb-4452-9378-7ac9f7526cce","ios":"levelo://app?vid=455d1f01-4bfb-4452-9378-7ac9f7526cce"},"vehicle_type_id":"4","last_reported":1704380873,"current_range_meters":29200,"station_id":"ce4bh2h2rcd13ifvqdh0","pricing_plan_id":"free"},{"bike_id":"13bdc180-2607-4965-a09a-938c30e4d321","system_id":"levelo_inurba_marseille","lat":43.289184,"lon":5.366408,"is_reserved":false,"is_disabled":false,"rental_uris":{"android":"levelo://app?vid=13bdc180-2607-4965-a09a-938c30e4d321","ios":"levelo://app?vid=13bdc180-2607-4965-a09a-938c30e4d321"},"vehicle_type_id":"4","last_reported":1704380873,"current_range_meters":5600,"station_id":"ce4bhap2rcd13ifvqek0","pricing_plan_id":"free"},{"bike_id":"cf681946-d573-4df7-9d0e-dd72e1953c3a","system_id":"levelo_inurba_marseille","lat":43.304296,"lon":5.397513,"is_reserved":false,"is_disabled":false,"rental_uris":{"android":"levelo://app?vid=cf681946-d573-4df7-9d0e-dd72e1953c3a","ios":"levelo://app?vid=cf681946-d573-4df7-9d0e-dd72e1953c3a"},"vehicle_type_id":"4","last_reported":1704380873,"current_range_meters":2800,"station_id":"ce4bh092rcd13ifvqd20","pricing_plan_id":"free"},{"bike_id":"a531366a-c9ce-4350-8084-287465b11883","system_id":"levelo_inurba_marseille","lat":43.292642,"lon":5.384254,"is_reserved":false,"is_disabled":false,"rental_uris":{"android":"levelo://app?vid=a531366a-c9ce-4350-8084-287465b11883","ios":"levelo://app?vid=a531366a-c9ce-4350-8084-287465b11883"},"vehicle_type_id":"4","last_reported":1704380873,"current_range_meters":18800,"station_id":"ce4bh692rcd13ifvqea0","pricing_plan_id":"free"},{"bike_id":"3ba49c9e-1c0c-4ec9-837c-ef3d772ab6d8","system_id":"levelo_inurba_marseille","lat":43.290103,"lon":5.356114,"is_reserved":false,"is_disabled":false,"rental_uris":{"android":"levelo://app?vid=3ba49c9e-1c0c-4ec9-837c-ef3d772ab6d8","ios":"levelo://app?vid=3ba49c9e-1c0c-4ec9-837c-ef3d772ab6d8"},"vehicle_type_id":"4","last_reported":1704380873,"current_range_meters":4000,"station_id":"ce4bhb92rcd13ifvqen0","pricing_plan_id":"free"},{"bike_id":"1db859ef-6da5-41e3-867a-a635ef6df747","system_id":"levelo_inurba_marseille","lat":43.290104,"lon":5.356111,"is_reserved":false,"is_disabled":false,"rental_uris":{"android":"levelo://app?vid=1db859ef-6da5-41e3-867a-a635ef6df747","ios":"levelo://app?vid=1db859ef-6da5-41e3-867a-a635ef6df747"},"vehicle_type_id":"4","last_reported":1704380873,"current_range_meters":21200,"station_id":"ce4bhb92rcd13ifvqen0","pricing_plan_id":"free"},{"bike_id":"674b5d2a-70c5-4ee8-ab5b-759e7f3aadbc","system_id":"levelo_inurba_marseille","lat":43.29799,"lon":5.39337,"is_reserved":false,"is_disabled":false,"rental_uris":{"android":"levelo://app?vid=674b5d2a-70c5-4ee8-ab5b-759e7f3aadbc","ios":"levelo://app?vid=674b5d2a-70c5-4ee8-ab5b-759e7f3aadbc"},"vehicle_type_id":"4","last_reported":1704380873,"current_range_meters":10000,"station_id":"chh1huq6cuj3fo74tm60","pricing_plan_id":"free"},{"bike_id":"d8eaacde-52d8-45be-a252-ca12bde31a80","system_id":"levelo_inurba_marseille","lat":43.297815,"lon":5.393548,"is_reserved":false,"is_disabled":false,"rental_uris":{"android":"levelo://app?vid=d8eaacde-52d8-45be-a252-ca12bde31a80","ios":"levelo://app?vid=d8eaacde-52d8-45be-a252-ca12bde31a80"},"vehicle_type_id":"4","last_reported":1704380873,"current_range_meters":12800,"station_id":"chh1huq6cuj3fo74tm60","pricing_plan_id":"free"},{"bike_id":"8d1b2e21-1023-4fbf-8dca-03b49a39ee08","system_id":"levelo_inurba_marseille","lat":43.330442,"lon":5.389148,"is_reserved":false,"is_disabled":false,"rental_uris":{"android":"levelo://app?vid=8d1b2e21-1023-4fbf-8dca-03b49a39ee08","ios":"levelo://app?vid=8d1b2e21-1023-4fbf-8dca-03b49a39ee08"},"vehicle_type_id":"4","last_reported":1704380873,"current_range_meters":12000,"station_id":"ce4bhr92rcd13ifvqhrg","pricing_plan_id":"free"},{"bike_id":"a023d84b-11ca-49dd-9d6c-50372e788579","system_id":"levelo_inurba_marseille","lat":43.330442,"lon":5.389148,"is_reserved":false,"is_disabled":false,"rental_uris":{"android":"levelo://app?vid=a023d84b-11ca-49dd-9d6c-50372e788579","ios":"levelo://app?vid=a023d84b-11ca-49dd-9d6c-50372e788579"},"vehicle_type_id":"4","last_reported":1704380873,"current_range_meters":14400,"station_id":"ce4bhr92rcd13ifvqhrg","pricing_plan_id":"free"},{"bike_id":"4a029d0e-519a-4af9-88c6-8e564bc2d05b","system_id":"levelo_inurba_marseille","lat":43.290995,"lon":5.381361,"is_reserved":false,"is_disabled":false,"rental_uris":{"android":"levelo://app?vid=4a029d0e-519a-4af9-88c6-8e564bc2d05b","ios":"levelo://app?vid=4a029d0e-519a-4af9-88c6-8e564bc2d05b"},"vehicle_type_id":"4","last_reported":1704380873,"current_range_meters":19200,"station_id":"ce4bh512rcd13ifvqe2g","pricing_plan_id":"free"},{"bike_id":"7f51f56e-0fc7-412d-80ef-6938763fa63c","system_id":"levelo_inurba_marseille","lat":43.330442,"lon":5.389148,"is_reserved":false,"is_disabled":false,"rental_uris":{"android":"levelo://app?vid=7f51f56e-0fc7-412d-80ef-6938763fa63c","ios":"levelo://app?vid=7f51f56e-0fc7-412d-80ef-6938763fa63c"},"vehicle_type_id":"4","last_reported":1704380873,"current_range_meters":19200,"station_id":"ce4bhr92rcd13ifvqhrg","pricing_plan_id":"free"},{"bike_id":"9705e7c1-d051-4557-9359-1419ecfdf2d7","system_id":"levelo_inurba_marseille","lat":43.289741,"lon":5.378306,"is_reserved":false,"is_disabled":false,"rental_uris":{"android":"levelo://app?vid=9705e7c1-d051-4557-9359-1419ecfdf2d7","ios":"levelo://app?vid=9705e7c1-d051-4557-9359-1419ecfdf2d7"},"vehicle_type_id":"4","last_reported":1704380873,"current_range_meters":23600,"station_id":"ce4bh9p2rcd13ifvqed0","pricing_plan_id":"free"},{"bike_id":"a4544299-4117-4ba4-98ad-2dcd1cebe1e8","system_id":"levelo_inurba_marseille","lat":43.330442,"lon":5.389148,"is_reserved":false,"is_disabled":false,"rental_uris":{"android":"levelo://app?vid=a4544299-4117-4ba4-98ad-2dcd1cebe1e8","ios":"levelo://app?vid=a4544299-4117-4ba4-98ad-2dcd1cebe1e8"},"vehicle_type_id":"4","last_reported":1704380873,"current_range_meters":20000,"station_id":"ce4bhr92rcd13ifvqhrg","pricing_plan_id":"free"},{"bike_id":"3537c72e-affb-4603-a0d4-44c57db301e5","system_id":"levelo_inurba_marseille","lat":43.330442,"lon":5.389148,"is_reserved":false,"is_disabled":false,"rental_uris":{"android":"levelo://app?vid=3537c72e-affb-4603-a0d4-44c57db301e5","ios":"levelo://app?vid=3537c72e-affb-4603-a0d4-44c57db301e5"},"vehicle_type_id":"4","last_reported":1704380873,"current_range_meters":26000,"station_id":"ce4bhr92rcd13ifvqhrg","pricing_plan_id":"free"},{"bike_id":"b4dc5f58-d698-47e4-9d04-a65a1aac924a","system_id":"levelo_inurba_marseille","lat":43.330442,"lon":5.389148,"is_reserved":false,"is_disabled":false,"rental_uris":{"android":"levelo://app?vid=b4dc5f58-d698-47e4-9d04-a65a1aac924a","ios":"levelo://app?vid=b4dc5f58-d698-47e4-9d04-a65a1aac924a"},"vehicle_type_id":"4","last_reported":1704380873,"current_range_meters":8400,"station_id":"ce4bhr92rcd13ifvqhrg","pricing_plan_id":"free"},{"bike_id":"a45508dc-3e20-4dc2-a3f2-c48092cac22d","system_id":"levelo_inurba_marseille","lat":43.330442,"lon":5.389148,"is_reserved":false,"is_disabled":false,"rental_uris":{"android":"levelo://app?vid=a45508dc-3e20-4dc2-a3f2-c48092cac22d","ios":"levelo://app?vid=a45508dc-3e20-4dc2-a3f2-c48092cac22d"},"vehicle_type_id":"4","last_reported":1704380873,"current_range_meters":30400,"station_id":"ce4bhr92rcd13ifvqhrg","pricing_plan_id":"free"},{"bike_id":"8a92dfaf-7db5-4b61-bde8-743407375403","system_id":"levelo_inurba_marseille","lat":43.295169,"lon":5.390426,"is_reserved":false,"is_disabled":false,"rental_uris":{"android":"levelo://app?vid=8a92dfaf-7db5-4b61-bde8-743407375403","ios":"levelo://app?vid=8a92dfaf-7db5-4b61-bde8-743407375403"},"vehicle_type_id":"4","last_reported":1704380873,"current_range_meters":7600,"station_id":"ce4bh3p2rcd13ifvqdp0","pricing_plan_id":"free"},{"bike_id":"c8704ef8-4342-425d-972c-6663a8518fbe","system_id":"levelo_inurba_marseille","lat":43.295169,"lon":5.390426,"is_reserved":false,"is_disabled":false,"rental_uris":{"android":"levelo://app?vid=c8704ef8-4342-425d-972c-6663a8518fbe","ios":"levelo://app?vid=c8704ef8-4342-425d-972c-6663a8518fbe"},"vehicle_type_id":"4","last_reported":1704380873,"current_range_meters":1200,"station_id":"ce4bh3p2rcd13ifvqdp0","pricing_plan_id":"free"},{"bike_id":"19188025-e81e-427c-b3e8-f9da5366695f","system_id":"levelo_inurba_marseille","lat":43.309371,"lon":5.401449,"is_reserved":false,"is_disabled":false,"rental_uris":{"android":"levelo://app?vid=19188025-e81e-427c-b3e8-f9da5366695f","ios":"levelo://app?vid=19188025-e81e-427c-b3e8-f9da5366695f"},"vehicle_type_id":"4","last_reported":1704380873,"current_range_meters":14400,"station_id":"ce4bgvp2rcd13ifvqct0","pricing_plan_id":"free"},{"bike_id":"cbff772d-056f-4625-a40b-0f7ce66bb704","system_id":"levelo_inurba_marseille","lat":43.301117,"lon":5.398795,"is_reserved":false,"is_disabled":false,"rental_uris":{"android":"levelo://app?vid=cbff772d-056f-4625-a40b-0f7ce66bb704","ios":"levelo://app?vid=cbff772d-056f-4625-a40b-0f7ce66bb704"},"vehicle_type_id":"4","last_reported":1704380873,"current_range_meters":2800,"station_id":"ce4bh0h2rcd13ifvqd40","pricing_plan_id":"free"},{"bike_id":"88b992ac-b851-4370-a5e1-696a7c2459ce","system_id":"levelo_inurba_marseille","lat":43.30124,"lon":5.39847,"is_reserved":false,"is_disabled":false,"rental_uris":{"android":"levelo://app?vid=88b992ac-b851-4370-a5e1-696a7c2459ce","ios":"levelo://app?vid=88b992ac-b851-4370-a5e1-696a7c2459ce"},"vehicle_type_id":"4","last_reported":1704380873,"current_range_meters":0,"station_id":"ce4bh0h2rcd13ifvqd40","pricing_plan_id":"free"},{"bike_id":"9bf487b1-1bb2-432e-b017-a199e2adec42","system_id":"levelo_inurba_marseille","lat":43.28727,"lon":5.36078,"is_reserved":false,"is_disabled":false,"rental_uris":{"android":"levelo://app?vid=9bf487b1-1bb2-432e-b017-a199e2adec42","ios":"levelo://app?vid=9bf487b1-1bb2-432e-b017-a199e2adec42"},"vehicle_type_id":"4","last_reported":1704380873,"current_range_meters":25600,"station_id":"cki0cbj6b192h4jlfktg","pricing_plan_id":"free"},{"bike_id":"613cc39f-a0f8-416d-987f-17a8227be2cb","system_id":"levelo_inurba_marseille","lat":43.286591,"lon":5.363346,"is_reserved":false,"is_disabled":false,"rental_uris":{"android":"levelo://app?vid=613cc39f-a0f8-416d-987f-17a8227be2cb","ios":"levelo://app?vid=613cc39f-a0f8-416d-987f-17a8227be2cb"},"vehicle_type_id":"4","last_reported":1704380873,"current_range_meters":4400,"station_id":"ce4bhah2rcd13ifvqej0","pricing_plan_id":"free"},{"bike_id":"d203e9a1-2922-4b6c-96f4-3426ae1ec641","system_id":"levelo_inurba_marseille","lat":43.287027,"lon":5.373837,"is_reserved":false,"is_disabled":false,"rental_uris":{"android":"levelo://app?vid=d203e9a1-2922-4b6c-96f4-3426ae1ec641","ios":"levelo://app?vid=d203e9a1-2922-4b6c-96f4-3426ae1ec641"},"vehicle_type_id":"4","last_reported":1704380873,"current_range_meters":28800,"station_id":"ce4bh3p2rcd13ifvqdq0","pricing_plan_id":"free"},{"bike_id":"b6a40a4d-9613-489a-a36d-1bdd1faf6587","system_id":"levelo_inurba_marseille","lat":43.286591,"lon":5.363346,"is_reserved":false,"is_disabled":false,"rental_uris":{"android":"levelo://app?vid=b6a40a4d-9613-489a-a36d-1bdd1faf6587","ios":"levelo://app?vid=b6a40a4d-9613-489a-a36d-1bdd1faf6587"},"vehicle_type_id":"4","last_reported":1704380873,"current_range_meters":7200,"station_id":"ce4bhah2rcd13ifvqej0","pricing_plan_id":"free"},{"bike_id":"61ab7eef-3af9-4ad3-8b10-ca71cfc322e2","system_id":"levelo_inurba_marseille","lat":43.286593,"lon":5.363346,"is_reserved":false,"is_disabled":false,"rental_uris":{"android":"levelo://app?vid=61ab7eef-3af9-4ad3-8b10-ca71cfc322e2","ios":"levelo://app?vid=61ab7eef-3af9-4ad3-8b10-ca71cfc322e2"},"vehicle_type_id":"4","last_reported":1704380873,"current_range_meters":28000,"station_id":"ce4bhah2rcd13ifvqej0","pricing_plan_id":"free"},{"bike_id":"b7736625-4946-4c04-97b8-cc303a60d214","system_id":"levelo_inurba_marseille","lat":43.286591,"lon":5.363346,"is_reserved":false,"is_disabled":false,"rental_uris":{"android":"levelo://app?vid=b7736625-4946-4c04-97b8-cc303a60d214","ios":"levelo://app?vid=b7736625-4946-4c04-97b8-cc303a60d214"},"vehicle_type_id":"4","last_reported":1704380873,"current_range_meters":24800,"station_id":"ce4bhah2rcd13ifvqej0","pricing_plan_id":"free"},{"bike_id":"0c4ed37e-c0b0-43fb-a7e0-d94d9cfe66b9","system_id":"levelo_inurba_marseille","lat":43.29527,"lon":5.39408,"is_reserved":false,"is_disabled":false,"rental_uris":{"android":"levelo://app?vid=0c4ed37e-c0b0-43fb-a7e0-d94d9cfe66b9","ios":"levelo://app?vid=0c4ed37e-c0b0-43fb-a7e0-d94d9cfe66b9"},"vehicle_type_id":"4","last_reported":1704380873,"current_range_meters":1600,"station_id":"ce4bh292rcd13ifvqdf0","pricing_plan_id":"free"},{"bike_id":"615c92a0-2e3f-4213-a986-fe4a6771c1bb","system_id":"levelo_inurba_marseille","lat":43.29521,"lon":5.3941,"is_reserved":false,"is_disabled":false,"rental_uris":{"android":"levelo://app?vid=615c92a0-2e3f-4213-a986-fe4a6771c1bb","ios":"levelo://app?vid=615c92a0-2e3f-4213-a986-fe4a6771c1bb"},"vehicle_type_id":"4","last_reported":1704380873,"current_range_meters":17200,"station_id":"ce4bh292rcd13ifvqdf0","pricing_plan_id":"free"},{"bike_id":"964acb03-7fbc-404d-a282-b863c532c125","system_id":"levelo_inurba_marseille","lat":43.289307,"lon":5.38406,"is_reserved":false,"is_disabled":false,"rental_uris":{"android":"levelo://app?vid=964acb03-7fbc-404d-a282-b863c532c125","ios":"levelo://app?vid=964acb03-7fbc-404d-a282-b863c532c125"},"vehicle_type_id":"4","last_reported":1704380873,"current_range_meters":25600,"station_id":"ce4bh612rcd13ifvqe6g","pricing_plan_id":"free"},{"bike_id":"66349fba-e897-484f-9b14-b6dedb1a7060","system_id":"levelo_inurba_marseille","lat":43.289307,"lon":5.38406,"is_reserved":false,"is_disabled":false,"rental_uris":{"android":"levelo://app?vid=66349fba-e897-484f-9b14-b6dedb1a7060","ios":"levelo://app?vid=66349fba-e897-484f-9b14-b6dedb1a7060"},"vehicle_type_id":"4","last_reported":1704380873,"current_range_meters":30800,"station_id":"ce4bh612rcd13ifvqe6g","pricing_plan_id":"free"},{"bike_id":"dee4e87c-7e13-47b3-8230-9f3949715016","system_id":"levelo_inurba_marseille","lat":43.289307,"lon":5.38406,"is_reserved":false,"is_disabled":false,"rental_uris":{"android":"levelo://app?vid=dee4e87c-7e13-47b3-8230-9f3949715016","ios":"levelo://app?vid=dee4e87c-7e13-47b3-8230-9f3949715016"},"vehicle_type_id":"4","last_reported":1704380873,"current_range_meters":30000,"station_id":"ce4bh612rcd13ifvqe6g","pricing_plan_id":"free"},{"bike_id":"43fa715b-0b8c-4853-9980-29bfa9807e84","system_id":"levelo_inurba_marseille","lat":43.286039,"lon":5.370679,"is_reserved":false,"is_disabled":false,"rental_uris":{"android":"levelo://app?vid=43fa715b-0b8c-4853-9980-29bfa9807e84","ios":"levelo://app?vid=43fa715b-0b8c-4853-9980-29bfa9807e84"},"vehicle_type_id":"4","last_reported":1704380873,"current_range_meters":10800,"station_id":"ce4bht12rcd13ifvqi60","pricing_plan_id":"free"},{"bike_id":"8a0a1678-9e0e-4aac-b2b4-33f70f862f6b","system_id":"levelo_inurba_marseille","lat":43.285481,"lon":5.37381,"is_reserved":false,"is_disabled":false,"rental_uris":{"android":"levelo://app?vid=8a0a1678-9e0e-4aac-b2b4-33f70f862f6b","ios":"levelo://app?vid=8a0a1678-9e0e-4aac-b2b4-33f70f862f6b"},"vehicle_type_id":"4","last_reported":1704380873,"current_range_meters":11600,"station_id":"ce4bh412rcd13ifvqds0","pricing_plan_id":"free"},{"bike_id":"52e11c0e-b0bc-493c-bbbc-0e0e17086cc3","system_id":"levelo_inurba_marseille","lat":43.316821,"lon":5.404737,"is_reserved":false,"is_disabled":false,"rental_uris":{"android":"levelo://app?vid=52e11c0e-b0bc-493c-bbbc-0e0e17086cc3","ios":"levelo://app?vid=52e11c0e-b0bc-493c-bbbc-0e0e17086cc3"},"vehicle_type_id":"4","last_reported":1704380873,"current_range_meters":24400,"station_id":"ce4bh012rcd13ifvqd00","pricing_plan_id":"free"},{"bike_id":"871962e5-3def-46c2-ad7c-12a7b0ea5d18","system_id":"levelo_inurba_marseille","lat":43.291994,"lon":5.392907,"is_reserved":false,"is_disabled":false,"rental_uris":{"android":"levelo://app?vid=871962e5-3def-46c2-ad7c-12a7b0ea5d18","ios":"levelo://app?vid=871962e5-3def-46c2-ad7c-12a7b0ea5d18"},"vehicle_type_id":"4","last_reported":1704380873,"current_range_meters":17600,"station_id":"ce4bh192rcd13ifvqdd0","pricing_plan_id":"free"},{"bike_id":"8bf235dd-746e-4c2c-9f41-7426e46f605b","system_id":"levelo_inurba_marseille","lat":43.294314,"lon":5.397498,"is_reserved":false,"is_disabled":false,"rental_uris":{"android":"levelo://app?vid=8bf235dd-746e-4c2c-9f41-7426e46f605b","ios":"levelo://app?vid=8bf235dd-746e-4c2c-9f41-7426e46f605b"},"vehicle_type_id":"4","last_reported":1704380873,"current_range_meters":12800,"station_id":"ce4bh3h2rcd13ifvqdo0","pricing_plan_id":"free"},{"bike_id":"d8ab37e2-555e-4c80-9b51-030aa4eebebb","system_id":"levelo_inurba_marseille","lat":43.285856,"lon":5.350771,"is_reserved":false,"is_disabled":false,"rental_uris":{"android":"levelo://app?vid=d8ab37e2-555e-4c80-9b51-030aa4eebebb","ios":"levelo://app?vid=d8ab37e2-555e-4c80-9b51-030aa4eebebb"},"vehicle_type_id":"4","last_reported":1704380873,"current_range_meters":7200,"station_id":"ce4bhch2rcd13ifvqeug","pricing_plan_id":"free"},{"bike_id":"68ed022c-2ef5-441b-a7e5-7345b643f48d","system_id":"levelo_inurba_marseille","lat":43.285856,"lon":5.350771,"is_reserved":false,"is_disabled":false,"rental_uris":{"android":"levelo://app?vid=68ed022c-2ef5-441b-a7e5-7345b643f48d","ios":"levelo://app?vid=68ed022c-2ef5-441b-a7e5-7345b643f48d"},"vehicle_type_id":"4","last_reported":1704380873,"current_range_meters":0,"station_id":"ce4bhch2rcd13ifvqeug","pricing_plan_id":"free"},{"bike_id":"3f2d67b5-1b70-4dca-a662-d18b710194fe","system_id":"levelo_inurba_marseille","lat":43.29837,"lon":5.40163,"is_reserved":false,"is_disabled":false,"rental_uris":{"android":"levelo://app?vid=3f2d67b5-1b70-4dca-a662-d18b710194fe","ios":"levelo://app?vid=3f2d67b5-1b70-4dca-a662-d18b710194fe"},"vehicle_type_id":"4","last_reported":1704380873,"current_range_meters":12400,"station_id":"","pricing_plan_id":"free"},{"bike_id":"5bb211ac-b3f6-4b6d-8350-b1f70bbd7073","system_id":"levelo_inurba_marseille","lat":43.284146,"lon":5.375106,"is_reserved":false,"is_disabled":false,"rental_uris":{"android":"levelo://app?vid=5bb211ac-b3f6-4b6d-8350-b1f70bbd7073","ios":"levelo://app?vid=5bb211ac-b3f6-4b6d-8350-b1f70bbd7073"},"vehicle_type_id":"4","last_reported":1704380873,"current_range_meters":24000,"station_id":"ce4bh412rcd13ifvqds0","pricing_plan_id":"free"},{"bike_id":"56e2e246-f3e1-40cc-8837-009565f1f3fd","system_id":"levelo_inurba_marseille","lat":43.283998,"lon":5.375062,"is_reserved":false,"is_disabled":false,"rental_uris":{"android":"levelo://app?vid=56e2e246-f3e1-40cc-8837-009565f1f3fd","ios":"levelo://app?vid=56e2e246-f3e1-40cc-8837-009565f1f3fd"},"vehicle_type_id":"4","last_reported":1704380873,"current_range_meters":30000,"station_id":"ce4bh412rcd13ifvqds0","pricing_plan_id":"free"},{"bike_id":"6d2f6e21-c301-4a9f-9c0a-11b7de4f6d04","system_id":"levelo_inurba_marseille","lat":43.28407,"lon":5.37521,"is_reserved":false,"is_disabled":false,"rental_uris":{"android":"levelo://app?vid=6d2f6e21-c301-4a9f-9c0a-11b7de4f6d04","ios":"levelo://app?vid=6d2f6e21-c301-4a9f-9c0a-11b7de4f6d04"},"vehicle_type_id":"4","last_reported":1704380873,"current_range_meters":28800,"station_id":"ce4bh412rcd13ifvqds0","pricing_plan_id":"free"},{"bike_id":"496771c7-38d3-4cc1-a347-b07664845400","system_id":"levelo_inurba_marseille","lat":43.286595,"lon":5.386795,"is_reserved":false,"is_disabled":false,"rental_uris":{"android":"levelo://app?vid=496771c7-38d3-4cc1-a347-b07664845400","ios":"levelo://app?vid=496771c7-38d3-4cc1-a347-b07664845400"},"vehicle_type_id":"4","last_reported":1704380873,"current_range_meters":15600,"station_id":"ce4bh492rcd13ifvqdug","pricing_plan_id":"free"},{"bike_id":"41581831-2cca-42ec-9669-b17ccd73160b","system_id":"levelo_inurba_marseille","lat":43.33717,"lon":5.391857,"is_reserved":false,"is_disabled":false,"rental_uris":{"android":"levelo://app?vid=41581831-2cca-42ec-9669-b17ccd73160b","ios":"levelo://app?vid=41581831-2cca-42ec-9669-b17ccd73160b"},"vehicle_type_id":"4","last_reported":1704380873,"current_range_meters":30400,"station_id":"ce4bhr92rcd13ifvqhsg","pricing_plan_id":"free"},{"bike_id":"fa1834d4-a8eb-4f1f-b3d1-747acc57893e","system_id":"levelo_inurba_marseille","lat":43.33717,"lon":5.391857,"is_reserved":false,"is_disabled":false,"rental_uris":{"android":"levelo://app?vid=fa1834d4-a8eb-4f1f-b3d1-747acc57893e","ios":"levelo://app?vid=fa1834d4-a8eb-4f1f-b3d1-747acc57893e"},"vehicle_type_id":"4","last_reported":1704380873,"current_range_meters":19200,"station_id":"ce4bhr92rcd13ifvqhsg","pricing_plan_id":"free"},{"bike_id":"5e57c7c1-bfc5-49c6-9e57-613a538e8d1e","system_id":"levelo_inurba_marseille","lat":43.323464,"lon":5.406297,"is_reserved":false,"is_disabled":false,"rental_uris":{"android":"levelo://app?vid=5e57c7c1-bfc5-49c6-9e57-613a538e8d1e","ios":"levelo://app?vid=5e57c7c1-bfc5-49c6-9e57-613a538e8d1e"},"vehicle_type_id":"4","last_reported":1704380873,"current_range_meters":31600,"station_id":"ce4bhq92rcd13ifvqhjg","pricing_plan_id":"free"},{"bike_id":"30e1a12a-188c-4e2f-b11a-d273e4571aa1","system_id":"levelo_inurba_marseille","lat":43.3233,"lon":5.40622,"is_reserved":false,"is_disabled":false,"rental_uris":{"android":"levelo://app?vid=30e1a12a-188c-4e2f-b11a-d273e4571aa1","ios":"levelo://app?vid=30e1a12a-188c-4e2f-b11a-d273e4571aa1"},"vehicle_type_id":"4","last_reported":1704380873,"current_range_meters":4400,"station_id":"ce4bhq92rcd13ifvqhjg","pricing_plan_id":"free"},{"bike_id":"2556f8a3-f1f0-4cdc-9edd-a7f3cfcea9a9","system_id":"levelo_inurba_marseille","lat":43.323464,"lon":5.406297,"is_reserved":false,"is_disabled":false,"rental_uris":{"android":"levelo://app?vid=2556f8a3-f1f0-4cdc-9edd-a7f3cfcea9a9","ios":"levelo://app?vid=2556f8a3-f1f0-4cdc-9edd-a7f3cfcea9a9"},"vehicle_type_id":"4","last_reported":1704380873,"current_range_meters":22400,"station_id":"ce4bhq92rcd13ifvqhjg","pricing_plan_id":"free"},{"bike_id":"b543ed77-e7e5-4558-bba6-c398c0454f6f","system_id":"levelo_inurba_marseille","lat":43.33717,"lon":5.391857,"is_reserved":false,"is_disabled":false,"rental_uris":{"android":"levelo://app?vid=b543ed77-e7e5-4558-bba6-c398c0454f6f","ios":"levelo://app?vid=b543ed77-e7e5-4558-bba6-c398c0454f6f"},"vehicle_type_id":"4","last_reported":1704380873,"current_range_meters":30000,"station_id":"ce4bhr92rcd13ifvqhsg","pricing_plan_id":"free"},{"bike_id":"0fd5721d-d9a7-4415-81ba-eeebcbc0ec3b","system_id":"levelo_inurba_marseille","lat":43.284793,"lon":5.384113,"is_reserved":false,"is_disabled":false,"rental_uris":{"android":"levelo://app?vid=0fd5721d-d9a7-4415-81ba-eeebcbc0ec3b","ios":"levelo://app?vid=0fd5721d-d9a7-4415-81ba-eeebcbc0ec3b"},"vehicle_type_id":"4","last_reported":1704380873,"current_range_meters":22800,"station_id":"ce4bh512rcd13ifvqe3g","pricing_plan_id":"free"},{"bike_id":"3b92db17-95d3-45ee-91e7-76fcf276b087","system_id":"levelo_inurba_marseille","lat":43.284793,"lon":5.384119,"is_reserved":false,"is_disabled":false,"rental_uris":{"android":"levelo://app?vid=3b92db17-95d3-45ee-91e7-76fcf276b087","ios":"levelo://app?vid=3b92db17-95d3-45ee-91e7-76fcf276b087"},"vehicle_type_id":"4","last_reported":1704380873,"current_range_meters":10400,"station_id":"ce4bh512rcd13ifvqe3g","pricing_plan_id":"free"},{"bike_id":"a429997d-2c6a-4cf7-8565-1804e19415f2","system_id":"levelo_inurba_marseille","lat":43.284793,"lon":5.384113,"is_reserved":false,"is_disabled":false,"rental_uris":{"android":"levelo://app?vid=a429997d-2c6a-4cf7-8565-1804e19415f2","ios":"levelo://app?vid=a429997d-2c6a-4cf7-8565-1804e19415f2"},"vehicle_type_id":"4","last_reported":1704380873,"current_range_meters":15200,"station_id":"ce4bh512rcd13ifvqe3g","pricing_plan_id":"free"},{"bike_id":"ae79fa1f-e947-47b3-9476-aacedd48e982","system_id":"levelo_inurba_marseille","lat":43.284793,"lon":5.384113,"is_reserved":false,"is_disabled":false,"rental_uris":{"android":"levelo://app?vid=ae79fa1f-e947-47b3-9476-aacedd48e982","ios":"levelo://app?vid=ae79fa1f-e947-47b3-9476-aacedd48e982"},"vehicle_type_id":"4","last_reported":1704380873,"current_range_meters":12000,"station_id":"ce4bh512rcd13ifvqe3g","pricing_plan_id":"free"},{"bike_id":"ad782760-e448-4b50-8bc8-9c7571e8083c","system_id":"levelo_inurba_marseille","lat":43.284793,"lon":5.384119,"is_reserved":false,"is_disabled":false,"rental_uris":{"android":"levelo://app?vid=ad782760-e448-4b50-8bc8-9c7571e8083c","ios":"levelo://app?vid=ad782760-e448-4b50-8bc8-9c7571e8083c"},"vehicle_type_id":"4","last_reported":1704380873,"current_range_meters":18800,"station_id":"ce4bh512rcd13ifvqe3g","pricing_plan_id":"free"},{"bike_id":"34ac35bd-2873-441f-9e8e-1b3faf9b54d3","system_id":"levelo_inurba_marseille","lat":43.28432,"lon":5.34979,"is_reserved":false,"is_disabled":false,"rental_uris":{"android":"levelo://app?vid=34ac35bd-2873-441f-9e8e-1b3faf9b54d3","ios":"levelo://app?vid=34ac35bd-2873-441f-9e8e-1b3faf9b54d3"},"vehicle_type_id":"4","last_reported":1704380873,"current_range_meters":0,"station_id":"ce4bhbh2rcd13ifvqepg","pricing_plan_id":"free"},{"bike_id":"b991e471-bed5-4497-8ff4-444a75f00c1a","system_id":"levelo_inurba_marseille","lat":43.284219,"lon":5.3497,"is_reserved":false,"is_disabled":false,"rental_uris":{"android":"levelo://app?vid=b991e471-bed5-4497-8ff4-444a75f00c1a","ios":"levelo://app?vid=b991e471-bed5-4497-8ff4-444a75f00c1a"},"vehicle_type_id":"4","last_reported":1704380873,"current_range_meters":21200,"station_id":"ce4bhbh2rcd13ifvqepg","pricing_plan_id":"free"},{"bike_id":"4f6d3ffe-711c-4008-9f75-e2a35d51f7ad","system_id":"levelo_inurba_marseille","lat":43.284217,"lon":5.349697,"is_reserved":false,"is_disabled":false,"rental_uris":{"android":"levelo://app?vid=4f6d3ffe-711c-4008-9f75-e2a35d51f7ad","ios":"levelo://app?vid=4f6d3ffe-711c-4008-9f75-e2a35d51f7ad"},"vehicle_type_id":"4","last_reported":1704380873,"current_range_meters":11600,"station_id":"ce4bhbh2rcd13ifvqepg","pricing_plan_id":"free"},{"bike_id":"4f5c75aa-d88c-4b56-93d6-b7f0c84d694f","system_id":"levelo_inurba_marseille","lat":43.284219,"lon":5.3497,"is_reserved":false,"is_disabled":false,"rental_uris":{"android":"levelo://app?vid=4f5c75aa-d88c-4b56-93d6-b7f0c84d694f","ios":"levelo://app?vid=4f5c75aa-d88c-4b56-93d6-b7f0c84d694f"},"vehicle_type_id":"4","last_reported":1704380873,"current_range_meters":28000,"station_id":"ce4bhbh2rcd13ifvqepg","pricing_plan_id":"free"},{"bike_id":"da12f4ad-3912-44ca-a174-4fe036ebb58b","system_id":"levelo_inurba_marseille","lat":43.284217,"lon":5.349697,"is_reserved":false,"is_disabled":false,"rental_uris":{"android":"levelo://app?vid=da12f4ad-3912-44ca-a174-4fe036ebb58b","ios":"levelo://app?vid=da12f4ad-3912-44ca-a174-4fe036ebb58b"},"vehicle_type_id":"4","last_reported":1704380873,"current_range_meters":4000,"station_id":"ce4bhbh2rcd13ifvqepg","pricing_plan_id":"free"},{"bike_id":"b6713d3c-5548-4d14-875b-3d668e7bfe5b","system_id":"levelo_inurba_marseille","lat":43.284219,"lon":5.3497,"is_reserved":false,"is_disabled":false,"rental_uris":{"android":"levelo://app?vid=b6713d3c-5548-4d14-875b-3d668e7bfe5b","ios":"levelo://app?vid=b6713d3c-5548-4d14-875b-3d668e7bfe5b"},"vehicle_type_id":"4","last_reported":1704380873,"current_range_meters":0,"station_id":"ce4bhbh2rcd13ifvqepg","pricing_plan_id":"free"},{"bike_id":"9173db68-8808-4714-9029-63a4fab361a1","system_id":"levelo_inurba_marseille","lat":43.282754,"lon":5.350519,"is_reserved":false,"is_disabled":false,"rental_uris":{"android":"levelo://app?vid=9173db68-8808-4714-9029-63a4fab361a1","ios":"levelo://app?vid=9173db68-8808-4714-9029-63a4fab361a1"},"vehicle_type_id":"4","last_reported":1704380873,"current_range_meters":21600,"station_id":"ce4bhbp2rcd13ifvqerg","pricing_plan_id":"free"},{"bike_id":"40e4757a-484e-4d29-9b0f-c5d29c7dfa5a","system_id":"levelo_inurba_marseille","lat":43.28265,"lon":5.35063,"is_reserved":false,"is_disabled":false,"rental_uris":{"android":"levelo://app?vid=40e4757a-484e-4d29-9b0f-c5d29c7dfa5a","ios":"levelo://app?vid=40e4757a-484e-4d29-9b0f-c5d29c7dfa5a"},"vehicle_type_id":"4","last_reported":1704380873,"current_range_meters":18800,"station_id":"ce4bhbp2rcd13ifvqerg","pricing_plan_id":"free"},{"bike_id":"cbac5d93-ad60-41e4-ba5e-b486678ba6cd","system_id":"levelo_inurba_marseille","lat":43.290412,"lon":5.399633,"is_reserved":false,"is_disabled":false,"rental_uris":{"android":"levelo://app?vid=cbac5d93-ad60-41e4-ba5e-b486678ba6cd","ios":"levelo://app?vid=cbac5d93-ad60-41e4-ba5e-b486678ba6cd"},"vehicle_type_id":"4","last_reported":1704380873,"current_range_meters":13200,"station_id":"ce4bh392rcd13ifvqdm0","pricing_plan_id":"free"},{"bike_id":"d5b651b3-8001-4a48-9698-3923629a5433","system_id":"levelo_inurba_marseille","lat":43.281044,"lon":5.378308,"is_reserved":false,"is_disabled":false,"rental_uris":{"android":"levelo://app?vid=d5b651b3-8001-4a48-9698-3923629a5433","ios":"levelo://app?vid=d5b651b3-8001-4a48-9698-3923629a5433"},"vehicle_type_id":"4","last_reported":1704380873,"current_range_meters":18400,"station_id":"ce4bha12rcd13ifvqee0","pricing_plan_id":"free"},{"bike_id":"acc27e11-d6bb-449a-b341-86aae412fbb5","system_id":"levelo_inurba_marseille","lat":43.281044,"lon":5.378308,"is_reserved":false,"is_disabled":false,"rental_uris":{"android":"levelo://app?vid=acc27e11-d6bb-449a-b341-86aae412fbb5","ios":"levelo://app?vid=acc27e11-d6bb-449a-b341-86aae412fbb5"},"vehicle_type_id":"4","last_reported":1704380873,"current_range_meters":30800,"station_id":"ce4bha12rcd13ifvqee0","pricing_plan_id":"free"},{"bike_id":"437c640e-bc46-4d9a-9834-1cd2afab615c","system_id":"levelo_inurba_marseille","lat":43.326605,"lon":5.409903,"is_reserved":false,"is_disabled":false,"rental_uris":{"android":"levelo://app?vid=437c640e-bc46-4d9a-9834-1cd2afab615c","ios":"levelo://app?vid=437c640e-bc46-4d9a-9834-1cd2afab615c"},"vehicle_type_id":"4","last_reported":1704380873,"current_range_meters":24400,"station_id":"ce4bhpp2rcd13ifvqhgg","pricing_plan_id":"free"},{"bike_id":"c9bb092f-12f8-4e73-bbc1-033dc9fee63a","system_id":"levelo_inurba_marseille","lat":43.326605,"lon":5.409903,"is_reserved":false,"is_disabled":false,"rental_uris":{"android":"levelo://app?vid=c9bb092f-12f8-4e73-bbc1-033dc9fee63a","ios":"levelo://app?vid=c9bb092f-12f8-4e73-bbc1-033dc9fee63a"},"vehicle_type_id":"4","last_reported":1704380873,"current_range_meters":20000,"station_id":"ce4bhpp2rcd13ifvqhgg","pricing_plan_id":"free"},{"bike_id":"7eefe6db-c6f0-457a-8bfb-5e80108569ef","system_id":"levelo_inurba_marseille","lat":43.326605,"lon":5.409903,"is_reserved":false,"is_disabled":false,"rental_uris":{"android":"levelo://app?vid=7eefe6db-c6f0-457a-8bfb-5e80108569ef","ios":"levelo://app?vid=7eefe6db-c6f0-457a-8bfb-5e80108569ef"},"vehicle_type_id":"4","last_reported":1704380873,"current_range_meters":26400,"station_id":"ce4bhpp2rcd13ifvqhgg","pricing_plan_id":"free"},{"bike_id":"e95deaf9-300d-4a5e-86a8-adc09ecb359d","system_id":"levelo_inurba_marseille","lat":43.287154,"lon":5.399979,"is_reserved":false,"is_disabled":false,"rental_uris":{"android":"levelo://app?vid=e95deaf9-300d-4a5e-86a8-adc09ecb359d","ios":"levelo://app?vid=e95deaf9-300d-4a5e-86a8-adc09ecb359d"},"vehicle_type_id":"4","last_reported":1704380873,"current_range_meters":17600,"station_id":"ce4bho92rcd13ifvqh3g","pricing_plan_id":"free"},{"bike_id":"cce4b127-a7ea-433a-a149-204312ba92bc","system_id":"levelo_inurba_marseille","lat":43.287154,"lon":5.399979,"is_reserved":false,"is_disabled":false,"rental_uris":{"android":"levelo://app?vid=cce4b127-a7ea-433a-a149-204312ba92bc","ios":"levelo://app?vid=cce4b127-a7ea-433a-a149-204312ba92bc"},"vehicle_type_id":"4","last_reported":1704380873,"current_range_meters":4000,"station_id":"ce4bho92rcd13ifvqh3g","pricing_plan_id":"free"},{"bike_id":"928efec5-a906-434a-af8e-09992bf6d269","system_id":"levelo_inurba_marseille","lat":43.299579,"lon":5.413255,"is_reserved":false,"is_disabled":false,"rental_uris":{"android":"levelo://app?vid=928efec5-a906-434a-af8e-09992bf6d269","ios":"levelo://app?vid=928efec5-a906-434a-af8e-09992bf6d269"},"vehicle_type_id":"4","last_reported":1704380873,"current_range_meters":30400,"station_id":"ce4bhp12rcd13ifvqh9g","pricing_plan_id":"free"},{"bike_id":"2010b732-a0eb-4814-883f-e9666057e475","system_id":"levelo_inurba_marseille","lat":43.261782,"lon":5.374515,"is_reserved":false,"is_disabled":false,"rental_uris":{"android":"levelo://app?vid=2010b732-a0eb-4814-883f-e9666057e475","ios":"levelo://app?vid=2010b732-a0eb-4814-883f-e9666057e475"},"vehicle_type_id":"4","last_reported":1704380873,"current_range_meters":4800,"station_id":"ce4bhgp2rcd13ifvqfc0","pricing_plan_id":"free"},{"bike_id":"2c501eb7-18f3-48e0-acd8-634393ac85b8","system_id":"levelo_inurba_marseille","lat":43.276179,"lon":5.361009,"is_reserved":false,"is_disabled":false,"rental_uris":{"android":"levelo://app?vid=2c501eb7-18f3-48e0-acd8-634393ac85b8","ios":"levelo://app?vid=2c501eb7-18f3-48e0-acd8-634393ac85b8"},"vehicle_type_id":"4","last_reported":1704380873,"current_range_meters":10000,"station_id":"ce4bgj92rcd13ifvqbe0","pricing_plan_id":"free"},{"bike_id":"d3f25bcc-da64-44bb-8495-bf854b2f447f","system_id":"levelo_inurba_marseille","lat":43.324368,"lon":5.41656,"is_reserved":false,"is_disabled":false,"rental_uris":{"android":"levelo://app?vid=d3f25bcc-da64-44bb-8495-bf854b2f447f","ios":"levelo://app?vid=d3f25bcc-da64-44bb-8495-bf854b2f447f"},"vehicle_type_id":"4","last_reported":1704380873,"current_range_meters":17200,"station_id":"","pricing_plan_id":"free"},{"bike_id":"2d337f8f-581b-4978-8d1d-8323ca6c49d4","system_id":"levelo_inurba_marseille","lat":43.275625,"lon":5.384392,"is_reserved":false,"is_disabled":false,"rental_uris":{"android":"levelo://app?vid=2d337f8f-581b-4978-8d1d-8323ca6c49d4","ios":"levelo://app?vid=2d337f8f-581b-4978-8d1d-8323ca6c49d4"},"vehicle_type_id":"4","last_reported":1704380873,"current_range_meters":29600,"station_id":"ce4bhh92rcd13ifvqfi0","pricing_plan_id":"free"},{"bike_id":"91d94a50-3f6e-4f7c-bcb2-3a4e856845b0","system_id":"levelo_inurba_marseille","lat":43.273613,"lon":5.362705,"is_reserved":false,"is_disabled":false,"rental_uris":{"android":"levelo://app?vid=91d94a50-3f6e-4f7c-bcb2-3a4e856845b0","ios":"levelo://app?vid=91d94a50-3f6e-4f7c-bcb2-3a4e856845b0"},"vehicle_type_id":"4","last_reported":1704380873,"current_range_meters":8400,"station_id":"ce4bhbh2rcd13ifvqeo0","pricing_plan_id":"free"},{"bike_id":"2cd47f6e-f315-46ad-8e68-24948d8fab91","system_id":"levelo_inurba_marseille","lat":43.33612,"lon":5.410321,"is_reserved":false,"is_disabled":false,"rental_uris":{"android":"levelo://app?vid=2cd47f6e-f315-46ad-8e68-24948d8fab91","ios":"levelo://app?vid=2cd47f6e-f315-46ad-8e68-24948d8fab91"},"vehicle_type_id":"4","last_reported":1704380873,"current_range_meters":0,"station_id":"ce4bhqh2rcd13ifvqhmg","pricing_plan_id":"free"},{"bike_id":"199a6134-d8bf-4b38-95a8-46041967a235","system_id":"levelo_inurba_marseille","lat":43.275625,"lon":5.384392,"is_reserved":false,"is_disabled":false,"rental_uris":{"android":"levelo://app?vid=199a6134-d8bf-4b38-95a8-46041967a235","ios":"levelo://app?vid=199a6134-d8bf-4b38-95a8-46041967a235"},"vehicle_type_id":"4","last_reported":1704380873,"current_range_meters":22400,"station_id":"ce4bhh92rcd13ifvqfi0","pricing_plan_id":"free"},{"bike_id":"f3f087d6-6b56-45a2-ada9-358a615843dc","system_id":"levelo_inurba_marseille","lat":43.275625,"lon":5.384392,"is_reserved":false,"is_disabled":false,"rental_uris":{"android":"levelo://app?vid=f3f087d6-6b56-45a2-ada9-358a615843dc","ios":"levelo://app?vid=f3f087d6-6b56-45a2-ada9-358a615843dc"},"vehicle_type_id":"4","last_reported":1704380873,"current_range_meters":19200,"station_id":"ce4bhh92rcd13ifvqfi0","pricing_plan_id":"free"},{"bike_id":"53e958ba-8566-4513-b4c9-ea9c7ced0bd0","system_id":"levelo_inurba_marseille","lat":43.275625,"lon":5.384392,"is_reserved":false,"is_disabled":false,"rental_uris":{"android":"levelo://app?vid=53e958ba-8566-4513-b4c9-ea9c7ced0bd0","ios":"levelo://app?vid=53e958ba-8566-4513-b4c9-ea9c7ced0bd0"},"vehicle_type_id":"4","last_reported":1704380873,"current_range_meters":800,"station_id":"ce4bhh92rcd13ifvqfi0","pricing_plan_id":"free"},{"bike_id":"f13fc9e3-d4bc-49e2-86b9-76f99505a589","system_id":"levelo_inurba_marseille","lat":43.275625,"lon":5.384392,"is_reserved":false,"is_disabled":false,"rental_uris":{"android":"levelo://app?vid=f13fc9e3-d4bc-49e2-86b9-76f99505a589","ios":"levelo://app?vid=f13fc9e3-d4bc-49e2-86b9-76f99505a589"},"vehicle_type_id":"4","last_reported":1704380873,"current_range_meters":14000,"station_id":"ce4bhh92rcd13ifvqfi0","pricing_plan_id":"free"},{"bike_id":"1c0b8bdf-3c50-406e-b6cc-95195eea7ce1","system_id":"levelo_inurba_marseille","lat":43.336134,"lon":5.410341,"is_reserved":false,"is_disabled":false,"rental_uris":{"android":"levelo://app?vid=1c0b8bdf-3c50-406e-b6cc-95195eea7ce1","ios":"levelo://app?vid=1c0b8bdf-3c50-406e-b6cc-95195eea7ce1"},"vehicle_type_id":"4","last_reported":1704380873,"current_range_meters":27200,"station_id":"ce4bhqh2rcd13ifvqhmg","pricing_plan_id":"free"},{"bike_id":"a94f9f01-76a0-4b07-892c-f132b3916bca","system_id":"levelo_inurba_marseille","lat":43.275625,"lon":5.384392,"is_reserved":false,"is_disabled":false,"rental_uris":{"android":"levelo://app?vid=a94f9f01-76a0-4b07-892c-f132b3916bca","ios":"levelo://app?vid=a94f9f01-76a0-4b07-892c-f132b3916bca"},"vehicle_type_id":"4","last_reported":1704380873,"current_range_meters":22400,"station_id":"ce4bhh92rcd13ifvqfi0","pricing_plan_id":"free"},{"bike_id":"4dce75f1-5f3f-4337-b8bf-c376a39478d6","system_id":"levelo_inurba_marseille","lat":43.317121,"lon":5.423936,"is_reserved":false,"is_disabled":false,"rental_uris":{"android":"levelo://app?vid=4dce75f1-5f3f-4337-b8bf-c376a39478d6","ios":"levelo://app?vid=4dce75f1-5f3f-4337-b8bf-c376a39478d6"},"vehicle_type_id":"4","last_reported":1704380873,"current_range_meters":28400,"station_id":"ce4bhp92rcd13ifvqhbg","pricing_plan_id":"free"},{"bike_id":"7e20e46a-cb6e-4167-bfe5-1fdd3fcf844f","system_id":"levelo_inurba_marseille","lat":43.317152,"lon":5.424004,"is_reserved":false,"is_disabled":false,"rental_uris":{"android":"levelo://app?vid=7e20e46a-cb6e-4167-bfe5-1fdd3fcf844f","ios":"levelo://app?vid=7e20e46a-cb6e-4167-bfe5-1fdd3fcf844f"},"vehicle_type_id":"4","last_reported":1704380873,"current_range_meters":0,"station_id":"ce4bhp92rcd13ifvqhbg","pricing_plan_id":"free"},{"bike_id":"1aa5dfd2-1e08-4de5-b3b5-301f09562189","system_id":"levelo_inurba_marseille","lat":43.310785,"lon":5.424305,"is_reserved":false,"is_disabled":false,"rental_uris":{"android":"levelo://app?vid=1aa5dfd2-1e08-4de5-b3b5-301f09562189","ios":"levelo://app?vid=1aa5dfd2-1e08-4de5-b3b5-301f09562189"},"vehicle_type_id":"4","last_reported":1704380873,"current_range_meters":0,"station_id":"ce4bhp92rcd13ifvqhag","pricing_plan_id":"free"},{"bike_id":"357a2d8e-e28c-4262-a68a-14faeba56395","system_id":"levelo_inurba_marseille","lat":43.269319,"lon":5.389397,"is_reserved":false,"is_disabled":false,"rental_uris":{"android":"levelo://app?vid=357a2d8e-e28c-4262-a68a-14faeba56395","ios":"levelo://app?vid=357a2d8e-e28c-4262-a68a-14faeba56395"},"vehicle_type_id":"4","last_reported":1704380873,"current_range_meters":4000,"station_id":"ce4bhhh2rcd13ifvqfl0","pricing_plan_id":"free"},{"bike_id":"339b8954-55d2-4521-9818-eb469c03d6c4","system_id":"levelo_inurba_marseille","lat":43.269467,"lon":5.386439,"is_reserved":false,"is_disabled":false,"rental_uris":{"android":"levelo://app?vid=339b8954-55d2-4521-9818-eb469c03d6c4","ios":"levelo://app?vid=339b8954-55d2-4521-9818-eb469c03d6c4"},"vehicle_type_id":"4","last_reported":1704380873,"current_range_meters":13600,"station_id":"ce4bhh92rcd13ifvqfh0","pricing_plan_id":"free"},{"bike_id":"f396f9c5-3aa8-4966-b135-4639184249ef","system_id":"levelo_inurba_marseille","lat":43.269467,"lon":5.386439,"is_reserved":false,"is_disabled":false,"rental_uris":{"android":"levelo://app?vid=f396f9c5-3aa8-4966-b135-4639184249ef","ios":"levelo://app?vid=f396f9c5-3aa8-4966-b135-4639184249ef"},"vehicle_type_id":"4","last_reported":1704380873,"current_range_meters":21200,"station_id":"ce4bhh92rcd13ifvqfh0","pricing_plan_id":"free"},{"bike_id":"ac6f2591-bb5c-4ff3-8866-b150d3a087d7","system_id":"levelo_inurba_marseille","lat":43.269319,"lon":5.389397,"is_reserved":false,"is_disabled":false,"rental_uris":{"android":"levelo://app?vid=ac6f2591-bb5c-4ff3-8866-b150d3a087d7","ios":"levelo://app?vid=ac6f2591-bb5c-4ff3-8866-b150d3a087d7"},"vehicle_type_id":"4","last_reported":1704380873,"current_range_meters":30800,"station_id":"ce4bhhh2rcd13ifvqfl0","pricing_plan_id":"free"},{"bike_id":"e5d926fa-814a-4cf9-b355-8c69fef0a5ca","system_id":"levelo_inurba_marseille","lat":43.26558,"lon":5.37282,"is_reserved":false,"is_disabled":false,"rental_uris":{"android":"levelo://app?vid=e5d926fa-814a-4cf9-b355-8c69fef0a5ca","ios":"levelo://app?vid=e5d926fa-814a-4cf9-b355-8c69fef0a5ca"},"vehicle_type_id":"4","last_reported":1704380873,"current_range_meters":8000,"station_id":"ce4bhg12rcd13ifvqf70","pricing_plan_id":"free"},{"bike_id":"9f484093-3e2d-4dfc-9545-2fb5cd8a5062","system_id":"levelo_inurba_marseille","lat":43.265714,"lon":5.372891,"is_reserved":false,"is_disabled":false,"rental_uris":{"android":"levelo://app?vid=9f484093-3e2d-4dfc-9545-2fb5cd8a5062","ios":"levelo://app?vid=9f484093-3e2d-4dfc-9545-2fb5cd8a5062"},"vehicle_type_id":"4","last_reported":1704380873,"current_range_meters":6000,"station_id":"ce4bhg12rcd13ifvqf70","pricing_plan_id":"free"},{"bike_id":"82f6fe54-08f9-486e-bbc0-caafc55305a3","system_id":"levelo_inurba_marseille","lat":43.265714,"lon":5.372891,"is_reserved":false,"is_disabled":false,"rental_uris":{"android":"levelo://app?vid=82f6fe54-08f9-486e-bbc0-caafc55305a3","ios":"levelo://app?vid=82f6fe54-08f9-486e-bbc0-caafc55305a3"},"vehicle_type_id":"4","last_reported":1704380873,"current_range_meters":18800,"station_id":"ce4bhg12rcd13ifvqf70","pricing_plan_id":"free"},{"bike_id":"5aa0e351-bb8b-42ae-9936-250b035185d6","system_id":"levelo_inurba_marseille","lat":43.261782,"lon":5.374515,"is_reserved":false,"is_disabled":false,"rental_uris":{"android":"levelo://app?vid=5aa0e351-bb8b-42ae-9936-250b035185d6","ios":"levelo://app?vid=5aa0e351-bb8b-42ae-9936-250b035185d6"},"vehicle_type_id":"4","last_reported":1704380873,"current_range_meters":3600,"station_id":"ce4bhgp2rcd13ifvqfc0","pricing_plan_id":"free"},{"bike_id":"5b20e63a-3deb-4f83-aa88-c502120d0d0b","system_id":"levelo_inurba_marseille","lat":43.261782,"lon":5.374515,"is_reserved":false,"is_disabled":false,"rental_uris":{"android":"levelo://app?vid=5b20e63a-3deb-4f83-aa88-c502120d0d0b","ios":"levelo://app?vid=5b20e63a-3deb-4f83-aa88-c502120d0d0b"},"vehicle_type_id":"4","last_reported":1704380873,"current_range_meters":3600,"station_id":"ce4bhgp2rcd13ifvqfc0","pricing_plan_id":"free"},{"bike_id":"aefe3df2-74fb-405c-9d2f-f837bdbb7387","system_id":"levelo_inurba_marseille","lat":43.261782,"lon":5.374515,"is_reserved":false,"is_disabled":false,"rental_uris":{"android":"levelo://app?vid=aefe3df2-74fb-405c-9d2f-f837bdbb7387","ios":"levelo://app?vid=aefe3df2-74fb-405c-9d2f-f837bdbb7387"},"vehicle_type_id":"4","last_reported":1704380873,"current_range_meters":5200,"station_id":"ce4bhgp2rcd13ifvqfc0","pricing_plan_id":"free"},{"bike_id":"d8683f80-3907-48c8-b698-93a5253d847b","system_id":"levelo_inurba_marseille","lat":43.271368,"lon":5.40928,"is_reserved":false,"is_disabled":false,"rental_uris":{"android":"levelo://app?vid=d8683f80-3907-48c8-b698-93a5253d847b","ios":"levelo://app?vid=d8683f80-3907-48c8-b698-93a5253d847b"},"vehicle_type_id":"4","last_reported":1704380873,"current_range_meters":14400,"station_id":"ce4bhl12rcd13ifvqgf0","pricing_plan_id":"free"},{"bike_id":"dc370954-9bac-4568-85e2-914c553ab228","system_id":"levelo_inurba_marseille","lat":43.271388,"lon":5.409269,"is_reserved":false,"is_disabled":false,"rental_uris":{"android":"levelo://app?vid=dc370954-9bac-4568-85e2-914c553ab228","ios":"levelo://app?vid=dc370954-9bac-4568-85e2-914c553ab228"},"vehicle_type_id":"4","last_reported":1704380873,"current_range_meters":22800,"station_id":"ce4bhl12rcd13ifvqgf0","pricing_plan_id":"free"},{"bike_id":"81626053-872f-4407-8120-98b82b148f19","system_id":"levelo_inurba_marseille","lat":43.281548,"lon":5.42643,"is_reserved":false,"is_disabled":false,"rental_uris":{"android":"levelo://app?vid=81626053-872f-4407-8120-98b82b148f19","ios":"levelo://app?vid=81626053-872f-4407-8120-98b82b148f19"},"vehicle_type_id":"4","last_reported":1704380873,"current_range_meters":20800,"station_id":"ce4bhnh2rcd13ifvqgug","pricing_plan_id":"free"},{"bike_id":"1bacb750-8387-4675-a445-77f7232c32e9","system_id":"levelo_inurba_marseille","lat":43.281548,"lon":5.42643,"is_reserved":false,"is_disabled":false,"rental_uris":{"android":"levelo://app?vid=1bacb750-8387-4675-a445-77f7232c32e9","ios":"levelo://app?vid=1bacb750-8387-4675-a445-77f7232c32e9"},"vehicle_type_id":"4","last_reported":1704380873,"current_range_meters":31600,"station_id":"ce4bhnh2rcd13ifvqgug","pricing_plan_id":"free"},{"bike_id":"011fb361-976e-46a3-a88d-91570a73378a","system_id":"levelo_inurba_marseille","lat":43.281548,"lon":5.42643,"is_reserved":false,"is_disabled":false,"rental_uris":{"android":"levelo://app?vid=011fb361-976e-46a3-a88d-91570a73378a","ios":"levelo://app?vid=011fb361-976e-46a3-a88d-91570a73378a"},"vehicle_type_id":"4","last_reported":1704380873,"current_range_meters":16800,"station_id":"ce4bhnh2rcd13ifvqgug","pricing_plan_id":"free"},{"bike_id":"d7214fbb-bc69-46da-92b0-9b2cbe582498","system_id":"levelo_inurba_marseille","lat":43.281548,"lon":5.42643,"is_reserved":false,"is_disabled":false,"rental_uris":{"android":"levelo://app?vid=d7214fbb-bc69-46da-92b0-9b2cbe582498","ios":"levelo://app?vid=d7214fbb-bc69-46da-92b0-9b2cbe582498"},"vehicle_type_id":"4","last_reported":1704380873,"current_range_meters":29600,"station_id":"ce4bhnh2rcd13ifvqgug","pricing_plan_id":"free"},{"bike_id":"8fa7a0bb-11af-49b0-9cd3-91edb1e64eda","system_id":"levelo_inurba_marseille","lat":43.29949,"lon":5.4381,"is_reserved":false,"is_disabled":false,"rental_uris":{"android":"levelo://app?vid=8fa7a0bb-11af-49b0-9cd3-91edb1e64eda","ios":"levelo://app?vid=8fa7a0bb-11af-49b0-9cd3-91edb1e64eda"},"vehicle_type_id":"4","last_reported":1704380873,"current_range_meters":4400,"station_id":"","pricing_plan_id":"free"},{"bike_id":"34451ea8-37f7-4de0-a544-ada63d75c3fa","system_id":"levelo_inurba_marseille","lat":43.2607,"lon":5.393983,"is_reserved":false,"is_disabled":false,"rental_uris":{"android":"levelo://app?vid=34451ea8-37f7-4de0-a544-ada63d75c3fa","ios":"levelo://app?vid=34451ea8-37f7-4de0-a544-ada63d75c3fa"},"vehicle_type_id":"4","last_reported":1704380873,"current_range_meters":26800,"station_id":"ce4bhh92rcd13ifvqfj0","pricing_plan_id":"free"},{"bike_id":"f3b8f9bc-9c97-4442-ab42-c52f8d672407","system_id":"levelo_inurba_marseille","lat":43.25102,"lon":5.403214,"is_reserved":false,"is_disabled":false,"rental_uris":{"android":"levelo://app?vid=f3b8f9bc-9c97-4442-ab42-c52f8d672407","ios":"levelo://app?vid=f3b8f9bc-9c97-4442-ab42-c52f8d672407"},"vehicle_type_id":"4","last_reported":1704380873,"current_range_meters":18400,"station_id":"ce4bhlh2rcd13ifvqgig","pricing_plan_id":"free"},{"bike_id":"8518026e-20ff-44b5-8a2e-6b0d485a3f96","system_id":"levelo_inurba_marseille","lat":43.275028,"lon":5.424534,"is_reserved":false,"is_disabled":false,"rental_uris":{"android":"levelo://app?vid=8518026e-20ff-44b5-8a2e-6b0d485a3f96","ios":"levelo://app?vid=8518026e-20ff-44b5-8a2e-6b0d485a3f96"},"vehicle_type_id":"4","last_reported":1704380873,"current_range_meters":21600,"station_id":"ce4bhn92rcd13ifvqgrg","pricing_plan_id":"free"},{"bike_id":"409c7d99-7ed4-4425-9fc8-8f92303d7ce9","system_id":"levelo_inurba_marseille","lat":43.275028,"lon":5.424534,"is_reserved":false,"is_disabled":false,"rental_uris":{"android":"levelo://app?vid=409c7d99-7ed4-4425-9fc8-8f92303d7ce9","ios":"levelo://app?vid=409c7d99-7ed4-4425-9fc8-8f92303d7ce9"},"vehicle_type_id":"4","last_reported":1704380873,"current_range_meters":1200,"station_id":"ce4bhn92rcd13ifvqgrg","pricing_plan_id":"free"},{"bike_id":"84af795a-8f50-4ae0-9dbc-30634e705a63","system_id":"levelo_inurba_marseille","lat":43.275028,"lon":5.424534,"is_reserved":false,"is_disabled":false,"rental_uris":{"android":"levelo://app?vid=84af795a-8f50-4ae0-9dbc-30634e705a63","ios":"levelo://app?vid=84af795a-8f50-4ae0-9dbc-30634e705a63"},"vehicle_type_id":"4","last_reported":1704380873,"current_range_meters":16400,"station_id":"ce4bhn92rcd13ifvqgrg","pricing_plan_id":"free"},{"bike_id":"c6e1d669-4b40-4bf6-a5f7-2ef90ad928f9","system_id":"levelo_inurba_marseille","lat":43.27494,"lon":5.42456,"is_reserved":false,"is_disabled":false,"rental_uris":{"android":"levelo://app?vid=c6e1d669-4b40-4bf6-a5f7-2ef90ad928f9","ios":"levelo://app?vid=c6e1d669-4b40-4bf6-a5f7-2ef90ad928f9"},"vehicle_type_id":"4","last_reported":1704380873,"current_range_meters":19600,"station_id":"ce4bhn92rcd13ifvqgrg","pricing_plan_id":"free"},{"bike_id":"907449f8-c464-4e01-b065-2bd35a91fb53","system_id":"levelo_inurba_marseille","lat":43.25589,"lon":5.38224,"is_reserved":false,"is_disabled":false,"rental_uris":{"android":"levelo://app?vid=907449f8-c464-4e01-b065-2bd35a91fb53","ios":"levelo://app?vid=907449f8-c464-4e01-b065-2bd35a91fb53"},"vehicle_type_id":"4","last_reported":1704380873,"current_range_meters":1200,"station_id":"ce4bhih2rcd13ifvqfs0","pricing_plan_id":"free"},