{"last_updated":1702289325,"ttl":30,"version":"2.2","data":{"bikes":[{"bike_id":"055d2ef5-9139-4356-9d69-cd322234ae4b","system_id":"levelo_inurba_marseille","lat":43.31341,"lon":5.367098,"is_reserved":false,"is_disabled":false,"rental_uris":{"android":"levelo://app?vid=055d2ef5-9139-4356-9d69-cd322234ae4b","ios":"levelo://app?vid=055d2ef5-9139-4356-9d69-cd322234ae4b"},"vehicle_type_id":"4","last_reported":1702289325,"current_range_meters":21200,"station_id":"ce4bgr92rcd13ifvqc6g","pricing_plan_id":"free"},{"bike_id":"a19087a6-47e6-403e-a488-7ee9a44459a6","system_id":"levelo_inurba_marseille","lat":43.313391,"lon":5.36706,"is_reserved":false,"is_disabled":false,"rental_uris":{"android":"levelo://app?vid=a19087a6-47e6-403e-a488-7ee9a44459a6","ios":"levelo://app?vid=a19087a6-47e6-403e-a488-7ee9a44459a6"},"vehicle_type_id":"4","last_reported":1702289325,"current_range_meters":20000,"station_id":"ce4bgr92rcd13ifvqc6g","pricing_plan_id":"free"},{"bike_id":"8dead90f-577d-4d9f-9331-28e8ecb446e2","system_id":"levelo_inurba_marseille","lat":43.31341,"lon":5.367098,"is_reserved":false,"is_disabled":false,"rental_uris":{"android":"levelo://app?vid=8dead90f-577d-4d9f-9331-28e8ecb446e2","ios":"levelo://app?vid=8dead90f-577d-4d9f-9331-28e8ecb446e2"},"vehicle_type_id":"4","last_reported":1702289325,"current_range_meters":10000,"station_id":"ce4bgr92rcd13ifvqc6g","pricing_plan_id":"free"},{"bike_id":"bc58274e-d2d6-448d-ac09-facbdfbc86e7","system_id":"levelo_inurba_marseille","lat":43.31341,"lon":5.367098,"is_reserved":false,"is_disabled":false,"rental_uris":{"android":"levelo://app?vid=bc58274e-d2d6-448d-ac09-facbdfbc86e7","ios":"levelo://app?vid=bc58274e-d2d6-448d-ac09-facbdfbc86e7"},"vehicle_type_id":"4","last_reported":1702289325,"current_range_meters":18800,"station_id":"ce4bgr92rcd13ifvqc6g","pricing_plan_id":"free"},{"bike_id":"cae15194-13d0-47b9-b8ad-026da81b6fe4","system_id":"levelo_inurba_marseille","lat":43.31341,"lon":5.367098,"is_reserved":false,"is_disabled":false,"rental_uris":{"android":"levelo://app?vid=cae15194-13d0-47b9-b8ad-026da81b6fe4","ios":"levelo://app?vid=cae15194-13d0-47b9-b8ad-026da81b6fe4"},"vehicle_type_id":"4","last_reported":1702289325,"current_range_meters":5600,"station_id":"ce4bgr92rcd13ifvqc6g","pricing_plan_id":"free"},{"bike_id":"9e204e3e-87b9-4913-aacd-3c8c14629e10","system_id":"levelo_inurba_marseille","lat":43.31345,"lon":5.36714,"is_reserved":false,"is_disabled":false,"rental_uris":{"android":"levelo://app?vid=9e204e3e-87b9-4913-aacd-3c8c14629e10","ios":"levelo://app?vid=9e204e3e-87b9-4913-aacd-3c8c14629e10"},"vehicle_type_id":"4","last_reported":1702289325,"current_range_meters":0,"station_id":"ce4bgr92rcd13ifvqc6g","pricing_plan_id":"free"},{"bike_id":"e9e14f30-824a-4d01-9b3b-bfb4c52edf77","system_id":"levelo_inurba_marseille","lat":43.313391,"lon":5.36706,"is_reserved":false,"is_disabled":false,"rental_uris":{"android":"levelo://app?vid=e9e14f30-824a-4d01-9b3b-bfb4c52edf77","ios":"levelo://app?vid=e9e14f30-824a-4d01-9b3b-bfb4c52edf77"},"vehicle_type_id":"4","last_reported":1702289325,"current_range_meters":8400,"station_id":"ce4bgr92rcd13ifvqc6g","pricing_plan_id":"free"},{"bike_id":"8ac9870d-3e79-4926-a23c-724057773296","system_id":"levelo_inurba_marseille","lat":43.313391,"lon":5.36706,"is_reserved":false,"is_disabled":false,"rental_uris":{"android":"levelo://app?vid=8ac9870d-3e79-4926-a23c-724057773296","ios":"levelo://app?vid=8ac9870d-3e79-4926-a23c-724057773296"},"vehicle_type_id":"4","last_reported":1702289325,"current_range_meters":22400,"station_id":"ce4bgr92rcd13ifvqc6g","pricing_plan_id":"free"},{"bike_id":"af115bc0-0c1b-4a35-af11-e2be8c394adc","system_id":"levelo_inurba_marseille","lat":43.313548,"lon":5.367145,"is_reserved":false,"is_disabled":false,"rental_uris":{"android":"levelo://app?vid=af115bc0-0c1b-4a35-af11-e2be8c394adc","ios":"levelo://app?vid=af115bc0-0c1b-4a35-af11-e2be8c394adc"},"vehicle_type_id":"4","last_reported":1702289325,"current_range_meters":17600,"station_id":"ce4bgr92rcd13ifvqc6g","pricing_plan_id":"free"},{"bike_id":"fdaf4ab5-a9d9-4192-aa17-96757f60edc3","system_id":"levelo_inurba_marseille","lat":43.313391,"lon":5.36706,"is_reserved":false,"is_disabled":false,"rental_uris":{"android":"levelo://app?vid=fdaf4ab5-a9d9-4192-aa17-96757f60edc3","ios":"levelo://app?vid=fdaf4ab5-a9d9-4192-aa17-96757f60edc3"},"vehicle_type_id":"4","last_reported":1702289325,"current_range_meters":31600,"station_id":"ce4bgr92rcd13ifvqc6g","pricing_plan_id":"free"},{"bike_id":"1a78223d-601f-4e4b-8d20-47d9e10e8866","system_id":"levelo_inurba_marseille","lat":43.313391,"lon":5.36706,"is_reserved":false,"is_disabled":false,"rental_uris":{"android":"levelo://app?vid=1a78223d-601f-4e4b-8d20-47d9e10e8866","ios":"levelo://app?vid=1a78223d-601f-4e4b-8d20-47d9e10e8866"},"vehicle_type_id":"4","last_reported":1702289325,"current_range_meters":25600,"station_id":"ce4bgr92rcd13ifvqc6g","pricing_plan_id":"free"},{"bike_id":"22f592ed-7213-4141-b405-b53acc01ff6c","system_id":"levelo_inurba_marseille","lat":43.313391,"lon":5.36706,"is_reserved":false,"is_disabled":false,"rental_uris":{"android":"levelo://app?vid=22f592ed-7213-4141-b405-b53acc01ff6c","ios":"levelo://app?vid=22f592ed-7213-4141-b405-b53acc01ff6c"},"vehicle_type_id":"4","last_reported":1702289325,"current_range_meters":10800,"station_id":"ce4bgr92rcd13ifvqc6g","pricing_plan_id":"free"},{"bike_id":"73f066ed-19d2-4a73-bfe3-5fecf411b3a9","system_id":"levelo_inurba_marseille","lat":43.312239,"lon":5.368562,"is_reserved":false,"is_disabled":false,"rental_uris":{"android":"levelo://app?vid=73f066ed-19d2-4a73-bfe3-5fecf411b3a9","ios":"levelo://app?vid=73f066ed-19d2-4a73-bfe3-5fecf411b3a9"},"vehicle_type_id":"4","last_reported":1702289325,"current_range_meters":28000,"station_id":"ce4bgl92rcd13ifvqbq0","pricing_plan_id":"free"},{"bike_id":"6b9d7cd0-b11e-47a2-b2cb-d94eba6f8c81","system_id":"levelo_inurba_marseille","lat":43.309076,"lon":5.368465,"is_reserved":false,"is_disabled":false,"rental_uris":{"android":"levelo://app?vid=6b9d7cd0-b11e-47a2-b2cb-d94eba6f8c81","ios":"levelo://app?vid=6b9d7cd0-b11e-47a2-b2cb-d94eba6f8c81"},"vehicle_type_id":"4","last_reported":1702289325,"current_range_meters":24400,"station_id":"ce4bgn92rcd13ifvqbvg","pricing_plan_id":"free"},{"bike_id":"5c5d885d-3a80-4972-a0a7-75d6086b9f07","system_id":"levelo_inurba_marseille","lat":43.309076,"lon":5.368465,"is_reserved":false,"is_disabled":false,"rental_uris":{"android":"levelo://app?vid=5c5d885d-3a80-4972-a0a7-75d6086b9f07","ios":"levelo://app?vid=5c5d885d-3a80-4972-a0a7-75d6086b9f07"},"vehicle_type_id":"4","last_reported":1702289325,"current_range_meters":32000,"station_id":"ce4bgn92rcd13ifvqbvg","pricing_plan_id":"free"},{"bike_id":"d4522b01-5b2f-4fbf-a365-c8a6c838bc3b","system_id":"levelo_inurba_marseille","lat":43.309076,"lon":5.368465,"is_reserved":false,"is_disabled":false,"rental_uris":{"android":"levelo://app?vid=d4522b01-5b2f-4fbf-a365-c8a6c838bc3b","ios":"levelo://app?vid=d4522b01-5b2f-4fbf-a365-c8a6c838bc3b"},"vehicle_type_id":"4","last_reported":1702289325,"current_range_meters":22800,"station_id":"ce4bgn92rcd13ifvqbvg","pricing_plan_id":"free"},{"bike_id":"7d54a54f-1ed4-4054-bd39-74b70c1cf8ab","system_id":"levelo_inurba_marseille","lat":43.309076,"lon":5.368465,"is_reserved":false,"is_disabled":false,"rental_uris":{"android":"levelo://app?vid=7d54a54f-1ed4-4054-bd39-74b70c1cf8ab","ios":"levelo://app?vid=7d54a54f-1ed4-4054-bd39-74b70c1cf8ab"},"vehicle_type_id":"4","last_reported":1702289325,"current_range_meters":14400,"station_id":"ce4bgn92rcd13ifvqbvg","pricing_plan_id":"free"},{"bike_id":"569c08b3-dc9b-4aa6-ae98-ea1387a91f61","system_id":"levelo_inurba_marseille","lat":43.309076,"lon":5.368465,"is_reserved":false,"is_disabled":false,"rental_uris":{"android":"levelo://app?vid=569c08b3-dc9b-4aa6-ae98-ea1387a91f61","ios":"levelo://app?vid=569c08b3-dc9b-4aa6-ae98-ea1387a91f61"},"vehicle_type_id":"4","last_reported":1702289325,"current_range_meters":12800,"station_id":"ce4bgn92rcd13ifvqbvg","pricing_plan_id":"free"},{"bike_id":"47e6cf27-a921-4cb9-81be-31ae9f787368","system_id":"levelo_inurba_marseille","lat":43.309039,"lon":5.371797,"is_reserved":false,"is_disabled":false,"rental_uris":{"android":"levelo://app?vid=47e6cf27-a921-4cb9-81be-31ae9f787368","ios":"levelo://app?vid=47e6cf27-a921-4cb9-81be-31ae9f787368"},"vehicle_type_id":"4","last_reported":1702289325,"current_range_meters":28800,"station_id":"ce4bguh2rcd13ifvqckg","pricing_plan_id":"free"},{"bike_id":"5631c8f0-2d02-473f-b0c0-85e9c529d1d0","system_id":"levelo_inurba_marseille","lat":43.313735,"lon":5.37637,"is_reserved":false,"is_disabled":false,"rental_uris":{"android":"levelo://app?vid=5631c8f0-2d02-473f-b0c0-85e9c529d1d0","ios":"levelo://app?vid=5631c8f0-2d02-473f-b0c0-85e9c529d1d0"},"vehicle_type_id":"4","last_reported":1702289325,"current_range_meters":9200,"station_id":"","pricing_plan_id":"free"},{"bike_id":"4db13260-b8d3-44cc-8200-438470ed9027","system_id":"levelo_inurba_marseille","lat":43.305712,"lon":5.365641,"is_reserved":false,"is_disabled":false,"rental_uris":{"android":"levelo://app?vid=4db13260-b8d3-44cc-8200-438470ed9027","ios":"levelo://app?vid=4db13260-b8d3-44cc-8200-438470ed9027"},"vehicle_type_id":"4","last_reported":1702289325,"current_range_meters":28800,"station_id":"ce4bgs12rcd13ifvqcag","pricing_plan_id":"free"},{"bike_id":"80ff0afb-95ab-4dc1-b9ba-50632bbf4949","system_id":"levelo_inurba_marseille","lat":43.305712,"lon":5.365641,"is_reserved":false,"is_disabled":false,"rental_uris":{"android":"levelo://app?vid=80ff0afb-95ab-4dc1-b9ba-50632bbf4949","ios":"levelo://app?vid=80ff0afb-95ab-4dc1-b9ba-50632bbf4949"},"vehicle_type_id":"4","last_reported":1702289325,"current_range_meters":13200,"station_id":"ce4bgs12rcd13ifvqcag","pricing_plan_id":"free"},{"bike_id":"eb8c69ff-171d-4519-9a56-fd82bc9e96e9","system_id":"levelo_inurba_marseille","lat":43.30543,"lon":5.36692,"is_reserved":false,"is_disabled":false,"rental_uris":{"android":"levelo://app?vid=eb8c69ff-171d-4519-9a56-fd82bc9e96e9","ios":"levelo://app?vid=eb8c69ff-171d-4519-9a56-fd82bc9e96e9"},"vehicle_type_id":"4","last_reported":1702289325,"current_range_meters":12400,"station_id":"ce4bgrp2rcd13ifvqc9g","pricing_plan_id":"free"},{"bike_id":"8f991687-24d5-403c-8b66-db9c07e90445","system_id":"levelo_inurba_marseille","lat":43.3054,"lon":5.36698,"is_reserved":false,"is_disabled":false,"rental_uris":{"android":"levelo://app?vid=8f991687-24d5-403c-8b66-db9c07e90445","ios":"levelo://app?vid=8f991687-24d5-403c-8b66-db9c07e90445"},"vehicle_type_id":"4","last_reported":1702289325,"current_range_meters":0,"station_id":"ce4bgrp2rcd13ifvqc9g","pricing_plan_id":"free"},{"bike_id":"bfe7978d-2381-4bff-a99a-46833772d34e","system_id":"levelo_inurba_marseille","lat":43.305368,"lon":5.367343,"is_reserved":false,"is_disabled":false,"rental_uris":{"android":"levelo://app?vid=bfe7978d-2381-4bff-a99a-46833772d34e","ios":"levelo://app?vid=bfe7978d-2381-4bff-a99a-46833772d34e"},"vehicle_type_id":"4","last_reported":1702289325,"current_range_meters":25600,"station_id":"ce4bgrp2rcd13ifvqc9g","pricing_plan_id":"free"},{"bike_id":"e2f11a8e-61fd-4183-9eab-186ce7f19f1b","system_id":"levelo_inurba_marseille","lat":43.30535,"lon":5.36692,"is_reserved":false,"is_disabled":false,"rental_uris":{"android":"levelo://app?vid=e2f11a8e-61fd-4183-9eab-186ce7f19f1b","ios":"levelo://app?vid=e2f11a8e-61fd-4183-9eab-186ce7f19f1b"},"vehicle_type_id":"4","last_reported":1702289325,"current_range_meters":18000,"station_id":"ce4bgrp2rcd13ifvqc9g","pricing_plan_id":"free"},{"bike_id":"9745a796-a930-4e60-980a-72238f197532","system_id":"levelo_inurba_marseille","lat":43.305714,"lon":5.365633,"is_reserved":false,"is_disabled":false,"rental_uris":{"android":"levelo://app?vid=9745a796-a930-4e60-980a-72238f197532","ios":"levelo://app?vid=9745a796-a930-4e60-980a-72238f197532"},"vehicle_type_id":"4","last_reported":1702289325,"current_range_meters":25600,"station_id":"ce4bgs12rcd13ifvqcag","pricing_plan_id":"free"},{"bike_id":"ef3c0062-d008-42d2-8bd0-e2554c3c9914","system_id":"levelo_inurba_marseille","lat":43.305706,"lon":5.365654,"is_reserved":false,"is_disabled":false,"rental_uris":{"android":"levelo://app?vid=ef3c0062-d008-42d2-8bd0-e2554c3c9914","ios":"levelo://app?vid=ef3c0062-d008-42d2-8bd0-e2554c3c9914"},"vehicle_type_id":"4","last_reported":1702289325,"current_range_meters":23200,"station_id":"ce4bgs12rcd13ifvqcag","pricing_plan_id":"free"},{"bike_id":"5d1e08d7-0a65-4e1f-ab18-dc1887fe88e9","system_id":"levelo_inurba_marseille","lat":43.305706,"lon":5.365654,"is_reserved":false,"is_disabled":false,"rental_uris":{"android":"levelo://app?vid=5d1e08d7-0a65-4e1f-ab18-dc1887fe88e9","ios":"levelo://app?vid=5d1e08d7-0a65-4e1f-ab18-dc1887fe88e9"},"vehicle_type_id":"4","last_reported":1702289325,"current_range_meters":26000,"station_id":"ce4bgs12rcd13ifvqcag","pricing_plan_id":"free"},{"bike_id":"fa86253f-b3b4-44f1-8c3d-cc0d2f54cd90","system_id":"levelo_inurba_marseille","lat":43.305706,"lon":5.365654,"is_reserved":false,"is_disabled":false,"rental_uris":{"android":"levelo://app?vid=fa86253f-b3b4-44f1-8c3d-cc0d2f54cd90","ios":"levelo://app?vid=fa86253f-b3b4-44f1-8c3d-cc0d2f54cd90"},"vehicle_type_id":"4","last_reported":1702289325,"current_range_meters":31200,"station_id":"ce4bgs12rcd13ifvqcag","pricing_plan_id":"free"},{"bike_id":"1e9c6a8d-b9e2-4176-bb39-f407c964baa9","system_id":"levelo_inurba_marseille","lat":43.305989,"lon":5.37225,"is_reserved":false,"is_disabled":false,"rental_uris":{"android":"levelo://app?vid=1e9c6a8d-b9e2-4176-bb39-f407c964baa9","ios":"levelo://app?vid=1e9c6a8d-b9e2-4176-bb39-f407c964baa9"},"vehicle_type_id":"4","last_reported":1702289325,"current_range_meters":14800,"station_id":"ce4bgqh2rcd13ifvqc4g","pricing_plan_id":"free"},{"bike_id":"4266b9ea-2925-490b-b157-24c2389d9e10","system_id":"levelo_inurba_marseille","lat":43.31537,"lon":5.38015,"is_reserved":false,"is_disabled":false,"rental_uris":{"android":"levelo://app?vid=4266b9ea-2925-490b-b157-24c2389d9e10","ios":"levelo://app?vid=4266b9ea-2925-490b-b157-24c2389d9e10"},"vehicle_type_id":"4","last_reported":1702289325,"current_range_meters":21600,"station_id":"ce4bhsp2rcd13ifvqi50","pricing_plan_id":"free"},{"bike_id":"d16f7ecf-8f89-41ff-b9fb-3a1e05dd9bae","system_id":"levelo_inurba_marseille","lat":43.308012,"lon":5.381511,"is_reserved":false,"is_disabled":false,"rental_uris":{"android":"levelo://app?vid=d16f7ecf-8f89-41ff-b9fb-3a1e05dd9bae","ios":"levelo://app?vid=d16f7ecf-8f89-41ff-b9fb-3a1e05dd9bae"},"vehicle_type_id":"4","last_reported":1702289325,"current_range_meters":12400,"station_id":"ce4bgt12rcd13ifvqce0","pricing_plan_id":"free"},{"bike_id":"79c97dc1-047e-4c31-b157-d719dc524496","system_id":"levelo_inurba_marseille","lat":43.304606,"lon":5.379026,"is_reserved":false,"is_disabled":false,"rental_uris":{"android":"levelo://app?vid=79c97dc1-047e-4c31-b157-d719dc524496","ios":"levelo://app?vid=79c97dc1-047e-4c31-b157-d719dc524496"},"vehicle_type_id":"4","last_reported":1702289325,"current_range_meters":9200,"station_id":"ce4bgup2rcd13ifvqcn0","pricing_plan_id":"free"},{"bike_id":"351b641e-c05c-48c5-afe7-686f380ea0f7","system_id":"levelo_inurba_marseille","lat":43.304606,"lon":5.379026,"is_reserved":false,"is_disabled":false,"rental_uris":{"android":"levelo://app?vid=351b641e-c05c-48c5-afe7-686f380ea0f7","ios":"levelo://app?vid=351b641e-c05c-48c5-afe7-686f380ea0f7"},"vehicle_type_id":"4","last_reported":1702289325,"current_range_meters":8000,"station_id":"ce4bgup2rcd13ifvqcn0","pricing_plan_id":"free"},{"bike_id":"ebeaadad-ae1b-4330-835b-77916e0b1d48","system_id":"levelo_inurba_marseille","lat":43.304606,"lon":5.379026,"is_reserved":false,"is_disabled":false,"rental_uris":{"android":"levelo://app?vid=ebeaadad-ae1b-4330-835b-77916e0b1d48","ios":"levelo://app?vid=ebeaadad-ae1b-4330-835b-77916e0b1d48"},"vehicle_type_id":"4","last_reported":1702289325,"current_range_meters":1600,"station_id":"ce4bgup2rcd13ifvqcn0","pricing_plan_id":"free"},{"bike_id":"b26bb281-8170-4e37-9edd-355e27cf329b","system_id":"levelo_inurba_marseille","lat":43.30143,"lon":5.37413,"is_reserved":false,"is_disabled":false,"rental_uris":{"android":"levelo://app?vid=b26bb281-8170-4e37-9edd-355e27cf329b","ios":"levelo://app?vid=b26bb281-8170-4e37-9edd-355e27cf329b"},"vehicle_type_id":"4","last_reported":1702289325,"current_range_meters":3200,"station_id":"ce4bgs92rcd13ifvqcc0","pricing_plan_id":"free"},{"bike_id":"d507dc20-f3f0-485a-b520-e5ecd0effbe5","system_id":"levelo_inurba_marseille","lat":43.31994,"lon":5.38139,"is_reserved":false,"is_disabled":false,"rental_uris":{"android":"levelo://app?vid=d507dc20-f3f0-485a-b520-e5ecd0effbe5","ios":"levelo://app?vid=d507dc20-f3f0-485a-b520-e5ecd0effbe5"},"vehicle_type_id":"4","last_reported":1702289325,"current_range_meters":19600,"station_id":"ce4bhr12rcd13ifvqhpg","pricing_plan_id":"free"},{"bike_id":"2b7f7a37-391a-4eb2-b1a1-ddc45a522eff","system_id":"levelo_inurba_marseille","lat":43.31992,"lon":5.38145,"is_reserved":false,"is_disabled":false,"rental_uris":{"android":"levelo://app?vid=2b7f7a37-391a-4eb2-b1a1-ddc45a522eff","ios":"levelo://app?vid=2b7f7a37-391a-4eb2-b1a1-ddc45a522eff"},"vehicle_type_id":"4","last_reported":1702289325,"current_range_meters":27600,"station_id":"ce4bhr12rcd13ifvqhpg","pricing_plan_id":"free"},{"bike_id":"ec7be4b2-4565-4584-9293-a48159da0572","system_id":"levelo_inurba_marseille","lat":43.32001,"lon":5.38161,"is_reserved":false,"is_disabled":false,"rental_uris":{"android":"levelo://app?vid=ec7be4b2-4565-4584-9293-a48159da0572","ios":"levelo://app?vid=ec7be4b2-4565-4584-9293-a48159da0572"},"vehicle_type_id":"4","last_reported":1702289325,"current_range_meters":5600,"station_id":"ce4bhr12rcd13ifvqhpg","pricing_plan_id":"free"},{"bike_id":"f5dc87db-1627-40f9-8d4d-6dfa629a504a","system_id":"levelo_inurba_marseille","lat":43.31356,"lon":5.38493,"is_reserved":false,"is_disabled":false,"rental_uris":{"android":"levelo://app?vid=f5dc87db-1627-40f9-8d4d-6dfa629a504a","ios":"levelo://app?vid=f5dc87db-1627-40f9-8d4d-6dfa629a504a"},"vehicle_type_id":"4","last_reported":1702289325,"current_range_meters":16800,"station_id":"ce4bgt92rcd13ifvqcf0","pricing_plan_id":"free"},{"bike_id":"f9d10347-675e-49b9-921d-eab24064062e","system_id":"levelo_inurba_marseille","lat":43.313571,"lon":5.384829,"is_reserved":false,"is_disabled":false,"rental_uris":{"android":"levelo://app?vid=f9d10347-675e-49b9-921d-eab24064062e","ios":"levelo://app?vid=f9d10347-675e-49b9-921d-eab24064062e"},"vehicle_type_id":"4","last_reported":1702289325,"current_range_meters":11200,"station_id":"ce4bgt92rcd13ifvqcf0","pricing_plan_id":"free"},{"bike_id":"fd794692-4f5d-4cd4-9730-360e1f74b26d","system_id":"levelo_inurba_marseille","lat":43.299724,"lon":5.371829,"is_reserved":false,"is_disabled":false,"rental_uris":{"android":"levelo://app?vid=fd794692-4f5d-4cd4-9730-360e1f74b26d","ios":"levelo://app?vid=fd794692-4f5d-4cd4-9730-360e1f74b26d"},"vehicle_type_id":"4","last_reported":1702289325,"current_range_meters":27200,"station_id":"ce4bgr92rcd13ifvqc7g","pricing_plan_id":"free"},{"bike_id":"f3a99383-07a0-4fcf-926e-8f6b78eb6a94","system_id":"levelo_inurba_marseille","lat":43.299724,"lon":5.371829,"is_reserved":false,"is_disabled":false,"rental_uris":{"android":"levelo://app?vid=f3a99383-07a0-4fcf-926e-8f6b78eb6a94","ios":"levelo://app?vid=f3a99383-07a0-4fcf-926e-8f6b78eb6a94"},"vehicle_type_id":"4","last_reported":1702289325,"current_range_meters":20400,"station_id":"ce4bgr92rcd13ifvqc7g","pricing_plan_id":"free"},{"bike_id":"3b4fb326-acc7-4766-9ed3-e3685ac41ad8","system_id":"levelo_inurba_marseille","lat":43.303046,"lon":5.368981,"is_reserved":false,"is_disabled":false,"rental_uris":{"android":"levelo://app?vid=3b4fb326-acc7-4766-9ed3-e3685ac41ad8","ios":"levelo://app?vid=3b4fb326-acc7-4766-9ed3-e3685ac41ad8"},"vehicle_type_id":"4","last_reported":1702289325,"current_range_meters":26800,"station_id":"ce4bgqh2rcd13ifvqc5g","pricing_plan_id":"free"},{"bike_id":"958ffa71-9863-4a3d-9622-357b41377cb5","system_id":"levelo_inurba_marseille","lat":43.305364,"lon":5.384119,"is_reserved":false,"is_disabled":false,"rental_uris":{"android":"levelo://app?vid=958ffa71-9863-4a3d-9622-357b41377cb5","ios":"levelo://app?vid=958ffa71-9863-4a3d-9622-357b41377cb5"},"vehicle_type_id":"4","last_reported":1702289325,"current_range_meters":15200,"station_id":"ce4bgg92rcd13ifvqb30","pricing_plan_id":"free"},{"bike_id":"8d1a07cb-160b-41e5-9ef6-aa20372c6a91","system_id":"levelo_inurba_marseille","lat":43.298433,"lon":5.362774,"is_reserved":false,"is_disabled":false,"rental_uris":{"android":"levelo://app?vid=8d1a07cb-160b-41e5-9ef6-aa20372c6a91","ios":"levelo://app?vid=8d1a07cb-160b-41e5-9ef6-aa20372c6a91"},"vehicle_type_id":"4","last_reported":1702289325,"current_range_meters":23600,"station_id":"ce4bgpp2rcd13ifvqc3g","pricing_plan_id":"free"},{"bike_id":"744c7b29-e0b3-498a-b0e8-d3004aceb3e5","system_id":"levelo_inurba_marseille","lat":43.298433,"lon":5.362774,"is_reserved":false,"is_disabled":false,"rental_uris":{"android":"levelo://app?vid=744c7b29-e0b3-498a-b0e8-d3004aceb3e5","ios":"levelo://app?vid=744c7b29-e0b3-498a-b0e8-d3004aceb3e5"},"vehicle_type_id":"4","last_reported":1702289325,"current_range_meters":32000,"station_id":"ce4bgpp2rcd13ifvqc3g","pricing_plan_id":"free"},{"bike_id":"855da1e0-b9a0-428b-bd73-d89ad0b8504b","system_id":"levelo_inurba_marseille","lat":43.298433,"lon":5.362774,"is_reserved":false,"is_disabled":false,"rental_uris":{"android":"levelo://app?vid=855da1e0-b9a0-428b-bd73-d89ad0b8504b","ios":"levelo://app?vid=855da1e0-b9a0-428b-bd73-d89ad0b8504b"},"vehicle_type_id":"4","last_reported":1702289325,"current_range_meters":20000,"station_id":"ce4bgpp2rcd13ifvqc3g","pricing_plan_id":"free"},{"bike_id":"bb0601e2-de87-48bc-b3d2-1b0b1d2dd198","system_id":"levelo_inurba_marseille","lat":43.298433,"lon":5.362774,"is_reserved":false,"is_disabled":false,"rental_uris":{"android":"levelo://app?vid=bb0601e2-de87-48bc-b3d2-1b0b1d2dd198","ios":"levelo://app?vid=bb0601e2-de87-48bc-b3d2-1b0b1d2dd198"},"vehicle_type_id":"4","last_reported":1702289325,"current_range_meters":28400,"station_id":"ce4bgpp2rcd13ifvqc3g","pricing_plan_id":"free"},{"bike_id":"6ac675f1-e0be-498c-ad2f-b742a949d4b0","system_id":"levelo_inurba_marseille","lat":43.298218,"lon":5.374416,"is_reserved":false,"is_disabled":false,"rental_uris":{"android":"levelo://app?vid=6ac675f1-e0be-498c-ad2f-b742a949d4b0","ios":"levelo://app?vid=6ac675f1-e0be-498c-ad2f-b742a949d4b0"},"vehicle_type_id":"4","last_reported":1702289325,"current_range_meters":0,"station_id":"","pricing_plan_id":"free"},{"bike_id":"9b0409c8-952e-43cd-8929-2c98668b8e00","system_id":"levelo_inurba_marseille","lat":43.328371,"lon":5.366909,"is_reserved":false,"is_disabled":false,"rental_uris":{"android":"levelo://app?vid=9b0409c8-952e-43cd-8929-2c98668b8e00","ios":"levelo://app?vid=9b0409c8-952e-43cd-8929-2c98668b8e00"},"vehicle_type_id":"4","last_reported":1702289325,"current_range_meters":14400,"station_id":"ce4bhs92rcd13ifvqi0g","pricing_plan_id":"free"},{"bike_id":"52d8b7ba-7505-413c-b898-efb75f14c13c","system_id":"levelo_inurba_marseille","lat":43.328371,"lon":5.366909,"is_reserved":false,"is_disabled":false,"rental_uris":{"android":"levelo://app?vid=52d8b7ba-7505-413c-b898-efb75f14c13c","ios":"levelo://app?vid=52d8b7ba-7505-413c-b898-efb75f14c13c"},"vehicle_type_id":"4","last_reported":1702289325,"current_range_meters":18000,"station_id":"ce4bhs92rcd13ifvqi0g","pricing_plan_id":"free"},{"bike_id":"a5589e38-f15a-46fe-9b37-27cf16ba9de2","system_id":"levelo_inurba_marseille","lat":43.328368,"lon":5.36671,"is_reserved":false,"is_disabled":false,"rental_uris":{"android":"levelo://app?vid=a5589e38-f15a-46fe-9b37-27cf16ba9de2","ios":"levelo://app?vid=a5589e38-f15a-46fe-9b37-27cf16ba9de2"},"vehicle_type_id":"4","last_reported":1702289325,"current_range_meters":20000,"station_id":"ce4bhs92rcd13ifvqi0g","pricing_plan_id":"free"},{"bike_id":"e7525b05-ff7e-478e-9199-d5bcf0bd722e","system_id":"levelo_inurba_marseille","lat":43.296131,"lon":5.370791,"is_reserved":false,"is_disabled":false,"rental_uris":{"android":"levelo://app?vid=e7525b05-ff7e-478e-9199-d5bcf0bd722e","ios":"levelo://app?vid=e7525b05-ff7e-478e-9199-d5bcf0bd722e"},"vehicle_type_id":"4","last_reported":1702289325,"current_range_meters":28000,"station_id":"ce4bgnh2rcd13ifvqc0g","pricing_plan_id":"free"},{"bike_id":"bc9c758e-9e43-4e6f-9c13-721ff6f1f8ee","system_id":"levelo_inurba_marseille","lat":43.296935,"lon":5.376544,"is_reserved":false,"is_disabled":false,"rental_uris":{"android":"levelo://app?vid=bc9c758e-9e43-4e6f-9c13-721ff6f1f8ee","ios":"levelo://app?vid=bc9c758e-9e43-4e6f-9c13-721ff6f1f8ee"},"vehicle_type_id":"4","last_reported":1702289325,"current_range_meters":6800,"station_id":"ce4bgkh2rcd13ifvqbl0","pricing_plan_id":"free"},{"bike_id":"2fec7977-8c07-49bb-bd9f-9e5916f750eb","system_id":"levelo_inurba_marseille","lat":43.309589,"lon":5.390258,"is_reserved":false,"is_disabled":false,"rental_uris":{"android":"levelo://app?vid=2fec7977-8c07-49bb-bd9f-9e5916f750eb","ios":"levelo://app?vid=2fec7977-8c07-49bb-bd9f-9e5916f750eb"},"vehicle_type_id":"4","last_reported":1702289325,"current_range_meters":22400,"station_id":"ce4bgup2rcd13ifvqco0","pricing_plan_id":"free"},{"bike_id":"02420765-3270-4b17-99f9-dd980c5d4e20","system_id":"levelo_inurba_marseille","lat":43.304274,"lon":5.388873,"is_reserved":false,"is_disabled":false,"rental_uris":{"android":"levelo://app?vid=02420765-3270-4b17-99f9-dd980c5d4e20","ios":"levelo://app?vid=02420765-3270-4b17-99f9-dd980c5d4e20"},"vehicle_type_id":"4","last_reported":1702289325,"current_range_meters":28000,"station_id":"ce4bgk12rcd13ifvqbi0","pricing_plan_id":"free"},{"bike_id":"77a6c46d-d898-4e4f-8846-efa91689c7f0","system_id":"levelo_inurba_marseille","lat":43.295484,"lon":5.379233,"is_reserved":false,"is_disabled":false,"rental_uris":{"android":"levelo://app?vid=77a6c46d-d898-4e4f-8846-efa91689c7f0","ios":"levelo://app?vid=77a6c46d-d898-4e4f-8846-efa91689c7f0"},"vehicle_type_id":"4","last_reported":1702289325,"current_range_meters":0,"station_id":"","pricing_plan_id":"free"},{"bike_id":"4f77c2d8-dd44-42f2-b076-21d9759e8170","system_id":"levelo_inurba_marseille","lat":43.293259,"lon":5.371586,"is_reserved":false,"is_disabled":false,"rental_uris":{"android":"levelo://app?vid=4f77c2d8-dd44-42f2-b076-21d9759e8170","ios":"levelo://app?vid=4f77c2d8-dd44-42f2-b076-21d9759e8170"},"vehicle_type_id":"4","last_reported":1702289325,"current_range_meters":26000,"station_id":"ce4bgh92rcd13ifvqb40","pricing_plan_id":"free"},{"bike_id":"c7e4b11c-f66e-4c79-9bdf-c9135e0a789a","system_id":"levelo_inurba_marseille","lat":43.292663,"lon":5.376394,"is_reserved":false,"is_disabled":false,"rental_uris":{"android":"levelo://app?vid=c7e4b11c-f66e-4c79-9bdf-c9135e0a789a","ios":"levelo://app?vid=c7e4b11c-f66e-4c79-9bdf-c9135e0a789a"},"vehicle_type_id":"4","last_reported":1702289325,"current_range_meters":12800,"station_id":"ce4bgi12rcd13ifvqb80","pricing_plan_id":"free"},{"bike_id":"de10b7d9-910d-4783-98ea-dee5b8fa02d9","system_id":"levelo_inurba_marseille","lat":43.292311,"lon":5.360731,"is_reserved":false,"is_disabled":false,"rental_uris":{"android":"levelo://app?vid=de10b7d9-910d-4783-98ea-dee5b8fa02d9","ios":"levelo://app?vid=de10b7d9-910d-4783-98ea-dee5b8fa02d9"},"vehicle_type_id":"4","last_reported":1702289325,"current_range_meters":18000,"station_id":"ce4bhbh2rcd13ifvqeqg","pricing_plan_id":"free"},{"bike_id":"7c59e720-43bc-47b7-9390-a83e26794fdc","system_id":"levelo_inurba_marseille","lat":43.313291,"lon":5.396838,"is_reserved":false,"is_disabled":false,"rental_uris":{"android":"levelo://app?vid=7c59e720-43bc-47b7-9390-a83e26794fdc","ios":"levelo://app?vid=7c59e720-43bc-47b7-9390-a83e26794fdc"},"vehicle_type_id":"4","last_reported":1702289325,"current_range_meters":11600,"station_id":"ce4bgvp2rcd13ifvqcu0","pricing_plan_id":"free"},{"bike_id":"ccce72d5-11b3-4f81-a2ad-d67f6554f7e6","system_id":"levelo_inurba_marseille","lat":43.294162,"lon":5.386292,"is_reserved":false,"is_disabled":false,"rental_uris":{"android":"levelo://app?vid=ccce72d5-11b3-4f81-a2ad-d67f6554f7e6","ios":"levelo://app?vid=ccce72d5-11b3-4f81-a2ad-d67f6554f7e6"},"vehicle_type_id":"4","last_reported":1702289325,"current_range_meters":5600,"station_id":"ce4bh2h2rcd13ifvqdh0","pricing_plan_id":"free"},{"bike_id":"0566fe0c-ce02-4ea7-81bc-23aab55a7edb","system_id":"levelo_inurba_marseille","lat":43.289184,"lon":5.366408,"is_reserved":false,"is_disabled":false,"rental_uris":{"android":"levelo://app?vid=0566fe0c-ce02-4ea7-81bc-23aab55a7edb","ios":"levelo://app?vid=0566fe0c-ce02-4ea7-81bc-23aab55a7edb"},"vehicle_type_id":"4","last_reported":1702289325,"current_range_meters":26800,"station_id":"ce4bhap2rcd13ifvqek0","pricing_plan_id":"free"},{"bike_id":"1301be43-cefa-4f13-ad20-5fa8f15bf9a8","system_id":"levelo_inurba_marseille","lat":43.290161,"lon":5.375651,"is_reserved":false,"is_disabled":false,"rental_uris":{"android":"levelo://app?vid=1301be43-cefa-4f13-ad20-5fa8f15bf9a8","ios":"levelo://app?vid=1301be43-cefa-4f13-ad20-5fa8f15bf9a8"},"vehicle_type_id":"4","last_reported":1702289325,"current_range_meters":6400,"station_id":"","pricing_plan_id":"free"},{"bike_id":"a02a1b20-1fb1-4951-988a-77389649024d","system_id":"levelo_inurba_marseille","lat":43.289259,"lon":5.366364,"is_reserved":false,"is_disabled":false,"rental_uris":{"android":"levelo://app?vid=a02a1b20-1fb1-4951-988a-77389649024d","ios":"levelo://app?vid=a02a1b20-1fb1-4951-988a-77389649024d"},"vehicle_type_id":"4","last_reported":1702289325,"current_range_meters":4800,"station_id":"","pricing_plan_id":"free"},{"bike_id":"d5829958-9218-45bb-baf4-807f4a0bbbe0","system_id":"levelo_inurba_marseille","lat":43.290995,"lon":5.381361,"is_reserved":false,"is_disabled":false,"rental_uris":{"android":"levelo://app?vid=d5829958-9218-45bb-baf4-807f4a0bbbe0","ios":"levelo://app?vid=d5829958-9218-45bb-baf4-807f4a0bbbe0"},"vehicle_type_id":"4","last_reported":1702289325,"current_range_meters":18800,"station_id":"ce4bh512rcd13ifvqe2g","pricing_plan_id":"free"},{"bike_id":"6568f984-7c2d-4bcc-8db7-69ff95afd0eb","system_id":"levelo_inurba_marseille","lat":43.29022,"lon":5.38132,"is_reserved":false,"is_disabled":false,"rental_uris":{"android":"levelo://app?vid=6568f984-7c2d-4bcc-8db7-69ff95afd0eb","ios":"levelo://app?vid=6568f984-7c2d-4bcc-8db7-69ff95afd0eb"},"vehicle_type_id":"4","last_reported":1702289325,"current_range_meters":0,"station_id":"ce4bh4p2rcd13ifvqe1g","pricing_plan_id":"free"},{"bike_id":"e05929bf-4dbf-430b-86d4-719ec431df8e","system_id":"levelo_inurba_marseille","lat":43.2885,"lon":5.35848,"is_reserved":false,"is_disabled":false,"rental_uris":{"android":"levelo://app?vid=e05929bf-4dbf-430b-86d4-719ec431df8e","ios":"levelo://app?vid=e05929bf-4dbf-430b-86d4-719ec431df8e"},"vehicle_type_id":"4","last_reported":1702289325,"current_range_meters":0,"station_id":"ce4bhb12rcd13ifvqem0","pricing_plan_id":"free"},{"bike_id":"ca553ebf-18d5-41a1-ab14-02432a8a3b2e","system_id":"levelo_inurba_marseille","lat":43.33749,"lon":5.37445,"is_reserved":false,"is_disabled":false,"rental_uris":{"android":"levelo://app?vid=ca553ebf-18d5-41a1-ab14-02432a8a3b2e","ios":"levelo://app?vid=ca553ebf-18d5-41a1-ab14-02432a8a3b2e"},"vehicle_type_id":"4","last_reported":1702289325,"current_range_meters":7200,"station_id":"","pricing_plan_id":"free"},{"bike_id":"af660be4-07c0-4fd9-9c53-b84838f0a60a","system_id":"levelo_inurba_marseille","lat":43.309371,"lon":5.401449,"is_reserved":false,"is_disabled":false,"rental_uris":{"android":"levelo://app?vid=af660be4-07c0-4fd9-9c53-b84838f0a60a","ios":"levelo://app?vid=af660be4-07c0-4fd9-9c53-b84838f0a60a"},"vehicle_type_id":"4","last_reported":1702289325,"current_range_meters":3600,"station_id":"ce4bgvp2rcd13ifvqct0","pricing_plan_id":"free"},{"bike_id":"16a4eb9d-de1f-46e2-b8bf-31e37944ec8e","system_id":"levelo_inurba_marseille","lat":43.295194,"lon":5.39397,"is_reserved":false,"is_disabled":false,"rental_uris":{"android":"levelo://app?vid=16a4eb9d-de1f-46e2-b8bf-31e37944ec8e","ios":"levelo://app?vid=16a4eb9d-de1f-46e2-b8bf-31e37944ec8e"},"vehicle_type_id":"4","last_reported":1702289325,"current_range_meters":0,"station_id":"ce4bh292rcd13ifvqdf0","pricing_plan_id":"free"},{"bike_id":"c63b3e81-d9ac-4ee4-bfb9-c98dd71ce019","system_id":"levelo_inurba_marseille","lat":43.302759,"lon":5.400793,"is_reserved":false,"is_disabled":false,"rental_uris":{"android":"levelo://app?vid=c63b3e81-d9ac-4ee4-bfb9-c98dd71ce019","ios":"levelo://app?vid=c63b3e81-d9ac-4ee4-bfb9-c98dd71ce019"},"vehicle_type_id":"4","last_reported":1702289325,"current_range_meters":28000,"station_id":"ce4bgvh2rcd13ifvqcs0","pricing_plan_id":"free"},{"bike_id":"7dc88a93-bfbd-42e7-b3be-7aec77890104","system_id":"levelo_inurba_marseille","lat":43.28615,"lon":5.351057,"is_reserved":false,"is_disabled":false,"rental_uris":{"android":"levelo://app?vid=7dc88a93-bfbd-42e7-b3be-7aec77890104","ios":"levelo://app?vid=7dc88a93-bfbd-42e7-b3be-7aec77890104"},"vehicle_type_id":"4","last_reported":1702289325,"current_range_meters":20400,"station_id":"ce4bhch2rcd13ifvqeug","pricing_plan_id":"free"},{"bike_id":"c0a9df08-4107-43e8-b17e-5a2f395e32a2","system_id":"levelo_inurba_marseille","lat":43.284793,"lon":5.384113,"is_reserved":false,"is_disabled":false,"rental_uris":{"android":"levelo://app?vid=c0a9df08-4107-43e8-b17e-5a2f395e32a2","ios":"levelo://app?vid=c0a9df08-4107-43e8-b17e-5a2f395e32a2"},"vehicle_type_id":"4","last_reported":1702289325,"current_range_meters":25600,"station_id":"ce4bh512rcd13ifvqe3g","pricing_plan_id":"free"},{"bike_id":"1a6179a1-f808-4797-a3fd-d62f574579b5","system_id":"levelo_inurba_marseille","lat":43.28861,"lon":5.392945,"is_reserved":false,"is_disabled":false,"rental_uris":{"android":"levelo://app?vid=1a6179a1-f808-4797-a3fd-d62f574579b5","ios":"levelo://app?vid=1a6179a1-f808-4797-a3fd-d62f574579b5"},"vehicle_type_id":"4","last_reported":1702289325,"current_range_meters":30400,"station_id":"ce4bh2p2rcd13ifvqdi0","pricing_plan_id":"free"},{"bike_id":"372ec93b-5cb9-4bfb-a8e9-35da4926a686","system_id":"levelo_inurba_marseille","lat":43.297946,"lon":5.404063,"is_reserved":false,"is_disabled":false,"rental_uris":{"android":"levelo://app?vid=372ec93b-5cb9-4bfb-a8e9-35da4926a686","ios":"levelo://app?vid=372ec93b-5cb9-4bfb-a8e9-35da4926a686"},"vehicle_type_id":"4","last_reported":1702289325,"current_range_meters":4800,"station_id":"ce4bh112rcd13ifvqd90","pricing_plan_id":"free"},{"bike_id":"9ae63fb2-eed1-4fc2-843d-179bddb3389e","system_id":"levelo_inurba_marseille","lat":43.284219,"lon":5.3497,"is_reserved":false,"is_disabled":false,"rental_uris":{"android":"levelo://app?vid=9ae63fb2-eed1-4fc2-843d-179bddb3389e","ios":"levelo://app?vid=9ae63fb2-eed1-4fc2-843d-179bddb3389e"},"vehicle_type_id":"4","last_reported":1702289325,"current_range_meters":5200,"station_id":"ce4bhbh2rcd13ifvqepg","pricing_plan_id":"free"},{"bike_id":"71832a3d-0622-48cd-b680-ceba45de88cb","system_id":"levelo_inurba_marseille","lat":43.292724,"lon":5.401131,"is_reserved":false,"is_disabled":false,"rental_uris":{"android":"levelo://app?vid=71832a3d-0622-48cd-b680-ceba45de88cb","ios":"levelo://app?vid=71832a3d-0622-48cd-b680-ceba45de88cb"},"vehicle_type_id":"4","last_reported":1702289325,"current_range_meters":4000,"station_id":"ce4bh312rcd13ifvqdk0","pricing_plan_id":"free"},{"bike_id":"b91fae84-eb25-4dfe-9a9d-795c674defae","system_id":"levelo_inurba_marseille","lat":43.290412,"lon":5.399633,"is_reserved":false,"is_disabled":false,"rental_uris":{"android":"levelo://app?vid=b91fae84-eb25-4dfe-9a9d-795c674defae","ios":"levelo://app?vid=b91fae84-eb25-4dfe-9a9d-795c674defae"},"vehicle_type_id":"4","last_reported":1702289325,"current_range_meters":22800,"station_id":"ce4bh392rcd13ifvqdm0","pricing_plan_id":"free"},{"bike_id":"a7ad5c5c-3f74-47e9-b80e-195388d89706","system_id":"levelo_inurba_marseille","lat":43.29041,"lon":5.399634,"is_reserved":false,"is_disabled":false,"rental_uris":{"android":"levelo://app?vid=a7ad5c5c-3f74-47e9-b80e-195388d89706","ios":"levelo://app?vid=a7ad5c5c-3f74-47e9-b80e-195388d89706"},"vehicle_type_id":"4","last_reported":1702289325,"current_range_meters":15600,"station_id":"ce4bh392rcd13ifvqdm0","pricing_plan_id":"free"},{"bike_id":"d3f83f09-0a54-4bfc-96c3-ec52d61842b7","system_id":"levelo_inurba_marseille","lat":43.29032,"lon":5.399753,"is_reserved":false,"is_disabled":false,"rental_uris":{"android":"levelo://app?vid=d3f83f09-0a54-4bfc-96c3-ec52d61842b7","ios":"levelo://app?vid=d3f83f09-0a54-4bfc-96c3-ec52d61842b7"},"vehicle_type_id":"4","last_reported":1702289325,"current_range_meters":26000,"station_id":"ce4bh392rcd13ifvqdm0","pricing_plan_id":"free"},{"bike_id":"0683270c-ad63-4e1e-97d4-9da543f030ce","system_id":"levelo_inurba_marseille","lat":43.281044,"lon":5.378308,"is_reserved":false,"is_disabled":false,"rental_uris":{"android":"levelo://app?vid=0683270c-ad63-4e1e-97d4-9da543f030ce","ios":"levelo://app?vid=0683270c-ad63-4e1e-97d4-9da543f030ce"},"vehicle_type_id":"4","last_reported":1702289325,"current_range_meters":15200,"station_id":"ce4bha12rcd13ifvqee0","pricing_plan_id":"free"},{"bike_id":"3f6b2545-8ded-4b4f-b541-298ec433af35","system_id":"levelo_inurba_marseille","lat":43.279087,"lon":5.380114,"is_reserved":false,"is_disabled":false,"rental_uris":{"android":"levelo://app?vid=3f6b2545-8ded-4b4f-b541-298ec433af35","ios":"levelo://app?vid=3f6b2545-8ded-4b4f-b541-298ec433af35"},"vehicle_type_id":"4","last_reported":1702289325,"current_range_meters":27200,"station_id":"ce4bhf92rcd13ifvqf50","pricing_plan_id":"free"},{"bike_id":"1c1b2a9c-5b18-4115-a6f7-57109aabf22c","system_id":"levelo_inurba_marseille","lat":43.320045,"lon":5.415048,"is_reserved":false,"is_disabled":false,"rental_uris":{"android":"levelo://app?vid=1c1b2a9c-5b18-4115-a6f7-57109aabf22c","ios":"levelo://app?vid=1c1b2a9c-5b18-4115-a6f7-57109aabf22c"},"vehicle_type_id":"4","last_reported":1702289325,"current_range_meters":18000,"station_id":"ce4bhq92rcd13ifvqhkg","pricing_plan_id":"free"},{"bike_id":"62a4a464-7474-4c83-8137-136f0ce07d11","system_id":"levelo_inurba_marseille","lat":43.279742,"lon":5.38744,"is_reserved":false,"is_disabled":false,"rental_uris":{"android":"levelo://app?vid=62a4a464-7474-4c83-8137-136f0ce07d11","ios":"levelo://app?vid=62a4a464-7474-4c83-8137-136f0ce07d11"},"vehicle_type_id":"4","last_reported":1702289325,"current_range_meters":16400,"station_id":"ce4bhg12rcd13ifvqf80","pricing_plan_id":"free"},{"bike_id":"83046fc6-7622-4ded-b898-f05077013c5a","system_id":"levelo_inurba_marseille","lat":43.320045,"lon":5.415046,"is_reserved":false,"is_disabled":false,"rental_uris":{"android":"levelo://app?vid=83046fc6-7622-4ded-b898-f05077013c5a","ios":"levelo://app?vid=83046fc6-7622-4ded-b898-f05077013c5a"},"vehicle_type_id":"4","last_reported":1702289325,"current_range_meters":26400,"station_id":"ce4bhq92rcd13ifvqhkg","pricing_plan_id":"free"},{"bike_id":"090ad51e-0df4-4bcd-9a1d-84e5a006fd0b","system_id":"levelo_inurba_marseille","lat":43.325233,"lon":5.414318,"is_reserved":false,"is_disabled":false,"rental_uris":{"android":"levelo://app?vid=090ad51e-0df4-4bcd-9a1d-84e5a006fd0b","ios":"levelo://app?vid=090ad51e-0df4-4bcd-9a1d-84e5a006fd0b"},"vehicle_type_id":"4","last_reported":1702289325,"current_range_meters":30400,"station_id":"ce4bhq12rcd13ifvqhhg","pricing_plan_id":"free"},{"bike_id":"30f63a07-f257-4411-8177-a5c608c48cd1","system_id":"levelo_inurba_marseille","lat":43.325233,"lon":5.414318,"is_reserved":false,"is_disabled":false,"rental_uris":{"android":"levelo://app?vid=30f63a07-f257-4411-8177-a5c608c48cd1","ios":"levelo://app?vid=30f63a07-f257-4411-8177-a5c608c48cd1"},"vehicle_type_id":"4","last_reported":1702289325,"current_range_meters":22400,"station_id":"ce4bhq12rcd13ifvqhhg","pricing_plan_id":"free"},{"bike_id":"0cae0b54-1aa1-4520-90ce-c404c1949f8a","system_id":"levelo_inurba_marseille","lat":43.292569,"lon":5.409107,"is_reserved":false,"is_disabled":false,"rental_uris":{"android":"levelo://app?vid=0cae0b54-1aa1-4520-90ce-c404c1949f8a","ios":"levelo://app?vid=0cae0b54-1aa1-4520-90ce-c404c1949f8a"},"vehicle_type_id":"4","last_reported":1702289325,"current_range_meters":26000,"station_id":"ce4bh192rcd13ifvqdc0","pricing_plan_id":"free"},{"bike_id":"c3c9af5b-4671-4064-8067-d2cdd8271060","system_id":"levelo_inurba_marseille","lat":43.27621,"lon":5.36099,"is_reserved":false,"is_disabled":false,"rental_uris":{"android":"levelo://app?vid=c3c9af5b-4671-4064-8067-d2cdd8271060","ios":"levelo://app?vid=c3c9af5b-4671-4064-8067-d2cdd8271060"},"vehicle_type_id":"4","last_reported":1702289325,"current_range_meters":26800,"station_id":"","pricing_plan_id":"free"},{"bike_id":"34c8f290-e444-432b-92ad-e54877e5a127","system_id":"levelo_inurba_marseille","lat":43.325243,"lon":5.414326,"is_reserved":false,"is_disabled":false,"rental_uris":{"android":"levelo://app?vid=34c8f290-e444-432b-92ad-e54877e5a127","ios":"levelo://app?vid=34c8f290-e444-432b-92ad-e54877e5a127"},"vehicle_type_id":"4","last_reported":1702289325,"current_range_meters":26800,"station_id":"ce4bhq12rcd13ifvqhhg","pricing_plan_id":"free"},{"bike_id":"20f997ed-6738-4b4b-92c8-af1d150e8337","system_id":"levelo_inurba_marseille","lat":43.303837,"lon":5.418724,"is_reserved":false,"is_disabled":false,"rental_uris":{"android":"levelo://app?vid=20f997ed-6738-4b4b-92c8-af1d150e8337","ios":"levelo://app?vid=20f997ed-6738-4b4b-92c8-af1d150e8337"},"vehicle_type_id":"4","last_reported":1702289325,"current_range_meters":30400,"station_id":"ce4bhop2rcd13ifvqh7g","pricing_plan_id":"free"},{"bike_id":"3c02ac1d-513a-4816-9b08-9c1b4099cd9a","system_id":"levelo_inurba_marseille","lat":43.303837,"lon":5.418724,"is_reserved":false,"is_disabled":false,"rental_uris":{"android":"levelo://app?vid=3c02ac1d-513a-4816-9b08-9c1b4099cd9a","ios":"levelo://app?vid=3c02ac1d-513a-4816-9b08-9c1b4099cd9a"},"vehicle_type_id":"4","last_reported":1702289325,"current_range_meters":30400,"station_id":"ce4bhop2rcd13ifvqh7g","pricing_plan_id":"free"},{"bike_id":"b0cc7a84-2039-42ee-86ae-9b38d5a56a70","system_id":"levelo_inurba_marseille","lat":43.303837,"lon":5.418724,"is_reserved":false,"is_disabled":false,"rental_uris":{"android":"levelo://app?vid=b0cc7a84-2039-42ee-86ae-9b38d5a56a70","ios":"levelo://app?vid=b0cc7a84-2039-42ee-86ae-9b38d5a56a70"},"vehicle_type_id":"4","last_reported":1702289325,"current_range_meters":12400,"station_id":"ce4bhop2rcd13ifvqh7g","pricing_plan_id":"free"},{"bike_id":"1500bf86-9326-4d9d-85b1-9226e9f542d0","system_id":"levelo_inurba_marseille","lat":43.273609,"lon":5.362708,"is_reserved":false,"is_disabled":false,"rental_uris":{"android":"levelo://app?vid=1500bf86-9326-4d9d-85b1-9226e9f542d0","ios":"levelo://app?vid=1500bf86-9326-4d9d-85b1-9226e9f542d0"},"vehicle_type_id":"4","last_reported":1702289325,"current_range_meters":1200,"station_id":"ce4bhbh2rcd13ifvqeo0","pricing_plan_id":"free"},{"bike_id":"f37cef48-ab19-4e94-9013-b47c90546d34","system_id":"levelo_inurba_marseille","lat":43.279952,"lon":5.400085,"is_reserved":false,"is_disabled":false,"rental_uris":{"android":"levelo://app?vid=f37cef48-ab19-4e94-9013-b47c90546d34","ios":"levelo://app?vid=f37cef48-ab19-4e94-9013-b47c90546d34"},"vehicle_type_id":"4","last_reported":1702289325,"current_range_meters":28000,"station_id":"ce4bho92rcd13ifvqh4g","pricing_plan_id":"free"},{"bike_id":"b49195d1-5252-4b63-9ddd-c39017071e00","system_id":"levelo_inurba_marseille","lat":43.27639,"lon":5.39485,"is_reserved":false,"is_disabled":false,"rental_uris":{"android":"levelo://app?vid=b49195d1-5252-4b63-9ddd-c39017071e00","ios":"levelo://app?vid=b49195d1-5252-4b63-9ddd-c39017071e00"},"vehicle_type_id":"4","last_reported":1702289325,"current_range_meters":14000,"station_id":"","pricing_plan_id":"free"},{"bike_id":"ad235382-e941-4cb1-91eb-24c4c771637d","system_id":"levelo_inurba_marseille","lat":43.310785,"lon":5.424305,"is_reserved":false,"is_disabled":false,"rental_uris":{"android":"levelo://app?vid=ad235382-e941-4cb1-91eb-24c4c771637d","ios":"levelo://app?vid=ad235382-e941-4cb1-91eb-24c4c771637d"},"vehicle_type_id":"4","last_reported":1702289325,"current_range_meters":27600,"station_id":"ce4bhp92rcd13ifvqhag","pricing_plan_id":"free"},{"bike_id":"91342207-93b5-4854-8160-d128f56d1c12","system_id":"levelo_inurba_marseille","lat":43.310785,"lon":5.424305,"is_reserved":false,"is_disabled":false,"rental_uris":{"android":"levelo://app?vid=91342207-93b5-4854-8160-d128f56d1c12","ios":"levelo://app?vid=91342207-93b5-4854-8160-d128f56d1c12"},"vehicle_type_id":"4","last_reported":1702289325,"current_range_meters":29600,"station_id":"ce4bhp92rcd13ifvqhag","pricing_plan_id":"free"},{"bike_id":"ebe88bc4-4dfe-4631-b98a-840334e7fcdb","system_id":"levelo_inurba_marseille","lat":43.31723,"lon":5.42405,"is_reserved":false,"is_disabled":false,"rental_uris":{"android":"levelo://app?vid=ebe88bc4-4dfe-4631-b98a-840334e7fcdb","ios":"levelo://app?vid=ebe88bc4-4dfe-4631-b98a-840334e7fcdb"},"vehicle_type_id":"4","last_reported":1702289325,"current_range_meters":10000,"station_id":"ce4bhp92rcd13ifvqhbg","pricing_plan_id":"free"},{"bike_id":"2aaa2228-397b-4795-ae59-091fa73e41a6","system_id":"levelo_inurba_marseille","lat":43.340804,"lon":5.410219,"is_reserved":false,"is_disabled":false,"rental_uris":{"android":"levelo://app?vid=2aaa2228-397b-4795-ae59-091fa73e41a6","ios":"levelo://app?vid=2aaa2228-397b-4795-ae59-091fa73e41a6"},"vehicle_type_id":"4","last_reported":1702289325,"current_range_meters":24400,"station_id":"ce4bhqh2rcd13ifvqhlg","pricing_plan_id":"free"},{"bike_id":"219cf770-1390-427f-84e5-b1538f070ad9","system_id":"levelo_inurba_marseille","lat":43.273129,"lon":5.390725,"is_reserved":false,"is_disabled":false,"rental_uris":{"android":"levelo://app?vid=219cf770-1390-427f-84e5-b1538f070ad9","ios":"levelo://app?vid=219cf770-1390-427f-84e5-b1538f070ad9"},"vehicle_type_id":"4","last_reported":1702289325,"current_range_meters":29200,"station_id":"ce4bhgp2rcd13ifvqfe0","pricing_plan_id":"free"},{"bike_id":"47c25ca4-7986-4c81-b15c-e6532d19a717","system_id":"levelo_inurba_marseille","lat":43.274103,"lon":5.394016,"is_reserved":false,"is_disabled":false,"rental_uris":{"android":"levelo://app?vid=47c25ca4-7986-4c81-b15c-e6532d19a717","ios":"levelo://app?vid=47c25ca4-7986-4c81-b15c-e6532d19a717"},"vehicle_type_id":"4","last_reported":1702289325,"current_range_meters":26000,"station_id":"ce4bhdp2rcd13ifvqf20","pricing_plan_id":"free"},{"bike_id":"474b8cec-a86e-4cd9-8073-90a653baa0bb","system_id":"levelo_inurba_marseille","lat":43.278128,"lon":5.407195,"is_reserved":false,"is_disabled":false,"rental_uris":{"android":"levelo://app?vid=474b8cec-a86e-4cd9-8073-90a653baa0bb","ios":"levelo://app?vid=474b8cec-a86e-4cd9-8073-90a653baa0bb"},"vehicle_type_id":"4","last_reported":1702289325,"current_range_meters":27200,"station_id":"ce4bhnh2rcd13ifvqgtg","pricing_plan_id":"free"},{"bike_id":"8952a070-c814-4c51-8528-2cc93f16c2ec","system_id":"levelo_inurba_marseille","lat":43.269467,"lon":5.386439,"is_reserved":false,"is_disabled":false,"rental_uris":{"android":"levelo://app?vid=8952a070-c814-4c51-8528-2cc93f16c2ec","ios":"levelo://app?vid=8952a070-c814-4c51-8528-2cc93f16c2ec"},"vehicle_type_id":"4","last_reported":1702289325,"current_range_meters":18400,"station_id":"ce4bhh92rcd13ifvqfh0","pricing_plan_id":"free"},{"bike_id":"31b1be08-7dfb-4d1c-add4-b73f898015db","system_id":"levelo_inurba_marseille","lat":43.269467,"lon":5.386439,"is_reserved":false,"is_disabled":false,"rental_uris":{"android":"levelo://app?vid=31b1be08-7dfb-4d1c-add4-b73f898015db","ios":"levelo://app?vid=31b1be08-7dfb-4d1c-add4-b73f898015db"},"vehicle_type_id":"4","last_reported":1702289325,"current_range_meters":26400,"station_id":"ce4bhh92rcd13ifvqfh0","pricing_plan_id":"free"},{"bike_id":"cd872775-ca78-4a76-9b0e-640544a28fee","system_id":"levelo_inurba_marseille","lat":43.279465,"lon":5.410561,"is_reserved":false,"is_disabled":false,"rental_uris":{"android":"levelo://app?vid=cd872775-ca78-4a76-9b0e-640544a28fee","ios":"levelo://app?vid=cd872775-ca78-4a76-9b0e-640544a28fee"},"vehicle_type_id":"4","last_reported":1702289325,"current_range_meters":4000,"station_id":"ce4bhnp2rcd13ifvqh0g","pricing_plan_id":"free"},{"bike_id":"c639dfa5-99a2-4ae5-bf54-1b1c96687262","system_id":"levelo_inurba_marseille","lat":43.32544,"lon":5.429538,"is_reserved":false,"is_disabled":false,"rental_uris":{"android":"levelo://app?vid=c639dfa5-99a2-4ae5-bf54-1b1c96687262","ios":"levelo://app?vid=c639dfa5-99a2-4ae5-bf54-1b1c96687262"},"vehicle_type_id":"4","last_reported":1702289325,"current_range_meters":2400,"station_id":"","pricing_plan_id":"free"},{"bike_id":"eaf5936c-ab18-4a7a-9d1f-0736eb9cbe78","system_id":"levelo_inurba_marseille","lat":43.26681,"lon":5.382694,"is_reserved":false,"is_disabled":false,"rental_uris":{"android":"levelo://app?vid=eaf5936c-ab18-4a7a-9d1f-0736eb9cbe78","ios":"levelo://app?vid=eaf5936c-ab18-4a7a-9d1f-0736eb9cbe78"},"vehicle_type_id":"4","last_reported":1702289325,"current_range_meters":23200,"station_id":"ce4bhg92rcd13ifvqf90","pricing_plan_id":"free"},{"bike_id":"09776415-2602-48eb-98f2-5d29a509950a","system_id":"levelo_inurba_marseille","lat":43.26681,"lon":5.382694,"is_reserved":false,"is_disabled":false,"rental_uris":{"android":"levelo://app?vid=09776415-2602-48eb-98f2-5d29a509950a","ios":"levelo://app?vid=09776415-2602-48eb-98f2-5d29a509950a"},"vehicle_type_id":"4","last_reported":1702289325,"current_range_meters":14000,"station_id":"ce4bhg92rcd13ifvqf90","pricing_plan_id":"free"},{"bike_id":"326187b7-c618-447b-a1f4-93941f43eae5","system_id":"levelo_inurba_marseille","lat":43.26681,"lon":5.382694,"is_reserved":false,"is_disabled":false,"rental_uris":{"android":"levelo://app?vid=326187b7-c618-447b-a1f4-93941f43eae5","ios":"levelo://app?vid=326187b7-c618-447b-a1f4-93941f43eae5"},"vehicle_type_id":"4","last_reported":1702289325,"current_range_meters":28800,"station_id":"ce4bhg92rcd13ifvqf90","pricing_plan_id":"free"},{"bike_id":"91abda3c-c817-4e27-afad-9042cda3d690","system_id":"levelo_inurba_marseille","lat":43.27996,"lon":5.416624,"is_reserved":false,"is_disabled":false,"rental_uris":{"android":"levelo://app?vid=91abda3c-c817-4e27-afad-9042cda3d690","ios":"levelo://app?vid=91abda3c-c817-4e27-afad-9042cda3d690"},"vehicle_type_id":"4","last_reported":1702289325,"current_range_meters":4400,"station_id":"ce4bho12rcd13ifvqh1g","pricing_plan_id":"free"},{"bike_id":"b6001874-69ff-49da-8b06-e4e702b7d542","system_id":"levelo_inurba_marseille","lat":43.27996,"lon":5.416624,"is_reserved":false,"is_disabled":false,"rental_uris":{"android":"levelo://app?vid=b6001874-69ff-49da-8b06-e4e702b7d542","ios":"levelo://app?vid=b6001874-69ff-49da-8b06-e4e702b7d542"},"vehicle_type_id":"4","last_reported":1702289325,"current_range_meters":14400,"station_id":"ce4bho12rcd13ifvqh1g","pricing_plan_id":"free"},{"bike_id":"8b0c2cea-9ac1-4526-a904-26725d8488f2","system_id":"levelo_inurba_marseille","lat":43.26792,"lon":5.39409,"is_reserved":false,"is_disabled":false,"rental_uris":{"android":"levelo://app?vid=8b0c2cea-9ac1-4526-a904-26725d8488f2","ios":"levelo://app?vid=8b0c2cea-9ac1-4526-a904-26725d8488f2"},"vehicle_type_id":"4","last_reported":1702289325,"current_range_meters":25200,"station_id":"ce4bhh12rcd13ifvqfg0","pricing_plan_id":"free"},{"bike_id":"0057286e-59c0-4741-9ec6-3f01735be713","system_id":"levelo_inurba_marseille","lat":43.267966,"lon":5.393976,"is_reserved":false,"is_disabled":false,"rental_uris":{"android":"levelo://app?vid=0057286e-59c0-4741-9ec6-3f01735be713","ios":"levelo://app?vid=0057286e-59c0-4741-9ec6-3f01735be713"},"vehicle_type_id":"4","last_reported":1702289325,"current_range_meters":13600,"station_id":"ce4bhh12rcd13ifvqfg0","pricing_plan_id":"free"},{"bike_id":"e18e04bf-3378-451f-a6d5-76bfbb26361a","system_id":"levelo_inurba_marseille","lat":43.267966,"lon":5.393976,"is_reserved":false,"is_disabled":false,"rental_uris":{"android":"levelo://app?vid=e18e04bf-3378-451f-a6d5-76bfbb26361a","ios":"levelo://app?vid=e18e04bf-3378-451f-a6d5-76bfbb26361a"},"vehicle_type_id":"4","last_reported":1702289325,"current_range_meters":30800,"station_id":"ce4bhh12rcd13ifvqfg0","pricing_plan_id":"free"},{"bike_id":"6c9a7769-40d4-42dc-9b48-47769de74c91","system_id":"levelo_inurba_marseille","lat":43.2633,"lon":5.37675,"is_reserved":false,"is_disabled":false,"rental_uris":{"android":"levelo://app?vid=6c9a7769-40d4-42dc-9b48-47769de74c91","ios":"levelo://app?vid=6c9a7769-40d4-42dc-9b48-47769de74c91"},"vehicle_type_id":"4","last_reported":1702289325,"current_range_meters":13600,"station_id":"","pricing_plan_id":"free"},{"bike_id":"67767b0c-091f-4290-b5a6-2b7b144b8eb0","system_id":"levelo_inurba_marseille","lat":43.26567,"lon":5.39,"is_reserved":false,"is_disabled":false,"rental_uris":{"android":"levelo://app?vid=67767b0c-091f-4290-b5a6-2b7b144b8eb0","ios":"levelo://app?vid=67767b0c-091f-4290-b5a6-2b7b144b8eb0"},"vehicle_type_id":"4","last_reported":1702289325,"current_range_meters":23200,"station_id":"ce4bhe12rcd13ifvqf30","pricing_plan_id":"free"},{"bike_id":"4772c68d-96aa-4182-b657-19bf1d0de341","system_id":"levelo_inurba_marseille","lat":43.269425,"lon":5.402585,"is_reserved":false,"is_disabled":false,"rental_uris":{"android":"levelo://app?vid=4772c68d-96aa-4182-b657-19bf1d0de341","ios":"levelo://app?vid=4772c68d-96aa-4182-b657-19bf1d0de341"},"vehicle_type_id":"4","last_reported":1702289325,"current_range_meters":18400,"station_id":"","pricing_plan_id":"free"},{"bike_id":"287e9254-f263-4a4d-afd9-500f2b256a68","system_id":"levelo_inurba_marseille","lat":43.261782,"lon":5.374515,"is_reserved":false,"is_disabled":false,"rental_uris":{"android":"levelo://app?vid=287e9254-f263-4a4d-afd9-500f2b256a68","ios":"levelo://app?vid=287e9254-f263-4a4d-afd9-500f2b256a68"},"vehicle_type_id":"4","last_reported":1702289325,"current_range_meters":24800,"station_id":"ce4bhgp2rcd13ifvqfc0","pricing_plan_id":"free"},{"bike_id":"89ef1c57-fd5b-4fbe-bff7-f779267c7cf2","system_id":"levelo_inurba_marseille","lat":43.3171,"lon":5.43712,"is_reserved":false,"is_disabled":false,"rental_uris":{"android":"levelo://app?vid=89ef1c57-fd5b-4fbe-bff7-f779267c7cf2","ios":"levelo://app?vid=89ef1c57-fd5b-4fbe-bff7-f779267c7cf2"},"vehicle_type_id":"4","last_reported":1702289325,"current_range_meters":15200,"station_id":"ce4bhp92rcd13ifvqhcg","pricing_plan_id":"free"},{"bike_id":"9bf418d7-fce5-469f-a7af-db2b34f99337","system_id":"levelo_inurba_marseille","lat":43.271368,"lon":5.40928,"is_reserved":false,"is_disabled":false,"rental_uris":{"android":"levelo://app?vid=9bf418d7-fce5-469f-a7af-db2b34f99337","ios":"levelo://app?vid=9bf418d7-fce5-469f-a7af-db2b34f99337"},"vehicle_type_id":"4","last_reported":1702289325,"current_range_meters":15600,"station_id":"ce4bhl12rcd13ifvqgf0","pricing_plan_id":"free"},{"bike_id":"7ef0e874-4d14-4db6-97d3-23537a85b219","system_id":"levelo_inurba_marseille","lat":43.298768,"lon":5.43643,"is_reserved":false,"is_disabled":false,"rental_uris":{"android":"levelo://app?vid=7ef0e874-4d14-4db6-97d3-23537a85b219","ios":"levelo://app?vid=7ef0e874-4d14-4db6-97d3-23537a85b219"},"vehicle_type_id":"4","last_reported":1702289325,"current_range_meters":10800,"station_id":"ce4bhpp2rcd13ifvqhfg","pricing_plan_id":"free"},{"bike_id":"ef61d91f-bc01-4900-904b-302853f61387","system_id":"levelo_inurba_marseille","lat":43.2607,"lon":5.393983,"is_reserved":false,"is_disabled":false,"rental_uris":{"android":"levelo://app?vid=ef61d91f-bc01-4900-904b-302853f61387","ios":"levelo://app?vid=ef61d91f-bc01-4900-904b-302853f61387"},"vehicle_type_id":"4","last_reported":1702289325,"current_range_meters":31600,"station_id":"ce4bhh92rcd13ifvqfj0","pricing_plan_id":"free"},{"bike_id":"b37d935b-f1f0-4279-8c0a-2ee13ef10f3d","system_id":"levelo_inurba_marseille","lat":43.2607,"lon":5.393983,"is_reserved":false,"is_disabled":false,"rental_uris":{"android":"levelo://app?vid=b37d935b-f1f0-4279-8c0a-2ee13ef10f3d","ios":"levelo://app?vid=b37d935b-f1f0-4279-8c0a-2ee13ef10f3d"},"vehicle_type_id":"4","last_reported":1702289325,"current_range_meters":18400,"station_id":"ce4bhh92rcd13ifvqfj0","pricing_plan_id":"free"},{"bike_id":"fe655108-02f0-4138-9abf-33a3ee587e47","system_id":"levelo_inurba_marseille","lat":43.2607,"lon":5.393983,"is_reserved":false,"is_disabled":false,"rental_uris":{"android":"levelo://app?vid=fe655108-02f0-4138-9abf-33a3ee587e47","ios":"levelo://app?vid=fe655108-02f0-4138-9abf-33a3ee587e47"},"vehicle_type_id":"4","last_reported":1702289325,"current_range_meters":18400,"station_id":"ce4bhh92rcd13ifvqfj0","pricing_plan_id":"free"},{"bike_id":"6197b058-6735-429d-871e-0742eddb4a48","system_id":"levelo_inurba_marseille","lat":43.275028,"lon":5.424534,"is_reserved":false,"is_disabled":false,"rental_uris":{"android":"levelo://app?vid=6197b058-6735-429d-871e-0742eddb4a48","ios":"levelo://app?vid=6197b058-6735-429d-871e-0742eddb4a48"},"vehicle_type_id":"4","last_reported":1702289325,"current_range_meters":26800,"station_id":"ce4bhn92rcd13ifvqgrg","pricing_plan_id":"free"},{"bike_id":"f2194bfa-545d-4c36-9d1e-60af3e83191d","system_id":"levelo_inurba_marseille","lat":43.275028,"lon":5.424534,"is_reserved":false,"is_disabled":false,"rental_uris":{"android":"levelo://app?vid=f2194bfa-545d-4c36-9d1e-60af3e83191d","ios":"levelo://app?vid=f2194bfa-545d-4c36-9d1e-60af3e83191d"},"vehicle_type_id":"4","last_reported":1702289325,"current_range_meters":27200,"station_id":"ce4bhn92rcd13ifvqgrg","pricing_plan_id":"free"},{"bike_id":"ebde47f5-8adc-4ba0-989a-ac400eed876b","system_id":"levelo_inurba_marseille","lat":43.275028,"lon":5.424534,"is_reserved":false,"is_disabled":false,"rental_uris":{"android":"levelo://app?vid=ebde47f5-8adc-4ba0-989a-ac400eed876b","ios":"levelo://app?vid=ebde47f5-8adc-4ba0-989a-ac400eed876b"},"vehicle_type_id":"4","last_reported":1702289325,"current_range_meters":31600,"station_id":"ce4bhn92rcd13ifvqgrg","pricing_plan_id":"free"},{"bike_id":"3cc623f6-3385-4909-99f7-0630ef4d20ac","system_id":"levelo_inurba_marseille","lat":43.275028,"lon":5.424534,"is_reserved":false,"is_disabled":false,"rental_uris":{"android":"levelo://app?vid=3cc623f6-3385-4909-99f7-0630ef4d20ac","ios":"levelo://app?vid=3cc623f6-3385-4909-99f7-0630ef4d20ac"},"vehicle_type_id":"4","last_reported":1702289325,"current_range_meters":31600,"station_id":"ce4bhn92rcd13ifvqgrg","pricing_plan_id":"free"},{"bike_id":"be6b3807-e297-40d6-a1d7-c81c1105b896","system_id":"levelo_inurba_marseille","lat":43.255756,"lon":5.382303,"is_reserved":false,"is_disabled":false,"rental_uris":{"android":"levelo://app?vid=be6b3807-e297-40d6-a1d7-c81c1105b896","ios":"levelo://app?vid=be6b3807-e297-40d6-a1d7-c81c1105b896"},"vehicle_type_id":"4","last_reported":1702289325,"current_range_meters":25600,"station_id":"ce4bhih2rcd13ifvqfs0","pricing_plan_id":"free"},{"bike_id":"fb852c99-3dc2-4225-9168-d0df35f37256","system_id":"levelo_inurba_marseille","lat":43.259013,"lon":5.409301,"is_reserved":false,"is_disabled":false,"rental_uris":{"android":"levelo://app?vid=fb852c99-3dc2-4225-9168-d0df35f37256","ios":"levelo://app?vid=fb852c99-3dc2-4225-9168-d0df35f37256"},"vehicle_type_id":"4","last_reported":1702289325,"current_range_meters":20400,"station_id":"ce4bhm92rcd13ifvqglg","pricing_plan_id":"free"},{"bike_id":"741cbace-340a-4c4b-9a81-47976ee1ab69","system_id":"levelo_inurba_marseille","lat":43.25931,"lon":5.40898,"is_reserved":false,"is_disabled":false,"rental_uris":{"android":"levelo://app?vid=741cbace-340a-4c4b-9a81-47976ee1ab69","ios":"levelo://app?vid=741cbace-340a-4c4b-9a81-47976ee1ab69"},"vehicle_type_id":"4","last_reported":1702289325,"current_range_meters":22400,"station_id":"ce4bhm92rcd13ifvqglg","pricing_plan_id":"free"},{"bike_id":"d30e68c4-80e5-4190-b49e-6652180bc6fd","system_id":"levelo_inurba_marseille","lat":43.25934,"lon":5.40909,"is_reserved":false,"is_disabled":false,"rental_uris":{"android":"levelo://app?vid=d30e68c4-80e5-4190-b49e-6652180bc6fd","ios":"levelo://app?vid=d30e68c4-80e5-4190-b49e-6652180bc6fd"},"vehicle_type_id":"4","last_reported":1702289325,"current_range_meters":25200,"station_id":"ce4bhm92rcd13ifvqglg","pricing_plan_id":"free"},{"bike_id":"1b9ac663-062b-42c1-9068-08738207cdfb","system_id":"levelo_inurba_marseille","lat":43.25934,"lon":5.40911,"is_reserved":false,"is_disabled":false,"rental_uris":{"android":"levelo://app?vid=1b9ac663-062b-42c1-9068-08738207cdfb","ios":"levelo://app?vid=1b9ac663-062b-42c1-9068-08738207cdfb"},"vehicle_type_id":"4","last_reported":1702289325,"current_range_meters":19600,"station_id":"ce4bhm92rcd13ifvqglg","pricing_plan_id":"free"},{"bike_id":"b0bda5a5-15e7-4b51-8b6f-62cbd99b2ec2","system_id":"levelo_inurba_marseille","lat":43.259013,"lon":5.409301,"is_reserved":false,"is_disabled":false,"rental_uris":{"android":"levelo://app?vid=b0bda5a5-15e7-4b51-8b6f-62cbd99b2ec2","ios":"levelo://app?vid=b0bda5a5-15e7-4b51-8b6f-62cbd99b2ec2"},"vehicle_type_id":"4","last_reported":1702289325,"current_range_meters":4800,"station_id":"ce4bhm92rcd13ifvqglg","pricing_plan_id":"free"},{"bike_id":"623ed31e-56d3-4da2-8e01-c48b88c3a071","system_id":"levelo_inurba_marseille","lat":43.25931,"lon":5.4091,"is_reserved":false,"is_disabled":false,"rental_uris":{"android":"levelo://app?vid=623ed31e-56d3-4da2-8e01-c48b88c3a071","ios":"levelo://app?vid=623ed31e-56d3-4da2-8e01-c48b88c3a071"},"vehicle_type_id":"4","last_reported":1702289325,"current_range_meters":1200,"station_id":"ce4bhm92rcd13ifvqglg","pricing_plan_id":"free"},{"bike_id":"e020771e-eaa8-4c07-b1ca-012e7cc74aee","system_id":"levelo_inurba_marseille","lat":43.250009,"lon":5.389195,"is_reserved":false,"is_disabled":false,"rental_uris":{"android":"levelo://app?vid=e020771e-eaa8-4c07-b1ca-012e7cc74aee","ios":"levelo://app?vid=e020771e-eaa8-4c07-b1ca-012e7cc74aee"},"vehicle_type_id":"4","last_reported":1702289325,"current_range_meters":7600,"station_id":"ce4bhgp2rcd13ifvqfd0","pricing_plan_id":"free"},{"bike_id":"ba2a813c-0b97-4f22-82de-180ccf936310","system_id":"levelo_inurba_marseille","lat":43.24658,"lon":5.3816,"is_reserved":false,"is_disabled":false,"rental_uris":{"android":"levelo://app?vid=ba2a813c-0b97-4f22-82de-180ccf936310","ios":"levelo://app?vid=ba2a813c-0b97-4f22-82de-180ccf936310"},"vehicle_type_id":"4","last_reported":1702289325,"current_range_meters":23600,"station_id":"ce4bhih2rcd13ifvqfr0","pricing_plan_id":"free"},{"bike_id":"bba5fce4-3dbe-4b83-ba69-18cb502c496d","system_id":"levelo_inurba_marseille","lat":43.25102,"lon":5.403214,"is_reserved":false,"is_disabled":false,"rental_uris":{"android":"levelo://app?vid=bba5fce4-3dbe-4b83-ba69-18cb502c496d","ios":"levelo://app?vid=bba5fce4-3dbe-4b83-ba69-18cb502c496d"},"vehicle_type_id":"4","last_reported":1702289325,"current_range_meters":22800,"station_id":"ce4bhlh2rcd13ifvqgig","pricing_plan_id":"free"},{"bike_id":"88f11303-72c9-425b-968d-1b3bdfd6efad","system_id":"levelo_inurba_marseille","lat":43.25102,"lon":5.403214,"is_reserved":false,"is_disabled":false,"rental_uris":{"android":"levelo://app?vid=88f11303-72c9-425b-968d-1b3bdfd6efad","ios":"levelo://app?vid=88f11303-72c9-425b-968d-1b3bdfd6efad"},"vehicle_type_id":"4","last_reported":1702289325,"current_range_meters":0,"station_id":"ce4bhlh2rcd13ifvqgig","pricing_plan_id":"free"},{"bike_id":"85660c55-db11-439f-997e-630394c4bffa","system_id":"levelo_inurba_marseille","lat":43.25102,"lon":5.403214,"is_reserved":false,"is_disabled":false,"rental_uris":{"android":"levelo://app?vid=85660c55-db11-439f-997e-630394c4bffa","ios":"levelo://app?vid=85660c55-db11-439f-997e-630394c4bffa"},"vehicle_type_id":"4","last_reported":1702289325,"current_range_meters":24000,"station_id":"ce4bhlh2rcd13ifvqgig","pricing_plan_id":"free"},{"bike_id":"3e1e5589-1545-4628-9f9e-6e25be9dcf6a","system_id":"levelo_inurba_marseille","lat":43.25102,"lon":5.403214,"is_reserved":false,"is_disabled":false,"rental_uris":{"android":"levelo://app?vid=3e1e5589-1545-4628-9f9e-6e25be9dcf6a","ios":"levelo://app?vid=3e1e5589-1545-4628-9f9e-6e25be9dcf6a"},"vehicle_type_id":"4","last_reported":1702289325,"current_range_meters":18800,"station_id":"ce4bhlh2rcd13ifvqgig","pricing_plan_id":"free"},{"bike_id":"dba29574-080d-49b8-9794-c9ad3c8fd495","system_id":"levelo_inurba_marseille","lat":43.245581,"lon":5.395069,"is_reserved":false,"is_disabled":false,"rental_uris":{"android":"levelo://app?vid=dba29574-080d-49b8-9794-c9ad3c8fd495","ios":"levelo://app?vid=dba29574-080d-49b8-9794-c9ad3c8fd495"},"vehicle_type_id":"4","last_reported":1702289325,"current_range_meters":29200,"station_id":"ce4bhlp2rcd13ifvqgjg","pricing_plan_id":"free"},{"bike_id":"ba6bc2cd-6e13-4124-aeed-921fb4e8ccc2","system_id":"levelo_inurba_marseille","lat":43.239588,"lon":5.366238,"is_reserved":false,"is_disabled":false,"rental_uris":{"android":"levelo://app?vid=ba6bc2cd-6e13-4124-aeed-921fb4e8ccc2","ios":"levelo://app?vid=ba6bc2cd-6e13-4124-aeed-921fb4e8ccc2"},"vehicle_type_id":"4","last_reported":1702289325,"current_range_meters":29600,"station_id":"ce4bhi12rcd13ifvqfp0","pricing_plan_id":"free"},{"bike_id":"53ae66b1-dbd9-4468-b7b1-0e0a11221ea4","system_id":"levelo_inurba_marseille","lat":43.239588,"lon":5.366238,"is_reserved":false,"is_disabled":false,"rental_uris":{"android":"levelo://app?vid=53ae66b1-dbd9-4468-b7b1-0e0a11221ea4","ios":"levelo://app?vid=53ae66b1-dbd9-4468-b7b1-0e0a11221ea4"},"vehicle_type_id":"4","last_reported":1702289325,"current_range_meters":2800,"station_id":"ce4bhi12rcd13ifvqfp0","pricing_plan_id":"free"},{"bike_id":"fc2f990c-f12a-4d49-b078-90e208fbd693","system_id":"levelo_inurba_marseille","lat":43.239588,"lon":5.366238,"is_reserved":false,"is_disabled":false,"rental_uris":{"android":"levelo://app?vid=fc2f990c-f12a-4d49-b078-90e208fbd693","ios":"levelo://app?vid=fc2f990c-f12a-4d49-b078-90e208fbd693"},"vehicle_type_id":"4","last_reported":1702289325,"current_range_meters":17600,"station_id":"ce4bhi12rcd13ifvqfp0","pricing_plan_id":"free"},{"bike_id":"4438d75c-2231-4342-8167-af04d1f11953","system_id":"levelo_inurba_marseille","lat":43.239588,"lon":5.366238,"is_reserved":false,"is_disabled":false,"rental_uris":{"android":"levelo://app?vid=4438d75c-2231-4342-8167-af04d1f11953","ios":"levelo://app?vid=4438d75c-2231-4342-8167-af04d1f11953"},"vehicle_type_id":"4","last_reported":1702289325,"current_range_meters":11200,"station_id":"ce4bhi12rcd13ifvqfp0","pricing_plan_id":"free"},{"bike_id":"67b0f262-388b-4af5-a289-d71ce9d85545","system_id":"levelo_inurba_marseille","lat":43.239588,"lon":5.366238,"is_reserved":false,"is_disabled":false,"rental_uris":{"android":"levelo://app?vid=67b0f262-388b-4af5-a289-d71ce9d85545","ios":"levelo://app?vid=67b0f262-388b-4af5-a289-d71ce9d85545"},"vehicle_type_id":"4","last_reported":1702289325,"current_range_meters":21200,"station_id":"ce4bhi12rcd13ifvqfp0","pricing_plan_id":"free"},{"bike_id":"54bdf9cf-ccf6-4d4f-8e44-63aa10255d09","system_id":"levelo_inurba_marseille","lat":43.239588,"lon":5.366238,"is_reserved":false,"is_disabled":false,"rental_uris":{"android":"levelo://app?vid=54bdf9cf-ccf6-4d4f-8e44-63aa10255d09","ios":"levelo://app?vid=54bdf9cf-ccf6-4d4f-8e44-63aa10255d09"},"vehicle_type_id":"4","last_reported":1702289325,"current_range_meters":24000,"station_id":"ce4bhi12rcd13ifvqfp0","pricing_plan_id":"free"},{"bike_id":"5b462ee7-2fe7-4f4d-b8aa-050a965a940d","system_id":"levelo_inurba_marseille","lat":43.241782,"lon":5.397261,"is_reserved":false,"is_disabled":false,"rental_uris":{"android":"levelo://app?vid=5b462ee7-2fe7-4f4d-b8aa-050a965a940d","ios":"levelo://app?vid=5b462ee7-2fe7-4f4d-b8aa-050a965a940d"},"vehicle_type_id":"4","last_reported":1702289325,"current_range_meters":24800,"station_id":"ce4bhn12rcd13ifvqgpg","pricing_plan_id":"free"},{"bike_id":"e1e5e300-1b67-4a5a-83ce-da9c7b2e7139","system_id":"levelo_inurba_marseille","lat":43.23195,"lon":5.35556,"is_reserved":false,"is_disabled":false,"rental_uris":{"android":"levelo://app?vid=e1e5e300-1b67-4a5a-83ce-da9c7b2e7139","ios":"levelo://app?vid=e1e5e300-1b67-4a5a-83ce-da9c7b2e7139"},"vehicle_type_id":"4","last_reported":1702289325,"current_range_meters":12400,"station_id":"ce4bhu92rcd13ifvqi70","pricing_plan_id":"free"},{"bike_id":"ff3311be-0e5d-4347-bfab-118723a2b76e","system_id":"levelo_inurba_marseille","lat":43.231919,"lon":5.355532,"is_reserved":false,"is_disabled":false,"rental_uris":{"android":"levelo://app?vid=ff3311be-0e5d-4347-bfab-118723a2b76e","ios":"levelo://app?vid=ff3311be-0e5d-4347-bfab-118723a2b76e"},"vehicle_type_id":"4","last_reported":1702289325,"current_range_meters":29600,"station_id":"ce4bhu92rcd13ifvqi70","pricing_plan_id":"free"},{"bike_id":"ee81ef4e-a1bb-4d6a-b3d1-997cc1fadc87","system_id":"levelo_inurba_marseille","lat":43.231919,"lon":5.355532,"is_reserved":false,"is_disabled":false,"rental_uris":{"android":"levelo://app?vid=ee81ef4e-a1bb-4d6a-b3d1-997cc1fadc87","ios":"levelo://app?vid=ee81ef4e-a1bb-4d6a-b3d1-997cc1fadc87"},"vehicle_type_id":"4","last_reported":1702289325,"current_range_meters":7200,"station_id":"ce4bhu92rcd13ifvqi70","pricing_plan_id":"free"},{"bike_id":"e80a1e0f-b2b4-476c-8268-3a284be41446","system_id":"levelo_inurba_marseille","lat":43.231919,"lon":5.355532,"is_reserved":false,"is_disabled":false,"rental_uris":{"android":"levelo://app?vid=e80a1e0f-b2b4-476c-8268-3a284be41446","ios":"levelo://app?vid=e80a1e0f-b2b4-476c-8268-3a284be41446"},"vehicle_type_id":"4","last_reported":1702289325,"current_range_meters":14400,"station_id":"ce4bhu92rcd13ifvqi70","pricing_plan_id":"free"},{"bike_id":"75333984-121f-487d-adf0-09f219a5e920","system_id":"levelo_inurba_marseille","lat":43.231794,"lon":5.400052,"is_reserved":false,"is_disabled":false,"rental_uris":{"android":"levelo://app?vid=75333984-121f-487d-adf0-09f219a5e920","ios":"levelo://app?vid=75333984-121f-487d-adf0-09f219a5e920"},"vehicle_type_id":"4","last_reported":1702289325,"current_range_meters":9200,"station_id":"ce4bhn12rcd13ifvqgqg","pricing_plan_id":"free"},{"bike_id":"ccf0478d-68d6-4a4d-8547-6c39a69c61fd","system_id":"levelo_inurba_marseille","lat":43.231793,"lon":5.400044,"is_reserved":false,"is_disabled":false,"rental_uris":{"android":"levelo://app?vid=ccf0478d-68d6-4a4d-8547-6c39a69c61fd","ios":"levelo://app?vid=ccf0478d-68d6-4a4d-8547-6c39a69c61fd"},"vehicle_type_id":"4","last_reported":1702289325,"current_range_meters":28400,"station_id":"ce4bhn12rcd13ifvqgqg","pricing_plan_id":"free"},{"bike_id":"952c250c-bda4-4d17-96dc-ecba0e8c6df2","system_id":"levelo_inurba_marseille","lat":43.231562,"lon":5.436933,"is_reserved":false,"is_disabled":false,"rental_uris":{"android":"levelo://app?vid=952c250c-bda4-4d17-96dc-ecba0e8c6df2","ios":"levelo://app?vid=952c250c-bda4-4d17-96dc-ecba0e8c6df2"},"vehicle_type_id":"4","last_reported":1702289325,"current_range_meters":23600,"station_id":"ce4bhmp2rcd13ifvqgog","pricing_plan_id":"free"},{"bike_id":"04309115-d373-402b-ba36-b1c5f3db9ad3","system_id":"levelo_inurba_marseille","lat":43.231562,"lon":5.436933,"is_reserved":false,"is_disabled":false,"rental_uris":{"android":"levelo://app?vid=04309115-d373-402b-ba36-b1c5f3db9ad3","ios":"levelo://app?vid=04309115-d373-402b-ba36-b1c5f3db9ad3"},"vehicle_type_id":"4","last_reported":1702289325,"current_range_meters":19600,"station_id":"ce4bhmp2rcd13ifvqgog","pricing_plan_id":"free"},{"bike_id":"340a95d1-c6b8-4dc8-9947-b292ee8445e8","system_id":"levelo_inurba_marseille","lat":43.231562,"lon":5.436933,"is_reserved":false,"is_disabled":false,"rental_uris":{"android":"levelo://app?vid=340a95d1-c6b8-4dc8-9947-b292ee8445e8","ios":"levelo://app?vid=340a95d1-c6b8-4dc8-9947-b292ee8445e8"},"vehicle_type_id":"4","last_reported":1702289325,"current_range_meters":16000,"station_id":"ce4bhmp2rcd13ifvqgog","pricing_plan_id":"free"},{"bike_id":"8b922f65-7569-406d-9136-f131d02c9b36","system_id":"levelo_inurba_marseille","lat":43.231562,"lon":5.436933,"is_reserved":false,"is_disabled":false,"rental_uris":{"android":"levelo://app?vid=8b922f65-7569-406d-9136-f131d02c9b36","ios":"levelo://app?vid=8b922f65-7569-406d-9136-f131d02c9b36"},"vehicle_type_id":"4","last_reported":1702289325,"current_range_meters":18800,"station_id":"ce4bhmp2rcd13ifvqgog","pricing_plan_id":"free"},{"bike_id":"d1f54e0d-396f-4b1c-bc0b-a3840a06e020","system_id":"levelo_inurba_marseille","lat":43.231562,"lon":5.436933,"is_reserved":false,"is_disabled":false,"rental_uris":{"android":"levelo://app?vid=d1f54e0d-396f-4b1c-bc0b-a3840a06e020","ios":"levelo://app?vid=d1f54e0d-396f-4b1c-bc0b-a3840a06e020"},"vehicle_type_id":"4","last_reported":1702289325,"current_range_meters":28000,"station_id":"ce4bhmp2rcd13ifvqgog","pricing_plan_id":"free"},{"bike_id":"e867c508-1925-4372-8551-8e22a3a5630e","system_id":"levelo_inurba_marseille","lat":43.231562,"lon":5.436933,"is_reserved":false,"is_disabled":false,"rental_uris":{"android":"levelo://app?vid=e867c508-1925-4372-8551-8e22a3a5630e","ios":"levelo://app?vid=e867c508-1925-4372-8551-8e22a3a5630e"},"vehicle_type_id":"4","last_reported":1702289325,"current_range_meters":7200,"station_id":"ce4bhmp2rcd13ifvqgog","pricing_plan_id":"free"},{"bike_id":"8baa9dbb-77b1-4fcb-a542-292e99a9cf23","system_id":"levelo_inurba_marseille","lat":43.231562,"lon":5.436933,"is_reserved":false,"is_disabled":false,"rental_uris":{"android":"levelo://app?vid=8baa9dbb-77b1-4fcb-a542-292e99a9cf23","ios":"levelo://app?vid=8baa9dbb-77b1-4fcb-a542-292e99a9cf23"},"vehicle_type_id":"4","last_reported":1702289325,"current_range_meters":7200,"station_id":"ce4bhmp2rcd13ifvqgog","pricing_plan_id":"free"},{"bike_id":"1aae6cdc-e4e2-4912-a240-f90a945937f8","system_id":"levelo_inurba_marseille","lat":43.231562,"lon":5.436933,"is_reserved":false,"is_disabled":false,"rental_uris":{"android":"levelo://app?vid=1aae6cdc-e4e2-4912-a240-f90a945937f8","ios":"levelo://app?vid=1aae6cdc-e4e2-4912-a240-f90a945937f8"},"vehicle_type_id":"4","last_reported":1702289325,"current_range_meters":32000,"station_id":"ce4bhmp2rcd13ifvqgog","pricing_plan_id":"free"}]}}