{"last_updated":1702876034,"ttl":30,"version":"2.2","data":{"bikes":[{"bike_id":"ef921b55-07d2-4424-8c5e-0f7833f31ba6","system_id":"levelo_inurba_marseille","lat":43.312181,"lon":5.368585,"is_reserved":false,"is_disabled":false,"rental_uris":{"android":"levelo://app?vid=ef921b55-07d2-4424-8c5e-0f7833f31ba6","ios":"levelo://app?vid=ef921b55-07d2-4424-8c5e-0f7833f31ba6"},"vehicle_type_id":"4","last_reported":1702876035,"current_range_meters":29200,"station_id":"ce4bgl92rcd13ifvqbq0","pricing_plan_id":"free"},{"bike_id":"ea293c67-641f-4bef-8d03-949faeaa9e06","system_id":"levelo_inurba_marseille","lat":43.314811,"lon":5.373103,"is_reserved":false,"is_disabled":false,"rental_uris":{"android":"levelo://app?vid=ea293c67-641f-4bef-8d03-949faeaa9e06","ios":"levelo://app?vid=ea293c67-641f-4bef-8d03-949faeaa9e06"},"vehicle_type_id":"4","last_reported":1702876035,"current_range_meters":20400,"station_id":"ce4bgt12rcd13ifvqcd0","pricing_plan_id":"free"},{"bike_id":"db8dd0c9-5dfe-4079-95d5-3bd23db540b2","system_id":"levelo_inurba_marseille","lat":43.314811,"lon":5.373104,"is_reserved":false,"is_disabled":false,"rental_uris":{"android":"levelo://app?vid=db8dd0c9-5dfe-4079-95d5-3bd23db540b2","ios":"levelo://app?vid=db8dd0c9-5dfe-4079-95d5-3bd23db540b2"},"vehicle_type_id":"4","last_reported":1702876035,"current_range_meters":28800,"station_id":"ce4bgt12rcd13ifvqcd0","pricing_plan_id":"free"},{"bike_id":"86f1dc16-e906-4990-9801-dd17ac1961e0","system_id":"levelo_inurba_marseille","lat":43.309039,"lon":5.371797,"is_reserved":false,"is_disabled":false,"rental_uris":{"android":"levelo://app?vid=86f1dc16-e906-4990-9801-dd17ac1961e0","ios":"levelo://app?vid=86f1dc16-e906-4990-9801-dd17ac1961e0"},"vehicle_type_id":"4","last_reported":1702876035,"current_range_meters":23600,"station_id":"ce4bguh2rcd13ifvqckg","pricing_plan_id":"free"},{"bike_id":"955e4ab2-16e5-44e8-a986-a2f50ff96c06","system_id":"levelo_inurba_marseille","lat":43.305382,"lon":5.365389,"is_reserved":false,"is_disabled":false,"rental_uris":{"android":"levelo://app?vid=955e4ab2-16e5-44e8-a986-a2f50ff96c06","ios":"levelo://app?vid=955e4ab2-16e5-44e8-a986-a2f50ff96c06"},"vehicle_type_id":"4","last_reported":1702876035,"current_range_meters":9200,"station_id":"","pricing_plan_id":"free"},{"bike_id":"55648387-e11d-4be2-805d-b2fa22b3362e","system_id":"levelo_inurba_marseille","lat":43.31117,"lon":5.3776,"is_reserved":false,"is_disabled":false,"rental_uris":{"android":"levelo://app?vid=55648387-e11d-4be2-805d-b2fa22b3362e","ios":"levelo://app?vid=55648387-e11d-4be2-805d-b2fa22b3362e"},"vehicle_type_id":"4","last_reported":1702876035,"current_range_meters":21600,"station_id":"ce4bgt92rcd13ifvqcg0","pricing_plan_id":"free"},{"bike_id":"1073fb61-f133-4e31-9df2-1a8b563ba3d5","system_id":"levelo_inurba_marseille","lat":43.311125,"lon":5.377624,"is_reserved":false,"is_disabled":false,"rental_uris":{"android":"levelo://app?vid=1073fb61-f133-4e31-9df2-1a8b563ba3d5","ios":"levelo://app?vid=1073fb61-f133-4e31-9df2-1a8b563ba3d5"},"vehicle_type_id":"4","last_reported":1702876035,"current_range_meters":31600,"station_id":"ce4bgt92rcd13ifvqcg0","pricing_plan_id":"free"},{"bike_id":"e9ba45b5-8fae-4a08-87b6-e10637948fac","system_id":"levelo_inurba_marseille","lat":43.311125,"lon":5.377624,"is_reserved":false,"is_disabled":false,"rental_uris":{"android":"levelo://app?vid=e9ba45b5-8fae-4a08-87b6-e10637948fac","ios":"levelo://app?vid=e9ba45b5-8fae-4a08-87b6-e10637948fac"},"vehicle_type_id":"4","last_reported":1702876035,"current_range_meters":26800,"station_id":"ce4bgt92rcd13ifvqcg0","pricing_plan_id":"free"},{"bike_id":"b0b99c70-b632-42f9-b551-96866bee2bba","system_id":"levelo_inurba_marseille","lat":43.311125,"lon":5.377624,"is_reserved":false,"is_disabled":false,"rental_uris":{"android":"levelo://app?vid=b0b99c70-b632-42f9-b551-96866bee2bba","ios":"levelo://app?vid=b0b99c70-b632-42f9-b551-96866bee2bba"},"vehicle_type_id":"4","last_reported":1702876035,"current_range_meters":17600,"station_id":"ce4bgt92rcd13ifvqcg0","pricing_plan_id":"free"},{"bike_id":"2d77c001-7afb-4669-b011-a67d6516267f","system_id":"levelo_inurba_marseille","lat":43.311125,"lon":5.377624,"is_reserved":false,"is_disabled":false,"rental_uris":{"android":"levelo://app?vid=2d77c001-7afb-4669-b011-a67d6516267f","ios":"levelo://app?vid=2d77c001-7afb-4669-b011-a67d6516267f"},"vehicle_type_id":"4","last_reported":1702876035,"current_range_meters":7200,"station_id":"ce4bgt92rcd13ifvqcg0","pricing_plan_id":"free"},{"bike_id":"5305ab24-4053-408c-80d5-9d43d85645e3","system_id":"levelo_inurba_marseille","lat":43.311114,"lon":5.37766,"is_reserved":false,"is_disabled":false,"rental_uris":{"android":"levelo://app?vid=5305ab24-4053-408c-80d5-9d43d85645e3","ios":"levelo://app?vid=5305ab24-4053-408c-80d5-9d43d85645e3"},"vehicle_type_id":"4","last_reported":1702876035,"current_range_meters":1200,"station_id":"ce4bgt92rcd13ifvqcg0","pricing_plan_id":"free"},{"bike_id":"2ee576cf-c798-4286-bdfe-273a67681064","system_id":"levelo_inurba_marseille","lat":43.311125,"lon":5.377624,"is_reserved":false,"is_disabled":false,"rental_uris":{"android":"levelo://app?vid=2ee576cf-c798-4286-bdfe-273a67681064","ios":"levelo://app?vid=2ee576cf-c798-4286-bdfe-273a67681064"},"vehicle_type_id":"4","last_reported":1702876035,"current_range_meters":14800,"station_id":"ce4bgt92rcd13ifvqcg0","pricing_plan_id":"free"},{"bike_id":"e6789a5d-9c24-4324-8bcd-042592e79f94","system_id":"levelo_inurba_marseille","lat":43.307945,"lon":5.376487,"is_reserved":false,"is_disabled":false,"rental_uris":{"android":"levelo://app?vid=e6789a5d-9c24-4324-8bcd-042592e79f94","ios":"levelo://app?vid=e6789a5d-9c24-4324-8bcd-042592e79f94"},"vehicle_type_id":"4","last_reported":1702876035,"current_range_meters":28400,"station_id":"ce4bgv92rcd13ifvqcq0","pricing_plan_id":"free"},{"bike_id":"8fcd458e-3fcc-4cd2-bc3a-266e8a155edd","system_id":"levelo_inurba_marseille","lat":43.307945,"lon":5.376487,"is_reserved":false,"is_disabled":false,"rental_uris":{"android":"levelo://app?vid=8fcd458e-3fcc-4cd2-bc3a-266e8a155edd","ios":"levelo://app?vid=8fcd458e-3fcc-4cd2-bc3a-266e8a155edd"},"vehicle_type_id":"4","last_reported":1702876035,"current_range_meters":28000,"station_id":"ce4bgv92rcd13ifvqcq0","pricing_plan_id":"free"},{"bike_id":"e965d98e-5725-40c8-9334-792ca22b51ec","system_id":"levelo_inurba_marseille","lat":43.317075,"lon":5.377367,"is_reserved":false,"is_disabled":false,"rental_uris":{"android":"levelo://app?vid=e965d98e-5725-40c8-9334-792ca22b51ec","ios":"levelo://app?vid=e965d98e-5725-40c8-9334-792ca22b51ec"},"vehicle_type_id":"4","last_reported":1702876035,"current_range_meters":31200,"station_id":"ce4bgth2rcd13ifvqch0","pricing_plan_id":"free"},{"bike_id":"170d11bb-6d2b-466a-a704-afdbf9d3f032","system_id":"levelo_inurba_marseille","lat":43.317075,"lon":5.377367,"is_reserved":false,"is_disabled":false,"rental_uris":{"android":"levelo://app?vid=170d11bb-6d2b-466a-a704-afdbf9d3f032","ios":"levelo://app?vid=170d11bb-6d2b-466a-a704-afdbf9d3f032"},"vehicle_type_id":"4","last_reported":1702876035,"current_range_meters":21200,"station_id":"ce4bgth2rcd13ifvqch0","pricing_plan_id":"free"},{"bike_id":"5650f8c8-fde4-4d58-bb11-5ad39159d6a5","system_id":"levelo_inurba_marseille","lat":43.31537,"lon":5.38034,"is_reserved":false,"is_disabled":false,"rental_uris":{"android":"levelo://app?vid=5650f8c8-fde4-4d58-bb11-5ad39159d6a5","ios":"levelo://app?vid=5650f8c8-fde4-4d58-bb11-5ad39159d6a5"},"vehicle_type_id":"4","last_reported":1702876035,"current_range_meters":5600,"station_id":"ce4bhsp2rcd13ifvqi50","pricing_plan_id":"free"},{"bike_id":"66f775b2-2355-4055-9bcd-650acfdbb512","system_id":"levelo_inurba_marseille","lat":43.315282,"lon":5.38038,"is_reserved":false,"is_disabled":false,"rental_uris":{"android":"levelo://app?vid=66f775b2-2355-4055-9bcd-650acfdbb512","ios":"levelo://app?vid=66f775b2-2355-4055-9bcd-650acfdbb512"},"vehicle_type_id":"4","last_reported":1702876035,"current_range_meters":18800,"station_id":"ce4bhsp2rcd13ifvqi50","pricing_plan_id":"free"},{"bike_id":"8ce2544a-9b0d-4e8d-8dc8-f2ce1d445c3d","system_id":"levelo_inurba_marseille","lat":43.315293,"lon":5.380349,"is_reserved":false,"is_disabled":false,"rental_uris":{"android":"levelo://app?vid=8ce2544a-9b0d-4e8d-8dc8-f2ce1d445c3d","ios":"levelo://app?vid=8ce2544a-9b0d-4e8d-8dc8-f2ce1d445c3d"},"vehicle_type_id":"4","last_reported":1702876035,"current_range_meters":8800,"station_id":"ce4bhsp2rcd13ifvqi50","pricing_plan_id":"free"},{"bike_id":"0444f726-6366-43df-b854-9ef3d42f0e8d","system_id":"levelo_inurba_marseille","lat":43.31538,"lon":5.38042,"is_reserved":false,"is_disabled":false,"rental_uris":{"android":"levelo://app?vid=0444f726-6366-43df-b854-9ef3d42f0e8d","ios":"levelo://app?vid=0444f726-6366-43df-b854-9ef3d42f0e8d"},"vehicle_type_id":"4","last_reported":1702876035,"current_range_meters":2800,"station_id":"ce4bhsp2rcd13ifvqi50","pricing_plan_id":"free"},{"bike_id":"67ddea87-bd62-4cd2-b2af-71babfa29758","system_id":"levelo_inurba_marseille","lat":43.304606,"lon":5.379026,"is_reserved":false,"is_disabled":false,"rental_uris":{"android":"levelo://app?vid=67ddea87-bd62-4cd2-b2af-71babfa29758","ios":"levelo://app?vid=67ddea87-bd62-4cd2-b2af-71babfa29758"},"vehicle_type_id":"4","last_reported":1702876035,"current_range_meters":21600,"station_id":"ce4bgup2rcd13ifvqcn0","pricing_plan_id":"free"},{"bike_id":"5c0a27a4-cc48-4398-bdbc-735d8f024934","system_id":"levelo_inurba_marseille","lat":43.304606,"lon":5.379026,"is_reserved":false,"is_disabled":false,"rental_uris":{"android":"levelo://app?vid=5c0a27a4-cc48-4398-bdbc-735d8f024934","ios":"levelo://app?vid=5c0a27a4-cc48-4398-bdbc-735d8f024934"},"vehicle_type_id":"4","last_reported":1702876035,"current_range_meters":6800,"station_id":"ce4bgup2rcd13ifvqcn0","pricing_plan_id":"free"},{"bike_id":"b15f0e44-7250-48d9-baf4-cf77585b7cad","system_id":"levelo_inurba_marseille","lat":43.304606,"lon":5.379026,"is_reserved":false,"is_disabled":false,"rental_uris":{"android":"levelo://app?vid=b15f0e44-7250-48d9-baf4-cf77585b7cad","ios":"levelo://app?vid=b15f0e44-7250-48d9-baf4-cf77585b7cad"},"vehicle_type_id":"4","last_reported":1702876035,"current_range_meters":23600,"station_id":"ce4bgup2rcd13ifvqcn0","pricing_plan_id":"free"},{"bike_id":"05284ac9-bcb1-4291-a311-f102572c9454","system_id":"levelo_inurba_marseille","lat":43.304606,"lon":5.379026,"is_reserved":false,"is_disabled":false,"rental_uris":{"android":"levelo://app?vid=05284ac9-bcb1-4291-a311-f102572c9454","ios":"levelo://app?vid=05284ac9-bcb1-4291-a311-f102572c9454"},"vehicle_type_id":"4","last_reported":1702876035,"current_range_meters":22000,"station_id":"ce4bgup2rcd13ifvqcn0","pricing_plan_id":"free"},{"bike_id":"4e700106-6262-4b63-91b0-f103b4b4a1a3","system_id":"levelo_inurba_marseille","lat":43.304606,"lon":5.379026,"is_reserved":false,"is_disabled":false,"rental_uris":{"android":"levelo://app?vid=4e700106-6262-4b63-91b0-f103b4b4a1a3","ios":"levelo://app?vid=4e700106-6262-4b63-91b0-f103b4b4a1a3"},"vehicle_type_id":"4","last_reported":1702876035,"current_range_meters":25200,"station_id":"ce4bgup2rcd13ifvqcn0","pricing_plan_id":"free"},{"bike_id":"1ffce1cf-4f7c-4dce-8523-d35b5a8761e6","system_id":"levelo_inurba_marseille","lat":43.304606,"lon":5.379026,"is_reserved":false,"is_disabled":false,"rental_uris":{"android":"levelo://app?vid=1ffce1cf-4f7c-4dce-8523-d35b5a8761e6","ios":"levelo://app?vid=1ffce1cf-4f7c-4dce-8523-d35b5a8761e6"},"vehicle_type_id":"4","last_reported":1702876035,"current_range_meters":28800,"station_id":"ce4bgup2rcd13ifvqcn0","pricing_plan_id":"free"},{"bike_id":"dd59e6e9-e2f7-4754-9d7a-b02bb0c3d7ee","system_id":"levelo_inurba_marseille","lat":43.304606,"lon":5.379026,"is_reserved":false,"is_disabled":false,"rental_uris":{"android":"levelo://app?vid=dd59e6e9-e2f7-4754-9d7a-b02bb0c3d7ee","ios":"levelo://app?vid=dd59e6e9-e2f7-4754-9d7a-b02bb0c3d7ee"},"vehicle_type_id":"4","last_reported":1702876035,"current_range_meters":20000,"station_id":"ce4bgup2rcd13ifvqcn0","pricing_plan_id":"free"},{"bike_id":"359889d5-1fca-41da-883e-c4d905ca2f81","system_id":"levelo_inurba_marseille","lat":43.304606,"lon":5.379026,"is_reserved":false,"is_disabled":false,"rental_uris":{"android":"levelo://app?vid=359889d5-1fca-41da-883e-c4d905ca2f81","ios":"levelo://app?vid=359889d5-1fca-41da-883e-c4d905ca2f81"},"vehicle_type_id":"4","last_reported":1702876035,"current_range_meters":30000,"station_id":"ce4bgup2rcd13ifvqcn0","pricing_plan_id":"free"},{"bike_id":"078e48d2-aab9-4521-9e44-671b66509960","system_id":"levelo_inurba_marseille","lat":43.313571,"lon":5.384829,"is_reserved":false,"is_disabled":false,"rental_uris":{"android":"levelo://app?vid=078e48d2-aab9-4521-9e44-671b66509960","ios":"levelo://app?vid=078e48d2-aab9-4521-9e44-671b66509960"},"vehicle_type_id":"4","last_reported":1702876035,"current_range_meters":20000,"station_id":"ce4bgt92rcd13ifvqcf0","pricing_plan_id":"free"},{"bike_id":"dd704785-cf89-4e45-8db5-bc9f9a7c396f","system_id":"levelo_inurba_marseille","lat":43.313571,"lon":5.384829,"is_reserved":false,"is_disabled":false,"rental_uris":{"android":"levelo://app?vid=dd704785-cf89-4e45-8db5-bc9f9a7c396f","ios":"levelo://app?vid=dd704785-cf89-4e45-8db5-bc9f9a7c396f"},"vehicle_type_id":"4","last_reported":1702876035,"current_range_meters":17200,"station_id":"ce4bgt92rcd13ifvqcf0","pricing_plan_id":"free"},{"bike_id":"2d3343bd-f5b5-4872-aeeb-741ab83dbdf3","system_id":"levelo_inurba_marseille","lat":43.313571,"lon":5.384829,"is_reserved":false,"is_disabled":false,"rental_uris":{"android":"levelo://app?vid=2d3343bd-f5b5-4872-aeeb-741ab83dbdf3","ios":"levelo://app?vid=2d3343bd-f5b5-4872-aeeb-741ab83dbdf3"},"vehicle_type_id":"4","last_reported":1702876035,"current_range_meters":31200,"station_id":"ce4bgt92rcd13ifvqcf0","pricing_plan_id":"free"},{"bike_id":"c3c010b2-7e7f-48cd-a20c-9d00d3433f45","system_id":"levelo_inurba_marseille","lat":43.313571,"lon":5.384829,"is_reserved":false,"is_disabled":false,"rental_uris":{"android":"levelo://app?vid=c3c010b2-7e7f-48cd-a20c-9d00d3433f45","ios":"levelo://app?vid=c3c010b2-7e7f-48cd-a20c-9d00d3433f45"},"vehicle_type_id":"4","last_reported":1702876035,"current_range_meters":31600,"station_id":"ce4bgt92rcd13ifvqcf0","pricing_plan_id":"free"},{"bike_id":"e79c84f5-e324-4493-9512-00eba4a15ffa","system_id":"levelo_inurba_marseille","lat":43.305364,"lon":5.384119,"is_reserved":false,"is_disabled":false,"rental_uris":{"android":"levelo://app?vid=e79c84f5-e324-4493-9512-00eba4a15ffa","ios":"levelo://app?vid=e79c84f5-e324-4493-9512-00eba4a15ffa"},"vehicle_type_id":"4","last_reported":1702876035,"current_range_meters":28800,"station_id":"ce4bgg92rcd13ifvqb30","pricing_plan_id":"free"},{"bike_id":"c4e77394-aef9-4077-b745-e99148625344","system_id":"levelo_inurba_marseille","lat":43.32733,"lon":5.36707,"is_reserved":false,"is_disabled":false,"rental_uris":{"android":"levelo://app?vid=c4e77394-aef9-4077-b745-e99148625344","ios":"levelo://app?vid=c4e77394-aef9-4077-b745-e99148625344"},"vehicle_type_id":"4","last_reported":1702876035,"current_range_meters":16400,"station_id":"","pricing_plan_id":"free"},{"bike_id":"819cb438-2e9c-4e0b-902b-5e19ef554d5c","system_id":"levelo_inurba_marseille","lat":43.305473,"lon":5.384318,"is_reserved":false,"is_disabled":false,"rental_uris":{"android":"levelo://app?vid=819cb438-2e9c-4e0b-902b-5e19ef554d5c","ios":"levelo://app?vid=819cb438-2e9c-4e0b-902b-5e19ef554d5c"},"vehicle_type_id":"4","last_reported":1702876035,"current_range_meters":7600,"station_id":"ce4bgg92rcd13ifvqb30","pricing_plan_id":"free"},{"bike_id":"297d0f04-68ff-45e8-928d-6d36dd6d7c12","system_id":"levelo_inurba_marseille","lat":43.305364,"lon":5.384119,"is_reserved":false,"is_disabled":false,"rental_uris":{"android":"levelo://app?vid=297d0f04-68ff-45e8-928d-6d36dd6d7c12","ios":"levelo://app?vid=297d0f04-68ff-45e8-928d-6d36dd6d7c12"},"vehicle_type_id":"4","last_reported":1702876035,"current_range_meters":22000,"station_id":"ce4bgg92rcd13ifvqb30","pricing_plan_id":"free"},{"bike_id":"6329c42f-5ac2-48e9-8f5d-d1c1bfd18f36","system_id":"levelo_inurba_marseille","lat":43.305364,"lon":5.384119,"is_reserved":false,"is_disabled":false,"rental_uris":{"android":"levelo://app?vid=6329c42f-5ac2-48e9-8f5d-d1c1bfd18f36","ios":"levelo://app?vid=6329c42f-5ac2-48e9-8f5d-d1c1bfd18f36"},"vehicle_type_id":"4","last_reported":1702876035,"current_range_meters":26400,"station_id":"ce4bgg92rcd13ifvqb30","pricing_plan_id":"free"},{"bike_id":"bc13e6fe-1a72-43f9-98d3-75f398c10bd1","system_id":"levelo_inurba_marseille","lat":43.311722,"lon":5.387247,"is_reserved":false,"is_disabled":false,"rental_uris":{"android":"levelo://app?vid=bc13e6fe-1a72-43f9-98d3-75f398c10bd1","ios":"levelo://app?vid=bc13e6fe-1a72-43f9-98d3-75f398c10bd1"},"vehicle_type_id":"4","last_reported":1702876035,"current_range_meters":9200,"station_id":"ce4bgv12rcd13ifvqcp0","pricing_plan_id":"free"},{"bike_id":"d18bed29-9000-4b38-9610-4f5f7acd0d6d","system_id":"levelo_inurba_marseille","lat":43.311722,"lon":5.387247,"is_reserved":false,"is_disabled":false,"rental_uris":{"android":"levelo://app?vid=d18bed29-9000-4b38-9610-4f5f7acd0d6d","ios":"levelo://app?vid=d18bed29-9000-4b38-9610-4f5f7acd0d6d"},"vehicle_type_id":"4","last_reported":1702876035,"current_range_meters":14400,"station_id":"ce4bgv12rcd13ifvqcp0","pricing_plan_id":"free"},{"bike_id":"64650dd5-af17-4711-b582-1b1125d8348e","system_id":"levelo_inurba_marseille","lat":43.311722,"lon":5.387247,"is_reserved":false,"is_disabled":false,"rental_uris":{"android":"levelo://app?vid=64650dd5-af17-4711-b582-1b1125d8348e","ios":"levelo://app?vid=64650dd5-af17-4711-b582-1b1125d8348e"},"vehicle_type_id":"4","last_reported":1702876035,"current_range_meters":31600,"station_id":"ce4bgv12rcd13ifvqcp0","pricing_plan_id":"free"},{"bike_id":"c3e352f7-b2cc-4172-902d-71dece9975d2","system_id":"levelo_inurba_marseille","lat":43.297794,"lon":5.370888,"is_reserved":false,"is_disabled":false,"rental_uris":{"android":"levelo://app?vid=c3e352f7-b2cc-4172-902d-71dece9975d2","ios":"levelo://app?vid=c3e352f7-b2cc-4172-902d-71dece9975d2"},"vehicle_type_id":"4","last_reported":1702876035,"current_range_meters":29200,"station_id":"ce4bgop2rcd13ifvqc1g","pricing_plan_id":"free"},{"bike_id":"0170d5ee-7e91-4f5c-8732-7765424383a0","system_id":"levelo_inurba_marseille","lat":43.297794,"lon":5.370888,"is_reserved":false,"is_disabled":false,"rental_uris":{"android":"levelo://app?vid=0170d5ee-7e91-4f5c-8732-7765424383a0","ios":"levelo://app?vid=0170d5ee-7e91-4f5c-8732-7765424383a0"},"vehicle_type_id":"4","last_reported":1702876035,"current_range_meters":27600,"station_id":"ce4bgop2rcd13ifvqc1g","pricing_plan_id":"free"},{"bike_id":"3737aebe-1cce-415b-8132-94746ed5f00f","system_id":"levelo_inurba_marseille","lat":43.32297,"lon":5.38268,"is_reserved":false,"is_disabled":false,"rental_uris":{"android":"levelo://app?vid=3737aebe-1cce-415b-8132-94746ed5f00f","ios":"levelo://app?vid=3737aebe-1cce-415b-8132-94746ed5f00f"},"vehicle_type_id":"4","last_reported":1702876035,"current_range_meters":800,"station_id":"ce4bhr12rcd13ifvqhqg","pricing_plan_id":"free"},{"bike_id":"3bf4d2fc-db25-4234-b9ab-c6140fc1dfb0","system_id":"levelo_inurba_marseille","lat":43.297163,"lon":5.365866,"is_reserved":false,"is_disabled":false,"rental_uris":{"android":"levelo://app?vid=3bf4d2fc-db25-4234-b9ab-c6140fc1dfb0","ios":"levelo://app?vid=3bf4d2fc-db25-4234-b9ab-c6140fc1dfb0"},"vehicle_type_id":"4","last_reported":1702876035,"current_range_meters":16000,"station_id":"ce4bgn12rcd13ifvqbt0","pricing_plan_id":"free"},{"bike_id":"ce620234-21d2-4dda-a01e-49ad5ab2147d","system_id":"levelo_inurba_marseille","lat":43.297163,"lon":5.365866,"is_reserved":false,"is_disabled":false,"rental_uris":{"android":"levelo://app?vid=ce620234-21d2-4dda-a01e-49ad5ab2147d","ios":"levelo://app?vid=ce620234-21d2-4dda-a01e-49ad5ab2147d"},"vehicle_type_id":"4","last_reported":1702876035,"current_range_meters":31200,"station_id":"ce4bgn12rcd13ifvqbt0","pricing_plan_id":"free"},{"bike_id":"5d611fa6-318a-4e16-a2bf-fcc782028c99","system_id":"levelo_inurba_marseille","lat":43.299028,"lon":5.381509,"is_reserved":false,"is_disabled":false,"rental_uris":{"android":"levelo://app?vid=5d611fa6-318a-4e16-a2bf-fcc782028c99","ios":"levelo://app?vid=5d611fa6-318a-4e16-a2bf-fcc782028c99"},"vehicle_type_id":"4","last_reported":1702876035,"current_range_meters":18800,"station_id":"ce4bgj12rcd13ifvqbc0","pricing_plan_id":"free"},{"bike_id":"f5e27bd9-8e99-4ea2-a50b-cd27f9fc1526","system_id":"levelo_inurba_marseille","lat":43.31753,"lon":5.39013,"is_reserved":false,"is_disabled":false,"rental_uris":{"android":"levelo://app?vid=f5e27bd9-8e99-4ea2-a50b-cd27f9fc1526","ios":"levelo://app?vid=f5e27bd9-8e99-4ea2-a50b-cd27f9fc1526"},"vehicle_type_id":"4","last_reported":1702876035,"current_range_meters":13200,"station_id":"ce4bhqp2rcd13ifvqhng","pricing_plan_id":"free"},{"bike_id":"e4c4e820-b000-40ab-8b03-75db48e932cf","system_id":"levelo_inurba_marseille","lat":43.317557,"lon":5.390173,"is_reserved":false,"is_disabled":false,"rental_uris":{"android":"levelo://app?vid=e4c4e820-b000-40ab-8b03-75db48e932cf","ios":"levelo://app?vid=e4c4e820-b000-40ab-8b03-75db48e932cf"},"vehicle_type_id":"4","last_reported":1702876035,"current_range_meters":27600,"station_id":"ce4bhqp2rcd13ifvqhng","pricing_plan_id":"free"},{"bike_id":"fdbe364b-3ba7-40b3-a0dd-eae1bb405ffb","system_id":"levelo_inurba_marseille","lat":43.304278,"lon":5.388868,"is_reserved":false,"is_disabled":false,"rental_uris":{"android":"levelo://app?vid=fdbe364b-3ba7-40b3-a0dd-eae1bb405ffb","ios":"levelo://app?vid=fdbe364b-3ba7-40b3-a0dd-eae1bb405ffb"},"vehicle_type_id":"4","last_reported":1702876035,"current_range_meters":31600,"station_id":"ce4bgk12rcd13ifvqbi0","pricing_plan_id":"free"},{"bike_id":"6fb87cac-29b7-4539-98f3-9411e2507cc8","system_id":"levelo_inurba_marseille","lat":43.304274,"lon":5.388873,"is_reserved":false,"is_disabled":false,"rental_uris":{"android":"levelo://app?vid=6fb87cac-29b7-4539-98f3-9411e2507cc8","ios":"levelo://app?vid=6fb87cac-29b7-4539-98f3-9411e2507cc8"},"vehicle_type_id":"4","last_reported":1702876035,"current_range_meters":30800,"station_id":"ce4bgk12rcd13ifvqbi0","pricing_plan_id":"free"},{"bike_id":"3ef7846c-91cf-476b-9c6d-d7c9fe1ba4a7","system_id":"levelo_inurba_marseille","lat":43.304278,"lon":5.388868,"is_reserved":false,"is_disabled":false,"rental_uris":{"android":"levelo://app?vid=3ef7846c-91cf-476b-9c6d-d7c9fe1ba4a7","ios":"levelo://app?vid=3ef7846c-91cf-476b-9c6d-d7c9fe1ba4a7"},"vehicle_type_id":"4","last_reported":1702876035,"current_range_meters":20800,"station_id":"ce4bgk12rcd13ifvqbi0","pricing_plan_id":"free"},{"bike_id":"4bbc0668-2bc0-4832-9c4a-ed3bdb5d9090","system_id":"levelo_inurba_marseille","lat":43.304274,"lon":5.388873,"is_reserved":false,"is_disabled":false,"rental_uris":{"android":"levelo://app?vid=4bbc0668-2bc0-4832-9c4a-ed3bdb5d9090","ios":"levelo://app?vid=4bbc0668-2bc0-4832-9c4a-ed3bdb5d9090"},"vehicle_type_id":"4","last_reported":1702876035,"current_range_meters":26400,"station_id":"ce4bgk12rcd13ifvqbi0","pricing_plan_id":"free"},{"bike_id":"c4f9bc29-7317-49d5-8bdc-66e7c764e3ea","system_id":"levelo_inurba_marseille","lat":43.32368,"lon":5.388783,"is_reserved":false,"is_disabled":false,"rental_uris":{"android":"levelo://app?vid=c4f9bc29-7317-49d5-8bdc-66e7c764e3ea","ios":"levelo://app?vid=c4f9bc29-7317-49d5-8bdc-66e7c764e3ea"},"vehicle_type_id":"4","last_reported":1702876035,"current_range_meters":0,"station_id":"ce4bhqp2rcd13ifvqhog","pricing_plan_id":"free"},{"bike_id":"0f9f8030-4aae-4517-bb0a-1cb07289b7b4","system_id":"levelo_inurba_marseille","lat":43.305994,"lon":5.393687,"is_reserved":false,"is_disabled":false,"rental_uris":{"android":"levelo://app?vid=0f9f8030-4aae-4517-bb0a-1cb07289b7b4","ios":"levelo://app?vid=0f9f8030-4aae-4517-bb0a-1cb07289b7b4"},"vehicle_type_id":"4","last_reported":1702876035,"current_range_meters":30800,"station_id":"ce4bh0p2rcd13ifvqd80","pricing_plan_id":"free"},{"bike_id":"1b8a34a4-5e79-4b56-8b6b-cd8741586a0e","system_id":"levelo_inurba_marseille","lat":43.305994,"lon":5.393687,"is_reserved":false,"is_disabled":false,"rental_uris":{"android":"levelo://app?vid=1b8a34a4-5e79-4b56-8b6b-cd8741586a0e","ios":"levelo://app?vid=1b8a34a4-5e79-4b56-8b6b-cd8741586a0e"},"vehicle_type_id":"4","last_reported":1702876035,"current_range_meters":30000,"station_id":"ce4bh0p2rcd13ifvqd80","pricing_plan_id":"free"},{"bike_id":"8382cfe3-1be7-406c-b088-0601aa7d7a35","system_id":"levelo_inurba_marseille","lat":43.305994,"lon":5.393687,"is_reserved":false,"is_disabled":false,"rental_uris":{"android":"levelo://app?vid=8382cfe3-1be7-406c-b088-0601aa7d7a35","ios":"levelo://app?vid=8382cfe3-1be7-406c-b088-0601aa7d7a35"},"vehicle_type_id":"4","last_reported":1702876035,"current_range_meters":12400,"station_id":"ce4bh0p2rcd13ifvqd80","pricing_plan_id":"free"},{"bike_id":"29a189cc-ad80-445d-9a41-817af57e3802","system_id":"levelo_inurba_marseille","lat":43.303002,"lon":5.392142,"is_reserved":false,"is_disabled":false,"rental_uris":{"android":"levelo://app?vid=29a189cc-ad80-445d-9a41-817af57e3802","ios":"levelo://app?vid=29a189cc-ad80-445d-9a41-817af57e3802"},"vehicle_type_id":"4","last_reported":1702876035,"current_range_meters":30400,"station_id":"ce4bgkh2rcd13ifvqbk0","pricing_plan_id":"free"},{"bike_id":"44273a38-2d0c-4d62-a74f-95144de8c267","system_id":"levelo_inurba_marseille","lat":43.292311,"lon":5.360731,"is_reserved":false,"is_disabled":false,"rental_uris":{"android":"levelo://app?vid=44273a38-2d0c-4d62-a74f-95144de8c267","ios":"levelo://app?vid=44273a38-2d0c-4d62-a74f-95144de8c267"},"vehicle_type_id":"4","last_reported":1702876035,"current_range_meters":27200,"station_id":"ce4bhbh2rcd13ifvqeqg","pricing_plan_id":"free"},{"bike_id":"4f9881bc-f447-4a3f-931d-2a7fc4b6b2e1","system_id":"levelo_inurba_marseille","lat":43.309038,"lon":5.396546,"is_reserved":false,"is_disabled":false,"rental_uris":{"android":"levelo://app?vid=4f9881bc-f447-4a3f-931d-2a7fc4b6b2e1","ios":"levelo://app?vid=4f9881bc-f447-4a3f-931d-2a7fc4b6b2e1"},"vehicle_type_id":"4","last_reported":1702876035,"current_range_meters":3200,"station_id":"ce4bh012rcd13ifvqcv0","pricing_plan_id":"free"},{"bike_id":"e74ed0fc-ce34-4e9a-8468-48a3d6f72149","system_id":"levelo_inurba_marseille","lat":43.309038,"lon":5.396546,"is_reserved":false,"is_disabled":false,"rental_uris":{"android":"levelo://app?vid=e74ed0fc-ce34-4e9a-8468-48a3d6f72149","ios":"levelo://app?vid=e74ed0fc-ce34-4e9a-8468-48a3d6f72149"},"vehicle_type_id":"4","last_reported":1702876035,"current_range_meters":31600,"station_id":"ce4bh012rcd13ifvqcv0","pricing_plan_id":"free"},{"bike_id":"ac02f0b4-11e5-4bc4-96db-786bb1ac4a28","system_id":"levelo_inurba_marseille","lat":43.309038,"lon":5.396546,"is_reserved":false,"is_disabled":false,"rental_uris":{"android":"levelo://app?vid=ac02f0b4-11e5-4bc4-96db-786bb1ac4a28","ios":"levelo://app?vid=ac02f0b4-11e5-4bc4-96db-786bb1ac4a28"},"vehicle_type_id":"4","last_reported":1702876035,"current_range_meters":31600,"station_id":"ce4bh012rcd13ifvqcv0","pricing_plan_id":"free"},{"bike_id":"b8a2a4ee-0a3e-4213-bd29-3a7e36333109","system_id":"levelo_inurba_marseille","lat":43.309047,"lon":5.396551,"is_reserved":false,"is_disabled":false,"rental_uris":{"android":"levelo://app?vid=b8a2a4ee-0a3e-4213-bd29-3a7e36333109","ios":"levelo://app?vid=b8a2a4ee-0a3e-4213-bd29-3a7e36333109"},"vehicle_type_id":"4","last_reported":1702876035,"current_range_meters":30000,"station_id":"ce4bh012rcd13ifvqcv0","pricing_plan_id":"free"},{"bike_id":"24eac149-e661-4054-8287-6eacb6ec442e","system_id":"levelo_inurba_marseille","lat":43.309047,"lon":5.396551,"is_reserved":false,"is_disabled":false,"rental_uris":{"android":"levelo://app?vid=24eac149-e661-4054-8287-6eacb6ec442e","ios":"levelo://app?vid=24eac149-e661-4054-8287-6eacb6ec442e"},"vehicle_type_id":"4","last_reported":1702876035,"current_range_meters":31200,"station_id":"ce4bh012rcd13ifvqcv0","pricing_plan_id":"free"},{"bike_id":"9311786f-cd83-4fa5-ae80-72adb2a9fd57","system_id":"levelo_inurba_marseille","lat":43.313291,"lon":5.396838,"is_reserved":false,"is_disabled":false,"rental_uris":{"android":"levelo://app?vid=9311786f-cd83-4fa5-ae80-72adb2a9fd57","ios":"levelo://app?vid=9311786f-cd83-4fa5-ae80-72adb2a9fd57"},"vehicle_type_id":"4","last_reported":1702876035,"current_range_meters":31200,"station_id":"ce4bgvp2rcd13ifvqcu0","pricing_plan_id":"free"},{"bike_id":"3d4da57d-a9de-4f06-b9c7-a8b4f0925e04","system_id":"levelo_inurba_marseille","lat":43.309038,"lon":5.396546,"is_reserved":false,"is_disabled":false,"rental_uris":{"android":"levelo://app?vid=3d4da57d-a9de-4f06-b9c7-a8b4f0925e04","ios":"levelo://app?vid=3d4da57d-a9de-4f06-b9c7-a8b4f0925e04"},"vehicle_type_id":"4","last_reported":1702876035,"current_range_meters":7600,"station_id":"ce4bh012rcd13ifvqcv0","pricing_plan_id":"free"},{"bike_id":"83c2fc33-6123-425d-9e6b-77f081cfc3fa","system_id":"levelo_inurba_marseille","lat":43.313291,"lon":5.396838,"is_reserved":false,"is_disabled":false,"rental_uris":{"android":"levelo://app?vid=83c2fc33-6123-425d-9e6b-77f081cfc3fa","ios":"levelo://app?vid=83c2fc33-6123-425d-9e6b-77f081cfc3fa"},"vehicle_type_id":"4","last_reported":1702876035,"current_range_meters":30000,"station_id":"ce4bgvp2rcd13ifvqcu0","pricing_plan_id":"free"},{"bike_id":"73815211-5232-4632-87f2-c538e158f7f2","system_id":"levelo_inurba_marseille","lat":43.313291,"lon":5.396838,"is_reserved":false,"is_disabled":false,"rental_uris":{"android":"levelo://app?vid=73815211-5232-4632-87f2-c538e158f7f2","ios":"levelo://app?vid=73815211-5232-4632-87f2-c538e158f7f2"},"vehicle_type_id":"4","last_reported":1702876035,"current_range_meters":31200,"station_id":"ce4bgvp2rcd13ifvqcu0","pricing_plan_id":"free"},{"bike_id":"2ccb46b6-74b1-470a-912b-6995bb7027cd","system_id":"levelo_inurba_marseille","lat":43.290624,"lon":5.359245,"is_reserved":false,"is_disabled":false,"rental_uris":{"android":"levelo://app?vid=2ccb46b6-74b1-470a-912b-6995bb7027cd","ios":"levelo://app?vid=2ccb46b6-74b1-470a-912b-6995bb7027cd"},"vehicle_type_id":"4","last_reported":1702876035,"current_range_meters":31600,"station_id":"ce4bha92rcd13ifvqeg0","pricing_plan_id":"free"},{"bike_id":"0c2f9e97-e34f-456a-920e-6193f2ce2913","system_id":"levelo_inurba_marseille","lat":43.290624,"lon":5.359245,"is_reserved":false,"is_disabled":false,"rental_uris":{"android":"levelo://app?vid=0c2f9e97-e34f-456a-920e-6193f2ce2913","ios":"levelo://app?vid=0c2f9e97-e34f-456a-920e-6193f2ce2913"},"vehicle_type_id":"4","last_reported":1702876035,"current_range_meters":14800,"station_id":"ce4bha92rcd13ifvqeg0","pricing_plan_id":"free"},{"bike_id":"7c176618-d6b0-4a1d-8771-8cdda0842ecc","system_id":"levelo_inurba_marseille","lat":43.290624,"lon":5.359245,"is_reserved":false,"is_disabled":false,"rental_uris":{"android":"levelo://app?vid=7c176618-d6b0-4a1d-8771-8cdda0842ecc","ios":"levelo://app?vid=7c176618-d6b0-4a1d-8771-8cdda0842ecc"},"vehicle_type_id":"4","last_reported":1702876035,"current_range_meters":22800,"station_id":"ce4bha92rcd13ifvqeg0","pricing_plan_id":"free"},{"bike_id":"4898ce04-2cd9-4af5-be90-8ed7713b2827","system_id":"levelo_inurba_marseille","lat":43.290624,"lon":5.359245,"is_reserved":false,"is_disabled":false,"rental_uris":{"android":"levelo://app?vid=4898ce04-2cd9-4af5-be90-8ed7713b2827","ios":"levelo://app?vid=4898ce04-2cd9-4af5-be90-8ed7713b2827"},"vehicle_type_id":"4","last_reported":1702876035,"current_range_meters":2800,"station_id":"ce4bha92rcd13ifvqeg0","pricing_plan_id":"free"},{"bike_id":"1a241f81-32ab-472c-bc68-49b693af7036","system_id":"levelo_inurba_marseille","lat":43.290631,"lon":5.359244,"is_reserved":false,"is_disabled":false,"rental_uris":{"android":"levelo://app?vid=1a241f81-32ab-472c-bc68-49b693af7036","ios":"levelo://app?vid=1a241f81-32ab-472c-bc68-49b693af7036"},"vehicle_type_id":"4","last_reported":1702876035,"current_range_meters":30000,"station_id":"ce4bha92rcd13ifvqeg0","pricing_plan_id":"free"},{"bike_id":"4636b3d9-abbb-4b55-871d-2b7ab6fdfa34","system_id":"levelo_inurba_marseille","lat":43.289473,"lon":5.366317,"is_reserved":false,"is_disabled":false,"rental_uris":{"android":"levelo://app?vid=4636b3d9-abbb-4b55-871d-2b7ab6fdfa34","ios":"levelo://app?vid=4636b3d9-abbb-4b55-871d-2b7ab6fdfa34"},"vehicle_type_id":"4","last_reported":1702876035,"current_range_meters":16400,"station_id":"ce4bhap2rcd13ifvqek0","pricing_plan_id":"free"},{"bike_id":"26e3332f-582b-4c61-a4f3-035e37ae8a8d","system_id":"levelo_inurba_marseille","lat":43.290327,"lon":5.375711,"is_reserved":false,"is_disabled":false,"rental_uris":{"android":"levelo://app?vid=26e3332f-582b-4c61-a4f3-035e37ae8a8d","ios":"levelo://app?vid=26e3332f-582b-4c61-a4f3-035e37ae8a8d"},"vehicle_type_id":"4","last_reported":1702876035,"current_range_meters":24800,"station_id":"ce4bh692rcd13ifvqe90","pricing_plan_id":"free"},{"bike_id":"95a8c3e8-e75b-45fa-b00c-7ad85f4e54fb","system_id":"levelo_inurba_marseille","lat":43.289208,"lon":5.366483,"is_reserved":false,"is_disabled":false,"rental_uris":{"android":"levelo://app?vid=95a8c3e8-e75b-45fa-b00c-7ad85f4e54fb","ios":"levelo://app?vid=95a8c3e8-e75b-45fa-b00c-7ad85f4e54fb"},"vehicle_type_id":"4","last_reported":1702876035,"current_range_meters":17600,"station_id":"","pricing_plan_id":"free"},{"bike_id":"569a8599-9896-4a7b-92b6-2cc8e0707e41","system_id":"levelo_inurba_marseille","lat":43.292642,"lon":5.384254,"is_reserved":false,"is_disabled":false,"rental_uris":{"android":"levelo://app?vid=569a8599-9896-4a7b-92b6-2cc8e0707e41","ios":"levelo://app?vid=569a8599-9896-4a7b-92b6-2cc8e0707e41"},"vehicle_type_id":"4","last_reported":1702876035,"current_range_meters":19200,"station_id":"ce4bh692rcd13ifvqea0","pricing_plan_id":"free"},{"bike_id":"0f0efcce-30bf-48e1-969e-c8d8b731264a","system_id":"levelo_inurba_marseille","lat":43.330442,"lon":5.389148,"is_reserved":false,"is_disabled":false,"rental_uris":{"android":"levelo://app?vid=0f0efcce-30bf-48e1-969e-c8d8b731264a","ios":"levelo://app?vid=0f0efcce-30bf-48e1-969e-c8d8b731264a"},"vehicle_type_id":"4","last_reported":1702876035,"current_range_meters":9600,"station_id":"ce4bhr92rcd13ifvqhrg","pricing_plan_id":"free"},{"bike_id":"5fa34a05-5c55-4873-a568-038c0fe9a5d6","system_id":"levelo_inurba_marseille","lat":43.330442,"lon":5.389148,"is_reserved":false,"is_disabled":false,"rental_uris":{"android":"levelo://app?vid=5fa34a05-5c55-4873-a568-038c0fe9a5d6","ios":"levelo://app?vid=5fa34a05-5c55-4873-a568-038c0fe9a5d6"},"vehicle_type_id":"4","last_reported":1702876035,"current_range_meters":7600,"station_id":"ce4bhr92rcd13ifvqhrg","pricing_plan_id":"free"},{"bike_id":"34f4075a-fae2-4606-8928-b78d77756b38","system_id":"levelo_inurba_marseille","lat":43.290103,"lon":5.356114,"is_reserved":false,"is_disabled":false,"rental_uris":{"android":"levelo://app?vid=34f4075a-fae2-4606-8928-b78d77756b38","ios":"levelo://app?vid=34f4075a-fae2-4606-8928-b78d77756b38"},"vehicle_type_id":"4","last_reported":1702876035,"current_range_meters":26400,"station_id":"ce4bhb92rcd13ifvqen0","pricing_plan_id":"free"},{"bike_id":"bd605482-10ff-4c14-a468-587499908f2d","system_id":"levelo_inurba_marseille","lat":43.29003,"lon":5.35612,"is_reserved":false,"is_disabled":false,"rental_uris":{"android":"levelo://app?vid=bd605482-10ff-4c14-a468-587499908f2d","ios":"levelo://app?vid=bd605482-10ff-4c14-a468-587499908f2d"},"vehicle_type_id":"4","last_reported":1702876035,"current_range_meters":2000,"station_id":"ce4bhb92rcd13ifvqen0","pricing_plan_id":"free"},{"bike_id":"53ccf89c-58d8-4826-99aa-9f38084d5218","system_id":"levelo_inurba_marseille","lat":43.290015,"lon":5.356064,"is_reserved":false,"is_disabled":false,"rental_uris":{"android":"levelo://app?vid=53ccf89c-58d8-4826-99aa-9f38084d5218","ios":"levelo://app?vid=53ccf89c-58d8-4826-99aa-9f38084d5218"},"vehicle_type_id":"4","last_reported":1702876035,"current_range_meters":31200,"station_id":"ce4bhb92rcd13ifvqen0","pricing_plan_id":"free"},{"bike_id":"eb1731fa-cfae-4591-ae3e-d82917e08378","system_id":"levelo_inurba_marseille","lat":43.312735,"lon":5.401678,"is_reserved":false,"is_disabled":false,"rental_uris":{"android":"levelo://app?vid=eb1731fa-cfae-4591-ae3e-d82917e08378","ios":"levelo://app?vid=eb1731fa-cfae-4591-ae3e-d82917e08378"},"vehicle_type_id":"4","last_reported":1702876035,"current_range_meters":15600,"station_id":"ce4bh092rcd13ifvqd30","pricing_plan_id":"free"},{"bike_id":"b7d518e7-4e65-4403-9041-44eb3ef57146","system_id":"levelo_inurba_marseille","lat":43.28727,"lon":5.36078,"is_reserved":false,"is_disabled":false,"rental_uris":{"android":"levelo://app?vid=b7d518e7-4e65-4403-9041-44eb3ef57146","ios":"levelo://app?vid=b7d518e7-4e65-4403-9041-44eb3ef57146"},"vehicle_type_id":"4","last_reported":1702876035,"current_range_meters":30400,"station_id":"cki0cbj6b192h4jlfktg","pricing_plan_id":"free"},{"bike_id":"80cef11c-093a-4293-ad56-ec757926bf3a","system_id":"levelo_inurba_marseille","lat":43.286591,"lon":5.363346,"is_reserved":false,"is_disabled":false,"rental_uris":{"android":"levelo://app?vid=80cef11c-093a-4293-ad56-ec757926bf3a","ios":"levelo://app?vid=80cef11c-093a-4293-ad56-ec757926bf3a"},"vehicle_type_id":"4","last_reported":1702876035,"current_range_meters":31200,"station_id":"ce4bhah2rcd13ifvqej0","pricing_plan_id":"free"},{"bike_id":"4ca99376-c9e0-4444-86cd-6d46d163b798","system_id":"levelo_inurba_marseille","lat":43.286591,"lon":5.363346,"is_reserved":false,"is_disabled":false,"rental_uris":{"android":"levelo://app?vid=4ca99376-c9e0-4444-86cd-6d46d163b798","ios":"levelo://app?vid=4ca99376-c9e0-4444-86cd-6d46d163b798"},"vehicle_type_id":"4","last_reported":1702876035,"current_range_meters":28400,"station_id":"ce4bhah2rcd13ifvqej0","pricing_plan_id":"free"},{"bike_id":"e5072099-c25a-4e23-a181-1d0f88a9022e","system_id":"levelo_inurba_marseille","lat":43.286591,"lon":5.363346,"is_reserved":false,"is_disabled":false,"rental_uris":{"android":"levelo://app?vid=e5072099-c25a-4e23-a181-1d0f88a9022e","ios":"levelo://app?vid=e5072099-c25a-4e23-a181-1d0f88a9022e"},"vehicle_type_id":"4","last_reported":1702876035,"current_range_meters":27600,"station_id":"ce4bhah2rcd13ifvqej0","pricing_plan_id":"free"},{"bike_id":"18096b8a-8c26-479c-9b97-9d9024c35cc0","system_id":"levelo_inurba_marseille","lat":43.286961,"lon":5.373785,"is_reserved":false,"is_disabled":false,"rental_uris":{"android":"levelo://app?vid=18096b8a-8c26-479c-9b97-9d9024c35cc0","ios":"levelo://app?vid=18096b8a-8c26-479c-9b97-9d9024c35cc0"},"vehicle_type_id":"4","last_reported":1702876035,"current_range_meters":4400,"station_id":"ce4bh3p2rcd13ifvqdq0","pricing_plan_id":"free"},{"bike_id":"5029f1b9-3d77-4a81-a890-c59566f7be86","system_id":"levelo_inurba_marseille","lat":43.286961,"lon":5.373785,"is_reserved":false,"is_disabled":false,"rental_uris":{"android":"levelo://app?vid=5029f1b9-3d77-4a81-a890-c59566f7be86","ios":"levelo://app?vid=5029f1b9-3d77-4a81-a890-c59566f7be86"},"vehicle_type_id":"4","last_reported":1702876035,"current_range_meters":22400,"station_id":"ce4bh3p2rcd13ifvqdq0","pricing_plan_id":"free"},{"bike_id":"dacdeff0-b534-457c-a761-02a77cc2e825","system_id":"levelo_inurba_marseille","lat":43.286961,"lon":5.373785,"is_reserved":false,"is_disabled":false,"rental_uris":{"android":"levelo://app?vid=dacdeff0-b534-457c-a761-02a77cc2e825","ios":"levelo://app?vid=dacdeff0-b534-457c-a761-02a77cc2e825"},"vehicle_type_id":"4","last_reported":1702876035,"current_range_meters":14000,"station_id":"ce4bh3p2rcd13ifvqdq0","pricing_plan_id":"free"},{"bike_id":"efff6ccd-ed29-4637-bdb3-1eb5064f478c","system_id":"levelo_inurba_marseille","lat":43.287185,"lon":5.379373,"is_reserved":false,"is_disabled":false,"rental_uris":{"android":"levelo://app?vid=efff6ccd-ed29-4637-bdb3-1eb5064f478c","ios":"levelo://app?vid=efff6ccd-ed29-4637-bdb3-1eb5064f478c"},"vehicle_type_id":"4","last_reported":1702876035,"current_range_meters":27600,"station_id":"ce4bh9p2rcd13ifvqec0","pricing_plan_id":"free"},{"bike_id":"0a23c55a-1970-4943-b497-0ed087fdfb5a","system_id":"levelo_inurba_marseille","lat":43.284538,"lon":5.358657,"is_reserved":false,"is_disabled":false,"rental_uris":{"android":"levelo://app?vid=0a23c55a-1970-4943-b497-0ed087fdfb5a","ios":"levelo://app?vid=0a23c55a-1970-4943-b497-0ed087fdfb5a"},"vehicle_type_id":"4","last_reported":1702876035,"current_range_meters":30800,"station_id":"ce4bhah2rcd13ifvqei0","pricing_plan_id":"free"},{"bike_id":"bd7da017-503e-436e-92db-a1d126349271","system_id":"levelo_inurba_marseille","lat":43.284534,"lon":5.358662,"is_reserved":false,"is_disabled":false,"rental_uris":{"android":"levelo://app?vid=bd7da017-503e-436e-92db-a1d126349271","ios":"levelo://app?vid=bd7da017-503e-436e-92db-a1d126349271"},"vehicle_type_id":"4","last_reported":1702876035,"current_range_meters":25600,"station_id":"ce4bhah2rcd13ifvqei0","pricing_plan_id":"free"},{"bike_id":"464e27b8-446f-41b1-8169-135d560010ab","system_id":"levelo_inurba_marseille","lat":43.284534,"lon":5.358662,"is_reserved":false,"is_disabled":false,"rental_uris":{"android":"levelo://app?vid=464e27b8-446f-41b1-8169-135d560010ab","ios":"levelo://app?vid=464e27b8-446f-41b1-8169-135d560010ab"},"vehicle_type_id":"4","last_reported":1702876035,"current_range_meters":16000,"station_id":"ce4bhah2rcd13ifvqei0","pricing_plan_id":"free"},{"bike_id":"7aa4ef20-3e1a-42d1-9f1a-b828e39ad5e9","system_id":"levelo_inurba_marseille","lat":43.284538,"lon":5.358657,"is_reserved":false,"is_disabled":false,"rental_uris":{"android":"levelo://app?vid=7aa4ef20-3e1a-42d1-9f1a-b828e39ad5e9","ios":"levelo://app?vid=7aa4ef20-3e1a-42d1-9f1a-b828e39ad5e9"},"vehicle_type_id":"4","last_reported":1702876035,"current_range_meters":400,"station_id":"ce4bhah2rcd13ifvqei0","pricing_plan_id":"free"},{"bike_id":"d67e9384-f695-48e9-85b0-ded10e004cc6","system_id":"levelo_inurba_marseille","lat":43.284579,"lon":5.358891,"is_reserved":false,"is_disabled":false,"rental_uris":{"android":"levelo://app?vid=d67e9384-f695-48e9-85b0-ded10e004cc6","ios":"levelo://app?vid=d67e9384-f695-48e9-85b0-ded10e004cc6"},"vehicle_type_id":"4","last_reported":1702876035,"current_range_meters":18000,"station_id":"ce4bhah2rcd13ifvqei0","pricing_plan_id":"free"},{"bike_id":"7a6dc0d9-382e-4310-a602-c09451bc49cf","system_id":"levelo_inurba_marseille","lat":43.285856,"lon":5.350771,"is_reserved":false,"is_disabled":false,"rental_uris":{"android":"levelo://app?vid=7a6dc0d9-382e-4310-a602-c09451bc49cf","ios":"levelo://app?vid=7a6dc0d9-382e-4310-a602-c09451bc49cf"},"vehicle_type_id":"4","last_reported":1702876035,"current_range_meters":19200,"station_id":"ce4bhch2rcd13ifvqeug","pricing_plan_id":"free"},{"bike_id":"b53e5dd6-ec7a-4bff-ad49-9366d28eed9e","system_id":"levelo_inurba_marseille","lat":43.283998,"lon":5.375062,"is_reserved":false,"is_disabled":false,"rental_uris":{"android":"levelo://app?vid=b53e5dd6-ec7a-4bff-ad49-9366d28eed9e","ios":"levelo://app?vid=b53e5dd6-ec7a-4bff-ad49-9366d28eed9e"},"vehicle_type_id":"4","last_reported":1702876035,"current_range_meters":20800,"station_id":"ce4bh412rcd13ifvqds0","pricing_plan_id":"free"},{"bike_id":"4cd634b9-0978-4d25-8e52-7032ab225ac7","system_id":"levelo_inurba_marseille","lat":43.283998,"lon":5.375062,"is_reserved":false,"is_disabled":false,"rental_uris":{"android":"levelo://app?vid=4cd634b9-0978-4d25-8e52-7032ab225ac7","ios":"levelo://app?vid=4cd634b9-0978-4d25-8e52-7032ab225ac7"},"vehicle_type_id":"4","last_reported":1702876035,"current_range_meters":18000,"station_id":"ce4bh412rcd13ifvqds0","pricing_plan_id":"free"},{"bike_id":"a3a9859c-5f79-4e58-800e-2978518cd875","system_id":"levelo_inurba_marseille","lat":43.283998,"lon":5.375062,"is_reserved":false,"is_disabled":false,"rental_uris":{"android":"levelo://app?vid=a3a9859c-5f79-4e58-800e-2978518cd875","ios":"levelo://app?vid=a3a9859c-5f79-4e58-800e-2978518cd875"},"vehicle_type_id":"4","last_reported":1702876035,"current_range_meters":17200,"station_id":"ce4bh412rcd13ifvqds0","pricing_plan_id":"free"},{"bike_id":"2dfa5049-0e1b-4839-b5c3-156910a65dbd","system_id":"levelo_inurba_marseille","lat":43.33218,"lon":5.397067,"is_reserved":false,"is_disabled":false,"rental_uris":{"android":"levelo://app?vid=2dfa5049-0e1b-4839-b5c3-156910a65dbd","ios":"levelo://app?vid=2dfa5049-0e1b-4839-b5c3-156910a65dbd"},"vehicle_type_id":"4","last_reported":1702876035,"current_range_meters":6400,"station_id":"","pricing_plan_id":"free"},{"bike_id":"5eb1d800-03d1-4330-9d4a-307c1907d9c6","system_id":"levelo_inurba_marseille","lat":43.295713,"lon":5.399639,"is_reserved":false,"is_disabled":false,"rental_uris":{"android":"levelo://app?vid=5eb1d800-03d1-4330-9d4a-307c1907d9c6","ios":"levelo://app?vid=5eb1d800-03d1-4330-9d4a-307c1907d9c6"},"vehicle_type_id":"4","last_reported":1702876035,"current_range_meters":29200,"station_id":"ce4bh312rcd13ifvqdj0","pricing_plan_id":"free"},{"bike_id":"d6284a72-130c-4768-bc08-1087913f919c","system_id":"levelo_inurba_marseille","lat":43.283609,"lon":5.375252,"is_reserved":false,"is_disabled":false,"rental_uris":{"android":"levelo://app?vid=d6284a72-130c-4768-bc08-1087913f919c","ios":"levelo://app?vid=d6284a72-130c-4768-bc08-1087913f919c"},"vehicle_type_id":"4","last_reported":1702876035,"current_range_meters":6800,"station_id":"ce4bh412rcd13ifvqds0","pricing_plan_id":"free"},{"bike_id":"29316d07-1338-4037-b577-0cc4ef196a63","system_id":"levelo_inurba_marseille","lat":43.33717,"lon":5.391857,"is_reserved":false,"is_disabled":false,"rental_uris":{"android":"levelo://app?vid=29316d07-1338-4037-b577-0cc4ef196a63","ios":"levelo://app?vid=29316d07-1338-4037-b577-0cc4ef196a63"},"vehicle_type_id":"4","last_reported":1702876035,"current_range_meters":29200,"station_id":"ce4bhr92rcd13ifvqhsg","pricing_plan_id":"free"},{"bike_id":"e6e8def3-4d43-4d3d-b4c8-e06233981f99","system_id":"levelo_inurba_marseille","lat":43.323464,"lon":5.406297,"is_reserved":false,"is_disabled":false,"rental_uris":{"android":"levelo://app?vid=e6e8def3-4d43-4d3d-b4c8-e06233981f99","ios":"levelo://app?vid=e6e8def3-4d43-4d3d-b4c8-e06233981f99"},"vehicle_type_id":"4","last_reported":1702876035,"current_range_meters":28400,"station_id":"ce4bhq92rcd13ifvqhjg","pricing_plan_id":"free"},{"bike_id":"27e96943-1418-4832-a4a9-710f9b22d4e8","system_id":"levelo_inurba_marseille","lat":43.323464,"lon":5.406297,"is_reserved":false,"is_disabled":false,"rental_uris":{"android":"levelo://app?vid=27e96943-1418-4832-a4a9-710f9b22d4e8","ios":"levelo://app?vid=27e96943-1418-4832-a4a9-710f9b22d4e8"},"vehicle_type_id":"4","last_reported":1702876035,"current_range_meters":30400,"station_id":"ce4bhq92rcd13ifvqhjg","pricing_plan_id":"free"},{"bike_id":"12a3378d-e411-4491-ab70-a4a10b4bb07b","system_id":"levelo_inurba_marseille","lat":43.288501,"lon":5.393087,"is_reserved":false,"is_disabled":false,"rental_uris":{"android":"levelo://app?vid=12a3378d-e411-4491-ab70-a4a10b4bb07b","ios":"levelo://app?vid=12a3378d-e411-4491-ab70-a4a10b4bb07b"},"vehicle_type_id":"4","last_reported":1702876035,"current_range_meters":30000,"station_id":"ce4bh2p2rcd13ifvqdi0","pricing_plan_id":"free"},{"bike_id":"57f85a0e-d1b7-437a-b398-31a0ccd845dd","system_id":"levelo_inurba_marseille","lat":43.292724,"lon":5.401131,"is_reserved":false,"is_disabled":false,"rental_uris":{"android":"levelo://app?vid=57f85a0e-d1b7-437a-b398-31a0ccd845dd","ios":"levelo://app?vid=57f85a0e-d1b7-437a-b398-31a0ccd845dd"},"vehicle_type_id":"4","last_reported":1702876035,"current_range_meters":27200,"station_id":"ce4bh312rcd13ifvqdk0","pricing_plan_id":"free"},{"bike_id":"f87492bc-d2f6-40fd-9118-47b8852bd8bc","system_id":"levelo_inurba_marseille","lat":43.283502,"lon":5.386471,"is_reserved":false,"is_disabled":false,"rental_uris":{"android":"levelo://app?vid=f87492bc-d2f6-40fd-9118-47b8852bd8bc","ios":"levelo://app?vid=f87492bc-d2f6-40fd-9118-47b8852bd8bc"},"vehicle_type_id":"4","last_reported":1702876035,"current_range_meters":26000,"station_id":"ce4bh492rcd13ifvqdvg","pricing_plan_id":"free"},{"bike_id":"0805c00c-13e8-44d3-8139-42a5c5fa3ac2","system_id":"levelo_inurba_marseille","lat":43.280382,"lon":5.369291,"is_reserved":false,"is_disabled":false,"rental_uris":{"android":"levelo://app?vid=0805c00c-13e8-44d3-8139-42a5c5fa3ac2","ios":"levelo://app?vid=0805c00c-13e8-44d3-8139-42a5c5fa3ac2"},"vehicle_type_id":"4","last_reported":1702876035,"current_range_meters":30400,"station_id":"ce4bha12rcd13ifvqef0","pricing_plan_id":"free"},{"bike_id":"4d0ba3a3-36ed-4826-a476-620cf57f3442","system_id":"levelo_inurba_marseille","lat":43.280328,"lon":5.369546,"is_reserved":false,"is_disabled":false,"rental_uris":{"android":"levelo://app?vid=4d0ba3a3-36ed-4826-a476-620cf57f3442","ios":"levelo://app?vid=4d0ba3a3-36ed-4826-a476-620cf57f3442"},"vehicle_type_id":"4","last_reported":1702876035,"current_range_meters":19200,"station_id":"ce4bha12rcd13ifvqef0","pricing_plan_id":"free"},{"bike_id":"156b5265-77d1-4866-b0d7-a09aa52daba5","system_id":"levelo_inurba_marseille","lat":43.28039,"lon":5.369297,"is_reserved":false,"is_disabled":false,"rental_uris":{"android":"levelo://app?vid=156b5265-77d1-4866-b0d7-a09aa52daba5","ios":"levelo://app?vid=156b5265-77d1-4866-b0d7-a09aa52daba5"},"vehicle_type_id":"4","last_reported":1702876035,"current_range_meters":18000,"station_id":"ce4bha12rcd13ifvqef0","pricing_plan_id":"free"},{"bike_id":"a9952475-81aa-4910-814f-1769dd793c7c","system_id":"levelo_inurba_marseille","lat":43.2803,"lon":5.36944,"is_reserved":false,"is_disabled":false,"rental_uris":{"android":"levelo://app?vid=a9952475-81aa-4910-814f-1769dd793c7c","ios":"levelo://app?vid=a9952475-81aa-4910-814f-1769dd793c7c"},"vehicle_type_id":"4","last_reported":1702876035,"current_range_meters":25200,"station_id":"ce4bha12rcd13ifvqef0","pricing_plan_id":"free"},{"bike_id":"955533ef-cb5d-4478-93c6-8bc3f71e0946","system_id":"levelo_inurba_marseille","lat":43.280295,"lon":5.369495,"is_reserved":false,"is_disabled":false,"rental_uris":{"android":"levelo://app?vid=955533ef-cb5d-4478-93c6-8bc3f71e0946","ios":"levelo://app?vid=955533ef-cb5d-4478-93c6-8bc3f71e0946"},"vehicle_type_id":"4","last_reported":1702876035,"current_range_meters":20400,"station_id":"ce4bha12rcd13ifvqef0","pricing_plan_id":"free"},{"bike_id":"ccfe3ea9-ad0f-4d62-88e4-2e44ec878168","system_id":"levelo_inurba_marseille","lat":43.29041,"lon":5.399634,"is_reserved":false,"is_disabled":false,"rental_uris":{"android":"levelo://app?vid=ccfe3ea9-ad0f-4d62-88e4-2e44ec878168","ios":"levelo://app?vid=ccfe3ea9-ad0f-4d62-88e4-2e44ec878168"},"vehicle_type_id":"4","last_reported":1702876035,"current_range_meters":26800,"station_id":"ce4bh392rcd13ifvqdm0","pricing_plan_id":"free"},{"bike_id":"f1a01614-c444-430a-8b9a-ed9bb4ca4f69","system_id":"levelo_inurba_marseille","lat":43.281044,"lon":5.378308,"is_reserved":false,"is_disabled":false,"rental_uris":{"android":"levelo://app?vid=f1a01614-c444-430a-8b9a-ed9bb4ca4f69","ios":"levelo://app?vid=f1a01614-c444-430a-8b9a-ed9bb4ca4f69"},"vehicle_type_id":"4","last_reported":1702876035,"current_range_meters":26000,"station_id":"ce4bha12rcd13ifvqee0","pricing_plan_id":"free"},{"bike_id":"e26c8a4b-093b-4fc6-be60-efd5719f79ee","system_id":"levelo_inurba_marseille","lat":43.296263,"lon":5.40601,"is_reserved":false,"is_disabled":false,"rental_uris":{"android":"levelo://app?vid=e26c8a4b-093b-4fc6-be60-efd5719f79ee","ios":"levelo://app?vid=e26c8a4b-093b-4fc6-be60-efd5719f79ee"},"vehicle_type_id":"4","last_reported":1702876035,"current_range_meters":27200,"station_id":"ce4bh0h2rcd13ifvqd60","pricing_plan_id":"free"},{"bike_id":"b1bba2b6-372d-49dd-b13b-1b4d710db23d","system_id":"levelo_inurba_marseille","lat":43.32405,"lon":5.4097,"is_reserved":false,"is_disabled":false,"rental_uris":{"android":"levelo://app?vid=b1bba2b6-372d-49dd-b13b-1b4d710db23d","ios":"levelo://app?vid=b1bba2b6-372d-49dd-b13b-1b4d710db23d"},"vehicle_type_id":"4","last_reported":1702876035,"current_range_meters":29200,"station_id":"","pricing_plan_id":"free"},{"bike_id":"f20f35c4-3ab0-4d03-b81b-7964cc99f89a","system_id":"levelo_inurba_marseille","lat":43.304188,"lon":5.412904,"is_reserved":false,"is_disabled":false,"rental_uris":{"android":"levelo://app?vid=f20f35c4-3ab0-4d03-b81b-7964cc99f89a","ios":"levelo://app?vid=f20f35c4-3ab0-4d03-b81b-7964cc99f89a"},"vehicle_type_id":"4","last_reported":1702876035,"current_range_meters":31200,"station_id":"ce4bhop2rcd13ifvqh8g","pricing_plan_id":"free"},{"bike_id":"5aa6d492-9d75-4659-8815-8c34503da2a4","system_id":"levelo_inurba_marseille","lat":43.279087,"lon":5.380114,"is_reserved":false,"is_disabled":false,"rental_uris":{"android":"levelo://app?vid=5aa6d492-9d75-4659-8815-8c34503da2a4","ios":"levelo://app?vid=5aa6d492-9d75-4659-8815-8c34503da2a4"},"vehicle_type_id":"4","last_reported":1702876035,"current_range_meters":23600,"station_id":"ce4bhf92rcd13ifvqf50","pricing_plan_id":"free"},{"bike_id":"de3a802e-ad84-402b-85fd-edd03d3978f8","system_id":"levelo_inurba_marseille","lat":43.287154,"lon":5.399979,"is_reserved":false,"is_disabled":false,"rental_uris":{"android":"levelo://app?vid=de3a802e-ad84-402b-85fd-edd03d3978f8","ios":"levelo://app?vid=de3a802e-ad84-402b-85fd-edd03d3978f8"},"vehicle_type_id":"4","last_reported":1702876035,"current_range_meters":25200,"station_id":"ce4bho92rcd13ifvqh3g","pricing_plan_id":"free"},{"bike_id":"7b71e832-c9b8-49af-b00b-cf4dd3c4ab34","system_id":"levelo_inurba_marseille","lat":43.279087,"lon":5.380114,"is_reserved":false,"is_disabled":false,"rental_uris":{"android":"levelo://app?vid=7b71e832-c9b8-49af-b00b-cf4dd3c4ab34","ios":"levelo://app?vid=7b71e832-c9b8-49af-b00b-cf4dd3c4ab34"},"vehicle_type_id":"4","last_reported":1702876035,"current_range_meters":28000,"station_id":"ce4bhf92rcd13ifvqf50","pricing_plan_id":"free"},{"bike_id":"cbde9d00-9816-4448-9c70-89e409a5c937","system_id":"levelo_inurba_marseille","lat":43.287154,"lon":5.399979,"is_reserved":false,"is_disabled":false,"rental_uris":{"android":"levelo://app?vid=cbde9d00-9816-4448-9c70-89e409a5c937","ios":"levelo://app?vid=cbde9d00-9816-4448-9c70-89e409a5c937"},"vehicle_type_id":"4","last_reported":1702876035,"current_range_meters":22400,"station_id":"ce4bho92rcd13ifvqh3g","pricing_plan_id":"free"},{"bike_id":"dcad14e8-7726-4d75-92e5-a1b406c90e73","system_id":"levelo_inurba_marseille","lat":43.279742,"lon":5.38744,"is_reserved":false,"is_disabled":false,"rental_uris":{"android":"levelo://app?vid=dcad14e8-7726-4d75-92e5-a1b406c90e73","ios":"levelo://app?vid=dcad14e8-7726-4d75-92e5-a1b406c90e73"},"vehicle_type_id":"4","last_reported":1702876035,"current_range_meters":26400,"station_id":"ce4bhg12rcd13ifvqf80","pricing_plan_id":"free"},{"bike_id":"32b4f198-1402-48e4-a29f-3d2cb1832fe5","system_id":"levelo_inurba_marseille","lat":43.292571,"lon":5.409107,"is_reserved":false,"is_disabled":false,"rental_uris":{"android":"levelo://app?vid=32b4f198-1402-48e4-a29f-3d2cb1832fe5","ios":"levelo://app?vid=32b4f198-1402-48e4-a29f-3d2cb1832fe5"},"vehicle_type_id":"4","last_reported":1702876035,"current_range_meters":26400,"station_id":"ce4bh192rcd13ifvqdc0","pricing_plan_id":"free"},{"bike_id":"55f3a22b-f67e-4333-a1f3-7fbb50e28717","system_id":"levelo_inurba_marseille","lat":43.292571,"lon":5.409107,"is_reserved":false,"is_disabled":false,"rental_uris":{"android":"levelo://app?vid=55f3a22b-f67e-4333-a1f3-7fbb50e28717","ios":"levelo://app?vid=55f3a22b-f67e-4333-a1f3-7fbb50e28717"},"vehicle_type_id":"4","last_reported":1702876035,"current_range_meters":32000,"station_id":"ce4bh192rcd13ifvqdc0","pricing_plan_id":"free"},{"bike_id":"d1542e19-5fe9-4722-865c-ad7d65a419e4","system_id":"levelo_inurba_marseille","lat":43.292569,"lon":5.409107,"is_reserved":false,"is_disabled":false,"rental_uris":{"android":"levelo://app?vid=d1542e19-5fe9-4722-865c-ad7d65a419e4","ios":"levelo://app?vid=d1542e19-5fe9-4722-865c-ad7d65a419e4"},"vehicle_type_id":"4","last_reported":1702876035,"current_range_meters":31200,"station_id":"ce4bh192rcd13ifvqdc0","pricing_plan_id":"free"},{"bike_id":"f7316890-1ae7-4f4c-8c8b-b9f2d3dbe47c","system_id":"levelo_inurba_marseille","lat":43.292569,"lon":5.409107,"is_reserved":false,"is_disabled":false,"rental_uris":{"android":"levelo://app?vid=f7316890-1ae7-4f4c-8c8b-b9f2d3dbe47c","ios":"levelo://app?vid=f7316890-1ae7-4f4c-8c8b-b9f2d3dbe47c"},"vehicle_type_id":"4","last_reported":1702876035,"current_range_meters":27200,"station_id":"ce4bh192rcd13ifvqdc0","pricing_plan_id":"free"},{"bike_id":"9664166f-4683-4d2e-817f-57adbe1b9f1a","system_id":"levelo_inurba_marseille","lat":43.292571,"lon":5.409107,"is_reserved":false,"is_disabled":false,"rental_uris":{"android":"levelo://app?vid=9664166f-4683-4d2e-817f-57adbe1b9f1a","ios":"levelo://app?vid=9664166f-4683-4d2e-817f-57adbe1b9f1a"},"vehicle_type_id":"4","last_reported":1702876035,"current_range_meters":30400,"station_id":"ce4bh192rcd13ifvqdc0","pricing_plan_id":"free"},{"bike_id":"669bd2e4-289e-4449-a125-1ec6273bd454","system_id":"levelo_inurba_marseille","lat":43.292569,"lon":5.409107,"is_reserved":false,"is_disabled":false,"rental_uris":{"android":"levelo://app?vid=669bd2e4-289e-4449-a125-1ec6273bd454","ios":"levelo://app?vid=669bd2e4-289e-4449-a125-1ec6273bd454"},"vehicle_type_id":"4","last_reported":1702876035,"current_range_meters":30400,"station_id":"ce4bh192rcd13ifvqdc0","pricing_plan_id":"free"},{"bike_id":"1c2d0826-7dc1-4775-aefb-7d1af9c4fca0","system_id":"levelo_inurba_marseille","lat":43.292569,"lon":5.409107,"is_reserved":false,"is_disabled":false,"rental_uris":{"android":"levelo://app?vid=1c2d0826-7dc1-4775-aefb-7d1af9c4fca0","ios":"levelo://app?vid=1c2d0826-7dc1-4775-aefb-7d1af9c4fca0"},"vehicle_type_id":"4","last_reported":1702876035,"current_range_meters":18400,"station_id":"ce4bh192rcd13ifvqdc0","pricing_plan_id":"free"},{"bike_id":"8b89a6cf-b837-45b4-ae98-4ba2c5780b41","system_id":"levelo_inurba_marseille","lat":43.325243,"lon":5.414326,"is_reserved":false,"is_disabled":false,"rental_uris":{"android":"levelo://app?vid=8b89a6cf-b837-45b4-ae98-4ba2c5780b41","ios":"levelo://app?vid=8b89a6cf-b837-45b4-ae98-4ba2c5780b41"},"vehicle_type_id":"4","last_reported":1702876035,"current_range_meters":27200,"station_id":"ce4bhq12rcd13ifvqhhg","pricing_plan_id":"free"},{"bike_id":"a803af6a-6f18-4a80-a53f-88028abe7744","system_id":"levelo_inurba_marseille","lat":43.325233,"lon":5.414318,"is_reserved":false,"is_disabled":false,"rental_uris":{"android":"levelo://app?vid=a803af6a-6f18-4a80-a53f-88028abe7744","ios":"levelo://app?vid=a803af6a-6f18-4a80-a53f-88028abe7744"},"vehicle_type_id":"4","last_reported":1702876035,"current_range_meters":30000,"station_id":"ce4bhq12rcd13ifvqhhg","pricing_plan_id":"free"},{"bike_id":"7e9ee401-1ec6-456e-b053-cdd6b0599d18","system_id":"levelo_inurba_marseille","lat":43.280784,"lon":5.396622,"is_reserved":false,"is_disabled":false,"rental_uris":{"android":"levelo://app?vid=7e9ee401-1ec6-456e-b053-cdd6b0599d18","ios":"levelo://app?vid=7e9ee401-1ec6-456e-b053-cdd6b0599d18"},"vehicle_type_id":"4","last_reported":1702876035,"current_range_meters":14000,"station_id":"ce4bho12rcd13ifvqh2g","pricing_plan_id":"free"},{"bike_id":"34fb9f7f-78a0-41e8-a2d8-67888bf63368","system_id":"levelo_inurba_marseille","lat":43.280784,"lon":5.396622,"is_reserved":false,"is_disabled":false,"rental_uris":{"android":"levelo://app?vid=34fb9f7f-78a0-41e8-a2d8-67888bf63368","ios":"levelo://app?vid=34fb9f7f-78a0-41e8-a2d8-67888bf63368"},"vehicle_type_id":"4","last_reported":1702876035,"current_range_meters":31600,"station_id":"ce4bho12rcd13ifvqh2g","pricing_plan_id":"free"},{"bike_id":"91f61330-96c6-494c-96dd-9115f1def8f2","system_id":"levelo_inurba_marseille","lat":43.278401,"lon":5.392152,"is_reserved":false,"is_disabled":false,"rental_uris":{"android":"levelo://app?vid=91f61330-96c6-494c-96dd-9115f1def8f2","ios":"levelo://app?vid=91f61330-96c6-494c-96dd-9115f1def8f2"},"vehicle_type_id":"4","last_reported":1702876035,"current_range_meters":22800,"station_id":"ce4bhjp2rcd13ifvqga0","pricing_plan_id":"free"},{"bike_id":"10bfa8bc-c8b6-4489-b5b0-60039ffe2de0","system_id":"levelo_inurba_marseille","lat":43.278399,"lon":5.392139,"is_reserved":false,"is_disabled":false,"rental_uris":{"android":"levelo://app?vid=10bfa8bc-c8b6-4489-b5b0-60039ffe2de0","ios":"levelo://app?vid=10bfa8bc-c8b6-4489-b5b0-60039ffe2de0"},"vehicle_type_id":"4","last_reported":1702876035,"current_range_meters":9600,"station_id":"ce4bhjp2rcd13ifvqga0","pricing_plan_id":"free"},{"bike_id":"fa9a3b33-19d5-42dc-afa0-c3c2b6f33c8e","system_id":"levelo_inurba_marseille","lat":43.275625,"lon":5.384392,"is_reserved":false,"is_disabled":false,"rental_uris":{"android":"levelo://app?vid=fa9a3b33-19d5-42dc-afa0-c3c2b6f33c8e","ios":"levelo://app?vid=fa9a3b33-19d5-42dc-afa0-c3c2b6f33c8e"},"vehicle_type_id":"4","last_reported":1702876035,"current_range_meters":30000,"station_id":"ce4bhh92rcd13ifvqfi0","pricing_plan_id":"free"},{"bike_id":"19cade86-88c5-4b9f-92f3-dcfa0e634408","system_id":"levelo_inurba_marseille","lat":43.275625,"lon":5.384392,"is_reserved":false,"is_disabled":false,"rental_uris":{"android":"levelo://app?vid=19cade86-88c5-4b9f-92f3-dcfa0e634408","ios":"levelo://app?vid=19cade86-88c5-4b9f-92f3-dcfa0e634408"},"vehicle_type_id":"4","last_reported":1702876035,"current_range_meters":27200,"station_id":"ce4bhh92rcd13ifvqfi0","pricing_plan_id":"free"},{"bike_id":"e0cd3a40-1fd5-431f-8ec2-5e2a03862373","system_id":"levelo_inurba_marseille","lat":43.336134,"lon":5.410341,"is_reserved":false,"is_disabled":false,"rental_uris":{"android":"levelo://app?vid=e0cd3a40-1fd5-431f-8ec2-5e2a03862373","ios":"levelo://app?vid=e0cd3a40-1fd5-431f-8ec2-5e2a03862373"},"vehicle_type_id":"4","last_reported":1702876035,"current_range_meters":30800,"station_id":"ce4bhqh2rcd13ifvqhmg","pricing_plan_id":"free"},{"bike_id":"bcae89cb-e6f2-4936-bd28-92dd59e25c3d","system_id":"levelo_inurba_marseille","lat":43.336148,"lon":5.410349,"is_reserved":false,"is_disabled":false,"rental_uris":{"android":"levelo://app?vid=bcae89cb-e6f2-4936-bd28-92dd59e25c3d","ios":"levelo://app?vid=bcae89cb-e6f2-4936-bd28-92dd59e25c3d"},"vehicle_type_id":"4","last_reported":1702876035,"current_range_meters":28800,"station_id":"ce4bhqh2rcd13ifvqhmg","pricing_plan_id":"free"},{"bike_id":"73bab7f4-fb2d-40ae-8e6d-6d9b2737007d","system_id":"levelo_inurba_marseille","lat":43.336134,"lon":5.410341,"is_reserved":false,"is_disabled":false,"rental_uris":{"android":"levelo://app?vid=73bab7f4-fb2d-40ae-8e6d-6d9b2737007d","ios":"levelo://app?vid=73bab7f4-fb2d-40ae-8e6d-6d9b2737007d"},"vehicle_type_id":"4","last_reported":1702876035,"current_range_meters":28000,"station_id":"ce4bhqh2rcd13ifvqhmg","pricing_plan_id":"free"},{"bike_id":"9d472012-eed1-4527-8c81-76cacbe40e57","system_id":"levelo_inurba_marseille","lat":43.336134,"lon":5.410341,"is_reserved":false,"is_disabled":false,"rental_uris":{"android":"levelo://app?vid=9d472012-eed1-4527-8c81-76cacbe40e57","ios":"levelo://app?vid=9d472012-eed1-4527-8c81-76cacbe40e57"},"vehicle_type_id":"4","last_reported":1702876035,"current_range_meters":17200,"station_id":"ce4bhqh2rcd13ifvqhmg","pricing_plan_id":"free"},{"bike_id":"ea3d35f6-b07e-4308-ae51-5376e9d8e7cc","system_id":"levelo_inurba_marseille","lat":43.27344,"lon":5.36454,"is_reserved":false,"is_disabled":false,"rental_uris":{"android":"levelo://app?vid=ea3d35f6-b07e-4308-ae51-5376e9d8e7cc","ios":"levelo://app?vid=ea3d35f6-b07e-4308-ae51-5376e9d8e7cc"},"vehicle_type_id":"4","last_reported":1702876035,"current_range_meters":8800,"station_id":"","pricing_plan_id":"free"},{"bike_id":"cbd17d66-b1f4-4562-a574-309bcde1e874","system_id":"levelo_inurba_marseille","lat":43.279952,"lon":5.400085,"is_reserved":false,"is_disabled":false,"rental_uris":{"android":"levelo://app?vid=cbd17d66-b1f4-4562-a574-309bcde1e874","ios":"levelo://app?vid=cbd17d66-b1f4-4562-a574-309bcde1e874"},"vehicle_type_id":"4","last_reported":1702876035,"current_range_meters":30800,"station_id":"ce4bho92rcd13ifvqh4g","pricing_plan_id":"free"},{"bike_id":"ba23a49f-f752-40f9-b881-d731ba920e07","system_id":"levelo_inurba_marseille","lat":43.32538,"lon":5.42124,"is_reserved":false,"is_disabled":false,"rental_uris":{"android":"levelo://app?vid=ba23a49f-f752-40f9-b881-d731ba920e07","ios":"levelo://app?vid=ba23a49f-f752-40f9-b881-d731ba920e07"},"vehicle_type_id":"4","last_reported":1702876035,"current_range_meters":29600,"station_id":"","pricing_plan_id":"free"},{"bike_id":"f97f3ae3-0746-4a73-8a97-072f8aa9cb10","system_id":"levelo_inurba_marseille","lat":43.310785,"lon":5.424305,"is_reserved":false,"is_disabled":false,"rental_uris":{"android":"levelo://app?vid=f97f3ae3-0746-4a73-8a97-072f8aa9cb10","ios":"levelo://app?vid=f97f3ae3-0746-4a73-8a97-072f8aa9cb10"},"vehicle_type_id":"4","last_reported":1702876035,"current_range_meters":30400,"station_id":"ce4bhp92rcd13ifvqhag","pricing_plan_id":"free"},{"bike_id":"5a820917-d3f1-4eb5-933c-bfc2eae402e7","system_id":"levelo_inurba_marseille","lat":43.340804,"lon":5.410219,"is_reserved":false,"is_disabled":false,"rental_uris":{"android":"levelo://app?vid=5a820917-d3f1-4eb5-933c-bfc2eae402e7","ios":"levelo://app?vid=5a820917-d3f1-4eb5-933c-bfc2eae402e7"},"vehicle_type_id":"4","last_reported":1702876035,"current_range_meters":30400,"station_id":"ce4bhqh2rcd13ifvqhlg","pricing_plan_id":"free"},{"bike_id":"3ca2c2d2-99b0-4aa6-a05d-e30f02e6a7fb","system_id":"levelo_inurba_marseille","lat":43.276092,"lon":5.395289,"is_reserved":false,"is_disabled":false,"rental_uris":{"android":"levelo://app?vid=3ca2c2d2-99b0-4aa6-a05d-e30f02e6a7fb","ios":"levelo://app?vid=3ca2c2d2-99b0-4aa6-a05d-e30f02e6a7fb"},"vehicle_type_id":"4","last_reported":1702876035,"current_range_meters":15200,"station_id":"","pricing_plan_id":"free"},{"bike_id":"cbb927bb-4d63-4d20-92b7-66e227444d8a","system_id":"levelo_inurba_marseille","lat":43.273129,"lon":5.390725,"is_reserved":false,"is_disabled":false,"rental_uris":{"android":"levelo://app?vid=cbb927bb-4d63-4d20-92b7-66e227444d8a","ios":"levelo://app?vid=cbb927bb-4d63-4d20-92b7-66e227444d8a"},"vehicle_type_id":"4","last_reported":1702876035,"current_range_meters":26000,"station_id":"ce4bhgp2rcd13ifvqfe0","pricing_plan_id":"free"},{"bike_id":"a1e8ea78-4947-4bd8-8a9f-e6e57c2c4170","system_id":"levelo_inurba_marseille","lat":43.304096,"lon":5.425385,"is_reserved":false,"is_disabled":false,"rental_uris":{"android":"levelo://app?vid=a1e8ea78-4947-4bd8-8a9f-e6e57c2c4170","ios":"levelo://app?vid=a1e8ea78-4947-4bd8-8a9f-e6e57c2c4170"},"vehicle_type_id":"4","last_reported":1702876035,"current_range_meters":16000,"station_id":"ce4bhoh2rcd13ifvqh6g","pricing_plan_id":"free"},{"bike_id":"34132faa-b6c8-4bc8-bb2b-2e126b5f036e","system_id":"levelo_inurba_marseille","lat":43.295511,"lon":5.422926,"is_reserved":false,"is_disabled":false,"rental_uris":{"android":"levelo://app?vid=34132faa-b6c8-4bc8-bb2b-2e126b5f036e","ios":"levelo://app?vid=34132faa-b6c8-4bc8-bb2b-2e126b5f036e"},"vehicle_type_id":"4","last_reported":1702876035,"current_range_meters":4800,"station_id":"ce4bhph2rcd13ifvqhdg","pricing_plan_id":"free"},{"bike_id":"bd889d21-a0bd-40b0-b41b-49629447ae8d","system_id":"levelo_inurba_marseille","lat":43.295511,"lon":5.422926,"is_reserved":false,"is_disabled":false,"rental_uris":{"android":"levelo://app?vid=bd889d21-a0bd-40b0-b41b-49629447ae8d","ios":"levelo://app?vid=bd889d21-a0bd-40b0-b41b-49629447ae8d"},"vehicle_type_id":"4","last_reported":1702876035,"current_range_meters":31600,"station_id":"ce4bhph2rcd13ifvqhdg","pricing_plan_id":"free"},{"bike_id":"628a1844-4de6-4ff8-b7b8-44bb12a39376","system_id":"levelo_inurba_marseille","lat":43.295511,"lon":5.422926,"is_reserved":false,"is_disabled":false,"rental_uris":{"android":"levelo://app?vid=628a1844-4de6-4ff8-b7b8-44bb12a39376","ios":"levelo://app?vid=628a1844-4de6-4ff8-b7b8-44bb12a39376"},"vehicle_type_id":"4","last_reported":1702876035,"current_range_meters":15600,"station_id":"ce4bhph2rcd13ifvqhdg","pricing_plan_id":"free"},{"bike_id":"6ce46d8b-eab3-4509-bce2-112ff2d1c3b6","system_id":"levelo_inurba_marseille","lat":43.295523,"lon":5.422926,"is_reserved":false,"is_disabled":false,"rental_uris":{"android":"levelo://app?vid=6ce46d8b-eab3-4509-bce2-112ff2d1c3b6","ios":"levelo://app?vid=6ce46d8b-eab3-4509-bce2-112ff2d1c3b6"},"vehicle_type_id":"4","last_reported":1702876035,"current_range_meters":30400,"station_id":"ce4bhph2rcd13ifvqhdg","pricing_plan_id":"free"},{"bike_id":"3de1a971-fc1d-4cd4-a0dd-f23c684c3cb0","system_id":"levelo_inurba_marseille","lat":43.295511,"lon":5.422926,"is_reserved":false,"is_disabled":false,"rental_uris":{"android":"levelo://app?vid=3de1a971-fc1d-4cd4-a0dd-f23c684c3cb0","ios":"levelo://app?vid=3de1a971-fc1d-4cd4-a0dd-f23c684c3cb0"},"vehicle_type_id":"4","last_reported":1702876035,"current_range_meters":23600,"station_id":"ce4bhph2rcd13ifvqhdg","pricing_plan_id":"free"},{"bike_id":"caf90517-610e-4bbb-9a25-f4d149990593","system_id":"levelo_inurba_marseille","lat":43.295523,"lon":5.422926,"is_reserved":false,"is_disabled":false,"rental_uris":{"android":"levelo://app?vid=caf90517-610e-4bbb-9a25-f4d149990593","ios":"levelo://app?vid=caf90517-610e-4bbb-9a25-f4d149990593"},"vehicle_type_id":"4","last_reported":1702876035,"current_range_meters":18000,"station_id":"ce4bhph2rcd13ifvqhdg","pricing_plan_id":"free"},{"bike_id":"e1289d66-e9ac-486b-928f-d2391b8d7596","system_id":"levelo_inurba_marseille","lat":43.272116,"lon":5.391763,"is_reserved":false,"is_disabled":false,"rental_uris":{"android":"levelo://app?vid=e1289d66-e9ac-486b-928f-d2391b8d7596","ios":"levelo://app?vid=e1289d66-e9ac-486b-928f-d2391b8d7596"},"vehicle_type_id":"4","last_reported":1702876035,"current_range_meters":28800,"station_id":"ce4bhhp2rcd13ifvqfm0","pricing_plan_id":"free"},{"bike_id":"d16219ff-6690-40b2-bb6c-001c1da81009","system_id":"levelo_inurba_marseille","lat":43.272116,"lon":5.391747,"is_reserved":false,"is_disabled":false,"rental_uris":{"android":"levelo://app?vid=d16219ff-6690-40b2-bb6c-001c1da81009","ios":"levelo://app?vid=d16219ff-6690-40b2-bb6c-001c1da81009"},"vehicle_type_id":"4","last_reported":1702876035,"current_range_meters":28400,"station_id":"ce4bhhp2rcd13ifvqfm0","pricing_plan_id":"free"},{"bike_id":"7c5e5a9a-9f39-4a14-9573-d5b8ab599dd5","system_id":"levelo_inurba_marseille","lat":43.27188,"lon":5.39224,"is_reserved":false,"is_disabled":false,"rental_uris":{"android":"levelo://app?vid=7c5e5a9a-9f39-4a14-9573-d5b8ab599dd5","ios":"levelo://app?vid=7c5e5a9a-9f39-4a14-9573-d5b8ab599dd5"},"vehicle_type_id":"4","last_reported":1702876035,"current_range_meters":15600,"station_id":"ce4bhhp2rcd13ifvqfm0","pricing_plan_id":"free"},{"bike_id":"065bacc7-8d89-4138-b269-73b1ec695767","system_id":"levelo_inurba_marseille","lat":43.278128,"lon":5.407195,"is_reserved":false,"is_disabled":false,"rental_uris":{"android":"levelo://app?vid=065bacc7-8d89-4138-b269-73b1ec695767","ios":"levelo://app?vid=065bacc7-8d89-4138-b269-73b1ec695767"},"vehicle_type_id":"4","last_reported":1702876035,"current_range_meters":0,"station_id":"ce4bhnh2rcd13ifvqgtg","pricing_plan_id":"free"},{"bike_id":"49484e60-f8f7-4099-a194-850e2e238bf1","system_id":"levelo_inurba_marseille","lat":43.278128,"lon":5.407195,"is_reserved":false,"is_disabled":false,"rental_uris":{"android":"levelo://app?vid=49484e60-f8f7-4099-a194-850e2e238bf1","ios":"levelo://app?vid=49484e60-f8f7-4099-a194-850e2e238bf1"},"vehicle_type_id":"4","last_reported":1702876035,"current_range_meters":32000,"station_id":"ce4bhnh2rcd13ifvqgtg","pricing_plan_id":"free"},{"bike_id":"aac0bd5b-e64d-4456-9a99-fd2727b7d938","system_id":"levelo_inurba_marseille","lat":43.279465,"lon":5.410561,"is_reserved":false,"is_disabled":false,"rental_uris":{"android":"levelo://app?vid=aac0bd5b-e64d-4456-9a99-fd2727b7d938","ios":"levelo://app?vid=aac0bd5b-e64d-4456-9a99-fd2727b7d938"},"vehicle_type_id":"4","last_reported":1702876035,"current_range_meters":0,"station_id":"ce4bhnp2rcd13ifvqh0g","pricing_plan_id":"free"},{"bike_id":"0ba68d5a-6039-403d-80d4-1a3d5ed78b9c","system_id":"levelo_inurba_marseille","lat":43.279465,"lon":5.410561,"is_reserved":false,"is_disabled":false,"rental_uris":{"android":"levelo://app?vid=0ba68d5a-6039-403d-80d4-1a3d5ed78b9c","ios":"levelo://app?vid=0ba68d5a-6039-403d-80d4-1a3d5ed78b9c"},"vehicle_type_id":"4","last_reported":1702876035,"current_range_meters":400,"station_id":"ce4bhnp2rcd13ifvqh0g","pricing_plan_id":"free"},{"bike_id":"db774753-4382-453e-a138-c32d538f9839","system_id":"levelo_inurba_marseille","lat":43.358673,"lon":5.356887,"is_reserved":false,"is_disabled":false,"rental_uris":{"android":"levelo://app?vid=db774753-4382-453e-a138-c32d538f9839","ios":"levelo://app?vid=db774753-4382-453e-a138-c32d538f9839"},"vehicle_type_id":"4","last_reported":1702876035,"current_range_meters":10800,"station_id":"","pricing_plan_id":"free"},{"bike_id":"3ec397f0-b8da-4e84-be43-f4abb20ebecf","system_id":"levelo_inurba_marseille","lat":43.276619,"lon":5.411751,"is_reserved":false,"is_disabled":false,"rental_uris":{"android":"levelo://app?vid=3ec397f0-b8da-4e84-be43-f4abb20ebecf","ios":"levelo://app?vid=3ec397f0-b8da-4e84-be43-f4abb20ebecf"},"vehicle_type_id":"4","last_reported":1702876035,"current_range_meters":24800,"station_id":"","pricing_plan_id":"free"},{"bike_id":"915367ca-16a6-47a0-ab91-f37f8d0c62e1","system_id":"levelo_inurba_marseille","lat":43.27996,"lon":5.416624,"is_reserved":false,"is_disabled":false,"rental_uris":{"android":"levelo://app?vid=915367ca-16a6-47a0-ab91-f37f8d0c62e1","ios":"levelo://app?vid=915367ca-16a6-47a0-ab91-f37f8d0c62e1"},"vehicle_type_id":"4","last_reported":1702876035,"current_range_meters":20000,"station_id":"ce4bho12rcd13ifvqh1g","pricing_plan_id":"free"},{"bike_id":"02079aec-e424-4f31-8cf2-a54be127de43","system_id":"levelo_inurba_marseille","lat":43.27996,"lon":5.416624,"is_reserved":false,"is_disabled":false,"rental_uris":{"android":"levelo://app?vid=02079aec-e424-4f31-8cf2-a54be127de43","ios":"levelo://app?vid=02079aec-e424-4f31-8cf2-a54be127de43"},"vehicle_type_id":"4","last_reported":1702876035,"current_range_meters":400,"station_id":"ce4bho12rcd13ifvqh1g","pricing_plan_id":"free"},{"bike_id":"65775943-c61b-4f6b-8d98-0189049620fe","system_id":"levelo_inurba_marseille","lat":43.27996,"lon":5.416624,"is_reserved":false,"is_disabled":false,"rental_uris":{"android":"levelo://app?vid=65775943-c61b-4f6b-8d98-0189049620fe","ios":"levelo://app?vid=65775943-c61b-4f6b-8d98-0189049620fe"},"vehicle_type_id":"4","last_reported":1702876035,"current_range_meters":1200,"station_id":"ce4bho12rcd13ifvqh1g","pricing_plan_id":"free"},{"bike_id":"6abfd672-edce-4506-8ac1-6a27b1d3fe2a","system_id":"levelo_inurba_marseille","lat":43.27996,"lon":5.416624,"is_reserved":false,"is_disabled":false,"rental_uris":{"android":"levelo://app?vid=6abfd672-edce-4506-8ac1-6a27b1d3fe2a","ios":"levelo://app?vid=6abfd672-edce-4506-8ac1-6a27b1d3fe2a"},"vehicle_type_id":"4","last_reported":1702876035,"current_range_meters":31600,"station_id":"ce4bho12rcd13ifvqh1g","pricing_plan_id":"free"},{"bike_id":"2fabff26-3d95-4642-b066-d51802e5a40b","system_id":"levelo_inurba_marseille","lat":43.27996,"lon":5.416624,"is_reserved":false,"is_disabled":false,"rental_uris":{"android":"levelo://app?vid=2fabff26-3d95-4642-b066-d51802e5a40b","ios":"levelo://app?vid=2fabff26-3d95-4642-b066-d51802e5a40b"},"vehicle_type_id":"4","last_reported":1702876035,"current_range_meters":23200,"station_id":"ce4bho12rcd13ifvqh1g","pricing_plan_id":"free"},{"bike_id":"374ddbeb-067d-4d25-afdf-a780d489ac67","system_id":"levelo_inurba_marseille","lat":43.26561,"lon":5.39003,"is_reserved":false,"is_disabled":false,"rental_uris":{"android":"levelo://app?vid=374ddbeb-067d-4d25-afdf-a780d489ac67","ios":"levelo://app?vid=374ddbeb-067d-4d25-afdf-a780d489ac67"},"vehicle_type_id":"4","last_reported":1702876035,"current_range_meters":7600,"station_id":"ce4bhe12rcd13ifvqf30","pricing_plan_id":"free"},{"bike_id":"548a48c1-fc13-40ed-bdc9-6324f21ce3fd","system_id":"levelo_inurba_marseille","lat":43.269357,"lon":5.402559,"is_reserved":false,"is_disabled":false,"rental_uris":{"android":"levelo://app?vid=548a48c1-fc13-40ed-bdc9-6324f21ce3fd","ios":"levelo://app?vid=548a48c1-fc13-40ed-bdc9-6324f21ce3fd"},"vehicle_type_id":"4","last_reported":1702876035,"current_range_meters":15200,"station_id":"cjm6bp8fraef2m0cb0m0","pricing_plan_id":"free"},{"bike_id":"8c6e2fe8-a587-4403-a2e8-bb999460a909","system_id":"levelo_inurba_marseille","lat":43.261782,"lon":5.374515,"is_reserved":false,"is_disabled":false,"rental_uris":{"android":"levelo://app?vid=8c6e2fe8-a587-4403-a2e8-bb999460a909","ios":"levelo://app?vid=8c6e2fe8-a587-4403-a2e8-bb999460a909"},"vehicle_type_id":"4","last_reported":1702876035,"current_range_meters":30000,"station_id":"ce4bhgp2rcd13ifvqfc0","pricing_plan_id":"free"},{"bike_id":"6660d8d4-b7f2-4059-846f-048e53a1c0fb","system_id":"levelo_inurba_marseille","lat":43.317104,"lon":5.436818,"is_reserved":false,"is_disabled":false,"rental_uris":{"android":"levelo://app?vid=6660d8d4-b7f2-4059-846f-048e53a1c0fb","ios":"levelo://app?vid=6660d8d4-b7f2-4059-846f-048e53a1c0fb"},"vehicle_type_id":"4","last_reported":1702876035,"current_range_meters":29200,"station_id":"ce4bhp92rcd13ifvqhcg","pricing_plan_id":"free"},{"bike_id":"7a6af108-6355-4d85-9213-ca56151380c7","system_id":"levelo_inurba_marseille","lat":43.262012,"lon":5.379307,"is_reserved":false,"is_disabled":false,"rental_uris":{"android":"levelo://app?vid=7a6af108-6355-4d85-9213-ca56151380c7","ios":"levelo://app?vid=7a6af108-6355-4d85-9213-ca56151380c7"},"vehicle_type_id":"4","last_reported":1702876035,"current_range_meters":30400,"station_id":"ce4bhjp2rcd13ifvqg90","pricing_plan_id":"free"},{"bike_id":"f65444ec-3c91-4999-baac-f9a106aa991b","system_id":"levelo_inurba_marseille","lat":43.271368,"lon":5.40928,"is_reserved":false,"is_disabled":false,"rental_uris":{"android":"levelo://app?vid=f65444ec-3c91-4999-baac-f9a106aa991b","ios":"levelo://app?vid=f65444ec-3c91-4999-baac-f9a106aa991b"},"vehicle_type_id":"4","last_reported":1702876035,"current_range_meters":26000,"station_id":"ce4bhl12rcd13ifvqgf0","pricing_plan_id":"free"},{"bike_id":"edf0b958-77a8-4f10-9843-f5819cf7a9f3","system_id":"levelo_inurba_marseille","lat":43.267959,"lon":5.402687,"is_reserved":false,"is_disabled":false,"rental_uris":{"android":"levelo://app?vid=edf0b958-77a8-4f10-9843-f5819cf7a9f3","ios":"levelo://app?vid=edf0b958-77a8-4f10-9843-f5819cf7a9f3"},"vehicle_type_id":"4","last_reported":1702876035,"current_range_meters":28400,"station_id":"ce501612rcd8frsf0b60","pricing_plan_id":"free"},{"bike_id":"0d25c7cf-fccc-4737-b9fc-d61d39eb361a","system_id":"levelo_inurba_marseille","lat":43.267959,"lon":5.402685,"is_reserved":false,"is_disabled":false,"rental_uris":{"android":"levelo://app?vid=0d25c7cf-fccc-4737-b9fc-d61d39eb361a","ios":"levelo://app?vid=0d25c7cf-fccc-4737-b9fc-d61d39eb361a"},"vehicle_type_id":"4","last_reported":1702876035,"current_range_meters":30000,"station_id":"ce501612rcd8frsf0b60","pricing_plan_id":"free"},{"bike_id":"c7e305f5-4cd3-4456-8576-0598badb7074","system_id":"levelo_inurba_marseille","lat":43.298768,"lon":5.43643,"is_reserved":false,"is_disabled":false,"rental_uris":{"android":"levelo://app?vid=c7e305f5-4cd3-4456-8576-0598badb7074","ios":"levelo://app?vid=c7e305f5-4cd3-4456-8576-0598badb7074"},"vehicle_type_id":"4","last_reported":1702876035,"current_range_meters":400,"station_id":"ce4bhpp2rcd13ifvqhfg","pricing_plan_id":"free"},{"bike_id":"0fb74b89-115a-44e5-bf69-7c778a4aa163","system_id":"levelo_inurba_marseille","lat":43.29889,"lon":5.43658,"is_reserved":false,"is_disabled":false,"rental_uris":{"android":"levelo://app?vid=0fb74b89-115a-44e5-bf69-7c778a4aa163","ios":"levelo://app?vid=0fb74b89-115a-44e5-bf69-7c778a4aa163"},"vehicle_type_id":"4","last_reported":1702876035,"current_range_meters":24400,"station_id":"ce4bhpp2rcd13ifvqhfg","pricing_plan_id":"free"},{"bike_id":"401c3d2e-e4f6-41cf-b169-f6c01e61aa12","system_id":"levelo_inurba_marseille","lat":43.298768,"lon":5.43643,"is_reserved":false,"is_disabled":false,"rental_uris":{"android":"levelo://app?vid=401c3d2e-e4f6-41cf-b169-f6c01e61aa12","ios":"levelo://app?vid=401c3d2e-e4f6-41cf-b169-f6c01e61aa12"},"vehicle_type_id":"4","last_reported":1702876035,"current_range_meters":32000,"station_id":"ce4bhpp2rcd13ifvqhfg","pricing_plan_id":"free"},{"bike_id":"c2167490-6be9-498c-b423-bd4d5928adb2","system_id":"levelo_inurba_marseille","lat":43.298935,"lon":5.436689,"is_reserved":false,"is_disabled":false,"rental_uris":{"android":"levelo://app?vid=c2167490-6be9-498c-b423-bd4d5928adb2","ios":"levelo://app?vid=c2167490-6be9-498c-b423-bd4d5928adb2"},"vehicle_type_id":"4","last_reported":1702876035,"current_range_meters":28800,"station_id":"ce4bhpp2rcd13ifvqhfg","pricing_plan_id":"free"},{"bike_id":"56bd6f6b-8a67-44c3-971c-fc9d8fe731fc","system_id":"levelo_inurba_marseille","lat":43.298768,"lon":5.43643,"is_reserved":false,"is_disabled":false,"rental_uris":{"android":"levelo://app?vid=56bd6f6b-8a67-44c3-971c-fc9d8fe731fc","ios":"levelo://app?vid=56bd6f6b-8a67-44c3-971c-fc9d8fe731fc"},"vehicle_type_id":"4","last_reported":1702876035,"current_range_meters":32000,"station_id":"ce4bhpp2rcd13ifvqhfg","pricing_plan_id":"free"},{"bike_id":"789899a7-63a0-46b3-843c-64ff0b8e294b","system_id":"levelo_inurba_marseille","lat":43.28152,"lon":5.42639,"is_reserved":false,"is_disabled":false,"rental_uris":{"android":"levelo://app?vid=789899a7-63a0-46b3-843c-64ff0b8e294b","ios":"levelo://app?vid=789899a7-63a0-46b3-843c-64ff0b8e294b"},"vehicle_type_id":"4","last_reported":1702876035,"current_range_meters":0,"station_id":"ce4bhnh2rcd13ifvqgug","pricing_plan_id":"free"},{"bike_id":"ca24fd01-fe41-4594-99e5-b25e1c77639a","system_id":"levelo_inurba_marseille","lat":43.281548,"lon":5.42643,"is_reserved":false,"is_disabled":false,"rental_uris":{"android":"levelo://app?vid=ca24fd01-fe41-4594-99e5-b25e1c77639a","ios":"levelo://app?vid=ca24fd01-fe41-4594-99e5-b25e1c77639a"},"vehicle_type_id":"4","last_reported":1702876035,"current_range_meters":23200,"station_id":"ce4bhnh2rcd13ifvqgug","pricing_plan_id":"free"},{"bike_id":"a5e26e45-44b5-43cf-92f7-6dd596eeb6a5","system_id":"levelo_inurba_marseille","lat":43.281548,"lon":5.42643,"is_reserved":false,"is_disabled":false,"rental_uris":{"android":"levelo://app?vid=a5e26e45-44b5-43cf-92f7-6dd596eeb6a5","ios":"levelo://app?vid=a5e26e45-44b5-43cf-92f7-6dd596eeb6a5"},"vehicle_type_id":"4","last_reported":1702876035,"current_range_meters":22000,"station_id":"ce4bhnh2rcd13ifvqgug","pricing_plan_id":"free"},{"bike_id":"6a2c27d7-6ee5-4de4-8f3d-1b53dc62a886","system_id":"levelo_inurba_marseille","lat":43.281548,"lon":5.42643,"is_reserved":false,"is_disabled":false,"rental_uris":{"android":"levelo://app?vid=6a2c27d7-6ee5-4de4-8f3d-1b53dc62a886","ios":"levelo://app?vid=6a2c27d7-6ee5-4de4-8f3d-1b53dc62a886"},"vehicle_type_id":"4","last_reported":1702876035,"current_range_meters":22000,"station_id":"ce4bhnh2rcd13ifvqgug","pricing_plan_id":"free"},{"bike_id":"a9c5677c-9698-4c24-9152-63537787a4b2","system_id":"levelo_inurba_marseille","lat":43.281548,"lon":5.42643,"is_reserved":false,"is_disabled":false,"rental_uris":{"android":"levelo://app?vid=a9c5677c-9698-4c24-9152-63537787a4b2","ios":"levelo://app?vid=a9c5677c-9698-4c24-9152-63537787a4b2"},"vehicle_type_id":"4","last_reported":1702876035,"current_range_meters":5600,"station_id":"ce4bhnh2rcd13ifvqgug","pricing_plan_id":"free"},{"bike_id":"ddbf5051-c90b-46f5-bffe-7b7e7bcd726d","system_id":"levelo_inurba_marseille","lat":43.281548,"lon":5.42643,"is_reserved":false,"is_disabled":false,"rental_uris":{"android":"levelo://app?vid=ddbf5051-c90b-46f5-bffe-7b7e7bcd726d","ios":"levelo://app?vid=ddbf5051-c90b-46f5-bffe-7b7e7bcd726d"},"vehicle_type_id":"4","last_reported":1702876035,"current_range_meters":27600,"station_id":"ce4bhnh2rcd13ifvqgug","pricing_plan_id":"free"},{"bike_id":"82baed80-82a8-4a1a-ac7d-eb2a2bef5bc7","system_id":"levelo_inurba_marseille","lat":43.281548,"lon":5.42643,"is_reserved":false,"is_disabled":false,"rental_uris":{"android":"levelo://app?vid=82baed80-82a8-4a1a-ac7d-eb2a2bef5bc7","ios":"levelo://app?vid=82baed80-82a8-4a1a-ac7d-eb2a2bef5bc7"},"vehicle_type_id":"4","last_reported":1702876035,"current_range_meters":30400,"station_id":"ce4bhnh2rcd13ifvqgug","pricing_plan_id":"free"},{"bike_id":"fe9193f8-fd25-4fd1-8040-7b6a3d09eb6c","system_id":"levelo_inurba_marseille","lat":43.2607,"lon":5.393983,"is_reserved":false,"is_disabled":false,"rental_uris":{"android":"levelo://app?vid=fe9193f8-fd25-4fd1-8040-7b6a3d09eb6c","ios":"levelo://app?vid=fe9193f8-fd25-4fd1-8040-7b6a3d09eb6c"},"vehicle_type_id":"4","last_reported":1702876035,"current_range_meters":28800,"station_id":"ce4bhh92rcd13ifvqfj0","pricing_plan_id":"free"},{"bike_id":"ad6c14e7-6cbe-4351-be28-a6dad1b3c8fd","system_id":"levelo_inurba_marseille","lat":43.2607,"lon":5.393983,"is_reserved":false,"is_disabled":false,"rental_uris":{"android":"levelo://app?vid=ad6c14e7-6cbe-4351-be28-a6dad1b3c8fd","ios":"levelo://app?vid=ad6c14e7-6cbe-4351-be28-a6dad1b3c8fd"},"vehicle_type_id":"4","last_reported":1702876035,"current_range_meters":26000,"station_id":"ce4bhh92rcd13ifvqfj0","pricing_plan_id":"free"},{"bike_id":"d2007443-4338-42cb-923c-147041d30edf","system_id":"levelo_inurba_marseille","lat":43.275028,"lon":5.424534,"is_reserved":false,"is_disabled":false,"rental_uris":{"android":"levelo://app?vid=d2007443-4338-42cb-923c-147041d30edf","ios":"levelo://app?vid=d2007443-4338-42cb-923c-147041d30edf"},"vehicle_type_id":"4","last_reported":1702876035,"current_range_meters":31600,"station_id":"ce4bhn92rcd13ifvqgrg","pricing_plan_id":"free"},{"bike_id":"ff00ffc6-1f36-457c-a38b-c213194d2ed3","system_id":"levelo_inurba_marseille","lat":43.275028,"lon":5.424534,"is_reserved":false,"is_disabled":false,"rental_uris":{"android":"levelo://app?vid=ff00ffc6-1f36-457c-a38b-c213194d2ed3","ios":"levelo://app?vid=ff00ffc6-1f36-457c-a38b-c213194d2ed3"},"vehicle_type_id":"4","last_reported":1702876035,"current_range_meters":800,"station_id":"ce4bhn92rcd13ifvqgrg","pricing_plan_id":"free"},{"bike_id":"6a24c9c2-0536-4d05-8056-8d8332f4bc28","system_id":"levelo_inurba_marseille","lat":43.275028,"lon":5.424534,"is_reserved":false,"is_disabled":false,"rental_uris":{"android":"levelo://app?vid=6a24c9c2-0536-4d05-8056-8d8332f4bc28","ios":"levelo://app?vid=6a24c9c2-0536-4d05-8056-8d8332f4bc28"},"vehicle_type_id":"4","last_reported":1702876035,"current_range_meters":31200,"station_id":"ce4bhn92rcd13ifvqgrg","pricing_plan_id":"free"},{"bike_id":"894c7bfd-1457-4b5b-aa99-ce098fef9992","system_id":"levelo_inurba_marseille","lat":43.258224,"lon":5.394369,"is_reserved":false,"is_disabled":false,"rental_uris":{"android":"levelo://app?vid=894c7bfd-1457-4b5b-aa99-ce098fef9992","ios":"levelo://app?vid=894c7bfd-1457-4b5b-aa99-ce098fef9992"},"vehicle_type_id":"4","last_reported":1702876035,"current_range_meters":30000,"station_id":"ce4bhip2rcd13ifvqft0","pricing_plan_id":"free"},{"bike_id":"e84516b5-1b21-466a-b986-f84c489981db","system_id":"levelo_inurba_marseille","lat":43.270721,"lon":5.422764,"is_reserved":false,"is_disabled":false,"rental_uris":{"android":"levelo://app?vid=e84516b5-1b21-466a-b986-f84c489981db","ios":"levelo://app?vid=e84516b5-1b21-466a-b986-f84c489981db"},"vehicle_type_id":"4","last_reported":1702876035,"current_range_meters":30000,"station_id":"ce4bhk92rcd13ifvqgb0","pricing_plan_id":"free"},{"bike_id":"398d9584-5112-43f3-9ae0-a743225a4860","system_id":"levelo_inurba_marseille","lat":43.270721,"lon":5.422764,"is_reserved":false,"is_disabled":false,"rental_uris":{"android":"levelo://app?vid=398d9584-5112-43f3-9ae0-a743225a4860","ios":"levelo://app?vid=398d9584-5112-43f3-9ae0-a743225a4860"},"vehicle_type_id":"4","last_reported":1702876035,"current_range_meters":13600,"station_id":"ce4bhk92rcd13ifvqgb0","pricing_plan_id":"free"},{"bike_id":"515d0fde-389d-4ed0-bbc2-8b970ea82a25","system_id":"levelo_inurba_marseille","lat":43.270721,"lon":5.422764,"is_reserved":false,"is_disabled":false,"rental_uris":{"android":"levelo://app?vid=515d0fde-389d-4ed0-bbc2-8b970ea82a25","ios":"levelo://app?vid=515d0fde-389d-4ed0-bbc2-8b970ea82a25"},"vehicle_type_id":"4","last_reported":1702876035,"current_range_meters":29600,"station_id":"ce4bhk92rcd13ifvqgb0","pricing_plan_id":"free"},{"bike_id":"66e75ce4-27ff-40cf-8b53-537efc2e92dc","system_id":"levelo_inurba_marseille","lat":43.259009,"lon":5.40929,"is_reserved":false,"is_disabled":false,"rental_uris":{"android":"levelo://app?vid=66e75ce4-27ff-40cf-8b53-537efc2e92dc","ios":"levelo://app?vid=66e75ce4-27ff-40cf-8b53-537efc2e92dc"},"vehicle_type_id":"4","last_reported":1702876035,"current_range_meters":4800,"station_id":"ce4bhm92rcd13ifvqglg","pricing_plan_id":"free"},{"bike_id":"61a4c449-70c1-4d31-941e-a3fe596474dd","system_id":"levelo_inurba_marseille","lat":43.259278,"lon":5.409126,"is_reserved":false,"is_disabled":false,"rental_uris":{"android":"levelo://app?vid=61a4c449-70c1-4d31-941e-a3fe596474dd","ios":"levelo://app?vid=61a4c449-70c1-4d31-941e-a3fe596474dd"},"vehicle_type_id":"4","last_reported":1702876035,"current_range_meters":29200,"station_id":"ce4bhm92rcd13ifvqglg","pricing_plan_id":"free"},{"bike_id":"7bd7a13d-c032-4624-b3d1-4ea076522eeb","system_id":"levelo_inurba_marseille","lat":43.25724,"lon":5.4111,"is_reserved":false,"is_disabled":false,"rental_uris":{"android":"levelo://app?vid=7bd7a13d-c032-4624-b3d1-4ea076522eeb","ios":"levelo://app?vid=7bd7a13d-c032-4624-b3d1-4ea076522eeb"},"vehicle_type_id":"4","last_reported":1702876035,"current_range_meters":22000,"station_id":"ce4bhkp2rcd13ifvqgd0","pricing_plan_id":"free"},{"bike_id":"2621e1bf-a787-40dc-861f-9047caa219e2","system_id":"levelo_inurba_marseille","lat":43.257079,"lon":5.411051,"is_reserved":false,"is_disabled":false,"rental_uris":{"android":"levelo://app?vid=2621e1bf-a787-40dc-861f-9047caa219e2","ios":"levelo://app?vid=2621e1bf-a787-40dc-861f-9047caa219e2"},"vehicle_type_id":"4","last_reported":1702876035,"current_range_meters":26800,"station_id":"ce4bhkp2rcd13ifvqgd0","pricing_plan_id":"free"},{"bike_id":"458f438c-c772-4f53-bea4-5f5d58494161","system_id":"levelo_inurba_marseille","lat":43.250009,"lon":5.389195,"is_reserved":false,"is_disabled":false,"rental_uris":{"android":"levelo://app?vid=458f438c-c772-4f53-bea4-5f5d58494161","ios":"levelo://app?vid=458f438c-c772-4f53-bea4-5f5d58494161"},"vehicle_type_id":"4","last_reported":1702876035,"current_range_meters":17600,"station_id":"ce4bhgp2rcd13ifvqfd0","pricing_plan_id":"free"},{"bike_id":"f05adf45-6799-4a9e-98f3-1637de8c8916","system_id":"levelo_inurba_marseille","lat":43.250023,"lon":5.38919,"is_reserved":false,"is_disabled":false,"rental_uris":{"android":"levelo://app?vid=f05adf45-6799-4a9e-98f3-1637de8c8916","ios":"levelo://app?vid=f05adf45-6799-4a9e-98f3-1637de8c8916"},"vehicle_type_id":"4","last_reported":1702876035,"current_range_meters":31200,"station_id":"ce4bhgp2rcd13ifvqfd0","pricing_plan_id":"free"},{"bike_id":"75ec2021-2426-4bb2-93f5-efa8750a1a88","system_id":"levelo_inurba_marseille","lat":43.2479,"lon":5.374457,"is_reserved":false,"is_disabled":false,"rental_uris":{"android":"levelo://app?vid=75ec2021-2426-4bb2-93f5-efa8750a1a88","ios":"levelo://app?vid=75ec2021-2426-4bb2-93f5-efa8750a1a88"},"vehicle_type_id":"4","last_reported":1702876035,"current_range_meters":21600,"station_id":"ce4bhgh2rcd13ifvqfb0","pricing_plan_id":"free"},{"bike_id":"55a2bd26-c3b5-42ec-ab2a-d6c104ed340a","system_id":"levelo_inurba_marseille","lat":43.2479,"lon":5.374457,"is_reserved":false,"is_disabled":false,"rental_uris":{"android":"levelo://app?vid=55a2bd26-c3b5-42ec-ab2a-d6c104ed340a","ios":"levelo://app?vid=55a2bd26-c3b5-42ec-ab2a-d6c104ed340a"},"vehicle_type_id":"4","last_reported":1702876035,"current_range_meters":27600,"station_id":"ce4bhgh2rcd13ifvqfb0","pricing_plan_id":"free"},{"bike_id":"56643eee-b317-4cde-abc7-81e19e588d65","system_id":"levelo_inurba_marseille","lat":43.2479,"lon":5.374457,"is_reserved":false,"is_disabled":false,"rental_uris":{"android":"levelo://app?vid=56643eee-b317-4cde-abc7-81e19e588d65","ios":"levelo://app?vid=56643eee-b317-4cde-abc7-81e19e588d65"},"vehicle_type_id":"4","last_reported":1702876035,"current_range_meters":27600,"station_id":"ce4bhgh2rcd13ifvqfb0","pricing_plan_id":"free"},{"bike_id":"5065f1c1-0d9e-438b-a54c-a6bd79eab63b","system_id":"levelo_inurba_marseille","lat":43.250859,"lon":5.395181,"is_reserved":false,"is_disabled":false,"rental_uris":{"android":"levelo://app?vid=5065f1c1-0d9e-438b-a54c-a6bd79eab63b","ios":"levelo://app?vid=5065f1c1-0d9e-438b-a54c-a6bd79eab63b"},"vehicle_type_id":"4","last_reported":1702876035,"current_range_meters":13600,"station_id":"ce4bhm12rcd13ifvqgkg","pricing_plan_id":"free"},{"bike_id":"68ad5482-5b51-4a78-9e56-37686a908d47","system_id":"levelo_inurba_marseille","lat":43.251094,"lon":5.4032,"is_reserved":false,"is_disabled":false,"rental_uris":{"android":"levelo://app?vid=68ad5482-5b51-4a78-9e56-37686a908d47","ios":"levelo://app?vid=68ad5482-5b51-4a78-9e56-37686a908d47"},"vehicle_type_id":"4","last_reported":1702876035,"current_range_meters":15200,"station_id":"ce4bhlh2rcd13ifvqgig","pricing_plan_id":"free"},{"bike_id":"1a4f327e-cf97-49cf-b242-87c2e19e8eb8","system_id":"levelo_inurba_marseille","lat":43.25102,"lon":5.403214,"is_reserved":false,"is_disabled":false,"rental_uris":{"android":"levelo://app?vid=1a4f327e-cf97-49cf-b242-87c2e19e8eb8","ios":"levelo://app?vid=1a4f327e-cf97-49cf-b242-87c2e19e8eb8"},"vehicle_type_id":"4","last_reported":1702876035,"current_range_meters":3200,"station_id":"ce4bhlh2rcd13ifvqgig","pricing_plan_id":"free"},{"bike_id":"ff87c97a-8d50-4ebb-a273-c67feb832d49","system_id":"levelo_inurba_marseille","lat":43.25102,"lon":5.403214,"is_reserved":false,"is_disabled":false,"rental_uris":{"android":"levelo://app?vid=ff87c97a-8d50-4ebb-a273-c67feb832d49","ios":"levelo://app?vid=ff87c97a-8d50-4ebb-a273-c67feb832d49"},"vehicle_type_id":"4","last_reported":1702876035,"current_range_meters":31200,"station_id":"ce4bhlh2rcd13ifvqgig","pricing_plan_id":"free"},{"bike_id":"fe9ccdab-fe95-44ab-bec2-8aec2bd5edf0","system_id":"levelo_inurba_marseille","lat":43.25102,"lon":5.403214,"is_reserved":false,"is_disabled":false,"rental_uris":{"android":"levelo://app?vid=fe9ccdab-fe95-44ab-bec2-8aec2bd5edf0","ios":"levelo://app?vid=fe9ccdab-fe95-44ab-bec2-8aec2bd5edf0"},"vehicle_type_id":"4","last_reported":1702876035,"current_range_meters":0,"station_id":"ce4bhlh2rcd13ifvqgig","pricing_plan_id":"free"},{"bike_id":"d8ceb2a8-18be-43c6-956b-be6402a8c876","system_id":"levelo_inurba_marseille","lat":43.251086,"lon":5.403228,"is_reserved":false,"is_disabled":false,"rental_uris":{"android":"levelo://app?vid=d8ceb2a8-18be-43c6-956b-be6402a8c876","ios":"levelo://app?vid=d8ceb2a8-18be-43c6-956b-be6402a8c876"},"vehicle_type_id":"4","last_reported":1702876035,"current_range_meters":0,"station_id":"ce4bhlh2rcd13ifvqgig","pricing_plan_id":"free"},{"bike_id":"49736bf4-0f56-4b62-858d-fd0c6b53c171","system_id":"levelo_inurba_marseille","lat":43.25102,"lon":5.403214,"is_reserved":false,"is_disabled":false,"rental_uris":{"android":"levelo://app?vid=49736bf4-0f56-4b62-858d-fd0c6b53c171","ios":"levelo://app?vid=49736bf4-0f56-4b62-858d-fd0c6b53c171"},"vehicle_type_id":"4","last_reported":1702876035,"current_range_meters":23200,"station_id":"ce4bhlh2rcd13ifvqgig","pricing_plan_id":"free"},{"bike_id":"f392f14d-f32c-4167-a8f6-d6eb07ecbc11","system_id":"levelo_inurba_marseille","lat":43.246467,"lon":5.388984,"is_reserved":false,"is_disabled":false,"rental_uris":{"android":"levelo://app?vid=f392f14d-f32c-4167-a8f6-d6eb07ecbc11","ios":"levelo://app?vid=f392f14d-f32c-4167-a8f6-d6eb07ecbc11"},"vehicle_type_id":"4","last_reported":1702876035,"current_range_meters":28800,"station_id":"ce4bhg12rcd13ifvqf60","pricing_plan_id":"free"},{"bike_id":"fe15f254-4446-453f-bfd7-f986bc6ceb05","system_id":"levelo_inurba_marseille","lat":43.243884,"lon":5.370737,"is_reserved":false,"is_disabled":false,"rental_uris":{"android":"levelo://app?vid=fe15f254-4446-453f-bfd7-f986bc6ceb05","ios":"levelo://app?vid=fe15f254-4446-453f-bfd7-f986bc6ceb05"},"vehicle_type_id":"4","last_reported":1702876035,"current_range_meters":27600,"station_id":"ce4bhhh2rcd13ifvqfk0","pricing_plan_id":"free"},{"bike_id":"c26d6df2-50c5-4e14-9967-4ccd466285c9","system_id":"levelo_inurba_marseille","lat":43.243884,"lon":5.370736,"is_reserved":false,"is_disabled":false,"rental_uris":{"android":"levelo://app?vid=c26d6df2-50c5-4e14-9967-4ccd466285c9","ios":"levelo://app?vid=c26d6df2-50c5-4e14-9967-4ccd466285c9"},"vehicle_type_id":"4","last_reported":1702876035,"current_range_meters":28400,"station_id":"ce4bhhh2rcd13ifvqfk0","pricing_plan_id":"free"},{"bike_id":"c7978104-24ef-4e1d-8dc8-cc046b6c7589","system_id":"levelo_inurba_marseille","lat":43.243884,"lon":5.370737,"is_reserved":false,"is_disabled":false,"rental_uris":{"android":"levelo://app?vid=c7978104-24ef-4e1d-8dc8-cc046b6c7589","ios":"levelo://app?vid=c7978104-24ef-4e1d-8dc8-cc046b6c7589"},"vehicle_type_id":"4","last_reported":1702876035,"current_range_meters":30000,"station_id":"ce4bhhh2rcd13ifvqfk0","pricing_plan_id":"free"},{"bike_id":"f8278e08-8947-417c-99f2-ea2400097ac8","system_id":"levelo_inurba_marseille","lat":43.245581,"lon":5.395069,"is_reserved":false,"is_disabled":false,"rental_uris":{"android":"levelo://app?vid=f8278e08-8947-417c-99f2-ea2400097ac8","ios":"levelo://app?vid=f8278e08-8947-417c-99f2-ea2400097ac8"},"vehicle_type_id":"4","last_reported":1702876035,"current_range_meters":29200,"station_id":"ce4bhlp2rcd13ifvqgjg","pricing_plan_id":"free"},{"bike_id":"3ddc37df-78bf-4b34-bf39-a4b1da7cd885","system_id":"levelo_inurba_marseille","lat":43.245581,"lon":5.395069,"is_reserved":false,"is_disabled":false,"rental_uris":{"android":"levelo://app?vid=3ddc37df-78bf-4b34-bf39-a4b1da7cd885","ios":"levelo://app?vid=3ddc37df-78bf-4b34-bf39-a4b1da7cd885"},"vehicle_type_id":"4","last_reported":1702876035,"current_range_meters":1200,"station_id":"ce4bhlp2rcd13ifvqgjg","pricing_plan_id":"free"},{"bike_id":"06bea5c1-932e-4686-a69e-73c3a94a649c","system_id":"levelo_inurba_marseille","lat":43.240706,"lon":5.377534,"is_reserved":false,"is_disabled":false,"rental_uris":{"android":"levelo://app?vid=06bea5c1-932e-4686-a69e-73c3a94a649c","ios":"levelo://app?vid=06bea5c1-932e-4686-a69e-73c3a94a649c"},"vehicle_type_id":"4","last_reported":1702876035,"current_range_meters":27600,"station_id":"ce4bhnp2rcd13ifvqgvg","pricing_plan_id":"free"},{"bike_id":"ab53bb42-61c7-49e6-9264-16f1931406aa","system_id":"levelo_inurba_marseille","lat":43.239588,"lon":5.366238,"is_reserved":false,"is_disabled":false,"rental_uris":{"android":"levelo://app?vid=ab53bb42-61c7-49e6-9264-16f1931406aa","ios":"levelo://app?vid=ab53bb42-61c7-49e6-9264-16f1931406aa"},"vehicle_type_id":"4","last_reported":1702876035,"current_range_meters":23200,"station_id":"ce4bhi12rcd13ifvqfp0","pricing_plan_id":"free"},{"bike_id":"2da6ffce-4445-4e0b-8332-38dd0f0ba8a9","system_id":"levelo_inurba_marseille","lat":43.239588,"lon":5.366238,"is_reserved":false,"is_disabled":false,"rental_uris":{"android":"levelo://app?vid=2da6ffce-4445-4e0b-8332-38dd0f0ba8a9","ios":"levelo://app?vid=2da6ffce-4445-4e0b-8332-38dd0f0ba8a9"},"vehicle_type_id":"4","last_reported":1702876035,"current_range_meters":30000,"station_id":"ce4bhi12rcd13ifvqfp0","pricing_plan_id":"free"},{"bike_id":"fd115429-10c7-48a2-8d91-586428d8aa66","system_id":"levelo_inurba_marseille","lat":43.239588,"lon":5.366238,"is_reserved":false,"is_disabled":false,"rental_uris":{"android":"levelo://app?vid=fd115429-10c7-48a2-8d91-586428d8aa66","ios":"levelo://app?vid=fd115429-10c7-48a2-8d91-586428d8aa66"},"vehicle_type_id":"4","last_reported":1702876035,"current_range_meters":26000,"station_id":"ce4bhi12rcd13ifvqfp0","pricing_plan_id":"free"},{"bike_id":"630cf2f9-baf1-4860-be47-7a66ce2ac839","system_id":"levelo_inurba_marseille","lat":43.239588,"lon":5.366238,"is_reserved":false,"is_disabled":false,"rental_uris":{"android":"levelo://app?vid=630cf2f9-baf1-4860-be47-7a66ce2ac839","ios":"levelo://app?vid=630cf2f9-baf1-4860-be47-7a66ce2ac839"},"vehicle_type_id":"4","last_reported":1702876035,"current_range_meters":21600,"station_id":"ce4bhi12rcd13ifvqfp0","pricing_plan_id":"free"},