{"last_updated":1737148040,"ttl":60,"version":"2.2","data":{"bikes":[{"bike_id":"47fa87e0-058a-4402-9b73-60056508b1a8","system_id":"levelo_inurba_marseille","lat":43.29271,"lon":5.36842,"is_reserved":false,"is_disabled":false,"rental_uris":{"android":"levelo://app?vid=47fa87e0-058a-4402-9b73-60056508b1a8","ios":"levelo://app?vid=47fa87e0-058a-4402-9b73-60056508b1a8"},"vehicle_type_id":"4","last_reported":1737148040,"current_range_meters":12000,"station_id":"ce4bhbp2rcd13ifvqesg","pricing_plan_id":"cebpf4jnsgd1na2vs0mg"},{"bike_id":"0f881e68-539f-46b7-ac38-4fc68735aa91","system_id":"levelo_inurba_marseille","lat":43.28678,"lon":5.36341,"is_reserved":false,"is_disabled":false,"rental_uris":{"android":"levelo://app?vid=0f881e68-539f-46b7-ac38-4fc68735aa91","ios":"levelo://app?vid=0f881e68-539f-46b7-ac38-4fc68735aa91"},"vehicle_type_id":"4","last_reported":1737148040,"current_range_meters":28800,"station_id":"ce4bhah2rcd13ifvqej0","pricing_plan_id":"cebpf4jnsgd1na2vs0mg"},{"bike_id":"5ff80261-e61c-4726-997b-72526469f9ee","system_id":"levelo_inurba_marseille","lat":43.24068,"lon":5.37757,"is_reserved":false,"is_disabled":false,"rental_uris":{"android":"levelo://app?vid=5ff80261-e61c-4726-997b-72526469f9ee","ios":"levelo://app?vid=5ff80261-e61c-4726-997b-72526469f9ee"},"vehicle_type_id":"4","last_reported":1737148040,"current_range_meters":38400,"station_id":"ce4bhnp2rcd13ifvqgvg","pricing_plan_id":"cebpf4jnsgd1na2vs0mg"},{"bike_id":"83423ef3-b993-424a-99e2-60978295cc1a","system_id":"levelo_inurba_marseille","lat":43.2799,"lon":5.41651,"is_reserved":false,"is_disabled":false,"rental_uris":{"android":"levelo://app?vid=83423ef3-b993-424a-99e2-60978295cc1a","ios":"levelo://app?vid=83423ef3-b993-424a-99e2-60978295cc1a"},"vehicle_type_id":"4","last_reported":1737148040,"current_range_meters":12800,"station_id":"ce4bho12rcd13ifvqh1g","pricing_plan_id":"cebpf4jnsgd1na2vs0mg"},{"bike_id":"62a1a627-9bc7-4b40-bf58-db452fda1d5b","system_id":"levelo_inurba_marseille","lat":43.29281,"lon":5.36853,"is_reserved":false,"is_disabled":false,"rental_uris":{"android":"levelo://app?vid=62a1a627-9bc7-4b40-bf58-db452fda1d5b","ios":"levelo://app?vid=62a1a627-9bc7-4b40-bf58-db452fda1d5b"},"vehicle_type_id":"4","last_reported":1737148040,"current_range_meters":32000,"station_id":"ce4bhbp2rcd13ifvqesg","pricing_plan_id":"cebpf4jnsgd1na2vs0mg"},{"bike_id":"71b32f88-1aef-44a0-bf22-1e644f4e3f87","system_id":"levelo_inurba_marseille","lat":43.262066,"lon":5.374492,"is_reserved":false,"is_disabled":false,"rental_uris":{"android":"levelo://app?vid=71b32f88-1aef-44a0-bf22-1e644f4e3f87","ios":"levelo://app?vid=71b32f88-1aef-44a0-bf22-1e644f4e3f87"},"vehicle_type_id":"4","last_reported":1737148040,"current_range_meters":32400,"station_id":"ce4bhgp2rcd13ifvqfc0","pricing_plan_id":"cebpf4jnsgd1na2vs0mg"},{"bike_id":"63944c13-1dbc-4b8e-892d-53ea6e8c8f43","system_id":"levelo_inurba_marseille","lat":43.27999,"lon":5.40018,"is_reserved":false,"is_disabled":false,"rental_uris":{"android":"levelo://app?vid=63944c13-1dbc-4b8e-892d-53ea6e8c8f43","ios":"levelo://app?vid=63944c13-1dbc-4b8e-892d-53ea6e8c8f43"},"vehicle_type_id":"4","last_reported":1737148040,"current_range_meters":10800,"station_id":"ce4bho92rcd13ifvqh4g","pricing_plan_id":"cebpf4jnsgd1na2vs0mg"},{"bike_id":"ffdb67c7-f482-4aaa-9a03-479aeb4bafbe","system_id":"levelo_inurba_marseille","lat":43.27997,"lon":5.40013,"is_reserved":false,"is_disabled":false,"rental_uris":{"android":"levelo://app?vid=ffdb67c7-f482-4aaa-9a03-479aeb4bafbe","ios":"levelo://app?vid=ffdb67c7-f482-4aaa-9a03-479aeb4bafbe"},"vehicle_type_id":"4","last_reported":1737148040,"current_range_meters":28400,"station_id":"ce4bho92rcd13ifvqh4g","pricing_plan_id":"cebpf4jnsgd1na2vs0mg"},{"bike_id":"75d8f0a6-e099-4c97-914c-445fb134b064","system_id":"levelo_inurba_marseille","lat":43.293763,"lon":5.378691,"is_reserved":false,"is_disabled":false,"rental_uris":{"android":"levelo://app?vid=75d8f0a6-e099-4c97-914c-445fb134b064","ios":"levelo://app?vid=75d8f0a6-e099-4c97-914c-445fb134b064"},"vehicle_type_id":"4","last_reported":1737148040,"current_range_meters":36800,"station_id":"ce4bgjh2rcd13ifvqbf0","pricing_plan_id":"cebpf4jnsgd1na2vs0mg"},{"bike_id":"5ff1c1c1-92c2-43f7-8f5e-7f9a3f2cf9a0","system_id":"levelo_inurba_marseille","lat":43.241769,"lon":5.397078,"is_reserved":false,"is_disabled":false,"rental_uris":{"android":"levelo://app?vid=5ff1c1c1-92c2-43f7-8f5e-7f9a3f2cf9a0","ios":"levelo://app?vid=5ff1c1c1-92c2-43f7-8f5e-7f9a3f2cf9a0"},"vehicle_type_id":"4","last_reported":1737148040,"current_range_meters":38800,"station_id":"ce4bhn12rcd13ifvqgpg","pricing_plan_id":"cebpf4jnsgd1na2vs0mg"},{"bike_id":"1d461443-aacd-475f-a2e6-57c782362445","system_id":"levelo_inurba_marseille","lat":43.2984,"lon":5.3625,"is_reserved":false,"is_disabled":false,"rental_uris":{"android":"levelo://app?vid=1d461443-aacd-475f-a2e6-57c782362445","ios":"levelo://app?vid=1d461443-aacd-475f-a2e6-57c782362445"},"vehicle_type_id":"4","last_reported":1737148040,"current_range_meters":37600,"station_id":"ce4bgpp2rcd13ifvqc3g","pricing_plan_id":"cebpf4jnsgd1na2vs0mg"},{"bike_id":"01605beb-4537-4676-a338-55111b0cf0a7","system_id":"levelo_inurba_marseille","lat":43.28773,"lon":5.37338,"is_reserved":false,"is_disabled":false,"rental_uris":{"android":"levelo://app?vid=01605beb-4537-4676-a338-55111b0cf0a7","ios":"levelo://app?vid=01605beb-4537-4676-a338-55111b0cf0a7"},"vehicle_type_id":"4","last_reported":1737148040,"current_range_meters":7200,"station_id":"ce4bh3p2rcd13ifvqdq0","pricing_plan_id":"cebpf4jnsgd1na2vs0mg"},{"bike_id":"cb6963df-37b4-4275-82ef-a9f24a9af5cb","system_id":"levelo_inurba_marseille","lat":43.30308,"lon":5.39215,"is_reserved":false,"is_disabled":false,"rental_uris":{"android":"levelo://app?vid=cb6963df-37b4-4275-82ef-a9f24a9af5cb","ios":"levelo://app?vid=cb6963df-37b4-4275-82ef-a9f24a9af5cb"},"vehicle_type_id":"4","last_reported":1737148040,"current_range_meters":22800,"station_id":"ce4bgkh2rcd13ifvqbk0","pricing_plan_id":"cebpf4jnsgd1na2vs0mg"},{"bike_id":"f57aec44-1728-458c-a50e-548d613a9de7","system_id":"levelo_inurba_marseille","lat":43.31317,"lon":5.39688,"is_reserved":false,"is_disabled":false,"rental_uris":{"android":"levelo://app?vid=f57aec44-1728-458c-a50e-548d613a9de7","ios":"levelo://app?vid=f57aec44-1728-458c-a50e-548d613a9de7"},"vehicle_type_id":"4","last_reported":1737148040,"current_range_meters":26000,"station_id":"ce4bgvp2rcd13ifvqcu0","pricing_plan_id":"cebpf4jnsgd1na2vs0mg"},{"bike_id":"24e4574c-edb8-408e-95ab-7360b0f8c267","system_id":"levelo_inurba_marseille","lat":43.29257,"lon":5.3843,"is_reserved":false,"is_disabled":false,"rental_uris":{"android":"levelo://app?vid=24e4574c-edb8-408e-95ab-7360b0f8c267","ios":"levelo://app?vid=24e4574c-edb8-408e-95ab-7360b0f8c267"},"vehicle_type_id":"4","last_reported":1737148040,"current_range_meters":38800,"station_id":"ce4bh692rcd13ifvqea0","pricing_plan_id":"cebpf4jnsgd1na2vs0mg"},{"bike_id":"ad7fa041-7f6d-4086-bed9-eb1b922fef6c","system_id":"levelo_inurba_marseille","lat":43.29906,"lon":5.37482,"is_reserved":false,"is_disabled":false,"rental_uris":{"android":"levelo://app?vid=ad7fa041-7f6d-4086-bed9-eb1b922fef6c","ios":"levelo://app?vid=ad7fa041-7f6d-4086-bed9-eb1b922fef6c"},"vehicle_type_id":"4","last_reported":1737148040,"current_range_meters":28400,"station_id":"ce4bgjh2rcd13ifvqbg0","pricing_plan_id":"cebpf4jnsgd1na2vs0mg"},{"bike_id":"d8876122-ff1e-42bb-a9ac-c66c39d72467","system_id":"levelo_inurba_marseille","lat":43.24388,"lon":5.37046,"is_reserved":false,"is_disabled":false,"rental_uris":{"android":"levelo://app?vid=d8876122-ff1e-42bb-a9ac-c66c39d72467","ios":"levelo://app?vid=d8876122-ff1e-42bb-a9ac-c66c39d72467"},"vehicle_type_id":"4","last_reported":1737148040,"current_range_meters":28800,"station_id":"ce4bhhh2rcd13ifvqfk0","pricing_plan_id":"cebpf4jnsgd1na2vs0mg"},{"bike_id":"39e448e3-963d-42b7-944d-72746b887ccf","system_id":"levelo_inurba_marseille","lat":43.30431,"lon":5.3889,"is_reserved":false,"is_disabled":false,"rental_uris":{"android":"levelo://app?vid=39e448e3-963d-42b7-944d-72746b887ccf","ios":"levelo://app?vid=39e448e3-963d-42b7-944d-72746b887ccf"},"vehicle_type_id":"4","last_reported":1737148040,"current_range_meters":31200,"station_id":"ce4bgk12rcd13ifvqbi0","pricing_plan_id":"cebpf4jnsgd1na2vs0mg"},{"bike_id":"2f2fbcba-3d28-4f72-847c-6f143905554a","system_id":"levelo_inurba_marseille","lat":43.27991,"lon":5.40018,"is_reserved":false,"is_disabled":false,"rental_uris":{"android":"levelo://app?vid=2f2fbcba-3d28-4f72-847c-6f143905554a","ios":"levelo://app?vid=2f2fbcba-3d28-4f72-847c-6f143905554a"},"vehicle_type_id":"4","last_reported":1737148040,"current_range_meters":28400,"station_id":"ce4bho92rcd13ifvqh4g","pricing_plan_id":"cebpf4jnsgd1na2vs0mg"},{"bike_id":"afdd9507-2e29-495d-9406-b02aef3694cc","system_id":"levelo_inurba_marseille","lat":43.29418,"lon":5.38629,"is_reserved":false,"is_disabled":false,"rental_uris":{"android":"levelo://app?vid=afdd9507-2e29-495d-9406-b02aef3694cc","ios":"levelo://app?vid=afdd9507-2e29-495d-9406-b02aef3694cc"},"vehicle_type_id":"4","last_reported":1737148040,"current_range_meters":38800,"station_id":"ce4bh2h2rcd13ifvqdh0","pricing_plan_id":"cebpf4jnsgd1na2vs0mg"},{"bike_id":"453b4a42-026b-40d5-9f5c-2f1a04698821","system_id":"levelo_inurba_marseille","lat":43.31279,"lon":5.40157,"is_reserved":false,"is_disabled":false,"rental_uris":{"android":"levelo://app?vid=453b4a42-026b-40d5-9f5c-2f1a04698821","ios":"levelo://app?vid=453b4a42-026b-40d5-9f5c-2f1a04698821"},"vehicle_type_id":"4","last_reported":1737148040,"current_range_meters":25600,"station_id":"ce4bh092rcd13ifvqd30","pricing_plan_id":"cebpf4jnsgd1na2vs0mg"},{"bike_id":"760858e3-be43-4f37-8c6c-a412abbd9db1","system_id":"levelo_inurba_marseille","lat":43.292612,"lon":5.384468,"is_reserved":false,"is_disabled":false,"rental_uris":{"android":"levelo://app?vid=760858e3-be43-4f37-8c6c-a412abbd9db1","ios":"levelo://app?vid=760858e3-be43-4f37-8c6c-a412abbd9db1"},"vehicle_type_id":"4","last_reported":1737148040,"current_range_meters":39200,"station_id":"ce4bh692rcd13ifvqea0","pricing_plan_id":"cebpf4jnsgd1na2vs0mg"},{"bike_id":"e6da178c-4ef0-4ca4-a86d-70f61d5da545","system_id":"levelo_inurba_marseille","lat":43.29257,"lon":5.38424,"is_reserved":false,"is_disabled":false,"rental_uris":{"android":"levelo://app?vid=e6da178c-4ef0-4ca4-a86d-70f61d5da545","ios":"levelo://app?vid=e6da178c-4ef0-4ca4-a86d-70f61d5da545"},"vehicle_type_id":"4","last_reported":1737148040,"current_range_meters":38800,"station_id":"ce4bh692rcd13ifvqea0","pricing_plan_id":"cebpf4jnsgd1na2vs0mg"},{"bike_id":"ddd50cc0-d885-4b60-b4ec-7fa3b13eb53e","system_id":"levelo_inurba_marseille","lat":43.26935,"lon":5.38913,"is_reserved":false,"is_disabled":false,"rental_uris":{"android":"levelo://app?vid=ddd50cc0-d885-4b60-b4ec-7fa3b13eb53e","ios":"levelo://app?vid=ddd50cc0-d885-4b60-b4ec-7fa3b13eb53e"},"vehicle_type_id":"4","last_reported":1737148040,"current_range_meters":38000,"station_id":"ce4bhhh2rcd13ifvqfl0","pricing_plan_id":"cebpf4jnsgd1na2vs0mg"},{"bike_id":"795778e7-76ee-4a00-bd2c-4430e80ba1a0","system_id":"levelo_inurba_marseille","lat":43.27993,"lon":5.4,"is_reserved":false,"is_disabled":false,"rental_uris":{"android":"levelo://app?vid=795778e7-76ee-4a00-bd2c-4430e80ba1a0","ios":"levelo://app?vid=795778e7-76ee-4a00-bd2c-4430e80ba1a0"},"vehicle_type_id":"4","last_reported":1737148040,"current_range_meters":23200,"station_id":"ce4bho92rcd13ifvqh4g","pricing_plan_id":"cebpf4jnsgd1na2vs0mg"},{"bike_id":"a1c8ba79-0ed5-42f3-997b-f25fc642c52a","system_id":"levelo_inurba_marseille","lat":43.29525,"lon":5.3903,"is_reserved":false,"is_disabled":false,"rental_uris":{"android":"levelo://app?vid=a1c8ba79-0ed5-42f3-997b-f25fc642c52a","ios":"levelo://app?vid=a1c8ba79-0ed5-42f3-997b-f25fc642c52a"},"vehicle_type_id":"4","last_reported":1737148040,"current_range_meters":32400,"station_id":"ce4bh3p2rcd13ifvqdp0","pricing_plan_id":"cebpf4jnsgd1na2vs0mg"},{"bike_id":"ea820ade-d81d-428e-82b9-7f165f7e8e75","system_id":"levelo_inurba_marseille","lat":43.31818,"lon":5.37395,"is_reserved":false,"is_disabled":false,"rental_uris":{"android":"levelo://app?vid=ea820ade-d81d-428e-82b9-7f165f7e8e75","ios":"levelo://app?vid=ea820ade-d81d-428e-82b9-7f165f7e8e75"},"vehicle_type_id":"4","last_reported":1737148040,"current_range_meters":25600,"station_id":"","pricing_plan_id":"cebpf4jnsgd1na2vs0mg"},{"bike_id":"ff4b68f1-ba61-49bc-bc42-1ee83da4c2ee","system_id":"levelo_inurba_marseille","lat":43.30892,"lon":5.39625,"is_reserved":false,"is_disabled":false,"rental_uris":{"android":"levelo://app?vid=ff4b68f1-ba61-49bc-bc42-1ee83da4c2ee","ios":"levelo://app?vid=ff4b68f1-ba61-49bc-bc42-1ee83da4c2ee"},"vehicle_type_id":"4","last_reported":1737148040,"current_range_meters":38000,"station_id":"ce4bh012rcd13ifvqcv0","pricing_plan_id":"cebpf4jnsgd1na2vs0mg"},{"bike_id":"1c76475f-db94-4552-8ee5-63086f45813a","system_id":"levelo_inurba_marseille","lat":43.29539,"lon":5.38534,"is_reserved":false,"is_disabled":false,"rental_uris":{"android":"levelo://app?vid=1c76475f-db94-4552-8ee5-63086f45813a","ios":"levelo://app?vid=1c76475f-db94-4552-8ee5-63086f45813a"},"vehicle_type_id":"4","last_reported":1737148040,"current_range_meters":28000,"station_id":"ce4bgih2rcd13ifvqba0","pricing_plan_id":"cebpf4jnsgd1na2vs0mg"},{"bike_id":"15c9bac7-063b-4008-8233-689b3351f329","system_id":"levelo_inurba_marseille","lat":43.24804,"lon":5.37446,"is_reserved":false,"is_disabled":false,"rental_uris":{"android":"levelo://app?vid=15c9bac7-063b-4008-8233-689b3351f329","ios":"levelo://app?vid=15c9bac7-063b-4008-8233-689b3351f329"},"vehicle_type_id":"4","last_reported":1737148040,"current_range_meters":39200,"station_id":"ce4bhgh2rcd13ifvqfb0","pricing_plan_id":"cebpf4jnsgd1na2vs0mg"},{"bike_id":"2671db7d-d2d0-49aa-a970-92487c1c590e","system_id":"levelo_inurba_marseille","lat":43.29274,"lon":5.40113,"is_reserved":false,"is_disabled":false,"rental_uris":{"android":"levelo://app?vid=2671db7d-d2d0-49aa-a970-92487c1c590e","ios":"levelo://app?vid=2671db7d-d2d0-49aa-a970-92487c1c590e"},"vehicle_type_id":"4","last_reported":1737148040,"current_range_meters":37600,"station_id":"ce4bh312rcd13ifvqdk0","pricing_plan_id":"cebpf4jnsgd1na2vs0mg"},{"bike_id":"1cb048de-038c-445b-8f0d-3562070557c0","system_id":"levelo_inurba_marseille","lat":43.29416,"lon":5.38625,"is_reserved":false,"is_disabled":false,"rental_uris":{"android":"levelo://app?vid=1cb048de-038c-445b-8f0d-3562070557c0","ios":"levelo://app?vid=1cb048de-038c-445b-8f0d-3562070557c0"},"vehicle_type_id":"4","last_reported":1737148040,"current_range_meters":32800,"station_id":"ce4bh2h2rcd13ifvqdh0","pricing_plan_id":"cebpf4jnsgd1na2vs0mg"},{"bike_id":"b672b566-ae6e-4181-a2cb-0155be334a04","system_id":"levelo_inurba_marseille","lat":43.28932,"lon":5.36637,"is_reserved":false,"is_disabled":false,"rental_uris":{"android":"levelo://app?vid=b672b566-ae6e-4181-a2cb-0155be334a04","ios":"levelo://app?vid=b672b566-ae6e-4181-a2cb-0155be334a04"},"vehicle_type_id":"4","last_reported":1737148040,"current_range_meters":16800,"station_id":"ce4bhap2rcd13ifvqek0","pricing_plan_id":"cebpf4jnsgd1na2vs0mg"},{"bike_id":"8e785348-00e5-4d56-83b4-e9113d124f35","system_id":"levelo_inurba_marseille","lat":43.29271,"lon":5.36834,"is_reserved":false,"is_disabled":false,"rental_uris":{"android":"levelo://app?vid=8e785348-00e5-4d56-83b4-e9113d124f35","ios":"levelo://app?vid=8e785348-00e5-4d56-83b4-e9113d124f35"},"vehicle_type_id":"4","last_reported":1737148040,"current_range_meters":22000,"station_id":"ce4bhbp2rcd13ifvqesg","pricing_plan_id":"cebpf4jnsgd1na2vs0mg"},{"bike_id":"835db956-1cf0-49b1-b7c0-a9f7cb79e4cc","system_id":"levelo_inurba_marseille","lat":43.28721,"lon":5.36087,"is_reserved":false,"is_disabled":false,"rental_uris":{"android":"levelo://app?vid=835db956-1cf0-49b1-b7c0-a9f7cb79e4cc","ios":"levelo://app?vid=835db956-1cf0-49b1-b7c0-a9f7cb79e4cc"},"vehicle_type_id":"4","last_reported":1737148040,"current_range_meters":26000,"station_id":"cki0cbj6b192h4jlfktg","pricing_plan_id":"cebpf4jnsgd1na2vs0mg"},{"bike_id":"947d806b-c12c-4d2f-a2fa-d810287421cb","system_id":"levelo_inurba_marseille","lat":43.295391,"lon":5.38534,"is_reserved":false,"is_disabled":false,"rental_uris":{"android":"levelo://app?vid=947d806b-c12c-4d2f-a2fa-d810287421cb","ios":"levelo://app?vid=947d806b-c12c-4d2f-a2fa-d810287421cb"},"vehicle_type_id":"4","last_reported":1737148040,"current_range_meters":38800,"station_id":"ce4bgih2rcd13ifvqba0","pricing_plan_id":"cebpf4jnsgd1na2vs0mg"},{"bike_id":"66ec8711-3dbc-48f7-b091-25773ac6b77c","system_id":"levelo_inurba_marseille","lat":43.28185,"lon":5.44249,"is_reserved":false,"is_disabled":true,"rental_uris":{"android":"levelo://app?vid=66ec8711-3dbc-48f7-b091-25773ac6b77c","ios":"levelo://app?vid=66ec8711-3dbc-48f7-b091-25773ac6b77c"},"vehicle_type_id":"4","last_reported":1737148040,"current_range_meters":0,"station_id":"","pricing_plan_id":"cebpf4jnsgd1na2vs0mg"},{"bike_id":"65823022-9928-4d86-a833-bdff07e2c3ee","system_id":"levelo_inurba_marseille","lat":43.29885,"lon":5.38906,"is_reserved":false,"is_disabled":false,"rental_uris":{"android":"levelo://app?vid=65823022-9928-4d86-a833-bdff07e2c3ee","ios":"levelo://app?vid=65823022-9928-4d86-a833-bdff07e2c3ee"},"vehicle_type_id":"4","last_reported":1737148040,"current_range_meters":31200,"station_id":"ce4bh392rcd13ifvqdl0","pricing_plan_id":"cebpf4jnsgd1na2vs0mg"},{"bike_id":"0450fc1d-4dae-452a-b90d-2a2c5c153732","system_id":"levelo_inurba_marseille","lat":43.24077,"lon":5.37746,"is_reserved":false,"is_disabled":false,"rental_uris":{"android":"levelo://app?vid=0450fc1d-4dae-452a-b90d-2a2c5c153732","ios":"levelo://app?vid=0450fc1d-4dae-452a-b90d-2a2c5c153732"},"vehicle_type_id":"4","last_reported":1737148040,"current_range_meters":35600,"station_id":"ce4bhnp2rcd13ifvqgvg","pricing_plan_id":"cebpf4jnsgd1na2vs0mg"},{"bike_id":"964d10fe-bd57-47b6-b03c-7b4d03fa0231","system_id":"levelo_inurba_marseille","lat":43.29267,"lon":5.38439,"is_reserved":false,"is_disabled":false,"rental_uris":{"android":"levelo://app?vid=964d10fe-bd57-47b6-b03c-7b4d03fa0231","ios":"levelo://app?vid=964d10fe-bd57-47b6-b03c-7b4d03fa0231"},"vehicle_type_id":"4","last_reported":1737148040,"current_range_meters":9600,"station_id":"ce4bh692rcd13ifvqea0","pricing_plan_id":"cebpf4jnsgd1na2vs0mg"},{"bike_id":"7684a755-bca1-4dd1-b84e-053aa1629184","system_id":"levelo_inurba_marseille","lat":43.28696,"lon":5.39977,"is_reserved":false,"is_disabled":false,"rental_uris":{"android":"levelo://app?vid=7684a755-bca1-4dd1-b84e-053aa1629184","ios":"levelo://app?vid=7684a755-bca1-4dd1-b84e-053aa1629184"},"vehicle_type_id":"4","last_reported":1737148040,"current_range_meters":19200,"station_id":"ce4bho92rcd13ifvqh3g","pricing_plan_id":"cebpf4jnsgd1na2vs0mg"},{"bike_id":"88b6469a-6daf-463c-a86f-49207d545e46","system_id":"levelo_inurba_marseille","lat":43.29042,"lon":5.37143,"is_reserved":false,"is_disabled":false,"rental_uris":{"android":"levelo://app?vid=88b6469a-6daf-463c-a86f-49207d545e46","ios":"levelo://app?vid=88b6469a-6daf-463c-a86f-49207d545e46"},"vehicle_type_id":"4","last_reported":1737148040,"current_range_meters":39200,"station_id":"ce4bh5p2rcd13ifvqe4g","pricing_plan_id":"cebpf4jnsgd1na2vs0mg"},{"bike_id":"ec2d53bc-f918-4fea-97c4-bce5d706d070","system_id":"levelo_inurba_marseille","lat":43.2943,"lon":5.38628,"is_reserved":false,"is_disabled":false,"rental_uris":{"android":"levelo://app?vid=ec2d53bc-f918-4fea-97c4-bce5d706d070","ios":"levelo://app?vid=ec2d53bc-f918-4fea-97c4-bce5d706d070"},"vehicle_type_id":"4","last_reported":1737148040,"current_range_meters":19600,"station_id":"ce4bh2h2rcd13ifvqdh0","pricing_plan_id":"cebpf4jnsgd1na2vs0mg"},{"bike_id":"b6727c2a-0037-431b-96be-59029d8169fa","system_id":"levelo_inurba_marseille","lat":43.31249,"lon":5.36867,"is_reserved":false,"is_disabled":false,"rental_uris":{"android":"levelo://app?vid=b6727c2a-0037-431b-96be-59029d8169fa","ios":"levelo://app?vid=b6727c2a-0037-431b-96be-59029d8169fa"},"vehicle_type_id":"4","last_reported":1737148040,"current_range_meters":29600,"station_id":"ce4bgl92rcd13ifvqbq0","pricing_plan_id":"cebpf4jnsgd1na2vs0mg"},{"bike_id":"0ce2ff96-cf7c-44da-8785-cacc89ceb5f3","system_id":"levelo_inurba_marseille","lat":43.2755,"lon":5.38421,"is_reserved":false,"is_disabled":false,"rental_uris":{"android":"levelo://app?vid=0ce2ff96-cf7c-44da-8785-cacc89ceb5f3","ios":"levelo://app?vid=0ce2ff96-cf7c-44da-8785-cacc89ceb5f3"},"vehicle_type_id":"4","last_reported":1737148040,"current_range_meters":38800,"station_id":"ce4bhh92rcd13ifvqfi0","pricing_plan_id":"cebpf4jnsgd1na2vs0mg"},{"bike_id":"7a29356f-ffde-421b-bd59-6e99968b3fd2","system_id":"levelo_inurba_marseille","lat":43.29974,"lon":5.38489,"is_reserved":false,"is_disabled":false,"rental_uris":{"android":"levelo://app?vid=7a29356f-ffde-421b-bd59-6e99968b3fd2","ios":"levelo://app?vid=7a29356f-ffde-421b-bd59-6e99968b3fd2"},"vehicle_type_id":"4","last_reported":1737148040,"current_range_meters":22800,"station_id":"ce4bgj92rcd13ifvqbd0","pricing_plan_id":"cebpf4jnsgd1na2vs0mg"},{"bike_id":"f91110ad-5050-4dd5-883d-d9c0ba85462a","system_id":"levelo_inurba_marseille","lat":43.29266,"lon":5.36844,"is_reserved":false,"is_disabled":false,"rental_uris":{"android":"levelo://app?vid=f91110ad-5050-4dd5-883d-d9c0ba85462a","ios":"levelo://app?vid=f91110ad-5050-4dd5-883d-d9c0ba85462a"},"vehicle_type_id":"4","last_reported":1737148040,"current_range_meters":25600,"station_id":"ce4bhbp2rcd13ifvqesg","pricing_plan_id":"cebpf4jnsgd1na2vs0mg"},{"bike_id":"c31b0ab1-969b-4d82-aa21-9a7099b23702","system_id":"levelo_inurba_marseille","lat":43.28363,"lon":5.38096,"is_reserved":false,"is_disabled":false,"rental_uris":{"android":"levelo://app?vid=c31b0ab1-969b-4d82-aa21-9a7099b23702","ios":"levelo://app?vid=c31b0ab1-969b-4d82-aa21-9a7099b23702"},"vehicle_type_id":"4","last_reported":1737148040,"current_range_meters":36000,"station_id":"ce4bh412rcd13ifvqdr0","pricing_plan_id":"cebpf4jnsgd1na2vs0mg"},{"bike_id":"4bcbd349-bdab-40c9-9aeb-55d852e9309f","system_id":"levelo_inurba_marseille","lat":43.26542,"lon":5.3728,"is_reserved":false,"is_disabled":false,"rental_uris":{"android":"levelo://app?vid=4bcbd349-bdab-40c9-9aeb-55d852e9309f","ios":"levelo://app?vid=4bcbd349-bdab-40c9-9aeb-55d852e9309f"},"vehicle_type_id":"4","last_reported":1737148040,"current_range_meters":38800,"station_id":"ce4bhg12rcd13ifvqf70","pricing_plan_id":"cebpf4jnsgd1na2vs0mg"},{"bike_id":"c35f475e-8144-4be4-95dc-7f5f1eaed87d","system_id":"levelo_inurba_marseille","lat":43.2926,"lon":5.38433,"is_reserved":false,"is_disabled":false,"rental_uris":{"android":"levelo://app?vid=c35f475e-8144-4be4-95dc-7f5f1eaed87d","ios":"levelo://app?vid=c35f475e-8144-4be4-95dc-7f5f1eaed87d"},"vehicle_type_id":"4","last_reported":1737148040,"current_range_meters":14000,"station_id":"ce4bh692rcd13ifvqea0","pricing_plan_id":"cebpf4jnsgd1na2vs0mg"},{"bike_id":"a5ab64a4-0785-4fb7-80e5-0c81662fe187","system_id":"levelo_inurba_marseille","lat":43.29428,"lon":5.38636,"is_reserved":false,"is_disabled":false,"rental_uris":{"android":"levelo://app?vid=a5ab64a4-0785-4fb7-80e5-0c81662fe187","ios":"levelo://app?vid=a5ab64a4-0785-4fb7-80e5-0c81662fe187"},"vehicle_type_id":"4","last_reported":1737148040,"current_range_meters":36000,"station_id":"ce4bh2h2rcd13ifvqdh0","pricing_plan_id":"cebpf4jnsgd1na2vs0mg"},{"bike_id":"749596cc-fc66-4fe5-8b5a-964af2c4f1fa","system_id":"levelo_inurba_marseille","lat":43.29367,"lon":5.38614,"is_reserved":false,"is_disabled":false,"rental_uris":{"android":"levelo://app?vid=749596cc-fc66-4fe5-8b5a-964af2c4f1fa","ios":"levelo://app?vid=749596cc-fc66-4fe5-8b5a-964af2c4f1fa"},"vehicle_type_id":"4","last_reported":1737148040,"current_range_meters":39200,"station_id":"ce4bh2h2rcd13ifvqdh0","pricing_plan_id":"cebpf4jnsgd1na2vs0mg"},{"bike_id":"1d0bc997-ee56-4c36-9021-a29f682e4042","system_id":"levelo_inurba_marseille","lat":43.30137,"lon":5.38787,"is_reserved":false,"is_disabled":false,"rental_uris":{"android":"levelo://app?vid=1d0bc997-ee56-4c36-9021-a29f682e4042","ios":"levelo://app?vid=1d0bc997-ee56-4c36-9021-a29f682e4042"},"vehicle_type_id":"4","last_reported":1737148040,"current_range_meters":25200,"station_id":"ce4bghh2rcd13ifvqb60","pricing_plan_id":"cebpf4jnsgd1na2vs0mg"},{"bike_id":"7838a224-ce1b-4c7e-9994-ebccaddc5e12","system_id":"levelo_inurba_marseille","lat":43.24799,"lon":5.37446,"is_reserved":false,"is_disabled":false,"rental_uris":{"android":"levelo://app?vid=7838a224-ce1b-4c7e-9994-ebccaddc5e12","ios":"levelo://app?vid=7838a224-ce1b-4c7e-9994-ebccaddc5e12"},"vehicle_type_id":"4","last_reported":1737148040,"current_range_meters":36800,"station_id":"ce4bhgh2rcd13ifvqfb0","pricing_plan_id":"cebpf4jnsgd1na2vs0mg"},{"bike_id":"3f5ce36f-2619-45e9-a025-9b968dac005b","system_id":"levelo_inurba_marseille","lat":43.28709,"lon":5.3997,"is_reserved":false,"is_disabled":false,"rental_uris":{"android":"levelo://app?vid=3f5ce36f-2619-45e9-a025-9b968dac005b","ios":"levelo://app?vid=3f5ce36f-2619-45e9-a025-9b968dac005b"},"vehicle_type_id":"4","last_reported":1737148040,"current_range_meters":30800,"station_id":"ce4bho92rcd13ifvqh3g","pricing_plan_id":"cebpf4jnsgd1na2vs0mg"},{"bike_id":"907f1863-e111-4127-a5aa-c515d37be0e1","system_id":"levelo_inurba_marseille","lat":43.30913,"lon":5.36839,"is_reserved":false,"is_disabled":false,"rental_uris":{"android":"levelo://app?vid=907f1863-e111-4127-a5aa-c515d37be0e1","ios":"levelo://app?vid=907f1863-e111-4127-a5aa-c515d37be0e1"},"vehicle_type_id":"4","last_reported":1737148040,"current_range_meters":13600,"station_id":"ce4bgn92rcd13ifvqbvg","pricing_plan_id":"cebpf4jnsgd1na2vs0mg"},{"bike_id":"034764a4-57b8-404a-9faa-15d67a8b57f9","system_id":"levelo_inurba_marseille","lat":43.28081,"lon":5.39647,"is_reserved":false,"is_disabled":false,"rental_uris":{"android":"levelo://app?vid=034764a4-57b8-404a-9faa-15d67a8b57f9","ios":"levelo://app?vid=034764a4-57b8-404a-9faa-15d67a8b57f9"},"vehicle_type_id":"4","last_reported":1737148040,"current_range_meters":8800,"station_id":"ce4bho12rcd13ifvqh2g","pricing_plan_id":"cebpf4jnsgd1na2vs0mg"},{"bike_id":"0dc6f470-e107-4a62-9e24-59aa7a910dcd","system_id":"levelo_inurba_marseille","lat":43.309253,"lon":5.401412,"is_reserved":false,"is_disabled":false,"rental_uris":{"android":"levelo://app?vid=0dc6f470-e107-4a62-9e24-59aa7a910dcd","ios":"levelo://app?vid=0dc6f470-e107-4a62-9e24-59aa7a910dcd"},"vehicle_type_id":"4","last_reported":1737148040,"current_range_meters":30800,"station_id":"ce4bgvp2rcd13ifvqct0","pricing_plan_id":"cebpf4jnsgd1na2vs0mg"},{"bike_id":"2acf518f-a7d8-44b5-b861-bf4c55988270","system_id":"levelo_inurba_marseille","lat":43.278965,"lon":5.380182,"is_reserved":false,"is_disabled":false,"rental_uris":{"android":"levelo://app?vid=2acf518f-a7d8-44b5-b861-bf4c55988270","ios":"levelo://app?vid=2acf518f-a7d8-44b5-b861-bf4c55988270"},"vehicle_type_id":"4","last_reported":1737148040,"current_range_meters":39200,"station_id":"ce4bhf92rcd13ifvqf50","pricing_plan_id":"cebpf4jnsgd1na2vs0mg"},{"bike_id":"aec1446e-5aa7-4e48-8561-cdcf57d61fcc","system_id":"levelo_inurba_marseille","lat":43.29416,"lon":5.38618,"is_reserved":false,"is_disabled":false,"rental_uris":{"android":"levelo://app?vid=aec1446e-5aa7-4e48-8561-cdcf57d61fcc","ios":"levelo://app?vid=aec1446e-5aa7-4e48-8561-cdcf57d61fcc"},"vehicle_type_id":"4","last_reported":1737148040,"current_range_meters":34800,"station_id":"ce4bh2h2rcd13ifvqdh0","pricing_plan_id":"cebpf4jnsgd1na2vs0mg"},{"bike_id":"f613b12c-bcd0-440e-8bea-c3d83d5778bc","system_id":"levelo_inurba_marseille","lat":43.31727,"lon":5.42392,"is_reserved":false,"is_disabled":false,"rental_uris":{"android":"levelo://app?vid=f613b12c-bcd0-440e-8bea-c3d83d5778bc","ios":"levelo://app?vid=f613b12c-bcd0-440e-8bea-c3d83d5778bc"},"vehicle_type_id":"4","last_reported":1737148040,"current_range_meters":35600,"station_id":"ce4bhp92rcd13ifvqhbg","pricing_plan_id":"cebpf4jnsgd1na2vs0mg"},{"bike_id":"c6b2298b-e3ea-4ff5-9aea-4dedd2e2a126","system_id":"levelo_inurba_marseille","lat":43.29527,"lon":5.3902,"is_reserved":false,"is_disabled":true,"rental_uris":{"android":"levelo://app?vid=c6b2298b-e3ea-4ff5-9aea-4dedd2e2a126","ios":"levelo://app?vid=c6b2298b-e3ea-4ff5-9aea-4dedd2e2a126"},"vehicle_type_id":"4","last_reported":1737148040,"current_range_meters":31200,"station_id":"ce4bh3p2rcd13ifvqdp0","pricing_plan_id":"cebpf4jnsgd1na2vs0mg"},{"bike_id":"9901340c-2f45-4336-a3e0-f3b1b3c21d39","system_id":"levelo_inurba_marseille","lat":43.27901,"lon":5.38001,"is_reserved":false,"is_disabled":false,"rental_uris":{"android":"levelo://app?vid=9901340c-2f45-4336-a3e0-f3b1b3c21d39","ios":"levelo://app?vid=9901340c-2f45-4336-a3e0-f3b1b3c21d39"},"vehicle_type_id":"4","last_reported":1737148040,"current_range_meters":32000,"station_id":"ce4bhf92rcd13ifvqf50","pricing_plan_id":"cebpf4jnsgd1na2vs0mg"},{"bike_id":"a9e05ea0-5dec-440b-9b09-c59487a1980c","system_id":"levelo_inurba_marseille","lat":43.29263,"lon":5.38425,"is_reserved":false,"is_disabled":false,"rental_uris":{"android":"levelo://app?vid=a9e05ea0-5dec-440b-9b09-c59487a1980c","ios":"levelo://app?vid=a9e05ea0-5dec-440b-9b09-c59487a1980c"},"vehicle_type_id":"4","last_reported":1737148040,"current_range_meters":38800,"station_id":"ce4bh692rcd13ifvqea0","pricing_plan_id":"cebpf4jnsgd1na2vs0mg"},{"bike_id":"6ea4d259-06b8-4e0f-9494-4eae2040b46d","system_id":"levelo_inurba_marseille","lat":43.24187,"lon":5.39715,"is_reserved":false,"is_disabled":false,"rental_uris":{"android":"levelo://app?vid=6ea4d259-06b8-4e0f-9494-4eae2040b46d","ios":"levelo://app?vid=6ea4d259-06b8-4e0f-9494-4eae2040b46d"},"vehicle_type_id":"4","last_reported":1737148040,"current_range_meters":27200,"station_id":"ce4bhn12rcd13ifvqgpg","pricing_plan_id":"cebpf4jnsgd1na2vs0mg"},{"bike_id":"89dc6e27-7cee-4c18-ae4a-3d1b5455e568","system_id":"levelo_inurba_marseille","lat":43.29191,"lon":5.39323,"is_reserved":false,"is_disabled":false,"rental_uris":{"android":"levelo://app?vid=89dc6e27-7cee-4c18-ae4a-3d1b5455e568","ios":"levelo://app?vid=89dc6e27-7cee-4c18-ae4a-3d1b5455e568"},"vehicle_type_id":"4","last_reported":1737148040,"current_range_meters":39200,"station_id":"ce4bh192rcd13ifvqdd0","pricing_plan_id":"cebpf4jnsgd1na2vs0mg"},{"bike_id":"0a144e05-2073-430e-bbbc-b4cbfc15bab2","system_id":"levelo_inurba_marseille","lat":43.25111,"lon":5.40319,"is_reserved":false,"is_disabled":false,"rental_uris":{"android":"levelo://app?vid=0a144e05-2073-430e-bbbc-b4cbfc15bab2","ios":"levelo://app?vid=0a144e05-2073-430e-bbbc-b4cbfc15bab2"},"vehicle_type_id":"4","last_reported":1737148040,"current_range_meters":20000,"station_id":"ce4bhlh2rcd13ifvqgig","pricing_plan_id":"cebpf4jnsgd1na2vs0mg"},{"bike_id":"0aacbbb4-b4df-4112-9f3e-9c8b0c3a36b2","system_id":"levelo_inurba_marseille","lat":43.2439,"lon":5.37055,"is_reserved":false,"is_disabled":false,"rental_uris":{"android":"levelo://app?vid=0aacbbb4-b4df-4112-9f3e-9c8b0c3a36b2","ios":"levelo://app?vid=0aacbbb4-b4df-4112-9f3e-9c8b0c3a36b2"},"vehicle_type_id":"4","last_reported":1737148040,"current_range_meters":38800,"station_id":"ce4bhhh2rcd13ifvqfk0","pricing_plan_id":"cebpf4jnsgd1na2vs0mg"},{"bike_id":"4195a369-a7ca-4062-b0c4-11dcec0d9a33","system_id":"levelo_inurba_marseille","lat":43.30321,"lon":5.39181,"is_reserved":false,"is_disabled":true,"rental_uris":{"android":"levelo://app?vid=4195a369-a7ca-4062-b0c4-11dcec0d9a33","ios":"levelo://app?vid=4195a369-a7ca-4062-b0c4-11dcec0d9a33"},"vehicle_type_id":"4","last_reported":1737148040,"current_range_meters":38400,"station_id":"ce4bgkh2rcd13ifvqbk0","pricing_plan_id":"cebpf4jnsgd1na2vs0mg"},{"bike_id":"811a1ec0-366e-4fd8-8f3c-3e594a31f929","system_id":"levelo_inurba_marseille","lat":43.25575,"lon":5.38234,"is_reserved":false,"is_disabled":false,"rental_uris":{"android":"levelo://app?vid=811a1ec0-366e-4fd8-8f3c-3e594a31f929","ios":"levelo://app?vid=811a1ec0-366e-4fd8-8f3c-3e594a31f929"},"vehicle_type_id":"4","last_reported":1737148040,"current_range_meters":32400,"station_id":"ce4bhih2rcd13ifvqfs0","pricing_plan_id":"cebpf4jnsgd1na2vs0mg"},{"bike_id":"b2c3e9c1-53a2-408e-94c4-5baf83916270","system_id":"levelo_inurba_marseille","lat":43.30871,"lon":5.39629,"is_reserved":false,"is_disabled":false,"rental_uris":{"android":"levelo://app?vid=b2c3e9c1-53a2-408e-94c4-5baf83916270","ios":"levelo://app?vid=b2c3e9c1-53a2-408e-94c4-5baf83916270"},"vehicle_type_id":"4","last_reported":1737148040,"current_range_meters":36800,"station_id":"ce4bh012rcd13ifvqcv0","pricing_plan_id":"cebpf4jnsgd1na2vs0mg"},{"bike_id":"891d5aa4-b1b0-4e0c-90ac-49e97bf9c382","system_id":"levelo_inurba_marseille","lat":43.23186,"lon":5.40008,"is_reserved":false,"is_disabled":false,"rental_uris":{"android":"levelo://app?vid=891d5aa4-b1b0-4e0c-90ac-49e97bf9c382","ios":"levelo://app?vid=891d5aa4-b1b0-4e0c-90ac-49e97bf9c382"},"vehicle_type_id":"4","last_reported":1737148040,"current_range_meters":32400,"station_id":"ce4bhn12rcd13ifvqgqg","pricing_plan_id":"cebpf4jnsgd1na2vs0mg"},{"bike_id":"811347d7-f782-42c6-b2c3-1f6033ffad55","system_id":"levelo_inurba_marseille","lat":43.3127,"lon":5.40161,"is_reserved":false,"is_disabled":false,"rental_uris":{"android":"levelo://app?vid=811347d7-f782-42c6-b2c3-1f6033ffad55","ios":"levelo://app?vid=811347d7-f782-42c6-b2c3-1f6033ffad55"},"vehicle_type_id":"4","last_reported":1737148040,"current_range_meters":26000,"station_id":"ce4bh092rcd13ifvqd30","pricing_plan_id":"cebpf4jnsgd1na2vs0mg"},{"bike_id":"0938fb94-c44c-40a0-b2b9-76e5890deae6","system_id":"levelo_inurba_marseille","lat":43.30116,"lon":5.39879,"is_reserved":false,"is_disabled":false,"rental_uris":{"android":"levelo://app?vid=0938fb94-c44c-40a0-b2b9-76e5890deae6","ios":"levelo://app?vid=0938fb94-c44c-40a0-b2b9-76e5890deae6"},"vehicle_type_id":"4","last_reported":1737148040,"current_range_meters":29600,"station_id":"ce4bh0h2rcd13ifvqd40","pricing_plan_id":"cebpf4jnsgd1na2vs0mg"},{"bike_id":"357eaeda-fef2-41f2-9ad0-621ae2cc5c09","system_id":"levelo_inurba_marseille","lat":43.33768,"lon":5.37496,"is_reserved":false,"is_disabled":false,"rental_uris":{"android":"levelo://app?vid=357eaeda-fef2-41f2-9ad0-621ae2cc5c09","ios":"levelo://app?vid=357eaeda-fef2-41f2-9ad0-621ae2cc5c09"},"vehicle_type_id":"4","last_reported":1737148040,"current_range_meters":34800,"station_id":"","pricing_plan_id":"cebpf4jnsgd1na2vs0mg"},{"bike_id":"d4ae28dc-57a3-4ed3-89bc-0c3125e85565","system_id":"levelo_inurba_marseille","lat":43.29983,"lon":5.3848,"is_reserved":false,"is_disabled":false,"rental_uris":{"android":"levelo://app?vid=d4ae28dc-57a3-4ed3-89bc-0c3125e85565","ios":"levelo://app?vid=d4ae28dc-57a3-4ed3-89bc-0c3125e85565"},"vehicle_type_id":"4","last_reported":1737148040,"current_range_meters":38000,"station_id":"ce4bgj92rcd13ifvqbd0","pricing_plan_id":"cebpf4jnsgd1na2vs0mg"},{"bike_id":"965180f8-1362-4aa2-b1a9-a6f654197703","system_id":"levelo_inurba_marseille","lat":43.2318,"lon":5.39978,"is_reserved":false,"is_disabled":false,"rental_uris":{"android":"levelo://app?vid=965180f8-1362-4aa2-b1a9-a6f654197703","ios":"levelo://app?vid=965180f8-1362-4aa2-b1a9-a6f654197703"},"vehicle_type_id":"4","last_reported":1737148040,"current_range_meters":38800,"station_id":"ce4bhn12rcd13ifvqgqg","pricing_plan_id":"cebpf4jnsgd1na2vs0mg"},{"bike_id":"b034b553-114b-4cfc-829d-01c5c89561f4","system_id":"levelo_inurba_marseille","lat":43.27607,"lon":5.42347,"is_reserved":false,"is_disabled":false,"rental_uris":{"android":"levelo://app?vid=b034b553-114b-4cfc-829d-01c5c89561f4","ios":"levelo://app?vid=b034b553-114b-4cfc-829d-01c5c89561f4"},"vehicle_type_id":"4","last_reported":1737148040,"current_range_meters":9600,"station_id":"","pricing_plan_id":"cebpf4jnsgd1na2vs0mg"},{"bike_id":"312b622b-01c5-426d-8513-fedfcbcce3bf","system_id":"levelo_inurba_marseille","lat":43.30794,"lon":5.43516,"is_reserved":false,"is_disabled":false,"rental_uris":{"android":"levelo://app?vid=312b622b-01c5-426d-8513-fedfcbcce3bf","ios":"levelo://app?vid=312b622b-01c5-426d-8513-fedfcbcce3bf"},"vehicle_type_id":"4","last_reported":1737148040,"current_range_meters":24400,"station_id":"ce4bhph2rcd13ifvqheg","pricing_plan_id":"cebpf4jnsgd1na2vs0mg"},{"bike_id":"f2129519-babc-409f-a213-feee81e4aa25","system_id":"levelo_inurba_marseille","lat":43.29275,"lon":5.36842,"is_reserved":false,"is_disabled":false,"rental_uris":{"android":"levelo://app?vid=f2129519-babc-409f-a213-feee81e4aa25","ios":"levelo://app?vid=f2129519-babc-409f-a213-feee81e4aa25"},"vehicle_type_id":"4","last_reported":1737148040,"current_range_meters":38800,"station_id":"ce4bhbp2rcd13ifvqesg","pricing_plan_id":"cebpf4jnsgd1na2vs0mg"},{"bike_id":"c2745d83-e7d4-4cb8-8839-b9fc27a01511","system_id":"levelo_inurba_marseille","lat":43.30416,"lon":5.41277,"is_reserved":false,"is_disabled":false,"rental_uris":{"android":"levelo://app?vid=c2745d83-e7d4-4cb8-8839-b9fc27a01511","ios":"levelo://app?vid=c2745d83-e7d4-4cb8-8839-b9fc27a01511"},"vehicle_type_id":"4","last_reported":1737148040,"current_range_meters":12800,"station_id":"ce4bhop2rcd13ifvqh8g","pricing_plan_id":"cebpf4jnsgd1na2vs0mg"},{"bike_id":"7975a0c2-37ee-487f-804f-1164e539cf9a","system_id":"levelo_inurba_marseille","lat":43.246702,"lon":5.381545,"is_reserved":false,"is_disabled":false,"rental_uris":{"android":"levelo://app?vid=7975a0c2-37ee-487f-804f-1164e539cf9a","ios":"levelo://app?vid=7975a0c2-37ee-487f-804f-1164e539cf9a"},"vehicle_type_id":"4","last_reported":1737148040,"current_range_meters":38800,"station_id":"ce4bhih2rcd13ifvqfr0","pricing_plan_id":"cebpf4jnsgd1na2vs0mg"},{"bike_id":"e6101eaf-3aeb-43db-8ad3-5f6b7474465d","system_id":"levelo_inurba_marseille","lat":43.2956,"lon":5.37523,"is_reserved":false,"is_disabled":false,"rental_uris":{"android":"levelo://app?vid=e6101eaf-3aeb-43db-8ad3-5f6b7474465d","ios":"levelo://app?vid=e6101eaf-3aeb-43db-8ad3-5f6b7474465d"},"vehicle_type_id":"4","last_reported":1737148040,"current_range_meters":32000,"station_id":"ce4bgh92rcd13ifvqb50","pricing_plan_id":"cebpf4jnsgd1na2vs0mg"},{"bike_id":"042eb156-6d27-477a-baca-70c102a462d5","system_id":"levelo_inurba_marseille","lat":43.29508,"lon":5.39037,"is_reserved":false,"is_disabled":false,"rental_uris":{"android":"levelo://app?vid=042eb156-6d27-477a-baca-70c102a462d5","ios":"levelo://app?vid=042eb156-6d27-477a-baca-70c102a462d5"},"vehicle_type_id":"4","last_reported":1737148040,"current_range_meters":38800,"station_id":"ce4bh3p2rcd13ifvqdp0","pricing_plan_id":"cebpf4jnsgd1na2vs0mg"},{"bike_id":"01a07bd9-36a1-4c19-a88b-7c9e3a6ee490","system_id":"levelo_inurba_marseille","lat":43.25096,"lon":5.39516,"is_reserved":false,"is_disabled":false,"rental_uris":{"android":"levelo://app?vid=01a07bd9-36a1-4c19-a88b-7c9e3a6ee490","ios":"levelo://app?vid=01a07bd9-36a1-4c19-a88b-7c9e3a6ee490"},"vehicle_type_id":"4","last_reported":1737148040,"current_range_meters":38400,"station_id":"ce4bhm12rcd13ifvqgkg","pricing_plan_id":"cebpf4jnsgd1na2vs0mg"},{"bike_id":"5480d80b-e18b-475e-b4cd-654a0bcdbdb3","system_id":"levelo_inurba_marseille","lat":43.27994,"lon":5.40012,"is_reserved":false,"is_disabled":false,"rental_uris":{"android":"levelo://app?vid=5480d80b-e18b-475e-b4cd-654a0bcdbdb3","ios":"levelo://app?vid=5480d80b-e18b-475e-b4cd-654a0bcdbdb3"},"vehicle_type_id":"4","last_reported":1737148040,"current_range_meters":14800,"station_id":"ce4bho92rcd13ifvqh4g","pricing_plan_id":"cebpf4jnsgd1na2vs0mg"},{"bike_id":"d615d74e-143c-44d0-9a61-fef9d499e25b","system_id":"levelo_inurba_marseille","lat":43.26041,"lon":5.37546,"is_reserved":false,"is_disabled":false,"rental_uris":{"android":"levelo://app?vid=d615d74e-143c-44d0-9a61-fef9d499e25b","ios":"levelo://app?vid=d615d74e-143c-44d0-9a61-fef9d499e25b"},"vehicle_type_id":"4","last_reported":1737148040,"current_range_meters":38800,"station_id":"ce4bhgh2rcd13ifvqfa0","pricing_plan_id":"cebpf4jnsgd1na2vs0mg"},{"bike_id":"7eb18143-839b-42ad-bdf4-7228cc06ec87","system_id":"levelo_inurba_marseille","lat":43.25092,"lon":5.39508,"is_reserved":false,"is_disabled":false,"rental_uris":{"android":"levelo://app?vid=7eb18143-839b-42ad-bdf4-7228cc06ec87","ios":"levelo://app?vid=7eb18143-839b-42ad-bdf4-7228cc06ec87"},"vehicle_type_id":"4","last_reported":1737148040,"current_range_meters":4800,"station_id":"ce4bhm12rcd13ifvqgkg","pricing_plan_id":"cebpf4jnsgd1na2vs0mg"},{"bike_id":"9be957d2-26d1-49a4-9f85-b06ee3432064","system_id":"levelo_inurba_marseille","lat":43.33725,"lon":5.391988,"is_reserved":false,"is_disabled":false,"rental_uris":{"android":"levelo://app?vid=9be957d2-26d1-49a4-9f85-b06ee3432064","ios":"levelo://app?vid=9be957d2-26d1-49a4-9f85-b06ee3432064"},"vehicle_type_id":"4","last_reported":1737148040,"current_range_meters":28800,"station_id":"ce4bhr92rcd13ifvqhsg","pricing_plan_id":"cebpf4jnsgd1na2vs0mg"},{"bike_id":"ca147bf1-817d-4cc6-93bb-aead8b09acee","system_id":"levelo_inurba_marseille","lat":43.28028,"lon":5.36943,"is_reserved":false,"is_disabled":false,"rental_uris":{"android":"levelo://app?vid=ca147bf1-817d-4cc6-93bb-aead8b09acee","ios":"levelo://app?vid=ca147bf1-817d-4cc6-93bb-aead8b09acee"},"vehicle_type_id":"4","last_reported":1737148040,"current_range_meters":35200,"station_id":"ce4bha12rcd13ifvqef0","pricing_plan_id":"cebpf4jnsgd1na2vs0mg"},{"bike_id":"c4f658c2-d3ea-4813-b742-95f0600303ca","system_id":"levelo_inurba_marseille","lat":43.31253,"lon":5.36827,"is_reserved":false,"is_disabled":false,"rental_uris":{"android":"levelo://app?vid=c4f658c2-d3ea-4813-b742-95f0600303ca","ios":"levelo://app?vid=c4f658c2-d3ea-4813-b742-95f0600303ca"},"vehicle_type_id":"4","last_reported":1737148040,"current_range_meters":2800,"station_id":"ce4bgl92rcd13ifvqbq0","pricing_plan_id":"cebpf4jnsgd1na2vs0mg"},{"bike_id":"9d571973-919f-4d9a-8263-16469bc08d16","system_id":"levelo_inurba_marseille","lat":43.31266,"lon":5.38372,"is_reserved":false,"is_disabled":false,"rental_uris":{"android":"levelo://app?vid=9d571973-919f-4d9a-8263-16469bc08d16","ios":"levelo://app?vid=9d571973-919f-4d9a-8263-16469bc08d16"},"vehicle_type_id":"4","last_reported":1737148040,"current_range_meters":19200,"station_id":"","pricing_plan_id":"cebpf4jnsgd1na2vs0mg"},{"bike_id":"93eaaa03-9c47-4080-88a3-408e4b6ee6c4","system_id":"levelo_inurba_marseille","lat":43.30852,"lon":5.37172,"is_reserved":false,"is_disabled":true,"rental_uris":{"android":"levelo://app?vid=93eaaa03-9c47-4080-88a3-408e4b6ee6c4","ios":"levelo://app?vid=93eaaa03-9c47-4080-88a3-408e4b6ee6c4"},"vehicle_type_id":"4","last_reported":1737148040,"current_range_meters":800,"station_id":"ce4bguh2rcd13ifvqckg","pricing_plan_id":"cebpf4jnsgd1na2vs0mg"},{"bike_id":"4f2b33bf-5340-41d8-832a-14d80612ba43","system_id":"levelo_inurba_marseille","lat":43.25084,"lon":5.39513,"is_reserved":false,"is_disabled":false,"rental_uris":{"android":"levelo://app?vid=4f2b33bf-5340-41d8-832a-14d80612ba43","ios":"levelo://app?vid=4f2b33bf-5340-41d8-832a-14d80612ba43"},"vehicle_type_id":"4","last_reported":1737148040,"current_range_meters":38800,"station_id":"ce4bhm12rcd13ifvqgkg","pricing_plan_id":"cebpf4jnsgd1na2vs0mg"},{"bike_id":"895918c2-ba8d-4409-97fe-41f87b4d070c","system_id":"levelo_inurba_marseille","lat":43.29017,"lon":5.37551,"is_reserved":false,"is_disabled":false,"rental_uris":{"android":"levelo://app?vid=895918c2-ba8d-4409-97fe-41f87b4d070c","ios":"levelo://app?vid=895918c2-ba8d-4409-97fe-41f87b4d070c"},"vehicle_type_id":"4","last_reported":1737148040,"current_range_meters":30000,"station_id":"ce4bh692rcd13ifvqe90","pricing_plan_id":"cebpf4jnsgd1na2vs0mg"},{"bike_id":"71651d20-aced-43c3-aa11-a12e6da36820","system_id":"levelo_inurba_marseille","lat":43.29776,"lon":5.38108,"is_reserved":false,"is_disabled":true,"rental_uris":{"android":"levelo://app?vid=71651d20-aced-43c3-aa11-a12e6da36820","ios":"levelo://app?vid=71651d20-aced-43c3-aa11-a12e6da36820"},"vehicle_type_id":"4","last_reported":1737148040,"current_range_meters":35600,"station_id":"ce4bgip2rcd13ifvqbb0","pricing_plan_id":"cebpf4jnsgd1na2vs0mg"},{"bike_id":"7941dde5-89bd-4293-a249-2de4d7104b28","system_id":"levelo_inurba_marseille","lat":43.29971,"lon":5.3849,"is_reserved":false,"is_disabled":false,"rental_uris":{"android":"levelo://app?vid=7941dde5-89bd-4293-a249-2de4d7104b28","ios":"levelo://app?vid=7941dde5-89bd-4293-a249-2de4d7104b28"},"vehicle_type_id":"4","last_reported":1737148040,"current_range_meters":29600,"station_id":"ce4bgj92rcd13ifvqbd0","pricing_plan_id":"cebpf4jnsgd1na2vs0mg"},{"bike_id":"025b6dd4-f253-4352-958b-3bedd34a3123","system_id":"levelo_inurba_marseille","lat":43.29267,"lon":5.38431,"is_reserved":false,"is_disabled":false,"rental_uris":{"android":"levelo://app?vid=025b6dd4-f253-4352-958b-3bedd34a3123","ios":"levelo://app?vid=025b6dd4-f253-4352-958b-3bedd34a3123"},"vehicle_type_id":"4","last_reported":1737148040,"current_range_meters":38800,"station_id":"ce4bh692rcd13ifvqea0","pricing_plan_id":"cebpf4jnsgd1na2vs0mg"},{"bike_id":"2ed2c465-7afc-4456-bb98-74121b1a973f","system_id":"levelo_inurba_marseille","lat":43.31195,"lon":5.38712,"is_reserved":false,"is_disabled":false,"rental_uris":{"android":"levelo://app?vid=2ed2c465-7afc-4456-bb98-74121b1a973f","ios":"levelo://app?vid=2ed2c465-7afc-4456-bb98-74121b1a973f"},"vehicle_type_id":"4","last_reported":1737148040,"current_range_meters":39200,"station_id":"ce4bgv12rcd13ifvqcp0","pricing_plan_id":"cebpf4jnsgd1na2vs0mg"},{"bike_id":"76caba6d-8f42-4a92-be61-64ae88af8580","system_id":"levelo_inurba_marseille","lat":43.27969,"lon":5.38711,"is_reserved":false,"is_disabled":false,"rental_uris":{"android":"levelo://app?vid=76caba6d-8f42-4a92-be61-64ae88af8580","ios":"levelo://app?vid=76caba6d-8f42-4a92-be61-64ae88af8580"},"vehicle_type_id":"4","last_reported":1737148040,"current_range_meters":34800,"station_id":"ce4bhg12rcd13ifvqf80","pricing_plan_id":"cebpf4jnsgd1na2vs0mg"},{"bike_id":"de1f8d9a-961d-41a2-ac6e-036d6954faf1","system_id":"levelo_inurba_marseille","lat":43.32966,"lon":5.39033,"is_reserved":false,"is_disabled":false,"rental_uris":{"android":"levelo://app?vid=de1f8d9a-961d-41a2-ac6e-036d6954faf1","ios":"levelo://app?vid=de1f8d9a-961d-41a2-ac6e-036d6954faf1"},"vehicle_type_id":"4","last_reported":1737148040,"current_range_meters":30800,"station_id":"","pricing_plan_id":"cebpf4jnsgd1na2vs0mg"},{"bike_id":"2e18d765-ad6a-45f4-a2b0-bb826ac5262c","system_id":"levelo_inurba_marseille","lat":43.29419,"lon":5.38639,"is_reserved":false,"is_disabled":false,"rental_uris":{"android":"levelo://app?vid=2e18d765-ad6a-45f4-a2b0-bb826ac5262c","ios":"levelo://app?vid=2e18d765-ad6a-45f4-a2b0-bb826ac5262c"},"vehicle_type_id":"4","last_reported":1737148040,"current_range_meters":19200,"station_id":"ce4bh2h2rcd13ifvqdh0","pricing_plan_id":"cebpf4jnsgd1na2vs0mg"},{"bike_id":"6f961f0d-6aa7-460d-8fcd-8cd0a6e0963b","system_id":"levelo_inurba_marseille","lat":43.27997,"lon":5.40012,"is_reserved":false,"is_disabled":false,"rental_uris":{"android":"levelo://app?vid=6f961f0d-6aa7-460d-8fcd-8cd0a6e0963b","ios":"levelo://app?vid=6f961f0d-6aa7-460d-8fcd-8cd0a6e0963b"},"vehicle_type_id":"4","last_reported":1737148040,"current_range_meters":9200,"station_id":"ce4bho92rcd13ifvqh4g","pricing_plan_id":"cebpf4jnsgd1na2vs0mg"},{"bike_id":"8850e6e9-607c-4707-a35e-396796b7213c","system_id":"levelo_inurba_marseille","lat":43.25573,"lon":5.38231,"is_reserved":false,"is_disabled":false,"rental_uris":{"android":"levelo://app?vid=8850e6e9-607c-4707-a35e-396796b7213c","ios":"levelo://app?vid=8850e6e9-607c-4707-a35e-396796b7213c"},"vehicle_type_id":"4","last_reported":1737148040,"current_range_meters":38800,"station_id":"ce4bhih2rcd13ifvqfs0","pricing_plan_id":"cebpf4jnsgd1na2vs0mg"},{"bike_id":"6fd21ba8-0976-4303-98ae-bac184b44271","system_id":"levelo_inurba_marseille","lat":43.29528,"lon":5.38538,"is_reserved":false,"is_disabled":false,"rental_uris":{"android":"levelo://app?vid=6fd21ba8-0976-4303-98ae-bac184b44271","ios":"levelo://app?vid=6fd21ba8-0976-4303-98ae-bac184b44271"},"vehicle_type_id":"4","last_reported":1737148040,"current_range_meters":32800,"station_id":"ce4bgih2rcd13ifvqba0","pricing_plan_id":"cebpf4jnsgd1na2vs0mg"},{"bike_id":"72ee35ea-34ee-4b89-a819-27a2e564f7ec","system_id":"levelo_inurba_marseille","lat":43.25831,"lon":5.39416,"is_reserved":false,"is_disabled":false,"rental_uris":{"android":"levelo://app?vid=72ee35ea-34ee-4b89-a819-27a2e564f7ec","ios":"levelo://app?vid=72ee35ea-34ee-4b89-a819-27a2e564f7ec"},"vehicle_type_id":"4","last_reported":1737148040,"current_range_meters":16000,"station_id":"ce4bhip2rcd13ifvqft0","pricing_plan_id":"cebpf4jnsgd1na2vs0mg"},{"bike_id":"fae143cc-e0b7-42e0-ac41-6327643321d0","system_id":"levelo_inurba_marseille","lat":43.25827,"lon":5.39434,"is_reserved":false,"is_disabled":false,"rental_uris":{"android":"levelo://app?vid=fae143cc-e0b7-42e0-ac41-6327643321d0","ios":"levelo://app?vid=fae143cc-e0b7-42e0-ac41-6327643321d0"},"vehicle_type_id":"4","last_reported":1737148040,"current_range_meters":35200,"station_id":"ce4bhip2rcd13ifvqft0","pricing_plan_id":"cebpf4jnsgd1na2vs0mg"},{"bike_id":"b2e549e0-36c5-4b5c-821d-1748ce8770f3","system_id":"levelo_inurba_marseille","lat":43.29535,"lon":5.38536,"is_reserved":false,"is_disabled":false,"rental_uris":{"android":"levelo://app?vid=b2e549e0-36c5-4b5c-821d-1748ce8770f3","ios":"levelo://app?vid=b2e549e0-36c5-4b5c-821d-1748ce8770f3"},"vehicle_type_id":"4","last_reported":1737148040,"current_range_meters":32000,"station_id":"ce4bgih2rcd13ifvqba0","pricing_plan_id":"cebpf4jnsgd1na2vs0mg"},{"bike_id":"4e396b93-4dd7-4cda-8395-278f5c5c4f46","system_id":"levelo_inurba_marseille","lat":43.295392,"lon":5.385397,"is_reserved":false,"is_disabled":false,"rental_uris":{"android":"levelo://app?vid=4e396b93-4dd7-4cda-8395-278f5c5c4f46","ios":"levelo://app?vid=4e396b93-4dd7-4cda-8395-278f5c5c4f46"},"vehicle_type_id":"4","last_reported":1737148040,"current_range_meters":16800,"station_id":"ce4bgih2rcd13ifvqba0","pricing_plan_id":"cebpf4jnsgd1na2vs0mg"},{"bike_id":"20ff09b8-a222-445d-b049-232d89fb3e88","system_id":"levelo_inurba_marseille","lat":43.30926,"lon":5.40143,"is_reserved":false,"is_disabled":false,"rental_uris":{"android":"levelo://app?vid=20ff09b8-a222-445d-b049-232d89fb3e88","ios":"levelo://app?vid=20ff09b8-a222-445d-b049-232d89fb3e88"},"vehicle_type_id":"4","last_reported":1737148040,"current_range_meters":17200,"station_id":"ce4bgvp2rcd13ifvqct0","pricing_plan_id":"cebpf4jnsgd1na2vs0mg"},{"bike_id":"f4a4a406-b0a5-42fc-9236-32e93ac6f6b2","system_id":"levelo_inurba_marseille","lat":43.231526,"lon":5.436971,"is_reserved":false,"is_disabled":true,"rental_uris":{"android":"levelo://app?vid=f4a4a406-b0a5-42fc-9236-32e93ac6f6b2","ios":"levelo://app?vid=f4a4a406-b0a5-42fc-9236-32e93ac6f6b2"},"vehicle_type_id":"4","last_reported":1737148040,"current_range_meters":32400,"station_id":"ce4bhmp2rcd13ifvqgog","pricing_plan_id":"cebpf4jnsgd1na2vs0mg"},{"bike_id":"373a77d9-b036-49aa-8a76-c8326fe93c97","system_id":"levelo_inurba_marseille","lat":43.29418,"lon":5.38621,"is_reserved":false,"is_disabled":false,"rental_uris":{"android":"levelo://app?vid=373a77d9-b036-49aa-8a76-c8326fe93c97","ios":"levelo://app?vid=373a77d9-b036-49aa-8a76-c8326fe93c97"},"vehicle_type_id":"4","last_reported":1737148040,"current_range_meters":38800,"station_id":"ce4bh2h2rcd13ifvqdh0","pricing_plan_id":"cebpf4jnsgd1na2vs0mg"},{"bike_id":"73127381-9796-40de-b986-329d94519912","system_id":"levelo_inurba_marseille","lat":43.29553,"lon":5.42291,"is_reserved":false,"is_disabled":false,"rental_uris":{"android":"levelo://app?vid=73127381-9796-40de-b986-329d94519912","ios":"levelo://app?vid=73127381-9796-40de-b986-329d94519912"},"vehicle_type_id":"4","last_reported":1737148040,"current_range_meters":12400,"station_id":"ce4bhph2rcd13ifvqhdg","pricing_plan_id":"cebpf4jnsgd1na2vs0mg"},{"bike_id":"903c0ad6-53b4-488b-9a99-e4676d423523","system_id":"levelo_inurba_marseille","lat":43.31157,"lon":5.38711,"is_reserved":false,"is_disabled":false,"rental_uris":{"android":"levelo://app?vid=903c0ad6-53b4-488b-9a99-e4676d423523","ios":"levelo://app?vid=903c0ad6-53b4-488b-9a99-e4676d423523"},"vehicle_type_id":"4","last_reported":1737148040,"current_range_meters":26000,"station_id":"ce4bgv12rcd13ifvqcp0","pricing_plan_id":"cebpf4jnsgd1na2vs0mg"},{"bike_id":"11cc40fc-2886-40cc-8b38-432bf44a4683","system_id":"levelo_inurba_marseille","lat":43.30451,"lon":5.38884,"is_reserved":false,"is_disabled":false,"rental_uris":{"android":"levelo://app?vid=11cc40fc-2886-40cc-8b38-432bf44a4683","ios":"levelo://app?vid=11cc40fc-2886-40cc-8b38-432bf44a4683"},"vehicle_type_id":"4","last_reported":1737148040,"current_range_meters":38800,"station_id":"ce4bgk12rcd13ifvqbi0","pricing_plan_id":"cebpf4jnsgd1na2vs0mg"},{"bike_id":"8a4de1cf-099b-41d7-891b-b86d91b5020b","system_id":"levelo_inurba_marseille","lat":43.27952,"lon":5.41032,"is_reserved":false,"is_disabled":false,"rental_uris":{"android":"levelo://app?vid=8a4de1cf-099b-41d7-891b-b86d91b5020b","ios":"levelo://app?vid=8a4de1cf-099b-41d7-891b-b86d91b5020b"},"vehicle_type_id":"4","last_reported":1737148040,"current_range_meters":30000,"station_id":"ce4bhnp2rcd13ifvqh0g","pricing_plan_id":"cebpf4jnsgd1na2vs0mg"},{"bike_id":"f2b9871f-1186-41e6-8a60-001205f747a7","system_id":"levelo_inurba_marseille","lat":43.24659,"lon":5.38157,"is_reserved":false,"is_disabled":false,"rental_uris":{"android":"levelo://app?vid=f2b9871f-1186-41e6-8a60-001205f747a7","ios":"levelo://app?vid=f2b9871f-1186-41e6-8a60-001205f747a7"},"vehicle_type_id":"4","last_reported":1737148040,"current_range_meters":10800,"station_id":"ce4bhih2rcd13ifvqfr0","pricing_plan_id":"cebpf4jnsgd1na2vs0mg"},{"bike_id":"67c549d5-ce81-408a-a146-d43915340e7f","system_id":"levelo_inurba_marseille","lat":43.33723,"lon":5.39179,"is_reserved":false,"is_disabled":false,"rental_uris":{"android":"levelo://app?vid=67c549d5-ce81-408a-a146-d43915340e7f","ios":"levelo://app?vid=67c549d5-ce81-408a-a146-d43915340e7f"},"vehicle_type_id":"4","last_reported":1737148040,"current_range_meters":38800,"station_id":"ce4bhr92rcd13ifvqhsg","pricing_plan_id":"cebpf4jnsgd1na2vs0mg"},{"bike_id":"fa546e5c-a68a-4a86-a5bb-1d856af38d7e","system_id":"levelo_inurba_marseille","lat":43.23615,"lon":5.43598,"is_reserved":false,"is_disabled":true,"rental_uris":{"android":"levelo://app?vid=fa546e5c-a68a-4a86-a5bb-1d856af38d7e","ios":"levelo://app?vid=fa546e5c-a68a-4a86-a5bb-1d856af38d7e"},"vehicle_type_id":"4","last_reported":1737148040,"current_range_meters":0,"station_id":"","pricing_plan_id":"cebpf4jnsgd1na2vs0mg"},{"bike_id":"34b4297c-3aa9-49ec-8c3e-4dc835fa76e0","system_id":"levelo_inurba_marseille","lat":43.31319,"lon":5.397,"is_reserved":false,"is_disabled":false,"rental_uris":{"android":"levelo://app?vid=34b4297c-3aa9-49ec-8c3e-4dc835fa76e0","ios":"levelo://app?vid=34b4297c-3aa9-49ec-8c3e-4dc835fa76e0"},"vehicle_type_id":"4","last_reported":1737148040,"current_range_meters":31200,"station_id":"ce4bgvp2rcd13ifvqcu0","pricing_plan_id":"cebpf4jnsgd1na2vs0mg"},{"bike_id":"396c5a05-a9fd-4726-a5b8-6aef63658f38","system_id":"levelo_inurba_marseille","lat":43.28941,"lon":5.39616,"is_reserved":false,"is_disabled":false,"rental_uris":{"android":"levelo://app?vid=396c5a05-a9fd-4726-a5b8-6aef63658f38","ios":"levelo://app?vid=396c5a05-a9fd-4726-a5b8-6aef63658f38"},"vehicle_type_id":"4","last_reported":1737148040,"current_range_meters":38800,"station_id":"ce4bh3h2rcd13ifvqdn0","pricing_plan_id":"cebpf4jnsgd1na2vs0mg"},{"bike_id":"2bea0c0e-a704-424a-a38b-5826d59e42a2","system_id":"levelo_inurba_marseille","lat":43.33607,"lon":5.41029,"is_reserved":false,"is_disabled":false,"rental_uris":{"android":"levelo://app?vid=2bea0c0e-a704-424a-a38b-5826d59e42a2","ios":"levelo://app?vid=2bea0c0e-a704-424a-a38b-5826d59e42a2"},"vehicle_type_id":"4","last_reported":1737148040,"current_range_meters":27600,"station_id":"ce4bhqh2rcd13ifvqhmg","pricing_plan_id":"cebpf4jnsgd1na2vs0mg"},{"bike_id":"4530ef47-ad49-4d18-b7e3-954f3326c9ad","system_id":"levelo_inurba_marseille","lat":43.29535,"lon":5.38539,"is_reserved":false,"is_disabled":false,"rental_uris":{"android":"levelo://app?vid=4530ef47-ad49-4d18-b7e3-954f3326c9ad","ios":"levelo://app?vid=4530ef47-ad49-4d18-b7e3-954f3326c9ad"},"vehicle_type_id":"4","last_reported":1737148040,"current_range_meters":16800,"station_id":"ce4bgih2rcd13ifvqba0","pricing_plan_id":"cebpf4jnsgd1na2vs0mg"},{"bike_id":"34709e64-d1c8-4538-88a5-33805792c0a5","system_id":"levelo_inurba_marseille","lat":43.2584,"lon":5.39421,"is_reserved":false,"is_disabled":false,"rental_uris":{"android":"levelo://app?vid=34709e64-d1c8-4538-88a5-33805792c0a5","ios":"levelo://app?vid=34709e64-d1c8-4538-88a5-33805792c0a5"},"vehicle_type_id":"4","last_reported":1737148040,"current_range_meters":37600,"station_id":"ce4bhip2rcd13ifvqft0","pricing_plan_id":"cebpf4jnsgd1na2vs0mg"},{"bike_id":"d4c5158e-511e-4c0e-af6f-6a3bbf5cc0e5","system_id":"levelo_inurba_marseille","lat":43.271222,"lon":5.422385,"is_reserved":false,"is_disabled":true,"rental_uris":{"android":"levelo://app?vid=d4c5158e-511e-4c0e-af6f-6a3bbf5cc0e5","ios":"levelo://app?vid=d4c5158e-511e-4c0e-af6f-6a3bbf5cc0e5"},"vehicle_type_id":"4","last_reported":1737148040,"current_range_meters":0,"station_id":"","pricing_plan_id":"cebpf4jnsgd1na2vs0mg"},{"bike_id":"e13f2573-0c01-445a-a0fd-48859669c6a9","system_id":"levelo_inurba_marseille","lat":43.29307,"lon":5.37146,"is_reserved":false,"is_disabled":false,"rental_uris":{"android":"levelo://app?vid=e13f2573-0c01-445a-a0fd-48859669c6a9","ios":"levelo://app?vid=e13f2573-0c01-445a-a0fd-48859669c6a9"},"vehicle_type_id":"4","last_reported":1737148040,"current_range_meters":32400,"station_id":"ce4bgh92rcd13ifvqb40","pricing_plan_id":"cebpf4jnsgd1na2vs0mg"},{"bike_id":"b0defa20-13e5-47e4-9221-f5a3a891b64c","system_id":"levelo_inurba_marseille","lat":43.28938,"lon":5.36615,"is_reserved":false,"is_disabled":false,"rental_uris":{"android":"levelo://app?vid=b0defa20-13e5-47e4-9221-f5a3a891b64c","ios":"levelo://app?vid=b0defa20-13e5-47e4-9221-f5a3a891b64c"},"vehicle_type_id":"4","last_reported":1737148040,"current_range_meters":18000,"station_id":"ce4bhap2rcd13ifvqek0","pricing_plan_id":"cebpf4jnsgd1na2vs0mg"},{"bike_id":"7b73b80d-a1dd-430b-aa67-950539e6457d","system_id":"levelo_inurba_marseille","lat":43.28003,"lon":5.40015,"is_reserved":false,"is_disabled":false,"rental_uris":{"android":"levelo://app?vid=7b73b80d-a1dd-430b-aa67-950539e6457d","ios":"levelo://app?vid=7b73b80d-a1dd-430b-aa67-950539e6457d"},"vehicle_type_id":"4","last_reported":1737148040,"current_range_meters":12800,"station_id":"ce4bho92rcd13ifvqh4g","pricing_plan_id":"cebpf4jnsgd1na2vs0mg"},{"bike_id":"bfa0e50a-53bb-4fd7-8dc4-9ee47aaf1422","system_id":"levelo_inurba_marseille","lat":43.29028,"lon":5.38643,"is_reserved":false,"is_disabled":false,"rental_uris":{"android":"levelo://app?vid=bfa0e50a-53bb-4fd7-8dc4-9ee47aaf1422","ios":"levelo://app?vid=bfa0e50a-53bb-4fd7-8dc4-9ee47aaf1422"},"vehicle_type_id":"4","last_reported":1737148040,"current_range_meters":37600,"station_id":"ce4bh4p2rcd13ifvqe0g","pricing_plan_id":"cebpf4jnsgd1na2vs0mg"},{"bike_id":"f8aad85d-54d6-4ca2-81ac-46c1a831eb57","system_id":"levelo_inurba_marseille","lat":43.28085,"lon":5.39646,"is_reserved":false,"is_disabled":false,"rental_uris":{"android":"levelo://app?vid=f8aad85d-54d6-4ca2-81ac-46c1a831eb57","ios":"levelo://app?vid=f8aad85d-54d6-4ca2-81ac-46c1a831eb57"},"vehicle_type_id":"4","last_reported":1737148040,"current_range_meters":36800,"station_id":"ce4bho12rcd13ifvqh2g","pricing_plan_id":"cebpf4jnsgd1na2vs0mg"},{"bike_id":"f40ab83e-daf8-4b93-8caa-04e6712badee","system_id":"levelo_inurba_marseille","lat":43.29191,"lon":5.39304,"is_reserved":false,"is_disabled":false,"rental_uris":{"android":"levelo://app?vid=f40ab83e-daf8-4b93-8caa-04e6712badee","ios":"levelo://app?vid=f40ab83e-daf8-4b93-8caa-04e6712badee"},"vehicle_type_id":"4","last_reported":1737148040,"current_range_meters":26800,"station_id":"ce4bh192rcd13ifvqdd0","pricing_plan_id":"cebpf4jnsgd1na2vs0mg"},{"bike_id":"56b8e9bc-f750-4815-bc98-9098414d16db","system_id":"levelo_inurba_marseille","lat":43.23184,"lon":5.35544,"is_reserved":false,"is_disabled":true,"rental_uris":{"android":"levelo://app?vid=56b8e9bc-f750-4815-bc98-9098414d16db","ios":"levelo://app?vid=56b8e9bc-f750-4815-bc98-9098414d16db"},"vehicle_type_id":"4","last_reported":1737148040,"current_range_meters":0,"station_id":"ce4bhu92rcd13ifvqi70","pricing_plan_id":"cebpf4jnsgd1na2vs0mg"},{"bike_id":"0e91b70c-1e42-4d65-a90a-72cbd40954b0","system_id":"levelo_inurba_marseille","lat":43.31883,"lon":5.37431,"is_reserved":false,"is_disabled":false,"rental_uris":{"android":"levelo://app?vid=0e91b70c-1e42-4d65-a90a-72cbd40954b0","ios":"levelo://app?vid=0e91b70c-1e42-4d65-a90a-72cbd40954b0"},"vehicle_type_id":"4","last_reported":1737148040,"current_range_meters":14400,"station_id":"","pricing_plan_id":"cebpf4jnsgd1na2vs0mg"},{"bike_id":"57ef9cb0-beed-4346-9a14-0e969ef4cc09","system_id":"levelo_inurba_marseille","lat":43.2942,"lon":5.38624,"is_reserved":false,"is_disabled":false,"rental_uris":{"android":"levelo://app?vid=57ef9cb0-beed-4346-9a14-0e969ef4cc09","ios":"levelo://app?vid=57ef9cb0-beed-4346-9a14-0e969ef4cc09"},"vehicle_type_id":"4","last_reported":1737148040,"current_range_meters":25200,"station_id":"ce4bh2h2rcd13ifvqdh0","pricing_plan_id":"cebpf4jnsgd1na2vs0mg"},{"bike_id":"4916c5da-e318-4472-84cf-aee3a54ce3c4","system_id":"levelo_inurba_marseille","lat":43.24633,"lon":5.43502,"is_reserved":false,"is_disabled":true,"rental_uris":{"android":"levelo://app?vid=4916c5da-e318-4472-84cf-aee3a54ce3c4","ios":"levelo://app?vid=4916c5da-e318-4472-84cf-aee3a54ce3c4"},"vehicle_type_id":"4","last_reported":1737148040,"current_range_meters":0,"station_id":"","pricing_plan_id":"cebpf4jnsgd1na2vs0mg"},{"bike_id":"cf97a734-ec4a-4d5c-b988-11825cc68a96","system_id":"levelo_inurba_marseille","lat":43.29889,"lon":5.38898,"is_reserved":false,"is_disabled":false,"rental_uris":{"android":"levelo://app?vid=cf97a734-ec4a-4d5c-b988-11825cc68a96","ios":"levelo://app?vid=cf97a734-ec4a-4d5c-b988-11825cc68a96"},"vehicle_type_id":"4","last_reported":1737148040,"current_range_meters":39200,"station_id":"ce4bh392rcd13ifvqdl0","pricing_plan_id":"cebpf4jnsgd1na2vs0mg"},{"bike_id":"1b0abdf0-ebc9-477b-9a5c-20d604bc88e3","system_id":"levelo_inurba_marseille","lat":43.2508,"lon":5.3951,"is_reserved":false,"is_disabled":false,"rental_uris":{"android":"levelo://app?vid=1b0abdf0-ebc9-477b-9a5c-20d604bc88e3","ios":"levelo://app?vid=1b0abdf0-ebc9-477b-9a5c-20d604bc88e3"},"vehicle_type_id":"4","last_reported":1737148040,"current_range_meters":38800,"station_id":"ce4bhm12rcd13ifvqgkg","pricing_plan_id":"cebpf4jnsgd1na2vs0mg"},{"bike_id":"424dca1e-8779-4b6f-842e-21c8a559ff8d","system_id":"levelo_inurba_marseille","lat":43.28731,"lon":5.36089,"is_reserved":false,"is_disabled":false,"rental_uris":{"android":"levelo://app?vid=424dca1e-8779-4b6f-842e-21c8a559ff8d","ios":"levelo://app?vid=424dca1e-8779-4b6f-842e-21c8a559ff8d"},"vehicle_type_id":"4","last_reported":1737148040,"current_range_meters":37600,"station_id":"cki0cbj6b192h4jlfktg","pricing_plan_id":"cebpf4jnsgd1na2vs0mg"},{"bike_id":"b987a07f-a5e3-45e2-9549-2a61720f39ae","system_id":"levelo_inurba_marseille","lat":43.28695,"lon":5.37381,"is_reserved":false,"is_disabled":false,"rental_uris":{"android":"levelo://app?vid=b987a07f-a5e3-45e2-9549-2a61720f39ae","ios":"levelo://app?vid=b987a07f-a5e3-45e2-9549-2a61720f39ae"},"vehicle_type_id":"4","last_reported":1737148040,"current_range_meters":30400,"station_id":"ce4bh3p2rcd13ifvqdq0","pricing_plan_id":"cebpf4jnsgd1na2vs0mg"},{"bike_id":"6058ae9f-7230-4dc1-8303-9dfef7b41dd4","system_id":"levelo_inurba_marseille","lat":43.30309,"lon":5.392,"is_reserved":false,"is_disabled":false,"rental_uris":{"android":"levelo://app?vid=6058ae9f-7230-4dc1-8303-9dfef7b41dd4","ios":"levelo://app?vid=6058ae9f-7230-4dc1-8303-9dfef7b41dd4"},"vehicle_type_id":"4","last_reported":1737148040,"current_range_meters":12800,"station_id":"ce4bgkh2rcd13ifvqbk0","pricing_plan_id":"cebpf4jnsgd1na2vs0mg"},{"bike_id":"57cb6125-13ef-4b3f-8c04-c66200689843","system_id":"levelo_inurba_marseille","lat":43.30896,"lon":5.39657,"is_reserved":false,"is_disabled":false,"rental_uris":{"android":"levelo://app?vid=57cb6125-13ef-4b3f-8c04-c66200689843","ios":"levelo://app?vid=57cb6125-13ef-4b3f-8c04-c66200689843"},"vehicle_type_id":"4","last_reported":1737148040,"current_range_meters":38400,"station_id":"ce4bh012rcd13ifvqcv0","pricing_plan_id":"cebpf4jnsgd1na2vs0mg"},{"bike_id":"a74891f3-5f77-4c28-8515-deb63a02a3dc","system_id":"levelo_inurba_marseille","lat":43.29738,"lon":5.37668,"is_reserved":false,"is_disabled":false,"rental_uris":{"android":"levelo://app?vid=a74891f3-5f77-4c28-8515-deb63a02a3dc","ios":"levelo://app?vid=a74891f3-5f77-4c28-8515-deb63a02a3dc"},"vehicle_type_id":"4","last_reported":1737148040,"current_range_meters":20800,"station_id":"ce4bgkh2rcd13ifvqbl0","pricing_plan_id":"cebpf4jnsgd1na2vs0mg"},{"bike_id":"22465212-93af-4e0b-b803-6ee82bba56d5","system_id":"levelo_inurba_marseille","lat":43.33763,"lon":5.37492,"is_reserved":false,"is_disabled":false,"rental_uris":{"android":"levelo://app?vid=22465212-93af-4e0b-b803-6ee82bba56d5","ios":"levelo://app?vid=22465212-93af-4e0b-b803-6ee82bba56d5"},"vehicle_type_id":"4","last_reported":1737148040,"current_range_meters":32000,"station_id":"","pricing_plan_id":"cebpf4jnsgd1na2vs0mg"},{"bike_id":"52d45926-3f30-4ca6-9cca-370e66639bce","system_id":"levelo_inurba_marseille","lat":43.29777,"lon":5.39318,"is_reserved":false,"is_disabled":false,"rental_uris":{"android":"levelo://app?vid=52d45926-3f30-4ca6-9cca-370e66639bce","ios":"levelo://app?vid=52d45926-3f30-4ca6-9cca-370e66639bce"},"vehicle_type_id":"4","last_reported":1737148040,"current_range_meters":38800,"station_id":"chh1huq6cuj3fo74tm60","pricing_plan_id":"cebpf4jnsgd1na2vs0mg"},{"bike_id":"979d7a5c-00ce-4dcf-a15c-0fc9c9e35c10","system_id":"levelo_inurba_marseille","lat":43.33783,"lon":5.37456,"is_reserved":false,"is_disabled":false,"rental_uris":{"android":"levelo://app?vid=979d7a5c-00ce-4dcf-a15c-0fc9c9e35c10","ios":"levelo://app?vid=979d7a5c-00ce-4dcf-a15c-0fc9c9e35c10"},"vehicle_type_id":"4","last_reported":1737148040,"current_range_meters":28000,"station_id":"","pricing_plan_id":"cebpf4jnsgd1na2vs0mg"},{"bike_id":"730df4ba-4772-4a0e-9e4a-bb6bde6caaeb","system_id":"levelo_inurba_marseille","lat":43.30122,"lon":5.39881,"is_reserved":false,"is_disabled":true,"rental_uris":{"android":"levelo://app?vid=730df4ba-4772-4a0e-9e4a-bb6bde6caaeb","ios":"levelo://app?vid=730df4ba-4772-4a0e-9e4a-bb6bde6caaeb"},"vehicle_type_id":"4","last_reported":1737148040,"current_range_meters":37600,"station_id":"ce4bh0h2rcd13ifvqd40","pricing_plan_id":"cebpf4jnsgd1na2vs0mg"},{"bike_id":"44131982-6d25-4caf-9dfd-07df823acdd9","system_id":"levelo_inurba_marseille","lat":43.29024,"lon":5.37552,"is_reserved":false,"is_disabled":false,"rental_uris":{"android":"levelo://app?vid=44131982-6d25-4caf-9dfd-07df823acdd9","ios":"levelo://app?vid=44131982-6d25-4caf-9dfd-07df823acdd9"},"vehicle_type_id":"4","last_reported":1737148040,"current_range_meters":6400,"station_id":"ce4bh692rcd13ifvqe90","pricing_plan_id":"cebpf4jnsgd1na2vs0mg"},{"bike_id":"78ecafe4-6ef2-47f2-a844-7fc2bb3c1dc6","system_id":"levelo_inurba_marseille","lat":43.29258,"lon":5.38436,"is_reserved":false,"is_disabled":false,"rental_uris":{"android":"levelo://app?vid=78ecafe4-6ef2-47f2-a844-7fc2bb3c1dc6","ios":"levelo://app?vid=78ecafe4-6ef2-47f2-a844-7fc2bb3c1dc6"},"vehicle_type_id":"4","last_reported":1737148040,"current_range_meters":37600,"station_id":"ce4bh692rcd13ifvqea0","pricing_plan_id":"cebpf4jnsgd1na2vs0mg"},{"bike_id":"492bb2a4-bb26-45e4-9edc-d3f9691e28d1","system_id":"levelo_inurba_marseille","lat":43.31751,"lon":5.38997,"is_reserved":false,"is_disabled":false,"rental_uris":{"android":"levelo://app?vid=492bb2a4-bb26-45e4-9edc-d3f9691e28d1","ios":"levelo://app?vid=492bb2a4-bb26-45e4-9edc-d3f9691e28d1"},"vehicle_type_id":"4","last_reported":1737148040,"current_range_meters":38800,"station_id":"ce4bhqp2rcd13ifvqhng","pricing_plan_id":"cebpf4jnsgd1na2vs0mg"},{"bike_id":"821ba0cd-70d4-42cd-a101-089e7b2bf2ab","system_id":"levelo_inurba_marseille","lat":43.29426,"lon":5.38625,"is_reserved":false,"is_disabled":false,"rental_uris":{"android":"levelo://app?vid=821ba0cd-70d4-42cd-a101-089e7b2bf2ab","ios":"levelo://app?vid=821ba0cd-70d4-42cd-a101-089e7b2bf2ab"},"vehicle_type_id":"4","last_reported":1737148040,"current_range_meters":30800,"station_id":"ce4bh2h2rcd13ifvqdh0","pricing_plan_id":"cebpf4jnsgd1na2vs0mg"},{"bike_id":"2852113b-49ee-4cbf-9a16-ea68797906c2","system_id":"levelo_inurba_marseille","lat":43.33761,"lon":5.37445,"is_reserved":false,"is_disabled":false,"rental_uris":{"android":"levelo://app?vid=2852113b-49ee-4cbf-9a16-ea68797906c2","ios":"levelo://app?vid=2852113b-49ee-4cbf-9a16-ea68797906c2"},"vehicle_type_id":"4","last_reported":1737148040,"current_range_meters":37600,"station_id":"","pricing_plan_id":"cebpf4jnsgd1na2vs0mg"},{"bike_id":"c4be0394-b020-4524-9ad0-d493d2e97d24","system_id":"levelo_inurba_marseille","lat":43.29525,"lon":5.39035,"is_reserved":false,"is_disabled":false,"rental_uris":{"android":"levelo://app?vid=c4be0394-b020-4524-9ad0-d493d2e97d24","ios":"levelo://app?vid=c4be0394-b020-4524-9ad0-d493d2e97d24"},"vehicle_type_id":"4","last_reported":1737148040,"current_range_meters":12400,"station_id":"ce4bh3p2rcd13ifvqdp0","pricing_plan_id":"cebpf4jnsgd1na2vs0mg"},{"bike_id":"d3bcae62-6d5d-45f6-acfa-c8b6603a3285","system_id":"levelo_inurba_marseille","lat":43.31449,"lon":5.38944,"is_reserved":false,"is_disabled":false,"rental_uris":{"android":"levelo://app?vid=d3bcae62-6d5d-45f6-acfa-c8b6603a3285","ios":"levelo://app?vid=d3bcae62-6d5d-45f6-acfa-c8b6603a3285"},"vehicle_type_id":"4","last_reported":1737148040,"current_range_meters":28800,"station_id":"","pricing_plan_id":"cebpf4jnsgd1na2vs0mg"},{"bike_id":"b663f53e-1e42-4f0c-a05f-fde242cb0184","system_id":"levelo_inurba_marseille","lat":43.2861,"lon":5.35109,"is_reserved":false,"is_disabled":false,"rental_uris":{"android":"levelo://app?vid=b663f53e-1e42-4f0c-a05f-fde242cb0184","ios":"levelo://app?vid=b663f53e-1e42-4f0c-a05f-fde242cb0184"},"vehicle_type_id":"4","last_reported":1737148040,"current_range_meters":27600,"station_id":"ce4bhch2rcd13ifvqeug","pricing_plan_id":"cebpf4jnsgd1na2vs0mg"},{"bike_id":"970f0567-2402-4922-b668-2317b7377843","system_id":"levelo_inurba_marseille","lat":43.29408,"lon":5.38618,"is_reserved":false,"is_disabled":false,"rental_uris":{"android":"levelo://app?vid=970f0567-2402-4922-b668-2317b7377843","ios":"levelo://app?vid=970f0567-2402-4922-b668-2317b7377843"},"vehicle_type_id":"4","last_reported":1737148040,"current_range_meters":38800,"station_id":"ce4bh2h2rcd13ifvqdh0","pricing_plan_id":"cebpf4jnsgd1na2vs0mg"},{"bike_id":"1db2e11f-620f-403f-b1b3-cd7ce8d8adee","system_id":"levelo_inurba_marseille","lat":43.2885,"lon":5.358675,"is_reserved":false,"is_disabled":false,"rental_uris":{"android":"levelo://app?vid=1db2e11f-620f-403f-b1b3-cd7ce8d8adee","ios":"levelo://app?vid=1db2e11f-620f-403f-b1b3-cd7ce8d8adee"},"vehicle_type_id":"4","last_reported":1737148040,"current_range_meters":16800,"station_id":"ce4bhb12rcd13ifvqem0","pricing_plan_id":"cebpf4jnsgd1na2vs0mg"},{"bike_id":"6f01c4bf-c32c-4100-8d1f-bf0feff6801e","system_id":"levelo_inurba_marseille","lat":43.28668,"lon":5.38664,"is_reserved":false,"is_disabled":false,"rental_uris":{"android":"levelo://app?vid=6f01c4bf-c32c-4100-8d1f-bf0feff6801e","ios":"levelo://app?vid=6f01c4bf-c32c-4100-8d1f-bf0feff6801e"},"vehicle_type_id":"4","last_reported":1737148040,"current_range_meters":6400,"station_id":"ce4bh492rcd13ifvqdug","pricing_plan_id":"cebpf4jnsgd1na2vs0mg"},{"bike_id":"ea08233d-512e-4aa8-9b56-87e17d82dcd0","system_id":"levelo_inurba_marseille","lat":43.28918,"lon":5.36394,"is_reserved":false,"is_disabled":false,"rental_uris":{"android":"levelo://app?vid=ea08233d-512e-4aa8-9b56-87e17d82dcd0","ios":"levelo://app?vid=ea08233d-512e-4aa8-9b56-87e17d82dcd0"},"vehicle_type_id":"4","last_reported":1737148040,"current_range_meters":39200,"station_id":"ce4bhc92rcd13ifvqetg","pricing_plan_id":"cebpf4jnsgd1na2vs0mg"},{"bike_id":"cefc250c-1baa-4a78-8fed-eb20c7fbb95c","system_id":"levelo_inurba_marseille","lat":43.231894,"lon":5.355588,"is_reserved":false,"is_disabled":false,"rental_uris":{"android":"levelo://app?vid=cefc250c-1baa-4a78-8fed-eb20c7fbb95c","ios":"levelo://app?vid=cefc250c-1baa-4a78-8fed-eb20c7fbb95c"},"vehicle_type_id":"4","last_reported":1737148040,"current_range_meters":38800,"station_id":"ce4bhu92rcd13ifvqi70","pricing_plan_id":"cebpf4jnsgd1na2vs0mg"},{"bike_id":"6a7366d7-ed8c-4629-bf0c-70c2abcda36d","system_id":"levelo_inurba_marseille","lat":43.23192,"lon":5.35541,"is_reserved":false,"is_disabled":false,"rental_uris":{"android":"levelo://app?vid=6a7366d7-ed8c-4629-bf0c-70c2abcda36d","ios":"levelo://app?vid=6a7366d7-ed8c-4629-bf0c-70c2abcda36d"},"vehicle_type_id":"4","last_reported":1737148040,"current_range_meters":39200,"station_id":"ce4bhu92rcd13ifvqi70","pricing_plan_id":"cebpf4jnsgd1na2vs0mg"},{"bike_id":"3690df9b-8e95-4304-ae85-39f8748465ca","system_id":"levelo_inurba_marseille","lat":43.27899,"lon":5.38006,"is_reserved":false,"is_disabled":false,"rental_uris":{"android":"levelo://app?vid=3690df9b-8e95-4304-ae85-39f8748465ca","ios":"levelo://app?vid=3690df9b-8e95-4304-ae85-39f8748465ca"},"vehicle_type_id":"4","last_reported":1737148040,"current_range_meters":38400,"station_id":"ce4bhf92rcd13ifvqf50","pricing_plan_id":"cebpf4jnsgd1na2vs0mg"},{"bike_id":"df199835-726e-4625-a572-dc645c74dbbc","system_id":"levelo_inurba_marseille","lat":43.25041,"lon":5.38891,"is_reserved":false,"is_disabled":false,"rental_uris":{"android":"levelo://app?vid=df199835-726e-4625-a572-dc645c74dbbc","ios":"levelo://app?vid=df199835-726e-4625-a572-dc645c74dbbc"},"vehicle_type_id":"4","last_reported":1737148040,"current_range_meters":22000,"station_id":"ce4bhgp2rcd13ifvqfd0","pricing_plan_id":"cebpf4jnsgd1na2vs0mg"},{"bike_id":"4ef8fa23-df65-4fd9-9c8f-c852e91aa028","system_id":"levelo_inurba_marseille","lat":43.29503,"lon":5.39036,"is_reserved":false,"is_disabled":false,"rental_uris":{"android":"levelo://app?vid=4ef8fa23-df65-4fd9-9c8f-c852e91aa028","ios":"levelo://app?vid=4ef8fa23-df65-4fd9-9c8f-c852e91aa028"},"vehicle_type_id":"4","last_reported":1737148040,"current_range_meters":27600,"station_id":"ce4bh3p2rcd13ifvqdp0","pricing_plan_id":"cebpf4jnsgd1na2vs0mg"},{"bike_id":"35deb437-7ef2-4ee7-9ea5-27ce0001ca7b","system_id":"levelo_inurba_marseille","lat":43.260638,"lon":5.393996,"is_reserved":false,"is_disabled":false,"rental_uris":{"android":"levelo://app?vid=35deb437-7ef2-4ee7-9ea5-27ce0001ca7b","ios":"levelo://app?vid=35deb437-7ef2-4ee7-9ea5-27ce0001ca7b"},"vehicle_type_id":"4","last_reported":1737148040,"current_range_meters":38800,"station_id":"ce4bhh92rcd13ifvqfj0","pricing_plan_id":"cebpf4jnsgd1na2vs0mg"},{"bike_id":"8950ad97-12b3-4231-a25a-a92e6e418d6d","system_id":"levelo_inurba_marseille","lat":43.28606,"lon":5.37058,"is_reserved":false,"is_disabled":false,"rental_uris":{"android":"levelo://app?vid=8950ad97-12b3-4231-a25a-a92e6e418d6d","ios":"levelo://app?vid=8950ad97-12b3-4231-a25a-a92e6e418d6d"},"vehicle_type_id":"4","last_reported":1737148040,"current_range_meters":17600,"station_id":"ce4bht12rcd13ifvqi60","pricing_plan_id":"cebpf4jnsgd1na2vs0mg"},{"bike_id":"3f365e46-1820-41a8-b556-5a78950765a9","system_id":"levelo_inurba_marseille","lat":43.28367,"lon":5.38629,"is_reserved":false,"is_disabled":false,"rental_uris":{"android":"levelo://app?vid=3f365e46-1820-41a8-b556-5a78950765a9","ios":"levelo://app?vid=3f365e46-1820-41a8-b556-5a78950765a9"},"vehicle_type_id":"4","last_reported":1737148040,"current_range_meters":22000,"station_id":"ce4bh492rcd13ifvqdvg","pricing_plan_id":"cebpf4jnsgd1na2vs0mg"},{"bike_id":"f2390374-e060-4fe1-bcfa-cb2711193e58","system_id":"levelo_inurba_marseille","lat":43.25078,"lon":5.39519,"is_reserved":false,"is_disabled":false,"rental_uris":{"android":"levelo://app?vid=f2390374-e060-4fe1-bcfa-cb2711193e58","ios":"levelo://app?vid=f2390374-e060-4fe1-bcfa-cb2711193e58"},"vehicle_type_id":"4","last_reported":1737148040,"current_range_meters":13600,"station_id":"ce4bhm12rcd13ifvqgkg","pricing_plan_id":"cebpf4jnsgd1na2vs0mg"},{"bike_id":"12aeebdf-9e20-443e-a190-514b03e8d72a","system_id":"levelo_inurba_marseille","lat":43.30889,"lon":5.37186,"is_reserved":false,"is_disabled":false,"rental_uris":{"android":"levelo://app?vid=12aeebdf-9e20-443e-a190-514b03e8d72a","ios":"levelo://app?vid=12aeebdf-9e20-443e-a190-514b03e8d72a"},"vehicle_type_id":"4","last_reported":1737148040,"current_range_meters":38800,"station_id":"ce4bguh2rcd13ifvqckg","pricing_plan_id":"cebpf4jnsgd1na2vs0mg"},{"bike_id":"3baee328-1960-43a9-a18f-d51a435b6348","system_id":"levelo_inurba_marseille","lat":43.27816,"lon":5.40705,"is_reserved":false,"is_disabled":false,"rental_uris":{"android":"levelo://app?vid=3baee328-1960-43a9-a18f-d51a435b6348","ios":"levelo://app?vid=3baee328-1960-43a9-a18f-d51a435b6348"},"vehicle_type_id":"4","last_reported":1737148040,"current_range_meters":32400,"station_id":"ce4bhnh2rcd13ifvqgtg","pricing_plan_id":"cebpf4jnsgd1na2vs0mg"},{"bike_id":"031e5600-8cd1-41ad-b759-8f7d96d84e7d","system_id":"levelo_inurba_marseille","lat":43.29515,"lon":5.39037,"is_reserved":false,"is_disabled":false,"rental_uris":{"android":"levelo://app?vid=031e5600-8cd1-41ad-b759-8f7d96d84e7d","ios":"levelo://app?vid=031e5600-8cd1-41ad-b759-8f7d96d84e7d"},"vehicle_type_id":"4","last_reported":1737148040,"current_range_meters":28400,"station_id":"ce4bh3p2rcd13ifvqdp0","pricing_plan_id":"cebpf4jnsgd1na2vs0mg"},{"bike_id":"a8c1b154-f41c-4d41-9d3c-cf0101fd1f79","system_id":"levelo_inurba_marseille","lat":43.31335,"lon":5.39687,"is_reserved":false,"is_disabled":false,"rental_uris":{"android":"levelo://app?vid=a8c1b154-f41c-4d41-9d3c-cf0101fd1f79","ios":"levelo://app?vid=a8c1b154-f41c-4d41-9d3c-cf0101fd1f79"},"vehicle_type_id":"4","last_reported":1737148040,"current_range_meters":28000,"station_id":"ce4bgvp2rcd13ifvqcu0","pricing_plan_id":"cebpf4jnsgd1na2vs0mg"},{"bike_id":"81ae6006-c9d2-4a53-8a79-d74ca2de60eb","system_id":"levelo_inurba_marseille","lat":43.29262,"lon":5.38429,"is_reserved":false,"is_disabled":false,"rental_uris":{"android":"levelo://app?vid=81ae6006-c9d2-4a53-8a79-d74ca2de60eb","ios":"levelo://app?vid=81ae6006-c9d2-4a53-8a79-d74ca2de60eb"},"vehicle_type_id":"4","last_reported":1737148040,"current_range_meters":18800,"station_id":"ce4bh692rcd13ifvqea0","pricing_plan_id":"cebpf4jnsgd1na2vs0mg"},{"bike_id":"119a55ad-5824-45b8-b7d2-b54288ed68e1","system_id":"levelo_inurba_marseille","lat":43.29553,"lon":5.42287,"is_reserved":false,"is_disabled":true,"rental_uris":{"android":"levelo://app?vid=119a55ad-5824-45b8-b7d2-b54288ed68e1","ios":"levelo://app?vid=119a55ad-5824-45b8-b7d2-b54288ed68e1"},"vehicle_type_id":"4","last_reported":1737148040,"current_range_meters":1600,"station_id":"ce4bhph2rcd13ifvqhdg","pricing_plan_id":"cebpf4jnsgd1na2vs0mg"},{"bike_id":"7ae468b0-0e73-4609-b947-3b7dfb1c3890","system_id":"levelo_inurba_marseille","lat":43.2841,"lon":5.37504,"is_reserved":false,"is_disabled":false,"rental_uris":{"android":"levelo://app?vid=7ae468b0-0e73-4609-b947-3b7dfb1c3890","ios":"levelo://app?vid=7ae468b0-0e73-4609-b947-3b7dfb1c3890"},"vehicle_type_id":"4","last_reported":1737148040,"current_range_meters":35600,"station_id":"ce4bh412rcd13ifvqds0","pricing_plan_id":"cebpf4jnsgd1na2vs0mg"},{"bike_id":"c4ab3838-1d61-4e29-a39f-fbac00aa12d4","system_id":"levelo_inurba_marseille","lat":43.31237,"lon":5.36855,"is_reserved":false,"is_disabled":false,"rental_uris":{"android":"levelo://app?vid=c4ab3838-1d61-4e29-a39f-fbac00aa12d4","ios":"levelo://app?vid=c4ab3838-1d61-4e29-a39f-fbac00aa12d4"},"vehicle_type_id":"4","last_reported":1737148040,"current_range_meters":38800,"station_id":"ce4bgl92rcd13ifvqbq0","pricing_plan_id":"cebpf4jnsgd1na2vs0mg"},{"bike_id":"a980b2b0-f770-4224-8f6d-b586fcca4efc","system_id":"levelo_inurba_marseille","lat":43.29368,"lon":5.37846,"is_reserved":false,"is_disabled":false,"rental_uris":{"android":"levelo://app?vid=a980b2b0-f770-4224-8f6d-b586fcca4efc","ios":"levelo://app?vid=a980b2b0-f770-4224-8f6d-b586fcca4efc"},"vehicle_type_id":"4","last_reported":1737148040,"current_range_meters":28000,"station_id":"ce4bgjh2rcd13ifvqbf0","pricing_plan_id":"cebpf4jnsgd1na2vs0mg"},{"bike_id":"0d3827bc-fa4a-4859-975c-024d5765eb3c","system_id":"levelo_inurba_marseille","lat":43.29969,"lon":5.38487,"is_reserved":false,"is_disabled":false,"rental_uris":{"android":"levelo://app?vid=0d3827bc-fa4a-4859-975c-024d5765eb3c","ios":"levelo://app?vid=0d3827bc-fa4a-4859-975c-024d5765eb3c"},"vehicle_type_id":"4","last_reported":1737148040,"current_range_meters":34800,"station_id":"ce4bgj92rcd13ifvqbd0","pricing_plan_id":"cebpf4jnsgd1na2vs0mg"},{"bike_id":"23e4b11b-b4e1-4e70-8ef6-f28ba3fd137e","system_id":"levelo_inurba_marseille","lat":43.30158,"lon":5.3809,"is_reserved":false,"is_disabled":false,"rental_uris":{"android":"levelo://app?vid=23e4b11b-b4e1-4e70-8ef6-f28ba3fd137e","ios":"levelo://app?vid=23e4b11b-b4e1-4e70-8ef6-f28ba3fd137e"},"vehicle_type_id":"4","last_reported":1737148040,"current_range_meters":36400,"station_id":"ce4bgjp2rcd13ifvqbh0","pricing_plan_id":"cebpf4jnsgd1na2vs0mg"},{"bike_id":"7763119b-38b1-4bdc-8357-03a1df582c3a","system_id":"levelo_inurba_marseille","lat":43.2909,"lon":5.38133,"is_reserved":false,"is_disabled":false,"rental_uris":{"android":"levelo://app?vid=7763119b-38b1-4bdc-8357-03a1df582c3a","ios":"levelo://app?vid=7763119b-38b1-4bdc-8357-03a1df582c3a"},"vehicle_type_id":"4","last_reported":1737148040,"current_range_meters":30000,"station_id":"ce4bh512rcd13ifvqe2g","pricing_plan_id":"cebpf4jnsgd1na2vs0mg"},{"bike_id":"89bc536c-bb48-48c8-b60d-9290bea89d68","system_id":"levelo_inurba_marseille","lat":43.29416,"lon":5.38618,"is_reserved":false,"is_disabled":false,"rental_uris":{"android":"levelo://app?vid=89bc536c-bb48-48c8-b60d-9290bea89d68","ios":"levelo://app?vid=89bc536c-bb48-48c8-b60d-9290bea89d68"},"vehicle_type_id":"4","last_reported":1737148040,"current_range_meters":10800,"station_id":"ce4bh2h2rcd13ifvqdh0","pricing_plan_id":"cebpf4jnsgd1na2vs0mg"},{"bike_id":"246f2aa1-d855-40ee-b8e2-0e541013d632","system_id":"levelo_inurba_marseille","lat":43.2782,"lon":5.40687,"is_reserved":false,"is_disabled":false,"rental_uris":{"android":"levelo://app?vid=246f2aa1-d855-40ee-b8e2-0e541013d632","ios":"levelo://app?vid=246f2aa1-d855-40ee-b8e2-0e541013d632"},"vehicle_type_id":"4","last_reported":1737148040,"current_range_meters":4000,"station_id":"ce4bhnh2rcd13ifvqgtg","pricing_plan_id":"cebpf4jnsgd1na2vs0mg"},{"bike_id":"c248864c-e161-4718-8c42-20a1064043b4","system_id":"levelo_inurba_marseille","lat":43.28407,"lon":5.3751,"is_reserved":false,"is_disabled":false,"rental_uris":{"android":"levelo://app?vid=c248864c-e161-4718-8c42-20a1064043b4","ios":"levelo://app?vid=c248864c-e161-4718-8c42-20a1064043b4"},"vehicle_type_id":"4","last_reported":1737148040,"current_range_meters":24400,"station_id":"ce4bh412rcd13ifvqds0","pricing_plan_id":"cebpf4jnsgd1na2vs0mg"},{"bike_id":"b5afcd0f-3754-406a-9c39-c8a567e8644e","system_id":"levelo_inurba_marseille","lat":43.29363,"lon":5.37825,"is_reserved":false,"is_disabled":false,"rental_uris":{"android":"levelo://app?vid=b5afcd0f-3754-406a-9c39-c8a567e8644e","ios":"levelo://app?vid=b5afcd0f-3754-406a-9c39-c8a567e8644e"},"vehicle_type_id":"4","last_reported":1737148040,"current_range_meters":22400,"station_id":"ce4bgjh2rcd13ifvqbf0","pricing_plan_id":"cebpf4jnsgd1na2vs0mg"},{"bike_id":"72ca0742-1df6-4026-87cc-098e9e8db1ab","system_id":"levelo_inurba_marseille","lat":43.23963,"lon":5.3663,"is_reserved":false,"is_disabled":false,"rental_uris":{"android":"levelo://app?vid=72ca0742-1df6-4026-87cc-098e9e8db1ab","ios":"levelo://app?vid=72ca0742-1df6-4026-87cc-098e9e8db1ab"},"vehicle_type_id":"4","last_reported":1737148040,"current_range_meters":27600,"station_id":"ce4bhi12rcd13ifvqfp0","pricing_plan_id":"cebpf4jnsgd1na2vs0mg"},{"bike_id":"1e2f115e-489f-4c45-b5ad-3280ad4c66fe","system_id":"levelo_inurba_marseille","lat":43.3168,"lon":5.43666,"is_reserved":false,"is_disabled":false,"rental_uris":{"android":"levelo://app?vid=1e2f115e-489f-4c45-b5ad-3280ad4c66fe","ios":"levelo://app?vid=1e2f115e-489f-4c45-b5ad-3280ad4c66fe"},"vehicle_type_id":"4","last_reported":1737148040,"current_range_meters":22400,"station_id":"ce4bhp92rcd13ifvqhcg","pricing_plan_id":"cebpf4jnsgd1na2vs0mg"},{"bike_id":"b642b38e-729d-46dd-8ce6-c026f8061b41","system_id":"levelo_inurba_marseille","lat":43.24179,"lon":5.39732,"is_reserved":false,"is_disabled":false,"rental_uris":{"android":"levelo://app?vid=b642b38e-729d-46dd-8ce6-c026f8061b41","ios":"levelo://app?vid=b642b38e-729d-46dd-8ce6-c026f8061b41"},"vehicle_type_id":"4","last_reported":1737148040,"current_range_meters":19600,"station_id":"ce4bhn12rcd13ifvqgpg","pricing_plan_id":"cebpf4jnsgd1na2vs0mg"},{"bike_id":"b04ca61e-2600-41f9-8e3f-c52f738618bf","system_id":"levelo_inurba_marseille","lat":43.27978,"lon":5.40033,"is_reserved":false,"is_disabled":false,"rental_uris":{"android":"levelo://app?vid=b04ca61e-2600-41f9-8e3f-c52f738618bf","ios":"levelo://app?vid=b04ca61e-2600-41f9-8e3f-c52f738618bf"},"vehicle_type_id":"4","last_reported":1737148040,"current_range_meters":37600,"station_id":"ce4bho92rcd13ifvqh4g","pricing_plan_id":"cebpf4jnsgd1na2vs0mg"},{"bike_id":"5ed39e30-6df6-4cb7-b9e5-8eddd4f008ab","system_id":"levelo_inurba_marseille","lat":43.3036,"lon":5.39083,"is_reserved":false,"is_disabled":true,"rental_uris":{"android":"levelo://app?vid=5ed39e30-6df6-4cb7-b9e5-8eddd4f008ab","ios":"levelo://app?vid=5ed39e30-6df6-4cb7-b9e5-8eddd4f008ab"},"vehicle_type_id":"4","last_reported":1737148040,"current_range_meters":0,"station_id":"ce4bgkh2rcd13ifvqbk0","pricing_plan_id":"cebpf4jnsgd1na2vs0mg"},{"bike_id":"e27e74b2-2c71-43d5-8029-588d7007cb32","system_id":"levelo_inurba_marseille","lat":43.31687,"lon":5.37768,"is_reserved":false,"is_disabled":false,"rental_uris":{"android":"levelo://app?vid=e27e74b2-2c71-43d5-8029-588d7007cb32","ios":"levelo://app?vid=e27e74b2-2c71-43d5-8029-588d7007cb32"},"vehicle_type_id":"4","last_reported":1737148040,"current_range_meters":36000,"station_id":"ce4bgth2rcd13ifvqch0","pricing_plan_id":"cebpf4jnsgd1na2vs0mg"},{"bike_id":"4b49763f-0299-415d-bdc5-9e878c0c98ca","system_id":"levelo_inurba_marseille","lat":43.27933,"lon":5.4103,"is_reserved":false,"is_disabled":false,"rental_uris":{"android":"levelo://app?vid=4b49763f-0299-415d-bdc5-9e878c0c98ca","ios":"levelo://app?vid=4b49763f-0299-415d-bdc5-9e878c0c98ca"},"vehicle_type_id":"4","last_reported":1737148040,"current_range_meters":22000,"station_id":"ce4bhnp2rcd13ifvqh0g","pricing_plan_id":"cebpf4jnsgd1na2vs0mg"},{"bike_id":"7383474c-b45a-4438-837c-99d7ae866fe7","system_id":"levelo_inurba_marseille","lat":43.260769,"lon":5.393998,"is_reserved":false,"is_disabled":false,"rental_uris":{"android":"levelo://app?vid=7383474c-b45a-4438-837c-99d7ae866fe7","ios":"levelo://app?vid=7383474c-b45a-4438-837c-99d7ae866fe7"},"vehicle_type_id":"4","last_reported":1737148040,"current_range_meters":38800,"station_id":"ce4bhh92rcd13ifvqfj0","pricing_plan_id":"cebpf4jnsgd1na2vs0mg"},{"bike_id":"034a554e-be05-4533-a31e-14664cd37898","system_id":"levelo_inurba_marseille","lat":43.29261,"lon":5.38431,"is_reserved":false,"is_disabled":false,"rental_uris":{"android":"levelo://app?vid=034a554e-be05-4533-a31e-14664cd37898","ios":"levelo://app?vid=034a554e-be05-4533-a31e-14664cd37898"},"vehicle_type_id":"4","last_reported":1737148040,"current_range_meters":32800,"station_id":"ce4bh692rcd13ifvqea0","pricing_plan_id":"cebpf4jnsgd1na2vs0mg"},{"bike_id":"2f247b7b-edd8-45d0-a22d-5f170b0b56ee","system_id":"levelo_inurba_marseille","lat":43.29786,"lon":5.3933,"is_reserved":false,"is_disabled":false,"rental_uris":{"android":"levelo://app?vid=2f247b7b-edd8-45d0-a22d-5f170b0b56ee","ios":"levelo://app?vid=2f247b7b-edd8-45d0-a22d-5f170b0b56ee"},"vehicle_type_id":"4","last_reported":1737148040,"current_range_meters":39200,"station_id":"chh1huq6cuj3fo74tm60","pricing_plan_id":"cebpf4jnsgd1na2vs0mg"},{"bike_id":"e61701f6-8dc6-4476-a302-1abbcf76740c","system_id":"levelo_inurba_marseille","lat":43.30872,"lon":5.39639,"is_reserved":false,"is_disabled":false,"rental_uris":{"android":"levelo://app?vid=e61701f6-8dc6-4476-a302-1abbcf76740c","ios":"levelo://app?vid=e61701f6-8dc6-4476-a302-1abbcf76740c"},"vehicle_type_id":"4","last_reported":1737148040,"current_range_meters":36000,"station_id":"ce4bh012rcd13ifvqcv0","pricing_plan_id":"cebpf4jnsgd1na2vs0mg"},{"bike_id":"1ea3ebab-4936-425d-b5f1-0d13b258896d","system_id":"levelo_inurba_marseille","lat":43.31118,"lon":5.37767,"is_reserved":false,"is_disabled":false,"rental_uris":{"android":"levelo://app?vid=1ea3ebab-4936-425d-b5f1-0d13b258896d","ios":"levelo://app?vid=1ea3ebab-4936-425d-b5f1-0d13b258896d"},"vehicle_type_id":"4","last_reported":1737148040,"current_range_meters":38000,"station_id":"ce4bgt92rcd13ifvqcg0","pricing_plan_id":"cebpf4jnsgd1na2vs0mg"},{"bike_id":"716bc62b-9eed-4ad1-9679-2af961182143","system_id":"levelo_inurba_marseille","lat":43.29248,"lon":5.3843,"is_reserved":false,"is_disabled":false,"rental_uris":{"android":"levelo://app?vid=716bc62b-9eed-4ad1-9679-2af961182143","ios":"levelo://app?vid=716bc62b-9eed-4ad1-9679-2af961182143"},"vehicle_type_id":"4","last_reported":1737148040,"current_range_meters":29600,"station_id":"ce4bh692rcd13ifvqea0","pricing_plan_id":"cebpf4jnsgd1na2vs0mg"},{"bike_id":"b0e028f1-2e58-48ac-baaa-d72f19268535","system_id":"levelo_inurba_marseille","lat":43.29404,"lon":5.3862,"is_reserved":false,"is_disabled":false,"rental_uris":{"android":"levelo://app?vid=b0e028f1-2e58-48ac-baaa-d72f19268535","ios":"levelo://app?vid=b0e028f1-2e58-48ac-baaa-d72f19268535"},"vehicle_type_id":"4","last_reported":1737148040,"current_range_meters":24000,"station_id":"ce4bh2h2rcd13ifvqdh0","pricing_plan_id":"cebpf4jnsgd1na2vs0mg"},{"bike_id":"230bef5b-3f3d-4ae2-901e-7cede6e0c8f2","system_id":"levelo_inurba_marseille","lat":43.30787,"lon":5.37648,"is_reserved":false,"is_disabled":false,"rental_uris":{"android":"levelo://app?vid=230bef5b-3f3d-4ae2-901e-7cede6e0c8f2","ios":"levelo://app?vid=230bef5b-3f3d-4ae2-901e-7cede6e0c8f2"},"vehicle_type_id":"4","last_reported":1737148040,"current_range_meters":22800,"station_id":"ce4bgv92rcd13ifvqcq0","pricing_plan_id":"cebpf4jnsgd1na2vs0mg"},{"bike_id":"ef74c085-e254-493f-8bad-ac87926b563d","system_id":"levelo_inurba_marseille","lat":43.29254,"lon":5.40903,"is_reserved":false,"is_disabled":false,"rental_uris":{"android":"levelo://app?vid=ef74c085-e254-493f-8bad-ac87926b563d","ios":"levelo://app?vid=ef74c085-e254-493f-8bad-ac87926b563d"},"vehicle_type_id":"4","last_reported":1737148040,"current_range_meters":27600,"station_id":"ce4bh192rcd13ifvqdc0","pricing_plan_id":"cebpf4jnsgd1na2vs0mg"},{"bike_id":"a3b707c7-6307-4e5f-a8e6-8113aef1245e","system_id":"levelo_inurba_marseille","lat":43.2841,"lon":5.37516,"is_reserved":false,"is_disabled":false,"rental_uris":{"android":"levelo://app?vid=a3b707c7-6307-4e5f-a8e6-8113aef1245e","ios":"levelo://app?vid=a3b707c7-6307-4e5f-a8e6-8113aef1245e"},"vehicle_type_id":"4","last_reported":1737148040,"current_range_meters":32000,"station_id":"ce4bh412rcd13ifvqds0","pricing_plan_id":"cebpf4jnsgd1na2vs0mg"},{"bike_id":"fe90f7a6-3920-456a-9451-50d213b7000f","system_id":"levelo_inurba_marseille","lat":43.28478,"lon":5.38428,"is_reserved":false,"is_disabled":true,"rental_uris":{"android":"levelo://app?vid=fe90f7a6-3920-456a-9451-50d213b7000f","ios":"levelo://app?vid=fe90f7a6-3920-456a-9451-50d213b7000f"},"vehicle_type_id":"4","last_reported":1737148040,"current_range_meters":800,"station_id":"ce4bh512rcd13ifvqe3g","pricing_plan_id":"cebpf4jnsgd1na2vs0mg"},{"bike_id":"3958b03d-b591-4d79-80a4-059614f22dc2","system_id":"levelo_inurba_marseille","lat":43.29892,"lon":5.43658,"is_reserved":false,"is_disabled":false,"rental_uris":{"android":"levelo://app?vid=3958b03d-b591-4d79-80a4-059614f22dc2","ios":"levelo://app?vid=3958b03d-b591-4d79-80a4-059614f22dc2"},"vehicle_type_id":"4","last_reported":1737148040,"current_range_meters":37600,"station_id":"ce4bhpp2rcd13ifvqhfg","pricing_plan_id":"cebpf4jnsgd1na2vs0mg"},{"bike_id":"cd9fec79-c435-4d19-bb75-115ebf6b704e","system_id":"levelo_inurba_marseille","lat":43.31225,"lon":5.36873,"is_reserved":false,"is_disabled":false,"rental_uris":{"android":"levelo://app?vid=cd9fec79-c435-4d19-bb75-115ebf6b704e","ios":"levelo://app?vid=cd9fec79-c435-4d19-bb75-115ebf6b704e"},"vehicle_type_id":"4","last_reported":1737148040,"current_range_meters":17600,"station_id":"ce4bgl92rcd13ifvqbq0","pricing_plan_id":"cebpf4jnsgd1na2vs0mg"},{"bike_id":"20431184-9899-48c5-a040-5c2eaee2b679","system_id":"levelo_inurba_marseille","lat":43.25721,"lon":5.41109,"is_reserved":false,"is_disabled":false,"rental_uris":{"android":"levelo://app?vid=20431184-9899-48c5-a040-5c2eaee2b679","ios":"levelo://app?vid=20431184-9899-48c5-a040-5c2eaee2b679"},"vehicle_type_id":"4","last_reported":1737148040,"current_range_meters":25600,"station_id":"ce4bhkp2rcd13ifvqgd0","pricing_plan_id":"cebpf4jnsgd1na2vs0mg"},{"bike_id":"ea4340c2-2ade-4230-a7c9-81bd7d971867","system_id":"levelo_inurba_marseille","lat":43.30143,"lon":5.38783,"is_reserved":false,"is_disabled":false,"rental_uris":{"android":"levelo://app?vid=ea4340c2-2ade-4230-a7c9-81bd7d971867","ios":"levelo://app?vid=ea4340c2-2ade-4230-a7c9-81bd7d971867"},"vehicle_type_id":"4","last_reported":1737148040,"current_range_meters":16800,"station_id":"ce4bghh2rcd13ifvqb60","pricing_plan_id":"cebpf4jnsgd1na2vs0mg"},{"bike_id":"7252053a-5c68-45c3-bb6b-f5e7c6b31b2d","system_id":"levelo_inurba_marseille","lat":43.27622,"lon":5.3611,"is_reserved":false,"is_disabled":false,"rental_uris":{"android":"levelo://app?vid=7252053a-5c68-45c3-bb6b-f5e7c6b31b2d","ios":"levelo://app?vid=7252053a-5c68-45c3-bb6b-f5e7c6b31b2d"},"vehicle_type_id":"4","last_reported":1737148040,"current_range_meters":38000,"station_id":"ce4bgj92rcd13ifvqbe0","pricing_plan_id":"cebpf4jnsgd1na2vs0mg"},{"bike_id":"dbc84289-e424-421f-8922-80495ae94fa1","system_id":"levelo_inurba_marseille","lat":43.30595,"lon":5.39348,"is_reserved":false,"is_disabled":true,"rental_uris":{"android":"levelo://app?vid=dbc84289-e424-421f-8922-80495ae94fa1","ios":"levelo://app?vid=dbc84289-e424-421f-8922-80495ae94fa1"},"vehicle_type_id":"4","last_reported":1737148040,"current_range_meters":24800,"station_id":"ce4bh0p2rcd13ifvqd80","pricing_plan_id":"cebpf4jnsgd1na2vs0mg"},{"bike_id":"9b664122-b1e2-4e09-8770-1572593e7f57","system_id":"levelo_inurba_marseille","lat":43.28846,"lon":5.39313,"is_reserved":false,"is_disabled":false,"rental_uris":{"android":"levelo://app?vid=9b664122-b1e2-4e09-8770-1572593e7f57","ios":"levelo://app?vid=9b664122-b1e2-4e09-8770-1572593e7f57"},"vehicle_type_id":"4","last_reported":1737148040,"current_range_meters":38000,"station_id":"ce4bh2p2rcd13ifvqdi0","pricing_plan_id":"cebpf4jnsgd1na2vs0mg"},{"bike_id":"a9a0e60f-8e94-490a-988c-5a9cfc45d626","system_id":"levelo_inurba_marseille","lat":43.241616,"lon":5.363982,"is_reserved":false,"is_disabled":false,"rental_uris":{"android":"levelo://app?vid=a9a0e60f-8e94-490a-988c-5a9cfc45d626","ios":"levelo://app?vid=a9a0e60f-8e94-490a-988c-5a9cfc45d626"},"vehicle_type_id":"4","last_reported":1737148040,"current_range_meters":14400,"station_id":"cpo36qri1sfpv3e86is0","pricing_plan_id":"cebpf4jnsgd1na2vs0mg"},{"bike_id":"4e5f93b7-8400-4205-a09b-10a1aeb3f85e","system_id":"levelo_inurba_marseille","lat":43.28953,"lon":5.36402,"is_reserved":false,"is_disabled":false,"rental_uris":{"android":"levelo://app?vid=4e5f93b7-8400-4205-a09b-10a1aeb3f85e","ios":"levelo://app?vid=4e5f93b7-8400-4205-a09b-10a1aeb3f85e"},"vehicle_type_id":"4","last_reported":1737148040,"current_range_meters":38400,"station_id":"ce4bhc92rcd13ifvqetg","pricing_plan_id":"cebpf4jnsgd1na2vs0mg"},{"bike_id":"729e7978-95fc-46fb-8c44-46b19b977fac","system_id":"levelo_inurba_marseille","lat":43.31227,"lon":5.36853,"is_reserved":false,"is_disabled":false,"rental_uris":{"android":"levelo://app?vid=729e7978-95fc-46fb-8c44-46b19b977fac","ios":"levelo://app?vid=729e7978-95fc-46fb-8c44-46b19b977fac"},"vehicle_type_id":"4","last_reported":1737148040,"current_range_meters":28800,"station_id":"ce4bgl92rcd13ifvqbq0","pricing_plan_id":"cebpf4jnsgd1na2vs0mg"},{"bike_id":"4af58063-c51d-4c74-b7d3-15cb72f58163","system_id":"levelo_inurba_marseille","lat":43.29546,"lon":5.38535,"is_reserved":false,"is_disabled":false,"rental_uris":{"android":"levelo://app?vid=4af58063-c51d-4c74-b7d3-15cb72f58163","ios":"levelo://app?vid=4af58063-c51d-4c74-b7d3-15cb72f58163"},"vehicle_type_id":"4","last_reported":1737148040,"current_range_meters":26800,"station_id":"ce4bgih2rcd13ifvqba0","pricing_plan_id":"cebpf4jnsgd1na2vs0mg"},{"bike_id":"30712aed-64b7-477a-8129-9a5f90e2d90a","system_id":"levelo_inurba_marseille","lat":43.30314,"lon":5.40437,"is_reserved":false,"is_disabled":true,"rental_uris":{"android":"levelo://app?vid=30712aed-64b7-477a-8129-9a5f90e2d90a","ios":"levelo://app?vid=30712aed-64b7-477a-8129-9a5f90e2d90a"},"vehicle_type_id":"4","last_reported":1737148040,"current_range_meters":0,"station_id":"ce4bh012rcd13ifvqd10","pricing_plan_id":"cebpf4jnsgd1na2vs0mg"},{"bike_id":"440330f3-0a4a-4112-aba3-33800d41eae1","system_id":"levelo_inurba_marseille","lat":43.30755,"lon":5.37631,"is_reserved":false,"is_disabled":false,"rental_uris":{"android":"levelo://app?vid=440330f3-0a4a-4112-aba3-33800d41eae1","ios":"levelo://app?vid=440330f3-0a4a-4112-aba3-33800d41eae1"},"vehicle_type_id":"4","last_reported":1737148040,"current_range_meters":0,"station_id":"ce4bgv92rcd13ifvqcq0","pricing_plan_id":"cebpf4jnsgd1na2vs0mg"},{"bike_id":"a2e0e617-68e2-4d50-b8d4-e72c276686bb","system_id":"levelo_inurba_marseille","lat":43.29421,"lon":5.38626,"is_reserved":false,"is_disabled":false,"rental_uris":{"android":"levelo://app?vid=a2e0e617-68e2-4d50-b8d4-e72c276686bb","ios":"levelo://app?vid=a2e0e617-68e2-4d50-b8d4-e72c276686bb"},"vehicle_type_id":"4","last_reported":1737148040,"current_range_meters":9600,"station_id":"ce4bh2h2rcd13ifvqdh0","pricing_plan_id":"cebpf4jnsgd1na2vs0mg"},{"bike_id":"511d6b33-2ef1-43dd-a415-2f3d741eebd1","system_id":"levelo_inurba_marseille","lat":43.279743,"lon":5.387449,"is_reserved":false,"is_disabled":false,"rental_uris":{"android":"levelo://app?vid=511d6b33-2ef1-43dd-a415-2f3d741eebd1","ios":"levelo://app?vid=511d6b33-2ef1-43dd-a415-2f3d741eebd1"},"vehicle_type_id":"4","last_reported":1737148040,"current_range_meters":24000,"station_id":"ce4bhg12rcd13ifvqf80","pricing_plan_id":"cebpf4jnsgd1na2vs0mg"},{"bike_id":"612cc38a-e8fb-46d9-9bcc-9655683e5b91","system_id":"levelo_inurba_marseille","lat":43.289091,"lon":5.362059,"is_reserved":false,"is_disabled":false,"rental_uris":{"android":"levelo://app?vid=612cc38a-e8fb-46d9-9bcc-9655683e5b91","ios":"levelo://app?vid=612cc38a-e8fb-46d9-9bcc-9655683e5b91"},"vehicle_type_id":"4","last_reported":1737148040,"current_range_meters":35600,"station_id":"ce4bhb12rcd13ifvqem0","pricing_plan_id":"cebpf4jnsgd1na2vs0mg"},{"bike_id":"2c27878e-d42e-44dc-b789-949f1ee17504","system_id":"levelo_inurba_marseille","lat":43.33735,"lon":5.39186,"is_reserved":false,"is_disabled":false,"rental_uris":{"android":"levelo://app?vid=2c27878e-d42e-44dc-b789-949f1ee17504","ios":"levelo://app?vid=2c27878e-d42e-44dc-b789-949f1ee17504"},"vehicle_type_id":"4","last_reported":1737148040,"current_range_meters":28800,"station_id":"ce4bhr92rcd13ifvqhsg","pricing_plan_id":"cebpf4jnsgd1na2vs0mg"},{"bike_id":"cba5fd7f-0606-47e0-a505-1cc27fcdea75","system_id":"levelo_inurba_marseille","lat":43.30326,"lon":5.40438,"is_reserved":false,"is_disabled":false,"rental_uris":{"android":"levelo://app?vid=cba5fd7f-0606-47e0-a505-1cc27fcdea75","ios":"levelo://app?vid=cba5fd7f-0606-47e0-a505-1cc27fcdea75"},"vehicle_type_id":"4","last_reported":1737148040,"current_range_meters":24400,"station_id":"ce4bh012rcd13ifvqd10","pricing_plan_id":"cebpf4jnsgd1na2vs0mg"},