{"last_updated":1733080017,"ttl":60,"version":"2.2","data":{"bikes":[{"bike_id":"92b23b60-0174-4ee0-926b-6c47f6ecf19c","system_id":"levelo_inurba_marseille","lat":43.2811,"lon":5.37838,"is_reserved":false,"is_disabled":false,"rental_uris":{"android":"levelo://app?vid=92b23b60-0174-4ee0-926b-6c47f6ecf19c","ios":"levelo://app?vid=92b23b60-0174-4ee0-926b-6c47f6ecf19c"},"vehicle_type_id":"4","last_reported":1733080018,"current_range_meters":14400,"station_id":"ce4bha12rcd13ifvqee0","pricing_plan_id":"cebpf4jnsgd1na2vs0mg"},{"bike_id":"9eb9ee9b-532a-4e66-9337-6742bfb3d802","system_id":"levelo_inurba_marseille","lat":43.27985,"lon":5.41652,"is_reserved":false,"is_disabled":true,"rental_uris":{"android":"levelo://app?vid=9eb9ee9b-532a-4e66-9337-6742bfb3d802","ios":"levelo://app?vid=9eb9ee9b-532a-4e66-9337-6742bfb3d802"},"vehicle_type_id":"4","last_reported":1733080018,"current_range_meters":28800,"station_id":"ce4bho12rcd13ifvqh1g","pricing_plan_id":"cebpf4jnsgd1na2vs0mg"},{"bike_id":"3f08722c-49a5-4c33-9b59-3f62f9134a3d","system_id":"levelo_inurba_marseille","lat":43.30152,"lon":5.38102,"is_reserved":false,"is_disabled":true,"rental_uris":{"android":"levelo://app?vid=3f08722c-49a5-4c33-9b59-3f62f9134a3d","ios":"levelo://app?vid=3f08722c-49a5-4c33-9b59-3f62f9134a3d"},"vehicle_type_id":"4","last_reported":1733080018,"current_range_meters":0,"station_id":"ce4bgjp2rcd13ifvqbh0","pricing_plan_id":"cebpf4jnsgd1na2vs0mg"},{"bike_id":"7ff9ed7d-51d4-4c0b-aef0-61969fefb411","system_id":"levelo_inurba_marseille","lat":43.2418,"lon":5.36415,"is_reserved":false,"is_disabled":false,"rental_uris":{"android":"levelo://app?vid=7ff9ed7d-51d4-4c0b-aef0-61969fefb411","ios":"levelo://app?vid=7ff9ed7d-51d4-4c0b-aef0-61969fefb411"},"vehicle_type_id":"4","last_reported":1733080018,"current_range_meters":24400,"station_id":"cpo36qri1sfpv3e86is0","pricing_plan_id":"cebpf4jnsgd1na2vs0mg"},{"bike_id":"7b296c2e-4b1e-4f35-90e4-7ff369078e5c","system_id":"levelo_inurba_marseille","lat":43.27678,"lon":5.38893,"is_reserved":false,"is_disabled":false,"rental_uris":{"android":"levelo://app?vid=7b296c2e-4b1e-4f35-90e4-7ff369078e5c","ios":"levelo://app?vid=7b296c2e-4b1e-4f35-90e4-7ff369078e5c"},"vehicle_type_id":"4","last_reported":1733080018,"current_range_meters":36400,"station_id":"ce4bhi12rcd13ifvqfo0","pricing_plan_id":"cebpf4jnsgd1na2vs0mg"},{"bike_id":"304c3c23-006c-47a7-be41-53df15bd78fa","system_id":"levelo_inurba_marseille","lat":43.29423,"lon":5.38608,"is_reserved":false,"is_disabled":true,"rental_uris":{"android":"levelo://app?vid=304c3c23-006c-47a7-be41-53df15bd78fa","ios":"levelo://app?vid=304c3c23-006c-47a7-be41-53df15bd78fa"},"vehicle_type_id":"4","last_reported":1733080018,"current_range_meters":27200,"station_id":"ce4bh2h2rcd13ifvqdh0","pricing_plan_id":"cebpf4jnsgd1na2vs0mg"},{"bike_id":"3f3572f8-5522-43a7-8be3-c51500aeef11","system_id":"levelo_inurba_marseille","lat":43.27896,"lon":5.38006,"is_reserved":false,"is_disabled":false,"rental_uris":{"android":"levelo://app?vid=3f3572f8-5522-43a7-8be3-c51500aeef11","ios":"levelo://app?vid=3f3572f8-5522-43a7-8be3-c51500aeef11"},"vehicle_type_id":"4","last_reported":1733080018,"current_range_meters":37600,"station_id":"ce4bhf92rcd13ifvqf50","pricing_plan_id":"cebpf4jnsgd1na2vs0mg"},{"bike_id":"13d578ea-4641-468a-b3e8-68a33d2e687a","system_id":"levelo_inurba_marseille","lat":43.23184,"lon":5.39982,"is_reserved":false,"is_disabled":false,"rental_uris":{"android":"levelo://app?vid=13d578ea-4641-468a-b3e8-68a33d2e687a","ios":"levelo://app?vid=13d578ea-4641-468a-b3e8-68a33d2e687a"},"vehicle_type_id":"4","last_reported":1733080018,"current_range_meters":13600,"station_id":"ce4bhn12rcd13ifvqgqg","pricing_plan_id":"cebpf4jnsgd1na2vs0mg"},{"bike_id":"19f58c32-0660-4b7e-bf69-b1a32634d14e","system_id":"levelo_inurba_marseille","lat":43.26945,"lon":5.40237,"is_reserved":false,"is_disabled":false,"rental_uris":{"android":"levelo://app?vid=19f58c32-0660-4b7e-bf69-b1a32634d14e","ios":"levelo://app?vid=19f58c32-0660-4b7e-bf69-b1a32634d14e"},"vehicle_type_id":"4","last_reported":1733080018,"current_range_meters":33600,"station_id":"cjm6bp8fraef2m0cb0m0","pricing_plan_id":"cebpf4jnsgd1na2vs0mg"},{"bike_id":"6c3702ca-81e8-4155-999e-4c84b14b6a45","system_id":"levelo_inurba_marseille","lat":43.28106,"lon":5.37836,"is_reserved":false,"is_disabled":false,"rental_uris":{"android":"levelo://app?vid=6c3702ca-81e8-4155-999e-4c84b14b6a45","ios":"levelo://app?vid=6c3702ca-81e8-4155-999e-4c84b14b6a45"},"vehicle_type_id":"4","last_reported":1733080018,"current_range_meters":17200,"station_id":"ce4bha12rcd13ifvqee0","pricing_plan_id":"cebpf4jnsgd1na2vs0mg"},{"bike_id":"b65688fa-b1c3-40d7-a238-e0b81dcc7be7","system_id":"levelo_inurba_marseille","lat":43.2318,"lon":5.39981,"is_reserved":false,"is_disabled":false,"rental_uris":{"android":"levelo://app?vid=b65688fa-b1c3-40d7-a238-e0b81dcc7be7","ios":"levelo://app?vid=b65688fa-b1c3-40d7-a238-e0b81dcc7be7"},"vehicle_type_id":"4","last_reported":1733080018,"current_range_meters":36800,"station_id":"ce4bhn12rcd13ifvqgqg","pricing_plan_id":"cebpf4jnsgd1na2vs0mg"},{"bike_id":"34086af6-1b80-4187-b713-36da4e85ff96","system_id":"levelo_inurba_marseille","lat":43.3372,"lon":5.39185,"is_reserved":false,"is_disabled":false,"rental_uris":{"android":"levelo://app?vid=34086af6-1b80-4187-b713-36da4e85ff96","ios":"levelo://app?vid=34086af6-1b80-4187-b713-36da4e85ff96"},"vehicle_type_id":"4","last_reported":1733080018,"current_range_meters":38800,"station_id":"ce4bhr92rcd13ifvqhsg","pricing_plan_id":"cebpf4jnsgd1na2vs0mg"},{"bike_id":"8fd803fc-89d9-487d-806d-e2282c5e6b74","system_id":"levelo_inurba_marseille","lat":43.27563,"lon":5.38413,"is_reserved":false,"is_disabled":false,"rental_uris":{"android":"levelo://app?vid=8fd803fc-89d9-487d-806d-e2282c5e6b74","ios":"levelo://app?vid=8fd803fc-89d9-487d-806d-e2282c5e6b74"},"vehicle_type_id":"4","last_reported":1733080018,"current_range_meters":7200,"station_id":"ce4bhh92rcd13ifvqfi0","pricing_plan_id":"cebpf4jnsgd1na2vs0mg"},{"bike_id":"967e9a74-8d35-43a8-bb3f-b2f2942f3b6d","system_id":"levelo_inurba_marseille","lat":43.30555,"lon":5.36701,"is_reserved":false,"is_disabled":true,"rental_uris":{"android":"levelo://app?vid=967e9a74-8d35-43a8-bb3f-b2f2942f3b6d","ios":"levelo://app?vid=967e9a74-8d35-43a8-bb3f-b2f2942f3b6d"},"vehicle_type_id":"4","last_reported":1733080018,"current_range_meters":32800,"station_id":"ce4bgrp2rcd13ifvqc9g","pricing_plan_id":"cebpf4jnsgd1na2vs0mg"},{"bike_id":"966791e8-cdff-4838-a42b-c9b609a533a7","system_id":"levelo_inurba_marseille","lat":43.27437,"lon":5.40073,"is_reserved":false,"is_disabled":true,"rental_uris":{"android":"levelo://app?vid=966791e8-cdff-4838-a42b-c9b609a533a7","ios":"levelo://app?vid=966791e8-cdff-4838-a42b-c9b609a533a7"},"vehicle_type_id":"4","last_reported":1733080018,"current_range_meters":0,"station_id":"","pricing_plan_id":"cebpf4jnsgd1na2vs0mg"},{"bike_id":"d32ff10b-2254-428c-850c-1555dc2e3a49","system_id":"levelo_inurba_marseille","lat":43.30138,"lon":5.37423,"is_reserved":false,"is_disabled":false,"rental_uris":{"android":"levelo://app?vid=d32ff10b-2254-428c-850c-1555dc2e3a49","ios":"levelo://app?vid=d32ff10b-2254-428c-850c-1555dc2e3a49"},"vehicle_type_id":"4","last_reported":1733080018,"current_range_meters":36400,"station_id":"ce4bgs92rcd13ifvqcc0","pricing_plan_id":"cebpf4jnsgd1na2vs0mg"},{"bike_id":"157a3d81-cf27-4d67-b0f6-ba9e7fc15397","system_id":"levelo_inurba_marseille","lat":43.30199,"lon":5.36615,"is_reserved":false,"is_disabled":true,"rental_uris":{"android":"levelo://app?vid=157a3d81-cf27-4d67-b0f6-ba9e7fc15397","ios":"levelo://app?vid=157a3d81-cf27-4d67-b0f6-ba9e7fc15397"},"vehicle_type_id":"4","last_reported":1733080018,"current_range_meters":8800,"station_id":"ce4bgrh2rcd13ifvqc8g","pricing_plan_id":"cebpf4jnsgd1na2vs0mg"},{"bike_id":"ca74138b-5393-4893-b5a1-6ccdd64dcf78","system_id":"levelo_inurba_marseille","lat":43.2678,"lon":5.39419,"is_reserved":false,"is_disabled":false,"rental_uris":{"android":"levelo://app?vid=ca74138b-5393-4893-b5a1-6ccdd64dcf78","ios":"levelo://app?vid=ca74138b-5393-4893-b5a1-6ccdd64dcf78"},"vehicle_type_id":"4","last_reported":1733080018,"current_range_meters":20000,"station_id":"ce4bhh12rcd13ifvqfg0","pricing_plan_id":"cebpf4jnsgd1na2vs0mg"},{"bike_id":"335d2e68-7f75-4c2c-966c-b05f46ff8f44","system_id":"levelo_inurba_marseille","lat":43.27208,"lon":5.39172,"is_reserved":false,"is_disabled":false,"rental_uris":{"android":"levelo://app?vid=335d2e68-7f75-4c2c-966c-b05f46ff8f44","ios":"levelo://app?vid=335d2e68-7f75-4c2c-966c-b05f46ff8f44"},"vehicle_type_id":"4","last_reported":1733080018,"current_range_meters":22400,"station_id":"ce4bhhp2rcd13ifvqfm0","pricing_plan_id":"cebpf4jnsgd1na2vs0mg"},{"bike_id":"a72bb7e7-e17c-4b79-9623-226fe5b542bf","system_id":"levelo_inurba_marseille","lat":43.2702,"lon":5.3644,"is_reserved":false,"is_disabled":false,"rental_uris":{"android":"levelo://app?vid=a72bb7e7-e17c-4b79-9623-226fe5b542bf","ios":"levelo://app?vid=a72bb7e7-e17c-4b79-9623-226fe5b542bf"},"vehicle_type_id":"4","last_reported":1733080018,"current_range_meters":4000,"station_id":"","pricing_plan_id":"cebpf4jnsgd1na2vs0mg"},{"bike_id":"c8540c9d-7dc3-44fa-a0f8-7263d3d70bb8","system_id":"levelo_inurba_marseille","lat":43.24647,"lon":5.38888,"is_reserved":false,"is_disabled":true,"rental_uris":{"android":"levelo://app?vid=c8540c9d-7dc3-44fa-a0f8-7263d3d70bb8","ios":"levelo://app?vid=c8540c9d-7dc3-44fa-a0f8-7263d3d70bb8"},"vehicle_type_id":"4","last_reported":1733080018,"current_range_meters":0,"station_id":"ce4bhg12rcd13ifvqf60","pricing_plan_id":"cebpf4jnsgd1na2vs0mg"},{"bike_id":"34553e4f-2bbe-4e94-8740-7b5a4682f76a","system_id":"levelo_inurba_marseille","lat":43.31114,"lon":5.37771,"is_reserved":false,"is_disabled":true,"rental_uris":{"android":"levelo://app?vid=34553e4f-2bbe-4e94-8740-7b5a4682f76a","ios":"levelo://app?vid=34553e4f-2bbe-4e94-8740-7b5a4682f76a"},"vehicle_type_id":"4","last_reported":1733080018,"current_range_meters":34000,"station_id":"ce4bgt92rcd13ifvqcg0","pricing_plan_id":"cebpf4jnsgd1na2vs0mg"},{"bike_id":"87a177cf-8a72-43d2-ad9b-470961f3e5dc","system_id":"levelo_inurba_marseille","lat":43.29997,"lon":5.37637,"is_reserved":false,"is_disabled":true,"rental_uris":{"android":"levelo://app?vid=87a177cf-8a72-43d2-ad9b-470961f3e5dc","ios":"levelo://app?vid=87a177cf-8a72-43d2-ad9b-470961f3e5dc"},"vehicle_type_id":"4","last_reported":1733080018,"current_range_meters":0,"station_id":"","pricing_plan_id":"cebpf4jnsgd1na2vs0mg"},{"bike_id":"ffc3eeb6-6bf5-4a72-99c1-23a99957f6b4","system_id":"levelo_inurba_marseille","lat":43.23181,"lon":5.39977,"is_reserved":false,"is_disabled":false,"rental_uris":{"android":"levelo://app?vid=ffc3eeb6-6bf5-4a72-99c1-23a99957f6b4","ios":"levelo://app?vid=ffc3eeb6-6bf5-4a72-99c1-23a99957f6b4"},"vehicle_type_id":"4","last_reported":1733080018,"current_range_meters":38800,"station_id":"ce4bhn12rcd13ifvqgqg","pricing_plan_id":"cebpf4jnsgd1na2vs0mg"},{"bike_id":"1f0719d9-481b-4e50-bc00-96a331258c20","system_id":"levelo_inurba_marseille","lat":43.27677,"lon":5.38896,"is_reserved":false,"is_disabled":false,"rental_uris":{"android":"levelo://app?vid=1f0719d9-481b-4e50-bc00-96a331258c20","ios":"levelo://app?vid=1f0719d9-481b-4e50-bc00-96a331258c20"},"vehicle_type_id":"4","last_reported":1733080018,"current_range_meters":14800,"station_id":"ce4bhi12rcd13ifvqfo0","pricing_plan_id":"cebpf4jnsgd1na2vs0mg"},{"bike_id":"b0bd4cdf-7308-45f0-8e99-a0d5811907ff","system_id":"levelo_inurba_marseille","lat":43.25446,"lon":5.38136,"is_reserved":false,"is_disabled":true,"rental_uris":{"android":"levelo://app?vid=b0bd4cdf-7308-45f0-8e99-a0d5811907ff","ios":"levelo://app?vid=b0bd4cdf-7308-45f0-8e99-a0d5811907ff"},"vehicle_type_id":"4","last_reported":1733080018,"current_range_meters":0,"station_id":"","pricing_plan_id":"cebpf4jnsgd1na2vs0mg"},{"bike_id":"13341a5c-709a-42b3-984a-1db82542f4c6","system_id":"levelo_inurba_marseille","lat":43.29904,"lon":5.40328,"is_reserved":false,"is_disabled":true,"rental_uris":{"android":"levelo://app?vid=13341a5c-709a-42b3-984a-1db82542f4c6","ios":"levelo://app?vid=13341a5c-709a-42b3-984a-1db82542f4c6"},"vehicle_type_id":"4","last_reported":1733080018,"current_range_meters":0,"station_id":"","pricing_plan_id":"cebpf4jnsgd1na2vs0mg"},{"bike_id":"8bcd172f-5475-4607-a4e7-44d7749b12a1","system_id":"levelo_inurba_marseille","lat":43.33722,"lon":5.39194,"is_reserved":false,"is_disabled":true,"rental_uris":{"android":"levelo://app?vid=8bcd172f-5475-4607-a4e7-44d7749b12a1","ios":"levelo://app?vid=8bcd172f-5475-4607-a4e7-44d7749b12a1"},"vehicle_type_id":"4","last_reported":1733080018,"current_range_meters":2800,"station_id":"ce4bhr92rcd13ifvqhsg","pricing_plan_id":"cebpf4jnsgd1na2vs0mg"},{"bike_id":"f2cc114c-6c9b-4393-884b-2ddc57f96b7d","system_id":"levelo_inurba_marseille","lat":43.27063,"lon":5.42274,"is_reserved":false,"is_disabled":false,"rental_uris":{"android":"levelo://app?vid=f2cc114c-6c9b-4393-884b-2ddc57f96b7d","ios":"levelo://app?vid=f2cc114c-6c9b-4393-884b-2ddc57f96b7d"},"vehicle_type_id":"4","last_reported":1733080018,"current_range_meters":26800,"station_id":"ce4bhk92rcd13ifvqgb0","pricing_plan_id":"cebpf4jnsgd1na2vs0mg"},{"bike_id":"6174999a-ede4-4333-92b7-f5cb44bee7f2","system_id":"levelo_inurba_marseille","lat":43.301149,"lon":5.398693,"is_reserved":false,"is_disabled":false,"rental_uris":{"android":"levelo://app?vid=6174999a-ede4-4333-92b7-f5cb44bee7f2","ios":"levelo://app?vid=6174999a-ede4-4333-92b7-f5cb44bee7f2"},"vehicle_type_id":"4","last_reported":1733080018,"current_range_meters":16000,"station_id":"ce4bh0h2rcd13ifvqd40","pricing_plan_id":"cebpf4jnsgd1na2vs0mg"},{"bike_id":"c5d5b72b-b599-4e68-96b9-aa6af1e698a1","system_id":"levelo_inurba_marseille","lat":43.27211,"lon":5.39179,"is_reserved":false,"is_disabled":false,"rental_uris":{"android":"levelo://app?vid=c5d5b72b-b599-4e68-96b9-aa6af1e698a1","ios":"levelo://app?vid=c5d5b72b-b599-4e68-96b9-aa6af1e698a1"},"vehicle_type_id":"4","last_reported":1733080018,"current_range_meters":8800,"station_id":"ce4bhhp2rcd13ifvqfm0","pricing_plan_id":"cebpf4jnsgd1na2vs0mg"},{"bike_id":"6f7949e1-de87-4a49-8620-fec27e04447f","system_id":"levelo_inurba_marseille","lat":43.3371,"lon":5.39184,"is_reserved":false,"is_disabled":false,"rental_uris":{"android":"levelo://app?vid=6f7949e1-de87-4a49-8620-fec27e04447f","ios":"levelo://app?vid=6f7949e1-de87-4a49-8620-fec27e04447f"},"vehicle_type_id":"4","last_reported":1733080018,"current_range_meters":22800,"station_id":"ce4bhr92rcd13ifvqhsg","pricing_plan_id":"cebpf4jnsgd1na2vs0mg"},{"bike_id":"7c1520fb-1cfb-4079-b606-6291e64dc0d2","system_id":"levelo_inurba_marseille","lat":43.31328,"lon":5.39681,"is_reserved":false,"is_disabled":false,"rental_uris":{"android":"levelo://app?vid=7c1520fb-1cfb-4079-b606-6291e64dc0d2","ios":"levelo://app?vid=7c1520fb-1cfb-4079-b606-6291e64dc0d2"},"vehicle_type_id":"4","last_reported":1733080018,"current_range_meters":30400,"station_id":"ce4bgvp2rcd13ifvqcu0","pricing_plan_id":"cebpf4jnsgd1na2vs0mg"},{"bike_id":"7066298c-8444-4dbb-8e5a-afa45f0890f5","system_id":"levelo_inurba_marseille","lat":43.28852,"lon":5.39333,"is_reserved":false,"is_disabled":true,"rental_uris":{"android":"levelo://app?vid=7066298c-8444-4dbb-8e5a-afa45f0890f5","ios":"levelo://app?vid=7066298c-8444-4dbb-8e5a-afa45f0890f5"},"vehicle_type_id":"4","last_reported":1733080018,"current_range_meters":7200,"station_id":"ce4bh2p2rcd13ifvqdi0","pricing_plan_id":"cebpf4jnsgd1na2vs0mg"},{"bike_id":"79da6e11-068f-4f85-891a-bf5d6033ae1b","system_id":"levelo_inurba_marseille","lat":43.29195,"lon":5.39314,"is_reserved":false,"is_disabled":true,"rental_uris":{"android":"levelo://app?vid=79da6e11-068f-4f85-891a-bf5d6033ae1b","ios":"levelo://app?vid=79da6e11-068f-4f85-891a-bf5d6033ae1b"},"vehicle_type_id":"4","last_reported":1733080018,"current_range_meters":17200,"station_id":"ce4bh192rcd13ifvqdd0","pricing_plan_id":"cebpf4jnsgd1na2vs0mg"},{"bike_id":"679ed358-2bae-4010-906b-15d28e44b9a5","system_id":"levelo_inurba_marseille","lat":43.26956,"lon":5.38628,"is_reserved":false,"is_disabled":false,"rental_uris":{"android":"levelo://app?vid=679ed358-2bae-4010-906b-15d28e44b9a5","ios":"levelo://app?vid=679ed358-2bae-4010-906b-15d28e44b9a5"},"vehicle_type_id":"4","last_reported":1733080018,"current_range_meters":30400,"station_id":"ce4bhh92rcd13ifvqfh0","pricing_plan_id":"cebpf4jnsgd1na2vs0mg"},{"bike_id":"105f0d97-1a11-40e6-972d-0ffced858d5a","system_id":"levelo_inurba_marseille","lat":43.30206,"lon":5.3946,"is_reserved":false,"is_disabled":false,"rental_uris":{"android":"levelo://app?vid=105f0d97-1a11-40e6-972d-0ffced858d5a","ios":"levelo://app?vid=105f0d97-1a11-40e6-972d-0ffced858d5a"},"vehicle_type_id":"4","last_reported":1733080018,"current_range_meters":17200,"station_id":"ce4bh0p2rcd13ifvqd70","pricing_plan_id":"cebpf4jnsgd1na2vs0mg"},{"bike_id":"92051607-4e3b-4669-afe6-4a074d7fb31a","system_id":"levelo_inurba_marseille","lat":43.2743,"lon":5.39416,"is_reserved":false,"is_disabled":false,"rental_uris":{"android":"levelo://app?vid=92051607-4e3b-4669-afe6-4a074d7fb31a","ios":"levelo://app?vid=92051607-4e3b-4669-afe6-4a074d7fb31a"},"vehicle_type_id":"4","last_reported":1733080018,"current_range_meters":6400,"station_id":"ce4bhdp2rcd13ifvqf20","pricing_plan_id":"cebpf4jnsgd1na2vs0mg"},{"bike_id":"f2ac386e-3a7f-41d7-9f44-700ba8eae160","system_id":"levelo_inurba_marseille","lat":43.29188,"lon":5.39317,"is_reserved":false,"is_disabled":false,"rental_uris":{"android":"levelo://app?vid=f2ac386e-3a7f-41d7-9f44-700ba8eae160","ios":"levelo://app?vid=f2ac386e-3a7f-41d7-9f44-700ba8eae160"},"vehicle_type_id":"4","last_reported":1733080018,"current_range_meters":2800,"station_id":"ce4bh192rcd13ifvqdd0","pricing_plan_id":"cebpf4jnsgd1na2vs0mg"},{"bike_id":"3257c53f-0ad3-47e0-b3ca-bdb5d91f6187","system_id":"levelo_inurba_marseille","lat":43.28029,"lon":5.36927,"is_reserved":false,"is_disabled":false,"rental_uris":{"android":"levelo://app?vid=3257c53f-0ad3-47e0-b3ca-bdb5d91f6187","ios":"levelo://app?vid=3257c53f-0ad3-47e0-b3ca-bdb5d91f6187"},"vehicle_type_id":"4","last_reported":1733080018,"current_range_meters":38800,"station_id":"ce4bha12rcd13ifvqef0","pricing_plan_id":"cebpf4jnsgd1na2vs0mg"},{"bike_id":"a3d6644a-0ffc-44af-b85b-65efc97f59c2","system_id":"levelo_inurba_marseille","lat":43.26199,"lon":5.37923,"is_reserved":false,"is_disabled":true,"rental_uris":{"android":"levelo://app?vid=a3d6644a-0ffc-44af-b85b-65efc97f59c2","ios":"levelo://app?vid=a3d6644a-0ffc-44af-b85b-65efc97f59c2"},"vehicle_type_id":"4","last_reported":1733080018,"current_range_meters":28800,"station_id":"ce4bhjp2rcd13ifvqg90","pricing_plan_id":"cebpf4jnsgd1na2vs0mg"},{"bike_id":"9a7378f4-92f9-49d0-b022-af56b3cf4eae","system_id":"levelo_inurba_marseille","lat":43.3059,"lon":5.39355,"is_reserved":false,"is_disabled":false,"rental_uris":{"android":"levelo://app?vid=9a7378f4-92f9-49d0-b022-af56b3cf4eae","ios":"levelo://app?vid=9a7378f4-92f9-49d0-b022-af56b3cf4eae"},"vehicle_type_id":"4","last_reported":1733080018,"current_range_meters":16800,"station_id":"ce4bh0p2rcd13ifvqd80","pricing_plan_id":"cebpf4jnsgd1na2vs0mg"},{"bike_id":"6e3b8a2a-f251-48e5-a4ed-680655302057","system_id":"levelo_inurba_marseille","lat":43.32331,"lon":5.40617,"is_reserved":false,"is_disabled":false,"rental_uris":{"android":"levelo://app?vid=6e3b8a2a-f251-48e5-a4ed-680655302057","ios":"levelo://app?vid=6e3b8a2a-f251-48e5-a4ed-680655302057"},"vehicle_type_id":"4","last_reported":1733080018,"current_range_meters":17200,"station_id":"ce4bhq92rcd13ifvqhjg","pricing_plan_id":"cebpf4jnsgd1na2vs0mg"},{"bike_id":"e35854c4-c960-4648-b7cc-315641a1073f","system_id":"levelo_inurba_marseille","lat":43.28995,"lon":5.35601,"is_reserved":false,"is_disabled":false,"rental_uris":{"android":"levelo://app?vid=e35854c4-c960-4648-b7cc-315641a1073f","ios":"levelo://app?vid=e35854c4-c960-4648-b7cc-315641a1073f"},"vehicle_type_id":"4","last_reported":1733080018,"current_range_meters":35200,"station_id":"ce4bhb92rcd13ifvqen0","pricing_plan_id":"cebpf4jnsgd1na2vs0mg"},{"bike_id":"14927043-9b54-4675-a300-7b25226e2366","system_id":"levelo_inurba_marseille","lat":43.27428,"lon":5.3941,"is_reserved":false,"is_disabled":false,"rental_uris":{"android":"levelo://app?vid=14927043-9b54-4675-a300-7b25226e2366","ios":"levelo://app?vid=14927043-9b54-4675-a300-7b25226e2366"},"vehicle_type_id":"4","last_reported":1733080018,"current_range_meters":7200,"station_id":"ce4bhdp2rcd13ifvqf20","pricing_plan_id":"cebpf4jnsgd1na2vs0mg"},{"bike_id":"0f6ed509-95d7-437e-80f7-905b4028dd6c","system_id":"levelo_inurba_marseille","lat":43.30326,"lon":5.40425,"is_reserved":false,"is_disabled":false,"rental_uris":{"android":"levelo://app?vid=0f6ed509-95d7-437e-80f7-905b4028dd6c","ios":"levelo://app?vid=0f6ed509-95d7-437e-80f7-905b4028dd6c"},"vehicle_type_id":"4","last_reported":1733080018,"current_range_meters":19200,"station_id":"ce4bh012rcd13ifvqd10","pricing_plan_id":"cebpf4jnsgd1na2vs0mg"},{"bike_id":"7ed2229e-6e77-42d8-826e-e15ec9f33077","system_id":"levelo_inurba_marseille","lat":43.26685,"lon":5.38272,"is_reserved":false,"is_disabled":true,"rental_uris":{"android":"levelo://app?vid=7ed2229e-6e77-42d8-826e-e15ec9f33077","ios":"levelo://app?vid=7ed2229e-6e77-42d8-826e-e15ec9f33077"},"vehicle_type_id":"4","last_reported":1733080018,"current_range_meters":16000,"station_id":"ce4bhg92rcd13ifvqf90","pricing_plan_id":"cebpf4jnsgd1na2vs0mg"},{"bike_id":"8fdf0680-166b-4766-a655-d02e84d131fa","system_id":"levelo_inurba_marseille","lat":43.30946,"lon":5.39019,"is_reserved":false,"is_disabled":true,"rental_uris":{"android":"levelo://app?vid=8fdf0680-166b-4766-a655-d02e84d131fa","ios":"levelo://app?vid=8fdf0680-166b-4766-a655-d02e84d131fa"},"vehicle_type_id":"4","last_reported":1733080018,"current_range_meters":38800,"station_id":"ce4bgup2rcd13ifvqco0","pricing_plan_id":"cebpf4jnsgd1na2vs0mg"},{"bike_id":"fbfc981e-0fc2-4465-ab2f-e76133d7be8c","system_id":"levelo_inurba_marseille","lat":43.32291,"lon":5.38266,"is_reserved":false,"is_disabled":false,"rental_uris":{"android":"levelo://app?vid=fbfc981e-0fc2-4465-ab2f-e76133d7be8c","ios":"levelo://app?vid=fbfc981e-0fc2-4465-ab2f-e76133d7be8c"},"vehicle_type_id":"4","last_reported":1733080018,"current_range_meters":23200,"station_id":"ce4bhr12rcd13ifvqhqg","pricing_plan_id":"cebpf4jnsgd1na2vs0mg"},{"bike_id":"64cbfd6a-4a4e-4d37-982c-18402a201eee","system_id":"levelo_inurba_marseille","lat":43.28644,"lon":5.36343,"is_reserved":false,"is_disabled":true,"rental_uris":{"android":"levelo://app?vid=64cbfd6a-4a4e-4d37-982c-18402a201eee","ios":"levelo://app?vid=64cbfd6a-4a4e-4d37-982c-18402a201eee"},"vehicle_type_id":"4","last_reported":1733080018,"current_range_meters":16000,"station_id":"ce4bhah2rcd13ifvqej0","pricing_plan_id":"cebpf4jnsgd1na2vs0mg"},{"bike_id":"5ddfa011-d975-41ac-ab06-32125b62100c","system_id":"levelo_inurba_marseille","lat":43.28411,"lon":5.37521,"is_reserved":false,"is_disabled":false,"rental_uris":{"android":"levelo://app?vid=5ddfa011-d975-41ac-ab06-32125b62100c","ios":"levelo://app?vid=5ddfa011-d975-41ac-ab06-32125b62100c"},"vehicle_type_id":"4","last_reported":1733080018,"current_range_meters":32800,"station_id":"ce4bh412rcd13ifvqds0","pricing_plan_id":"cebpf4jnsgd1na2vs0mg"},{"bike_id":"f2750506-42e0-4743-ad89-aa9cdfa56e35","system_id":"levelo_inurba_marseille","lat":43.26945,"lon":5.40248,"is_reserved":false,"is_disabled":false,"rental_uris":{"android":"levelo://app?vid=f2750506-42e0-4743-ad89-aa9cdfa56e35","ios":"levelo://app?vid=f2750506-42e0-4743-ad89-aa9cdfa56e35"},"vehicle_type_id":"4","last_reported":1733080018,"current_range_meters":2800,"station_id":"cjm6bp8fraef2m0cb0m0","pricing_plan_id":"cebpf4jnsgd1na2vs0mg"},{"bike_id":"f792d34c-1c6d-47c1-a35b-7fabd691333d","system_id":"levelo_inurba_marseille","lat":43.33722,"lon":5.39179,"is_reserved":false,"is_disabled":false,"rental_uris":{"android":"levelo://app?vid=f792d34c-1c6d-47c1-a35b-7fabd691333d","ios":"levelo://app?vid=f792d34c-1c6d-47c1-a35b-7fabd691333d"},"vehicle_type_id":"4","last_reported":1733080018,"current_range_meters":27200,"station_id":"ce4bhr92rcd13ifvqhsg","pricing_plan_id":"cebpf4jnsgd1na2vs0mg"},{"bike_id":"209c0815-1137-465b-b0d6-13fcf1b7a485","system_id":"levelo_inurba_marseille","lat":43.29541,"lon":5.42278,"is_reserved":false,"is_disabled":false,"rental_uris":{"android":"levelo://app?vid=209c0815-1137-465b-b0d6-13fcf1b7a485","ios":"levelo://app?vid=209c0815-1137-465b-b0d6-13fcf1b7a485"},"vehicle_type_id":"4","last_reported":1733080018,"current_range_meters":39200,"station_id":"ce4bhph2rcd13ifvqhdg","pricing_plan_id":"cebpf4jnsgd1na2vs0mg"},{"bike_id":"cec810a1-eadd-4ae0-9ee9-5d5d35b89936","system_id":"levelo_inurba_marseille","lat":43.26933,"lon":5.40259,"is_reserved":false,"is_disabled":false,"rental_uris":{"android":"levelo://app?vid=cec810a1-eadd-4ae0-9ee9-5d5d35b89936","ios":"levelo://app?vid=cec810a1-eadd-4ae0-9ee9-5d5d35b89936"},"vehicle_type_id":"4","last_reported":1733080018,"current_range_meters":32000,"station_id":"cjm6bp8fraef2m0cb0m0","pricing_plan_id":"cebpf4jnsgd1na2vs0mg"},{"bike_id":"6a350093-01f8-470d-9254-14ab0d2adad7","system_id":"levelo_inurba_marseille","lat":43.31218,"lon":5.36855,"is_reserved":false,"is_disabled":false,"rental_uris":{"android":"levelo://app?vid=6a350093-01f8-470d-9254-14ab0d2adad7","ios":"levelo://app?vid=6a350093-01f8-470d-9254-14ab0d2adad7"},"vehicle_type_id":"4","last_reported":1733080018,"current_range_meters":3600,"station_id":"ce4bgl92rcd13ifvqbq0","pricing_plan_id":"cebpf4jnsgd1na2vs0mg"},{"bike_id":"9ec630db-a423-41b9-8ab6-9996503a1a94","system_id":"levelo_inurba_marseille","lat":43.31327,"lon":5.39688,"is_reserved":false,"is_disabled":false,"rental_uris":{"android":"levelo://app?vid=9ec630db-a423-41b9-8ab6-9996503a1a94","ios":"levelo://app?vid=9ec630db-a423-41b9-8ab6-9996503a1a94"},"vehicle_type_id":"4","last_reported":1733080018,"current_range_meters":7200,"station_id":"ce4bgvp2rcd13ifvqcu0","pricing_plan_id":"cebpf4jnsgd1na2vs0mg"},{"bike_id":"4712f637-3dc8-4c14-9921-27158339f678","system_id":"levelo_inurba_marseille","lat":43.26934,"lon":5.40254,"is_reserved":false,"is_disabled":false,"rental_uris":{"android":"levelo://app?vid=4712f637-3dc8-4c14-9921-27158339f678","ios":"levelo://app?vid=4712f637-3dc8-4c14-9921-27158339f678"},"vehicle_type_id":"4","last_reported":1733080018,"current_range_meters":9600,"station_id":"cjm6bp8fraef2m0cb0m0","pricing_plan_id":"cebpf4jnsgd1na2vs0mg"},{"bike_id":"67fa2a9e-eed8-4ed6-bdd8-7d1023a52b4e","system_id":"levelo_inurba_marseille","lat":43.2693,"lon":5.38926,"is_reserved":false,"is_disabled":true,"rental_uris":{"android":"levelo://app?vid=67fa2a9e-eed8-4ed6-bdd8-7d1023a52b4e","ios":"levelo://app?vid=67fa2a9e-eed8-4ed6-bdd8-7d1023a52b4e"},"vehicle_type_id":"4","last_reported":1733080018,"current_range_meters":4400,"station_id":"ce4bhhh2rcd13ifvqfl0","pricing_plan_id":"cebpf4jnsgd1na2vs0mg"},{"bike_id":"c8537d05-a067-41ab-8139-dc89a2af92b1","system_id":"levelo_inurba_marseille","lat":43.31891,"lon":5.40731,"is_reserved":false,"is_disabled":false,"rental_uris":{"android":"levelo://app?vid=c8537d05-a067-41ab-8139-dc89a2af92b1","ios":"levelo://app?vid=c8537d05-a067-41ab-8139-dc89a2af92b1"},"vehicle_type_id":"4","last_reported":1733080018,"current_range_meters":14400,"station_id":"ce4bhq12rcd13ifvqhig","pricing_plan_id":"cebpf4jnsgd1na2vs0mg"},{"bike_id":"d7935a4e-3fa9-4259-9e60-39bc0ad852e1","system_id":"levelo_inurba_marseille","lat":43.29543,"lon":5.42279,"is_reserved":false,"is_disabled":false,"rental_uris":{"android":"levelo://app?vid=d7935a4e-3fa9-4259-9e60-39bc0ad852e1","ios":"levelo://app?vid=d7935a4e-3fa9-4259-9e60-39bc0ad852e1"},"vehicle_type_id":"4","last_reported":1733080018,"current_range_meters":38800,"station_id":"ce4bhph2rcd13ifvqhdg","pricing_plan_id":"cebpf4jnsgd1na2vs0mg"},{"bike_id":"3dc57342-a70a-4f92-ae52-6d8d5fa8ec86","system_id":"levelo_inurba_marseille","lat":43.28621,"lon":5.35108,"is_reserved":false,"is_disabled":true,"rental_uris":{"android":"levelo://app?vid=3dc57342-a70a-4f92-ae52-6d8d5fa8ec86","ios":"levelo://app?vid=3dc57342-a70a-4f92-ae52-6d8d5fa8ec86"},"vehicle_type_id":"4","last_reported":1733080018,"current_range_meters":0,"station_id":"ce4bhch2rcd13ifvqeug","pricing_plan_id":"cebpf4jnsgd1na2vs0mg"},{"bike_id":"db1d77a9-ccf3-42bf-bd5d-14e2ef7c58ec","system_id":"levelo_inurba_marseille","lat":43.30594,"lon":5.39362,"is_reserved":false,"is_disabled":false,"rental_uris":{"android":"levelo://app?vid=db1d77a9-ccf3-42bf-bd5d-14e2ef7c58ec","ios":"levelo://app?vid=db1d77a9-ccf3-42bf-bd5d-14e2ef7c58ec"},"vehicle_type_id":"4","last_reported":1733080018,"current_range_meters":22800,"station_id":"ce4bh0p2rcd13ifvqd80","pricing_plan_id":"cebpf4jnsgd1na2vs0mg"},{"bike_id":"9351f7f3-6667-4a7e-947c-47087698e629","system_id":"levelo_inurba_marseille","lat":43.25581,"lon":5.38239,"is_reserved":false,"is_disabled":false,"rental_uris":{"android":"levelo://app?vid=9351f7f3-6667-4a7e-947c-47087698e629","ios":"levelo://app?vid=9351f7f3-6667-4a7e-947c-47087698e629"},"vehicle_type_id":"4","last_reported":1733080018,"current_range_meters":16400,"station_id":"ce4bhih2rcd13ifvqfs0","pricing_plan_id":"cebpf4jnsgd1na2vs0mg"},{"bike_id":"fee40e4a-edf0-429c-9838-5fd8b4a4fd95","system_id":"levelo_inurba_marseille","lat":43.29739,"lon":5.3741,"is_reserved":false,"is_disabled":true,"rental_uris":{"android":"levelo://app?vid=fee40e4a-edf0-429c-9838-5fd8b4a4fd95","ios":"levelo://app?vid=fee40e4a-edf0-429c-9838-5fd8b4a4fd95"},"vehicle_type_id":"4","last_reported":1733080018,"current_range_meters":0,"station_id":"","pricing_plan_id":"cebpf4jnsgd1na2vs0mg"},{"bike_id":"720d9b5d-b809-439d-a66b-f5aa58596639","system_id":"levelo_inurba_marseille","lat":43.30887,"lon":5.39653,"is_reserved":false,"is_disabled":false,"rental_uris":{"android":"levelo://app?vid=720d9b5d-b809-439d-a66b-f5aa58596639","ios":"levelo://app?vid=720d9b5d-b809-439d-a66b-f5aa58596639"},"vehicle_type_id":"4","last_reported":1733080018,"current_range_meters":6800,"station_id":"ce4bh012rcd13ifvqcv0","pricing_plan_id":"cebpf4jnsgd1na2vs0mg"},{"bike_id":"27d2226b-ab61-456c-9b4c-0b212aa6c0e7","system_id":"levelo_inurba_marseille","lat":43.29276,"lon":5.40118,"is_reserved":false,"is_disabled":false,"rental_uris":{"android":"levelo://app?vid=27d2226b-ab61-456c-9b4c-0b212aa6c0e7","ios":"levelo://app?vid=27d2226b-ab61-456c-9b4c-0b212aa6c0e7"},"vehicle_type_id":"4","last_reported":1733080018,"current_range_meters":27600,"station_id":"ce4bh312rcd13ifvqdk0","pricing_plan_id":"cebpf4jnsgd1na2vs0mg"},{"bike_id":"19c7cbb6-18d8-48fb-aa32-51a98a22c4c1","system_id":"levelo_inurba_marseille","lat":43.29968,"lon":5.38489,"is_reserved":false,"is_disabled":false,"rental_uris":{"android":"levelo://app?vid=19c7cbb6-18d8-48fb-aa32-51a98a22c4c1","ios":"levelo://app?vid=19c7cbb6-18d8-48fb-aa32-51a98a22c4c1"},"vehicle_type_id":"4","last_reported":1733080018,"current_range_meters":23200,"station_id":"ce4bgj92rcd13ifvqbd0","pricing_plan_id":"cebpf4jnsgd1na2vs0mg"},{"bike_id":"4dc21ef1-cda4-4e17-829d-fa108bdde67e","system_id":"levelo_inurba_marseille","lat":43.28463,"lon":5.35873,"is_reserved":false,"is_disabled":false,"rental_uris":{"android":"levelo://app?vid=4dc21ef1-cda4-4e17-829d-fa108bdde67e","ios":"levelo://app?vid=4dc21ef1-cda4-4e17-829d-fa108bdde67e"},"vehicle_type_id":"4","last_reported":1733080018,"current_range_meters":30400,"station_id":"ce4bhah2rcd13ifvqei0","pricing_plan_id":"cebpf4jnsgd1na2vs0mg"},{"bike_id":"45c95cf3-1aa9-4af9-a9a3-7dba50ecc20e","system_id":"levelo_inurba_marseille","lat":43.27437,"lon":5.40729,"is_reserved":false,"is_disabled":false,"rental_uris":{"android":"levelo://app?vid=45c95cf3-1aa9-4af9-a9a3-7dba50ecc20e","ios":"levelo://app?vid=45c95cf3-1aa9-4af9-a9a3-7dba50ecc20e"},"vehicle_type_id":"4","last_reported":1733080018,"current_range_meters":18000,"station_id":"","pricing_plan_id":"cebpf4jnsgd1na2vs0mg"},{"bike_id":"bc749360-3ce4-4dd6-a0ac-83aa82c323a7","system_id":"levelo_inurba_marseille","lat":43.28154,"lon":5.42642,"is_reserved":false,"is_disabled":true,"rental_uris":{"android":"levelo://app?vid=bc749360-3ce4-4dd6-a0ac-83aa82c323a7","ios":"levelo://app?vid=bc749360-3ce4-4dd6-a0ac-83aa82c323a7"},"vehicle_type_id":"4","last_reported":1733080018,"current_range_meters":28400,"station_id":"ce4bhnh2rcd13ifvqgug","pricing_plan_id":"cebpf4jnsgd1na2vs0mg"},{"bike_id":"d635c6d8-8721-495b-b397-f896ac826100","system_id":"levelo_inurba_marseille","lat":43.30457,"lon":5.37906,"is_reserved":false,"is_disabled":false,"rental_uris":{"android":"levelo://app?vid=d635c6d8-8721-495b-b397-f896ac826100","ios":"levelo://app?vid=d635c6d8-8721-495b-b397-f896ac826100"},"vehicle_type_id":"4","last_reported":1733080018,"current_range_meters":16400,"station_id":"ce4bgup2rcd13ifvqcn0","pricing_plan_id":"cebpf4jnsgd1na2vs0mg"},{"bike_id":"6e1e9050-f346-4a6d-ab6d-9652872d972d","system_id":"levelo_inurba_marseille","lat":43.27204,"lon":5.39181,"is_reserved":false,"is_disabled":false,"rental_uris":{"android":"levelo://app?vid=6e1e9050-f346-4a6d-ab6d-9652872d972d","ios":"levelo://app?vid=6e1e9050-f346-4a6d-ab6d-9652872d972d"},"vehicle_type_id":"4","last_reported":1733080018,"current_range_meters":22800,"station_id":"ce4bhhp2rcd13ifvqfm0","pricing_plan_id":"cebpf4jnsgd1na2vs0mg"},{"bike_id":"4d4c884f-6933-49c0-8899-f9856d90f44d","system_id":"levelo_inurba_marseille","lat":43.29748,"lon":5.37971,"is_reserved":false,"is_disabled":true,"rental_uris":{"android":"levelo://app?vid=4d4c884f-6933-49c0-8899-f9856d90f44d","ios":"levelo://app?vid=4d4c884f-6933-49c0-8899-f9856d90f44d"},"vehicle_type_id":"4","last_reported":1733080018,"current_range_meters":0,"station_id":"","pricing_plan_id":"cebpf4jnsgd1na2vs0mg"},{"bike_id":"49383f8c-5e0c-4bb5-aa2b-e1c81f4536f3","system_id":"levelo_inurba_marseille","lat":43.32294,"lon":5.38261,"is_reserved":false,"is_disabled":false,"rental_uris":{"android":"levelo://app?vid=49383f8c-5e0c-4bb5-aa2b-e1c81f4536f3","ios":"levelo://app?vid=49383f8c-5e0c-4bb5-aa2b-e1c81f4536f3"},"vehicle_type_id":"4","last_reported":1733080018,"current_range_meters":24400,"station_id":"ce4bhr12rcd13ifvqhqg","pricing_plan_id":"cebpf4jnsgd1na2vs0mg"},{"bike_id":"3b276b27-10ba-4f08-bcb2-2f1cc6d76c7d","system_id":"levelo_inurba_marseille","lat":43.29789,"lon":5.38098,"is_reserved":false,"is_disabled":false,"rental_uris":{"android":"levelo://app?vid=3b276b27-10ba-4f08-bcb2-2f1cc6d76c7d","ios":"levelo://app?vid=3b276b27-10ba-4f08-bcb2-2f1cc6d76c7d"},"vehicle_type_id":"4","last_reported":1733080018,"current_range_meters":28000,"station_id":"ce4bgip2rcd13ifvqbb0","pricing_plan_id":"cebpf4jnsgd1na2vs0mg"},{"bike_id":"362acf97-9e8f-4c3e-8574-4958ae2ff74f","system_id":"levelo_inurba_marseille","lat":43.26184,"lon":5.42061,"is_reserved":false,"is_disabled":false,"rental_uris":{"android":"levelo://app?vid=362acf97-9e8f-4c3e-8574-4958ae2ff74f","ios":"levelo://app?vid=362acf97-9e8f-4c3e-8574-4958ae2ff74f"},"vehicle_type_id":"4","last_reported":1733080018,"current_range_meters":27200,"station_id":"","pricing_plan_id":"cebpf4jnsgd1na2vs0mg"},{"bike_id":"f070b46f-f295-4869-946e-332934d2e60a","system_id":"levelo_inurba_marseille","lat":43.22922,"lon":5.3537,"is_reserved":false,"is_disabled":false,"rental_uris":{"android":"levelo://app?vid=f070b46f-f295-4869-946e-332934d2e60a","ios":"levelo://app?vid=f070b46f-f295-4869-946e-332934d2e60a"},"vehicle_type_id":"4","last_reported":1733080018,"current_range_meters":38800,"station_id":"cpo3532slgdg3j2ikp40","pricing_plan_id":"cebpf4jnsgd1na2vs0mg"},{"bike_id":"16f59a99-77e7-4e3c-9067-fc4db2c8c9af","system_id":"levelo_inurba_marseille","lat":43.26941,"lon":5.40249,"is_reserved":false,"is_disabled":false,"rental_uris":{"android":"levelo://app?vid=16f59a99-77e7-4e3c-9067-fc4db2c8c9af","ios":"levelo://app?vid=16f59a99-77e7-4e3c-9067-fc4db2c8c9af"},"vehicle_type_id":"4","last_reported":1733080018,"current_range_meters":38800,"station_id":"cjm6bp8fraef2m0cb0m0","pricing_plan_id":"cebpf4jnsgd1na2vs0mg"},{"bike_id":"a07990ad-0189-4919-9641-1e4cd7fe1776","system_id":"levelo_inurba_marseille","lat":43.30558,"lon":5.36709,"is_reserved":false,"is_disabled":false,"rental_uris":{"android":"levelo://app?vid=a07990ad-0189-4919-9641-1e4cd7fe1776","ios":"levelo://app?vid=a07990ad-0189-4919-9641-1e4cd7fe1776"},"vehicle_type_id":"4","last_reported":1733080018,"current_range_meters":38800,"station_id":"ce4bgrp2rcd13ifvqc9g","pricing_plan_id":"cebpf4jnsgd1na2vs0mg"},{"bike_id":"b7b33697-14a7-4110-9b8b-4194e6ef5f3f","system_id":"levelo_inurba_marseille","lat":43.27283,"lon":5.39194,"is_reserved":false,"is_disabled":true,"rental_uris":{"android":"levelo://app?vid=b7b33697-14a7-4110-9b8b-4194e6ef5f3f","ios":"levelo://app?vid=b7b33697-14a7-4110-9b8b-4194e6ef5f3f"},"vehicle_type_id":"4","last_reported":1733080018,"current_range_meters":0,"station_id":"","pricing_plan_id":"cebpf4jnsgd1na2vs0mg"},{"bike_id":"e5968250-d70c-40cf-ad4d-9802480d9d1b","system_id":"levelo_inurba_marseille","lat":43.27215,"lon":5.39189,"is_reserved":false,"is_disabled":false,"rental_uris":{"android":"levelo://app?vid=e5968250-d70c-40cf-ad4d-9802480d9d1b","ios":"levelo://app?vid=e5968250-d70c-40cf-ad4d-9802480d9d1b"},"vehicle_type_id":"4","last_reported":1733080018,"current_range_meters":28800,"station_id":"ce4bhhp2rcd13ifvqfm0","pricing_plan_id":"cebpf4jnsgd1na2vs0mg"},{"bike_id":"ac49fba4-30df-4893-b052-7d9d76fd86a2","system_id":"levelo_inurba_marseille","lat":43.2926,"lon":5.38429,"is_reserved":false,"is_disabled":true,"rental_uris":{"android":"levelo://app?vid=ac49fba4-30df-4893-b052-7d9d76fd86a2","ios":"levelo://app?vid=ac49fba4-30df-4893-b052-7d9d76fd86a2"},"vehicle_type_id":"4","last_reported":1733080018,"current_range_meters":10000,"station_id":"ce4bh692rcd13ifvqea0","pricing_plan_id":"cebpf4jnsgd1na2vs0mg"},{"bike_id":"e56a37c8-7f3f-4715-92ec-c7eb723438d4","system_id":"levelo_inurba_marseille","lat":43.3122,"lon":5.36855,"is_reserved":false,"is_disabled":false,"rental_uris":{"android":"levelo://app?vid=e56a37c8-7f3f-4715-92ec-c7eb723438d4","ios":"levelo://app?vid=e56a37c8-7f3f-4715-92ec-c7eb723438d4"},"vehicle_type_id":"4","last_reported":1733080018,"current_range_meters":38800,"station_id":"ce4bgl92rcd13ifvqbq0","pricing_plan_id":"cebpf4jnsgd1na2vs0mg"},{"bike_id":"a3d540a5-c9e8-4c92-9399-ec0baac57a71","system_id":"levelo_inurba_marseille","lat":43.29537,"lon":5.38547,"is_reserved":false,"is_disabled":true,"rental_uris":{"android":"levelo://app?vid=a3d540a5-c9e8-4c92-9399-ec0baac57a71","ios":"levelo://app?vid=a3d540a5-c9e8-4c92-9399-ec0baac57a71"},"vehicle_type_id":"4","last_reported":1733080018,"current_range_meters":32000,"station_id":"ce4bgih2rcd13ifvqba0","pricing_plan_id":"cebpf4jnsgd1na2vs0mg"},{"bike_id":"2578c898-454b-4870-95e3-3e53ed8ad570","system_id":"levelo_inurba_marseille","lat":43.26944,"lon":5.40241,"is_reserved":false,"is_disabled":false,"rental_uris":{"android":"levelo://app?vid=2578c898-454b-4870-95e3-3e53ed8ad570","ios":"levelo://app?vid=2578c898-454b-4870-95e3-3e53ed8ad570"},"vehicle_type_id":"4","last_reported":1733080018,"current_range_meters":16800,"station_id":"cjm6bp8fraef2m0cb0m0","pricing_plan_id":"cebpf4jnsgd1na2vs0mg"},{"bike_id":"c70bed4a-03c3-4d48-9d9d-f10e1949ee20","system_id":"levelo_inurba_marseille","lat":43.24999,"lon":5.38923,"is_reserved":false,"is_disabled":false,"rental_uris":{"android":"levelo://app?vid=c70bed4a-03c3-4d48-9d9d-f10e1949ee20","ios":"levelo://app?vid=c70bed4a-03c3-4d48-9d9d-f10e1949ee20"},"vehicle_type_id":"4","last_reported":1733080018,"current_range_meters":39200,"station_id":"ce4bhgp2rcd13ifvqfd0","pricing_plan_id":"cebpf4jnsgd1na2vs0mg"},{"bike_id":"3abdb507-aca9-41cf-ab5c-c13fb795c3a0","system_id":"levelo_inurba_marseille","lat":43.28417,"lon":5.34983,"is_reserved":false,"is_disabled":true,"rental_uris":{"android":"levelo://app?vid=3abdb507-aca9-41cf-ab5c-c13fb795c3a0","ios":"levelo://app?vid=3abdb507-aca9-41cf-ab5c-c13fb795c3a0"},"vehicle_type_id":"4","last_reported":1733080018,"current_range_meters":0,"station_id":"ce4bhbh2rcd13ifvqepg","pricing_plan_id":"cebpf4jnsgd1na2vs0mg"},{"bike_id":"a72ecdf9-e81e-49e5-a2a0-c9b7396b6442","system_id":"levelo_inurba_marseille","lat":43.31757,"lon":5.39011,"is_reserved":false,"is_disabled":false,"rental_uris":{"android":"levelo://app?vid=a72ecdf9-e81e-49e5-a2a0-c9b7396b6442","ios":"levelo://app?vid=a72ecdf9-e81e-49e5-a2a0-c9b7396b6442"},"vehicle_type_id":"4","last_reported":1733080018,"current_range_meters":38800,"station_id":"ce4bhqp2rcd13ifvqhng","pricing_plan_id":"cebpf4jnsgd1na2vs0mg"},{"bike_id":"fb2674c4-493a-4927-84ab-3be626644e42","system_id":"levelo_inurba_marseille","lat":43.31884,"lon":5.40726,"is_reserved":false,"is_disabled":false,"rental_uris":{"android":"levelo://app?vid=fb2674c4-493a-4927-84ab-3be626644e42","ios":"levelo://app?vid=fb2674c4-493a-4927-84ab-3be626644e42"},"vehicle_type_id":"4","last_reported":1733080018,"current_range_meters":17200,"station_id":"ce4bhq12rcd13ifvqhig","pricing_plan_id":"cebpf4jnsgd1na2vs0mg"},{"bike_id":"b746acb9-362e-49dd-86b1-5b00c0fb0dd6","system_id":"levelo_inurba_marseille","lat":43.26801,"lon":5.40266,"is_reserved":false,"is_disabled":false,"rental_uris":{"android":"levelo://app?vid=b746acb9-362e-49dd-86b1-5b00c0fb0dd6","ios":"levelo://app?vid=b746acb9-362e-49dd-86b1-5b00c0fb0dd6"},"vehicle_type_id":"4","last_reported":1733080018,"current_range_meters":32000,"station_id":"ce501612rcd8frsf0b60","pricing_plan_id":"cebpf4jnsgd1na2vs0mg"},{"bike_id":"3e7b4b23-6031-4448-8da9-17647584ad72","system_id":"levelo_inurba_marseille","lat":43.29063,"lon":5.37158,"is_reserved":false,"is_disabled":true,"rental_uris":{"android":"levelo://app?vid=3e7b4b23-6031-4448-8da9-17647584ad72","ios":"levelo://app?vid=3e7b4b23-6031-4448-8da9-17647584ad72"},"vehicle_type_id":"4","last_reported":1733080018,"current_range_meters":30800,"station_id":"ce4bh5p2rcd13ifvqe4g","pricing_plan_id":"cebpf4jnsgd1na2vs0mg"},{"bike_id":"d828ff61-60d7-4c52-b183-b5d40f4556c1","system_id":"levelo_inurba_marseille","lat":43.29268,"lon":5.38447,"is_reserved":false,"is_disabled":false,"rental_uris":{"android":"levelo://app?vid=d828ff61-60d7-4c52-b183-b5d40f4556c1","ios":"levelo://app?vid=d828ff61-60d7-4c52-b183-b5d40f4556c1"},"vehicle_type_id":"4","last_reported":1733080018,"current_range_meters":13600,"station_id":"ce4bh692rcd13ifvqea0","pricing_plan_id":"cebpf4jnsgd1na2vs0mg"},{"bike_id":"314d1365-c0f9-4b36-8299-e279909a774d","system_id":"levelo_inurba_marseille","lat":43.31214,"lon":5.36859,"is_reserved":false,"is_disabled":true,"rental_uris":{"android":"levelo://app?vid=314d1365-c0f9-4b36-8299-e279909a774d","ios":"levelo://app?vid=314d1365-c0f9-4b36-8299-e279909a774d"},"vehicle_type_id":"4","last_reported":1733080018,"current_range_meters":0,"station_id":"ce4bgl92rcd13ifvqbq0","pricing_plan_id":"cebpf4jnsgd1na2vs0mg"},{"bike_id":"c9f5601d-7c1f-4bae-8886-07ae71c732ef","system_id":"levelo_inurba_marseille","lat":43.29169,"lon":5.37159,"is_reserved":false,"is_disabled":false,"rental_uris":{"android":"levelo://app?vid=c9f5601d-7c1f-4bae-8886-07ae71c732ef","ios":"levelo://app?vid=c9f5601d-7c1f-4bae-8886-07ae71c732ef"},"vehicle_type_id":"4","last_reported":1733080018,"current_range_meters":15200,"station_id":"ce4bha92rcd13ifvqeh0","pricing_plan_id":"cebpf4jnsgd1na2vs0mg"},{"bike_id":"a0d8c5dc-0261-4057-8633-570358d88be8","system_id":"levelo_inurba_marseille","lat":43.24801,"lon":5.37447,"is_reserved":false,"is_disabled":true,"rental_uris":{"android":"levelo://app?vid=a0d8c5dc-0261-4057-8633-570358d88be8","ios":"levelo://app?vid=a0d8c5dc-0261-4057-8633-570358d88be8"},"vehicle_type_id":"4","last_reported":1733080018,"current_range_meters":9200,"station_id":"ce4bhgh2rcd13ifvqfb0","pricing_plan_id":"cebpf4jnsgd1na2vs0mg"},{"bike_id":"8e126d5e-9202-4d02-9b96-07562eaa0d7f","system_id":"levelo_inurba_marseille","lat":43.33717,"lon":5.39184,"is_reserved":false,"is_disabled":false,"rental_uris":{"android":"levelo://app?vid=8e126d5e-9202-4d02-9b96-07562eaa0d7f","ios":"levelo://app?vid=8e126d5e-9202-4d02-9b96-07562eaa0d7f"},"vehicle_type_id":"4","last_reported":1733080018,"current_range_meters":24000,"station_id":"ce4bhr92rcd13ifvqhsg","pricing_plan_id":"cebpf4jnsgd1na2vs0mg"},{"bike_id":"4d8dbfde-779e-4ecc-bf1a-6c74a3c5f447","system_id":"levelo_inurba_marseille","lat":43.27434,"lon":5.39406,"is_reserved":false,"is_disabled":false,"rental_uris":{"android":"levelo://app?vid=4d8dbfde-779e-4ecc-bf1a-6c74a3c5f447","ios":"levelo://app?vid=4d8dbfde-779e-4ecc-bf1a-6c74a3c5f447"},"vehicle_type_id":"4","last_reported":1733080018,"current_range_meters":8400,"station_id":"ce4bhdp2rcd13ifvqf20","pricing_plan_id":"cebpf4jnsgd1na2vs0mg"},{"bike_id":"ab7ffb71-283c-4af3-a6fe-40b875c7c5fa","system_id":"levelo_inurba_marseille","lat":43.24545,"lon":5.39521,"is_reserved":false,"is_disabled":false,"rental_uris":{"android":"levelo://app?vid=ab7ffb71-283c-4af3-a6fe-40b875c7c5fa","ios":"levelo://app?vid=ab7ffb71-283c-4af3-a6fe-40b875c7c5fa"},"vehicle_type_id":"4","last_reported":1733080018,"current_range_meters":36800,"station_id":"ce4bhlp2rcd13ifvqgjg","pricing_plan_id":"cebpf4jnsgd1na2vs0mg"},{"bike_id":"6c44c25a-16ef-4515-9483-d0b30eae20b7","system_id":"levelo_inurba_marseille","lat":43.28421,"lon":5.34993,"is_reserved":false,"is_disabled":false,"rental_uris":{"android":"levelo://app?vid=6c44c25a-16ef-4515-9483-d0b30eae20b7","ios":"levelo://app?vid=6c44c25a-16ef-4515-9483-d0b30eae20b7"},"vehicle_type_id":"4","last_reported":1733080018,"current_range_meters":38000,"station_id":"ce4bhbh2rcd13ifvqepg","pricing_plan_id":"cebpf4jnsgd1na2vs0mg"},{"bike_id":"064861a6-5a15-4e22-bc40-26ea165590ab","system_id":"levelo_inurba_marseille","lat":43.291977,"lon":5.393165,"is_reserved":false,"is_disabled":true,"rental_uris":{"android":"levelo://app?vid=064861a6-5a15-4e22-bc40-26ea165590ab","ios":"levelo://app?vid=064861a6-5a15-4e22-bc40-26ea165590ab"},"vehicle_type_id":"4","last_reported":1733080018,"current_range_meters":23200,"station_id":"ce4bh192rcd13ifvqdd0","pricing_plan_id":"cebpf4jnsgd1na2vs0mg"},{"bike_id":"83187be1-7efa-435e-ae9b-74201cb4dec3","system_id":"levelo_inurba_marseille","lat":43.26684,"lon":5.3827,"is_reserved":false,"is_disabled":true,"rental_uris":{"android":"levelo://app?vid=83187be1-7efa-435e-ae9b-74201cb4dec3","ios":"levelo://app?vid=83187be1-7efa-435e-ae9b-74201cb4dec3"},"vehicle_type_id":"4","last_reported":1733080018,"current_range_meters":36800,"station_id":"ce4bhg92rcd13ifvqf90","pricing_plan_id":"cebpf4jnsgd1na2vs0mg"},{"bike_id":"c111e9fb-60e5-4181-8897-e7b4a184b8b9","system_id":"levelo_inurba_marseille","lat":43.31891,"lon":5.40726,"is_reserved":false,"is_disabled":false,"rental_uris":{"android":"levelo://app?vid=c111e9fb-60e5-4181-8897-e7b4a184b8b9","ios":"levelo://app?vid=c111e9fb-60e5-4181-8897-e7b4a184b8b9"},"vehicle_type_id":"4","last_reported":1733080018,"current_range_meters":9200,"station_id":"ce4bhq12rcd13ifvqhig","pricing_plan_id":"cebpf4jnsgd1na2vs0mg"},{"bike_id":"e8fa7be1-2407-41a7-b843-e7c70f1917ef","system_id":"levelo_inurba_marseille","lat":43.27611,"lon":5.36109,"is_reserved":false,"is_disabled":true,"rental_uris":{"android":"levelo://app?vid=e8fa7be1-2407-41a7-b843-e7c70f1917ef","ios":"levelo://app?vid=e8fa7be1-2407-41a7-b843-e7c70f1917ef"},"vehicle_type_id":"4","last_reported":1733080018,"current_range_meters":0,"station_id":"ce4bgj92rcd13ifvqbe0","pricing_plan_id":"cebpf4jnsgd1na2vs0mg"},{"bike_id":"ca0f3340-1eae-4ed7-87f9-a5f1428acd78","system_id":"levelo_inurba_marseille","lat":43.2318,"lon":5.3999,"is_reserved":false,"is_disabled":false,"rental_uris":{"android":"levelo://app?vid=ca0f3340-1eae-4ed7-87f9-a5f1428acd78","ios":"levelo://app?vid=ca0f3340-1eae-4ed7-87f9-a5f1428acd78"},"vehicle_type_id":"4","last_reported":1733080018,"current_range_meters":8800,"station_id":"ce4bhn12rcd13ifvqgqg","pricing_plan_id":"cebpf4jnsgd1na2vs0mg"},{"bike_id":"8ee21c41-8eeb-48ef-897f-a59e59335c83","system_id":"levelo_inurba_marseille","lat":43.25827,"lon":5.39428,"is_reserved":false,"is_disabled":false,"rental_uris":{"android":"levelo://app?vid=8ee21c41-8eeb-48ef-897f-a59e59335c83","ios":"levelo://app?vid=8ee21c41-8eeb-48ef-897f-a59e59335c83"},"vehicle_type_id":"4","last_reported":1733080018,"current_range_meters":29600,"station_id":"ce4bhip2rcd13ifvqft0","pricing_plan_id":"cebpf4jnsgd1na2vs0mg"},{"bike_id":"17a954bd-2cd5-470d-83a1-74e68c25205f","system_id":"levelo_inurba_marseille","lat":43.27987,"lon":5.41654,"is_reserved":false,"is_disabled":true,"rental_uris":{"android":"levelo://app?vid=17a954bd-2cd5-470d-83a1-74e68c25205f","ios":"levelo://app?vid=17a954bd-2cd5-470d-83a1-74e68c25205f"},"vehicle_type_id":"4","last_reported":1733080018,"current_range_meters":18000,"station_id":"ce4bho12rcd13ifvqh1g","pricing_plan_id":"cebpf4jnsgd1na2vs0mg"},{"bike_id":"eee412f0-c1b7-45b4-97c2-72f8719dd5c6","system_id":"levelo_inurba_marseille","lat":43.27209,"lon":5.39178,"is_reserved":false,"is_disabled":false,"rental_uris":{"android":"levelo://app?vid=eee412f0-c1b7-45b4-97c2-72f8719dd5c6","ios":"levelo://app?vid=eee412f0-c1b7-45b4-97c2-72f8719dd5c6"},"vehicle_type_id":"4","last_reported":1733080018,"current_range_meters":38000,"station_id":"ce4bhhp2rcd13ifvqfm0","pricing_plan_id":"cebpf4jnsgd1na2vs0mg"},{"bike_id":"6aa662e9-a3fe-478a-81d3-3aaf5a7ded6d","system_id":"levelo_inurba_marseille","lat":43.27806,"lon":5.40698,"is_reserved":false,"is_disabled":false,"rental_uris":{"android":"levelo://app?vid=6aa662e9-a3fe-478a-81d3-3aaf5a7ded6d","ios":"levelo://app?vid=6aa662e9-a3fe-478a-81d3-3aaf5a7ded6d"},"vehicle_type_id":"4","last_reported":1733080018,"current_range_meters":25600,"station_id":"ce4bhnh2rcd13ifvqgtg","pricing_plan_id":"cebpf4jnsgd1na2vs0mg"},{"bike_id":"84ad5031-7b79-49cb-ba0b-3d6826538579","system_id":"levelo_inurba_marseille","lat":43.2743,"lon":5.39411,"is_reserved":false,"is_disabled":false,"rental_uris":{"android":"levelo://app?vid=84ad5031-7b79-49cb-ba0b-3d6826538579","ios":"levelo://app?vid=84ad5031-7b79-49cb-ba0b-3d6826538579"},"vehicle_type_id":"4","last_reported":1733080018,"current_range_meters":28000,"station_id":"ce4bhdp2rcd13ifvqf20","pricing_plan_id":"cebpf4jnsgd1na2vs0mg"},{"bike_id":"9909786b-e74f-46b5-bda2-63dd6bab9377","system_id":"levelo_inurba_marseille","lat":43.26512,"lon":5.39535,"is_reserved":false,"is_disabled":false,"rental_uris":{"android":"levelo://app?vid=9909786b-e74f-46b5-bda2-63dd6bab9377","ios":"levelo://app?vid=9909786b-e74f-46b5-bda2-63dd6bab9377"},"vehicle_type_id":"4","last_reported":1733080018,"current_range_meters":38800,"station_id":"ce4bhi12rcd13ifvqfq0","pricing_plan_id":"cebpf4jnsgd1na2vs0mg"},{"bike_id":"80b6d034-8223-40cf-b12e-29d4af42a320","system_id":"levelo_inurba_marseille","lat":43.29596,"lon":5.38108,"is_reserved":false,"is_disabled":false,"rental_uris":{"android":"levelo://app?vid=80b6d034-8223-40cf-b12e-29d4af42a320","ios":"levelo://app?vid=80b6d034-8223-40cf-b12e-29d4af42a320"},"vehicle_type_id":"4","last_reported":1733080018,"current_range_meters":10000,"station_id":"ce4bgl12rcd13ifvqbo0","pricing_plan_id":"cebpf4jnsgd1na2vs0mg"},{"bike_id":"45a07048-4fad-4ad3-b577-660d769e9680","system_id":"levelo_inurba_marseille","lat":43.29776,"lon":5.37098,"is_reserved":false,"is_disabled":false,"rental_uris":{"android":"levelo://app?vid=45a07048-4fad-4ad3-b577-660d769e9680","ios":"levelo://app?vid=45a07048-4fad-4ad3-b577-660d769e9680"},"vehicle_type_id":"4","last_reported":1733080018,"current_range_meters":38000,"station_id":"ce4bgop2rcd13ifvqc1g","pricing_plan_id":"cebpf4jnsgd1na2vs0mg"},{"bike_id":"620b99bd-3359-4cdd-8841-2daff616a76c","system_id":"levelo_inurba_marseille","lat":43.29525,"lon":5.38533,"is_reserved":false,"is_disabled":false,"rental_uris":{"android":"levelo://app?vid=620b99bd-3359-4cdd-8841-2daff616a76c","ios":"levelo://app?vid=620b99bd-3359-4cdd-8841-2daff616a76c"},"vehicle_type_id":"4","last_reported":1733080018,"current_range_meters":38800,"station_id":"ce4bgih2rcd13ifvqba0","pricing_plan_id":"cebpf4jnsgd1na2vs0mg"},{"bike_id":"4c80fd7c-3cb9-4c60-8bef-80602aa3c087","system_id":"levelo_inurba_marseille","lat":43.27205,"lon":5.39183,"is_reserved":false,"is_disabled":false,"rental_uris":{"android":"levelo://app?vid=4c80fd7c-3cb9-4c60-8bef-80602aa3c087","ios":"levelo://app?vid=4c80fd7c-3cb9-4c60-8bef-80602aa3c087"},"vehicle_type_id":"4","last_reported":1733080018,"current_range_meters":12000,"station_id":"ce4bhhp2rcd13ifvqfm0","pricing_plan_id":"cebpf4jnsgd1na2vs0mg"},{"bike_id":"98f2c181-3e82-4ed1-9997-2423c7c1b6ed","system_id":"levelo_inurba_marseille","lat":43.27974,"lon":5.38731,"is_reserved":false,"is_disabled":false,"rental_uris":{"android":"levelo://app?vid=98f2c181-3e82-4ed1-9997-2423c7c1b6ed","ios":"levelo://app?vid=98f2c181-3e82-4ed1-9997-2423c7c1b6ed"},"vehicle_type_id":"4","last_reported":1733080018,"current_range_meters":35600,"station_id":"ce4bhg12rcd13ifvqf80","pricing_plan_id":"cebpf4jnsgd1na2vs0mg"},{"bike_id":"af12a5f9-720e-4019-987d-3779fe2b91a2","system_id":"levelo_inurba_marseille","lat":43.30823,"lon":5.37389,"is_reserved":false,"is_disabled":true,"rental_uris":{"android":"levelo://app?vid=af12a5f9-720e-4019-987d-3779fe2b91a2","ios":"levelo://app?vid=af12a5f9-720e-4019-987d-3779fe2b91a2"},"vehicle_type_id":"4","last_reported":1733080018,"current_range_meters":0,"station_id":"","pricing_plan_id":"cebpf4jnsgd1na2vs0mg"},{"bike_id":"59ef04f5-1cf8-4d1e-9688-51140c94c707","system_id":"levelo_inurba_marseille","lat":43.29556,"lon":5.42283,"is_reserved":false,"is_disabled":false,"rental_uris":{"android":"levelo://app?vid=59ef04f5-1cf8-4d1e-9688-51140c94c707","ios":"levelo://app?vid=59ef04f5-1cf8-4d1e-9688-51140c94c707"},"vehicle_type_id":"4","last_reported":1733080018,"current_range_meters":20400,"station_id":"ce4bhph2rcd13ifvqhdg","pricing_plan_id":"cebpf4jnsgd1na2vs0mg"},{"bike_id":"8746fc95-c2b6-4996-881b-5ee2916c2188","system_id":"levelo_inurba_marseille","lat":43.30589,"lon":5.39361,"is_reserved":false,"is_disabled":false,"rental_uris":{"android":"levelo://app?vid=8746fc95-c2b6-4996-881b-5ee2916c2188","ios":"levelo://app?vid=8746fc95-c2b6-4996-881b-5ee2916c2188"},"vehicle_type_id":"4","last_reported":1733080018,"current_range_meters":38000,"station_id":"ce4bh0p2rcd13ifvqd80","pricing_plan_id":"cebpf4jnsgd1na2vs0mg"},{"bike_id":"b190b8f2-aa96-4cbf-8654-8be8cebaab3c","system_id":"levelo_inurba_marseille","lat":43.31224,"lon":5.36851,"is_reserved":false,"is_disabled":false,"rental_uris":{"android":"levelo://app?vid=b190b8f2-aa96-4cbf-8654-8be8cebaab3c","ios":"levelo://app?vid=b190b8f2-aa96-4cbf-8654-8be8cebaab3c"},"vehicle_type_id":"4","last_reported":1733080018,"current_range_meters":35200,"station_id":"ce4bgl92rcd13ifvqbq0","pricing_plan_id":"cebpf4jnsgd1na2vs0mg"},{"bike_id":"22f49356-60a7-45e3-90bd-7ed007b266cc","system_id":"levelo_inurba_marseille","lat":43.26937,"lon":5.40258,"is_reserved":false,"is_disabled":false,"rental_uris":{"android":"levelo://app?vid=22f49356-60a7-45e3-90bd-7ed007b266cc","ios":"levelo://app?vid=22f49356-60a7-45e3-90bd-7ed007b266cc"},"vehicle_type_id":"4","last_reported":1733080018,"current_range_meters":39200,"station_id":"cjm6bp8fraef2m0cb0m0","pricing_plan_id":"cebpf4jnsgd1na2vs0mg"},{"bike_id":"d15814a2-573f-4c78-8275-4faa7c761a8d","system_id":"levelo_inurba_marseille","lat":43.2874,"lon":5.36093,"is_reserved":false,"is_disabled":false,"rental_uris":{"android":"levelo://app?vid=d15814a2-573f-4c78-8275-4faa7c761a8d","ios":"levelo://app?vid=d15814a2-573f-4c78-8275-4faa7c761a8d"},"vehicle_type_id":"4","last_reported":1733080018,"current_range_meters":38800,"station_id":"cki0cbj6b192h4jlfktg","pricing_plan_id":"cebpf4jnsgd1na2vs0mg"},{"bike_id":"e8aaf989-f7c7-4f92-9039-2cedc59abe88","system_id":"levelo_inurba_marseille","lat":43.25388,"lon":5.41855,"is_reserved":false,"is_disabled":false,"rental_uris":{"android":"levelo://app?vid=e8aaf989-f7c7-4f92-9039-2cedc59abe88","ios":"levelo://app?vid=e8aaf989-f7c7-4f92-9039-2cedc59abe88"},"vehicle_type_id":"4","last_reported":1733080018,"current_range_meters":28000,"station_id":"","pricing_plan_id":"cebpf4jnsgd1na2vs0mg"},{"bike_id":"5c9df86b-ed64-454a-96cc-3199a3c90a7b","system_id":"levelo_inurba_marseille","lat":43.26555,"lon":5.37282,"is_reserved":false,"is_disabled":true,"rental_uris":{"android":"levelo://app?vid=5c9df86b-ed64-454a-96cc-3199a3c90a7b","ios":"levelo://app?vid=5c9df86b-ed64-454a-96cc-3199a3c90a7b"},"vehicle_type_id":"4","last_reported":1733080018,"current_range_meters":800,"station_id":"ce4bhg12rcd13ifvqf70","pricing_plan_id":"cebpf4jnsgd1na2vs0mg"},{"bike_id":"4a2be555-d056-454c-bed3-fe781ba86f8e","system_id":"levelo_inurba_marseille","lat":43.25886,"lon":5.39954,"is_reserved":false,"is_disabled":true,"rental_uris":{"android":"levelo://app?vid=4a2be555-d056-454c-bed3-fe781ba86f8e","ios":"levelo://app?vid=4a2be555-d056-454c-bed3-fe781ba86f8e"},"vehicle_type_id":"4","last_reported":1733080018,"current_range_meters":0,"station_id":"","pricing_plan_id":"cebpf4jnsgd1na2vs0mg"},{"bike_id":"b59c7139-9be9-4822-af54-08a98df83c29","system_id":"levelo_inurba_marseille","lat":43.27421,"lon":5.39405,"is_reserved":false,"is_disabled":false,"rental_uris":{"android":"levelo://app?vid=b59c7139-9be9-4822-af54-08a98df83c29","ios":"levelo://app?vid=b59c7139-9be9-4822-af54-08a98df83c29"},"vehicle_type_id":"4","last_reported":1733080018,"current_range_meters":36400,"station_id":"ce4bhdp2rcd13ifvqf20","pricing_plan_id":"cebpf4jnsgd1na2vs0mg"},{"bike_id":"e72f72c7-28ee-4a00-ac95-3095ed74405a","system_id":"levelo_inurba_marseille","lat":43.29968,"lon":5.38483,"is_reserved":false,"is_disabled":true,"rental_uris":{"android":"levelo://app?vid=e72f72c7-28ee-4a00-ac95-3095ed74405a","ios":"levelo://app?vid=e72f72c7-28ee-4a00-ac95-3095ed74405a"},"vehicle_type_id":"4","last_reported":1733080018,"current_range_meters":36800,"station_id":"ce4bgj92rcd13ifvqbd0","pricing_plan_id":"cebpf4jnsgd1na2vs0mg"},{"bike_id":"cb930c49-d9b6-4018-bbb8-1880fbb33687","system_id":"levelo_inurba_marseille","lat":43.27321,"lon":5.39085,"is_reserved":false,"is_disabled":false,"rental_uris":{"android":"levelo://app?vid=cb930c49-d9b6-4018-bbb8-1880fbb33687","ios":"levelo://app?vid=cb930c49-d9b6-4018-bbb8-1880fbb33687"},"vehicle_type_id":"4","last_reported":1733080018,"current_range_meters":24400,"station_id":"ce4bhgp2rcd13ifvqfe0","pricing_plan_id":"cebpf4jnsgd1na2vs0mg"},{"bike_id":"41329919-d8a6-4529-9c36-e6723e50ee60","system_id":"levelo_inurba_marseille","lat":43.30297,"lon":5.39202,"is_reserved":false,"is_disabled":true,"rental_uris":{"android":"levelo://app?vid=41329919-d8a6-4529-9c36-e6723e50ee60","ios":"levelo://app?vid=41329919-d8a6-4529-9c36-e6723e50ee60"},"vehicle_type_id":"4","last_reported":1733080018,"current_range_meters":29600,"station_id":"ce4bgkh2rcd13ifvqbk0","pricing_plan_id":"cebpf4jnsgd1na2vs0mg"},{"bike_id":"79b66480-5997-4def-aaac-7674008da5f9","system_id":"levelo_inurba_marseille","lat":43.2987,"lon":5.39735,"is_reserved":false,"is_disabled":false,"rental_uris":{"android":"levelo://app?vid=79b66480-5997-4def-aaac-7674008da5f9","ios":"levelo://app?vid=79b66480-5997-4def-aaac-7674008da5f9"},"vehicle_type_id":"4","last_reported":1733080018,"current_range_meters":35600,"station_id":"ce4bh0h2rcd13ifvqd50","pricing_plan_id":"cebpf4jnsgd1na2vs0mg"},{"bike_id":"33fd44a0-b7c3-49f6-be66-d93726644b6e","system_id":"levelo_inurba_marseille","lat":43.27308,"lon":5.39077,"is_reserved":false,"is_disabled":false,"rental_uris":{"android":"levelo://app?vid=33fd44a0-b7c3-49f6-be66-d93726644b6e","ios":"levelo://app?vid=33fd44a0-b7c3-49f6-be66-d93726644b6e"},"vehicle_type_id":"4","last_reported":1733080018,"current_range_meters":25200,"station_id":"ce4bhgp2rcd13ifvqfe0","pricing_plan_id":"cebpf4jnsgd1na2vs0mg"},{"bike_id":"0efb33db-0016-4e6b-8f30-8d85e1cf3838","system_id":"levelo_inurba_marseille","lat":43.27202,"lon":5.39194,"is_reserved":false,"is_disabled":false,"rental_uris":{"android":"levelo://app?vid=0efb33db-0016-4e6b-8f30-8d85e1cf3838","ios":"levelo://app?vid=0efb33db-0016-4e6b-8f30-8d85e1cf3838"},"vehicle_type_id":"4","last_reported":1733080018,"current_range_meters":9200,"station_id":"ce4bhhp2rcd13ifvqfm0","pricing_plan_id":"cebpf4jnsgd1na2vs0mg"},{"bike_id":"000b518d-442b-4752-8b9a-e2fc3654d286","system_id":"levelo_inurba_marseille","lat":43.29441,"lon":5.39757,"is_reserved":false,"is_disabled":true,"rental_uris":{"android":"levelo://app?vid=000b518d-442b-4752-8b9a-e2fc3654d286","ios":"levelo://app?vid=000b518d-442b-4752-8b9a-e2fc3654d286"},"vehicle_type_id":"4","last_reported":1733080018,"current_range_meters":16000,"station_id":"ce4bh3h2rcd13ifvqdo0","pricing_plan_id":"cebpf4jnsgd1na2vs0mg"},{"bike_id":"e39d22a4-daed-483a-acbb-550d4592cfe0","system_id":"levelo_inurba_marseille","lat":43.30051,"lon":5.38825,"is_reserved":false,"is_disabled":true,"rental_uris":{"android":"levelo://app?vid=e39d22a4-daed-483a-acbb-550d4592cfe0","ios":"levelo://app?vid=e39d22a4-daed-483a-acbb-550d4592cfe0"},"vehicle_type_id":"4","last_reported":1733080018,"current_range_meters":0,"station_id":"","pricing_plan_id":"cebpf4jnsgd1na2vs0mg"},{"bike_id":"8e49e3bc-0aee-49fb-83c0-0c1cbdbe8935","system_id":"levelo_inurba_marseille","lat":43.27207,"lon":5.39174,"is_reserved":false,"is_disabled":false,"rental_uris":{"android":"levelo://app?vid=8e49e3bc-0aee-49fb-83c0-0c1cbdbe8935","ios":"levelo://app?vid=8e49e3bc-0aee-49fb-83c0-0c1cbdbe8935"},"vehicle_type_id":"4","last_reported":1733080018,"current_range_meters":24800,"station_id":"ce4bhhp2rcd13ifvqfm0","pricing_plan_id":"cebpf4jnsgd1na2vs0mg"},{"bike_id":"f9c8b933-6f3c-415b-a23a-3b43c2f5668d","system_id":"levelo_inurba_marseille","lat":43.23058,"lon":5.35491,"is_reserved":false,"is_disabled":true,"rental_uris":{"android":"levelo://app?vid=f9c8b933-6f3c-415b-a23a-3b43c2f5668d","ios":"levelo://app?vid=f9c8b933-6f3c-415b-a23a-3b43c2f5668d"},"vehicle_type_id":"4","last_reported":1733080018,"current_range_meters":29600,"station_id":"cpo3342slgdg3j2ifvpg","pricing_plan_id":"cebpf4jnsgd1na2vs0mg"},{"bike_id":"68715959-4fd7-40a4-b807-671846e178a8","system_id":"levelo_inurba_marseille","lat":43.31219,"lon":5.3685,"is_reserved":false,"is_disabled":false,"rental_uris":{"android":"levelo://app?vid=68715959-4fd7-40a4-b807-671846e178a8","ios":"levelo://app?vid=68715959-4fd7-40a4-b807-671846e178a8"},"vehicle_type_id":"4","last_reported":1733080018,"current_range_meters":34000,"station_id":"ce4bgl92rcd13ifvqbq0","pricing_plan_id":"cebpf4jnsgd1na2vs0mg"},{"bike_id":"f51a3d60-ff18-4f8a-8906-bf85e4374508","system_id":"levelo_inurba_marseille","lat":43.28933,"lon":5.364,"is_reserved":false,"is_disabled":false,"rental_uris":{"android":"levelo://app?vid=f51a3d60-ff18-4f8a-8906-bf85e4374508","ios":"levelo://app?vid=f51a3d60-ff18-4f8a-8906-bf85e4374508"},"vehicle_type_id":"4","last_reported":1733080018,"current_range_meters":22800,"station_id":"ce4bhc92rcd13ifvqetg","pricing_plan_id":"cebpf4jnsgd1na2vs0mg"},{"bike_id":"c1b4782f-7dc5-49b3-b190-d04f32598b77","system_id":"levelo_inurba_marseille","lat":43.31329,"lon":5.39683,"is_reserved":false,"is_disabled":false,"rental_uris":{"android":"levelo://app?vid=c1b4782f-7dc5-49b3-b190-d04f32598b77","ios":"levelo://app?vid=c1b4782f-7dc5-49b3-b190-d04f32598b77"},"vehicle_type_id":"4","last_reported":1733080018,"current_range_meters":28800,"station_id":"ce4bgvp2rcd13ifvqcu0","pricing_plan_id":"cebpf4jnsgd1na2vs0mg"},{"bike_id":"78e5f316-3948-4b35-911e-923ed2423220","system_id":"levelo_inurba_marseille","lat":43.27212,"lon":5.39173,"is_reserved":false,"is_disabled":false,"rental_uris":{"android":"levelo://app?vid=78e5f316-3948-4b35-911e-923ed2423220","ios":"levelo://app?vid=78e5f316-3948-4b35-911e-923ed2423220"},"vehicle_type_id":"4","last_reported":1733080018,"current_range_meters":24400,"station_id":"ce4bhhp2rcd13ifvqfm0","pricing_plan_id":"cebpf4jnsgd1na2vs0mg"},{"bike_id":"06e6470a-e7c6-43e1-8faf-2131a4d6a529","system_id":"levelo_inurba_marseille","lat":43.23185,"lon":5.39982,"is_reserved":false,"is_disabled":false,"rental_uris":{"android":"levelo://app?vid=06e6470a-e7c6-43e1-8faf-2131a4d6a529","ios":"levelo://app?vid=06e6470a-e7c6-43e1-8faf-2131a4d6a529"},"vehicle_type_id":"4","last_reported":1733080018,"current_range_meters":38800,"station_id":"ce4bhn12rcd13ifvqgqg","pricing_plan_id":"cebpf4jnsgd1na2vs0mg"},{"bike_id":"3f59b417-afad-4b62-9f61-287fb5ce9cbf","system_id":"levelo_inurba_marseille","lat":43.31068,"lon":5.38348,"is_reserved":false,"is_disabled":true,"rental_uris":{"android":"levelo://app?vid=3f59b417-afad-4b62-9f61-287fb5ce9cbf","ios":"levelo://app?vid=3f59b417-afad-4b62-9f61-287fb5ce9cbf"},"vehicle_type_id":"4","last_reported":1733080018,"current_range_meters":0,"station_id":"ce4bgv92rcd13ifvqcr0","pricing_plan_id":"cebpf4jnsgd1na2vs0mg"},{"bike_id":"0f7f79a0-c59e-4b71-83f2-b12c1bc94c9e","system_id":"levelo_inurba_marseille","lat":43.27956,"lon":5.3871,"is_reserved":false,"is_disabled":true,"rental_uris":{"android":"levelo://app?vid=0f7f79a0-c59e-4b71-83f2-b12c1bc94c9e","ios":"levelo://app?vid=0f7f79a0-c59e-4b71-83f2-b12c1bc94c9e"},"vehicle_type_id":"4","last_reported":1733080018,"current_range_meters":0,"station_id":"ce4bhg12rcd13ifvqf80","pricing_plan_id":"cebpf4jnsgd1na2vs0mg"},{"bike_id":"b535dfd0-ec01-4a13-996f-71245b6113cc","system_id":"levelo_inurba_marseille","lat":43.27975,"lon":5.41218,"is_reserved":false,"is_disabled":true,"rental_uris":{"android":"levelo://app?vid=b535dfd0-ec01-4a13-996f-71245b6113cc","ios":"levelo://app?vid=b535dfd0-ec01-4a13-996f-71245b6113cc"},"vehicle_type_id":"4","last_reported":1733080018,"current_range_meters":0,"station_id":"","pricing_plan_id":"cebpf4jnsgd1na2vs0mg"},{"bike_id":"11d5604e-29c4-4f54-96ae-67f1e4e1420d","system_id":"levelo_inurba_marseille","lat":43.29569,"lon":5.37512,"is_reserved":false,"is_disabled":true,"rental_uris":{"android":"levelo://app?vid=11d5604e-29c4-4f54-96ae-67f1e4e1420d","ios":"levelo://app?vid=11d5604e-29c4-4f54-96ae-67f1e4e1420d"},"vehicle_type_id":"4","last_reported":1733080018,"current_range_meters":0,"station_id":"ce4bgh92rcd13ifvqb50","pricing_plan_id":"cebpf4jnsgd1na2vs0mg"},{"bike_id":"5eb82a51-08dd-4fa6-ad46-bc44b85bb4a1","system_id":"levelo_inurba_marseille","lat":43.27067,"lon":5.40251,"is_reserved":false,"is_disabled":false,"rental_uris":{"android":"levelo://app?vid=5eb82a51-08dd-4fa6-ad46-bc44b85bb4a1","ios":"levelo://app?vid=5eb82a51-08dd-4fa6-ad46-bc44b85bb4a1"},"vehicle_type_id":"4","last_reported":1733080018,"current_range_meters":7200,"station_id":"ce4bhk92rcd13ifvqgc0","pricing_plan_id":"cebpf4jnsgd1na2vs0mg"},{"bike_id":"7860ef69-9efa-4448-8c01-6a1cfc33bfd0","system_id":"levelo_inurba_marseille","lat":43.2885,"lon":5.3931,"is_reserved":false,"is_disabled":false,"rental_uris":{"android":"levelo://app?vid=7860ef69-9efa-4448-8c01-6a1cfc33bfd0","ios":"levelo://app?vid=7860ef69-9efa-4448-8c01-6a1cfc33bfd0"},"vehicle_type_id":"4","last_reported":1733080018,"current_range_meters":20800,"station_id":"ce4bh2p2rcd13ifvqdi0","pricing_plan_id":"cebpf4jnsgd1na2vs0mg"},{"bike_id":"b642d79a-bd2c-495a-acdd-099583f67bf5","system_id":"levelo_inurba_marseille","lat":43.32293,"lon":5.38261,"is_reserved":false,"is_disabled":false,"rental_uris":{"android":"levelo://app?vid=b642d79a-bd2c-495a-acdd-099583f67bf5","ios":"levelo://app?vid=b642d79a-bd2c-495a-acdd-099583f67bf5"},"vehicle_type_id":"4","last_reported":1733080018,"current_range_meters":25200,"station_id":"ce4bhr12rcd13ifvqhqg","pricing_plan_id":"cebpf4jnsgd1na2vs0mg"},{"bike_id":"612ff584-c95b-4271-9dfd-f283f925bc8f","system_id":"levelo_inurba_marseille","lat":43.26682,"lon":5.38272,"is_reserved":false,"is_disabled":true,"rental_uris":{"android":"levelo://app?vid=612ff584-c95b-4271-9dfd-f283f925bc8f","ios":"levelo://app?vid=612ff584-c95b-4271-9dfd-f283f925bc8f"},"vehicle_type_id":"4","last_reported":1733080018,"current_range_meters":0,"station_id":"ce4bhg92rcd13ifvqf90","pricing_plan_id":"cebpf4jnsgd1na2vs0mg"},{"bike_id":"c9420310-879d-4bdf-b983-7939b8d73b8b","system_id":"levelo_inurba_marseille","lat":43.24383,"lon":5.37057,"is_reserved":false,"is_disabled":false,"rental_uris":{"android":"levelo://app?vid=c9420310-879d-4bdf-b983-7939b8d73b8b","ios":"levelo://app?vid=c9420310-879d-4bdf-b983-7939b8d73b8b"},"vehicle_type_id":"4","last_reported":1733080018,"current_range_meters":29600,"station_id":"ce4bhhh2rcd13ifvqfk0","pricing_plan_id":"cebpf4jnsgd1na2vs0mg"},{"bike_id":"2ebf3b3c-662f-41a2-b8dc-68990b8b5b78","system_id":"levelo_inurba_marseille","lat":43.270753,"lon":5.42269,"is_reserved":false,"is_disabled":false,"rental_uris":{"android":"levelo://app?vid=2ebf3b3c-662f-41a2-b8dc-68990b8b5b78","ios":"levelo://app?vid=2ebf3b3c-662f-41a2-b8dc-68990b8b5b78"},"vehicle_type_id":"4","last_reported":1733080018,"current_range_meters":8400,"station_id":"ce4bhk92rcd13ifvqgb0","pricing_plan_id":"cebpf4jnsgd1na2vs0mg"},{"bike_id":"5b9d6f48-f6d1-42ec-91ce-2705b20346f7","system_id":"levelo_inurba_marseille","lat":43.27619,"lon":5.3612,"is_reserved":false,"is_disabled":true,"rental_uris":{"android":"levelo://app?vid=5b9d6f48-f6d1-42ec-91ce-2705b20346f7","ios":"levelo://app?vid=5b9d6f48-f6d1-42ec-91ce-2705b20346f7"},"vehicle_type_id":"4","last_reported":1733080018,"current_range_meters":38800,"station_id":"ce4bgj92rcd13ifvqbe0","pricing_plan_id":"cebpf4jnsgd1na2vs0mg"},{"bike_id":"b0c3bea6-4bea-4f04-a02c-43072b043247","system_id":"levelo_inurba_marseille","lat":43.24075,"lon":5.37751,"is_reserved":false,"is_disabled":false,"rental_uris":{"android":"levelo://app?vid=b0c3bea6-4bea-4f04-a02c-43072b043247","ios":"levelo://app?vid=b0c3bea6-4bea-4f04-a02c-43072b043247"},"vehicle_type_id":"4","last_reported":1733080018,"current_range_meters":9600,"station_id":"ce4bhnp2rcd13ifvqgvg","pricing_plan_id":"cebpf4jnsgd1na2vs0mg"},{"bike_id":"0174841e-8011-4a7b-bd18-480101bee765","system_id":"levelo_inurba_marseille","lat":43.23958,"lon":5.36616,"is_reserved":false,"is_disabled":true,"rental_uris":{"android":"levelo://app?vid=0174841e-8011-4a7b-bd18-480101bee765","ios":"levelo://app?vid=0174841e-8011-4a7b-bd18-480101bee765"},"vehicle_type_id":"4","last_reported":1733080018,"current_range_meters":0,"station_id":"ce4bhi12rcd13ifvqfp0","pricing_plan_id":"cebpf4jnsgd1na2vs0mg"},{"bike_id":"55aa419e-7ca9-4f29-976a-fefd7a814401","system_id":"levelo_inurba_marseille","lat":43.30137,"lon":5.38784,"is_reserved":false,"is_disabled":true,"rental_uris":{"android":"levelo://app?vid=55aa419e-7ca9-4f29-976a-fefd7a814401","ios":"levelo://app?vid=55aa419e-7ca9-4f29-976a-fefd7a814401"},"vehicle_type_id":"4","last_reported":1733080018,"current_range_meters":16400,"station_id":"ce4bghh2rcd13ifvqb60","pricing_plan_id":"cebpf4jnsgd1na2vs0mg"},{"bike_id":"ef7c0e62-09a6-4b5f-87dd-57948759cf1e","system_id":"levelo_inurba_marseille","lat":43.29252,"lon":5.38434,"is_reserved":false,"is_disabled":false,"rental_uris":{"android":"levelo://app?vid=ef7c0e62-09a6-4b5f-87dd-57948759cf1e","ios":"levelo://app?vid=ef7c0e62-09a6-4b5f-87dd-57948759cf1e"},"vehicle_type_id":"4","last_reported":1733080018,"current_range_meters":38800,"station_id":"ce4bh692rcd13ifvqea0","pricing_plan_id":"cebpf4jnsgd1na2vs0mg"},{"bike_id":"598ed102-c4e4-4d5f-85c4-e8e886cf7754","system_id":"levelo_inurba_marseille","lat":43.27423,"lon":5.39402,"is_reserved":false,"is_disabled":false,"rental_uris":{"android":"levelo://app?vid=598ed102-c4e4-4d5f-85c4-e8e886cf7754","ios":"levelo://app?vid=598ed102-c4e4-4d5f-85c4-e8e886cf7754"},"vehicle_type_id":"4","last_reported":1733080018,"current_range_meters":36800,"station_id":"ce4bhdp2rcd13ifvqf20","pricing_plan_id":"cebpf4jnsgd1na2vs0mg"},{"bike_id":"18045676-f8ef-47f1-a9f6-b35faaf58b2c","system_id":"levelo_inurba_marseille","lat":43.30884,"lon":5.39652,"is_reserved":false,"is_disabled":false,"rental_uris":{"android":"levelo://app?vid=18045676-f8ef-47f1-a9f6-b35faaf58b2c","ios":"levelo://app?vid=18045676-f8ef-47f1-a9f6-b35faaf58b2c"},"vehicle_type_id":"4","last_reported":1733080018,"current_range_meters":25600,"station_id":"ce4bh012rcd13ifvqcv0","pricing_plan_id":"cebpf4jnsgd1na2vs0mg"},{"bike_id":"a233b25b-869e-422b-bf5e-63d3d8ff686f","system_id":"levelo_inurba_marseille","lat":43.3093,"lon":5.40159,"is_reserved":false,"is_disabled":true,"rental_uris":{"android":"levelo://app?vid=a233b25b-869e-422b-bf5e-63d3d8ff686f","ios":"levelo://app?vid=a233b25b-869e-422b-bf5e-63d3d8ff686f"},"vehicle_type_id":"4","last_reported":1733080018,"current_range_meters":38800,"station_id":"ce4bgvp2rcd13ifvqct0","pricing_plan_id":"cebpf4jnsgd1na2vs0mg"},{"bike_id":"5fb181dc-bea9-4f91-8a60-fd73b1bbbccd","system_id":"levelo_inurba_marseille","lat":43.31887,"lon":5.40727,"is_reserved":false,"is_disabled":false,"rental_uris":{"android":"levelo://app?vid=5fb181dc-bea9-4f91-8a60-fd73b1bbbccd","ios":"levelo://app?vid=5fb181dc-bea9-4f91-8a60-fd73b1bbbccd"},"vehicle_type_id":"4","last_reported":1733080018,"current_range_meters":10800,"station_id":"ce4bhq12rcd13ifvqhig","pricing_plan_id":"cebpf4jnsgd1na2vs0mg"},{"bike_id":"d3d123b9-bf77-4e17-859d-89236002e59e","system_id":"levelo_inurba_marseille","lat":43.3236,"lon":5.36748,"is_reserved":false,"is_disabled":false,"rental_uris":{"android":"levelo://app?vid=d3d123b9-bf77-4e17-859d-89236002e59e","ios":"levelo://app?vid=d3d123b9-bf77-4e17-859d-89236002e59e"},"vehicle_type_id":"4","last_reported":1733080018,"current_range_meters":38800,"station_id":"ce4bhsh2rcd13ifvqi2g","pricing_plan_id":"cebpf4jnsgd1na2vs0mg"},{"bike_id":"4895daeb-21d6-492f-8cc4-e79be8276820","system_id":"levelo_inurba_marseille","lat":43.30878,"lon":5.37194,"is_reserved":false,"is_disabled":false,"rental_uris":{"android":"levelo://app?vid=4895daeb-21d6-492f-8cc4-e79be8276820","ios":"levelo://app?vid=4895daeb-21d6-492f-8cc4-e79be8276820"},"vehicle_type_id":"4","last_reported":1733080018,"current_range_meters":8400,"station_id":"ce4bguh2rcd13ifvqckg","pricing_plan_id":"cebpf4jnsgd1na2vs0mg"},{"bike_id":"cdc5df06-e578-4b39-9d2e-0639bd2f4cf6","system_id":"levelo_inurba_marseille","lat":43.30776,"lon":5.37658,"is_reserved":false,"is_disabled":false,"rental_uris":{"android":"levelo://app?vid=cdc5df06-e578-4b39-9d2e-0639bd2f4cf6","ios":"levelo://app?vid=cdc5df06-e578-4b39-9d2e-0639bd2f4cf6"},"vehicle_type_id":"4","last_reported":1733080018,"current_range_meters":31200,"station_id":"ce4bgv92rcd13ifvqcq0","pricing_plan_id":"cebpf4jnsgd1na2vs0mg"},{"bike_id":"25dd2a60-280f-4b55-9588-353347a1acca","system_id":"levelo_inurba_marseille","lat":43.24078,"lon":5.3775,"is_reserved":false,"is_disabled":false,"rental_uris":{"android":"levelo://app?vid=25dd2a60-280f-4b55-9588-353347a1acca","ios":"levelo://app?vid=25dd2a60-280f-4b55-9588-353347a1acca"},"vehicle_type_id":"4","last_reported":1733080018,"current_range_meters":38800,"station_id":"ce4bhnp2rcd13ifvqgvg","pricing_plan_id":"cebpf4jnsgd1na2vs0mg"},{"bike_id":"055a7879-a44b-4db4-88e7-fcdc0a0a1dcc","system_id":"levelo_inurba_marseille","lat":43.23966,"lon":5.36633,"is_reserved":false,"is_disabled":false,"rental_uris":{"android":"levelo://app?vid=055a7879-a44b-4db4-88e7-fcdc0a0a1dcc","ios":"levelo://app?vid=055a7879-a44b-4db4-88e7-fcdc0a0a1dcc"},"vehicle_type_id":"4","last_reported":1733080018,"current_range_meters":4000,"station_id":"ce4bhi12rcd13ifvqfp0","pricing_plan_id":"cebpf4jnsgd1na2vs0mg"},{"bike_id":"bfa86af0-1f74-434e-abbf-921f33e599bc","system_id":"levelo_inurba_marseille","lat":43.28345,"lon":5.38111,"is_reserved":false,"is_disabled":false,"rental_uris":{"android":"levelo://app?vid=bfa86af0-1f74-434e-abbf-921f33e599bc","ios":"levelo://app?vid=bfa86af0-1f74-434e-abbf-921f33e599bc"},"vehicle_type_id":"4","last_reported":1733080018,"current_range_meters":38800,"station_id":"ce4bh412rcd13ifvqdr0","pricing_plan_id":"cebpf4jnsgd1na2vs0mg"},{"bike_id":"42dff1c4-6053-46d6-ab14-2b44877e8b55","system_id":"levelo_inurba_marseille","lat":43.28447,"lon":5.39179,"is_reserved":false,"is_disabled":true,"rental_uris":{"android":"levelo://app?vid=42dff1c4-6053-46d6-ab14-2b44877e8b55","ios":"levelo://app?vid=42dff1c4-6053-46d6-ab14-2b44877e8b55"},"vehicle_type_id":"4","last_reported":1733080018,"current_range_meters":36800,"station_id":"ce4bhoh2rcd13ifvqh5g","pricing_plan_id":"cebpf4jnsgd1na2vs0mg"},{"bike_id":"41622ec0-aeda-4657-9a2e-3777c9f9fdfe","system_id":"levelo_inurba_marseille","lat":43.27056,"lon":5.40256,"is_reserved":false,"is_disabled":false,"rental_uris":{"android":"levelo://app?vid=41622ec0-aeda-4657-9a2e-3777c9f9fdfe","ios":"levelo://app?vid=41622ec0-aeda-4657-9a2e-3777c9f9fdfe"},"vehicle_type_id":"4","last_reported":1733080018,"current_range_meters":22000,"station_id":"ce4bhk92rcd13ifvqgc0","pricing_plan_id":"cebpf4jnsgd1na2vs0mg"},{"bike_id":"27d13c7a-6338-48dc-81dd-618b3e4ff60b","system_id":"levelo_inurba_marseille","lat":43.28352,"lon":5.38634,"is_reserved":false,"is_disabled":true,"rental_uris":{"android":"levelo://app?vid=27d13c7a-6338-48dc-81dd-618b3e4ff60b","ios":"levelo://app?vid=27d13c7a-6338-48dc-81dd-618b3e4ff60b"},"vehicle_type_id":"4","last_reported":1733080018,"current_range_meters":33600,"station_id":"ce4bh492rcd13ifvqdvg","pricing_plan_id":"cebpf4jnsgd1na2vs0mg"},{"bike_id":"13151158-c4ba-49c7-a920-9a61c5dd56f2","system_id":"levelo_inurba_marseille","lat":43.23959,"lon":5.36616,"is_reserved":false,"is_disabled":true,"rental_uris":{"android":"levelo://app?vid=13151158-c4ba-49c7-a920-9a61c5dd56f2","ios":"levelo://app?vid=13151158-c4ba-49c7-a920-9a61c5dd56f2"},"vehicle_type_id":"4","last_reported":1733080018,"current_range_meters":0,"station_id":"ce4bhi12rcd13ifvqfp0","pricing_plan_id":"cebpf4jnsgd1na2vs0mg"},{"bike_id":"54d5e230-77ff-49ea-b65e-c0c75379ac78","system_id":"levelo_inurba_marseille","lat":43.2742,"lon":5.39428,"is_reserved":false,"is_disabled":false,"rental_uris":{"android":"levelo://app?vid=54d5e230-77ff-49ea-b65e-c0c75379ac78","ios":"levelo://app?vid=54d5e230-77ff-49ea-b65e-c0c75379ac78"},"vehicle_type_id":"4","last_reported":1733080018,"current_range_meters":38000,"station_id":"ce4bhdp2rcd13ifvqf20","pricing_plan_id":"cebpf4jnsgd1na2vs0mg"},{"bike_id":"acf4a756-d86a-4aba-99d9-8148b7db3378","system_id":"levelo_inurba_marseille","lat":43.28005,"lon":5.40002,"is_reserved":false,"is_disabled":true,"rental_uris":{"android":"levelo://app?vid=acf4a756-d86a-4aba-99d9-8148b7db3378","ios":"levelo://app?vid=acf4a756-d86a-4aba-99d9-8148b7db3378"},"vehicle_type_id":"4","last_reported":1733080018,"current_range_meters":36800,"station_id":"ce4bho92rcd13ifvqh4g","pricing_plan_id":"cebpf4jnsgd1na2vs0mg"},{"bike_id":"4018fb8f-45f3-45d0-a054-90a03257f3a3","system_id":"levelo_inurba_marseille","lat":43.28308,"lon":5.40535,"is_reserved":false,"is_disabled":false,"rental_uris":{"android":"levelo://app?vid=4018fb8f-45f3-45d0-a054-90a03257f3a3","ios":"levelo://app?vid=4018fb8f-45f3-45d0-a054-90a03257f3a3"},"vehicle_type_id":"4","last_reported":1733080018,"current_range_meters":22000,"station_id":"","pricing_plan_id":"cebpf4jnsgd1na2vs0mg"},{"bike_id":"61eca473-f10c-485a-897d-9ed038aad90f","system_id":"levelo_inurba_marseille","lat":43.31168,"lon":5.38718,"is_reserved":false,"is_disabled":false,"rental_uris":{"android":"levelo://app?vid=61eca473-f10c-485a-897d-9ed038aad90f","ios":"levelo://app?vid=61eca473-f10c-485a-897d-9ed038aad90f"},"vehicle_type_id":"4","last_reported":1733080018,"current_range_meters":37600,"station_id":"ce4bgv12rcd13ifvqcp0","pricing_plan_id":"cebpf4jnsgd1na2vs0mg"},{"bike_id":"ead3f4f9-39fd-4192-a758-692fc411822d","system_id":"levelo_inurba_marseille","lat":43.27185,"lon":5.40987,"is_reserved":false,"is_disabled":false,"rental_uris":{"android":"levelo://app?vid=ead3f4f9-39fd-4192-a758-692fc411822d","ios":"levelo://app?vid=ead3f4f9-39fd-4192-a758-692fc411822d"},"vehicle_type_id":"4","last_reported":1733080018,"current_range_meters":15200,"station_id":"ce4bhl12rcd13ifvqgf0","pricing_plan_id":"cebpf4jnsgd1na2vs0mg"},{"bike_id":"f1109305-280e-4b38-bb9a-91c001a0bbb0","system_id":"levelo_inurba_marseille","lat":43.28667,"lon":5.36351,"is_reserved":false,"is_disabled":false,"rental_uris":{"android":"levelo://app?vid=f1109305-280e-4b38-bb9a-91c001a0bbb0","ios":"levelo://app?vid=f1109305-280e-4b38-bb9a-91c001a0bbb0"},"vehicle_type_id":"4","last_reported":1733080018,"current_range_meters":32000,"station_id":"ce4bhah2rcd13ifvqej0","pricing_plan_id":"cebpf4jnsgd1na2vs0mg"},{"bike_id":"a72d9299-2ef3-4e3f-8e69-acc7098d09c2","system_id":"levelo_inurba_marseille","lat":43.33016,"lon":5.39041,"is_reserved":false,"is_disabled":true,"rental_uris":{"android":"levelo://app?vid=a72d9299-2ef3-4e3f-8e69-acc7098d09c2","ios":"levelo://app?vid=a72d9299-2ef3-4e3f-8e69-acc7098d09c2"},"vehicle_type_id":"4","last_reported":1733080018,"current_range_meters":24400,"station_id":"ce4bhr92rcd13ifvqhrg","pricing_plan_id":"cebpf4jnsgd1na2vs0mg"},{"bike_id":"5d0abdfa-7715-4288-ab6d-9bcb08126de5","system_id":"levelo_inurba_marseille","lat":43.3059,"lon":5.3936,"is_reserved":false,"is_disabled":false,"rental_uris":{"android":"levelo://app?vid=5d0abdfa-7715-4288-ab6d-9bcb08126de5","ios":"levelo://app?vid=5d0abdfa-7715-4288-ab6d-9bcb08126de5"},"vehicle_type_id":"4","last_reported":1733080018,"current_range_meters":11200,"station_id":"ce4bh0p2rcd13ifvqd80","pricing_plan_id":"cebpf4jnsgd1na2vs0mg"},{"bike_id":"e0161261-fd33-45e3-8038-51d77778a6b0","system_id":"levelo_inurba_marseille","lat":43.30652,"lon":5.40088,"is_reserved":false,"is_disabled":true,"rental_uris":{"android":"levelo://app?vid=e0161261-fd33-45e3-8038-51d77778a6b0","ios":"levelo://app?vid=e0161261-fd33-45e3-8038-51d77778a6b0"},"vehicle_type_id":"4","last_reported":1733080018,"current_range_meters":34000,"station_id":"ce4bh112rcd13ifvqda0","pricing_plan_id":"cebpf4jnsgd1na2vs0mg"},{"bike_id":"74e1675e-183a-4296-b6de-47d740fbf679","system_id":"levelo_inurba_marseille","lat":43.26933,"lon":5.40254,"is_reserved":false,"is_disabled":false,"rental_uris":{"android":"levelo://app?vid=74e1675e-183a-4296-b6de-47d740fbf679","ios":"levelo://app?vid=74e1675e-183a-4296-b6de-47d740fbf679"},"vehicle_type_id":"4","last_reported":1733080018,"current_range_meters":24400,"station_id":"cjm6bp8fraef2m0cb0m0","pricing_plan_id":"cebpf4jnsgd1na2vs0mg"},{"bike_id":"4d38a818-9531-4d9e-a2a0-b9cd0b136842","system_id":"levelo_inurba_marseille","lat":43.26468,"lon":5.39123,"is_reserved":false,"is_disabled":true,"rental_uris":{"android":"levelo://app?vid=4d38a818-9531-4d9e-a2a0-b9cd0b136842","ios":"levelo://app?vid=4d38a818-9531-4d9e-a2a0-b9cd0b136842"},"vehicle_type_id":"4","last_reported":1733080018,"current_range_meters":0,"station_id":"","pricing_plan_id":"cebpf4jnsgd1na2vs0mg"},{"bike_id":"fbb9e7ab-aea9-4a76-9ff0-fa83f75a1148","system_id":"levelo_inurba_marseille","lat":43.30912,"lon":5.38019,"is_reserved":false,"is_disabled":false,"rental_uris":{"android":"levelo://app?vid=fbb9e7ab-aea9-4a76-9ff0-fa83f75a1148","ios":"levelo://app?vid=fbb9e7ab-aea9-4a76-9ff0-fa83f75a1148"},"vehicle_type_id":"4","last_reported":1733080018,"current_range_meters":36400,"station_id":"","pricing_plan_id":"cebpf4jnsgd1na2vs0mg"},{"bike_id":"c5b831b0-ba71-4102-a94a-4979d0b4bdf7","system_id":"levelo_inurba_marseille","lat":43.32278,"lon":5.3828,"is_reserved":false,"is_disabled":false,"rental_uris":{"android":"levelo://app?vid=c5b831b0-ba71-4102-a94a-4979d0b4bdf7","ios":"levelo://app?vid=c5b831b0-ba71-4102-a94a-4979d0b4bdf7"},"vehicle_type_id":"4","last_reported":1733080018,"current_range_meters":16000,"station_id":"ce4bhr12rcd13ifvqhqg","pricing_plan_id":"cebpf4jnsgd1na2vs0mg"},{"bike_id":"0925ff43-bab0-49be-8348-5535795fc1c0","system_id":"levelo_inurba_marseille","lat":43.30539,"lon":5.38429,"is_reserved":false,"is_disabled":true,"rental_uris":{"android":"levelo://app?vid=0925ff43-bab0-49be-8348-5535795fc1c0","ios":"levelo://app?vid=0925ff43-bab0-49be-8348-5535795fc1c0"},"vehicle_type_id":"4","last_reported":1733080018,"current_range_meters":10800,"station_id":"ce4bgg92rcd13ifvqb30","pricing_plan_id":"cebpf4jnsgd1na2vs0mg"},{"bike_id":"5fd470f3-da62-48ec-8bb8-3493555d1763","system_id":"levelo_inurba_marseille","lat":43.29541,"lon":5.37501,"is_reserved":false,"is_disabled":true,"rental_uris":{"android":"levelo://app?vid=5fd470f3-da62-48ec-8bb8-3493555d1763","ios":"levelo://app?vid=5fd470f3-da62-48ec-8bb8-3493555d1763"},"vehicle_type_id":"4","last_reported":1733080018,"current_range_meters":23200,"station_id":"ce4bgkp2rcd13ifvqbmg","pricing_plan_id":"cebpf4jnsgd1na2vs0mg"},{"bike_id":"df175e35-a109-455b-a549-3a0af8fc4135","system_id":"levelo_inurba_marseille","lat":43.26683,"lon":5.38271,"is_reserved":false,"is_disabled":true,"rental_uris":{"android":"levelo://app?vid=df175e35-a109-455b-a549-3a0af8fc4135","ios":"levelo://app?vid=df175e35-a109-455b-a549-3a0af8fc4135"},"vehicle_type_id":"4","last_reported":1733080018,"current_range_meters":19200,"station_id":"ce4bhg92rcd13ifvqf90","pricing_plan_id":"cebpf4jnsgd1na2vs0mg"},{"bike_id":"3cd36cdd-b8ac-4151-bacd-1ff7508ad009","system_id":"levelo_inurba_marseille","lat":43.32537,"lon":5.41446,"is_reserved":false,"is_disabled":true,"rental_uris":{"android":"levelo://app?vid=3cd36cdd-b8ac-4151-bacd-1ff7508ad009","ios":"levelo://app?vid=3cd36cdd-b8ac-4151-bacd-1ff7508ad009"},"vehicle_type_id":"4","last_reported":1733080018,"current_range_meters":36400,"station_id":"ce4bhq12rcd13ifvqhhg","pricing_plan_id":"cebpf4jnsgd1na2vs0mg"},{"bike_id":"ebaa904e-bc87-46fe-8951-7f1d176fdb4c","system_id":"levelo_inurba_marseille","lat":43.31277,"lon":5.40167,"is_reserved":false,"is_disabled":true,"rental_uris":{"android":"levelo://app?vid=ebaa904e-bc87-46fe-8951-7f1d176fdb4c","ios":"levelo://app?vid=ebaa904e-bc87-46fe-8951-7f1d176fdb4c"},"vehicle_type_id":"4","last_reported":1733080018,"current_range_meters":29600,"station_id":"ce4bh092rcd13ifvqd30","pricing_plan_id":"cebpf4jnsgd1na2vs0mg"},{"bike_id":"92e22632-c48e-4ad2-8440-53cc01a1e500","system_id":"levelo_inurba_marseille","lat":43.2988,"lon":5.38918,"is_reserved":false,"is_disabled":false,"rental_uris":{"android":"levelo://app?vid=92e22632-c48e-4ad2-8440-53cc01a1e500","ios":"levelo://app?vid=92e22632-c48e-4ad2-8440-53cc01a1e500"},"vehicle_type_id":"4","last_reported":1733080018,"current_range_meters":31200,"station_id":"ce4bh392rcd13ifvqdl0","pricing_plan_id":"cebpf4jnsgd1na2vs0mg"},{"bike_id":"1e9f7531-f02f-4a68-a033-35dfa2f6d9df","system_id":"levelo_inurba_marseille","lat":43.28476,"lon":5.38542,"is_reserved":false,"is_disabled":true,"rental_uris":{"android":"levelo://app?vid=1e9f7531-f02f-4a68-a033-35dfa2f6d9df","ios":"levelo://app?vid=1e9f7531-f02f-4a68-a033-35dfa2f6d9df"},"vehicle_type_id":"4","last_reported":1733080018,"current_range_meters":20000,"station_id":"ce4bh8p2rcd13ifvqeb0","pricing_plan_id":"cebpf4jnsgd1na2vs0mg"},{"bike_id":"54b354cd-0541-4f43-a15d-f5e381751bbc","system_id":"levelo_inurba_marseille","lat":43.29023,"lon":5.38643,"is_reserved":false,"is_disabled":false,"rental_uris":{"android":"levelo://app?vid=54b354cd-0541-4f43-a15d-f5e381751bbc","ios":"levelo://app?vid=54b354cd-0541-4f43-a15d-f5e381751bbc"},"vehicle_type_id":"4","last_reported":1733080018,"current_range_meters":19200,"station_id":"ce4bh4p2rcd13ifvqe0g","pricing_plan_id":"cebpf4jnsgd1na2vs0mg"},{"bike_id":"e05666e3-b707-46de-a7e5-8e4163e50f7c","system_id":"levelo_inurba_marseille","lat":43.28426,"lon":5.34972,"is_reserved":false,"is_disabled":true,"rental_uris":{"android":"levelo://app?vid=e05666e3-b707-46de-a7e5-8e4163e50f7c","ios":"levelo://app?vid=e05666e3-b707-46de-a7e5-8e4163e50f7c"},"vehicle_type_id":"4","last_reported":1733080018,"current_range_meters":38800,"station_id":"ce4bhbh2rcd13ifvqepg","pricing_plan_id":"cebpf4jnsgd1na2vs0mg"},{"bike_id":"6ffe91fb-690d-42aa-8ca0-455ed27962b6","system_id":"levelo_inurba_marseille","lat":43.26949,"lon":5.38624,"is_reserved":false,"is_disabled":false,"rental_uris":{"android":"levelo://app?vid=6ffe91fb-690d-42aa-8ca0-455ed27962b6","ios":"levelo://app?vid=6ffe91fb-690d-42aa-8ca0-455ed27962b6"},"vehicle_type_id":"4","last_reported":1733080018,"current_range_meters":31200,"station_id":"ce4bhh92rcd13ifvqfh0","pricing_plan_id":"cebpf4jnsgd1na2vs0mg"},{"bike_id":"f8d592a2-1761-4fc2-ae68-7688d9a28c14","system_id":"levelo_inurba_marseille","lat":43.27933,"lon":5.3868,"is_reserved":false,"is_disabled":true,"rental_uris":{"android":"levelo://app?vid=f8d592a2-1761-4fc2-ae68-7688d9a28c14","ios":"levelo://app?vid=f8d592a2-1761-4fc2-ae68-7688d9a28c14"},"vehicle_type_id":"4","last_reported":1733080018,"current_range_meters":0,"station_id":"","pricing_plan_id":"cebpf4jnsgd1na2vs0mg"},{"bike_id":"fc03e94f-bce7-4df7-bbbf-751a1bc9af99","system_id":"levelo_inurba_marseille","lat":43.30086,"lon":5.39102,"is_reserved":false,"is_disabled":false,"rental_uris":{"android":"levelo://app?vid=fc03e94f-bce7-4df7-bbbf-751a1bc9af99","ios":"levelo://app?vid=fc03e94f-bce7-4df7-bbbf-751a1bc9af99"},"vehicle_type_id":"4","last_reported":1733080018,"current_range_meters":35600,"station_id":"ce4bh192rcd13ifvqdb0","pricing_plan_id":"cebpf4jnsgd1na2vs0mg"},{"bike_id":"15f7db9f-95f5-4bd9-bddc-67bb73b7373f","system_id":"levelo_inurba_marseille","lat":43.23191,"lon":5.35542,"is_reserved":false,"is_disabled":false,"rental_uris":{"android":"levelo://app?vid=15f7db9f-95f5-4bd9-bddc-67bb73b7373f","ios":"levelo://app?vid=15f7db9f-95f5-4bd9-bddc-67bb73b7373f"},"vehicle_type_id":"4","last_reported":1733080018,"current_range_meters":7200,"station_id":"ce4bhu92rcd13ifvqi70","pricing_plan_id":"cebpf4jnsgd1na2vs0mg"},{"bike_id":"de2b69ae-837a-4349-b5c6-21638a302f61","system_id":"levelo_inurba_marseille","lat":43.31072,"lon":5.38358,"is_reserved":false,"is_disabled":false,"rental_uris":{"android":"levelo://app?vid=de2b69ae-837a-4349-b5c6-21638a302f61","ios":"levelo://app?vid=de2b69ae-837a-4349-b5c6-21638a302f61"},"vehicle_type_id":"4","last_reported":1733080018,"current_range_meters":16800,"station_id":"ce4bgv92rcd13ifvqcr0","pricing_plan_id":"cebpf4jnsgd1na2vs0mg"},{"bike_id":"aa868eb3-5723-480d-8f47-76ec81e31e33","system_id":"levelo_inurba_marseille","lat":43.32362,"lon":5.36765,"is_reserved":false,"is_disabled":false,"rental_uris":{"android":"levelo://app?vid=aa868eb3-5723-480d-8f47-76ec81e31e33","ios":"levelo://app?vid=aa868eb3-5723-480d-8f47-76ec81e31e33"},"vehicle_type_id":"4","last_reported":1733080018,"current_range_meters":38400,"station_id":"ce4bhsh2rcd13ifvqi2g","pricing_plan_id":"cebpf4jnsgd1na2vs0mg"},{"bike_id":"275aa4a2-eb98-4d04-a13b-a5e9e2accfc3","system_id":"levelo_inurba_marseille","lat":43.30311,"lon":5.36883,"is_reserved":false,"is_disabled":false,"rental_uris":{"android":"levelo://app?vid=275aa4a2-eb98-4d04-a13b-a5e9e2accfc3","ios":"levelo://app?vid=275aa4a2-eb98-4d04-a13b-a5e9e2accfc3"},"vehicle_type_id":"4","last_reported":1733080018,"current_range_meters":19200,"station_id":"ce4bgqh2rcd13ifvqc5g","pricing_plan_id":"cebpf4jnsgd1na2vs0mg"},{"bike_id":"7deaf822-5f8a-47f1-8f40-f0b79365cbc1","system_id":"levelo_inurba_marseille","lat":43.27433,"lon":5.39407,"is_reserved":false,"is_disabled":false,"rental_uris":{"android":"levelo://app?vid=7deaf822-5f8a-47f1-8f40-f0b79365cbc1","ios":"levelo://app?vid=7deaf822-5f8a-47f1-8f40-f0b79365cbc1"},"vehicle_type_id":"4","last_reported":1733080018,"current_range_meters":16400,"station_id":"ce4bhdp2rcd13ifvqf20","pricing_plan_id":"cebpf4jnsgd1na2vs0mg"},{"bike_id":"aafc0b36-4303-43a4-9d59-0283760d4eb9","system_id":"levelo_inurba_marseille","lat":43.30785,"lon":5.37642,"is_reserved":false,"is_disabled":false,"rental_uris":{"android":"levelo://app?vid=aafc0b36-4303-43a4-9d59-0283760d4eb9","ios":"levelo://app?vid=aafc0b36-4303-43a4-9d59-0283760d4eb9"},"vehicle_type_id":"4","last_reported":1733080018,"current_range_meters":35200,"station_id":"ce4bgv92rcd13ifvqcq0","pricing_plan_id":"cebpf4jnsgd1na2vs0mg"},{"bike_id":"6bf94900-7f64-4cb9-bd3a-ae5156d70eca","system_id":"levelo_inurba_marseille","lat":43.29213,"lon":5.35958,"is_reserved":false,"is_disabled":false,"rental_uris":{"android":"levelo://app?vid=6bf94900-7f64-4cb9-bd3a-ae5156d70eca","ios":"levelo://app?vid=6bf94900-7f64-4cb9-bd3a-ae5156d70eca"},"vehicle_type_id":"4","last_reported":1733080018,"current_range_meters":12800,"station_id":"ce4bhb12rcd13ifvqel0","pricing_plan_id":"cebpf4jnsgd1na2vs0mg"},{"bike_id":"9dd1fc98-a89e-437a-b707-6eb8b3c899e8","system_id":"levelo_inurba_marseille","lat":43.29036,"lon":5.35926,"is_reserved":false,"is_disabled":true,"rental_uris":{"android":"levelo://app?vid=9dd1fc98-a89e-437a-b707-6eb8b3c899e8","ios":"levelo://app?vid=9dd1fc98-a89e-437a-b707-6eb8b3c899e8"},"vehicle_type_id":"4","last_reported":1733080018,"current_range_meters":0,"station_id":"ce4bha92rcd13ifvqeg0","pricing_plan_id":"cebpf4jnsgd1na2vs0mg"},{"bike_id":"f10b6b2c-c5d1-4456-bc4f-d2bfb3ea6203","system_id":"levelo_inurba_marseille","lat":43.26779,"lon":5.39415,"is_reserved":false,"is_disabled":false,"rental_uris":{"android":"levelo://app?vid=f10b6b2c-c5d1-4456-bc4f-d2bfb3ea6203","ios":"levelo://app?vid=f10b6b2c-c5d1-4456-bc4f-d2bfb3ea6203"},"vehicle_type_id":"4","last_reported":1733080018,"current_range_meters":8400,"station_id":"ce4bhh12rcd13ifvqfg0","pricing_plan_id":"cebpf4jnsgd1na2vs0mg"},{"bike_id":"32601a8f-3e2a-44d3-b102-70eec4c6ed58","system_id":"levelo_inurba_marseille","lat":43.29568,"lon":5.37494,"is_reserved":false,"is_disabled":true,"rental_uris":{"android":"levelo://app?vid=32601a8f-3e2a-44d3-b102-70eec4c6ed58","ios":"levelo://app?vid=32601a8f-3e2a-44d3-b102-70eec4c6ed58"},"vehicle_type_id":"4","last_reported":1733080018,"current_range_meters":36400,"station_id":"ce4bgh92rcd13ifvqb50","pricing_plan_id":"cebpf4jnsgd1na2vs0mg"},{"bike_id":"0ba18a1d-de06-4ca6-93d6-694820a90d17","system_id":"levelo_inurba_marseille","lat":43.27938,"lon":5.41043,"is_reserved":false,"is_disabled":false,"rental_uris":{"android":"levelo://app?vid=0ba18a1d-de06-4ca6-93d6-694820a90d17","ios":"levelo://app?vid=0ba18a1d-de06-4ca6-93d6-694820a90d17"},"vehicle_type_id":"4","last_reported":1733080018,"current_range_meters":32800,"station_id":"ce4bhnp2rcd13ifvqh0g","pricing_plan_id":"cebpf4jnsgd1na2vs0mg"},{"bike_id":"bea43fe6-0ab8-4ff0-afcb-1dc4fc192577","system_id":"levelo_inurba_marseille","lat":43.25109,"lon":5.40322,"is_reserved":false,"is_disabled":true,"rental_uris":{"android":"levelo://app?vid=bea43fe6-0ab8-4ff0-afcb-1dc4fc192577","ios":"levelo://app?vid=bea43fe6-0ab8-4ff0-afcb-1dc4fc192577"},"vehicle_type_id":"4","last_reported":1733080018,"current_range_meters":0,"station_id":"ce4bhlh2rcd13ifvqgig","pricing_plan_id":"cebpf4jnsgd1na2vs0mg"},{"bike_id":"a6056547-40b7-47f4-8046-7308ba65d7e4","system_id":"levelo_inurba_marseille","lat":43.27208,"lon":5.3916,"is_reserved":false,"is_disabled":true,"rental_uris":{"android":"levelo://app?vid=a6056547-40b7-47f4-8046-7308ba65d7e4","ios":"levelo://app?vid=a6056547-40b7-47f4-8046-7308ba65d7e4"},"vehicle_type_id":"4","last_reported":1733080018,"current_range_meters":0,"station_id":"ce4bhhp2rcd13ifvqfm0","pricing_plan_id":"cebpf4jnsgd1na2vs0mg"},{"bike_id":"1b4091b4-9da5-4e08-a623-15bd0eb83e75","system_id":"levelo_inurba_marseille","lat":43.29294,"lon":5.37182,"is_reserved":false,"is_disabled":true,"rental_uris":{"android":"levelo://app?vid=1b4091b4-9da5-4e08-a623-15bd0eb83e75","ios":"levelo://app?vid=1b4091b4-9da5-4e08-a623-15bd0eb83e75"},"vehicle_type_id":"4","last_reported":1733080018,"current_range_meters":4400,"station_id":"ce4bgh92rcd13ifvqb40","pricing_plan_id":"cebpf4jnsgd1na2vs0mg"},{"bike_id":"d943d960-7d9b-4964-9228-20089cd21664","system_id":"levelo_inurba_marseille","lat":43.32897,"lon":5.36444,"is_reserved":false,"is_disabled":false,"rental_uris":{"android":"levelo://app?vid=d943d960-7d9b-4964-9228-20089cd21664","ios":"levelo://app?vid=d943d960-7d9b-4964-9228-20089cd21664"},"vehicle_type_id":"4","last_reported":1733080018,"current_range_meters":14000,"station_id":"","pricing_plan_id":"cebpf4jnsgd1na2vs0mg"},{"bike_id":"23da5067-cac7-4ef3-9734-be333b976303","system_id":"levelo_inurba_marseille","lat":43.25487,"lon":5.37648,"is_reserved":false,"is_disabled":true,"rental_uris":{"android":"levelo://app?vid=23da5067-cac7-4ef3-9734-be333b976303","ios":"levelo://app?vid=23da5067-cac7-4ef3-9734-be333b976303"},"vehicle_type_id":"4","last_reported":1733080018,"current_range_meters":20400,"station_id":"ce4bhh12rcd13ifvqff0","pricing_plan_id":"cebpf4jnsgd1na2vs0mg"},{"bike_id":"351b542a-ec12-44b5-83df-87ed075e2411","system_id":"levelo_inurba_marseille","lat":43.30797,"lon":5.43519,"is_reserved":false,"is_disabled":true,"rental_uris":{"android":"levelo://app?vid=351b542a-ec12-44b5-83df-87ed075e2411","ios":"levelo://app?vid=351b542a-ec12-44b5-83df-87ed075e2411"},"vehicle_type_id":"4","last_reported":1733080018,"current_range_meters":1200,"station_id":"ce4bhph2rcd13ifvqheg","pricing_plan_id":"cebpf4jnsgd1na2vs0mg"},{"bike_id":"4c8517e5-8e21-4d97-84cd-eba65145819b","system_id":"levelo_inurba_marseille","lat":43.27989,"lon":5.40004,"is_reserved":false,"is_disabled":false,"rental_uris":{"android":"levelo://app?vid=4c8517e5-8e21-4d97-84cd-eba65145819b","ios":"levelo://app?vid=4c8517e5-8e21-4d97-84cd-eba65145819b"},"vehicle_type_id":"4","last_reported":1733080018,"current_range_meters":5600,"station_id":"ce4bho92rcd13ifvqh4g","pricing_plan_id":"cebpf4jnsgd1na2vs0mg"},{"bike_id":"03ff5f4c-4282-4e11-8ba1-b62529b6e6ac","system_id":"levelo_inurba_marseille","lat":43.28937,"lon":5.39626,"is_reserved":false,"is_disabled":false,"rental_uris":{"android":"levelo://app?vid=03ff5f4c-4282-4e11-8ba1-b62529b6e6ac","ios":"levelo://app?vid=03ff5f4c-4282-4e11-8ba1-b62529b6e6ac"},"vehicle_type_id":"4","last_reported":1733080018,"current_range_meters":31200,"station_id":"ce4bh3h2rcd13ifvqdn0","pricing_plan_id":"cebpf4jnsgd1na2vs0mg"},{"bike_id":"1788e664-6b60-4000-b120-ea5b630bb6c7","system_id":"levelo_inurba_marseille","lat":43.28612,"lon":5.35102,"is_reserved":false,"is_disabled":true,"rental_uris":{"android":"levelo://app?vid=1788e664-6b60-4000-b120-ea5b630bb6c7","ios":"levelo://app?vid=1788e664-6b60-4000-b120-ea5b630bb6c7"},"vehicle_type_id":"4","last_reported":1733080018,"current_range_meters":31200,"station_id":"ce4bhch2rcd13ifvqeug","pricing_plan_id":"cebpf4jnsgd1na2vs0mg"},{"bike_id":"d4be16d0-4128-4fc5-b1fd-6376b07f7477","system_id":"levelo_inurba_marseille","lat":43.29551,"lon":5.37518,"is_reserved":false,"is_disabled":true,"rental_uris":{"android":"levelo://app?vid=d4be16d0-4128-4fc5-b1fd-6376b07f7477","ios":"levelo://app?vid=d4be16d0-4128-4fc5-b1fd-6376b07f7477"},"vehicle_type_id":"4","last_reported":1733080018,"current_range_meters":800,"station_id":"ce4bgh92rcd13ifvqb50","pricing_plan_id":"cebpf4jnsgd1na2vs0mg"},{"bike_id":"f9a63393-5401-4f98-ae5a-dfbb8291ab6d","system_id":"levelo_inurba_marseille","lat":43.3004,"lon":5.37551,"is_reserved":false,"is_disabled":true,"rental_uris":{"android":"levelo://app?vid=f9a63393-5401-4f98-ae5a-dfbb8291ab6d","ios":"levelo://app?vid=f9a63393-5401-4f98-ae5a-dfbb8291ab6d"},"vehicle_type_id":"4","last_reported":1733080018,"current_range_meters":0,"station_id":"","pricing_plan_id":"cebpf4jnsgd1na2vs0mg"},{"bike_id":"852026fb-ebf7-44fa-8a30-d11af41f673e","system_id":"levelo_inurba_marseille","lat":43.28573,"lon":5.39495,"is_reserved":false,"is_disabled":false,"rental_uris":{"android":"levelo://app?vid=852026fb-ebf7-44fa-8a30-d11af41f673e","ios":"levelo://app?vid=852026fb-ebf7-44fa-8a30-d11af41f673e"},"vehicle_type_id":"4","last_reported":1733080018,"current_range_meters":8800,"station_id":"ce4bh292rcd13ifvqdg0","pricing_plan_id":"cebpf4jnsgd1na2vs0mg"},{"bike_id":"803b0776-3224-4814-bae1-7ba14280c558","system_id":"levelo_inurba_marseille","lat":43.27207,"lon":5.3917,"is_reserved":false,"is_disabled":false,"rental_uris":{"android":"levelo://app?vid=803b0776-3224-4814-bae1-7ba14280c558","ios":"levelo://app?vid=803b0776-3224-4814-bae1-7ba14280c558"},"vehicle_type_id":"4","last_reported":1733080018,"current_range_meters":10000,"station_id":"ce4bhhp2rcd13ifvqfm0","pricing_plan_id":"cebpf4jnsgd1na2vs0mg"},{"bike_id":"3b415b63-7f1b-4798-93dd-db4da30c2c59","system_id":"levelo_inurba_marseille","lat":43.24805,"lon":5.37446,"is_reserved":false,"is_disabled":false,"rental_uris":{"android":"levelo://app?vid=3b415b63-7f1b-4798-93dd-db4da30c2c59","ios":"levelo://app?vid=3b415b63-7f1b-4798-93dd-db4da30c2c59"},"vehicle_type_id":"4","last_reported":1733080018,"current_range_meters":8400,"station_id":"ce4bhgh2rcd13ifvqfb0","pricing_plan_id":"cebpf4jnsgd1na2vs0mg"},