{"last_updated":1744398474,"ttl":60,"version":"2.2","data":{"bikes":[{"bike_id":"972d7cf1-f540-4d54-b591-6e04788be507","system_id":"levelo_inurba_marseille","lat":43.295288,"lon":5.38546,"is_reserved":false,"is_disabled":false,"rental_uris":{"android":"levelo://app?vid=972d7cf1-f540-4d54-b591-6e04788be507","ios":"levelo://app?vid=972d7cf1-f540-4d54-b591-6e04788be507"},"vehicle_type_id":"4","last_reported":1744398474,"current_range_meters":2800,"station_id":"ce4bgih2rcd13ifvqba0","pricing_plan_id":"cebpf4jnsgd1na2vs0mg"},{"bike_id":"e6024a4c-3710-458f-adf8-cec2268bbe73","system_id":"levelo_inurba_marseille","lat":43.29259,"lon":5.38439,"is_reserved":false,"is_disabled":false,"rental_uris":{"android":"levelo://app?vid=e6024a4c-3710-458f-adf8-cec2268bbe73","ios":"levelo://app?vid=e6024a4c-3710-458f-adf8-cec2268bbe73"},"vehicle_type_id":"4","last_reported":1744398474,"current_range_meters":2800,"station_id":"ce4bh692rcd13ifvqea0","pricing_plan_id":"cebpf4jnsgd1na2vs0mg"},{"bike_id":"8876bb6f-718b-4e2b-a641-425e19acc0fc","system_id":"levelo_inurba_marseille","lat":43.27364,"lon":5.42182,"is_reserved":false,"is_disabled":false,"rental_uris":{"android":"levelo://app?vid=8876bb6f-718b-4e2b-a641-425e19acc0fc","ios":"levelo://app?vid=8876bb6f-718b-4e2b-a641-425e19acc0fc"},"vehicle_type_id":"4","last_reported":1744398474,"current_range_meters":2800,"station_id":"","pricing_plan_id":"cebpf4jnsgd1na2vs0mg"},{"bike_id":"829c4276-7208-4e36-967c-bd44d2c93309","system_id":"levelo_inurba_marseille","lat":43.29977,"lon":5.37185,"is_reserved":false,"is_disabled":false,"rental_uris":{"android":"levelo://app?vid=829c4276-7208-4e36-967c-bd44d2c93309","ios":"levelo://app?vid=829c4276-7208-4e36-967c-bd44d2c93309"},"vehicle_type_id":"4","last_reported":1744398474,"current_range_meters":3200,"station_id":"ce4bgr92rcd13ifvqc7g","pricing_plan_id":"cebpf4jnsgd1na2vs0mg"},{"bike_id":"a2f108d1-17f4-403a-9df9-f2d925ed8bc6","system_id":"levelo_inurba_marseille","lat":43.278303,"lon":5.392035,"is_reserved":false,"is_disabled":true,"rental_uris":{"android":"levelo://app?vid=a2f108d1-17f4-403a-9df9-f2d925ed8bc6","ios":"levelo://app?vid=a2f108d1-17f4-403a-9df9-f2d925ed8bc6"},"vehicle_type_id":"4","last_reported":1744398474,"current_range_meters":3200,"station_id":"ce4bhjp2rcd13ifvqga0","pricing_plan_id":"cebpf4jnsgd1na2vs0mg"},{"bike_id":"5aadc6f6-128a-487e-a3da-a2f87aa65a70","system_id":"levelo_inurba_marseille","lat":43.30262,"lon":5.40049,"is_reserved":false,"is_disabled":false,"rental_uris":{"android":"levelo://app?vid=5aadc6f6-128a-487e-a3da-a2f87aa65a70","ios":"levelo://app?vid=5aadc6f6-128a-487e-a3da-a2f87aa65a70"},"vehicle_type_id":"4","last_reported":1744398474,"current_range_meters":3200,"station_id":"ce4bgvh2rcd13ifvqcs0","pricing_plan_id":"cebpf4jnsgd1na2vs0mg"},{"bike_id":"ce7c9a35-7587-43cd-a5ff-c79b432e9f3d","system_id":"levelo_inurba_marseille","lat":43.29267,"lon":5.38439,"is_reserved":false,"is_disabled":false,"rental_uris":{"android":"levelo://app?vid=ce7c9a35-7587-43cd-a5ff-c79b432e9f3d","ios":"levelo://app?vid=ce7c9a35-7587-43cd-a5ff-c79b432e9f3d"},"vehicle_type_id":"4","last_reported":1744398474,"current_range_meters":3200,"station_id":"ce4bh692rcd13ifvqea0","pricing_plan_id":"cebpf4jnsgd1na2vs0mg"},{"bike_id":"d5019bf5-cf0b-405f-813e-e064eb0ffb33","system_id":"levelo_inurba_marseille","lat":43.2942,"lon":5.3863,"is_reserved":false,"is_disabled":false,"rental_uris":{"android":"levelo://app?vid=d5019bf5-cf0b-405f-813e-e064eb0ffb33","ios":"levelo://app?vid=d5019bf5-cf0b-405f-813e-e064eb0ffb33"},"vehicle_type_id":"4","last_reported":1744398474,"current_range_meters":3200,"station_id":"ce4bgrp2rcd13ifvqc9g","pricing_plan_id":"cebpf4jnsgd1na2vs0mg"},{"bike_id":"e538b848-c009-4e5e-a3e6-67442ff498bb","system_id":"levelo_inurba_marseille","lat":43.28721,"lon":5.37937,"is_reserved":false,"is_disabled":false,"rental_uris":{"android":"levelo://app?vid=e538b848-c009-4e5e-a3e6-67442ff498bb","ios":"levelo://app?vid=e538b848-c009-4e5e-a3e6-67442ff498bb"},"vehicle_type_id":"4","last_reported":1744398474,"current_range_meters":3200,"station_id":"ce4bh9p2rcd13ifvqec0","pricing_plan_id":"cebpf4jnsgd1na2vs0mg"},{"bike_id":"d88c33b5-4b95-489d-9a94-614b2685bed1","system_id":"levelo_inurba_marseille","lat":43.27948,"lon":5.41045,"is_reserved":false,"is_disabled":false,"rental_uris":{"android":"levelo://app?vid=d88c33b5-4b95-489d-9a94-614b2685bed1","ios":"levelo://app?vid=d88c33b5-4b95-489d-9a94-614b2685bed1"},"vehicle_type_id":"4","last_reported":1744398474,"current_range_meters":3600,"station_id":"ce4bhnp2rcd13ifvqh0g","pricing_plan_id":"cebpf4jnsgd1na2vs0mg"},{"bike_id":"75c1714a-4f40-4399-b8bb-8b94e3000e91","system_id":"levelo_inurba_marseille","lat":43.28349,"lon":5.38108,"is_reserved":false,"is_disabled":false,"rental_uris":{"android":"levelo://app?vid=75c1714a-4f40-4399-b8bb-8b94e3000e91","ios":"levelo://app?vid=75c1714a-4f40-4399-b8bb-8b94e3000e91"},"vehicle_type_id":"4","last_reported":1744398474,"current_range_meters":3600,"station_id":"ce4bh412rcd13ifvqdr0","pricing_plan_id":"cebpf4jnsgd1na2vs0mg"},{"bike_id":"bdcf1217-c586-4ccd-8dc2-3b9837bf041c","system_id":"levelo_inurba_marseille","lat":43.30652,"lon":5.40101,"is_reserved":false,"is_disabled":false,"rental_uris":{"android":"levelo://app?vid=bdcf1217-c586-4ccd-8dc2-3b9837bf041c","ios":"levelo://app?vid=bdcf1217-c586-4ccd-8dc2-3b9837bf041c"},"vehicle_type_id":"4","last_reported":1744398474,"current_range_meters":4000,"station_id":"ce4bh112rcd13ifvqda0","pricing_plan_id":"cebpf4jnsgd1na2vs0mg"},{"bike_id":"da192229-039a-41a6-9e78-93624a2b1fff","system_id":"levelo_inurba_marseille","lat":43.26064,"lon":5.39397,"is_reserved":false,"is_disabled":false,"rental_uris":{"android":"levelo://app?vid=da192229-039a-41a6-9e78-93624a2b1fff","ios":"levelo://app?vid=da192229-039a-41a6-9e78-93624a2b1fff"},"vehicle_type_id":"4","last_reported":1744398474,"current_range_meters":4000,"station_id":"ce4bhh92rcd13ifvqfj0","pricing_plan_id":"cebpf4jnsgd1na2vs0mg"},{"bike_id":"cc09bf02-9ac3-445b-8144-b3c7eaaa42dc","system_id":"levelo_inurba_marseille","lat":43.28693,"lon":5.37396,"is_reserved":false,"is_disabled":false,"rental_uris":{"android":"levelo://app?vid=cc09bf02-9ac3-445b-8144-b3c7eaaa42dc","ios":"levelo://app?vid=cc09bf02-9ac3-445b-8144-b3c7eaaa42dc"},"vehicle_type_id":"4","last_reported":1744398474,"current_range_meters":4000,"station_id":"ce4bh3p2rcd13ifvqdq0","pricing_plan_id":"cebpf4jnsgd1na2vs0mg"},{"bike_id":"43bf4b78-0a19-4de7-84de-457393fd0c26","system_id":"levelo_inurba_marseille","lat":43.29422,"lon":5.38632,"is_reserved":false,"is_disabled":false,"rental_uris":{"android":"levelo://app?vid=43bf4b78-0a19-4de7-84de-457393fd0c26","ios":"levelo://app?vid=43bf4b78-0a19-4de7-84de-457393fd0c26"},"vehicle_type_id":"4","last_reported":1744398474,"current_range_meters":4000,"station_id":"ce4bh2h2rcd13ifvqdh0","pricing_plan_id":"cebpf4jnsgd1na2vs0mg"},{"bike_id":"cf3a5130-3b70-4eeb-87c4-1dd8203b5800","system_id":"levelo_inurba_marseille","lat":43.27423,"lon":5.39415,"is_reserved":false,"is_disabled":false,"rental_uris":{"android":"levelo://app?vid=cf3a5130-3b70-4eeb-87c4-1dd8203b5800","ios":"levelo://app?vid=cf3a5130-3b70-4eeb-87c4-1dd8203b5800"},"vehicle_type_id":"4","last_reported":1744398474,"current_range_meters":4000,"station_id":"ce4bhdp2rcd13ifvqf20","pricing_plan_id":"cebpf4jnsgd1na2vs0mg"},{"bike_id":"a877a4ec-c1c9-4e43-9b2b-4d036f7332ee","system_id":"levelo_inurba_marseille","lat":43.287014,"lon":5.373938,"is_reserved":false,"is_disabled":false,"rental_uris":{"android":"levelo://app?vid=a877a4ec-c1c9-4e43-9b2b-4d036f7332ee","ios":"levelo://app?vid=a877a4ec-c1c9-4e43-9b2b-4d036f7332ee"},"vehicle_type_id":"4","last_reported":1744398474,"current_range_meters":4000,"station_id":"ce4bh3p2rcd13ifvqdq0","pricing_plan_id":"cebpf4jnsgd1na2vs0mg"},{"bike_id":"ab1ddce9-e2a7-4b82-baf9-acc19be2a170","system_id":"levelo_inurba_marseille","lat":43.29873,"lon":5.39735,"is_reserved":false,"is_disabled":false,"rental_uris":{"android":"levelo://app?vid=ab1ddce9-e2a7-4b82-baf9-acc19be2a170","ios":"levelo://app?vid=ab1ddce9-e2a7-4b82-baf9-acc19be2a170"},"vehicle_type_id":"4","last_reported":1744398474,"current_range_meters":4400,"station_id":"ce4bh0h2rcd13ifvqd50","pricing_plan_id":"cebpf4jnsgd1na2vs0mg"},{"bike_id":"e43e1550-0df6-4b49-90dd-6a5430351b68","system_id":"levelo_inurba_marseille","lat":43.27319,"lon":5.39081,"is_reserved":false,"is_disabled":false,"rental_uris":{"android":"levelo://app?vid=e43e1550-0df6-4b49-90dd-6a5430351b68","ios":"levelo://app?vid=e43e1550-0df6-4b49-90dd-6a5430351b68"},"vehicle_type_id":"4","last_reported":1744398474,"current_range_meters":4400,"station_id":"ce4bhgp2rcd13ifvqfe0","pricing_plan_id":"cebpf4jnsgd1na2vs0mg"},{"bike_id":"84a7c389-35b3-4ae2-b8ca-50719c24877f","system_id":"levelo_inurba_marseille","lat":43.31166,"lon":5.3873,"is_reserved":false,"is_disabled":false,"rental_uris":{"android":"levelo://app?vid=84a7c389-35b3-4ae2-b8ca-50719c24877f","ios":"levelo://app?vid=84a7c389-35b3-4ae2-b8ca-50719c24877f"},"vehicle_type_id":"4","last_reported":1744398474,"current_range_meters":0,"station_id":"ce4bgv12rcd13ifvqcp0","pricing_plan_id":"cebpf4jnsgd1na2vs0mg"},{"bike_id":"08106fdb-5fac-4f13-8619-8d4810df3d0b","system_id":"levelo_inurba_marseille","lat":43.29709,"lon":5.37694,"is_reserved":false,"is_disabled":false,"rental_uris":{"android":"levelo://app?vid=08106fdb-5fac-4f13-8619-8d4810df3d0b","ios":"levelo://app?vid=08106fdb-5fac-4f13-8619-8d4810df3d0b"},"vehicle_type_id":"4","last_reported":1744398474,"current_range_meters":3600,"station_id":"ce4bgkh2rcd13ifvqbl0","pricing_plan_id":"cebpf4jnsgd1na2vs0mg"},{"bike_id":"564e540a-3dbd-4f47-aa4e-409da38682fc","system_id":"levelo_inurba_marseille","lat":43.29102,"lon":5.3814,"is_reserved":false,"is_disabled":false,"rental_uris":{"android":"levelo://app?vid=564e540a-3dbd-4f47-aa4e-409da38682fc","ios":"levelo://app?vid=564e540a-3dbd-4f47-aa4e-409da38682fc"},"vehicle_type_id":"4","last_reported":1744398474,"current_range_meters":4400,"station_id":"ce4bh512rcd13ifvqe2g","pricing_plan_id":"cebpf4jnsgd1na2vs0mg"},{"bike_id":"95e3e0df-9989-4a31-a3b1-49cbf83931b7","system_id":"levelo_inurba_marseille","lat":43.29862,"lon":5.39743,"is_reserved":false,"is_disabled":false,"rental_uris":{"android":"levelo://app?vid=95e3e0df-9989-4a31-a3b1-49cbf83931b7","ios":"levelo://app?vid=95e3e0df-9989-4a31-a3b1-49cbf83931b7"},"vehicle_type_id":"4","last_reported":1744398474,"current_range_meters":4400,"station_id":"ce4bh0h2rcd13ifvqd50","pricing_plan_id":"cebpf4jnsgd1na2vs0mg"},{"bike_id":"e3f3d882-a061-4c2b-b753-9b697d28b03d","system_id":"levelo_inurba_marseille","lat":43.29185,"lon":5.37133,"is_reserved":false,"is_disabled":false,"rental_uris":{"android":"levelo://app?vid=e3f3d882-a061-4c2b-b753-9b697d28b03d","ios":"levelo://app?vid=e3f3d882-a061-4c2b-b753-9b697d28b03d"},"vehicle_type_id":"4","last_reported":1744398474,"current_range_meters":4000,"station_id":"ce4bha92rcd13ifvqeh0","pricing_plan_id":"cebpf4jnsgd1na2vs0mg"},{"bike_id":"651398ac-c70b-4ad0-95aa-14f7c75e7554","system_id":"levelo_inurba_marseille","lat":43.27991,"lon":5.4166,"is_reserved":false,"is_disabled":false,"rental_uris":{"android":"levelo://app?vid=651398ac-c70b-4ad0-95aa-14f7c75e7554","ios":"levelo://app?vid=651398ac-c70b-4ad0-95aa-14f7c75e7554"},"vehicle_type_id":"4","last_reported":1744398474,"current_range_meters":4400,"station_id":"ce4bho12rcd13ifvqh1g","pricing_plan_id":"cebpf4jnsgd1na2vs0mg"},{"bike_id":"c4b8ae05-05df-4d4d-8e9c-82ae4fdf85b9","system_id":"levelo_inurba_marseille","lat":43.300319,"lon":5.401309,"is_reserved":false,"is_disabled":false,"rental_uris":{"android":"levelo://app?vid=c4b8ae05-05df-4d4d-8e9c-82ae4fdf85b9","ios":"levelo://app?vid=c4b8ae05-05df-4d4d-8e9c-82ae4fdf85b9"},"vehicle_type_id":"4","last_reported":1744398474,"current_range_meters":4400,"station_id":"ce4bh3h2rcd13ifvqdn0","pricing_plan_id":"cebpf4jnsgd1na2vs0mg"},{"bike_id":"9acb0c63-d119-4810-94aa-e306fdcee828","system_id":"levelo_inurba_marseille","lat":43.24162,"lon":5.36412,"is_reserved":false,"is_disabled":false,"rental_uris":{"android":"levelo://app?vid=9acb0c63-d119-4810-94aa-e306fdcee828","ios":"levelo://app?vid=9acb0c63-d119-4810-94aa-e306fdcee828"},"vehicle_type_id":"4","last_reported":1744398474,"current_range_meters":4800,"station_id":"cpo36qri1sfpv3e86is0","pricing_plan_id":"cebpf4jnsgd1na2vs0mg"},{"bike_id":"15e9efe5-d6e2-4790-bd2e-18d8717868ea","system_id":"levelo_inurba_marseille","lat":43.26946,"lon":5.38924,"is_reserved":false,"is_disabled":false,"rental_uris":{"android":"levelo://app?vid=15e9efe5-d6e2-4790-bd2e-18d8717868ea","ios":"levelo://app?vid=15e9efe5-d6e2-4790-bd2e-18d8717868ea"},"vehicle_type_id":"4","last_reported":1744398474,"current_range_meters":4800,"station_id":"ce4bhhh2rcd13ifvqfl0","pricing_plan_id":"cebpf4jnsgd1na2vs0mg"},{"bike_id":"43919282-8415-4548-9d34-ef01e7d65dd2","system_id":"levelo_inurba_marseille","lat":43.284637,"lon":5.358783,"is_reserved":false,"is_disabled":false,"rental_uris":{"android":"levelo://app?vid=43919282-8415-4548-9d34-ef01e7d65dd2","ios":"levelo://app?vid=43919282-8415-4548-9d34-ef01e7d65dd2"},"vehicle_type_id":"4","last_reported":1744398474,"current_range_meters":4800,"station_id":"ce4bhah2rcd13ifvqei0","pricing_plan_id":"cebpf4jnsgd1na2vs0mg"},{"bike_id":"ad5bbeb5-b175-4456-9ab5-bdd742bad993","system_id":"levelo_inurba_marseille","lat":43.30334,"lon":5.40445,"is_reserved":false,"is_disabled":false,"rental_uris":{"android":"levelo://app?vid=ad5bbeb5-b175-4456-9ab5-bdd742bad993","ios":"levelo://app?vid=ad5bbeb5-b175-4456-9ab5-bdd742bad993"},"vehicle_type_id":"4","last_reported":1744398474,"current_range_meters":4800,"station_id":"ce4bh012rcd13ifvqd10","pricing_plan_id":"cebpf4jnsgd1na2vs0mg"},{"bike_id":"6a582fb9-1f30-4baf-8a92-7c21d9d8d42c","system_id":"levelo_inurba_marseille","lat":43.2894,"lon":5.39633,"is_reserved":false,"is_disabled":false,"rental_uris":{"android":"levelo://app?vid=6a582fb9-1f30-4baf-8a92-7c21d9d8d42c","ios":"levelo://app?vid=6a582fb9-1f30-4baf-8a92-7c21d9d8d42c"},"vehicle_type_id":"4","last_reported":1744398474,"current_range_meters":4800,"station_id":"ce4bh3h2rcd13ifvqdn0","pricing_plan_id":"cebpf4jnsgd1na2vs0mg"},{"bike_id":"b3d0094b-b0ec-4270-90ed-56652ba3feed","system_id":"levelo_inurba_marseille","lat":43.233154,"lon":5.361545,"is_reserved":false,"is_disabled":false,"rental_uris":{"android":"levelo://app?vid=b3d0094b-b0ec-4270-90ed-56652ba3feed","ios":"levelo://app?vid=b3d0094b-b0ec-4270-90ed-56652ba3feed"},"vehicle_type_id":"4","last_reported":1744398474,"current_range_meters":4800,"station_id":"","pricing_plan_id":"cebpf4jnsgd1na2vs0mg"},{"bike_id":"8a83f623-9307-490d-9ca9-ab9f7fd82fd0","system_id":"levelo_inurba_marseille","lat":43.273824,"lon":5.362635,"is_reserved":false,"is_disabled":false,"rental_uris":{"android":"levelo://app?vid=8a83f623-9307-490d-9ca9-ab9f7fd82fd0","ios":"levelo://app?vid=8a83f623-9307-490d-9ca9-ab9f7fd82fd0"},"vehicle_type_id":"4","last_reported":1744398474,"current_range_meters":4800,"station_id":"ce4bhbh2rcd13ifvqeo0","pricing_plan_id":"cebpf4jnsgd1na2vs0mg"},{"bike_id":"4f79d90b-d4eb-4826-b112-23f8b8fbd295","system_id":"levelo_inurba_marseille","lat":43.29358,"lon":5.40122,"is_reserved":false,"is_disabled":false,"rental_uris":{"android":"levelo://app?vid=4f79d90b-d4eb-4826-b112-23f8b8fbd295","ios":"levelo://app?vid=4f79d90b-d4eb-4826-b112-23f8b8fbd295"},"vehicle_type_id":"4","last_reported":1744398474,"current_range_meters":4800,"station_id":"","pricing_plan_id":"cebpf4jnsgd1na2vs0mg"},{"bike_id":"6440a07b-0590-4bfd-adea-cffd9b6573a8","system_id":"levelo_inurba_marseille","lat":43.286682,"lon":5.386612,"is_reserved":false,"is_disabled":false,"rental_uris":{"android":"levelo://app?vid=6440a07b-0590-4bfd-adea-cffd9b6573a8","ios":"levelo://app?vid=6440a07b-0590-4bfd-adea-cffd9b6573a8"},"vehicle_type_id":"4","last_reported":1744398474,"current_range_meters":4800,"station_id":"","pricing_plan_id":"cebpf4jnsgd1na2vs0mg"},{"bike_id":"6213286c-6bcb-440b-8c01-6d449bd55cf4","system_id":"levelo_inurba_marseille","lat":43.29418,"lon":5.38629,"is_reserved":false,"is_disabled":false,"rental_uris":{"android":"levelo://app?vid=6213286c-6bcb-440b-8c01-6d449bd55cf4","ios":"levelo://app?vid=6213286c-6bcb-440b-8c01-6d449bd55cf4"},"vehicle_type_id":"4","last_reported":1744398474,"current_range_meters":5600,"station_id":"ce4bh2h2rcd13ifvqdh0","pricing_plan_id":"cebpf4jnsgd1na2vs0mg"},{"bike_id":"f8ef6c41-1f8f-4764-b1af-171a8bd0b2a4","system_id":"levelo_inurba_marseille","lat":43.29974,"lon":5.38492,"is_reserved":false,"is_disabled":false,"rental_uris":{"android":"levelo://app?vid=f8ef6c41-1f8f-4764-b1af-171a8bd0b2a4","ios":"levelo://app?vid=f8ef6c41-1f8f-4764-b1af-171a8bd0b2a4"},"vehicle_type_id":"4","last_reported":1744398474,"current_range_meters":5600,"station_id":"ce4bgj92rcd13ifvqbd0","pricing_plan_id":"cebpf4jnsgd1na2vs0mg"},{"bike_id":"aad8e07e-fcea-452e-8563-d8b4a9b7a574","system_id":"levelo_inurba_marseille","lat":43.2757,"lon":5.38429,"is_reserved":false,"is_disabled":false,"rental_uris":{"android":"levelo://app?vid=aad8e07e-fcea-452e-8563-d8b4a9b7a574","ios":"levelo://app?vid=aad8e07e-fcea-452e-8563-d8b4a9b7a574"},"vehicle_type_id":"4","last_reported":1744398474,"current_range_meters":5600,"station_id":"ce4bhh92rcd13ifvqfi0","pricing_plan_id":"cebpf4jnsgd1na2vs0mg"},{"bike_id":"00046bd2-bebc-4aa0-87b8-c4154ca78e75","system_id":"levelo_inurba_marseille","lat":43.29274,"lon":5.36842,"is_reserved":false,"is_disabled":false,"rental_uris":{"android":"levelo://app?vid=00046bd2-bebc-4aa0-87b8-c4154ca78e75","ios":"levelo://app?vid=00046bd2-bebc-4aa0-87b8-c4154ca78e75"},"vehicle_type_id":"4","last_reported":1744398474,"current_range_meters":5600,"station_id":"ce4bhbp2rcd13ifvqesg","pricing_plan_id":"cebpf4jnsgd1na2vs0mg"},{"bike_id":"85638737-f3fa-4f6b-b6cf-7cf5c2579829","system_id":"levelo_inurba_marseille","lat":43.27963,"lon":5.38746,"is_reserved":false,"is_disabled":false,"rental_uris":{"android":"levelo://app?vid=85638737-f3fa-4f6b-b6cf-7cf5c2579829","ios":"levelo://app?vid=85638737-f3fa-4f6b-b6cf-7cf5c2579829"},"vehicle_type_id":"4","last_reported":1744398474,"current_range_meters":5600,"station_id":"ce4bhg12rcd13ifvqf80","pricing_plan_id":"cebpf4jnsgd1na2vs0mg"},{"bike_id":"1bdd8366-9e0a-40a8-b156-b39046ba5505","system_id":"levelo_inurba_marseille","lat":43.30546,"lon":5.367,"is_reserved":false,"is_disabled":false,"rental_uris":{"android":"levelo://app?vid=1bdd8366-9e0a-40a8-b156-b39046ba5505","ios":"levelo://app?vid=1bdd8366-9e0a-40a8-b156-b39046ba5505"},"vehicle_type_id":"4","last_reported":1744398474,"current_range_meters":6000,"station_id":"ce4bgrp2rcd13ifvqc9g","pricing_plan_id":"cebpf4jnsgd1na2vs0mg"},{"bike_id":"a707835c-8238-4eae-9e24-a8ed6663149d","system_id":"levelo_inurba_marseille","lat":43.2781,"lon":5.40714,"is_reserved":false,"is_disabled":false,"rental_uris":{"android":"levelo://app?vid=a707835c-8238-4eae-9e24-a8ed6663149d","ios":"levelo://app?vid=a707835c-8238-4eae-9e24-a8ed6663149d"},"vehicle_type_id":"4","last_reported":1744398474,"current_range_meters":6000,"station_id":"ce4bhnh2rcd13ifvqgtg","pricing_plan_id":"cebpf4jnsgd1na2vs0mg"},{"bike_id":"ca047318-7c0d-4316-bc60-22bd92c29d16","system_id":"levelo_inurba_marseille","lat":43.28624,"lon":5.35115,"is_reserved":false,"is_disabled":false,"rental_uris":{"android":"levelo://app?vid=ca047318-7c0d-4316-bc60-22bd92c29d16","ios":"levelo://app?vid=ca047318-7c0d-4316-bc60-22bd92c29d16"},"vehicle_type_id":"4","last_reported":1744398474,"current_range_meters":6000,"station_id":"ce4bhch2rcd13ifvqeug","pricing_plan_id":"cebpf4jnsgd1na2vs0mg"},{"bike_id":"33152505-c727-4231-a01f-f74add47508c","system_id":"levelo_inurba_marseille","lat":43.2866,"lon":5.3636,"is_reserved":false,"is_disabled":false,"rental_uris":{"android":"levelo://app?vid=33152505-c727-4231-a01f-f74add47508c","ios":"levelo://app?vid=33152505-c727-4231-a01f-f74add47508c"},"vehicle_type_id":"4","last_reported":1744398474,"current_range_meters":6400,"station_id":"ce4bhah2rcd13ifvqej0","pricing_plan_id":"cebpf4jnsgd1na2vs0mg"},{"bike_id":"1f1931dc-ca45-43df-bb99-8ca2d278bd56","system_id":"levelo_inurba_marseille","lat":43.24169,"lon":5.36405,"is_reserved":false,"is_disabled":false,"rental_uris":{"android":"levelo://app?vid=1f1931dc-ca45-43df-bb99-8ca2d278bd56","ios":"levelo://app?vid=1f1931dc-ca45-43df-bb99-8ca2d278bd56"},"vehicle_type_id":"4","last_reported":1744398474,"current_range_meters":6400,"station_id":"cpo36qri1sfpv3e86is0","pricing_plan_id":"cebpf4jnsgd1na2vs0mg"},{"bike_id":"684eda09-d981-4549-b9bd-f757113ef132","system_id":"levelo_inurba_marseille","lat":43.28431,"lon":5.35021,"is_reserved":false,"is_disabled":false,"rental_uris":{"android":"levelo://app?vid=684eda09-d981-4549-b9bd-f757113ef132","ios":"levelo://app?vid=684eda09-d981-4549-b9bd-f757113ef132"},"vehicle_type_id":"4","last_reported":1744398474,"current_range_meters":6400,"station_id":"ce4bhbh2rcd13ifvqepg","pricing_plan_id":"cebpf4jnsgd1na2vs0mg"},{"bike_id":"b7120879-602b-4464-8313-0eef588e845e","system_id":"levelo_inurba_marseille","lat":43.28943,"lon":5.36392,"is_reserved":false,"is_disabled":false,"rental_uris":{"android":"levelo://app?vid=b7120879-602b-4464-8313-0eef588e845e","ios":"levelo://app?vid=b7120879-602b-4464-8313-0eef588e845e"},"vehicle_type_id":"4","last_reported":1744398474,"current_range_meters":6400,"station_id":"ce4bhc92rcd13ifvqetg","pricing_plan_id":"cebpf4jnsgd1na2vs0mg"},{"bike_id":"cfcf17c7-b967-4cd5-b2ce-b78365d2fb0b","system_id":"levelo_inurba_marseille","lat":43.25818,"lon":5.39429,"is_reserved":false,"is_disabled":false,"rental_uris":{"android":"levelo://app?vid=cfcf17c7-b967-4cd5-b2ce-b78365d2fb0b","ios":"levelo://app?vid=cfcf17c7-b967-4cd5-b2ce-b78365d2fb0b"},"vehicle_type_id":"4","last_reported":1744398474,"current_range_meters":6400,"station_id":"ce4bhip2rcd13ifvqft0","pricing_plan_id":"cebpf4jnsgd1na2vs0mg"},{"bike_id":"d3f49d30-42b5-46be-be07-daf71d0b3dd3","system_id":"levelo_inurba_marseille","lat":43.255695,"lon":5.375938,"is_reserved":false,"is_disabled":false,"rental_uris":{"android":"levelo://app?vid=d3f49d30-42b5-46be-be07-daf71d0b3dd3","ios":"levelo://app?vid=d3f49d30-42b5-46be-be07-daf71d0b3dd3"},"vehicle_type_id":"4","last_reported":1744398474,"current_range_meters":6400,"station_id":"ce4bhh12rcd13ifvqff0","pricing_plan_id":"cebpf4jnsgd1na2vs0mg"},{"bike_id":"0e24dbe8-ce7b-437f-bb4a-9121dde27856","system_id":"levelo_inurba_marseille","lat":43.30248,"lon":5.40045,"is_reserved":false,"is_disabled":false,"rental_uris":{"android":"levelo://app?vid=0e24dbe8-ce7b-437f-bb4a-9121dde27856","ios":"levelo://app?vid=0e24dbe8-ce7b-437f-bb4a-9121dde27856"},"vehicle_type_id":"4","last_reported":1744398474,"current_range_meters":6400,"station_id":"ce4bgvh2rcd13ifvqcs0","pricing_plan_id":"cebpf4jnsgd1na2vs0mg"},{"bike_id":"a973824e-8b01-49fe-8ea8-15cf38e78a70","system_id":"levelo_inurba_marseille","lat":43.28956,"lon":5.37838,"is_reserved":false,"is_disabled":false,"rental_uris":{"android":"levelo://app?vid=a973824e-8b01-49fe-8ea8-15cf38e78a70","ios":"levelo://app?vid=a973824e-8b01-49fe-8ea8-15cf38e78a70"},"vehicle_type_id":"4","last_reported":1744398474,"current_range_meters":6400,"station_id":"ce4bh9p2rcd13ifvqed0","pricing_plan_id":"cebpf4jnsgd1na2vs0mg"},{"bike_id":"f6b721a1-7ab7-4c5b-932d-0f416eb30cbd","system_id":"levelo_inurba_marseille","lat":43.29419,"lon":5.38623,"is_reserved":false,"is_disabled":false,"rental_uris":{"android":"levelo://app?vid=f6b721a1-7ab7-4c5b-932d-0f416eb30cbd","ios":"levelo://app?vid=f6b721a1-7ab7-4c5b-932d-0f416eb30cbd"},"vehicle_type_id":"4","last_reported":1744398474,"current_range_meters":6400,"station_id":"ce4bh2h2rcd13ifvqdh0","pricing_plan_id":"cebpf4jnsgd1na2vs0mg"},{"bike_id":"cc5287f8-09a0-4374-ac67-e30ead826b59","system_id":"levelo_inurba_marseille","lat":43.241974,"lon":5.396879,"is_reserved":false,"is_disabled":false,"rental_uris":{"android":"levelo://app?vid=cc5287f8-09a0-4374-ac67-e30ead826b59","ios":"levelo://app?vid=cc5287f8-09a0-4374-ac67-e30ead826b59"},"vehicle_type_id":"4","last_reported":1744398474,"current_range_meters":6400,"station_id":"ce4bhip2rcd13ifvqft0","pricing_plan_id":"cebpf4jnsgd1na2vs0mg"},{"bike_id":"feb05de9-3bcb-466b-8cde-a09a0eae9cb4","system_id":"levelo_inurba_marseille","lat":43.29262,"lon":5.38432,"is_reserved":false,"is_disabled":false,"rental_uris":{"android":"levelo://app?vid=feb05de9-3bcb-466b-8cde-a09a0eae9cb4","ios":"levelo://app?vid=feb05de9-3bcb-466b-8cde-a09a0eae9cb4"},"vehicle_type_id":"4","last_reported":1744398474,"current_range_meters":6800,"station_id":"ce4bh692rcd13ifvqea0","pricing_plan_id":"cebpf4jnsgd1na2vs0mg"},{"bike_id":"c600472e-a1aa-4b7f-9555-92218f1fbc1c","system_id":"levelo_inurba_marseille","lat":43.30608,"lon":5.37228,"is_reserved":false,"is_disabled":false,"rental_uris":{"android":"levelo://app?vid=c600472e-a1aa-4b7f-9555-92218f1fbc1c","ios":"levelo://app?vid=c600472e-a1aa-4b7f-9555-92218f1fbc1c"},"vehicle_type_id":"4","last_reported":1744398474,"current_range_meters":6800,"station_id":"ce4bgqh2rcd13ifvqc4g","pricing_plan_id":"cebpf4jnsgd1na2vs0mg"},{"bike_id":"8a762d92-502c-4e6d-8537-a881b83582c0","system_id":"levelo_inurba_marseille","lat":43.29263,"lon":5.36828,"is_reserved":false,"is_disabled":false,"rental_uris":{"android":"levelo://app?vid=8a762d92-502c-4e6d-8537-a881b83582c0","ios":"levelo://app?vid=8a762d92-502c-4e6d-8537-a881b83582c0"},"vehicle_type_id":"4","last_reported":1744398474,"current_range_meters":6800,"station_id":"ce4bhbp2rcd13ifvqesg","pricing_plan_id":"cebpf4jnsgd1na2vs0mg"},{"bike_id":"0f8922a5-af19-4127-9e11-dee95a909f9b","system_id":"levelo_inurba_marseille","lat":43.27965,"lon":5.38738,"is_reserved":false,"is_disabled":false,"rental_uris":{"android":"levelo://app?vid=0f8922a5-af19-4127-9e11-dee95a909f9b","ios":"levelo://app?vid=0f8922a5-af19-4127-9e11-dee95a909f9b"},"vehicle_type_id":"4","last_reported":1744398474,"current_range_meters":6800,"station_id":"ce4bhg12rcd13ifvqf80","pricing_plan_id":"cebpf4jnsgd1na2vs0mg"},{"bike_id":"4ff1679e-bc8e-4761-91df-0343ca65d83d","system_id":"levelo_inurba_marseille","lat":43.24806,"lon":5.37463,"is_reserved":false,"is_disabled":false,"rental_uris":{"android":"levelo://app?vid=4ff1679e-bc8e-4761-91df-0343ca65d83d","ios":"levelo://app?vid=4ff1679e-bc8e-4761-91df-0343ca65d83d"},"vehicle_type_id":"4","last_reported":1744398474,"current_range_meters":6800,"station_id":"ce4bhgh2rcd13ifvqfb0","pricing_plan_id":"cebpf4jnsgd1na2vs0mg"},{"bike_id":"985e787d-0e2d-4d10-9ed3-71e6e355c2a6","system_id":"levelo_inurba_marseille","lat":43.3019,"lon":5.36602,"is_reserved":false,"is_disabled":false,"rental_uris":{"android":"levelo://app?vid=985e787d-0e2d-4d10-9ed3-71e6e355c2a6","ios":"levelo://app?vid=985e787d-0e2d-4d10-9ed3-71e6e355c2a6"},"vehicle_type_id":"4","last_reported":1744398474,"current_range_meters":6800,"station_id":"ce4bgrh2rcd13ifvqc8g","pricing_plan_id":"cebpf4jnsgd1na2vs0mg"},{"bike_id":"9b124832-5aac-48fc-ab26-489a32057271","system_id":"levelo_inurba_marseille","lat":43.255003,"lon":5.376395,"is_reserved":false,"is_disabled":true,"rental_uris":{"android":"levelo://app?vid=9b124832-5aac-48fc-ab26-489a32057271","ios":"levelo://app?vid=9b124832-5aac-48fc-ab26-489a32057271"},"vehicle_type_id":"4","last_reported":1744398474,"current_range_meters":6800,"station_id":"ce4bhh12rcd13ifvqff0","pricing_plan_id":"cebpf4jnsgd1na2vs0mg"},{"bike_id":"5290b926-01ba-4595-9606-6fea8deb7070","system_id":"levelo_inurba_marseille","lat":43.31164,"lon":5.38726,"is_reserved":false,"is_disabled":false,"rental_uris":{"android":"levelo://app?vid=5290b926-01ba-4595-9606-6fea8deb7070","ios":"levelo://app?vid=5290b926-01ba-4595-9606-6fea8deb7070"},"vehicle_type_id":"4","last_reported":1744398474,"current_range_meters":6800,"station_id":"ce4bgv12rcd13ifvqcp0","pricing_plan_id":"cebpf4jnsgd1na2vs0mg"},{"bike_id":"32726013-757e-4d24-9225-04536f20d299","system_id":"levelo_inurba_marseille","lat":43.26202,"lon":5.37454,"is_reserved":false,"is_disabled":true,"rental_uris":{"android":"levelo://app?vid=32726013-757e-4d24-9225-04536f20d299","ios":"levelo://app?vid=32726013-757e-4d24-9225-04536f20d299"},"vehicle_type_id":"4","last_reported":1744398474,"current_range_meters":7200,"station_id":"ce4bhgp2rcd13ifvqfc0","pricing_plan_id":"cebpf4jnsgd1na2vs0mg"},{"bike_id":"62c1f836-7b45-44f7-9721-a260943a8081","system_id":"levelo_inurba_marseille","lat":43.27498,"lon":5.42453,"is_reserved":false,"is_disabled":false,"rental_uris":{"android":"levelo://app?vid=62c1f836-7b45-44f7-9721-a260943a8081","ios":"levelo://app?vid=62c1f836-7b45-44f7-9721-a260943a8081"},"vehicle_type_id":"4","last_reported":1744398474,"current_range_meters":7200,"station_id":"ce4bhn92rcd13ifvqgrg","pricing_plan_id":"cebpf4jnsgd1na2vs0mg"},{"bike_id":"6e40eb5f-e54d-4545-b7d0-eea247c0fdba","system_id":"levelo_inurba_marseille","lat":43.32037,"lon":5.41574,"is_reserved":false,"is_disabled":false,"rental_uris":{"android":"levelo://app?vid=6e40eb5f-e54d-4545-b7d0-eea247c0fdba","ios":"levelo://app?vid=6e40eb5f-e54d-4545-b7d0-eea247c0fdba"},"vehicle_type_id":"4","last_reported":1744398474,"current_range_meters":7200,"station_id":"ce4bhq92rcd13ifvqhkg","pricing_plan_id":"cebpf4jnsgd1na2vs0mg"},{"bike_id":"68561023-4fe3-400e-8aac-ba2ec9493cd7","system_id":"levelo_inurba_marseille","lat":43.28944,"lon":5.3663,"is_reserved":false,"is_disabled":false,"rental_uris":{"android":"levelo://app?vid=68561023-4fe3-400e-8aac-ba2ec9493cd7","ios":"levelo://app?vid=68561023-4fe3-400e-8aac-ba2ec9493cd7"},"vehicle_type_id":"4","last_reported":1744398474,"current_range_meters":7200,"station_id":"ce4bhap2rcd13ifvqek0","pricing_plan_id":"cebpf4jnsgd1na2vs0mg"},{"bike_id":"b3dfb2b2-c3e4-4cc3-aedd-b96d8a79bb3e","system_id":"levelo_inurba_marseille","lat":43.29264,"lon":5.38454,"is_reserved":false,"is_disabled":false,"rental_uris":{"android":"levelo://app?vid=b3dfb2b2-c3e4-4cc3-aedd-b96d8a79bb3e","ios":"levelo://app?vid=b3dfb2b2-c3e4-4cc3-aedd-b96d8a79bb3e"},"vehicle_type_id":"4","last_reported":1744398474,"current_range_meters":7200,"station_id":"ce4bh692rcd13ifvqea0","pricing_plan_id":"cebpf4jnsgd1na2vs0mg"},{"bike_id":"a8827283-5cb2-4c69-8f92-cabeabffb47c","system_id":"levelo_inurba_marseille","lat":43.24159,"lon":5.36402,"is_reserved":false,"is_disabled":false,"rental_uris":{"android":"levelo://app?vid=a8827283-5cb2-4c69-8f92-cabeabffb47c","ios":"levelo://app?vid=a8827283-5cb2-4c69-8f92-cabeabffb47c"},"vehicle_type_id":"4","last_reported":1744398474,"current_range_meters":7200,"station_id":"cpo36qri1sfpv3e86is0","pricing_plan_id":"cebpf4jnsgd1na2vs0mg"},{"bike_id":"ef417ade-fbca-4266-8675-0f9c7f4921d7","system_id":"levelo_inurba_marseille","lat":43.30129,"lon":5.39869,"is_reserved":false,"is_disabled":false,"rental_uris":{"android":"levelo://app?vid=ef417ade-fbca-4266-8675-0f9c7f4921d7","ios":"levelo://app?vid=ef417ade-fbca-4266-8675-0f9c7f4921d7"},"vehicle_type_id":"4","last_reported":1744398474,"current_range_meters":7200,"station_id":"ce4bh0h2rcd13ifvqd40","pricing_plan_id":"cebpf4jnsgd1na2vs0mg"},{"bike_id":"1300ccbe-0502-4cd2-a059-cb6bc0540df9","system_id":"levelo_inurba_marseille","lat":43.29959,"lon":5.41318,"is_reserved":false,"is_disabled":false,"rental_uris":{"android":"levelo://app?vid=1300ccbe-0502-4cd2-a059-cb6bc0540df9","ios":"levelo://app?vid=1300ccbe-0502-4cd2-a059-cb6bc0540df9"},"vehicle_type_id":"4","last_reported":1744398474,"current_range_meters":7200,"station_id":"ce4bhp12rcd13ifvqh9g","pricing_plan_id":"cebpf4jnsgd1na2vs0mg"},{"bike_id":"a5a7e515-279a-41fc-ba11-a62445552466","system_id":"levelo_inurba_marseille","lat":43.32368,"lon":5.38344,"is_reserved":false,"is_disabled":false,"rental_uris":{"android":"levelo://app?vid=a5a7e515-279a-41fc-ba11-a62445552466","ios":"levelo://app?vid=a5a7e515-279a-41fc-ba11-a62445552466"},"vehicle_type_id":"4","last_reported":1744398474,"current_range_meters":7200,"station_id":"","pricing_plan_id":"cebpf4jnsgd1na2vs0mg"},{"bike_id":"d69af9b5-563c-4da2-a80d-9693dc77d065","system_id":"levelo_inurba_marseille","lat":43.30258,"lon":5.40051,"is_reserved":false,"is_disabled":false,"rental_uris":{"android":"levelo://app?vid=d69af9b5-563c-4da2-a80d-9693dc77d065","ios":"levelo://app?vid=d69af9b5-563c-4da2-a80d-9693dc77d065"},"vehicle_type_id":"4","last_reported":1744398474,"current_range_meters":7200,"station_id":"ce4bgvh2rcd13ifvqcs0","pricing_plan_id":"cebpf4jnsgd1na2vs0mg"},{"bike_id":"23771eea-9d88-44e5-9c5f-2fa19ab61c93","system_id":"levelo_inurba_marseille","lat":43.24193,"lon":5.39732,"is_reserved":false,"is_disabled":false,"rental_uris":{"android":"levelo://app?vid=23771eea-9d88-44e5-9c5f-2fa19ab61c93","ios":"levelo://app?vid=23771eea-9d88-44e5-9c5f-2fa19ab61c93"},"vehicle_type_id":"4","last_reported":1744398474,"current_range_meters":7200,"station_id":"ce4bhn12rcd13ifvqgpg","pricing_plan_id":"cebpf4jnsgd1na2vs0mg"},{"bike_id":"2a90e39c-7239-4da6-993c-c56300ffa8a4","system_id":"levelo_inurba_marseille","lat":43.29703,"lon":5.36613,"is_reserved":false,"is_disabled":false,"rental_uris":{"android":"levelo://app?vid=2a90e39c-7239-4da6-993c-c56300ffa8a4","ios":"levelo://app?vid=2a90e39c-7239-4da6-993c-c56300ffa8a4"},"vehicle_type_id":"4","last_reported":1744398474,"current_range_meters":7200,"station_id":"ce4bgn12rcd13ifvqbt0","pricing_plan_id":"cebpf4jnsgd1na2vs0mg"},{"bike_id":"20b25f17-293e-4119-aa8f-1f1d3876b6c0","system_id":"levelo_inurba_marseille","lat":43.31074,"lon":5.38356,"is_reserved":false,"is_disabled":false,"rental_uris":{"android":"levelo://app?vid=20b25f17-293e-4119-aa8f-1f1d3876b6c0","ios":"levelo://app?vid=20b25f17-293e-4119-aa8f-1f1d3876b6c0"},"vehicle_type_id":"4","last_reported":1744398474,"current_range_meters":8000,"station_id":"ce4bgv92rcd13ifvqcr0","pricing_plan_id":"cebpf4jnsgd1na2vs0mg"},{"bike_id":"4dfcbbdb-21bd-4903-a39c-5ac3382badb3","system_id":"levelo_inurba_marseille","lat":43.30427,"lon":5.38898,"is_reserved":false,"is_disabled":false,"rental_uris":{"android":"levelo://app?vid=4dfcbbdb-21bd-4903-a39c-5ac3382badb3","ios":"levelo://app?vid=4dfcbbdb-21bd-4903-a39c-5ac3382badb3"},"vehicle_type_id":"4","last_reported":1744398474,"current_range_meters":8000,"station_id":"ce4bgk12rcd13ifvqbi0","pricing_plan_id":"cebpf4jnsgd1na2vs0mg"},{"bike_id":"5c76b398-7391-4048-96b1-bd4bf6cea932","system_id":"levelo_inurba_marseille","lat":43.240839,"lon":5.377527,"is_reserved":false,"is_disabled":true,"rental_uris":{"android":"levelo://app?vid=5c76b398-7391-4048-96b1-bd4bf6cea932","ios":"levelo://app?vid=5c76b398-7391-4048-96b1-bd4bf6cea932"},"vehicle_type_id":"4","last_reported":1744398474,"current_range_meters":8000,"station_id":"ce4bhnp2rcd13ifvqgvg","pricing_plan_id":"cebpf4jnsgd1na2vs0mg"},{"bike_id":"77e21fd9-d4c0-4f2d-9eac-a4ec4c0ac29d","system_id":"levelo_inurba_marseille","lat":43.27944,"lon":5.41044,"is_reserved":false,"is_disabled":false,"rental_uris":{"android":"levelo://app?vid=77e21fd9-d4c0-4f2d-9eac-a4ec4c0ac29d","ios":"levelo://app?vid=77e21fd9-d4c0-4f2d-9eac-a4ec4c0ac29d"},"vehicle_type_id":"4","last_reported":1744398474,"current_range_meters":8000,"station_id":"ce4bhnp2rcd13ifvqh0g","pricing_plan_id":"cebpf4jnsgd1na2vs0mg"},{"bike_id":"442dc811-42b4-4bc7-ad29-d412932d95c5","system_id":"levelo_inurba_marseille","lat":43.24173,"lon":5.39728,"is_reserved":false,"is_disabled":false,"rental_uris":{"android":"levelo://app?vid=442dc811-42b4-4bc7-ad29-d412932d95c5","ios":"levelo://app?vid=442dc811-42b4-4bc7-ad29-d412932d95c5"},"vehicle_type_id":"4","last_reported":1744398474,"current_range_meters":8000,"station_id":"ce4bhn12rcd13ifvqgpg","pricing_plan_id":"cebpf4jnsgd1na2vs0mg"},{"bike_id":"17fd4669-fc7f-4f26-9880-33d462aa22ef","system_id":"levelo_inurba_marseille","lat":43.29539,"lon":5.38539,"is_reserved":false,"is_disabled":false,"rental_uris":{"android":"levelo://app?vid=17fd4669-fc7f-4f26-9880-33d462aa22ef","ios":"levelo://app?vid=17fd4669-fc7f-4f26-9880-33d462aa22ef"},"vehicle_type_id":"4","last_reported":1744398474,"current_range_meters":8000,"station_id":"ce4bgih2rcd13ifvqba0","pricing_plan_id":"cebpf4jnsgd1na2vs0mg"},{"bike_id":"29ca4be3-ca71-4e9e-bf10-d7adceca3975","system_id":"levelo_inurba_marseille","lat":43.28939,"lon":5.36626,"is_reserved":false,"is_disabled":false,"rental_uris":{"android":"levelo://app?vid=29ca4be3-ca71-4e9e-bf10-d7adceca3975","ios":"levelo://app?vid=29ca4be3-ca71-4e9e-bf10-d7adceca3975"},"vehicle_type_id":"4","last_reported":1744398474,"current_range_meters":8000,"station_id":"ce4bhap2rcd13ifvqek0","pricing_plan_id":"cebpf4jnsgd1na2vs0mg"},{"bike_id":"c3281357-7df7-463c-b8e9-3cd6bb47d6cc","system_id":"levelo_inurba_marseille","lat":43.3229,"lon":5.38267,"is_reserved":false,"is_disabled":false,"rental_uris":{"android":"levelo://app?vid=c3281357-7df7-463c-b8e9-3cd6bb47d6cc","ios":"levelo://app?vid=c3281357-7df7-463c-b8e9-3cd6bb47d6cc"},"vehicle_type_id":"4","last_reported":1744398474,"current_range_meters":8000,"station_id":"ce4bhr12rcd13ifvqhqg","pricing_plan_id":"cebpf4jnsgd1na2vs0mg"},{"bike_id":"422e77b9-d230-4057-8e00-48b967f457a6","system_id":"levelo_inurba_marseille","lat":43.29302,"lon":5.37183,"is_reserved":false,"is_disabled":false,"rental_uris":{"android":"levelo://app?vid=422e77b9-d230-4057-8e00-48b967f457a6","ios":"levelo://app?vid=422e77b9-d230-4057-8e00-48b967f457a6"},"vehicle_type_id":"4","last_reported":1744398474,"current_range_meters":8000,"station_id":"ce4bgh92rcd13ifvqb40","pricing_plan_id":"cebpf4jnsgd1na2vs0mg"},{"bike_id":"a9f344a9-b5c4-4c6f-adc4-6177f6c8159a","system_id":"levelo_inurba_marseille","lat":43.32807,"lon":5.39759,"is_reserved":false,"is_disabled":false,"rental_uris":{"android":"levelo://app?vid=a9f344a9-b5c4-4c6f-adc4-6177f6c8159a","ios":"levelo://app?vid=a9f344a9-b5c4-4c6f-adc4-6177f6c8159a"},"vehicle_type_id":"4","last_reported":1744398474,"current_range_meters":8000,"station_id":"","pricing_plan_id":"cebpf4jnsgd1na2vs0mg"},{"bike_id":"629f5387-f4ea-4ff5-8edc-1026cd3b6fa9","system_id":"levelo_inurba_marseille","lat":43.28013,"lon":5.41704,"is_reserved":false,"is_disabled":false,"rental_uris":{"android":"levelo://app?vid=629f5387-f4ea-4ff5-8edc-1026cd3b6fa9","ios":"levelo://app?vid=629f5387-f4ea-4ff5-8edc-1026cd3b6fa9"},"vehicle_type_id":"4","last_reported":1744398474,"current_range_meters":8000,"station_id":"ce4bho12rcd13ifvqh1g","pricing_plan_id":"cebpf4jnsgd1na2vs0mg"},{"bike_id":"744d9e13-4644-4443-baa0-d58aa61dc002","system_id":"levelo_inurba_marseille","lat":43.24819,"lon":5.37451,"is_reserved":false,"is_disabled":false,"rental_uris":{"android":"levelo://app?vid=744d9e13-4644-4443-baa0-d58aa61dc002","ios":"levelo://app?vid=744d9e13-4644-4443-baa0-d58aa61dc002"},"vehicle_type_id":"4","last_reported":1744398474,"current_range_meters":8400,"station_id":"ce4bhgh2rcd13ifvqfb0","pricing_plan_id":"cebpf4jnsgd1na2vs0mg"},{"bike_id":"feacfb5b-9817-4c45-8657-8b220d76a824","system_id":"levelo_inurba_marseille","lat":43.27902,"lon":5.39599,"is_reserved":false,"is_disabled":false,"rental_uris":{"android":"levelo://app?vid=feacfb5b-9817-4c45-8657-8b220d76a824","ios":"levelo://app?vid=feacfb5b-9817-4c45-8657-8b220d76a824"},"vehicle_type_id":"4","last_reported":1744398474,"current_range_meters":8400,"station_id":"ce4bhf92rcd13ifvqf40","pricing_plan_id":"cebpf4jnsgd1na2vs0mg"},{"bike_id":"80663e12-6b64-446d-88c9-20255bde1a8a","system_id":"levelo_inurba_marseille","lat":43.30878,"lon":5.39637,"is_reserved":false,"is_disabled":true,"rental_uris":{"android":"levelo://app?vid=80663e12-6b64-446d-88c9-20255bde1a8a","ios":"levelo://app?vid=80663e12-6b64-446d-88c9-20255bde1a8a"},"vehicle_type_id":"4","last_reported":1744398474,"current_range_meters":8400,"station_id":"ce4bh012rcd13ifvqcv0","pricing_plan_id":"cebpf4jnsgd1na2vs0mg"},{"bike_id":"eb4c813d-f8bd-41d6-abd8-b2b1dab6da62","system_id":"levelo_inurba_marseille","lat":43.28402,"lon":5.35002,"is_reserved":false,"is_disabled":false,"rental_uris":{"android":"levelo://app?vid=eb4c813d-f8bd-41d6-abd8-b2b1dab6da62","ios":"levelo://app?vid=eb4c813d-f8bd-41d6-abd8-b2b1dab6da62"},"vehicle_type_id":"4","last_reported":1744398474,"current_range_meters":8400,"station_id":"ce4bhbh2rcd13ifvqepg","pricing_plan_id":"cebpf4jnsgd1na2vs0mg"},{"bike_id":"e1875257-f4a3-4a29-944e-de3afbb3cb92","system_id":"levelo_inurba_marseille","lat":43.29712,"lon":5.36613,"is_reserved":false,"is_disabled":false,"rental_uris":{"android":"levelo://app?vid=e1875257-f4a3-4a29-944e-de3afbb3cb92","ios":"levelo://app?vid=e1875257-f4a3-4a29-944e-de3afbb3cb92"},"vehicle_type_id":"4","last_reported":1744398474,"current_range_meters":8400,"station_id":"ce4bgn12rcd13ifvqbt0","pricing_plan_id":"cebpf4jnsgd1na2vs0mg"},{"bike_id":"ce5379c3-867f-46a7-8198-ae7944c218b4","system_id":"levelo_inurba_marseille","lat":43.31356,"lon":5.38499,"is_reserved":false,"is_disabled":false,"rental_uris":{"android":"levelo://app?vid=ce5379c3-867f-46a7-8198-ae7944c218b4","ios":"levelo://app?vid=ce5379c3-867f-46a7-8198-ae7944c218b4"},"vehicle_type_id":"4","last_reported":1744398474,"current_range_meters":8400,"station_id":"ce4bgt92rcd13ifvqcf0","pricing_plan_id":"cebpf4jnsgd1na2vs0mg"},{"bike_id":"f3a556c0-0315-4769-ad55-eb631e1d8146","system_id":"levelo_inurba_marseille","lat":43.26028,"lon":5.37551,"is_reserved":false,"is_disabled":false,"rental_uris":{"android":"levelo://app?vid=f3a556c0-0315-4769-ad55-eb631e1d8146","ios":"levelo://app?vid=f3a556c0-0315-4769-ad55-eb631e1d8146"},"vehicle_type_id":"4","last_reported":1744398474,"current_range_meters":8000,"station_id":"ce4bhgh2rcd13ifvqfa0","pricing_plan_id":"cebpf4jnsgd1na2vs0mg"},{"bike_id":"62eaf3a3-1f17-4aa4-bdad-9b824a3d0d2f","system_id":"levelo_inurba_marseille","lat":43.30601,"lon":5.37235,"is_reserved":false,"is_disabled":false,"rental_uris":{"android":"levelo://app?vid=62eaf3a3-1f17-4aa4-bdad-9b824a3d0d2f","ios":"levelo://app?vid=62eaf3a3-1f17-4aa4-bdad-9b824a3d0d2f"},"vehicle_type_id":"4","last_reported":1744398474,"current_range_meters":8400,"station_id":"ce4bgqh2rcd13ifvqc4g","pricing_plan_id":"cebpf4jnsgd1na2vs0mg"},{"bike_id":"820eae00-4001-4b93-98cd-bfbd5fc6ebfe","system_id":"levelo_inurba_marseille","lat":43.26796,"lon":5.40247,"is_reserved":false,"is_disabled":false,"rental_uris":{"android":"levelo://app?vid=820eae00-4001-4b93-98cd-bfbd5fc6ebfe","ios":"levelo://app?vid=820eae00-4001-4b93-98cd-bfbd5fc6ebfe"},"vehicle_type_id":"4","last_reported":1744398474,"current_range_meters":8400,"station_id":"ce501612rcd8frsf0b60","pricing_plan_id":"cebpf4jnsgd1na2vs0mg"},{"bike_id":"be0901b2-69ae-4110-bfbf-feb760f4d11e","system_id":"levelo_inurba_marseille","lat":43.31996,"lon":5.38153,"is_reserved":false,"is_disabled":false,"rental_uris":{"android":"levelo://app?vid=be0901b2-69ae-4110-bfbf-feb760f4d11e","ios":"levelo://app?vid=be0901b2-69ae-4110-bfbf-feb760f4d11e"},"vehicle_type_id":"4","last_reported":1744398474,"current_range_meters":8400,"station_id":"ce4bhr12rcd13ifvqhpg","pricing_plan_id":"cebpf4jnsgd1na2vs0mg"},{"bike_id":"22b60508-6540-4ddc-88f8-8c68d5d3c3e5","system_id":"levelo_inurba_marseille","lat":43.30793,"lon":5.38154,"is_reserved":false,"is_disabled":false,"rental_uris":{"android":"levelo://app?vid=22b60508-6540-4ddc-88f8-8c68d5d3c3e5","ios":"levelo://app?vid=22b60508-6540-4ddc-88f8-8c68d5d3c3e5"},"vehicle_type_id":"4","last_reported":1744398474,"current_range_meters":8400,"station_id":"ce4bgt12rcd13ifvqce0","pricing_plan_id":"cebpf4jnsgd1na2vs0mg"},{"bike_id":"a2ade16d-8581-4078-8188-c6c37a970ede","system_id":"levelo_inurba_marseille","lat":43.29604,"lon":5.38107,"is_reserved":false,"is_disabled":false,"rental_uris":{"android":"levelo://app?vid=a2ade16d-8581-4078-8188-c6c37a970ede","ios":"levelo://app?vid=a2ade16d-8581-4078-8188-c6c37a970ede"},"vehicle_type_id":"4","last_reported":1744398474,"current_range_meters":8800,"station_id":"ce4bgl12rcd13ifvqbo0","pricing_plan_id":"cebpf4jnsgd1na2vs0mg"},{"bike_id":"4eca02a2-148d-4a16-8601-a36b77b1877c","system_id":"levelo_inurba_marseille","lat":43.30132,"lon":5.39886,"is_reserved":false,"is_disabled":false,"rental_uris":{"android":"levelo://app?vid=4eca02a2-148d-4a16-8601-a36b77b1877c","ios":"levelo://app?vid=4eca02a2-148d-4a16-8601-a36b77b1877c"},"vehicle_type_id":"4","last_reported":1744398474,"current_range_meters":8800,"station_id":"ce4bh0h2rcd13ifvqd40","pricing_plan_id":"cebpf4jnsgd1na2vs0mg"},{"bike_id":"30e91c4e-1295-48e0-bdaf-c61a8672733c","system_id":"levelo_inurba_marseille","lat":43.27837,"lon":5.39208,"is_reserved":false,"is_disabled":false,"rental_uris":{"android":"levelo://app?vid=30e91c4e-1295-48e0-bdaf-c61a8672733c","ios":"levelo://app?vid=30e91c4e-1295-48e0-bdaf-c61a8672733c"},"vehicle_type_id":"4","last_reported":1744398474,"current_range_meters":8800,"station_id":"ce4bhjp2rcd13ifvqga0","pricing_plan_id":"cebpf4jnsgd1na2vs0mg"},{"bike_id":"eab6cbfa-cb8e-47d7-b0d6-226ab7facec7","system_id":"levelo_inurba_marseille","lat":43.31714,"lon":5.42403,"is_reserved":false,"is_disabled":true,"rental_uris":{"android":"levelo://app?vid=eab6cbfa-cb8e-47d7-b0d6-226ab7facec7","ios":"levelo://app?vid=eab6cbfa-cb8e-47d7-b0d6-226ab7facec7"},"vehicle_type_id":"4","last_reported":1744398474,"current_range_meters":8800,"station_id":"ce4bhp92rcd13ifvqhbg","pricing_plan_id":"cebpf4jnsgd1na2vs0mg"},{"bike_id":"f720b779-dab6-490b-ba7a-4f99672e7781","system_id":"levelo_inurba_marseille","lat":43.29261,"lon":5.3844,"is_reserved":false,"is_disabled":false,"rental_uris":{"android":"levelo://app?vid=f720b779-dab6-490b-ba7a-4f99672e7781","ios":"levelo://app?vid=f720b779-dab6-490b-ba7a-4f99672e7781"},"vehicle_type_id":"4","last_reported":1744398474,"current_range_meters":9200,"station_id":"ce4bh692rcd13ifvqea0","pricing_plan_id":"cebpf4jnsgd1na2vs0mg"},{"bike_id":"48af18f4-8db7-48be-8ce9-b7a0b9ae0516","system_id":"levelo_inurba_marseille","lat":43.31166,"lon":5.38728,"is_reserved":false,"is_disabled":false,"rental_uris":{"android":"levelo://app?vid=48af18f4-8db7-48be-8ce9-b7a0b9ae0516","ios":"levelo://app?vid=48af18f4-8db7-48be-8ce9-b7a0b9ae0516"},"vehicle_type_id":"4","last_reported":1744398474,"current_range_meters":9200,"station_id":"ce4bgv12rcd13ifvqcp0","pricing_plan_id":"cebpf4jnsgd1na2vs0mg"},{"bike_id":"66febbd1-05b2-4bc5-919c-b908399022d2","system_id":"levelo_inurba_marseille","lat":43.30152,"lon":5.38063,"is_reserved":false,"is_disabled":false,"rental_uris":{"android":"levelo://app?vid=66febbd1-05b2-4bc5-919c-b908399022d2","ios":"levelo://app?vid=66febbd1-05b2-4bc5-919c-b908399022d2"},"vehicle_type_id":"4","last_reported":1744398474,"current_range_meters":9200,"station_id":"ce4bgjp2rcd13ifvqbh0","pricing_plan_id":"cebpf4jnsgd1na2vs0mg"},{"bike_id":"d8aca2c5-a1f2-465e-b5ce-780efdbcc0fe","system_id":"levelo_inurba_marseille","lat":43.276184,"lon":5.361016,"is_reserved":false,"is_disabled":false,"rental_uris":{"android":"levelo://app?vid=d8aca2c5-a1f2-465e-b5ce-780efdbcc0fe","ios":"levelo://app?vid=d8aca2c5-a1f2-465e-b5ce-780efdbcc0fe"},"vehicle_type_id":"4","last_reported":1744398474,"current_range_meters":9200,"station_id":"chh1huq6cuj3fo74tm60","pricing_plan_id":"cebpf4jnsgd1na2vs0mg"},{"bike_id":"e6a9ee71-9aa9-40e0-9afe-897c88fa9571","system_id":"levelo_inurba_marseille","lat":43.2418,"lon":5.3641,"is_reserved":false,"is_disabled":false,"rental_uris":{"android":"levelo://app?vid=e6a9ee71-9aa9-40e0-9afe-897c88fa9571","ios":"levelo://app?vid=e6a9ee71-9aa9-40e0-9afe-897c88fa9571"},"vehicle_type_id":"4","last_reported":1744398474,"current_range_meters":9200,"station_id":"cpo36qri1sfpv3e86is0","pricing_plan_id":"cebpf4jnsgd1na2vs0mg"},{"bike_id":"a1db0f21-2138-4116-9f66-aa81f48e2ccb","system_id":"levelo_inurba_marseille","lat":43.241825,"lon":5.397311,"is_reserved":false,"is_disabled":false,"rental_uris":{"android":"levelo://app?vid=a1db0f21-2138-4116-9f66-aa81f48e2ccb","ios":"levelo://app?vid=a1db0f21-2138-4116-9f66-aa81f48e2ccb"},"vehicle_type_id":"4","last_reported":1744398474,"current_range_meters":9200,"station_id":"ce4bhn12rcd13ifvqgqg","pricing_plan_id":"cebpf4jnsgd1na2vs0mg"},{"bike_id":"244ddc7b-af7e-4adc-a0f0-e1bda8859843","system_id":"levelo_inurba_marseille","lat":43.30614,"lon":5.37205,"is_reserved":false,"is_disabled":false,"rental_uris":{"android":"levelo://app?vid=244ddc7b-af7e-4adc-a0f0-e1bda8859843","ios":"levelo://app?vid=244ddc7b-af7e-4adc-a0f0-e1bda8859843"},"vehicle_type_id":"4","last_reported":1744398474,"current_range_meters":9200,"station_id":"ce4bgqh2rcd13ifvqc4g","pricing_plan_id":"cebpf4jnsgd1na2vs0mg"},{"bike_id":"ffd15e07-93fa-4c58-969f-cd1e12271959","system_id":"levelo_inurba_marseille","lat":43.25479,"lon":5.37641,"is_reserved":false,"is_disabled":false,"rental_uris":{"android":"levelo://app?vid=ffd15e07-93fa-4c58-969f-cd1e12271959","ios":"levelo://app?vid=ffd15e07-93fa-4c58-969f-cd1e12271959"},"vehicle_type_id":"4","last_reported":1744398474,"current_range_meters":9200,"station_id":"ce4bhh12rcd13ifvqff0","pricing_plan_id":"cebpf4jnsgd1na2vs0mg"},{"bike_id":"4597b4c6-35bf-450c-9604-78fa5ca316d6","system_id":"levelo_inurba_marseille","lat":43.29372,"lon":5.37835,"is_reserved":false,"is_disabled":false,"rental_uris":{"android":"levelo://app?vid=4597b4c6-35bf-450c-9604-78fa5ca316d6","ios":"levelo://app?vid=4597b4c6-35bf-450c-9604-78fa5ca316d6"},"vehicle_type_id":"4","last_reported":1744398474,"current_range_meters":9200,"station_id":"ce4bgjh2rcd13ifvqbf0","pricing_plan_id":"cebpf4jnsgd1na2vs0mg"},{"bike_id":"52e0f718-e938-4435-8cd2-02a925563a63","system_id":"levelo_inurba_marseille","lat":43.28622,"lon":5.35103,"is_reserved":false,"is_disabled":false,"rental_uris":{"android":"levelo://app?vid=52e0f718-e938-4435-8cd2-02a925563a63","ios":"levelo://app?vid=52e0f718-e938-4435-8cd2-02a925563a63"},"vehicle_type_id":"4","last_reported":1744398474,"current_range_meters":9200,"station_id":"ce4bhch2rcd13ifvqeug","pricing_plan_id":"cebpf4jnsgd1na2vs0mg"},{"bike_id":"bc9b523e-4e05-4334-ab8f-2cac4926f675","system_id":"levelo_inurba_marseille","lat":43.30884,"lon":5.37188,"is_reserved":false,"is_disabled":false,"rental_uris":{"android":"levelo://app?vid=bc9b523e-4e05-4334-ab8f-2cac4926f675","ios":"levelo://app?vid=bc9b523e-4e05-4334-ab8f-2cac4926f675"},"vehicle_type_id":"4","last_reported":1744398474,"current_range_meters":9200,"station_id":"ce4bguh2rcd13ifvqckg","pricing_plan_id":"cebpf4jnsgd1na2vs0mg"},{"bike_id":"87f675b2-ec69-42d3-a7fb-72dd79865566","system_id":"levelo_inurba_marseille","lat":43.3117,"lon":5.38715,"is_reserved":false,"is_disabled":false,"rental_uris":{"android":"levelo://app?vid=87f675b2-ec69-42d3-a7fb-72dd79865566","ios":"levelo://app?vid=87f675b2-ec69-42d3-a7fb-72dd79865566"},"vehicle_type_id":"4","last_reported":1744398474,"current_range_meters":9200,"station_id":"ce4bgv12rcd13ifvqcp0","pricing_plan_id":"cebpf4jnsgd1na2vs0mg"},{"bike_id":"ec905f2c-5561-4565-988f-dd4cc2031041","system_id":"levelo_inurba_marseille","lat":43.26565,"lon":5.39013,"is_reserved":false,"is_disabled":false,"rental_uris":{"android":"levelo://app?vid=ec905f2c-5561-4565-988f-dd4cc2031041","ios":"levelo://app?vid=ec905f2c-5561-4565-988f-dd4cc2031041"},"vehicle_type_id":"4","last_reported":1744398474,"current_range_meters":9600,"station_id":"ce4bhe12rcd13ifvqf30","pricing_plan_id":"cebpf4jnsgd1na2vs0mg"},{"bike_id":"84891585-93a6-484e-9fb3-c6886ff08cf4","system_id":"levelo_inurba_marseille","lat":43.25105,"lon":5.40331,"is_reserved":false,"is_disabled":false,"rental_uris":{"android":"levelo://app?vid=84891585-93a6-484e-9fb3-c6886ff08cf4","ios":"levelo://app?vid=84891585-93a6-484e-9fb3-c6886ff08cf4"},"vehicle_type_id":"4","last_reported":1744398474,"current_range_meters":9600,"station_id":"ce4bhlh2rcd13ifvqgig","pricing_plan_id":"cebpf4jnsgd1na2vs0mg"},{"bike_id":"4a1148c9-6a71-4a20-bf2e-7e4deda19126","system_id":"levelo_inurba_marseille","lat":43.306003,"lon":5.372354,"is_reserved":false,"is_disabled":false,"rental_uris":{"android":"levelo://app?vid=4a1148c9-6a71-4a20-bf2e-7e4deda19126","ios":"levelo://app?vid=4a1148c9-6a71-4a20-bf2e-7e4deda19126"},"vehicle_type_id":"4","last_reported":1744398474,"current_range_meters":9600,"station_id":"ce4bgi92rcd13ifvqb90","pricing_plan_id":"cebpf4jnsgd1na2vs0mg"},{"bike_id":"66376279-ba73-48b4-a487-d1190ecb6896","system_id":"levelo_inurba_marseille","lat":43.275713,"lon":5.384291,"is_reserved":false,"is_disabled":false,"rental_uris":{"android":"levelo://app?vid=66376279-ba73-48b4-a487-d1190ecb6896","ios":"levelo://app?vid=66376279-ba73-48b4-a487-d1190ecb6896"},"vehicle_type_id":"4","last_reported":1744398474,"current_range_meters":9600,"station_id":"ce4bhh92rcd13ifvqfi0","pricing_plan_id":"cebpf4jnsgd1na2vs0mg"},{"bike_id":"788921b6-d940-4926-b734-c4dbf07655e0","system_id":"levelo_inurba_marseille","lat":43.29539,"lon":5.38542,"is_reserved":false,"is_disabled":false,"rental_uris":{"android":"levelo://app?vid=788921b6-d940-4926-b734-c4dbf07655e0","ios":"levelo://app?vid=788921b6-d940-4926-b734-c4dbf07655e0"},"vehicle_type_id":"4","last_reported":1744398474,"current_range_meters":9600,"station_id":"ce4bgih2rcd13ifvqba0","pricing_plan_id":"cebpf4jnsgd1na2vs0mg"},{"bike_id":"f76d12dc-ebdf-46e3-89d0-897a377cfadf","system_id":"levelo_inurba_marseille","lat":43.29246,"lon":5.38437,"is_reserved":false,"is_disabled":true,"rental_uris":{"android":"levelo://app?vid=f76d12dc-ebdf-46e3-89d0-897a377cfadf","ios":"levelo://app?vid=f76d12dc-ebdf-46e3-89d0-897a377cfadf"},"vehicle_type_id":"4","last_reported":1744398474,"current_range_meters":9600,"station_id":"ce4bh692rcd13ifvqea0","pricing_plan_id":"cebpf4jnsgd1na2vs0mg"},{"bike_id":"609158db-baea-44fc-858e-817d75f4a8c1","system_id":"levelo_inurba_marseille","lat":43.29246,"lon":5.38435,"is_reserved":false,"is_disabled":false,"rental_uris":{"android":"levelo://app?vid=609158db-baea-44fc-858e-817d75f4a8c1","ios":"levelo://app?vid=609158db-baea-44fc-858e-817d75f4a8c1"},"vehicle_type_id":"4","last_reported":1744398474,"current_range_meters":9600,"station_id":"ce4bh692rcd13ifvqea0","pricing_plan_id":"cebpf4jnsgd1na2vs0mg"},{"bike_id":"af22f593-e850-4574-9d13-478942466240","system_id":"levelo_inurba_marseille","lat":43.28721,"lon":5.3609,"is_reserved":false,"is_disabled":false,"rental_uris":{"android":"levelo://app?vid=af22f593-e850-4574-9d13-478942466240","ios":"levelo://app?vid=af22f593-e850-4574-9d13-478942466240"},"vehicle_type_id":"4","last_reported":1744398474,"current_range_meters":9600,"station_id":"cki0cbj6b192h4jlfktg","pricing_plan_id":"cebpf4jnsgd1na2vs0mg"},{"bike_id":"703a9388-a036-4512-a804-3f931fc7c369","system_id":"levelo_inurba_marseille","lat":43.30196,"lon":5.36626,"is_reserved":false,"is_disabled":false,"rental_uris":{"android":"levelo://app?vid=703a9388-a036-4512-a804-3f931fc7c369","ios":"levelo://app?vid=703a9388-a036-4512-a804-3f931fc7c369"},"vehicle_type_id":"4","last_reported":1744398474,"current_range_meters":9600,"station_id":"ce4bgrh2rcd13ifvqc8g","pricing_plan_id":"cebpf4jnsgd1na2vs0mg"},{"bike_id":"644b3197-0c32-4343-affc-6a2d9aa1b245","system_id":"levelo_inurba_marseille","lat":43.29527,"lon":5.38535,"is_reserved":false,"is_disabled":false,"rental_uris":{"android":"levelo://app?vid=644b3197-0c32-4343-affc-6a2d9aa1b245","ios":"levelo://app?vid=644b3197-0c32-4343-affc-6a2d9aa1b245"},"vehicle_type_id":"4","last_reported":1744398474,"current_range_meters":9600,"station_id":"ce4bgih2rcd13ifvqba0","pricing_plan_id":"cebpf4jnsgd1na2vs0mg"},{"bike_id":"ed107571-f5a1-42f2-afbc-4581e94ef7f9","system_id":"levelo_inurba_marseille","lat":43.29255,"lon":5.40904,"is_reserved":false,"is_disabled":false,"rental_uris":{"android":"levelo://app?vid=ed107571-f5a1-42f2-afbc-4581e94ef7f9","ios":"levelo://app?vid=ed107571-f5a1-42f2-afbc-4581e94ef7f9"},"vehicle_type_id":"4","last_reported":1744398474,"current_range_meters":9600,"station_id":"ce4bh192rcd13ifvqdc0","pricing_plan_id":"cebpf4jnsgd1na2vs0mg"},{"bike_id":"a8fb7889-c5f0-40d5-8854-1a41c2ceb681","system_id":"levelo_inurba_marseille","lat":43.29603,"lon":5.38107,"is_reserved":false,"is_disabled":false,"rental_uris":{"android":"levelo://app?vid=a8fb7889-c5f0-40d5-8854-1a41c2ceb681","ios":"levelo://app?vid=a8fb7889-c5f0-40d5-8854-1a41c2ceb681"},"vehicle_type_id":"4","last_reported":1744398474,"current_range_meters":10000,"station_id":"ce4bgl12rcd13ifvqbo0","pricing_plan_id":"cebpf4jnsgd1na2vs0mg"},{"bike_id":"8b27a83e-9703-41f1-b6ac-d885258ac8ec","system_id":"levelo_inurba_marseille","lat":43.296175,"lon":5.377042,"is_reserved":false,"is_disabled":false,"rental_uris":{"android":"levelo://app?vid=8b27a83e-9703-41f1-b6ac-d885258ac8ec","ios":"levelo://app?vid=8b27a83e-9703-41f1-b6ac-d885258ac8ec"},"vehicle_type_id":"4","last_reported":1744398474,"current_range_meters":9600,"station_id":"ce4bgi92rcd13ifvqb90","pricing_plan_id":"cebpf4jnsgd1na2vs0mg"},{"bike_id":"4f382710-0c0d-4cb0-8067-5a7d36021b47","system_id":"levelo_inurba_marseille","lat":43.29539,"lon":5.3902,"is_reserved":false,"is_disabled":false,"rental_uris":{"android":"levelo://app?vid=4f382710-0c0d-4cb0-8067-5a7d36021b47","ios":"levelo://app?vid=4f382710-0c0d-4cb0-8067-5a7d36021b47"},"vehicle_type_id":"4","last_reported":1744398474,"current_range_meters":10000,"station_id":"ce4bh3p2rcd13ifvqdp0","pricing_plan_id":"cebpf4jnsgd1na2vs0mg"},{"bike_id":"e9751933-edee-4513-aee8-c68c0a6d291d","system_id":"levelo_inurba_marseille","lat":43.29412,"lon":5.38615,"is_reserved":false,"is_disabled":false,"rental_uris":{"android":"levelo://app?vid=e9751933-edee-4513-aee8-c68c0a6d291d","ios":"levelo://app?vid=e9751933-edee-4513-aee8-c68c0a6d291d"},"vehicle_type_id":"4","last_reported":1744398474,"current_range_meters":10000,"station_id":"ce4bh2h2rcd13ifvqdh0","pricing_plan_id":"cebpf4jnsgd1na2vs0mg"},{"bike_id":"8bf0111f-7d93-456a-999a-7c95e955de49","system_id":"levelo_inurba_marseille","lat":43.27817,"lon":5.4073,"is_reserved":false,"is_disabled":false,"rental_uris":{"android":"levelo://app?vid=8bf0111f-7d93-456a-999a-7c95e955de49","ios":"levelo://app?vid=8bf0111f-7d93-456a-999a-7c95e955de49"},"vehicle_type_id":"4","last_reported":1744398474,"current_range_meters":10000,"station_id":"ce4bhnh2rcd13ifvqgtg","pricing_plan_id":"cebpf4jnsgd1na2vs0mg"},{"bike_id":"1f81ab10-6c50-4e8f-835d-397f50e0876f","system_id":"levelo_inurba_marseille","lat":43.29092,"lon":5.38124,"is_reserved":false,"is_disabled":false,"rental_uris":{"android":"levelo://app?vid=1f81ab10-6c50-4e8f-835d-397f50e0876f","ios":"levelo://app?vid=1f81ab10-6c50-4e8f-835d-397f50e0876f"},"vehicle_type_id":"4","last_reported":1744398474,"current_range_meters":10000,"station_id":"ce4bh512rcd13ifvqe2g","pricing_plan_id":"cebpf4jnsgd1na2vs0mg"},{"bike_id":"bac330a6-ef29-42f9-a2be-f40785cea4a5","system_id":"levelo_inurba_marseille","lat":43.29258,"lon":5.38435,"is_reserved":false,"is_disabled":false,"rental_uris":{"android":"levelo://app?vid=bac330a6-ef29-42f9-a2be-f40785cea4a5","ios":"levelo://app?vid=bac330a6-ef29-42f9-a2be-f40785cea4a5"},"vehicle_type_id":"4","last_reported":1744398474,"current_range_meters":10000,"station_id":"ce4bh692rcd13ifvqea0","pricing_plan_id":"cebpf4jnsgd1na2vs0mg"},{"bike_id":"e95173bf-5000-423b-8575-6fe8904045e9","system_id":"levelo_inurba_marseille","lat":43.29321,"lon":5.41155,"is_reserved":false,"is_disabled":false,"rental_uris":{"android":"levelo://app?vid=e95173bf-5000-423b-8575-6fe8904045e9","ios":"levelo://app?vid=e95173bf-5000-423b-8575-6fe8904045e9"},"vehicle_type_id":"4","last_reported":1744398474,"current_range_meters":10000,"station_id":"","pricing_plan_id":"cebpf4jnsgd1na2vs0mg"},{"bike_id":"58641589-8c24-4118-a86e-eea892869304","system_id":"levelo_inurba_marseille","lat":43.24162,"lon":5.39723,"is_reserved":false,"is_disabled":false,"rental_uris":{"android":"levelo://app?vid=58641589-8c24-4118-a86e-eea892869304","ios":"levelo://app?vid=58641589-8c24-4118-a86e-eea892869304"},"vehicle_type_id":"4","last_reported":1744398474,"current_range_meters":10000,"station_id":"ce4bhn12rcd13ifvqgpg","pricing_plan_id":"cebpf4jnsgd1na2vs0mg"},{"bike_id":"20eb53d5-dc7b-4fbe-a6da-7e0a348438c0","system_id":"levelo_inurba_marseille","lat":43.27915,"lon":5.39602,"is_reserved":false,"is_disabled":true,"rental_uris":{"android":"levelo://app?vid=20eb53d5-dc7b-4fbe-a6da-7e0a348438c0","ios":"levelo://app?vid=20eb53d5-dc7b-4fbe-a6da-7e0a348438c0"},"vehicle_type_id":"4","last_reported":1744398474,"current_range_meters":10000,"station_id":"ce4bhf92rcd13ifvqf40","pricing_plan_id":"cebpf4jnsgd1na2vs0mg"},{"bike_id":"94455896-0f19-4fae-bd72-9879f01fcd6e","system_id":"levelo_inurba_marseille","lat":43.29553,"lon":5.42285,"is_reserved":false,"is_disabled":true,"rental_uris":{"android":"levelo://app?vid=94455896-0f19-4fae-bd72-9879f01fcd6e","ios":"levelo://app?vid=94455896-0f19-4fae-bd72-9879f01fcd6e"},"vehicle_type_id":"4","last_reported":1744398474,"current_range_meters":10000,"station_id":"ce4bhph2rcd13ifvqhdg","pricing_plan_id":"cebpf4jnsgd1na2vs0mg"},{"bike_id":"27e6496d-76e6-4e4b-a02f-8b8e041c23f9","system_id":"levelo_inurba_marseille","lat":43.29688,"lon":5.37297,"is_reserved":false,"is_disabled":false,"rental_uris":{"android":"levelo://app?vid=27e6496d-76e6-4e4b-a02f-8b8e041c23f9","ios":"levelo://app?vid=27e6496d-76e6-4e4b-a02f-8b8e041c23f9"},"vehicle_type_id":"4","last_reported":1744398474,"current_range_meters":9600,"station_id":"ce4bgk12rcd13ifvqbj0","pricing_plan_id":"cebpf4jnsgd1na2vs0mg"},{"bike_id":"cc83a7aa-57a1-4769-9137-8531613b4691","system_id":"levelo_inurba_marseille","lat":43.31245,"lon":5.37295,"is_reserved":false,"is_disabled":false,"rental_uris":{"android":"levelo://app?vid=cc83a7aa-57a1-4769-9137-8531613b4691","ios":"levelo://app?vid=cc83a7aa-57a1-4769-9137-8531613b4691"},"vehicle_type_id":"4","last_reported":1744398474,"current_range_meters":10800,"station_id":"","pricing_plan_id":"cebpf4jnsgd1na2vs0mg"},{"bike_id":"169aee1e-dbcc-4c3a-ba4e-8df85591bd8e","system_id":"levelo_inurba_marseille","lat":43.24806,"lon":5.37454,"is_reserved":false,"is_disabled":false,"rental_uris":{"android":"levelo://app?vid=169aee1e-dbcc-4c3a-ba4e-8df85591bd8e","ios":"levelo://app?vid=169aee1e-dbcc-4c3a-ba4e-8df85591bd8e"},"vehicle_type_id":"4","last_reported":1744398474,"current_range_meters":14000,"station_id":"ce4bhgh2rcd13ifvqfb0","pricing_plan_id":"cebpf4jnsgd1na2vs0mg"},{"bike_id":"b74583cc-2758-490b-a40a-2cc822d1e9c0","system_id":"levelo_inurba_marseille","lat":43.29441,"lon":5.39747,"is_reserved":false,"is_disabled":false,"rental_uris":{"android":"levelo://app?vid=b74583cc-2758-490b-a40a-2cc822d1e9c0","ios":"levelo://app?vid=b74583cc-2758-490b-a40a-2cc822d1e9c0"},"vehicle_type_id":"4","last_reported":1744398474,"current_range_meters":10800,"station_id":"ce4bh3h2rcd13ifvqdo0","pricing_plan_id":"cebpf4jnsgd1na2vs0mg"},{"bike_id":"f5fb5c6b-9b77-4d1a-8d94-024c8cda5c6e","system_id":"levelo_inurba_marseille","lat":43.25009,"lon":5.38919,"is_reserved":false,"is_disabled":false,"rental_uris":{"android":"levelo://app?vid=f5fb5c6b-9b77-4d1a-8d94-024c8cda5c6e","ios":"levelo://app?vid=f5fb5c6b-9b77-4d1a-8d94-024c8cda5c6e"},"vehicle_type_id":"4","last_reported":1744398474,"current_range_meters":10800,"station_id":"ce4bhgp2rcd13ifvqfd0","pricing_plan_id":"cebpf4jnsgd1na2vs0mg"},{"bike_id":"75a1726b-9625-498f-8d2b-0fbb8e209841","system_id":"levelo_inurba_marseille","lat":43.2681,"lon":5.40263,"is_reserved":false,"is_disabled":false,"rental_uris":{"android":"levelo://app?vid=75a1726b-9625-498f-8d2b-0fbb8e209841","ios":"levelo://app?vid=75a1726b-9625-498f-8d2b-0fbb8e209841"},"vehicle_type_id":"4","last_reported":1744398474,"current_range_meters":10800,"station_id":"ce501612rcd8frsf0b60","pricing_plan_id":"cebpf4jnsgd1na2vs0mg"},{"bike_id":"bf349cec-998b-4ef6-a0d6-4c16e7592035","system_id":"levelo_inurba_marseille","lat":43.29041,"lon":5.38643,"is_reserved":false,"is_disabled":true,"rental_uris":{"android":"levelo://app?vid=bf349cec-998b-4ef6-a0d6-4c16e7592035","ios":"levelo://app?vid=bf349cec-998b-4ef6-a0d6-4c16e7592035"},"vehicle_type_id":"4","last_reported":1744398474,"current_range_meters":10800,"station_id":"ce4bh4p2rcd13ifvqe0g","pricing_plan_id":"cebpf4jnsgd1na2vs0mg"},{"bike_id":"5cbd6920-e86e-449a-9470-bc78d120719f","system_id":"levelo_inurba_marseille","lat":43.29252,"lon":5.38463,"is_reserved":false,"is_disabled":false,"rental_uris":{"android":"levelo://app?vid=5cbd6920-e86e-449a-9470-bc78d120719f","ios":"levelo://app?vid=5cbd6920-e86e-449a-9470-bc78d120719f"},"vehicle_type_id":"4","last_reported":1744398474,"current_range_meters":10800,"station_id":"ce4bh692rcd13ifvqea0","pricing_plan_id":"cebpf4jnsgd1na2vs0mg"},{"bike_id":"ad3ace90-517f-43c4-918d-86dde32c0b5d","system_id":"levelo_inurba_marseille","lat":43.25119,"lon":5.40316,"is_reserved":false,"is_disabled":false,"rental_uris":{"android":"levelo://app?vid=ad3ace90-517f-43c4-918d-86dde32c0b5d","ios":"levelo://app?vid=ad3ace90-517f-43c4-918d-86dde32c0b5d"},"vehicle_type_id":"4","last_reported":1744398474,"current_range_meters":11200,"station_id":"ce4bhlh2rcd13ifvqgig","pricing_plan_id":"cebpf4jnsgd1na2vs0mg"},{"bike_id":"49187ea3-d777-461d-9d76-0a343326d075","system_id":"levelo_inurba_marseille","lat":43.29532,"lon":5.38547,"is_reserved":false,"is_disabled":false,"rental_uris":{"android":"levelo://app?vid=49187ea3-d777-461d-9d76-0a343326d075","ios":"levelo://app?vid=49187ea3-d777-461d-9d76-0a343326d075"},"vehicle_type_id":"4","last_reported":1744398474,"current_range_meters":11200,"station_id":"ce4bgih2rcd13ifvqba0","pricing_plan_id":"cebpf4jnsgd1na2vs0mg"},{"bike_id":"463b41fd-37bb-48c0-a6e4-12f737a3d7cf","system_id":"levelo_inurba_marseille","lat":43.26945,"lon":5.40307,"is_reserved":false,"is_disabled":true,"rental_uris":{"android":"levelo://app?vid=463b41fd-37bb-48c0-a6e4-12f737a3d7cf","ios":"levelo://app?vid=463b41fd-37bb-48c0-a6e4-12f737a3d7cf"},"vehicle_type_id":"4","last_reported":1744398474,"current_range_meters":11200,"station_id":"cjm6bp8fraef2m0cb0m0","pricing_plan_id":"cebpf4jnsgd1na2vs0mg"},{"bike_id":"41fcc547-f15f-4157-8213-6af94cca17a4","system_id":"levelo_inurba_marseille","lat":43.2942,"lon":5.38629,"is_reserved":false,"is_disabled":false,"rental_uris":{"android":"levelo://app?vid=41fcc547-f15f-4157-8213-6af94cca17a4","ios":"levelo://app?vid=41fcc547-f15f-4157-8213-6af94cca17a4"},"vehicle_type_id":"4","last_reported":1744398474,"current_range_meters":11200,"station_id":"ce4bh2h2rcd13ifvqdh0","pricing_plan_id":"cebpf4jnsgd1na2vs0mg"},{"bike_id":"e525e90c-7534-48dd-989f-93e00a71fd64","system_id":"levelo_inurba_marseille","lat":43.29277,"lon":5.40118,"is_reserved":false,"is_disabled":false,"rental_uris":{"android":"levelo://app?vid=e525e90c-7534-48dd-989f-93e00a71fd64","ios":"levelo://app?vid=e525e90c-7534-48dd-989f-93e00a71fd64"},"vehicle_type_id":"4","last_reported":1744398474,"current_range_meters":11200,"station_id":"ce4bh312rcd13ifvqdk0","pricing_plan_id":"cebpf4jnsgd1na2vs0mg"},{"bike_id":"6af5155f-2570-4665-b94c-acec4118928c","system_id":"levelo_inurba_marseille","lat":43.29519,"lon":5.37501,"is_reserved":false,"is_disabled":false,"rental_uris":{"android":"levelo://app?vid=6af5155f-2570-4665-b94c-acec4118928c","ios":"levelo://app?vid=6af5155f-2570-4665-b94c-acec4118928c"},"vehicle_type_id":"4","last_reported":1744398474,"current_range_meters":11200,"station_id":"ce4bgkp2rcd13ifvqbmg","pricing_plan_id":"cebpf4jnsgd1na2vs0mg"},{"bike_id":"3f08cc69-711e-4264-b923-68891203ffa4","system_id":"levelo_inurba_marseille","lat":43.32285,"lon":5.38243,"is_reserved":false,"is_disabled":false,"rental_uris":{"android":"levelo://app?vid=3f08cc69-711e-4264-b923-68891203ffa4","ios":"levelo://app?vid=3f08cc69-711e-4264-b923-68891203ffa4"},"vehicle_type_id":"4","last_reported":1744398474,"current_range_meters":11200,"station_id":"ce4bhr12rcd13ifvqhqg","pricing_plan_id":"cebpf4jnsgd1na2vs0mg"},{"bike_id":"65c0a6c5-41a4-4f69-afff-21c5bda4a17f","system_id":"levelo_inurba_marseille","lat":43.2603,"lon":5.37554,"is_reserved":false,"is_disabled":false,"rental_uris":{"android":"levelo://app?vid=65c0a6c5-41a4-4f69-afff-21c5bda4a17f","ios":"levelo://app?vid=65c0a6c5-41a4-4f69-afff-21c5bda4a17f"},"vehicle_type_id":"4","last_reported":1744398474,"current_range_meters":11200,"station_id":"ce4bhgh2rcd13ifvqfa0","pricing_plan_id":"cebpf4jnsgd1na2vs0mg"},{"bike_id":"18dd5338-20e5-42f6-9380-a0c0b6cb696c","system_id":"levelo_inurba_marseille","lat":43.2893,"lon":5.38397,"is_reserved":false,"is_disabled":false,"rental_uris":{"android":"levelo://app?vid=18dd5338-20e5-42f6-9380-a0c0b6cb696c","ios":"levelo://app?vid=18dd5338-20e5-42f6-9380-a0c0b6cb696c"},"vehicle_type_id":"4","last_reported":1744398474,"current_range_meters":11600,"station_id":"ce4bh612rcd13ifvqe6g","pricing_plan_id":"cebpf4jnsgd1na2vs0mg"},{"bike_id":"13d2a230-10a5-4ffc-b489-82751edd70e5","system_id":"levelo_inurba_marseille","lat":43.29273,"lon":5.36852,"is_reserved":false,"is_disabled":false,"rental_uris":{"android":"levelo://app?vid=13d2a230-10a5-4ffc-b489-82751edd70e5","ios":"levelo://app?vid=13d2a230-10a5-4ffc-b489-82751edd70e5"},"vehicle_type_id":"4","last_reported":1744398474,"current_range_meters":11600,"station_id":"ce4bhbp2rcd13ifvqesg","pricing_plan_id":"cebpf4jnsgd1na2vs0mg"},{"bike_id":"480381e9-157f-49e3-b558-5f5ec14d866f","system_id":"levelo_inurba_marseille","lat":43.27824,"lon":5.39212,"is_reserved":false,"is_disabled":false,"rental_uris":{"android":"levelo://app?vid=480381e9-157f-49e3-b558-5f5ec14d866f","ios":"levelo://app?vid=480381e9-157f-49e3-b558-5f5ec14d866f"},"vehicle_type_id":"4","last_reported":1744398474,"current_range_meters":11600,"station_id":"ce4bhjp2rcd13ifvqga0","pricing_plan_id":"cebpf4jnsgd1na2vs0mg"},{"bike_id":"feb04d1c-c2bd-4d38-91ca-a0075a753750","system_id":"levelo_inurba_marseille","lat":43.28451,"lon":5.35009,"is_reserved":false,"is_disabled":false,"rental_uris":{"android":"levelo://app?vid=feb04d1c-c2bd-4d38-91ca-a0075a753750","ios":"levelo://app?vid=feb04d1c-c2bd-4d38-91ca-a0075a753750"},"vehicle_type_id":"4","last_reported":1744398474,"current_range_meters":11600,"station_id":"ce4bhbh2rcd13ifvqepg","pricing_plan_id":"cebpf4jnsgd1na2vs0mg"},{"bike_id":"515e38b1-efa8-477a-b6e8-19f7b6379267","system_id":"levelo_inurba_marseille","lat":43.29429,"lon":5.3862,"is_reserved":false,"is_disabled":false,"rental_uris":{"android":"levelo://app?vid=515e38b1-efa8-477a-b6e8-19f7b6379267","ios":"levelo://app?vid=515e38b1-efa8-477a-b6e8-19f7b6379267"},"vehicle_type_id":"4","last_reported":1744398474,"current_range_meters":11600,"station_id":"ce4bh2h2rcd13ifvqdh0","pricing_plan_id":"cebpf4jnsgd1na2vs0mg"},{"bike_id":"802f26c2-e45e-425b-ace1-dc0e85629d81","system_id":"levelo_inurba_marseille","lat":43.291,"lon":5.3813,"is_reserved":false,"is_disabled":false,"rental_uris":{"android":"levelo://app?vid=802f26c2-e45e-425b-ace1-dc0e85629d81","ios":"levelo://app?vid=802f26c2-e45e-425b-ace1-dc0e85629d81"},"vehicle_type_id":"4","last_reported":1744398474,"current_range_meters":11600,"station_id":"ce4bh512rcd13ifvqe2g","pricing_plan_id":"cebpf4jnsgd1na2vs0mg"},{"bike_id":"ce264260-b4bb-4b3e-8b71-12597f406c2e","system_id":"levelo_inurba_marseille","lat":43.28343,"lon":5.38629,"is_reserved":false,"is_disabled":false,"rental_uris":{"android":"levelo://app?vid=ce264260-b4bb-4b3e-8b71-12597f406c2e","ios":"levelo://app?vid=ce264260-b4bb-4b3e-8b71-12597f406c2e"},"vehicle_type_id":"4","last_reported":1744398474,"current_range_meters":11600,"station_id":"ce4bh492rcd13ifvqdvg","pricing_plan_id":"cebpf4jnsgd1na2vs0mg"},{"bike_id":"72adaa87-94dc-4774-aca0-5147bc57bd16","system_id":"levelo_inurba_marseille","lat":43.26031,"lon":5.41743,"is_reserved":false,"is_disabled":false,"rental_uris":{"android":"levelo://app?vid=72adaa87-94dc-4774-aca0-5147bc57bd16","ios":"levelo://app?vid=72adaa87-94dc-4774-aca0-5147bc57bd16"},"vehicle_type_id":"4","last_reported":1744398474,"current_range_meters":11600,"station_id":"","pricing_plan_id":"cebpf4jnsgd1na2vs0mg"},{"bike_id":"96e622db-e663-43e5-976b-1fcb8df459f1","system_id":"levelo_inurba_marseille","lat":43.29281,"lon":5.40116,"is_reserved":false,"is_disabled":false,"rental_uris":{"android":"levelo://app?vid=96e622db-e663-43e5-976b-1fcb8df459f1","ios":"levelo://app?vid=96e622db-e663-43e5-976b-1fcb8df459f1"},"vehicle_type_id":"4","last_reported":1744398474,"current_range_meters":12000,"station_id":"ce4bh312rcd13ifvqdk0","pricing_plan_id":"cebpf4jnsgd1na2vs0mg"},{"bike_id":"b88fa9ec-2582-437f-be6c-dea1c6643beb","system_id":"levelo_inurba_marseille","lat":43.32277,"lon":5.38268,"is_reserved":false,"is_disabled":false,"rental_uris":{"android":"levelo://app?vid=b88fa9ec-2582-437f-be6c-dea1c6643beb","ios":"levelo://app?vid=b88fa9ec-2582-437f-be6c-dea1c6643beb"},"vehicle_type_id":"4","last_reported":1744398474,"current_range_meters":11600,"station_id":"ce4bhr12rcd13ifvqhqg","pricing_plan_id":"cebpf4jnsgd1na2vs0mg"},{"bike_id":"cb72fde2-417a-4cde-8ffb-3acdd4528ccc","system_id":"levelo_inurba_marseille","lat":43.26557,"lon":5.37284,"is_reserved":false,"is_disabled":false,"rental_uris":{"android":"levelo://app?vid=cb72fde2-417a-4cde-8ffb-3acdd4528ccc","ios":"levelo://app?vid=cb72fde2-417a-4cde-8ffb-3acdd4528ccc"},"vehicle_type_id":"4","last_reported":1744398474,"current_range_meters":11600,"station_id":"ce4bhg12rcd13ifvqf70","pricing_plan_id":"cebpf4jnsgd1na2vs0mg"},{"bike_id":"9b0093a9-79e0-4880-82c2-96b353b4de72","system_id":"levelo_inurba_marseille","lat":43.3032,"lon":5.40449,"is_reserved":false,"is_disabled":true,"rental_uris":{"android":"levelo://app?vid=9b0093a9-79e0-4880-82c2-96b353b4de72","ios":"levelo://app?vid=9b0093a9-79e0-4880-82c2-96b353b4de72"},"vehicle_type_id":"4","last_reported":1744398474,"current_range_meters":11600,"station_id":"ce4bh012rcd13ifvqd10","pricing_plan_id":"cebpf4jnsgd1na2vs0mg"},{"bike_id":"ab7728fb-2112-45fe-a9fd-15cddbf6bac5","system_id":"levelo_inurba_marseille","lat":43.32369,"lon":5.38886,"is_reserved":false,"is_disabled":false,"rental_uris":{"android":"levelo://app?vid=ab7728fb-2112-45fe-a9fd-15cddbf6bac5","ios":"levelo://app?vid=ab7728fb-2112-45fe-a9fd-15cddbf6bac5"},"vehicle_type_id":"4","last_reported":1744398474,"current_range_meters":12000,"station_id":"ce4bhqp2rcd13ifvqhog","pricing_plan_id":"cebpf4jnsgd1na2vs0mg"},{"bike_id":"72172a74-3894-4f7c-bae8-f913dced3b77","system_id":"levelo_inurba_marseille","lat":43.28358,"lon":5.38632,"is_reserved":false,"is_disabled":false,"rental_uris":{"android":"levelo://app?vid=72172a74-3894-4f7c-bae8-f913dced3b77","ios":"levelo://app?vid=72172a74-3894-4f7c-bae8-f913dced3b77"},"vehicle_type_id":"4","last_reported":1744398474,"current_range_meters":12000,"station_id":"ce4bh492rcd13ifvqdvg","pricing_plan_id":"cebpf4jnsgd1na2vs0mg"},{"bike_id":"d83056a7-bc1e-47b0-b485-d26f9289027b","system_id":"levelo_inurba_marseille","lat":43.29838,"lon":5.381,"is_reserved":false,"is_disabled":false,"rental_uris":{"android":"levelo://app?vid=d83056a7-bc1e-47b0-b485-d26f9289027b","ios":"levelo://app?vid=d83056a7-bc1e-47b0-b485-d26f9289027b"},"vehicle_type_id":"4","last_reported":1744398474,"current_range_meters":12400,"station_id":"ce4bgip2rcd13ifvqbb0","pricing_plan_id":"cebpf4jnsgd1na2vs0mg"},{"bike_id":"b445bb41-4f07-4002-b59b-770bc2931689","system_id":"levelo_inurba_marseille","lat":43.279988,"lon":5.400072,"is_reserved":false,"is_disabled":false,"rental_uris":{"android":"levelo://app?vid=b445bb41-4f07-4002-b59b-770bc2931689","ios":"levelo://app?vid=b445bb41-4f07-4002-b59b-770bc2931689"},"vehicle_type_id":"4","last_reported":1744398474,"current_range_meters":12400,"station_id":"ce4bho92rcd13ifvqh4g","pricing_plan_id":"cebpf4jnsgd1na2vs0mg"},{"bike_id":"12f552fb-128b-4f39-a171-4a4db7cfeac8","system_id":"levelo_inurba_marseille","lat":43.28431,"lon":5.34989,"is_reserved":false,"is_disabled":false,"rental_uris":{"android":"levelo://app?vid=12f552fb-128b-4f39-a171-4a4db7cfeac8","ios":"levelo://app?vid=12f552fb-128b-4f39-a171-4a4db7cfeac8"},"vehicle_type_id":"4","last_reported":1744398474,"current_range_meters":12400,"station_id":"ce4bhbh2rcd13ifvqepg","pricing_plan_id":"cebpf4jnsgd1na2vs0mg"},{"bike_id":"d21733e5-1564-4c3d-8657-463d1eaf61b3","system_id":"levelo_inurba_marseille","lat":43.28437,"lon":5.34978,"is_reserved":false,"is_disabled":false,"rental_uris":{"android":"levelo://app?vid=d21733e5-1564-4c3d-8657-463d1eaf61b3","ios":"levelo://app?vid=d21733e5-1564-4c3d-8657-463d1eaf61b3"},"vehicle_type_id":"4","last_reported":1744398474,"current_range_meters":12400,"station_id":"ce4bhbh2rcd13ifvqepg","pricing_plan_id":"cebpf4jnsgd1na2vs0mg"},{"bike_id":"32512c24-e776-435e-827c-c1b5b726d1b5","system_id":"levelo_inurba_marseille","lat":43.29427,"lon":5.38625,"is_reserved":false,"is_disabled":false,"rental_uris":{"android":"levelo://app?vid=32512c24-e776-435e-827c-c1b5b726d1b5","ios":"levelo://app?vid=32512c24-e776-435e-827c-c1b5b726d1b5"},"vehicle_type_id":"4","last_reported":1744398474,"current_range_meters":12400,"station_id":"ce4bh2h2rcd13ifvqdh0","pricing_plan_id":"cebpf4jnsgd1na2vs0mg"},{"bike_id":"4bcdcc82-d58d-4172-b626-a8c82408681c","system_id":"levelo_inurba_marseille","lat":43.31227,"lon":5.36847,"is_reserved":false,"is_disabled":true,"rental_uris":{"android":"levelo://app?vid=4bcdcc82-d58d-4172-b626-a8c82408681c","ios":"levelo://app?vid=4bcdcc82-d58d-4172-b626-a8c82408681c"},"vehicle_type_id":"4","last_reported":1744398474,"current_range_meters":12400,"station_id":"ce4bgl92rcd13ifvqbq0","pricing_plan_id":"cebpf4jnsgd1na2vs0mg"},{"bike_id":"411f282c-b696-41a4-888f-752e1134c529","system_id":"levelo_inurba_marseille","lat":43.26191,"lon":5.37456,"is_reserved":false,"is_disabled":true,"rental_uris":{"android":"levelo://app?vid=411f282c-b696-41a4-888f-752e1134c529","ios":"levelo://app?vid=411f282c-b696-41a4-888f-752e1134c529"},"vehicle_type_id":"4","last_reported":1744398474,"current_range_meters":12400,"station_id":"ce4bhgp2rcd13ifvqfc0","pricing_plan_id":"cebpf4jnsgd1na2vs0mg"},{"bike_id":"76f6ae46-bcbb-427e-8cee-b48737d41b2b","system_id":"levelo_inurba_marseille","lat":43.29966,"lon":5.38496,"is_reserved":false,"is_disabled":false,"rental_uris":{"android":"levelo://app?vid=76f6ae46-bcbb-427e-8cee-b48737d41b2b","ios":"levelo://app?vid=76f6ae46-bcbb-427e-8cee-b48737d41b2b"},"vehicle_type_id":"4","last_reported":1744398474,"current_range_meters":12400,"station_id":"ce4bgj92rcd13ifvqbd0","pricing_plan_id":"cebpf4jnsgd1na2vs0mg"},{"bike_id":"11b4cbcc-bee2-4c17-9db8-aa5d0c414374","system_id":"levelo_inurba_marseille","lat":43.29707,"lon":5.377,"is_reserved":false,"is_disabled":false,"rental_uris":{"android":"levelo://app?vid=11b4cbcc-bee2-4c17-9db8-aa5d0c414374","ios":"levelo://app?vid=11b4cbcc-bee2-4c17-9db8-aa5d0c414374"},"vehicle_type_id":"4","last_reported":1744398474,"current_range_meters":12400,"station_id":"ce4bgkh2rcd13ifvqbl0","pricing_plan_id":"cebpf4jnsgd1na2vs0mg"},{"bike_id":"28ce3fc7-24e0-435f-8c79-7d026b4214a5","system_id":"levelo_inurba_marseille","lat":43.29526,"lon":5.38541,"is_reserved":false,"is_disabled":false,"rental_uris":{"android":"levelo://app?vid=28ce3fc7-24e0-435f-8c79-7d026b4214a5","ios":"levelo://app?vid=28ce3fc7-24e0-435f-8c79-7d026b4214a5"},"vehicle_type_id":"4","last_reported":1744398474,"current_range_meters":12400,"station_id":"ce4bgih2rcd13ifvqba0","pricing_plan_id":"cebpf4jnsgd1na2vs0mg"},{"bike_id":"986407fd-002c-4d4a-9fe6-c6b08944c1ee","system_id":"levelo_inurba_marseille","lat":43.301941,"lon":5.394611,"is_reserved":false,"is_disabled":false,"rental_uris":{"android":"levelo://app?vid=986407fd-002c-4d4a-9fe6-c6b08944c1ee","ios":"levelo://app?vid=986407fd-002c-4d4a-9fe6-c6b08944c1ee"},"vehicle_type_id":"4","last_reported":1744398474,"current_range_meters":12000,"station_id":"ce4bh192rcd13ifvqdd0","pricing_plan_id":"cebpf4jnsgd1na2vs0mg"},{"bike_id":"72497c84-763e-44b5-bf1f-dc7bd7c1b9a6","system_id":"levelo_inurba_marseille","lat":43.2971,"lon":5.36611,"is_reserved":false,"is_disabled":false,"rental_uris":{"android":"levelo://app?vid=72497c84-763e-44b5-bf1f-dc7bd7c1b9a6","ios":"levelo://app?vid=72497c84-763e-44b5-bf1f-dc7bd7c1b9a6"},"vehicle_type_id":"4","last_reported":1744398474,"current_range_meters":12400,"station_id":"ce4bgn12rcd13ifvqbt0","pricing_plan_id":"cebpf4jnsgd1na2vs0mg"},{"bike_id":"2eb4566f-728a-4443-96a9-9f62c897bdff","system_id":"levelo_inurba_marseille","lat":43.255038,"lon":5.376309,"is_reserved":false,"is_disabled":false,"rental_uris":{"android":"levelo://app?vid=2eb4566f-728a-4443-96a9-9f62c897bdff","ios":"levelo://app?vid=2eb4566f-728a-4443-96a9-9f62c897bdff"},"vehicle_type_id":"4","last_reported":1744398474,"current_range_meters":12800,"station_id":"","pricing_plan_id":"cebpf4jnsgd1na2vs0mg"},{"bike_id":"f21cce43-7e86-42c4-8a4d-3c922080ab5c","system_id":"levelo_inurba_marseille","lat":43.28952,"lon":5.36614,"is_reserved":false,"is_disabled":true,"rental_uris":{"android":"levelo://app?vid=f21cce43-7e86-42c4-8a4d-3c922080ab5c","ios":"levelo://app?vid=f21cce43-7e86-42c4-8a4d-3c922080ab5c"},"vehicle_type_id":"4","last_reported":1744398474,"current_range_meters":12800,"station_id":"ce4bhap2rcd13ifvqek0","pricing_plan_id":"cebpf4jnsgd1na2vs0mg"},{"bike_id":"4bfe69a6-d68b-4e37-ac82-6ebde5d6d355","system_id":"levelo_inurba_marseille","lat":43.29022,"lon":5.38634,"is_reserved":false,"is_disabled":false,"rental_uris":{"android":"levelo://app?vid=4bfe69a6-d68b-4e37-ac82-6ebde5d6d355","ios":"levelo://app?vid=4bfe69a6-d68b-4e37-ac82-6ebde5d6d355"},"vehicle_type_id":"4","last_reported":1744398474,"current_range_meters":13600,"station_id":"ce4bh4p2rcd13ifvqe0g","pricing_plan_id":"cebpf4jnsgd1na2vs0mg"},{"bike_id":"4c893399-b4ed-40ed-a49f-713da320f269","system_id":"levelo_inurba_marseille","lat":43.29861,"lon":5.37841,"is_reserved":false,"is_disabled":false,"rental_uris":{"android":"levelo://app?vid=4c893399-b4ed-40ed-a49f-713da320f269","ios":"levelo://app?vid=4c893399-b4ed-40ed-a49f-713da320f269"},"vehicle_type_id":"4","last_reported":1744398474,"current_range_meters":13600,"station_id":"","pricing_plan_id":"cebpf4jnsgd1na2vs0mg"},{"bike_id":"d38e0e5e-1441-423a-9774-3196b1a1cb17","system_id":"levelo_inurba_marseille","lat":43.30043,"lon":5.39961,"is_reserved":false,"is_disabled":false,"rental_uris":{"android":"levelo://app?vid=d38e0e5e-1441-423a-9774-3196b1a1cb17","ios":"levelo://app?vid=d38e0e5e-1441-423a-9774-3196b1a1cb17"},"vehicle_type_id":"4","last_reported":1744398474,"current_range_meters":13600,"station_id":"","pricing_plan_id":"cebpf4jnsgd1na2vs0mg"},{"bike_id":"baa94301-2739-4a37-a3ac-e89976729731","system_id":"levelo_inurba_marseille","lat":43.29532,"lon":5.38535,"is_reserved":false,"is_disabled":false,"rental_uris":{"android":"levelo://app?vid=baa94301-2739-4a37-a3ac-e89976729731","ios":"levelo://app?vid=baa94301-2739-4a37-a3ac-e89976729731"},"vehicle_type_id":"4","last_reported":1744398474,"current_range_meters":13600,"station_id":"ce4bgih2rcd13ifvqba0","pricing_plan_id":"cebpf4jnsgd1na2vs0mg"},{"bike_id":"8c58f2fa-99e1-41f8-bf90-9c1648b679b1","system_id":"levelo_inurba_marseille","lat":43.27303,"lon":5.41445,"is_reserved":false,"is_disabled":false,"rental_uris":{"android":"levelo://app?vid=8c58f2fa-99e1-41f8-bf90-9c1648b679b1","ios":"levelo://app?vid=8c58f2fa-99e1-41f8-bf90-9c1648b679b1"},"vehicle_type_id":"4","last_reported":1744398474,"current_range_meters":13600,"station_id":"","pricing_plan_id":"cebpf4jnsgd1na2vs0mg"},{"bike_id":"3e634745-6fa9-4d89-a1ee-9df42bfd4b75","system_id":"levelo_inurba_marseille","lat":43.292655,"lon":5.40902,"is_reserved":false,"is_disabled":false,"rental_uris":{"android":"levelo://app?vid=3e634745-6fa9-4d89-a1ee-9df42bfd4b75","ios":"levelo://app?vid=3e634745-6fa9-4d89-a1ee-9df42bfd4b75"},"vehicle_type_id":"4","last_reported":1744398474,"current_range_meters":13600,"station_id":"ce4bh192rcd13ifvqdc0","pricing_plan_id":"cebpf4jnsgd1na2vs0mg"},{"bike_id":"f0c41d0b-4d9f-44ac-b305-dc5c433e836e","system_id":"levelo_inurba_marseille","lat":43.30797,"lon":5.38151,"is_reserved":false,"is_disabled":false,"rental_uris":{"android":"levelo://app?vid=f0c41d0b-4d9f-44ac-b305-dc5c433e836e","ios":"levelo://app?vid=f0c41d0b-4d9f-44ac-b305-dc5c433e836e"},"vehicle_type_id":"4","last_reported":1744398474,"current_range_meters":13600,"station_id":"ce4bgt12rcd13ifvqce0","pricing_plan_id":"cebpf4jnsgd1na2vs0mg"},{"bike_id":"1db3f027-3907-4a6a-880b-45e50db5828b","system_id":"levelo_inurba_marseille","lat":43.25495,"lon":5.37636,"is_reserved":false,"is_disabled":false,"rental_uris":{"android":"levelo://app?vid=1db3f027-3907-4a6a-880b-45e50db5828b","ios":"levelo://app?vid=1db3f027-3907-4a6a-880b-45e50db5828b"},"vehicle_type_id":"4","last_reported":1744398474,"current_range_meters":14000,"station_id":"ce4bhh12rcd13ifvqff0","pricing_plan_id":"cebpf4jnsgd1na2vs0mg"},{"bike_id":"c12dd02b-c506-47e7-a913-9db284eefb53","system_id":"levelo_inurba_marseille","lat":43.30139,"lon":5.38774,"is_reserved":false,"is_disabled":false,"rental_uris":{"android":"levelo://app?vid=c12dd02b-c506-47e7-a913-9db284eefb53","ios":"levelo://app?vid=c12dd02b-c506-47e7-a913-9db284eefb53"},"vehicle_type_id":"4","last_reported":1744398474,"current_range_meters":14000,"station_id":"ce4bghh2rcd13ifvqb60","pricing_plan_id":"cebpf4jnsgd1na2vs0mg"},{"bike_id":"51737ed7-e52d-4dd7-9fed-d5b20966219d","system_id":"levelo_inurba_marseille","lat":43.29974,"lon":5.38511,"is_reserved":false,"is_disabled":false,"rental_uris":{"android":"levelo://app?vid=51737ed7-e52d-4dd7-9fed-d5b20966219d","ios":"levelo://app?vid=51737ed7-e52d-4dd7-9fed-d5b20966219d"},"vehicle_type_id":"4","last_reported":1744398474,"current_range_meters":14000,"station_id":"ce4bgj92rcd13ifvqbd0","pricing_plan_id":"cebpf4jnsgd1na2vs0mg"},{"bike_id":"26152564-6f7d-44e1-b108-6a4513d82c2a","system_id":"levelo_inurba_marseille","lat":43.29413,"lon":5.38628,"is_reserved":false,"is_disabled":false,"rental_uris":{"android":"levelo://app?vid=26152564-6f7d-44e1-b108-6a4513d82c2a","ios":"levelo://app?vid=26152564-6f7d-44e1-b108-6a4513d82c2a"},"vehicle_type_id":"4","last_reported":1744398474,"current_range_meters":14000,"station_id":"ce4bh2h2rcd13ifvqdh0","pricing_plan_id":"cebpf4jnsgd1na2vs0mg"},{"bike_id":"4651fc10-fe57-460e-89c6-9ba891098581","system_id":"levelo_inurba_marseille","lat":43.24164,"lon":5.3639,"is_reserved":false,"is_disabled":false,"rental_uris":{"android":"levelo://app?vid=4651fc10-fe57-460e-89c6-9ba891098581","ios":"levelo://app?vid=4651fc10-fe57-460e-89c6-9ba891098581"},"vehicle_type_id":"4","last_reported":1744398474,"current_range_meters":14000,"station_id":"cpo36qri1sfpv3e86is0","pricing_plan_id":"cebpf4jnsgd1na2vs0mg"},{"bike_id":"3e139516-57b1-4643-a3ab-e599c14cef3e","system_id":"levelo_inurba_marseille","lat":43.29101,"lon":5.38128,"is_reserved":false,"is_disabled":false,"rental_uris":{"android":"levelo://app?vid=3e139516-57b1-4643-a3ab-e599c14cef3e","ios":"levelo://app?vid=3e139516-57b1-4643-a3ab-e599c14cef3e"},"vehicle_type_id":"4","last_reported":1744398474,"current_range_meters":14800,"station_id":"ce4bh512rcd13ifvqe2g","pricing_plan_id":"cebpf4jnsgd1na2vs0mg"},{"bike_id":"16fd30b1-cad6-4fc5-9de5-c7170be035f0","system_id":"levelo_inurba_marseille","lat":43.25671,"lon":5.41079,"is_reserved":false,"is_disabled":false,"rental_uris":{"android":"levelo://app?vid=16fd30b1-cad6-4fc5-9de5-c7170be035f0","ios":"levelo://app?vid=16fd30b1-cad6-4fc5-9de5-c7170be035f0"},"vehicle_type_id":"4","last_reported":1744398474,"current_range_meters":14000,"station_id":"ce4bhkp2rcd13ifvqgd0","pricing_plan_id":"cebpf4jnsgd1na2vs0mg"},{"bike_id":"ef291804-1477-432e-b153-82ea15725418","system_id":"levelo_inurba_marseille","lat":43.33742,"lon":5.37454,"is_reserved":false,"is_disabled":false,"rental_uris":{"android":"levelo://app?vid=ef291804-1477-432e-b153-82ea15725418","ios":"levelo://app?vid=ef291804-1477-432e-b153-82ea15725418"},"vehicle_type_id":"4","last_reported":1744398474,"current_range_meters":14400,"station_id":"","pricing_plan_id":"cebpf4jnsgd1na2vs0mg"},{"bike_id":"378a7cb8-682c-458a-ad28-6ef7f200079f","system_id":"levelo_inurba_marseille","lat":43.29856,"lon":5.36295,"is_reserved":false,"is_disabled":false,"rental_uris":{"android":"levelo://app?vid=378a7cb8-682c-458a-ad28-6ef7f200079f","ios":"levelo://app?vid=378a7cb8-682c-458a-ad28-6ef7f200079f"},"vehicle_type_id":"4","last_reported":1744398474,"current_range_meters":14400,"station_id":"ce4bgpp2rcd13ifvqc3g","pricing_plan_id":"cebpf4jnsgd1na2vs0mg"},{"bike_id":"94ef16d2-498f-4705-bb0d-0839624cb531","system_id":"levelo_inurba_marseille","lat":43.2971,"lon":5.37694,"is_reserved":false,"is_disabled":false,"rental_uris":{"android":"levelo://app?vid=94ef16d2-498f-4705-bb0d-0839624cb531","ios":"levelo://app?vid=94ef16d2-498f-4705-bb0d-0839624cb531"},"vehicle_type_id":"4","last_reported":1744398474,"current_range_meters":16800,"station_id":"ce4bgkh2rcd13ifvqbl0","pricing_plan_id":"cebpf4jnsgd1na2vs0mg"},{"bike_id":"fb504b8f-4340-4778-b10a-ee10b77dde6c","system_id":"levelo_inurba_marseille","lat":43.25726,"lon":5.41109,"is_reserved":false,"is_disabled":false,"rental_uris":{"android":"levelo://app?vid=fb504b8f-4340-4778-b10a-ee10b77dde6c","ios":"levelo://app?vid=fb504b8f-4340-4778-b10a-ee10b77dde6c"},"vehicle_type_id":"4","last_reported":1744398474,"current_range_meters":14400,"station_id":"ce4bhkp2rcd13ifvqgd0","pricing_plan_id":"cebpf4jnsgd1na2vs0mg"},{"bike_id":"bb1b9f68-f8f5-4517-8b05-9882f0bd1a18","system_id":"levelo_inurba_marseille","lat":43.28732,"lon":5.36084,"is_reserved":false,"is_disabled":false,"rental_uris":{"android":"levelo://app?vid=bb1b9f68-f8f5-4517-8b05-9882f0bd1a18","ios":"levelo://app?vid=bb1b9f68-f8f5-4517-8b05-9882f0bd1a18"},"vehicle_type_id":"4","last_reported":1744398474,"current_range_meters":14800,"station_id":"cki0cbj6b192h4jlfktg","pricing_plan_id":"cebpf4jnsgd1na2vs0mg"},{"bike_id":"b017e8e4-437d-432e-b299-334eb74a852d","system_id":"levelo_inurba_marseille","lat":43.29866,"lon":5.38904,"is_reserved":false,"is_disabled":false,"rental_uris":{"android":"levelo://app?vid=b017e8e4-437d-432e-b299-334eb74a852d","ios":"levelo://app?vid=b017e8e4-437d-432e-b299-334eb74a852d"},"vehicle_type_id":"4","last_reported":1744398474,"current_range_meters":14800,"station_id":"ce4bh392rcd13ifvqdl0","pricing_plan_id":"cebpf4jnsgd1na2vs0mg"},{"bike_id":"2473096a-dfc1-4573-87fc-a0162a53cb4c","system_id":"levelo_inurba_marseille","lat":43.28638,"lon":5.35088,"is_reserved":false,"is_disabled":false,"rental_uris":{"android":"levelo://app?vid=2473096a-dfc1-4573-87fc-a0162a53cb4c","ios":"levelo://app?vid=2473096a-dfc1-4573-87fc-a0162a53cb4c"},"vehicle_type_id":"4","last_reported":1744398474,"current_range_meters":14800,"station_id":"ce4bhch2rcd13ifvqeug","pricing_plan_id":"cebpf4jnsgd1na2vs0mg"},{"bike_id":"fada94ee-4770-424e-ae84-99e0a30f0067","system_id":"levelo_inurba_marseille","lat":43.24815,"lon":5.37462,"is_reserved":false,"is_disabled":false,"rental_uris":{"android":"levelo://app?vid=fada94ee-4770-424e-ae84-99e0a30f0067","ios":"levelo://app?vid=fada94ee-4770-424e-ae84-99e0a30f0067"},"vehicle_type_id":"4","last_reported":1744398474,"current_range_meters":14800,"station_id":"ce4bhgh2rcd13ifvqfb0","pricing_plan_id":"cebpf4jnsgd1na2vs0mg"},{"bike_id":"52971491-6343-4b2a-9641-f2de980d9420","system_id":"levelo_inurba_marseille","lat":43.3042,"lon":5.41289,"is_reserved":false,"is_disabled":false,"rental_uris":{"android":"levelo://app?vid=52971491-6343-4b2a-9641-f2de980d9420","ios":"levelo://app?vid=52971491-6343-4b2a-9641-f2de980d9420"},"vehicle_type_id":"4","last_reported":1744398474,"current_range_meters":15200,"station_id":"ce4bhop2rcd13ifvqh8g","pricing_plan_id":"cebpf4jnsgd1na2vs0mg"},{"bike_id":"b893e0ce-324e-4d1d-8620-aa1a4fb427f8","system_id":"levelo_inurba_marseille","lat":43.27962,"lon":5.38753,"is_reserved":false,"is_disabled":false,"rental_uris":{"android":"levelo://app?vid=b893e0ce-324e-4d1d-8620-aa1a4fb427f8","ios":"levelo://app?vid=b893e0ce-324e-4d1d-8620-aa1a4fb427f8"},"vehicle_type_id":"4","last_reported":1744398474,"current_range_meters":15200,"station_id":"ce4bhg12rcd13ifvqf80","pricing_plan_id":"cebpf4jnsgd1na2vs0mg"},{"bike_id":"77c08f5b-cdaa-450a-995a-537a84daa91d","system_id":"levelo_inurba_marseille","lat":43.25492,"lon":5.37649,"is_reserved":false,"is_disabled":false,"rental_uris":{"android":"levelo://app?vid=77c08f5b-cdaa-450a-995a-537a84daa91d","ios":"levelo://app?vid=77c08f5b-cdaa-450a-995a-537a84daa91d"},"vehicle_type_id":"4","last_reported":1744398474,"current_range_meters":15200,"station_id":"ce4bhh12rcd13ifvqff0","pricing_plan_id":"cebpf4jnsgd1na2vs0mg"},{"bike_id":"f2d51714-6acc-45b0-ad90-03def090f265","system_id":"levelo_inurba_marseille","lat":43.28421,"lon":5.35001,"is_reserved":false,"is_disabled":false,"rental_uris":{"android":"levelo://app?vid=f2d51714-6acc-45b0-ad90-03def090f265","ios":"levelo://app?vid=f2d51714-6acc-45b0-ad90-03def090f265"},"vehicle_type_id":"4","last_reported":1744398474,"current_range_meters":15200,"station_id":"ce4bhbh2rcd13ifvqepg","pricing_plan_id":"cebpf4jnsgd1na2vs0mg"},{"bike_id":"68fe7501-a9a1-43f9-b262-289cb8f3a8b9","system_id":"levelo_inurba_marseille","lat":43.25493,"lon":5.37656,"is_reserved":false,"is_disabled":false,"rental_uris":{"android":"levelo://app?vid=68fe7501-a9a1-43f9-b262-289cb8f3a8b9","ios":"levelo://app?vid=68fe7501-a9a1-43f9-b262-289cb8f3a8b9"},"vehicle_type_id":"4","last_reported":1744398474,"current_range_meters":15200,"station_id":"ce4bhh12rcd13ifvqff0","pricing_plan_id":"cebpf4jnsgd1na2vs0mg"},{"bike_id":"a093bafe-aad3-494d-9af1-7a790f2767c9","system_id":"levelo_inurba_marseille","lat":43.27999,"lon":5.41665,"is_reserved":false,"is_disabled":false,"rental_uris":{"android":"levelo://app?vid=a093bafe-aad3-494d-9af1-7a790f2767c9","ios":"levelo://app?vid=a093bafe-aad3-494d-9af1-7a790f2767c9"},"vehicle_type_id":"4","last_reported":1744398474,"current_range_meters":15200,"station_id":"ce4bho12rcd13ifvqh1g","pricing_plan_id":"cebpf4jnsgd1na2vs0mg"},{"bike_id":"cfa05593-02c0-4361-b7cb-d147d92b27a4","system_id":"levelo_inurba_marseille","lat":43.241625,"lon":5.363962,"is_reserved":false,"is_disabled":false,"rental_uris":{"android":"levelo://app?vid=cfa05593-02c0-4361-b7cb-d147d92b27a4","ios":"levelo://app?vid=cfa05593-02c0-4361-b7cb-d147d92b27a4"},"vehicle_type_id":"4","last_reported":1744398474,"current_range_meters":16000,"station_id":"cpo36qri1sfpv3e86is0","pricing_plan_id":"cebpf4jnsgd1na2vs0mg"},{"bike_id":"31e0f24b-cd7c-4494-a676-01866e2cf462","system_id":"levelo_inurba_marseille","lat":43.3042,"lon":5.41286,"is_reserved":false,"is_disabled":false,"rental_uris":{"android":"levelo://app?vid=31e0f24b-cd7c-4494-a676-01866e2cf462","ios":"levelo://app?vid=31e0f24b-cd7c-4494-a676-01866e2cf462"},"vehicle_type_id":"4","last_reported":1744398474,"current_range_meters":16000,"station_id":"ce4bhop2rcd13ifvqh8g","pricing_plan_id":"cebpf4jnsgd1na2vs0mg"},{"bike_id":"3273a13f-530a-4c72-b799-089fd2688cd6","system_id":"levelo_inurba_marseille","lat":43.24074,"lon":5.37761,"is_reserved":false,"is_disabled":false,"rental_uris":{"android":"levelo://app?vid=3273a13f-530a-4c72-b799-089fd2688cd6","ios":"levelo://app?vid=3273a13f-530a-4c72-b799-089fd2688cd6"},"vehicle_type_id":"4","last_reported":1744398474,"current_range_meters":15200,"station_id":"ce4bhnp2rcd13ifvqgvg","pricing_plan_id":"cebpf4jnsgd1na2vs0mg"},{"bike_id":"d86053e4-a339-46c4-84a4-cfe802cf656c","system_id":"levelo_inurba_marseille","lat":43.32279,"lon":5.38284,"is_reserved":false,"is_disabled":false,"rental_uris":{"android":"levelo://app?vid=d86053e4-a339-46c4-84a4-cfe802cf656c","ios":"levelo://app?vid=d86053e4-a339-46c4-84a4-cfe802cf656c"},"vehicle_type_id":"4","last_reported":1744398474,"current_range_meters":16000,"station_id":"ce4bhr12rcd13ifvqhqg","pricing_plan_id":"cebpf4jnsgd1na2vs0mg"},{"bike_id":"c8c8866b-b132-4150-b7a8-e2ff9a27eae1","system_id":"levelo_inurba_marseille","lat":43.310776,"lon":5.383457,"is_reserved":false,"is_disabled":false,"rental_uris":{"android":"levelo://app?vid=c8c8866b-b132-4150-b7a8-e2ff9a27eae1","ios":"levelo://app?vid=c8c8866b-b132-4150-b7a8-e2ff9a27eae1"},"vehicle_type_id":"4","last_reported":1744398474,"current_range_meters":16000,"station_id":"ce4bgv92rcd13ifvqcr0","pricing_plan_id":"cebpf4jnsgd1na2vs0mg"},{"bike_id":"a0cd8dfb-e03e-4bc5-b175-ce473079b960","system_id":"levelo_inurba_marseille","lat":43.27995,"lon":5.41663,"is_reserved":false,"is_disabled":false,"rental_uris":{"android":"levelo://app?vid=a0cd8dfb-e03e-4bc5-b175-ce473079b960","ios":"levelo://app?vid=a0cd8dfb-e03e-4bc5-b175-ce473079b960"},"vehicle_type_id":"4","last_reported":1744398474,"current_range_meters":16000,"station_id":"ce4bho12rcd13ifvqh1g","pricing_plan_id":"cebpf4jnsgd1na2vs0mg"},{"bike_id":"68650090-aa6f-4a95-a12f-07f35c9e3d4f","system_id":"levelo_inurba_marseille","lat":43.29876,"lon":5.3972,"is_reserved":false,"is_disabled":false,"rental_uris":{"android":"levelo://app?vid=68650090-aa6f-4a95-a12f-07f35c9e3d4f","ios":"levelo://app?vid=68650090-aa6f-4a95-a12f-07f35c9e3d4f"},"vehicle_type_id":"4","last_reported":1744398474,"current_range_meters":16000,"station_id":"ce4bh0h2rcd13ifvqd50","pricing_plan_id":"cebpf4jnsgd1na2vs0mg"},{"bike_id":"5b77a833-8185-45c2-9fe3-07eb40df54ca","system_id":"levelo_inurba_marseille","lat":43.33995,"lon":5.38057,"is_reserved":false,"is_disabled":false,"rental_uris":{"android":"levelo://app?vid=5b77a833-8185-45c2-9fe3-07eb40df54ca","ios":"levelo://app?vid=5b77a833-8185-45c2-9fe3-07eb40df54ca"},"vehicle_type_id":"4","last_reported":1744398474,"current_range_meters":16000,"station_id":"","pricing_plan_id":"cebpf4jnsgd1na2vs0mg"},{"bike_id":"f7d1eee0-1715-419d-beac-1b98ec9e62ed","system_id":"levelo_inurba_marseille","lat":43.30949,"lon":5.39035,"is_reserved":false,"is_disabled":true,"rental_uris":{"android":"levelo://app?vid=f7d1eee0-1715-419d-beac-1b98ec9e62ed","ios":"levelo://app?vid=f7d1eee0-1715-419d-beac-1b98ec9e62ed"},"vehicle_type_id":"4","last_reported":1744398474,"current_range_meters":16400,"station_id":"ce4bgup2rcd13ifvqco0","pricing_plan_id":"cebpf4jnsgd1na2vs0mg"},{"bike_id":"a75122b2-ab4d-4003-acc7-70cba5deb793","system_id":"levelo_inurba_marseille","lat":43.2572,"lon":5.41107,"is_reserved":false,"is_disabled":false,"rental_uris":{"android":"levelo://app?vid=a75122b2-ab4d-4003-acc7-70cba5deb793","ios":"levelo://app?vid=a75122b2-ab4d-4003-acc7-70cba5deb793"},"vehicle_type_id":"4","last_reported":1744398474,"current_range_meters":16400,"station_id":"ce4bhkp2rcd13ifvqgd0","pricing_plan_id":"cebpf4jnsgd1na2vs0mg"},{"bike_id":"fa2c78af-7442-435a-b59d-ecb3191bfe19","system_id":"levelo_inurba_marseille","lat":43.26551,"lon":5.37288,"is_reserved":false,"is_disabled":false,"rental_uris":{"android":"levelo://app?vid=fa2c78af-7442-435a-b59d-ecb3191bfe19","ios":"levelo://app?vid=fa2c78af-7442-435a-b59d-ecb3191bfe19"},"vehicle_type_id":"4","last_reported":1744398474,"current_range_meters":16400,"station_id":"ce4bhg12rcd13ifvqf70","pricing_plan_id":"cebpf4jnsgd1na2vs0mg"},{"bike_id":"b10efb6c-63de-4673-9ba6-ecc63a29dc73","system_id":"levelo_inurba_marseille","lat":43.2551,"lon":5.37655,"is_reserved":false,"is_disabled":false,"rental_uris":{"android":"levelo://app?vid=b10efb6c-63de-4673-9ba6-ecc63a29dc73","ios":"levelo://app?vid=b10efb6c-63de-4673-9ba6-ecc63a29dc73"},"vehicle_type_id":"4","last_reported":1744398474,"current_range_meters":16400,"station_id":"ce4bhh12rcd13ifvqff0","pricing_plan_id":"cebpf4jnsgd1na2vs0mg"},{"bike_id":"7e523b4c-7907-4931-a420-8b926a270c0b","system_id":"levelo_inurba_marseille","lat":43.28479,"lon":5.38413,"is_reserved":false,"is_disabled":false,"rental_uris":{"android":"levelo://app?vid=7e523b4c-7907-4931-a420-8b926a270c0b","ios":"levelo://app?vid=7e523b4c-7907-4931-a420-8b926a270c0b"},"vehicle_type_id":"4","last_reported":1744398474,"current_range_meters":16800,"station_id":"ce4bh512rcd13ifvqe3g","pricing_plan_id":"cebpf4jnsgd1na2vs0mg"},{"bike_id":"0e7bf4ae-5aed-4055-a1f8-96debbb9847e","system_id":"levelo_inurba_marseille","lat":43.24167,"lon":5.36391,"is_reserved":false,"is_disabled":false,"rental_uris":{"android":"levelo://app?vid=0e7bf4ae-5aed-4055-a1f8-96debbb9847e","ios":"levelo://app?vid=0e7bf4ae-5aed-4055-a1f8-96debbb9847e"},"vehicle_type_id":"4","last_reported":1744398474,"current_range_meters":16400,"station_id":"cpo36qri1sfpv3e86is0","pricing_plan_id":"cebpf4jnsgd1na2vs0mg"},