{"last_updated":1700802412,"ttl":30,"version":"2.2","data":{"bikes":[{"bike_id":"31a21770-c78e-476f-a5a8-c62094457072","system_id":"levelo_inurba_marseille","lat":43.313391,"lon":5.36706,"is_reserved":false,"is_disabled":false,"rental_uris":{"android":"levelo://app?vid=31a21770-c78e-476f-a5a8-c62094457072","ios":"levelo://app?vid=31a21770-c78e-476f-a5a8-c62094457072"},"vehicle_type_id":"4","last_reported":1700802412,"current_range_meters":30400,"station_id":"ce4bgr92rcd13ifvqc6g","pricing_plan_id":"free"},{"bike_id":"9a591b06-72f8-408c-8936-0fd28f6213f7","system_id":"levelo_inurba_marseille","lat":43.313391,"lon":5.36706,"is_reserved":false,"is_disabled":false,"rental_uris":{"android":"levelo://app?vid=9a591b06-72f8-408c-8936-0fd28f6213f7","ios":"levelo://app?vid=9a591b06-72f8-408c-8936-0fd28f6213f7"},"vehicle_type_id":"4","last_reported":1700802412,"current_range_meters":26000,"station_id":"ce4bgr92rcd13ifvqc6g","pricing_plan_id":"free"},{"bike_id":"1c8c3828-b68a-493e-a9d9-87b4bb81e704","system_id":"levelo_inurba_marseille","lat":43.314811,"lon":5.373103,"is_reserved":false,"is_disabled":false,"rental_uris":{"android":"levelo://app?vid=1c8c3828-b68a-493e-a9d9-87b4bb81e704","ios":"levelo://app?vid=1c8c3828-b68a-493e-a9d9-87b4bb81e704"},"vehicle_type_id":"4","last_reported":1700802412,"current_range_meters":30800,"station_id":"ce4bgt12rcd13ifvqcd0","pricing_plan_id":"free"},{"bike_id":"132a8c32-b43d-4284-b7ad-03b5d012dd34","system_id":"levelo_inurba_marseille","lat":43.314811,"lon":5.373103,"is_reserved":false,"is_disabled":false,"rental_uris":{"android":"levelo://app?vid=132a8c32-b43d-4284-b7ad-03b5d012dd34","ios":"levelo://app?vid=132a8c32-b43d-4284-b7ad-03b5d012dd34"},"vehicle_type_id":"4","last_reported":1700802412,"current_range_meters":28400,"station_id":"ce4bgt12rcd13ifvqcd0","pricing_plan_id":"free"},{"bike_id":"9837f166-8d51-4e12-ac8d-9fc69593bea5","system_id":"levelo_inurba_marseille","lat":43.314811,"lon":5.373103,"is_reserved":false,"is_disabled":false,"rental_uris":{"android":"levelo://app?vid=9837f166-8d51-4e12-ac8d-9fc69593bea5","ios":"levelo://app?vid=9837f166-8d51-4e12-ac8d-9fc69593bea5"},"vehicle_type_id":"4","last_reported":1700802412,"current_range_meters":29600,"station_id":"ce4bgt12rcd13ifvqcd0","pricing_plan_id":"free"},{"bike_id":"24d65b7b-db6d-4560-881c-a1ff31c2bb4f","system_id":"levelo_inurba_marseille","lat":43.314811,"lon":5.373104,"is_reserved":false,"is_disabled":false,"rental_uris":{"android":"levelo://app?vid=24d65b7b-db6d-4560-881c-a1ff31c2bb4f","ios":"levelo://app?vid=24d65b7b-db6d-4560-881c-a1ff31c2bb4f"},"vehicle_type_id":"4","last_reported":1700802412,"current_range_meters":30400,"station_id":"ce4bgt12rcd13ifvqcd0","pricing_plan_id":"free"},{"bike_id":"e6479f63-bc17-41f3-a702-158c46283e7d","system_id":"levelo_inurba_marseille","lat":43.309039,"lon":5.371797,"is_reserved":false,"is_disabled":false,"rental_uris":{"android":"levelo://app?vid=e6479f63-bc17-41f3-a702-158c46283e7d","ios":"levelo://app?vid=e6479f63-bc17-41f3-a702-158c46283e7d"},"vehicle_type_id":"4","last_reported":1700802412,"current_range_meters":27200,"station_id":"ce4bguh2rcd13ifvqckg","pricing_plan_id":"free"},{"bike_id":"b3d99ccc-0105-4e40-98ab-1987e8dacffc","system_id":"levelo_inurba_marseille","lat":43.308968,"lon":5.372008,"is_reserved":false,"is_disabled":false,"rental_uris":{"android":"levelo://app?vid=b3d99ccc-0105-4e40-98ab-1987e8dacffc","ios":"levelo://app?vid=b3d99ccc-0105-4e40-98ab-1987e8dacffc"},"vehicle_type_id":"4","last_reported":1700802412,"current_range_meters":20000,"station_id":"ce4bguh2rcd13ifvqckg","pricing_plan_id":"free"},{"bike_id":"13fb2fc7-096f-498d-8543-85c9f78bd644","system_id":"levelo_inurba_marseille","lat":43.311131,"lon":5.377651,"is_reserved":false,"is_disabled":false,"rental_uris":{"android":"levelo://app?vid=13fb2fc7-096f-498d-8543-85c9f78bd644","ios":"levelo://app?vid=13fb2fc7-096f-498d-8543-85c9f78bd644"},"vehicle_type_id":"4","last_reported":1700802412,"current_range_meters":0,"station_id":"ce4bgt92rcd13ifvqcg0","pricing_plan_id":"free"},{"bike_id":"ef07fcf3-fe1b-4047-a24b-35dacd695eee","system_id":"levelo_inurba_marseille","lat":43.311131,"lon":5.377651,"is_reserved":false,"is_disabled":false,"rental_uris":{"android":"levelo://app?vid=ef07fcf3-fe1b-4047-a24b-35dacd695eee","ios":"levelo://app?vid=ef07fcf3-fe1b-4047-a24b-35dacd695eee"},"vehicle_type_id":"4","last_reported":1700802412,"current_range_meters":30800,"station_id":"ce4bgt92rcd13ifvqcg0","pricing_plan_id":"free"},{"bike_id":"acf2e61c-da7a-4535-afce-6dae5cd5d176","system_id":"levelo_inurba_marseille","lat":43.308184,"lon":5.376538,"is_reserved":false,"is_disabled":false,"rental_uris":{"android":"levelo://app?vid=acf2e61c-da7a-4535-afce-6dae5cd5d176","ios":"levelo://app?vid=acf2e61c-da7a-4535-afce-6dae5cd5d176"},"vehicle_type_id":"4","last_reported":1700802412,"current_range_meters":4400,"station_id":"ce4bgv92rcd13ifvqcq0","pricing_plan_id":"free"},{"bike_id":"58490dd7-2976-4b13-bdb4-051cf0bde315","system_id":"levelo_inurba_marseille","lat":43.307945,"lon":5.376487,"is_reserved":false,"is_disabled":false,"rental_uris":{"android":"levelo://app?vid=58490dd7-2976-4b13-bdb4-051cf0bde315","ios":"levelo://app?vid=58490dd7-2976-4b13-bdb4-051cf0bde315"},"vehicle_type_id":"4","last_reported":1700802412,"current_range_meters":30000,"station_id":"ce4bgv92rcd13ifvqcq0","pricing_plan_id":"free"},{"bike_id":"e63b7326-70a2-469d-98a5-e2759a710c41","system_id":"levelo_inurba_marseille","lat":43.307945,"lon":5.376487,"is_reserved":false,"is_disabled":false,"rental_uris":{"android":"levelo://app?vid=e63b7326-70a2-469d-98a5-e2759a710c41","ios":"levelo://app?vid=e63b7326-70a2-469d-98a5-e2759a710c41"},"vehicle_type_id":"4","last_reported":1700802412,"current_range_meters":24000,"station_id":"ce4bgv92rcd13ifvqcq0","pricing_plan_id":"free"},{"bike_id":"bf9b963a-fc7a-4818-ae07-3d139b4dd181","system_id":"levelo_inurba_marseille","lat":43.307945,"lon":5.376487,"is_reserved":false,"is_disabled":false,"rental_uris":{"android":"levelo://app?vid=bf9b963a-fc7a-4818-ae07-3d139b4dd181","ios":"levelo://app?vid=bf9b963a-fc7a-4818-ae07-3d139b4dd181"},"vehicle_type_id":"4","last_reported":1700802412,"current_range_meters":27200,"station_id":"ce4bgv92rcd13ifvqcq0","pricing_plan_id":"free"},{"bike_id":"d8b67b59-983c-4f7e-b00e-95d254b0ce7a","system_id":"levelo_inurba_marseille","lat":43.307945,"lon":5.376487,"is_reserved":false,"is_disabled":false,"rental_uris":{"android":"levelo://app?vid=d8b67b59-983c-4f7e-b00e-95d254b0ce7a","ios":"levelo://app?vid=d8b67b59-983c-4f7e-b00e-95d254b0ce7a"},"vehicle_type_id":"4","last_reported":1700802412,"current_range_meters":32000,"station_id":"ce4bgv92rcd13ifvqcq0","pricing_plan_id":"free"},{"bike_id":"a0c6969c-d735-43f8-9a40-7425d758f3e6","system_id":"levelo_inurba_marseille","lat":43.303046,"lon":5.368981,"is_reserved":false,"is_disabled":false,"rental_uris":{"android":"levelo://app?vid=a0c6969c-d735-43f8-9a40-7425d758f3e6","ios":"levelo://app?vid=a0c6969c-d735-43f8-9a40-7425d758f3e6"},"vehicle_type_id":"4","last_reported":1700802412,"current_range_meters":30000,"station_id":"ce4bgqh2rcd13ifvqc5g","pricing_plan_id":"free"},{"bike_id":"f643db10-ee33-4d98-85d7-c408eb1a80ce","system_id":"levelo_inurba_marseille","lat":43.315293,"lon":5.380349,"is_reserved":false,"is_disabled":false,"rental_uris":{"android":"levelo://app?vid=f643db10-ee33-4d98-85d7-c408eb1a80ce","ios":"levelo://app?vid=f643db10-ee33-4d98-85d7-c408eb1a80ce"},"vehicle_type_id":"4","last_reported":1700802412,"current_range_meters":400,"station_id":"ce4bhsp2rcd13ifvqi50","pricing_plan_id":"free"},{"bike_id":"72e8f02a-e991-439d-9aca-ed75afc42fc4","system_id":"levelo_inurba_marseille","lat":43.301939,"lon":5.366286,"is_reserved":false,"is_disabled":false,"rental_uris":{"android":"levelo://app?vid=72e8f02a-e991-439d-9aca-ed75afc42fc4","ios":"levelo://app?vid=72e8f02a-e991-439d-9aca-ed75afc42fc4"},"vehicle_type_id":"4","last_reported":1700802412,"current_range_meters":26800,"station_id":"ce4bgrh2rcd13ifvqc8g","pricing_plan_id":"free"},{"bike_id":"e8cc6fcf-f363-4bba-b0e2-bb9aaed0d1a2","system_id":"levelo_inurba_marseille","lat":43.304606,"lon":5.379026,"is_reserved":false,"is_disabled":false,"rental_uris":{"android":"levelo://app?vid=e8cc6fcf-f363-4bba-b0e2-bb9aaed0d1a2","ios":"levelo://app?vid=e8cc6fcf-f363-4bba-b0e2-bb9aaed0d1a2"},"vehicle_type_id":"4","last_reported":1700802412,"current_range_meters":25200,"station_id":"ce4bgup2rcd13ifvqcn0","pricing_plan_id":"free"},{"bike_id":"88f9885d-2aba-4ffd-98e6-b3afeb25071d","system_id":"levelo_inurba_marseille","lat":43.304606,"lon":5.379026,"is_reserved":false,"is_disabled":false,"rental_uris":{"android":"levelo://app?vid=88f9885d-2aba-4ffd-98e6-b3afeb25071d","ios":"levelo://app?vid=88f9885d-2aba-4ffd-98e6-b3afeb25071d"},"vehicle_type_id":"4","last_reported":1700802412,"current_range_meters":30800,"station_id":"ce4bgup2rcd13ifvqcn0","pricing_plan_id":"free"},{"bike_id":"1f62dc47-a107-4457-bcf5-eb1313d926fa","system_id":"levelo_inurba_marseille","lat":43.304606,"lon":5.379026,"is_reserved":false,"is_disabled":false,"rental_uris":{"android":"levelo://app?vid=1f62dc47-a107-4457-bcf5-eb1313d926fa","ios":"levelo://app?vid=1f62dc47-a107-4457-bcf5-eb1313d926fa"},"vehicle_type_id":"4","last_reported":1700802412,"current_range_meters":18000,"station_id":"ce4bgup2rcd13ifvqcn0","pricing_plan_id":"free"},{"bike_id":"3e600ce8-8d95-423d-8d82-8930bd9bef28","system_id":"levelo_inurba_marseille","lat":43.304606,"lon":5.379026,"is_reserved":false,"is_disabled":false,"rental_uris":{"android":"levelo://app?vid=3e600ce8-8d95-423d-8d82-8930bd9bef28","ios":"levelo://app?vid=3e600ce8-8d95-423d-8d82-8930bd9bef28"},"vehicle_type_id":"4","last_reported":1700802412,"current_range_meters":20800,"station_id":"ce4bgup2rcd13ifvqcn0","pricing_plan_id":"free"},{"bike_id":"0a0ea16b-9cb2-4ca6-af29-0042edb6317c","system_id":"levelo_inurba_marseille","lat":43.304606,"lon":5.379026,"is_reserved":false,"is_disabled":false,"rental_uris":{"android":"levelo://app?vid=0a0ea16b-9cb2-4ca6-af29-0042edb6317c","ios":"levelo://app?vid=0a0ea16b-9cb2-4ca6-af29-0042edb6317c"},"vehicle_type_id":"4","last_reported":1700802412,"current_range_meters":8000,"station_id":"ce4bgup2rcd13ifvqcn0","pricing_plan_id":"free"},{"bike_id":"3fdaf185-14e8-47e2-8571-6985ac864516","system_id":"levelo_inurba_marseille","lat":43.304606,"lon":5.379026,"is_reserved":false,"is_disabled":false,"rental_uris":{"android":"levelo://app?vid=3fdaf185-14e8-47e2-8571-6985ac864516","ios":"levelo://app?vid=3fdaf185-14e8-47e2-8571-6985ac864516"},"vehicle_type_id":"4","last_reported":1700802412,"current_range_meters":24000,"station_id":"ce4bgup2rcd13ifvqcn0","pricing_plan_id":"free"},{"bike_id":"862214a4-7326-4a50-91ff-3be83d332b2b","system_id":"levelo_inurba_marseille","lat":43.304606,"lon":5.379026,"is_reserved":false,"is_disabled":false,"rental_uris":{"android":"levelo://app?vid=862214a4-7326-4a50-91ff-3be83d332b2b","ios":"levelo://app?vid=862214a4-7326-4a50-91ff-3be83d332b2b"},"vehicle_type_id":"4","last_reported":1700802412,"current_range_meters":29600,"station_id":"ce4bgup2rcd13ifvqcn0","pricing_plan_id":"free"},{"bike_id":"63711502-f6e6-434b-bd8b-303079f96497","system_id":"levelo_inurba_marseille","lat":43.304606,"lon":5.379026,"is_reserved":false,"is_disabled":false,"rental_uris":{"android":"levelo://app?vid=63711502-f6e6-434b-bd8b-303079f96497","ios":"levelo://app?vid=63711502-f6e6-434b-bd8b-303079f96497"},"vehicle_type_id":"4","last_reported":1700802412,"current_range_meters":19600,"station_id":"ce4bgup2rcd13ifvqcn0","pricing_plan_id":"free"},{"bike_id":"06b36272-b7fb-460c-a01f-dae90a8c679e","system_id":"levelo_inurba_marseille","lat":43.304606,"lon":5.379026,"is_reserved":false,"is_disabled":false,"rental_uris":{"android":"levelo://app?vid=06b36272-b7fb-460c-a01f-dae90a8c679e","ios":"levelo://app?vid=06b36272-b7fb-460c-a01f-dae90a8c679e"},"vehicle_type_id":"4","last_reported":1700802412,"current_range_meters":24000,"station_id":"ce4bgup2rcd13ifvqcn0","pricing_plan_id":"free"},{"bike_id":"cb6473fa-4d3d-428d-876e-2a8d89dc00e1","system_id":"levelo_inurba_marseille","lat":43.304606,"lon":5.379026,"is_reserved":false,"is_disabled":false,"rental_uris":{"android":"levelo://app?vid=cb6473fa-4d3d-428d-876e-2a8d89dc00e1","ios":"levelo://app?vid=cb6473fa-4d3d-428d-876e-2a8d89dc00e1"},"vehicle_type_id":"4","last_reported":1700802412,"current_range_meters":15200,"station_id":"ce4bgup2rcd13ifvqcn0","pricing_plan_id":"free"},{"bike_id":"8f601231-3856-411f-ab25-71f77a1a141a","system_id":"levelo_inurba_marseille","lat":43.304606,"lon":5.379026,"is_reserved":false,"is_disabled":false,"rental_uris":{"android":"levelo://app?vid=8f601231-3856-411f-ab25-71f77a1a141a","ios":"levelo://app?vid=8f601231-3856-411f-ab25-71f77a1a141a"},"vehicle_type_id":"4","last_reported":1700802412,"current_range_meters":26000,"station_id":"ce4bgup2rcd13ifvqcn0","pricing_plan_id":"free"},{"bike_id":"45d93b2b-e763-4ae3-b99f-d5ea218f5eac","system_id":"levelo_inurba_marseille","lat":43.304606,"lon":5.379026,"is_reserved":false,"is_disabled":false,"rental_uris":{"android":"levelo://app?vid=45d93b2b-e763-4ae3-b99f-d5ea218f5eac","ios":"levelo://app?vid=45d93b2b-e763-4ae3-b99f-d5ea218f5eac"},"vehicle_type_id":"4","last_reported":1700802412,"current_range_meters":29200,"station_id":"ce4bgup2rcd13ifvqcn0","pricing_plan_id":"free"},{"bike_id":"7a302b99-78fb-4b44-a678-797e4ef58861","system_id":"levelo_inurba_marseille","lat":43.304606,"lon":5.379026,"is_reserved":false,"is_disabled":false,"rental_uris":{"android":"levelo://app?vid=7a302b99-78fb-4b44-a678-797e4ef58861","ios":"levelo://app?vid=7a302b99-78fb-4b44-a678-797e4ef58861"},"vehicle_type_id":"4","last_reported":1700802412,"current_range_meters":24400,"station_id":"ce4bgup2rcd13ifvqcn0","pricing_plan_id":"free"},{"bike_id":"045fb978-106d-4f92-a3eb-eb2742ad314e","system_id":"levelo_inurba_marseille","lat":43.302818,"lon":5.376928,"is_reserved":false,"is_disabled":false,"rental_uris":{"android":"levelo://app?vid=045fb978-106d-4f92-a3eb-eb2742ad314e","ios":"levelo://app?vid=045fb978-106d-4f92-a3eb-eb2742ad314e"},"vehicle_type_id":"4","last_reported":1700802412,"current_range_meters":30000,"station_id":"ce4bguh2rcd13ifvqcj0","pricing_plan_id":"free"},{"bike_id":"b3a8c1d7-5920-48a8-a230-db64da99892d","system_id":"levelo_inurba_marseille","lat":43.302836,"lon":5.376974,"is_reserved":false,"is_disabled":false,"rental_uris":{"android":"levelo://app?vid=b3a8c1d7-5920-48a8-a230-db64da99892d","ios":"levelo://app?vid=b3a8c1d7-5920-48a8-a230-db64da99892d"},"vehicle_type_id":"4","last_reported":1700802412,"current_range_meters":19600,"station_id":"ce4bguh2rcd13ifvqcj0","pricing_plan_id":"free"},{"bike_id":"d37bc3cd-2110-4b66-9a06-091b8ba4a451","system_id":"levelo_inurba_marseille","lat":43.302784,"lon":5.377158,"is_reserved":false,"is_disabled":false,"rental_uris":{"android":"levelo://app?vid=d37bc3cd-2110-4b66-9a06-091b8ba4a451","ios":"levelo://app?vid=d37bc3cd-2110-4b66-9a06-091b8ba4a451"},"vehicle_type_id":"4","last_reported":1700802412,"current_range_meters":31200,"station_id":"ce4bguh2rcd13ifvqcj0","pricing_plan_id":"free"},{"bike_id":"4a9c6fa3-235e-483e-9e8f-e82d12d74620","system_id":"levelo_inurba_marseille","lat":43.302784,"lon":5.377158,"is_reserved":false,"is_disabled":false,"rental_uris":{"android":"levelo://app?vid=4a9c6fa3-235e-483e-9e8f-e82d12d74620","ios":"levelo://app?vid=4a9c6fa3-235e-483e-9e8f-e82d12d74620"},"vehicle_type_id":"4","last_reported":1700802412,"current_range_meters":30400,"station_id":"ce4bguh2rcd13ifvqcj0","pricing_plan_id":"free"},{"bike_id":"83bc3881-4fe7-4e4c-8770-9e8a6c9c8bde","system_id":"levelo_inurba_marseille","lat":43.302784,"lon":5.377158,"is_reserved":false,"is_disabled":false,"rental_uris":{"android":"levelo://app?vid=83bc3881-4fe7-4e4c-8770-9e8a6c9c8bde","ios":"levelo://app?vid=83bc3881-4fe7-4e4c-8770-9e8a6c9c8bde"},"vehicle_type_id":"4","last_reported":1700802412,"current_range_meters":24000,"station_id":"ce4bguh2rcd13ifvqcj0","pricing_plan_id":"free"},{"bike_id":"fe75e2c6-326c-432b-abb1-e63060ff3627","system_id":"levelo_inurba_marseille","lat":43.30143,"lon":5.37413,"is_reserved":false,"is_disabled":false,"rental_uris":{"android":"levelo://app?vid=fe75e2c6-326c-432b-abb1-e63060ff3627","ios":"levelo://app?vid=fe75e2c6-326c-432b-abb1-e63060ff3627"},"vehicle_type_id":"4","last_reported":1700802412,"current_range_meters":4800,"station_id":"ce4bgs92rcd13ifvqcc0","pricing_plan_id":"free"},{"bike_id":"c9e6d488-b598-4d86-8431-7b89545bfa15","system_id":"levelo_inurba_marseille","lat":43.302784,"lon":5.377158,"is_reserved":false,"is_disabled":false,"rental_uris":{"android":"levelo://app?vid=c9e6d488-b598-4d86-8431-7b89545bfa15","ios":"levelo://app?vid=c9e6d488-b598-4d86-8431-7b89545bfa15"},"vehicle_type_id":"4","last_reported":1700802412,"current_range_meters":24800,"station_id":"ce4bguh2rcd13ifvqcj0","pricing_plan_id":"free"},{"bike_id":"2bf366e8-5828-4626-a5f2-8fdcd9e9b6d3","system_id":"levelo_inurba_marseille","lat":43.302784,"lon":5.377158,"is_reserved":false,"is_disabled":false,"rental_uris":{"android":"levelo://app?vid=2bf366e8-5828-4626-a5f2-8fdcd9e9b6d3","ios":"levelo://app?vid=2bf366e8-5828-4626-a5f2-8fdcd9e9b6d3"},"vehicle_type_id":"4","last_reported":1700802412,"current_range_meters":23200,"station_id":"ce4bguh2rcd13ifvqcj0","pricing_plan_id":"free"},{"bike_id":"f11497f2-4092-486a-b383-0a8121b39782","system_id":"levelo_inurba_marseille","lat":43.301429,"lon":5.37413,"is_reserved":false,"is_disabled":false,"rental_uris":{"android":"levelo://app?vid=f11497f2-4092-486a-b383-0a8121b39782","ios":"levelo://app?vid=f11497f2-4092-486a-b383-0a8121b39782"},"vehicle_type_id":"4","last_reported":1700802412,"current_range_meters":30800,"station_id":"ce4bgs92rcd13ifvqcc0","pricing_plan_id":"free"},{"bike_id":"ddcd8fb5-e6f9-4509-b663-a5f016a9be0b","system_id":"levelo_inurba_marseille","lat":43.32002,"lon":5.38148,"is_reserved":false,"is_disabled":false,"rental_uris":{"android":"levelo://app?vid=ddcd8fb5-e6f9-4509-b663-a5f016a9be0b","ios":"levelo://app?vid=ddcd8fb5-e6f9-4509-b663-a5f016a9be0b"},"vehicle_type_id":"4","last_reported":1700802412,"current_range_meters":5200,"station_id":"ce4bhr12rcd13ifvqhpg","pricing_plan_id":"free"},{"bike_id":"40388ece-9b2c-4fc6-9f55-3cafeb576410","system_id":"levelo_inurba_marseille","lat":43.299222,"lon":5.365554,"is_reserved":false,"is_disabled":false,"rental_uris":{"android":"levelo://app?vid=40388ece-9b2c-4fc6-9f55-3cafeb576410","ios":"levelo://app?vid=40388ece-9b2c-4fc6-9f55-3cafeb576410"},"vehicle_type_id":"4","last_reported":1700802412,"current_range_meters":14400,"station_id":"ce4bgm92rcd13ifvqbr0","pricing_plan_id":"free"},{"bike_id":"4495249a-646c-4837-ad9e-15d56f1429f5","system_id":"levelo_inurba_marseille","lat":43.305364,"lon":5.384119,"is_reserved":false,"is_disabled":false,"rental_uris":{"android":"levelo://app?vid=4495249a-646c-4837-ad9e-15d56f1429f5","ios":"levelo://app?vid=4495249a-646c-4837-ad9e-15d56f1429f5"},"vehicle_type_id":"4","last_reported":1700802412,"current_range_meters":16800,"station_id":"ce4bgg92rcd13ifvqb30","pricing_plan_id":"free"},{"bike_id":"0046eecc-ff7c-4287-8e67-69c8f009b134","system_id":"levelo_inurba_marseille","lat":43.298433,"lon":5.362774,"is_reserved":false,"is_disabled":false,"rental_uris":{"android":"levelo://app?vid=0046eecc-ff7c-4287-8e67-69c8f009b134","ios":"levelo://app?vid=0046eecc-ff7c-4287-8e67-69c8f009b134"},"vehicle_type_id":"4","last_reported":1700802412,"current_range_meters":19200,"station_id":"ce4bgpp2rcd13ifvqc3g","pricing_plan_id":"free"},{"bike_id":"d53e9b40-d6d4-47e5-9936-344164111802","system_id":"levelo_inurba_marseille","lat":43.311722,"lon":5.387247,"is_reserved":false,"is_disabled":false,"rental_uris":{"android":"levelo://app?vid=d53e9b40-d6d4-47e5-9936-344164111802","ios":"levelo://app?vid=d53e9b40-d6d4-47e5-9936-344164111802"},"vehicle_type_id":"4","last_reported":1700802412,"current_range_meters":28400,"station_id":"ce4bgv12rcd13ifvqcp0","pricing_plan_id":"free"},{"bike_id":"3c226ab1-ba30-47cf-8888-2e809819569a","system_id":"levelo_inurba_marseille","lat":43.311722,"lon":5.387247,"is_reserved":false,"is_disabled":false,"rental_uris":{"android":"levelo://app?vid=3c226ab1-ba30-47cf-8888-2e809819569a","ios":"levelo://app?vid=3c226ab1-ba30-47cf-8888-2e809819569a"},"vehicle_type_id":"4","last_reported":1700802412,"current_range_meters":30800,"station_id":"ce4bgv12rcd13ifvqcp0","pricing_plan_id":"free"},{"bike_id":"72628ee5-6dff-4a8e-9c6f-cbb02f0dd96b","system_id":"levelo_inurba_marseille","lat":43.311722,"lon":5.387247,"is_reserved":false,"is_disabled":false,"rental_uris":{"android":"levelo://app?vid=72628ee5-6dff-4a8e-9c6f-cbb02f0dd96b","ios":"levelo://app?vid=72628ee5-6dff-4a8e-9c6f-cbb02f0dd96b"},"vehicle_type_id":"4","last_reported":1700802412,"current_range_meters":32000,"station_id":"ce4bgv12rcd13ifvqcp0","pricing_plan_id":"free"},{"bike_id":"daeb90ed-1744-4d8b-b9bb-00f0736cbe10","system_id":"levelo_inurba_marseille","lat":43.311722,"lon":5.387247,"is_reserved":false,"is_disabled":false,"rental_uris":{"android":"levelo://app?vid=daeb90ed-1744-4d8b-b9bb-00f0736cbe10","ios":"levelo://app?vid=daeb90ed-1744-4d8b-b9bb-00f0736cbe10"},"vehicle_type_id":"4","last_reported":1700802412,"current_range_meters":32000,"station_id":"ce4bgv12rcd13ifvqcp0","pricing_plan_id":"free"},{"bike_id":"6c8815d2-e69d-4ea2-93f2-13e13754bf40","system_id":"levelo_inurba_marseille","lat":43.311722,"lon":5.387247,"is_reserved":false,"is_disabled":false,"rental_uris":{"android":"levelo://app?vid=6c8815d2-e69d-4ea2-93f2-13e13754bf40","ios":"levelo://app?vid=6c8815d2-e69d-4ea2-93f2-13e13754bf40"},"vehicle_type_id":"4","last_reported":1700802412,"current_range_meters":31200,"station_id":"ce4bgv12rcd13ifvqcp0","pricing_plan_id":"free"},{"bike_id":"cda141d7-f551-4a7b-ab95-ee2b0da88c55","system_id":"levelo_inurba_marseille","lat":43.311722,"lon":5.387247,"is_reserved":false,"is_disabled":false,"rental_uris":{"android":"levelo://app?vid=cda141d7-f551-4a7b-ab95-ee2b0da88c55","ios":"levelo://app?vid=cda141d7-f551-4a7b-ab95-ee2b0da88c55"},"vehicle_type_id":"4","last_reported":1700802412,"current_range_meters":18800,"station_id":"ce4bgv12rcd13ifvqcp0","pricing_plan_id":"free"},{"bike_id":"7263550a-732f-4c74-8c8a-3ec225b5f907","system_id":"levelo_inurba_marseille","lat":43.299243,"lon":5.37481,"is_reserved":false,"is_disabled":false,"rental_uris":{"android":"levelo://app?vid=7263550a-732f-4c74-8c8a-3ec225b5f907","ios":"levelo://app?vid=7263550a-732f-4c74-8c8a-3ec225b5f907"},"vehicle_type_id":"4","last_reported":1700802412,"current_range_meters":29600,"station_id":"ce4bgjh2rcd13ifvqbg0","pricing_plan_id":"free"},{"bike_id":"e20278c6-b58d-4286-b77b-9f26462eade6","system_id":"levelo_inurba_marseille","lat":43.322872,"lon":5.382756,"is_reserved":false,"is_disabled":false,"rental_uris":{"android":"levelo://app?vid=e20278c6-b58d-4286-b77b-9f26462eade6","ios":"levelo://app?vid=e20278c6-b58d-4286-b77b-9f26462eade6"},"vehicle_type_id":"4","last_reported":1700802412,"current_range_meters":30800,"station_id":"ce4bhr12rcd13ifvqhqg","pricing_plan_id":"free"},{"bike_id":"5a877054-2cf2-41cb-b572-968f14afeb92","system_id":"levelo_inurba_marseille","lat":43.322872,"lon":5.382756,"is_reserved":false,"is_disabled":false,"rental_uris":{"android":"levelo://app?vid=5a877054-2cf2-41cb-b572-968f14afeb92","ios":"levelo://app?vid=5a877054-2cf2-41cb-b572-968f14afeb92"},"vehicle_type_id":"4","last_reported":1700802412,"current_range_meters":27600,"station_id":"ce4bhr12rcd13ifvqhqg","pricing_plan_id":"free"},{"bike_id":"c34f1d2e-ada0-4586-9443-3bd664080e3f","system_id":"levelo_inurba_marseille","lat":43.297794,"lon":5.370888,"is_reserved":false,"is_disabled":false,"rental_uris":{"android":"levelo://app?vid=c34f1d2e-ada0-4586-9443-3bd664080e3f","ios":"levelo://app?vid=c34f1d2e-ada0-4586-9443-3bd664080e3f"},"vehicle_type_id":"4","last_reported":1700802412,"current_range_meters":30800,"station_id":"ce4bgop2rcd13ifvqc1g","pricing_plan_id":"free"},{"bike_id":"ddd3fff7-fc57-48f9-825f-f47d18d1dbee","system_id":"levelo_inurba_marseille","lat":43.32816,"lon":5.36689,"is_reserved":false,"is_disabled":false,"rental_uris":{"android":"levelo://app?vid=ddd3fff7-fc57-48f9-825f-f47d18d1dbee","ios":"levelo://app?vid=ddd3fff7-fc57-48f9-825f-f47d18d1dbee"},"vehicle_type_id":"4","last_reported":1700802412,"current_range_meters":1200,"station_id":"ce4bhs92rcd13ifvqi0g","pricing_plan_id":"free"},{"bike_id":"4d7509f5-9559-42ca-a60d-bef9e80f0981","system_id":"levelo_inurba_marseille","lat":43.299579,"lon":5.379146,"is_reserved":false,"is_disabled":false,"rental_uris":{"android":"levelo://app?vid=4d7509f5-9559-42ca-a60d-bef9e80f0981","ios":"levelo://app?vid=4d7509f5-9559-42ca-a60d-bef9e80f0981"},"vehicle_type_id":"4","last_reported":1700802412,"current_range_meters":0,"station_id":"","pricing_plan_id":"free"},{"bike_id":"8d6f7e85-40ba-4b13-9f5d-f73a2b06b67b","system_id":"levelo_inurba_marseille","lat":43.296131,"lon":5.370791,"is_reserved":false,"is_disabled":false,"rental_uris":{"android":"levelo://app?vid=8d6f7e85-40ba-4b13-9f5d-f73a2b06b67b","ios":"levelo://app?vid=8d6f7e85-40ba-4b13-9f5d-f73a2b06b67b"},"vehicle_type_id":"4","last_reported":1700802412,"current_range_meters":26800,"station_id":"ce4bgnh2rcd13ifvqc0g","pricing_plan_id":"free"},{"bike_id":"6772f716-1e72-4489-b849-cd7ab103bd20","system_id":"levelo_inurba_marseille","lat":43.299028,"lon":5.381509,"is_reserved":false,"is_disabled":false,"rental_uris":{"android":"levelo://app?vid=6772f716-1e72-4489-b849-cd7ab103bd20","ios":"levelo://app?vid=6772f716-1e72-4489-b849-cd7ab103bd20"},"vehicle_type_id":"4","last_reported":1700802412,"current_range_meters":29600,"station_id":"ce4bgj12rcd13ifvqbc0","pricing_plan_id":"free"},{"bike_id":"a1bdb89d-3c72-4b37-88bf-c040491b8d68","system_id":"levelo_inurba_marseille","lat":43.317557,"lon":5.390173,"is_reserved":false,"is_disabled":false,"rental_uris":{"android":"levelo://app?vid=a1bdb89d-3c72-4b37-88bf-c040491b8d68","ios":"levelo://app?vid=a1bdb89d-3c72-4b37-88bf-c040491b8d68"},"vehicle_type_id":"4","last_reported":1700802412,"current_range_meters":31600,"station_id":"ce4bhqp2rcd13ifvqhng","pricing_plan_id":"free"},{"bike_id":"ce134bc8-1078-4a15-b28e-d94d66dd997f","system_id":"levelo_inurba_marseille","lat":43.309589,"lon":5.390258,"is_reserved":false,"is_disabled":false,"rental_uris":{"android":"levelo://app?vid=ce134bc8-1078-4a15-b28e-d94d66dd997f","ios":"levelo://app?vid=ce134bc8-1078-4a15-b28e-d94d66dd997f"},"vehicle_type_id":"4","last_reported":1700802412,"current_range_meters":9600,"station_id":"ce4bgup2rcd13ifvqco0","pricing_plan_id":"free"},{"bike_id":"77b20085-64aa-42a2-9011-25d377da02d5","system_id":"levelo_inurba_marseille","lat":43.317557,"lon":5.390173,"is_reserved":false,"is_disabled":false,"rental_uris":{"android":"levelo://app?vid=77b20085-64aa-42a2-9011-25d377da02d5","ios":"levelo://app?vid=77b20085-64aa-42a2-9011-25d377da02d5"},"vehicle_type_id":"4","last_reported":1700802412,"current_range_meters":30800,"station_id":"ce4bhqp2rcd13ifvqhng","pricing_plan_id":"free"},{"bike_id":"e870a805-2fbd-40ae-aeb8-108dc772ed5d","system_id":"levelo_inurba_marseille","lat":43.317591,"lon":5.39027,"is_reserved":false,"is_disabled":false,"rental_uris":{"android":"levelo://app?vid=e870a805-2fbd-40ae-aeb8-108dc772ed5d","ios":"levelo://app?vid=e870a805-2fbd-40ae-aeb8-108dc772ed5d"},"vehicle_type_id":"4","last_reported":1700802412,"current_range_meters":0,"station_id":"ce4bhqp2rcd13ifvqhng","pricing_plan_id":"free"},{"bike_id":"51a2d968-7261-49fe-94b9-838f3bc8ddc6","system_id":"levelo_inurba_marseille","lat":43.298037,"lon":5.381066,"is_reserved":false,"is_disabled":false,"rental_uris":{"android":"levelo://app?vid=51a2d968-7261-49fe-94b9-838f3bc8ddc6","ios":"levelo://app?vid=51a2d968-7261-49fe-94b9-838f3bc8ddc6"},"vehicle_type_id":"4","last_reported":1700802412,"current_range_meters":27600,"station_id":"ce4bgip2rcd13ifvqbb0","pricing_plan_id":"free"},{"bike_id":"c7404532-9796-4173-b2e6-2235b9ede2b1","system_id":"levelo_inurba_marseille","lat":43.30095,"lon":5.386934,"is_reserved":false,"is_disabled":false,"rental_uris":{"android":"levelo://app?vid=c7404532-9796-4173-b2e6-2235b9ede2b1","ios":"levelo://app?vid=c7404532-9796-4173-b2e6-2235b9ede2b1"},"vehicle_type_id":"4","last_reported":1700802412,"current_range_meters":0,"station_id":"","pricing_plan_id":"free"},{"bike_id":"6b621983-5e9e-42f7-990d-ad5a093820d2","system_id":"levelo_inurba_marseille","lat":43.293801,"lon":5.363066,"is_reserved":false,"is_disabled":false,"rental_uris":{"android":"levelo://app?vid=6b621983-5e9e-42f7-990d-ad5a093820d2","ios":"levelo://app?vid=6b621983-5e9e-42f7-990d-ad5a093820d2"},"vehicle_type_id":"4","last_reported":1700802412,"current_range_meters":6000,"station_id":"","pricing_plan_id":"free"},{"bike_id":"3b5ce91f-4509-4d53-8414-319f702fbfed","system_id":"levelo_inurba_marseille","lat":43.32367,"lon":5.388836,"is_reserved":false,"is_disabled":false,"rental_uris":{"android":"levelo://app?vid=3b5ce91f-4509-4d53-8414-319f702fbfed","ios":"levelo://app?vid=3b5ce91f-4509-4d53-8414-319f702fbfed"},"vehicle_type_id":"4","last_reported":1700802412,"current_range_meters":5200,"station_id":"ce4bhqp2rcd13ifvqhog","pricing_plan_id":"free"},{"bike_id":"a640284d-db0b-45ce-9ba1-7671109f89d2","system_id":"levelo_inurba_marseille","lat":43.32367,"lon":5.388836,"is_reserved":false,"is_disabled":false,"rental_uris":{"android":"levelo://app?vid=a640284d-db0b-45ce-9ba1-7671109f89d2","ios":"levelo://app?vid=a640284d-db0b-45ce-9ba1-7671109f89d2"},"vehicle_type_id":"4","last_reported":1700802412,"current_range_meters":4400,"station_id":"ce4bhqp2rcd13ifvqhog","pricing_plan_id":"free"},{"bike_id":"59398d6a-1eaf-4e92-b0ad-03db71680ea9","system_id":"levelo_inurba_marseille","lat":43.32367,"lon":5.388836,"is_reserved":false,"is_disabled":false,"rental_uris":{"android":"levelo://app?vid=59398d6a-1eaf-4e92-b0ad-03db71680ea9","ios":"levelo://app?vid=59398d6a-1eaf-4e92-b0ad-03db71680ea9"},"vehicle_type_id":"4","last_reported":1700802412,"current_range_meters":2400,"station_id":"ce4bhqp2rcd13ifvqhog","pricing_plan_id":"free"},{"bike_id":"4cbf4ad3-9228-42cf-a8e8-d8441299a33a","system_id":"levelo_inurba_marseille","lat":43.29309,"lon":5.37167,"is_reserved":false,"is_disabled":false,"rental_uris":{"android":"levelo://app?vid=4cbf4ad3-9228-42cf-a8e8-d8441299a33a","ios":"levelo://app?vid=4cbf4ad3-9228-42cf-a8e8-d8441299a33a"},"vehicle_type_id":"4","last_reported":1700802412,"current_range_meters":24000,"station_id":"ce4bgh92rcd13ifvqb40","pricing_plan_id":"free"},{"bike_id":"093f5d5a-d597-4d8c-8c72-a558f1638945","system_id":"levelo_inurba_marseille","lat":43.29306,"lon":5.3717,"is_reserved":false,"is_disabled":false,"rental_uris":{"android":"levelo://app?vid=093f5d5a-d597-4d8c-8c72-a558f1638945","ios":"levelo://app?vid=093f5d5a-d597-4d8c-8c72-a558f1638945"},"vehicle_type_id":"4","last_reported":1700802412,"current_range_meters":27200,"station_id":"ce4bgh92rcd13ifvqb40","pricing_plan_id":"free"},{"bike_id":"100f76ef-7e63-4504-990d-940e3134d4cc","system_id":"levelo_inurba_marseille","lat":43.293038,"lon":5.371597,"is_reserved":false,"is_disabled":false,"rental_uris":{"android":"levelo://app?vid=100f76ef-7e63-4504-990d-940e3134d4cc","ios":"levelo://app?vid=100f76ef-7e63-4504-990d-940e3134d4cc"},"vehicle_type_id":"4","last_reported":1700802412,"current_range_meters":12000,"station_id":"ce4bgh92rcd13ifvqb40","pricing_plan_id":"free"},{"bike_id":"0eac0231-d167-4954-a886-ebe05f98ceca","system_id":"levelo_inurba_marseille","lat":43.29277,"lon":5.36838,"is_reserved":false,"is_disabled":false,"rental_uris":{"android":"levelo://app?vid=0eac0231-d167-4954-a886-ebe05f98ceca","ios":"levelo://app?vid=0eac0231-d167-4954-a886-ebe05f98ceca"},"vehicle_type_id":"4","last_reported":1700802412,"current_range_meters":11200,"station_id":"ce4bhbp2rcd13ifvqesg","pricing_plan_id":"free"},{"bike_id":"bd1165fd-35cc-4c79-9c47-aa39be1318f9","system_id":"levelo_inurba_marseille","lat":43.29306,"lon":5.37181,"is_reserved":false,"is_disabled":false,"rental_uris":{"android":"levelo://app?vid=bd1165fd-35cc-4c79-9c47-aa39be1318f9","ios":"levelo://app?vid=bd1165fd-35cc-4c79-9c47-aa39be1318f9"},"vehicle_type_id":"4","last_reported":1700802412,"current_range_meters":16400,"station_id":"ce4bgh92rcd13ifvqb40","pricing_plan_id":"free"},{"bike_id":"b9df34c8-d408-49b9-a672-52adfabfff31","system_id":"levelo_inurba_marseille","lat":43.29303,"lon":5.37174,"is_reserved":false,"is_disabled":false,"rental_uris":{"android":"levelo://app?vid=b9df34c8-d408-49b9-a672-52adfabfff31","ios":"levelo://app?vid=b9df34c8-d408-49b9-a672-52adfabfff31"},"vehicle_type_id":"4","last_reported":1700802412,"current_range_meters":16000,"station_id":"ce4bgh92rcd13ifvqb40","pricing_plan_id":"free"},{"bike_id":"aed20ab0-7eb7-4ea2-959c-4ad2337fb934","system_id":"levelo_inurba_marseille","lat":43.29304,"lon":5.37182,"is_reserved":false,"is_disabled":false,"rental_uris":{"android":"levelo://app?vid=aed20ab0-7eb7-4ea2-959c-4ad2337fb934","ios":"levelo://app?vid=aed20ab0-7eb7-4ea2-959c-4ad2337fb934"},"vehicle_type_id":"4","last_reported":1700802412,"current_range_meters":28400,"station_id":"ce4bgh92rcd13ifvqb40","pricing_plan_id":"free"},{"bike_id":"03e2a5f3-2e3a-4754-ad15-00da59d71d39","system_id":"levelo_inurba_marseille","lat":43.29302,"lon":5.3718,"is_reserved":false,"is_disabled":false,"rental_uris":{"android":"levelo://app?vid=03e2a5f3-2e3a-4754-ad15-00da59d71d39","ios":"levelo://app?vid=03e2a5f3-2e3a-4754-ad15-00da59d71d39"},"vehicle_type_id":"4","last_reported":1700802412,"current_range_meters":31200,"station_id":"ce4bgh92rcd13ifvqb40","pricing_plan_id":"free"},{"bike_id":"a2a7d945-3b8e-4b6f-a850-5ceafc904b4e","system_id":"levelo_inurba_marseille","lat":43.302992,"lon":5.392136,"is_reserved":false,"is_disabled":false,"rental_uris":{"android":"levelo://app?vid=a2a7d945-3b8e-4b6f-a850-5ceafc904b4e","ios":"levelo://app?vid=a2a7d945-3b8e-4b6f-a850-5ceafc904b4e"},"vehicle_type_id":"4","last_reported":1700802412,"current_range_meters":28400,"station_id":"ce4bgkh2rcd13ifvqbk0","pricing_plan_id":"free"},{"bike_id":"786c77a7-25d4-456a-92fc-50cfc1c29783","system_id":"levelo_inurba_marseille","lat":43.292311,"lon":5.360731,"is_reserved":false,"is_disabled":false,"rental_uris":{"android":"levelo://app?vid=786c77a7-25d4-456a-92fc-50cfc1c29783","ios":"levelo://app?vid=786c77a7-25d4-456a-92fc-50cfc1c29783"},"vehicle_type_id":"4","last_reported":1700802412,"current_range_meters":29600,"station_id":"ce4bhbh2rcd13ifvqeqg","pricing_plan_id":"free"},{"bike_id":"ffeb7563-29ca-4914-aa55-48dde226176a","system_id":"levelo_inurba_marseille","lat":43.291671,"lon":5.371575,"is_reserved":false,"is_disabled":false,"rental_uris":{"android":"levelo://app?vid=ffeb7563-29ca-4914-aa55-48dde226176a","ios":"levelo://app?vid=ffeb7563-29ca-4914-aa55-48dde226176a"},"vehicle_type_id":"4","last_reported":1700802412,"current_range_meters":28000,"station_id":"ce4bha92rcd13ifvqeh0","pricing_plan_id":"free"},{"bike_id":"20b592ad-d549-4f87-b7e5-267eaf3ca54c","system_id":"levelo_inurba_marseille","lat":43.313291,"lon":5.396838,"is_reserved":false,"is_disabled":false,"rental_uris":{"android":"levelo://app?vid=20b592ad-d549-4f87-b7e5-267eaf3ca54c","ios":"levelo://app?vid=20b592ad-d549-4f87-b7e5-267eaf3ca54c"},"vehicle_type_id":"4","last_reported":1700802412,"current_range_meters":25200,"station_id":"ce4bgvp2rcd13ifvqcu0","pricing_plan_id":"free"},{"bike_id":"3dbd490d-fb2c-448b-9153-2dc8f2fa5522","system_id":"levelo_inurba_marseille","lat":43.31322,"lon":5.3969,"is_reserved":false,"is_disabled":false,"rental_uris":{"android":"levelo://app?vid=3dbd490d-fb2c-448b-9153-2dc8f2fa5522","ios":"levelo://app?vid=3dbd490d-fb2c-448b-9153-2dc8f2fa5522"},"vehicle_type_id":"4","last_reported":1700802412,"current_range_meters":29600,"station_id":"ce4bgvp2rcd13ifvqcu0","pricing_plan_id":"free"},{"bike_id":"1d10a1b1-d55f-4279-928a-9c6858f32ca9","system_id":"levelo_inurba_marseille","lat":43.33211,"lon":5.38112,"is_reserved":false,"is_disabled":false,"rental_uris":{"android":"levelo://app?vid=1d10a1b1-d55f-4279-928a-9c6858f32ca9","ios":"levelo://app?vid=1d10a1b1-d55f-4279-928a-9c6858f32ca9"},"vehicle_type_id":"4","last_reported":1700802412,"current_range_meters":0,"station_id":"","pricing_plan_id":"free"},{"bike_id":"9229bbdd-b0b0-49ba-9f0f-7a83e2209330","system_id":"levelo_inurba_marseille","lat":43.290779,"lon":5.371482,"is_reserved":false,"is_disabled":false,"rental_uris":{"android":"levelo://app?vid=9229bbdd-b0b0-49ba-9f0f-7a83e2209330","ios":"levelo://app?vid=9229bbdd-b0b0-49ba-9f0f-7a83e2209330"},"vehicle_type_id":"4","last_reported":1700802412,"current_range_meters":30000,"station_id":"ce4bh5p2rcd13ifvqe4g","pricing_plan_id":"free"},{"bike_id":"14e0fb71-0f38-47eb-8bfa-2dd36cacf9c5","system_id":"levelo_inurba_marseille","lat":43.290779,"lon":5.371482,"is_reserved":false,"is_disabled":false,"rental_uris":{"android":"levelo://app?vid=14e0fb71-0f38-47eb-8bfa-2dd36cacf9c5","ios":"levelo://app?vid=14e0fb71-0f38-47eb-8bfa-2dd36cacf9c5"},"vehicle_type_id":"4","last_reported":1700802412,"current_range_meters":30000,"station_id":"ce4bh5p2rcd13ifvqe4g","pricing_plan_id":"free"},{"bike_id":"13936310-922d-44c2-bda3-968385252e1b","system_id":"levelo_inurba_marseille","lat":43.290779,"lon":5.371482,"is_reserved":false,"is_disabled":false,"rental_uris":{"android":"levelo://app?vid=13936310-922d-44c2-bda3-968385252e1b","ios":"levelo://app?vid=13936310-922d-44c2-bda3-968385252e1b"},"vehicle_type_id":"4","last_reported":1700802412,"current_range_meters":32000,"station_id":"ce4bh5p2rcd13ifvqe4g","pricing_plan_id":"free"},{"bike_id":"d0f6724a-e574-424f-b3ba-b07c1f18b3fa","system_id":"levelo_inurba_marseille","lat":43.29067,"lon":5.37161,"is_reserved":false,"is_disabled":false,"rental_uris":{"android":"levelo://app?vid=d0f6724a-e574-424f-b3ba-b07c1f18b3fa","ios":"levelo://app?vid=d0f6724a-e574-424f-b3ba-b07c1f18b3fa"},"vehicle_type_id":"4","last_reported":1700802412,"current_range_meters":30000,"station_id":"ce4bh5p2rcd13ifvqe4g","pricing_plan_id":"free"},{"bike_id":"dd6ce732-0bbb-4fcd-87b7-5bcfadde39aa","system_id":"levelo_inurba_marseille","lat":43.290779,"lon":5.371482,"is_reserved":false,"is_disabled":false,"rental_uris":{"android":"levelo://app?vid=dd6ce732-0bbb-4fcd-87b7-5bcfadde39aa","ios":"levelo://app?vid=dd6ce732-0bbb-4fcd-87b7-5bcfadde39aa"},"vehicle_type_id":"4","last_reported":1700802412,"current_range_meters":18000,"station_id":"ce4bh5p2rcd13ifvqe4g","pricing_plan_id":"free"},{"bike_id":"f1b661bf-3eb8-402d-a0de-cd8ccd5f7ad4","system_id":"levelo_inurba_marseille","lat":43.290779,"lon":5.371482,"is_reserved":false,"is_disabled":false,"rental_uris":{"android":"levelo://app?vid=f1b661bf-3eb8-402d-a0de-cd8ccd5f7ad4","ios":"levelo://app?vid=f1b661bf-3eb8-402d-a0de-cd8ccd5f7ad4"},"vehicle_type_id":"4","last_reported":1700802412,"current_range_meters":28400,"station_id":"ce4bh5p2rcd13ifvqe4g","pricing_plan_id":"free"},{"bike_id":"14fc1ff8-d19b-48e8-9599-d27c7e220523","system_id":"levelo_inurba_marseille","lat":43.302008,"lon":5.394694,"is_reserved":false,"is_disabled":false,"rental_uris":{"android":"levelo://app?vid=14fc1ff8-d19b-48e8-9599-d27c7e220523","ios":"levelo://app?vid=14fc1ff8-d19b-48e8-9599-d27c7e220523"},"vehicle_type_id":"4","last_reported":1700802412,"current_range_meters":26800,"station_id":"ce4bh0p2rcd13ifvqd70","pricing_plan_id":"free"},{"bike_id":"03c1c5f9-500f-4057-9929-5bc84d4e1004","system_id":"levelo_inurba_marseille","lat":43.3021,"lon":5.394682,"is_reserved":false,"is_disabled":false,"rental_uris":{"android":"levelo://app?vid=03c1c5f9-500f-4057-9929-5bc84d4e1004","ios":"levelo://app?vid=03c1c5f9-500f-4057-9929-5bc84d4e1004"},"vehicle_type_id":"4","last_reported":1700802412,"current_range_meters":0,"station_id":"ce4bh0p2rcd13ifvqd70","pricing_plan_id":"free"},{"bike_id":"12c25994-1955-4f30-ac35-76858d63fe9b","system_id":"levelo_inurba_marseille","lat":43.290624,"lon":5.359245,"is_reserved":false,"is_disabled":false,"rental_uris":{"android":"levelo://app?vid=12c25994-1955-4f30-ac35-76858d63fe9b","ios":"levelo://app?vid=12c25994-1955-4f30-ac35-76858d63fe9b"},"vehicle_type_id":"4","last_reported":1700802412,"current_range_meters":30400,"station_id":"ce4bha92rcd13ifvqeg0","pricing_plan_id":"free"},{"bike_id":"31c1e1c2-82b6-4c90-8694-42a6a6b7d7b6","system_id":"levelo_inurba_marseille","lat":43.290631,"lon":5.359244,"is_reserved":false,"is_disabled":false,"rental_uris":{"android":"levelo://app?vid=31c1e1c2-82b6-4c90-8694-42a6a6b7d7b6","ios":"levelo://app?vid=31c1e1c2-82b6-4c90-8694-42a6a6b7d7b6"},"vehicle_type_id":"4","last_reported":1700802412,"current_range_meters":32000,"station_id":"ce4bha92rcd13ifvqeg0","pricing_plan_id":"free"},{"bike_id":"a538ab40-5009-4930-ac8e-7567cd6125a0","system_id":"levelo_inurba_marseille","lat":43.290631,"lon":5.359244,"is_reserved":false,"is_disabled":false,"rental_uris":{"android":"levelo://app?vid=a538ab40-5009-4930-ac8e-7567cd6125a0","ios":"levelo://app?vid=a538ab40-5009-4930-ac8e-7567cd6125a0"},"vehicle_type_id":"4","last_reported":1700802412,"current_range_meters":16000,"station_id":"ce4bha92rcd13ifvqeg0","pricing_plan_id":"free"},{"bike_id":"353cfd9e-5057-4b08-bdfb-e420a95bfb56","system_id":"levelo_inurba_marseille","lat":43.290631,"lon":5.359244,"is_reserved":false,"is_disabled":false,"rental_uris":{"android":"levelo://app?vid=353cfd9e-5057-4b08-bdfb-e420a95bfb56","ios":"levelo://app?vid=353cfd9e-5057-4b08-bdfb-e420a95bfb56"},"vehicle_type_id":"4","last_reported":1700802412,"current_range_meters":28800,"station_id":"ce4bha92rcd13ifvqeg0","pricing_plan_id":"free"},{"bike_id":"9ce38749-1d8f-4b32-873b-97eedfa8a35b","system_id":"levelo_inurba_marseille","lat":43.289184,"lon":5.366408,"is_reserved":false,"is_disabled":false,"rental_uris":{"android":"levelo://app?vid=9ce38749-1d8f-4b32-873b-97eedfa8a35b","ios":"levelo://app?vid=9ce38749-1d8f-4b32-873b-97eedfa8a35b"},"vehicle_type_id":"4","last_reported":1700802412,"current_range_meters":30400,"station_id":"ce4bhap2rcd13ifvqek0","pricing_plan_id":"free"},{"bike_id":"11f7b08c-f9f4-458f-8390-c490cf3b0a27","system_id":"levelo_inurba_marseille","lat":43.289468,"lon":5.363719,"is_reserved":false,"is_disabled":false,"rental_uris":{"android":"levelo://app?vid=11f7b08c-f9f4-458f-8390-c490cf3b0a27","ios":"levelo://app?vid=11f7b08c-f9f4-458f-8390-c490cf3b0a27"},"vehicle_type_id":"4","last_reported":1700802412,"current_range_meters":27600,"station_id":"ce4bhc92rcd13ifvqetg","pricing_plan_id":"free"},{"bike_id":"c52fec84-ac80-4310-9828-e5df8ec6c70b","system_id":"levelo_inurba_marseille","lat":43.289468,"lon":5.363719,"is_reserved":false,"is_disabled":false,"rental_uris":{"android":"levelo://app?vid=c52fec84-ac80-4310-9828-e5df8ec6c70b","ios":"levelo://app?vid=c52fec84-ac80-4310-9828-e5df8ec6c70b"},"vehicle_type_id":"4","last_reported":1700802412,"current_range_meters":29600,"station_id":"ce4bhc92rcd13ifvqetg","pricing_plan_id":"free"},{"bike_id":"0e65eb6a-bd1b-4126-bdae-e42b05b9fe43","system_id":"levelo_inurba_marseille","lat":43.30419,"lon":5.39735,"is_reserved":false,"is_disabled":false,"rental_uris":{"android":"levelo://app?vid=0e65eb6a-bd1b-4126-bdae-e42b05b9fe43","ios":"levelo://app?vid=0e65eb6a-bd1b-4126-bdae-e42b05b9fe43"},"vehicle_type_id":"4","last_reported":1700802412,"current_range_meters":25200,"station_id":"ce4bh092rcd13ifvqd20","pricing_plan_id":"free"},{"bike_id":"f3836455-7bd9-42a2-9d1a-ce7156ab35cf","system_id":"levelo_inurba_marseille","lat":43.30417,"lon":5.39744,"is_reserved":false,"is_disabled":false,"rental_uris":{"android":"levelo://app?vid=f3836455-7bd9-42a2-9d1a-ce7156ab35cf","ios":"levelo://app?vid=f3836455-7bd9-42a2-9d1a-ce7156ab35cf"},"vehicle_type_id":"4","last_reported":1700802412,"current_range_meters":2400,"station_id":"ce4bh092rcd13ifvqd20","pricing_plan_id":"free"},{"bike_id":"62d626b9-9b74-4c67-b1bc-a3b947352e62","system_id":"levelo_inurba_marseille","lat":43.292644,"lon":5.384257,"is_reserved":false,"is_disabled":false,"rental_uris":{"android":"levelo://app?vid=62d626b9-9b74-4c67-b1bc-a3b947352e62","ios":"levelo://app?vid=62d626b9-9b74-4c67-b1bc-a3b947352e62"},"vehicle_type_id":"4","last_reported":1700802412,"current_range_meters":12000,"station_id":"ce4bh692rcd13ifvqea0","pricing_plan_id":"free"},{"bike_id":"6904b484-132c-42a8-a3c7-a1f453b205cd","system_id":"levelo_inurba_marseille","lat":43.3304,"lon":5.38919,"is_reserved":false,"is_disabled":false,"rental_uris":{"android":"levelo://app?vid=6904b484-132c-42a8-a3c7-a1f453b205cd","ios":"levelo://app?vid=6904b484-132c-42a8-a3c7-a1f453b205cd"},"vehicle_type_id":"4","last_reported":1700802412,"current_range_meters":19200,"station_id":"ce4bhr92rcd13ifvqhrg","pricing_plan_id":"free"},{"bike_id":"e585230a-53f5-4f7d-bf93-fe2d5c446e87","system_id":"levelo_inurba_marseille","lat":43.33043,"lon":5.38915,"is_reserved":false,"is_disabled":false,"rental_uris":{"android":"levelo://app?vid=e585230a-53f5-4f7d-bf93-fe2d5c446e87","ios":"levelo://app?vid=e585230a-53f5-4f7d-bf93-fe2d5c446e87"},"vehicle_type_id":"4","last_reported":1700802412,"current_range_meters":0,"station_id":"ce4bhr92rcd13ifvqhrg","pricing_plan_id":"free"},{"bike_id":"55466b2d-38b9-49ee-bda8-84fa58cf75ed","system_id":"levelo_inurba_marseille","lat":43.33045,"lon":5.38913,"is_reserved":false,"is_disabled":false,"rental_uris":{"android":"levelo://app?vid=55466b2d-38b9-49ee-bda8-84fa58cf75ed","ios":"levelo://app?vid=55466b2d-38b9-49ee-bda8-84fa58cf75ed"},"vehicle_type_id":"4","last_reported":1700802412,"current_range_meters":0,"station_id":"ce4bhr92rcd13ifvqhrg","pricing_plan_id":"free"},{"bike_id":"701670d6-fc97-4b89-9c5e-0bd96ccc65c6","system_id":"levelo_inurba_marseille","lat":43.290103,"lon":5.356114,"is_reserved":false,"is_disabled":false,"rental_uris":{"android":"levelo://app?vid=701670d6-fc97-4b89-9c5e-0bd96ccc65c6","ios":"levelo://app?vid=701670d6-fc97-4b89-9c5e-0bd96ccc65c6"},"vehicle_type_id":"4","last_reported":1700802412,"current_range_meters":26800,"station_id":"ce4bhb92rcd13ifvqen0","pricing_plan_id":"free"},{"bike_id":"7ceced4d-c51f-4993-83ab-089f0ee8b3c9","system_id":"levelo_inurba_marseille","lat":43.290995,"lon":5.381361,"is_reserved":false,"is_disabled":false,"rental_uris":{"android":"levelo://app?vid=7ceced4d-c51f-4993-83ab-089f0ee8b3c9","ios":"levelo://app?vid=7ceced4d-c51f-4993-83ab-089f0ee8b3c9"},"vehicle_type_id":"4","last_reported":1700802412,"current_range_meters":27200,"station_id":"ce4bh512rcd13ifvqe2g","pricing_plan_id":"free"},{"bike_id":"13ac881c-a897-416a-ba62-88e5c3a6682f","system_id":"levelo_inurba_marseille","lat":43.290995,"lon":5.381361,"is_reserved":false,"is_disabled":false,"rental_uris":{"android":"levelo://app?vid=13ac881c-a897-416a-ba62-88e5c3a6682f","ios":"levelo://app?vid=13ac881c-a897-416a-ba62-88e5c3a6682f"},"vehicle_type_id":"4","last_reported":1700802412,"current_range_meters":26000,"station_id":"ce4bh512rcd13ifvqe2g","pricing_plan_id":"free"},{"bike_id":"6f3025cb-c573-4789-96b8-81d060d89467","system_id":"levelo_inurba_marseille","lat":43.290995,"lon":5.381361,"is_reserved":false,"is_disabled":false,"rental_uris":{"android":"levelo://app?vid=6f3025cb-c573-4789-96b8-81d060d89467","ios":"levelo://app?vid=6f3025cb-c573-4789-96b8-81d060d89467"},"vehicle_type_id":"4","last_reported":1700802412,"current_range_meters":30800,"station_id":"ce4bh512rcd13ifvqe2g","pricing_plan_id":"free"},{"bike_id":"24a24372-5b8f-4a4a-b514-6aae93fd3c96","system_id":"levelo_inurba_marseille","lat":43.297943,"lon":5.393543,"is_reserved":false,"is_disabled":false,"rental_uris":{"android":"levelo://app?vid=24a24372-5b8f-4a4a-b514-6aae93fd3c96","ios":"levelo://app?vid=24a24372-5b8f-4a4a-b514-6aae93fd3c96"},"vehicle_type_id":"4","last_reported":1700802412,"current_range_meters":1200,"station_id":"chh1huq6cuj3fo74tm60","pricing_plan_id":"free"},{"bike_id":"42514fb6-fb37-4ad6-b284-d5c172876131","system_id":"levelo_inurba_marseille","lat":43.295169,"lon":5.390426,"is_reserved":false,"is_disabled":false,"rental_uris":{"android":"levelo://app?vid=42514fb6-fb37-4ad6-b284-d5c172876131","ios":"levelo://app?vid=42514fb6-fb37-4ad6-b284-d5c172876131"},"vehicle_type_id":"4","last_reported":1700802412,"current_range_meters":27200,"station_id":"ce4bh3p2rcd13ifvqdp0","pricing_plan_id":"free"},{"bike_id":"f5593e47-2a04-4df6-8f74-6e7fd26c90fb","system_id":"levelo_inurba_marseille","lat":43.28856,"lon":5.358371,"is_reserved":false,"is_disabled":false,"rental_uris":{"android":"levelo://app?vid=f5593e47-2a04-4df6-8f74-6e7fd26c90fb","ios":"levelo://app?vid=f5593e47-2a04-4df6-8f74-6e7fd26c90fb"},"vehicle_type_id":"4","last_reported":1700802412,"current_range_meters":30000,"station_id":"ce4bhb12rcd13ifvqem0","pricing_plan_id":"free"},{"bike_id":"05a66525-a622-4ae0-bcfd-3bdc44028202","system_id":"levelo_inurba_marseille","lat":43.28856,"lon":5.358371,"is_reserved":false,"is_disabled":false,"rental_uris":{"android":"levelo://app?vid=05a66525-a622-4ae0-bcfd-3bdc44028202","ios":"levelo://app?vid=05a66525-a622-4ae0-bcfd-3bdc44028202"},"vehicle_type_id":"4","last_reported":1700802412,"current_range_meters":30000,"station_id":"ce4bhb12rcd13ifvqem0","pricing_plan_id":"free"},{"bike_id":"c43df7d2-4ab7-4878-a501-629d451379ab","system_id":"levelo_inurba_marseille","lat":43.312609,"lon":5.401662,"is_reserved":false,"is_disabled":false,"rental_uris":{"android":"levelo://app?vid=c43df7d2-4ab7-4878-a501-629d451379ab","ios":"levelo://app?vid=c43df7d2-4ab7-4878-a501-629d451379ab"},"vehicle_type_id":"4","last_reported":1700802412,"current_range_meters":5200,"station_id":"ce4bh092rcd13ifvqd30","pricing_plan_id":"free"},{"bike_id":"9bb01d71-293b-46bc-981c-9337defc9603","system_id":"levelo_inurba_marseille","lat":43.30929,"lon":5.40143,"is_reserved":false,"is_disabled":false,"rental_uris":{"android":"levelo://app?vid=9bb01d71-293b-46bc-981c-9337defc9603","ios":"levelo://app?vid=9bb01d71-293b-46bc-981c-9337defc9603"},"vehicle_type_id":"4","last_reported":1700802412,"current_range_meters":0,"station_id":"ce4bgvp2rcd13ifvqct0","pricing_plan_id":"free"},{"bike_id":"9747ff73-7f10-452c-b7ea-4f413d418e69","system_id":"levelo_inurba_marseille","lat":43.33777,"lon":5.3743,"is_reserved":false,"is_disabled":false,"rental_uris":{"android":"levelo://app?vid=9747ff73-7f10-452c-b7ea-4f413d418e69","ios":"levelo://app?vid=9747ff73-7f10-452c-b7ea-4f413d418e69"},"vehicle_type_id":"4","last_reported":1700802412,"current_range_meters":21200,"station_id":"","pricing_plan_id":"free"},{"bike_id":"f3e9bb17-7362-4bd7-b3a3-86e87bc2da85","system_id":"levelo_inurba_marseille","lat":43.30144,"lon":5.39883,"is_reserved":false,"is_disabled":false,"rental_uris":{"android":"levelo://app?vid=f3e9bb17-7362-4bd7-b3a3-86e87bc2da85","ios":"levelo://app?vid=f3e9bb17-7362-4bd7-b3a3-86e87bc2da85"},"vehicle_type_id":"4","last_reported":1700802412,"current_range_meters":23200,"station_id":"ce4bh0h2rcd13ifvqd40","pricing_plan_id":"free"},{"bike_id":"da30ff6b-869b-4ef8-a4c3-cacbb73f9f18","system_id":"levelo_inurba_marseille","lat":43.28727,"lon":5.36078,"is_reserved":false,"is_disabled":false,"rental_uris":{"android":"levelo://app?vid=da30ff6b-869b-4ef8-a4c3-cacbb73f9f18","ios":"levelo://app?vid=da30ff6b-869b-4ef8-a4c3-cacbb73f9f18"},"vehicle_type_id":"4","last_reported":1700802412,"current_range_meters":28400,"station_id":"cki0cbj6b192h4jlfktg","pricing_plan_id":"free"},{"bike_id":"e94d67f6-db72-46f9-b690-d295ed8db4ff","system_id":"levelo_inurba_marseille","lat":43.28727,"lon":5.36078,"is_reserved":false,"is_disabled":false,"rental_uris":{"android":"levelo://app?vid=e94d67f6-db72-46f9-b690-d295ed8db4ff","ios":"levelo://app?vid=e94d67f6-db72-46f9-b690-d295ed8db4ff"},"vehicle_type_id":"4","last_reported":1700802412,"current_range_meters":31600,"station_id":"cki0cbj6b192h4jlfktg","pricing_plan_id":"free"},{"bike_id":"789f245e-0d24-4423-98a2-c122eabc0774","system_id":"levelo_inurba_marseille","lat":43.298681,"lon":5.397225,"is_reserved":false,"is_disabled":false,"rental_uris":{"android":"levelo://app?vid=789f245e-0d24-4423-98a2-c122eabc0774","ios":"levelo://app?vid=789f245e-0d24-4423-98a2-c122eabc0774"},"vehicle_type_id":"4","last_reported":1700802412,"current_range_meters":29600,"station_id":"ce4bh0h2rcd13ifvqd50","pricing_plan_id":"free"},{"bike_id":"0d495432-f149-4bfe-bd01-4350b4c6c3c4","system_id":"levelo_inurba_marseille","lat":43.298681,"lon":5.397225,"is_reserved":false,"is_disabled":false,"rental_uris":{"android":"levelo://app?vid=0d495432-f149-4bfe-bd01-4350b4c6c3c4","ios":"levelo://app?vid=0d495432-f149-4bfe-bd01-4350b4c6c3c4"},"vehicle_type_id":"4","last_reported":1700802412,"current_range_meters":16800,"station_id":"ce4bh0h2rcd13ifvqd50","pricing_plan_id":"free"},{"bike_id":"51d9ff42-8d49-4e7e-82f4-832a7e2ba2e6","system_id":"levelo_inurba_marseille","lat":43.298681,"lon":5.397225,"is_reserved":false,"is_disabled":false,"rental_uris":{"android":"levelo://app?vid=51d9ff42-8d49-4e7e-82f4-832a7e2ba2e6","ios":"levelo://app?vid=51d9ff42-8d49-4e7e-82f4-832a7e2ba2e6"},"vehicle_type_id":"4","last_reported":1700802412,"current_range_meters":25200,"station_id":"ce4bh0h2rcd13ifvqd50","pricing_plan_id":"free"},{"bike_id":"f17d235f-f1de-4d76-8262-e4fde40d4a9a","system_id":"levelo_inurba_marseille","lat":43.286961,"lon":5.373785,"is_reserved":false,"is_disabled":false,"rental_uris":{"android":"levelo://app?vid=f17d235f-f1de-4d76-8262-e4fde40d4a9a","ios":"levelo://app?vid=f17d235f-f1de-4d76-8262-e4fde40d4a9a"},"vehicle_type_id":"4","last_reported":1700802412,"current_range_meters":30800,"station_id":"ce4bh3p2rcd13ifvqdq0","pricing_plan_id":"free"},{"bike_id":"9b2a59e9-5411-4138-81d4-23f7f57b469e","system_id":"levelo_inurba_marseille","lat":43.298681,"lon":5.397225,"is_reserved":false,"is_disabled":false,"rental_uris":{"android":"levelo://app?vid=9b2a59e9-5411-4138-81d4-23f7f57b469e","ios":"levelo://app?vid=9b2a59e9-5411-4138-81d4-23f7f57b469e"},"vehicle_type_id":"4","last_reported":1700802412,"current_range_meters":28400,"station_id":"ce4bh0h2rcd13ifvqd50","pricing_plan_id":"free"},{"bike_id":"72d7d503-d45b-4049-bca9-999c55c09ada","system_id":"levelo_inurba_marseille","lat":43.298681,"lon":5.397225,"is_reserved":false,"is_disabled":false,"rental_uris":{"android":"levelo://app?vid=72d7d503-d45b-4049-bca9-999c55c09ada","ios":"levelo://app?vid=72d7d503-d45b-4049-bca9-999c55c09ada"},"vehicle_type_id":"4","last_reported":1700802412,"current_range_meters":30800,"station_id":"ce4bh0h2rcd13ifvqd50","pricing_plan_id":"free"},{"bike_id":"7897046b-410f-4683-a774-825ec5cf3f5a","system_id":"levelo_inurba_marseille","lat":43.298681,"lon":5.397225,"is_reserved":false,"is_disabled":false,"rental_uris":{"android":"levelo://app?vid=7897046b-410f-4683-a774-825ec5cf3f5a","ios":"levelo://app?vid=7897046b-410f-4683-a774-825ec5cf3f5a"},"vehicle_type_id":"4","last_reported":1700802412,"current_range_meters":32000,"station_id":"ce4bh0h2rcd13ifvqd50","pricing_plan_id":"free"},{"bike_id":"37aaf29f-3e13-4e93-9dd5-e900787c93d6","system_id":"levelo_inurba_marseille","lat":43.29034,"lon":5.386415,"is_reserved":false,"is_disabled":false,"rental_uris":{"android":"levelo://app?vid=37aaf29f-3e13-4e93-9dd5-e900787c93d6","ios":"levelo://app?vid=37aaf29f-3e13-4e93-9dd5-e900787c93d6"},"vehicle_type_id":"4","last_reported":1700802412,"current_range_meters":29600,"station_id":"ce4bh4p2rcd13ifvqe0g","pricing_plan_id":"free"},{"bike_id":"fd51b984-6cfa-410e-ae59-33b2e28e27c0","system_id":"levelo_inurba_marseille","lat":43.30246,"lon":5.400558,"is_reserved":false,"is_disabled":false,"rental_uris":{"android":"levelo://app?vid=fd51b984-6cfa-410e-ae59-33b2e28e27c0","ios":"levelo://app?vid=fd51b984-6cfa-410e-ae59-33b2e28e27c0"},"vehicle_type_id":"4","last_reported":1700802412,"current_range_meters":0,"station_id":"ce4bgvh2rcd13ifvqcs0","pricing_plan_id":"free"},{"bike_id":"7a363a39-a638-4309-bcbc-a334706df507","system_id":"levelo_inurba_marseille","lat":43.289307,"lon":5.38406,"is_reserved":false,"is_disabled":false,"rental_uris":{"android":"levelo://app?vid=7a363a39-a638-4309-bcbc-a334706df507","ios":"levelo://app?vid=7a363a39-a638-4309-bcbc-a334706df507"},"vehicle_type_id":"4","last_reported":1700802412,"current_range_meters":30400,"station_id":"ce4bh612rcd13ifvqe6g","pricing_plan_id":"free"},{"bike_id":"1daa2c24-a822-4542-8826-c3e6f457a7a5","system_id":"levelo_inurba_marseille","lat":43.287185,"lon":5.379373,"is_reserved":false,"is_disabled":false,"rental_uris":{"android":"levelo://app?vid=1daa2c24-a822-4542-8826-c3e6f457a7a5","ios":"levelo://app?vid=1daa2c24-a822-4542-8826-c3e6f457a7a5"},"vehicle_type_id":"4","last_reported":1700802412,"current_range_meters":27200,"station_id":"ce4bh9p2rcd13ifvqec0","pricing_plan_id":"free"},{"bike_id":"4df11736-64a4-4c6c-b40d-1dcdc4c117d5","system_id":"levelo_inurba_marseille","lat":43.291994,"lon":5.392907,"is_reserved":false,"is_disabled":false,"rental_uris":{"android":"levelo://app?vid=4df11736-64a4-4c6c-b40d-1dcdc4c117d5","ios":"levelo://app?vid=4df11736-64a4-4c6c-b40d-1dcdc4c117d5"},"vehicle_type_id":"4","last_reported":1700802412,"current_range_meters":30400,"station_id":"ce4bh192rcd13ifvqdd0","pricing_plan_id":"free"},{"bike_id":"104df853-2b11-4df3-9681-46c80ee6586a","system_id":"levelo_inurba_marseille","lat":43.291994,"lon":5.392907,"is_reserved":false,"is_disabled":false,"rental_uris":{"android":"levelo://app?vid=104df853-2b11-4df3-9681-46c80ee6586a","ios":"levelo://app?vid=104df853-2b11-4df3-9681-46c80ee6586a"},"vehicle_type_id":"4","last_reported":1700802412,"current_range_meters":27200,"station_id":"ce4bh192rcd13ifvqdd0","pricing_plan_id":"free"},{"bike_id":"d2c85743-2fa0-4c54-ae08-3f589d20a7d1","system_id":"levelo_inurba_marseille","lat":43.291994,"lon":5.392907,"is_reserved":false,"is_disabled":false,"rental_uris":{"android":"levelo://app?vid=d2c85743-2fa0-4c54-ae08-3f589d20a7d1","ios":"levelo://app?vid=d2c85743-2fa0-4c54-ae08-3f589d20a7d1"},"vehicle_type_id":"4","last_reported":1700802412,"current_range_meters":30800,"station_id":"ce4bh192rcd13ifvqdd0","pricing_plan_id":"free"},{"bike_id":"66988db6-e339-4499-b0ff-5ca1726a1591","system_id":"levelo_inurba_marseille","lat":43.291994,"lon":5.392907,"is_reserved":false,"is_disabled":false,"rental_uris":{"android":"levelo://app?vid=66988db6-e339-4499-b0ff-5ca1726a1591","ios":"levelo://app?vid=66988db6-e339-4499-b0ff-5ca1726a1591"},"vehicle_type_id":"4","last_reported":1700802412,"current_range_meters":30000,"station_id":"ce4bh192rcd13ifvqdd0","pricing_plan_id":"free"},{"bike_id":"740f9c17-1e68-41cb-8a69-ab31f3921aad","system_id":"levelo_inurba_marseille","lat":43.284534,"lon":5.358662,"is_reserved":false,"is_disabled":false,"rental_uris":{"android":"levelo://app?vid=740f9c17-1e68-41cb-8a69-ab31f3921aad","ios":"levelo://app?vid=740f9c17-1e68-41cb-8a69-ab31f3921aad"},"vehicle_type_id":"4","last_reported":1700802412,"current_range_meters":32000,"station_id":"ce4bhah2rcd13ifvqei0","pricing_plan_id":"free"},{"bike_id":"4a39321a-10e3-4a8b-a83a-7fd75c06c1b9","system_id":"levelo_inurba_marseille","lat":43.284727,"lon":5.358797,"is_reserved":false,"is_disabled":false,"rental_uris":{"android":"levelo://app?vid=4a39321a-10e3-4a8b-a83a-7fd75c06c1b9","ios":"levelo://app?vid=4a39321a-10e3-4a8b-a83a-7fd75c06c1b9"},"vehicle_type_id":"4","last_reported":1700802412,"current_range_meters":26000,"station_id":"ce4bhah2rcd13ifvqei0","pricing_plan_id":"free"},{"bike_id":"65536051-c83d-4e02-b4dd-4f1f369445db","system_id":"levelo_inurba_marseille","lat":43.284538,"lon":5.358657,"is_reserved":false,"is_disabled":false,"rental_uris":{"android":"levelo://app?vid=65536051-c83d-4e02-b4dd-4f1f369445db","ios":"levelo://app?vid=65536051-c83d-4e02-b4dd-4f1f369445db"},"vehicle_type_id":"4","last_reported":1700802412,"current_range_meters":27600,"station_id":"ce4bhah2rcd13ifvqei0","pricing_plan_id":"free"},{"bike_id":"34229c22-6060-49b5-82ec-c616f1f6c96f","system_id":"levelo_inurba_marseille","lat":43.284626,"lon":5.3589,"is_reserved":false,"is_disabled":false,"rental_uris":{"android":"levelo://app?vid=34229c22-6060-49b5-82ec-c616f1f6c96f","ios":"levelo://app?vid=34229c22-6060-49b5-82ec-c616f1f6c96f"},"vehicle_type_id":"4","last_reported":1700802412,"current_range_meters":31200,"station_id":"ce4bhah2rcd13ifvqei0","pricing_plan_id":"free"},{"bike_id":"dd4d0354-701d-45d1-a939-7c544586742c","system_id":"levelo_inurba_marseille","lat":43.28461,"lon":5.3589,"is_reserved":false,"is_disabled":false,"rental_uris":{"android":"levelo://app?vid=dd4d0354-701d-45d1-a939-7c544586742c","ios":"levelo://app?vid=dd4d0354-701d-45d1-a939-7c544586742c"},"vehicle_type_id":"4","last_reported":1700802412,"current_range_meters":11200,"station_id":"ce4bhah2rcd13ifvqei0","pricing_plan_id":"free"},{"bike_id":"784358dc-49f6-42c1-afba-f0f5845464c8","system_id":"levelo_inurba_marseille","lat":43.284596,"lon":5.358944,"is_reserved":false,"is_disabled":false,"rental_uris":{"android":"levelo://app?vid=784358dc-49f6-42c1-afba-f0f5845464c8","ios":"levelo://app?vid=784358dc-49f6-42c1-afba-f0f5845464c8"},"vehicle_type_id":"4","last_reported":1700802412,"current_range_meters":12000,"station_id":"ce4bhah2rcd13ifvqei0","pricing_plan_id":"free"},{"bike_id":"a743f456-5a41-43d8-9e15-7dda4b853e2e","system_id":"levelo_inurba_marseille","lat":43.284589,"lon":5.358868,"is_reserved":false,"is_disabled":false,"rental_uris":{"android":"levelo://app?vid=a743f456-5a41-43d8-9e15-7dda4b853e2e","ios":"levelo://app?vid=a743f456-5a41-43d8-9e15-7dda4b853e2e"},"vehicle_type_id":"4","last_reported":1700802412,"current_range_meters":6000,"station_id":"ce4bhah2rcd13ifvqei0","pricing_plan_id":"free"},{"bike_id":"5adad94a-a6bc-4944-a8aa-264ec23de7ca","system_id":"levelo_inurba_marseille","lat":43.284583,"lon":5.358891,"is_reserved":false,"is_disabled":false,"rental_uris":{"android":"levelo://app?vid=5adad94a-a6bc-4944-a8aa-264ec23de7ca","ios":"levelo://app?vid=5adad94a-a6bc-4944-a8aa-264ec23de7ca"},"vehicle_type_id":"4","last_reported":1700802412,"current_range_meters":30000,"station_id":"ce4bhah2rcd13ifvqei0","pricing_plan_id":"free"},{"bike_id":"3a6fe209-cb39-4ae8-8e68-8efb8756b9e2","system_id":"levelo_inurba_marseille","lat":43.284534,"lon":5.358662,"is_reserved":false,"is_disabled":false,"rental_uris":{"android":"levelo://app?vid=3a6fe209-cb39-4ae8-8e68-8efb8756b9e2","ios":"levelo://app?vid=3a6fe209-cb39-4ae8-8e68-8efb8756b9e2"},"vehicle_type_id":"4","last_reported":1700802412,"current_range_meters":28800,"station_id":"ce4bhah2rcd13ifvqei0","pricing_plan_id":"free"},{"bike_id":"100a7510-514e-41ac-8ae4-f9103fee39e9","system_id":"levelo_inurba_marseille","lat":43.284534,"lon":5.358662,"is_reserved":false,"is_disabled":false,"rental_uris":{"android":"levelo://app?vid=100a7510-514e-41ac-8ae4-f9103fee39e9","ios":"levelo://app?vid=100a7510-514e-41ac-8ae4-f9103fee39e9"},"vehicle_type_id":"4","last_reported":1700802412,"current_range_meters":30800,"station_id":"ce4bhah2rcd13ifvqei0","pricing_plan_id":"free"},{"bike_id":"bb23c365-8d4d-456e-b94a-f09375cb591e","system_id":"levelo_inurba_marseille","lat":43.284534,"lon":5.358662,"is_reserved":false,"is_disabled":false,"rental_uris":{"android":"levelo://app?vid=bb23c365-8d4d-456e-b94a-f09375cb591e","ios":"levelo://app?vid=bb23c365-8d4d-456e-b94a-f09375cb591e"},"vehicle_type_id":"4","last_reported":1700802412,"current_range_meters":29200,"station_id":"ce4bhah2rcd13ifvqei0","pricing_plan_id":"free"},{"bike_id":"1245fa8c-6dd6-4ec7-b558-6de202b0026f","system_id":"levelo_inurba_marseille","lat":43.283998,"lon":5.375062,"is_reserved":false,"is_disabled":false,"rental_uris":{"android":"levelo://app?vid=1245fa8c-6dd6-4ec7-b558-6de202b0026f","ios":"levelo://app?vid=1245fa8c-6dd6-4ec7-b558-6de202b0026f"},"vehicle_type_id":"4","last_reported":1700802412,"current_range_meters":29200,"station_id":"ce4bh412rcd13ifvqds0","pricing_plan_id":"free"},{"bike_id":"8a705179-b657-4017-b3ad-aa554ea3199b","system_id":"levelo_inurba_marseille","lat":43.319179,"lon":5.407725,"is_reserved":false,"is_disabled":false,"rental_uris":{"android":"levelo://app?vid=8a705179-b657-4017-b3ad-aa554ea3199b","ios":"levelo://app?vid=8a705179-b657-4017-b3ad-aa554ea3199b"},"vehicle_type_id":"4","last_reported":1700802412,"current_range_meters":30400,"station_id":"ce4bhq12rcd13ifvqhig","pricing_plan_id":"free"},{"bike_id":"eb1529ca-da88-4ad1-8623-8a2076d8e5f7","system_id":"levelo_inurba_marseille","lat":43.323464,"lon":5.406297,"is_reserved":false,"is_disabled":false,"rental_uris":{"android":"levelo://app?vid=eb1529ca-da88-4ad1-8623-8a2076d8e5f7","ios":"levelo://app?vid=eb1529ca-da88-4ad1-8623-8a2076d8e5f7"},"vehicle_type_id":"4","last_reported":1700802412,"current_range_meters":30400,"station_id":"ce4bhq92rcd13ifvqhjg","pricing_plan_id":"free"},{"bike_id":"e7b16bb0-8dc4-447b-a16c-c403ed56db28","system_id":"levelo_inurba_marseille","lat":43.337168,"lon":5.391825,"is_reserved":false,"is_disabled":false,"rental_uris":{"android":"levelo://app?vid=e7b16bb0-8dc4-447b-a16c-c403ed56db28","ios":"levelo://app?vid=e7b16bb0-8dc4-447b-a16c-c403ed56db28"},"vehicle_type_id":"4","last_reported":1700802412,"current_range_meters":28400,"station_id":"ce4bhr92rcd13ifvqhsg","pricing_plan_id":"free"},{"bike_id":"d9785b0c-0523-4b8b-9f28-f29210b1a5eb","system_id":"levelo_inurba_marseille","lat":43.32356,"lon":5.406333,"is_reserved":false,"is_disabled":false,"rental_uris":{"android":"levelo://app?vid=d9785b0c-0523-4b8b-9f28-f29210b1a5eb","ios":"levelo://app?vid=d9785b0c-0523-4b8b-9f28-f29210b1a5eb"},"vehicle_type_id":"4","last_reported":1700802412,"current_range_meters":28000,"station_id":"ce4bhq92rcd13ifvqhjg","pricing_plan_id":"free"},{"bike_id":"7aa5e2ac-a765-47ab-a9c5-33ab7c387a75","system_id":"levelo_inurba_marseille","lat":43.283494,"lon":5.380945,"is_reserved":false,"is_disabled":false,"rental_uris":{"android":"levelo://app?vid=7aa5e2ac-a765-47ab-a9c5-33ab7c387a75","ios":"levelo://app?vid=7aa5e2ac-a765-47ab-a9c5-33ab7c387a75"},"vehicle_type_id":"4","last_reported":1700802412,"current_range_meters":30400,"station_id":"ce4bh412rcd13ifvqdr0","pricing_plan_id":"free"},{"bike_id":"e2284003-4e46-4e0a-93e7-73d05c3666d9","system_id":"levelo_inurba_marseille","lat":43.33479,"lon":5.39788,"is_reserved":false,"is_disabled":false,"rental_uris":{"android":"levelo://app?vid=e2284003-4e46-4e0a-93e7-73d05c3666d9","ios":"levelo://app?vid=e2284003-4e46-4e0a-93e7-73d05c3666d9"},"vehicle_type_id":"4","last_reported":1700802412,"current_range_meters":26000,"station_id":"","pricing_plan_id":"free"},{"bike_id":"635862d4-2159-497a-992d-42141a821086","system_id":"levelo_inurba_marseille","lat":43.289363,"lon":5.396322,"is_reserved":false,"is_disabled":false,"rental_uris":{"android":"levelo://app?vid=635862d4-2159-497a-992d-42141a821086","ios":"levelo://app?vid=635862d4-2159-497a-992d-42141a821086"},"vehicle_type_id":"4","last_reported":1700802412,"current_range_meters":26400,"station_id":"ce4bh3h2rcd13ifvqdn0","pricing_plan_id":"free"},{"bike_id":"b4bc6c19-20e6-4b1e-b989-40d4ba171e93","system_id":"levelo_inurba_marseille","lat":43.335274,"lon":5.397561,"is_reserved":false,"is_disabled":false,"rental_uris":{"android":"levelo://app?vid=b4bc6c19-20e6-4b1e-b989-40d4ba171e93","ios":"levelo://app?vid=b4bc6c19-20e6-4b1e-b989-40d4ba171e93"},"vehicle_type_id":"4","last_reported":1700802412,"current_range_meters":6800,"station_id":"","pricing_plan_id":"free"},{"bike_id":"db927534-230a-4c4e-ba4b-6e34d5468c87","system_id":"levelo_inurba_marseille","lat":43.282754,"lon":5.350519,"is_reserved":false,"is_disabled":false,"rental_uris":{"android":"levelo://app?vid=db927534-230a-4c4e-ba4b-6e34d5468c87","ios":"levelo://app?vid=db927534-230a-4c4e-ba4b-6e34d5468c87"},"vehicle_type_id":"4","last_reported":1700802412,"current_range_meters":7200,"station_id":"ce4bhbp2rcd13ifvqerg","pricing_plan_id":"free"},{"bike_id":"20f5d6c2-8e8d-4ab2-91eb-d6d4f0485cbe","system_id":"levelo_inurba_marseille","lat":43.282744,"lon":5.350533,"is_reserved":false,"is_disabled":false,"rental_uris":{"android":"levelo://app?vid=20f5d6c2-8e8d-4ab2-91eb-d6d4f0485cbe","ios":"levelo://app?vid=20f5d6c2-8e8d-4ab2-91eb-d6d4f0485cbe"},"vehicle_type_id":"4","last_reported":1700802412,"current_range_meters":29600,"station_id":"ce4bhbp2rcd13ifvqerg","pricing_plan_id":"free"},{"bike_id":"cc85afd8-23f2-4489-be9e-43dde56b8c74","system_id":"levelo_inurba_marseille","lat":43.282754,"lon":5.350519,"is_reserved":false,"is_disabled":false,"rental_uris":{"android":"levelo://app?vid=cc85afd8-23f2-4489-be9e-43dde56b8c74","ios":"levelo://app?vid=cc85afd8-23f2-4489-be9e-43dde56b8c74"},"vehicle_type_id":"4","last_reported":1700802412,"current_range_meters":26000,"station_id":"ce4bhbp2rcd13ifvqerg","pricing_plan_id":"free"},{"bike_id":"5bd64c01-7024-4992-89f7-444df0fb7af5","system_id":"levelo_inurba_marseille","lat":43.282754,"lon":5.350519,"is_reserved":false,"is_disabled":false,"rental_uris":{"android":"levelo://app?vid=5bd64c01-7024-4992-89f7-444df0fb7af5","ios":"levelo://app?vid=5bd64c01-7024-4992-89f7-444df0fb7af5"},"vehicle_type_id":"4","last_reported":1700802412,"current_range_meters":32000,"station_id":"ce4bhbp2rcd13ifvqerg","pricing_plan_id":"free"},{"bike_id":"9278399a-f2ee-4f0e-861b-99c66b9ff3ea","system_id":"levelo_inurba_marseille","lat":43.28039,"lon":5.369297,"is_reserved":false,"is_disabled":false,"rental_uris":{"android":"levelo://app?vid=9278399a-f2ee-4f0e-861b-99c66b9ff3ea","ios":"levelo://app?vid=9278399a-f2ee-4f0e-861b-99c66b9ff3ea"},"vehicle_type_id":"4","last_reported":1700802412,"current_range_meters":26800,"station_id":"ce4bha12rcd13ifvqef0","pricing_plan_id":"free"},{"bike_id":"857c10bc-5c00-4848-aed1-ce3268427462","system_id":"levelo_inurba_marseille","lat":43.28039,"lon":5.369297,"is_reserved":false,"is_disabled":false,"rental_uris":{"android":"levelo://app?vid=857c10bc-5c00-4848-aed1-ce3268427462","ios":"levelo://app?vid=857c10bc-5c00-4848-aed1-ce3268427462"},"vehicle_type_id":"4","last_reported":1700802412,"current_range_meters":31200,"station_id":"ce4bha12rcd13ifvqef0","pricing_plan_id":"free"},{"bike_id":"d3563ad8-da2c-464a-83a9-df1757509cf7","system_id":"levelo_inurba_marseille","lat":43.280382,"lon":5.369291,"is_reserved":false,"is_disabled":false,"rental_uris":{"android":"levelo://app?vid=d3563ad8-da2c-464a-83a9-df1757509cf7","ios":"levelo://app?vid=d3563ad8-da2c-464a-83a9-df1757509cf7"},"vehicle_type_id":"4","last_reported":1700802412,"current_range_meters":28800,"station_id":"ce4bha12rcd13ifvqef0","pricing_plan_id":"free"},{"bike_id":"9944a477-c69b-40a2-8e67-0658fc75a8a1","system_id":"levelo_inurba_marseille","lat":43.281044,"lon":5.378308,"is_reserved":false,"is_disabled":false,"rental_uris":{"android":"levelo://app?vid=9944a477-c69b-40a2-8e67-0658fc75a8a1","ios":"levelo://app?vid=9944a477-c69b-40a2-8e67-0658fc75a8a1"},"vehicle_type_id":"4","last_reported":1700802412,"current_range_meters":31200,"station_id":"ce4bha12rcd13ifvqee0","pricing_plan_id":"free"},{"bike_id":"099b481f-e727-4d08-a69d-626f0208bde7","system_id":"levelo_inurba_marseille","lat":43.281044,"lon":5.378308,"is_reserved":false,"is_disabled":false,"rental_uris":{"android":"levelo://app?vid=099b481f-e727-4d08-a69d-626f0208bde7","ios":"levelo://app?vid=099b481f-e727-4d08-a69d-626f0208bde7"},"vehicle_type_id":"4","last_reported":1700802412,"current_range_meters":31600,"station_id":"ce4bha12rcd13ifvqee0","pricing_plan_id":"free"},{"bike_id":"9ff350e0-938d-4ef8-81e3-2e41785c57d3","system_id":"levelo_inurba_marseille","lat":43.281044,"lon":5.378308,"is_reserved":false,"is_disabled":false,"rental_uris":{"android":"levelo://app?vid=9ff350e0-938d-4ef8-81e3-2e41785c57d3","ios":"levelo://app?vid=9ff350e0-938d-4ef8-81e3-2e41785c57d3"},"vehicle_type_id":"4","last_reported":1700802412,"current_range_meters":31600,"station_id":"ce4bha12rcd13ifvqee0","pricing_plan_id":"free"},{"bike_id":"42d0a86a-269a-433c-901f-35b3cdabe607","system_id":"levelo_inurba_marseille","lat":43.284462,"lon":5.392121,"is_reserved":false,"is_disabled":false,"rental_uris":{"android":"levelo://app?vid=42d0a86a-269a-433c-901f-35b3cdabe607","ios":"levelo://app?vid=42d0a86a-269a-433c-901f-35b3cdabe607"},"vehicle_type_id":"4","last_reported":1700802412,"current_range_meters":24800,"station_id":"ce4bhoh2rcd13ifvqh5g","pricing_plan_id":"free"},{"bike_id":"54c767a6-b15d-42ef-a9d2-184a15ec96d5","system_id":"levelo_inurba_marseille","lat":43.284462,"lon":5.392121,"is_reserved":false,"is_disabled":false,"rental_uris":{"android":"levelo://app?vid=54c767a6-b15d-42ef-a9d2-184a15ec96d5","ios":"levelo://app?vid=54c767a6-b15d-42ef-a9d2-184a15ec96d5"},"vehicle_type_id":"4","last_reported":1700802412,"current_range_meters":31600,"station_id":"ce4bhoh2rcd13ifvqh5g","pricing_plan_id":"free"},{"bike_id":"db563756-c108-4bef-a217-b096ebb2383a","system_id":"levelo_inurba_marseille","lat":43.285742,"lon":5.395004,"is_reserved":false,"is_disabled":false,"rental_uris":{"android":"levelo://app?vid=db563756-c108-4bef-a217-b096ebb2383a","ios":"levelo://app?vid=db563756-c108-4bef-a217-b096ebb2383a"},"vehicle_type_id":"4","last_reported":1700802412,"current_range_meters":25200,"station_id":"ce4bh292rcd13ifvqdg0","pricing_plan_id":"free"},{"bike_id":"63b71efd-2ca9-4d7c-92cb-eb0a53b9baf8","system_id":"levelo_inurba_marseille","lat":43.28573,"lon":5.394992,"is_reserved":false,"is_disabled":false,"rental_uris":{"android":"levelo://app?vid=63b71efd-2ca9-4d7c-92cb-eb0a53b9baf8","ios":"levelo://app?vid=63b71efd-2ca9-4d7c-92cb-eb0a53b9baf8"},"vehicle_type_id":"4","last_reported":1700802412,"current_range_meters":30400,"station_id":"ce4bh292rcd13ifvqdg0","pricing_plan_id":"free"},{"bike_id":"4d2c4986-a797-4c4a-b1ef-86d4126b90fd","system_id":"levelo_inurba_marseille","lat":43.285742,"lon":5.395004,"is_reserved":false,"is_disabled":false,"rental_uris":{"android":"levelo://app?vid=4d2c4986-a797-4c4a-b1ef-86d4126b90fd","ios":"levelo://app?vid=4d2c4986-a797-4c4a-b1ef-86d4126b90fd"},"vehicle_type_id":"4","last_reported":1700802412,"current_range_meters":30000,"station_id":"ce4bh292rcd13ifvqdg0","pricing_plan_id":"free"},{"bike_id":"3a26fe18-494c-4d34-8460-bc835cfd3ea9","system_id":"levelo_inurba_marseille","lat":43.28573,"lon":5.394992,"is_reserved":false,"is_disabled":false,"rental_uris":{"android":"levelo://app?vid=3a26fe18-494c-4d34-8460-bc835cfd3ea9","ios":"levelo://app?vid=3a26fe18-494c-4d34-8460-bc835cfd3ea9"},"vehicle_type_id":"4","last_reported":1700802412,"current_range_meters":31600,"station_id":"ce4bh292rcd13ifvqdg0","pricing_plan_id":"free"},{"bike_id":"a351e45d-a762-4399-b301-7e9d3e69e10b","system_id":"levelo_inurba_marseille","lat":43.304164,"lon":5.412867,"is_reserved":false,"is_disabled":false,"rental_uris":{"android":"levelo://app?vid=a351e45d-a762-4399-b301-7e9d3e69e10b","ios":"levelo://app?vid=a351e45d-a762-4399-b301-7e9d3e69e10b"},"vehicle_type_id":"4","last_reported":1700802412,"current_range_meters":29600,"station_id":"ce4bhop2rcd13ifvqh8g","pricing_plan_id":"free"},{"bike_id":"4989a061-819e-4989-812f-08946c6f6655","system_id":"levelo_inurba_marseille","lat":43.279087,"lon":5.380114,"is_reserved":false,"is_disabled":false,"rental_uris":{"android":"levelo://app?vid=4989a061-819e-4989-812f-08946c6f6655","ios":"levelo://app?vid=4989a061-819e-4989-812f-08946c6f6655"},"vehicle_type_id":"4","last_reported":1700802412,"current_range_meters":28800,"station_id":"ce4bhf92rcd13ifvqf50","pricing_plan_id":"free"},{"bike_id":"b90c8cd6-69aa-41d7-bbeb-98f1f98202b9","system_id":"levelo_inurba_marseille","lat":43.287049,"lon":5.399875,"is_reserved":false,"is_disabled":false,"rental_uris":{"android":"levelo://app?vid=b90c8cd6-69aa-41d7-bbeb-98f1f98202b9","ios":"levelo://app?vid=b90c8cd6-69aa-41d7-bbeb-98f1f98202b9"},"vehicle_type_id":"4","last_reported":1700802412,"current_range_meters":0,"station_id":"ce4bho92rcd13ifvqh3g","pricing_plan_id":"free"},{"bike_id":"a8e2b52b-9ba9-4b70-bcb4-1e1ad46ab6fe","system_id":"levelo_inurba_marseille","lat":43.29939,"lon":5.41321,"is_reserved":false,"is_disabled":false,"rental_uris":{"android":"levelo://app?vid=a8e2b52b-9ba9-4b70-bcb4-1e1ad46ab6fe","ios":"levelo://app?vid=a8e2b52b-9ba9-4b70-bcb4-1e1ad46ab6fe"},"vehicle_type_id":"4","last_reported":1700802412,"current_range_meters":28400,"station_id":"ce4bhp12rcd13ifvqh9g","pricing_plan_id":"free"},{"bike_id":"761f5fc0-5ebd-4489-9887-274408c435b1","system_id":"levelo_inurba_marseille","lat":43.292571,"lon":5.409107,"is_reserved":false,"is_disabled":false,"rental_uris":{"android":"levelo://app?vid=761f5fc0-5ebd-4489-9887-274408c435b1","ios":"levelo://app?vid=761f5fc0-5ebd-4489-9887-274408c435b1"},"vehicle_type_id":"4","last_reported":1700802412,"current_range_meters":29600,"station_id":"ce4bh192rcd13ifvqdc0","pricing_plan_id":"free"},{"bike_id":"544de4ed-1963-4446-9cb3-8e2ebfad80af","system_id":"levelo_inurba_marseille","lat":43.29253,"lon":5.40908,"is_reserved":false,"is_disabled":false,"rental_uris":{"android":"levelo://app?vid=544de4ed-1963-4446-9cb3-8e2ebfad80af","ios":"levelo://app?vid=544de4ed-1963-4446-9cb3-8e2ebfad80af"},"vehicle_type_id":"4","last_reported":1700802412,"current_range_meters":0,"station_id":"ce4bh192rcd13ifvqdc0","pricing_plan_id":"free"},{"bike_id":"ae9ebd41-ca9a-4f54-b255-893c01b1ebe3","system_id":"levelo_inurba_marseille","lat":43.27618,"lon":5.361009,"is_reserved":false,"is_disabled":false,"rental_uris":{"android":"levelo://app?vid=ae9ebd41-ca9a-4f54-b255-893c01b1ebe3","ios":"levelo://app?vid=ae9ebd41-ca9a-4f54-b255-893c01b1ebe3"},"vehicle_type_id":"4","last_reported":1700802412,"current_range_meters":2000,"station_id":"ce4bgj92rcd13ifvqbe0","pricing_plan_id":"free"},{"bike_id":"6724d5d7-7cc9-452a-9c59-23617405b0bb","system_id":"levelo_inurba_marseille","lat":43.325233,"lon":5.414318,"is_reserved":false,"is_disabled":false,"rental_uris":{"android":"levelo://app?vid=6724d5d7-7cc9-452a-9c59-23617405b0bb","ios":"levelo://app?vid=6724d5d7-7cc9-452a-9c59-23617405b0bb"},"vehicle_type_id":"4","last_reported":1700802412,"current_range_meters":28800,"station_id":"ce4bhq12rcd13ifvqhhg","pricing_plan_id":"free"},{"bike_id":"380bea03-66b9-494a-9d3c-ad0da1c35a22","system_id":"levelo_inurba_marseille","lat":43.293664,"lon":5.412613,"is_reserved":false,"is_disabled":false,"rental_uris":{"android":"levelo://app?vid=380bea03-66b9-494a-9d3c-ad0da1c35a22","ios":"levelo://app?vid=380bea03-66b9-494a-9d3c-ad0da1c35a22"},"vehicle_type_id":"4","last_reported":1700802412,"current_range_meters":0,"station_id":"","pricing_plan_id":"free"},{"bike_id":"864d532c-fdd8-4084-96dc-2e4549abad31","system_id":"levelo_inurba_marseille","lat":43.275625,"lon":5.384392,"is_reserved":false,"is_disabled":false,"rental_uris":{"android":"levelo://app?vid=864d532c-fdd8-4084-96dc-2e4549abad31","ios":"levelo://app?vid=864d532c-fdd8-4084-96dc-2e4549abad31"},"vehicle_type_id":"4","last_reported":1700802412,"current_range_meters":26800,"station_id":"ce4bhh92rcd13ifvqfi0","pricing_plan_id":"free"},{"bike_id":"99cdfccc-b6d1-4d42-a20b-b719e8222b3e","system_id":"levelo_inurba_marseille","lat":43.33612,"lon":5.410321,"is_reserved":false,"is_disabled":false,"rental_uris":{"android":"levelo://app?vid=99cdfccc-b6d1-4d42-a20b-b719e8222b3e","ios":"levelo://app?vid=99cdfccc-b6d1-4d42-a20b-b719e8222b3e"},"vehicle_type_id":"4","last_reported":1700802412,"current_range_meters":24800,"station_id":"ce4bhqh2rcd13ifvqhmg","pricing_plan_id":"free"},{"bike_id":"27ecb065-6c46-4fb1-b2f9-6ac22d921424","system_id":"levelo_inurba_marseille","lat":43.33612,"lon":5.410321,"is_reserved":false,"is_disabled":false,"rental_uris":{"android":"levelo://app?vid=27ecb065-6c46-4fb1-b2f9-6ac22d921424","ios":"levelo://app?vid=27ecb065-6c46-4fb1-b2f9-6ac22d921424"},"vehicle_type_id":"4","last_reported":1700802412,"current_range_meters":6800,"station_id":"ce4bhqh2rcd13ifvqhmg","pricing_plan_id":"free"},{"bike_id":"e5d113e9-b017-454d-80e6-a16360f6c11d","system_id":"levelo_inurba_marseille","lat":43.275625,"lon":5.384392,"is_reserved":false,"is_disabled":false,"rental_uris":{"android":"levelo://app?vid=e5d113e9-b017-454d-80e6-a16360f6c11d","ios":"levelo://app?vid=e5d113e9-b017-454d-80e6-a16360f6c11d"},"vehicle_type_id":"4","last_reported":1700802412,"current_range_meters":28400,"station_id":"ce4bhh92rcd13ifvqfi0","pricing_plan_id":"free"},{"bike_id":"fd740241-aeff-4dc0-aae4-e59c07bca3f5","system_id":"levelo_inurba_marseille","lat":43.336134,"lon":5.410341,"is_reserved":false,"is_disabled":false,"rental_uris":{"android":"levelo://app?vid=fd740241-aeff-4dc0-aae4-e59c07bca3f5","ios":"levelo://app?vid=fd740241-aeff-4dc0-aae4-e59c07bca3f5"},"vehicle_type_id":"4","last_reported":1700802412,"current_range_meters":26800,"station_id":"ce4bhqh2rcd13ifvqhmg","pricing_plan_id":"free"},{"bike_id":"a56147cd-0f3d-4ac2-baf3-7d12f58ae754","system_id":"levelo_inurba_marseille","lat":43.33612,"lon":5.410321,"is_reserved":false,"is_disabled":false,"rental_uris":{"android":"levelo://app?vid=a56147cd-0f3d-4ac2-baf3-7d12f58ae754","ios":"levelo://app?vid=a56147cd-0f3d-4ac2-baf3-7d12f58ae754"},"vehicle_type_id":"4","last_reported":1700802412,"current_range_meters":14400,"station_id":"ce4bhqh2rcd13ifvqhmg","pricing_plan_id":"free"},{"bike_id":"9a8f26ec-f183-465f-9363-2c44d4d80177","system_id":"levelo_inurba_marseille","lat":43.33612,"lon":5.410321,"is_reserved":false,"is_disabled":false,"rental_uris":{"android":"levelo://app?vid=9a8f26ec-f183-465f-9363-2c44d4d80177","ios":"levelo://app?vid=9a8f26ec-f183-465f-9363-2c44d4d80177"},"vehicle_type_id":"4","last_reported":1700802412,"current_range_meters":26400,"station_id":"ce4bhqh2rcd13ifvqhmg","pricing_plan_id":"free"},{"bike_id":"b7ec749c-e206-49a9-85f1-90aade14f096","system_id":"levelo_inurba_marseille","lat":43.336134,"lon":5.410341,"is_reserved":false,"is_disabled":false,"rental_uris":{"android":"levelo://app?vid=b7ec749c-e206-49a9-85f1-90aade14f096","ios":"levelo://app?vid=b7ec749c-e206-49a9-85f1-90aade14f096"},"vehicle_type_id":"4","last_reported":1700802412,"current_range_meters":30400,"station_id":"ce4bhqh2rcd13ifvqhmg","pricing_plan_id":"free"},{"bike_id":"a36f96ad-4f30-4a2f-8fd7-5c2d78624d91","system_id":"levelo_inurba_marseille","lat":43.275625,"lon":5.384392,"is_reserved":false,"is_disabled":false,"rental_uris":{"android":"levelo://app?vid=a36f96ad-4f30-4a2f-8fd7-5c2d78624d91","ios":"levelo://app?vid=a36f96ad-4f30-4a2f-8fd7-5c2d78624d91"},"vehicle_type_id":"4","last_reported":1700802412,"current_range_meters":23200,"station_id":"ce4bhh92rcd13ifvqfi0","pricing_plan_id":"free"},{"bike_id":"9bc4d199-515b-4acd-bcc0-06e5f5cfccd2","system_id":"levelo_inurba_marseille","lat":43.317121,"lon":5.423936,"is_reserved":false,"is_disabled":false,"rental_uris":{"android":"levelo://app?vid=9bc4d199-515b-4acd-bcc0-06e5f5cfccd2","ios":"levelo://app?vid=9bc4d199-515b-4acd-bcc0-06e5f5cfccd2"},"vehicle_type_id":"4","last_reported":1700802412,"current_range_meters":28400,"station_id":"ce4bhp92rcd13ifvqhbg","pricing_plan_id":"free"},{"bike_id":"c3dc31b6-736e-47f2-8d6b-bf390f3f2b60","system_id":"levelo_inurba_marseille","lat":43.317121,"lon":5.423936,"is_reserved":false,"is_disabled":false,"rental_uris":{"android":"levelo://app?vid=c3dc31b6-736e-47f2-8d6b-bf390f3f2b60","ios":"levelo://app?vid=c3dc31b6-736e-47f2-8d6b-bf390f3f2b60"},"vehicle_type_id":"4","last_reported":1700802412,"current_range_meters":18400,"station_id":"ce4bhp92rcd13ifvqhbg","pricing_plan_id":"free"},{"bike_id":"0b677ab6-a93b-4e0b-a612-efec26874138","system_id":"levelo_inurba_marseille","lat":43.317121,"lon":5.423936,"is_reserved":false,"is_disabled":false,"rental_uris":{"android":"levelo://app?vid=0b677ab6-a93b-4e0b-a612-efec26874138","ios":"levelo://app?vid=0b677ab6-a93b-4e0b-a612-efec26874138"},"vehicle_type_id":"4","last_reported":1700802412,"current_range_meters":31600,"station_id":"ce4bhp92rcd13ifvqhbg","pricing_plan_id":"free"},{"bike_id":"dba2a6d6-d761-45cc-b813-582eee1b06d9","system_id":"levelo_inurba_marseille","lat":43.340804,"lon":5.410219,"is_reserved":false,"is_disabled":false,"rental_uris":{"android":"levelo://app?vid=dba2a6d6-d761-45cc-b813-582eee1b06d9","ios":"levelo://app?vid=dba2a6d6-d761-45cc-b813-582eee1b06d9"},"vehicle_type_id":"4","last_reported":1700802412,"current_range_meters":26400,"station_id":"ce4bhqh2rcd13ifvqhlg","pricing_plan_id":"free"},{"bike_id":"422eaa23-7465-45a6-8f34-ef03bb0d0a13","system_id":"levelo_inurba_marseille","lat":43.340804,"lon":5.410219,"is_reserved":false,"is_disabled":false,"rental_uris":{"android":"levelo://app?vid=422eaa23-7465-45a6-8f34-ef03bb0d0a13","ios":"levelo://app?vid=422eaa23-7465-45a6-8f34-ef03bb0d0a13"},"vehicle_type_id":"4","last_reported":1700802412,"current_range_meters":24000,"station_id":"ce4bhqh2rcd13ifvqhlg","pricing_plan_id":"free"},{"bike_id":"ee3353de-ad16-41b2-900b-c0d5b5e68caf","system_id":"levelo_inurba_marseille","lat":43.340804,"lon":5.410219,"is_reserved":false,"is_disabled":false,"rental_uris":{"android":"levelo://app?vid=ee3353de-ad16-41b2-900b-c0d5b5e68caf","ios":"levelo://app?vid=ee3353de-ad16-41b2-900b-c0d5b5e68caf"},"vehicle_type_id":"4","last_reported":1700802412,"current_range_meters":30800,"station_id":"ce4bhqh2rcd13ifvqhlg","pricing_plan_id":"free"},{"bike_id":"f6d19d1b-693b-4963-ba5a-4b930cec88fd","system_id":"levelo_inurba_marseille","lat":43.340804,"lon":5.410219,"is_reserved":false,"is_disabled":false,"rental_uris":{"android":"levelo://app?vid=f6d19d1b-693b-4963-ba5a-4b930cec88fd","ios":"levelo://app?vid=f6d19d1b-693b-4963-ba5a-4b930cec88fd"},"vehicle_type_id":"4","last_reported":1700802412,"current_range_meters":30800,"station_id":"ce4bhqh2rcd13ifvqhlg","pricing_plan_id":"free"},{"bike_id":"48565e36-de67-4c6a-8337-460138cf3900","system_id":"levelo_inurba_marseille","lat":43.340804,"lon":5.410219,"is_reserved":false,"is_disabled":false,"rental_uris":{"android":"levelo://app?vid=48565e36-de67-4c6a-8337-460138cf3900","ios":"levelo://app?vid=48565e36-de67-4c6a-8337-460138cf3900"},"vehicle_type_id":"4","last_reported":1700802412,"current_range_meters":14400,"station_id":"ce4bhqh2rcd13ifvqhlg","pricing_plan_id":"free"},{"bike_id":"aee8505e-cf23-41d8-83ab-216d473c8104","system_id":"levelo_inurba_marseille","lat":43.273125,"lon":5.390731,"is_reserved":false,"is_disabled":false,"rental_uris":{"android":"levelo://app?vid=aee8505e-cf23-41d8-83ab-216d473c8104","ios":"levelo://app?vid=aee8505e-cf23-41d8-83ab-216d473c8104"},"vehicle_type_id":"4","last_reported":1700802412,"current_range_meters":14800,"station_id":"ce4bhgp2rcd13ifvqfe0","pricing_plan_id":"free"},{"bike_id":"845820b4-4ef5-4f31-af43-e31686a99ed4","system_id":"levelo_inurba_marseille","lat":43.274099,"lon":5.394019,"is_reserved":false,"is_disabled":false,"rental_uris":{"android":"levelo://app?vid=845820b4-4ef5-4f31-af43-e31686a99ed4","ios":"levelo://app?vid=845820b4-4ef5-4f31-af43-e31686a99ed4"},"vehicle_type_id":"4","last_reported":1700802412,"current_range_meters":27200,"station_id":"ce4bhdp2rcd13ifvqf20","pricing_plan_id":"free"},{"bike_id":"c476f5db-ff8b-4e03-bc30-6ec557a92eae","system_id":"levelo_inurba_marseille","lat":43.273129,"lon":5.390725,"is_reserved":false,"is_disabled":false,"rental_uris":{"android":"levelo://app?vid=c476f5db-ff8b-4e03-bc30-6ec557a92eae","ios":"levelo://app?vid=c476f5db-ff8b-4e03-bc30-6ec557a92eae"},"vehicle_type_id":"4","last_reported":1700802412,"current_range_meters":25200,"station_id":"ce4bhgp2rcd13ifvqfe0","pricing_plan_id":"free"},{"bike_id":"25930601-41dc-466b-979a-4b5644836b1a","system_id":"levelo_inurba_marseille","lat":43.295523,"lon":5.422926,"is_reserved":false,"is_disabled":false,"rental_uris":{"android":"levelo://app?vid=25930601-41dc-466b-979a-4b5644836b1a","ios":"levelo://app?vid=25930601-41dc-466b-979a-4b5644836b1a"},"vehicle_type_id":"4","last_reported":1700802412,"current_range_meters":28800,"station_id":"ce4bhph2rcd13ifvqhdg","pricing_plan_id":"free"},{"bike_id":"c8f1f57d-9903-4f6b-8165-2772da2d446a","system_id":"levelo_inurba_marseille","lat":43.295511,"lon":5.422926,"is_reserved":false,"is_disabled":false,"rental_uris":{"android":"levelo://app?vid=c8f1f57d-9903-4f6b-8165-2772da2d446a","ios":"levelo://app?vid=c8f1f57d-9903-4f6b-8165-2772da2d446a"},"vehicle_type_id":"4","last_reported":1700802412,"current_range_meters":30400,"station_id":"ce4bhph2rcd13ifvqhdg","pricing_plan_id":"free"},{"bike_id":"22dae9c8-ede3-462f-bcfd-f8053b38ee98","system_id":"levelo_inurba_marseille","lat":43.272116,"lon":5.391747,"is_reserved":false,"is_disabled":false,"rental_uris":{"android":"levelo://app?vid=22dae9c8-ede3-462f-bcfd-f8053b38ee98","ios":"levelo://app?vid=22dae9c8-ede3-462f-bcfd-f8053b38ee98"},"vehicle_type_id":"4","last_reported":1700802412,"current_range_meters":26000,"station_id":"ce4bhhp2rcd13ifvqfm0","pricing_plan_id":"free"},{"bike_id":"fe57a2e3-da38-4bd2-8a40-3b2369cc85cc","system_id":"levelo_inurba_marseille","lat":43.272124,"lon":5.391768,"is_reserved":false,"is_disabled":false,"rental_uris":{"android":"levelo://app?vid=fe57a2e3-da38-4bd2-8a40-3b2369cc85cc","ios":"levelo://app?vid=fe57a2e3-da38-4bd2-8a40-3b2369cc85cc"},"vehicle_type_id":"4","last_reported":1700802412,"current_range_meters":10400,"station_id":"ce4bhhp2rcd13ifvqfm0","pricing_plan_id":"free"},{"bike_id":"48c1fbfb-e6c4-4c56-a75c-55416f8bb4c3","system_id":"levelo_inurba_marseille","lat":43.27188,"lon":5.39301,"is_reserved":false,"is_disabled":false,"rental_uris":{"android":"levelo://app?vid=48c1fbfb-e6c4-4c56-a75c-55416f8bb4c3","ios":"levelo://app?vid=48c1fbfb-e6c4-4c56-a75c-55416f8bb4c3"},"vehicle_type_id":"4","last_reported":1700802412,"current_range_meters":25200,"station_id":"","pricing_plan_id":"free"},{"bike_id":"30a3118b-b8f9-4fc1-98b6-e119d9ea32a9","system_id":"levelo_inurba_marseille","lat":43.27811,"lon":5.40711,"is_reserved":false,"is_disabled":false,"rental_uris":{"android":"levelo://app?vid=30a3118b-b8f9-4fc1-98b6-e119d9ea32a9","ios":"levelo://app?vid=30a3118b-b8f9-4fc1-98b6-e119d9ea32a9"},"vehicle_type_id":"4","last_reported":1700802412,"current_range_meters":0,"station_id":"ce4bhnh2rcd13ifvqgtg","pricing_plan_id":"free"},{"bike_id":"be104bc7-81b2-4406-b488-8b2f965daaac","system_id":"levelo_inurba_marseille","lat":43.27812,"lon":5.40713,"is_reserved":false,"is_disabled":false,"rental_uris":{"android":"levelo://app?vid=be104bc7-81b2-4406-b488-8b2f965daaac","ios":"levelo://app?vid=be104bc7-81b2-4406-b488-8b2f965daaac"},"vehicle_type_id":"4","last_reported":1700802412,"current_range_meters":16000,"station_id":"ce4bhnh2rcd13ifvqgtg","pricing_plan_id":"free"},{"bike_id":"f6db109b-b1a5-42a4-9bd3-40618b937f60","system_id":"levelo_inurba_marseille","lat":43.278128,"lon":5.407195,"is_reserved":false,"is_disabled":false,"rental_uris":{"android":"levelo://app?vid=f6db109b-b1a5-42a4-9bd3-40618b937f60","ios":"levelo://app?vid=f6db109b-b1a5-42a4-9bd3-40618b937f60"},"vehicle_type_id":"4","last_reported":1700802412,"current_range_meters":27200,"station_id":"ce4bhnh2rcd13ifvqgtg","pricing_plan_id":"free"},{"bike_id":"5dc0f627-0f35-4ff0-98bb-de9d38eb222a","system_id":"levelo_inurba_marseille","lat":43.269467,"lon":5.386439,"is_reserved":false,"is_disabled":false,"rental_uris":{"android":"levelo://app?vid=5dc0f627-0f35-4ff0-98bb-de9d38eb222a","ios":"levelo://app?vid=5dc0f627-0f35-4ff0-98bb-de9d38eb222a"},"vehicle_type_id":"4","last_reported":1700802412,"current_range_meters":18800,"station_id":"ce4bhh92rcd13ifvqfh0","pricing_plan_id":"free"},{"bike_id":"1ab810f4-ffb5-4e69-a96d-7d9bcd41f3b6","system_id":"levelo_inurba_marseille","lat":43.27956,"lon":5.41044,"is_reserved":false,"is_disabled":false,"rental_uris":{"android":"levelo://app?vid=1ab810f4-ffb5-4e69-a96d-7d9bcd41f3b6","ios":"levelo://app?vid=1ab810f4-ffb5-4e69-a96d-7d9bcd41f3b6"},"vehicle_type_id":"4","last_reported":1700802412,"current_range_meters":0,"station_id":"ce4bhnp2rcd13ifvqh0g","pricing_plan_id":"free"},{"bike_id":"d5c52b1b-ef9c-4175-8cff-9bc1db3ea023","system_id":"levelo_inurba_marseille","lat":43.279465,"lon":5.410561,"is_reserved":false,"is_disabled":false,"rental_uris":{"android":"levelo://app?vid=d5c52b1b-ef9c-4175-8cff-9bc1db3ea023","ios":"levelo://app?vid=d5c52b1b-ef9c-4175-8cff-9bc1db3ea023"},"vehicle_type_id":"4","last_reported":1700802412,"current_range_meters":14400,"station_id":"ce4bhnp2rcd13ifvqh0g","pricing_plan_id":"free"},{"bike_id":"3384a206-59eb-440f-82a2-14f2dabaa539","system_id":"levelo_inurba_marseille","lat":43.269319,"lon":5.389397,"is_reserved":false,"is_disabled":false,"rental_uris":{"android":"levelo://app?vid=3384a206-59eb-440f-82a2-14f2dabaa539","ios":"levelo://app?vid=3384a206-59eb-440f-82a2-14f2dabaa539"},"vehicle_type_id":"4","last_reported":1700802412,"current_range_meters":28800,"station_id":"ce4bhhh2rcd13ifvqfl0","pricing_plan_id":"free"},{"bike_id":"cf3483f2-bf95-4e67-a276-3da7028dde07","system_id":"levelo_inurba_marseille","lat":43.26685,"lon":5.382713,"is_reserved":false,"is_disabled":false,"rental_uris":{"android":"levelo://app?vid=cf3483f2-bf95-4e67-a276-3da7028dde07","ios":"levelo://app?vid=cf3483f2-bf95-4e67-a276-3da7028dde07"},"vehicle_type_id":"4","last_reported":1700802412,"current_range_meters":29200,"station_id":"ce4bhg92rcd13ifvqf90","pricing_plan_id":"free"},{"bike_id":"afca0fe0-702c-4607-8149-ab8757df2f63","system_id":"levelo_inurba_marseille","lat":43.26555,"lon":5.37284,"is_reserved":false,"is_disabled":false,"rental_uris":{"android":"levelo://app?vid=afca0fe0-702c-4607-8149-ab8757df2f63","ios":"levelo://app?vid=afca0fe0-702c-4607-8149-ab8757df2f63"},"vehicle_type_id":"4","last_reported":1700802412,"current_range_meters":0,"station_id":"ce4bhg12rcd13ifvqf70","pricing_plan_id":"free"},{"bike_id":"28e8ce00-6b21-4e06-9930-c7c4408cc650","system_id":"levelo_inurba_marseille","lat":43.326174,"lon":5.430584,"is_reserved":false,"is_disabled":false,"rental_uris":{"android":"levelo://app?vid=28e8ce00-6b21-4e06-9930-c7c4408cc650","ios":"levelo://app?vid=28e8ce00-6b21-4e06-9930-c7c4408cc650"},"vehicle_type_id":"4","last_reported":1700802412,"current_range_meters":400,"station_id":"","pricing_plan_id":"free"},{"bike_id":"98ac35d8-99b9-41b9-adcb-aae642423dba","system_id":"levelo_inurba_marseille","lat":43.27996,"lon":5.416624,"is_reserved":false,"is_disabled":false,"rental_uris":{"android":"levelo://app?vid=98ac35d8-99b9-41b9-adcb-aae642423dba","ios":"levelo://app?vid=98ac35d8-99b9-41b9-adcb-aae642423dba"},"vehicle_type_id":"4","last_reported":1700802412,"current_range_meters":16000,"station_id":"ce4bho12rcd13ifvqh1g","pricing_plan_id":"free"},{"bike_id":"e1c5aebc-ee6b-4705-aa75-1033e20494cf","system_id":"levelo_inurba_marseille","lat":43.27991,"lon":5.41669,"is_reserved":false,"is_disabled":false,"rental_uris":{"android":"levelo://app?vid=e1c5aebc-ee6b-4705-aa75-1033e20494cf","ios":"levelo://app?vid=e1c5aebc-ee6b-4705-aa75-1033e20494cf"},"vehicle_type_id":"4","last_reported":1700802412,"current_range_meters":0,"station_id":"ce4bho12rcd13ifvqh1g","pricing_plan_id":"free"},{"bike_id":"2b5f0b27-ae58-4e9e-bd76-c585f78e8a73","system_id":"levelo_inurba_marseille","lat":43.26386,"lon":5.37454,"is_reserved":false,"is_disabled":false,"rental_uris":{"android":"levelo://app?vid=2b5f0b27-ae58-4e9e-bd76-c585f78e8a73","ios":"levelo://app?vid=2b5f0b27-ae58-4e9e-bd76-c585f78e8a73"},"vehicle_type_id":"4","last_reported":1700802412,"current_range_meters":16000,"station_id":"","pricing_plan_id":"free"},{"bike_id":"9e246423-aebf-4935-b376-1f6fffc5a1f6","system_id":"levelo_inurba_marseille","lat":43.2656,"lon":5.38997,"is_reserved":false,"is_disabled":false,"rental_uris":{"android":"levelo://app?vid=9e246423-aebf-4935-b376-1f6fffc5a1f6","ios":"levelo://app?vid=9e246423-aebf-4935-b376-1f6fffc5a1f6"},"vehicle_type_id":"4","last_reported":1700802412,"current_range_meters":14800,"station_id":"ce4bhe12rcd13ifvqf30","pricing_plan_id":"free"},{"bike_id":"fbbd7ec6-9bef-49d9-bb08-6e5c4c4f0543","system_id":"levelo_inurba_marseille","lat":43.317104,"lon":5.436818,"is_reserved":false,"is_disabled":false,"rental_uris":{"android":"levelo://app?vid=fbbd7ec6-9bef-49d9-bb08-6e5c4c4f0543","ios":"levelo://app?vid=fbbd7ec6-9bef-49d9-bb08-6e5c4c4f0543"},"vehicle_type_id":"4","last_reported":1700802412,"current_range_meters":27600,"station_id":"ce4bhp92rcd13ifvqhcg","pricing_plan_id":"free"},{"bike_id":"89f265a3-7340-4995-bd1b-186b8b2d4277","system_id":"levelo_inurba_marseille","lat":43.262012,"lon":5.379307,"is_reserved":false,"is_disabled":false,"rental_uris":{"android":"levelo://app?vid=89f265a3-7340-4995-bd1b-186b8b2d4277","ios":"levelo://app?vid=89f265a3-7340-4995-bd1b-186b8b2d4277"},"vehicle_type_id":"4","last_reported":1700802412,"current_range_meters":28800,"station_id":"ce4bhjp2rcd13ifvqg90","pricing_plan_id":"free"},{"bike_id":"b7bd6396-9ae9-4ece-9924-2f9d605d7f33","system_id":"levelo_inurba_marseille","lat":43.271388,"lon":5.409269,"is_reserved":false,"is_disabled":false,"rental_uris":{"android":"levelo://app?vid=b7bd6396-9ae9-4ece-9924-2f9d605d7f33","ios":"levelo://app?vid=b7bd6396-9ae9-4ece-9924-2f9d605d7f33"},"vehicle_type_id":"4","last_reported":1700802412,"current_range_meters":24400,"station_id":"ce4bhl12rcd13ifvqgf0","pricing_plan_id":"free"},{"bike_id":"eb3f74c4-049b-4b5d-a2f6-9ed654b4b396","system_id":"levelo_inurba_marseille","lat":43.271368,"lon":5.40928,"is_reserved":false,"is_disabled":false,"rental_uris":{"android":"levelo://app?vid=eb3f74c4-049b-4b5d-a2f6-9ed654b4b396","ios":"levelo://app?vid=eb3f74c4-049b-4b5d-a2f6-9ed654b4b396"},"vehicle_type_id":"4","last_reported":1700802412,"current_range_meters":28800,"station_id":"ce4bhl12rcd13ifvqgf0","pricing_plan_id":"free"},{"bike_id":"d0bb53f7-f1b8-4609-a668-27efdac67f66","system_id":"levelo_inurba_marseille","lat":43.26301,"lon":5.38842,"is_reserved":false,"is_disabled":false,"rental_uris":{"android":"levelo://app?vid=d0bb53f7-f1b8-4609-a668-27efdac67f66","ios":"levelo://app?vid=d0bb53f7-f1b8-4609-a668-27efdac67f66"},"vehicle_type_id":"4","last_reported":1700802412,"current_range_meters":0,"station_id":"","pricing_plan_id":"free"},{"bike_id":"33aa354a-e7fb-40a8-af71-966737488973","system_id":"levelo_inurba_marseille","lat":43.298768,"lon":5.43643,"is_reserved":false,"is_disabled":false,"rental_uris":{"android":"levelo://app?vid=33aa354a-e7fb-40a8-af71-966737488973","ios":"levelo://app?vid=33aa354a-e7fb-40a8-af71-966737488973"},"vehicle_type_id":"4","last_reported":1700802412,"current_range_meters":21600,"station_id":"ce4bhpp2rcd13ifvqhfg","pricing_plan_id":"free"},{"bike_id":"c8e0aad3-4462-4f8b-93ce-b770998879ce","system_id":"levelo_inurba_marseille","lat":43.29898,"lon":5.43679,"is_reserved":false,"is_disabled":false,"rental_uris":{"android":"levelo://app?vid=c8e0aad3-4462-4f8b-93ce-b770998879ce","ios":"levelo://app?vid=c8e0aad3-4462-4f8b-93ce-b770998879ce"},"vehicle_type_id":"4","last_reported":1700802412,"current_range_meters":30000,"station_id":"ce4bhpp2rcd13ifvqhfg","pricing_plan_id":"free"},{"bike_id":"c6104b18-3ca1-44b4-83eb-3ad8cfbfedd4","system_id":"levelo_inurba_marseille","lat":43.281548,"lon":5.42643,"is_reserved":false,"is_disabled":false,"rental_uris":{"android":"levelo://app?vid=c6104b18-3ca1-44b4-83eb-3ad8cfbfedd4","ios":"levelo://app?vid=c6104b18-3ca1-44b4-83eb-3ad8cfbfedd4"},"vehicle_type_id":"4","last_reported":1700802412,"current_range_meters":30000,"station_id":"ce4bhnh2rcd13ifvqgug","pricing_plan_id":"free"},{"bike_id":"8c64e0a0-5898-44f6-b39e-88afacd1c23b","system_id":"levelo_inurba_marseille","lat":43.281548,"lon":5.42643,"is_reserved":false,"is_disabled":false,"rental_uris":{"android":"levelo://app?vid=8c64e0a0-5898-44f6-b39e-88afacd1c23b","ios":"levelo://app?vid=8c64e0a0-5898-44f6-b39e-88afacd1c23b"},"vehicle_type_id":"4","last_reported":1700802412,"current_range_meters":27600,"station_id":"ce4bhnh2rcd13ifvqgug","pricing_plan_id":"free"},{"bike_id":"f2b94109-5ff9-4676-af18-09568ed4fb8c","system_id":"levelo_inurba_marseille","lat":43.281548,"lon":5.42643,"is_reserved":false,"is_disabled":false,"rental_uris":{"android":"levelo://app?vid=f2b94109-5ff9-4676-af18-09568ed4fb8c","ios":"levelo://app?vid=f2b94109-5ff9-4676-af18-09568ed4fb8c"},"vehicle_type_id":"4","last_reported":1700802412,"current_range_meters":31200,"station_id":"ce4bhnh2rcd13ifvqgug","pricing_plan_id":"free"},