{"last_updated":1784837405,"ttl":60,"version":"2.2","data":{"bikes":[{"bike_id":"7ef36254-6bb3-448c-8d77-979d957d54b6","system_id":"levelo_inurba_marseille","lat":43.337444,"lon":5.374475,"is_reserved":false,"is_disabled":false,"rental_uris":{"android":"levelo://app?vid=7ef36254-6bb3-448c-8d77-979d957d54b6","ios":"levelo://app?vid=7ef36254-6bb3-448c-8d77-979d957d54b6"},"vehicle_type_id":"4","last_reported":1784837406,"current_range_meters":0,"station_id":"","pricing_plan_id":"cebpf4jnsgd1na2vs0mg"},{"bike_id":"21fe2e98-0432-4b40-a81f-10dd00b0f57d","system_id":"levelo_inurba_marseille","lat":43.337444,"lon":5.374475,"is_reserved":false,"is_disabled":false,"rental_uris":{"android":"levelo://app?vid=21fe2e98-0432-4b40-a81f-10dd00b0f57d","ios":"levelo://app?vid=21fe2e98-0432-4b40-a81f-10dd00b0f57d"},"vehicle_type_id":"4","last_reported":1784837406,"current_range_meters":0,"station_id":"","pricing_plan_id":"cebpf4jnsgd1na2vs0mg"},{"bike_id":"df7929a5-2b0c-4c4a-9607-4bd34960b2e8","system_id":"levelo_inurba_marseille","lat":43.21196,"lon":5.35072,"is_reserved":false,"is_disabled":false,"rental_uris":{"android":"levelo://app?vid=df7929a5-2b0c-4c4a-9607-4bd34960b2e8","ios":"levelo://app?vid=df7929a5-2b0c-4c4a-9607-4bd34960b2e8"},"vehicle_type_id":"4","last_reported":1784837406,"current_range_meters":8400,"station_id":"st_cvj6sg6p6f1abm77japg","pricing_plan_id":"cebpf4jnsgd1na2vs0mg"},{"bike_id":"19183c47-3219-4bc8-b0a5-33a0541148d1","system_id":"levelo_inurba_marseille","lat":43.23185,"lon":5.35576,"is_reserved":false,"is_disabled":false,"rental_uris":{"android":"levelo://app?vid=19183c47-3219-4bc8-b0a5-33a0541148d1","ios":"levelo://app?vid=19183c47-3219-4bc8-b0a5-33a0541148d1"},"vehicle_type_id":"4","last_reported":1784837406,"current_range_meters":26800,"station_id":"ce4bhu92rcd13ifvqi70","pricing_plan_id":"cebpf4jnsgd1na2vs0mg"},{"bike_id":"3cadf8f2-d89c-4f2b-bad2-a91b4b0a800a","system_id":"levelo_inurba_marseille","lat":43.30276,"lon":5.40363,"is_reserved":false,"is_disabled":false,"rental_uris":{"android":"levelo://app?vid=3cadf8f2-d89c-4f2b-bad2-a91b4b0a800a","ios":"levelo://app?vid=3cadf8f2-d89c-4f2b-bad2-a91b4b0a800a"},"vehicle_type_id":"4","last_reported":1784837406,"current_range_meters":9600,"station_id":"","pricing_plan_id":"cebpf4jnsgd1na2vs0mg"},{"bike_id":"aa05f9f3-0133-4755-8a02-0d4a93e70324","system_id":"levelo_inurba_marseille","lat":43.2466,"lon":5.3816,"is_reserved":false,"is_disabled":false,"rental_uris":{"android":"levelo://app?vid=aa05f9f3-0133-4755-8a02-0d4a93e70324","ios":"levelo://app?vid=aa05f9f3-0133-4755-8a02-0d4a93e70324"},"vehicle_type_id":"4","last_reported":1784837406,"current_range_meters":27600,"station_id":"ce4bhih2rcd13ifvqfr0","pricing_plan_id":"cebpf4jnsgd1na2vs0mg"},{"bike_id":"f2c26268-2002-48c9-a2f8-8f76ed8a8540","system_id":"levelo_inurba_marseille","lat":43.23912,"lon":5.37467,"is_reserved":false,"is_disabled":false,"rental_uris":{"android":"levelo://app?vid=f2c26268-2002-48c9-a2f8-8f76ed8a8540","ios":"levelo://app?vid=f2c26268-2002-48c9-a2f8-8f76ed8a8540"},"vehicle_type_id":"4","last_reported":1784837406,"current_range_meters":36800,"station_id":"st_d6sm7csbq4hs73f8fpjg","pricing_plan_id":"cebpf4jnsgd1na2vs0mg"},{"bike_id":"d344c6d2-1393-41fe-9aea-d7f2c7ccebc4","system_id":"levelo_inurba_marseille","lat":43.29256,"lon":5.37606,"is_reserved":false,"is_disabled":false,"rental_uris":{"android":"levelo://app?vid=d344c6d2-1393-41fe-9aea-d7f2c7ccebc4","ios":"levelo://app?vid=d344c6d2-1393-41fe-9aea-d7f2c7ccebc4"},"vehicle_type_id":"4","last_reported":1784837406,"current_range_meters":19200,"station_id":"ce4bgi12rcd13ifvqb80","pricing_plan_id":"cebpf4jnsgd1na2vs0mg"},{"bike_id":"72706276-fb69-4388-946e-2b4fb06a5929","system_id":"levelo_inurba_marseille","lat":43.33024,"lon":5.3902,"is_reserved":false,"is_disabled":false,"rental_uris":{"android":"levelo://app?vid=72706276-fb69-4388-946e-2b4fb06a5929","ios":"levelo://app?vid=72706276-fb69-4388-946e-2b4fb06a5929"},"vehicle_type_id":"4","last_reported":1784837406,"current_range_meters":38000,"station_id":"ce4bhr92rcd13ifvqhrg","pricing_plan_id":"cebpf4jnsgd1na2vs0mg"},{"bike_id":"3275e5ca-225b-44f6-b554-2e84ebf36240","system_id":"levelo_inurba_marseille","lat":43.32341,"lon":5.36732,"is_reserved":false,"is_disabled":false,"rental_uris":{"android":"levelo://app?vid=3275e5ca-225b-44f6-b554-2e84ebf36240","ios":"levelo://app?vid=3275e5ca-225b-44f6-b554-2e84ebf36240"},"vehicle_type_id":"4","last_reported":1784837406,"current_range_meters":39200,"station_id":"ce4bhsh2rcd13ifvqi2g","pricing_plan_id":"cebpf4jnsgd1na2vs0mg"},{"bike_id":"53e8e9ea-caad-4dbc-9348-6ec15d35c04a","system_id":"levelo_inurba_marseille","lat":43.29187,"lon":5.39316,"is_reserved":false,"is_disabled":false,"rental_uris":{"android":"levelo://app?vid=53e8e9ea-caad-4dbc-9348-6ec15d35c04a","ios":"levelo://app?vid=53e8e9ea-caad-4dbc-9348-6ec15d35c04a"},"vehicle_type_id":"4","last_reported":1784837406,"current_range_meters":39200,"station_id":"ce4bh192rcd13ifvqdd0","pricing_plan_id":"cebpf4jnsgd1na2vs0mg"},{"bike_id":"24579c5c-e5da-4f5f-bd0e-26a2a09566ac","system_id":"levelo_inurba_marseille","lat":43.24377,"lon":5.37044,"is_reserved":false,"is_disabled":false,"rental_uris":{"android":"levelo://app?vid=24579c5c-e5da-4f5f-bd0e-26a2a09566ac","ios":"levelo://app?vid=24579c5c-e5da-4f5f-bd0e-26a2a09566ac"},"vehicle_type_id":"4","last_reported":1784837406,"current_range_meters":30400,"station_id":"ce4bhhh2rcd13ifvqfk0","pricing_plan_id":"cebpf4jnsgd1na2vs0mg"},{"bike_id":"62a8337a-2db1-4e67-b4d3-80b7f74a110a","system_id":"levelo_inurba_marseille","lat":43.26787,"lon":5.39413,"is_reserved":false,"is_disabled":false,"rental_uris":{"android":"levelo://app?vid=62a8337a-2db1-4e67-b4d3-80b7f74a110a","ios":"levelo://app?vid=62a8337a-2db1-4e67-b4d3-80b7f74a110a"},"vehicle_type_id":"4","last_reported":1784837406,"current_range_meters":39200,"station_id":"ce4bhh12rcd13ifvqfg0","pricing_plan_id":"cebpf4jnsgd1na2vs0mg"},{"bike_id":"a1550354-2d97-44b7-8224-d712a77cbb75","system_id":"levelo_inurba_marseille","lat":43.21718,"lon":5.34641,"is_reserved":false,"is_disabled":false,"rental_uris":{"android":"levelo://app?vid=a1550354-2d97-44b7-8224-d712a77cbb75","ios":"levelo://app?vid=a1550354-2d97-44b7-8224-d712a77cbb75"},"vehicle_type_id":"4","last_reported":1784837406,"current_range_meters":28000,"station_id":"st_cvj6r9ubvosntc0bgbag","pricing_plan_id":"cebpf4jnsgd1na2vs0mg"},{"bike_id":"3cc97a53-d102-483f-90b5-fca36af42d3a","system_id":"levelo_inurba_marseille","lat":43.24966,"lon":5.40509,"is_reserved":false,"is_disabled":false,"rental_uris":{"android":"levelo://app?vid=3cc97a53-d102-483f-90b5-fca36af42d3a","ios":"levelo://app?vid=3cc97a53-d102-483f-90b5-fca36af42d3a"},"vehicle_type_id":"4","last_reported":1784837406,"current_range_meters":9600,"station_id":"st_d2ngiaodas8pm72gd1h0","pricing_plan_id":"cebpf4jnsgd1na2vs0mg"},{"bike_id":"e40092d8-e809-444f-887b-ec2d97cdda0b","system_id":"levelo_inurba_marseille","lat":43.30294,"lon":5.39212,"is_reserved":false,"is_disabled":true,"rental_uris":{"android":"levelo://app?vid=e40092d8-e809-444f-887b-ec2d97cdda0b","ios":"levelo://app?vid=e40092d8-e809-444f-887b-ec2d97cdda0b"},"vehicle_type_id":"4","last_reported":1784837406,"current_range_meters":34800,"station_id":"ce4bgkh2rcd13ifvqbk0","pricing_plan_id":"cebpf4jnsgd1na2vs0mg"},{"bike_id":"3d684411-f123-4d18-be0b-98e2ac8255f2","system_id":"levelo_inurba_marseille","lat":43.25516,"lon":5.37651,"is_reserved":false,"is_disabled":false,"rental_uris":{"android":"levelo://app?vid=3d684411-f123-4d18-be0b-98e2ac8255f2","ios":"levelo://app?vid=3d684411-f123-4d18-be0b-98e2ac8255f2"},"vehicle_type_id":"4","last_reported":1784837406,"current_range_meters":19200,"station_id":"ce4bhh12rcd13ifvqff0","pricing_plan_id":"cebpf4jnsgd1na2vs0mg"},{"bike_id":"05e646b6-e34b-4dd5-b5a7-ed65c9a53956","system_id":"levelo_inurba_marseille","lat":43.24811,"lon":5.37479,"is_reserved":false,"is_disabled":false,"rental_uris":{"android":"levelo://app?vid=05e646b6-e34b-4dd5-b5a7-ed65c9a53956","ios":"levelo://app?vid=05e646b6-e34b-4dd5-b5a7-ed65c9a53956"},"vehicle_type_id":"4","last_reported":1784837406,"current_range_meters":39200,"station_id":"ce4bhgh2rcd13ifvqfb0","pricing_plan_id":"cebpf4jnsgd1na2vs0mg"},{"bike_id":"47c77384-9507-427e-9438-99d763536d87","system_id":"levelo_inurba_marseille","lat":43.29001,"lon":5.35617,"is_reserved":false,"is_disabled":false,"rental_uris":{"android":"levelo://app?vid=47c77384-9507-427e-9438-99d763536d87","ios":"levelo://app?vid=47c77384-9507-427e-9438-99d763536d87"},"vehicle_type_id":"4","last_reported":1784837406,"current_range_meters":7200,"station_id":"ce4bhb92rcd13ifvqen0","pricing_plan_id":"cebpf4jnsgd1na2vs0mg"},{"bike_id":"242213bb-864e-4d09-97c6-4a2d8732de8f","system_id":"levelo_inurba_marseille","lat":43.24172,"lon":5.36374,"is_reserved":false,"is_disabled":false,"rental_uris":{"android":"levelo://app?vid=242213bb-864e-4d09-97c6-4a2d8732de8f","ios":"levelo://app?vid=242213bb-864e-4d09-97c6-4a2d8732de8f"},"vehicle_type_id":"4","last_reported":1784837406,"current_range_meters":24800,"station_id":"cpo36qri1sfpv3e86is0","pricing_plan_id":"cebpf4jnsgd1na2vs0mg"},{"bike_id":"87ac9968-65fd-4eb3-ad4d-6777a4f91567","system_id":"levelo_inurba_marseille","lat":43.28702,"lon":5.39974,"is_reserved":false,"is_disabled":false,"rental_uris":{"android":"levelo://app?vid=87ac9968-65fd-4eb3-ad4d-6777a4f91567","ios":"levelo://app?vid=87ac9968-65fd-4eb3-ad4d-6777a4f91567"},"vehicle_type_id":"4","last_reported":1784837406,"current_range_meters":8400,"station_id":"ce4bho92rcd13ifvqh3g","pricing_plan_id":"cebpf4jnsgd1na2vs0mg"},{"bike_id":"60f42b7c-9877-48c2-b89a-a761fa384da1","system_id":"levelo_inurba_marseille","lat":43.28843,"lon":5.39314,"is_reserved":false,"is_disabled":false,"rental_uris":{"android":"levelo://app?vid=60f42b7c-9877-48c2-b89a-a761fa384da1","ios":"levelo://app?vid=60f42b7c-9877-48c2-b89a-a761fa384da1"},"vehicle_type_id":"4","last_reported":1784837406,"current_range_meters":35600,"station_id":"ce4bh2p2rcd13ifvqdi0","pricing_plan_id":"cebpf4jnsgd1na2vs0mg"},{"bike_id":"4d3570a4-e2f4-4dea-b19f-ac550497671a","system_id":"levelo_inurba_marseille","lat":43.29259,"lon":5.3843,"is_reserved":false,"is_disabled":false,"rental_uris":{"android":"levelo://app?vid=4d3570a4-e2f4-4dea-b19f-ac550497671a","ios":"levelo://app?vid=4d3570a4-e2f4-4dea-b19f-ac550497671a"},"vehicle_type_id":"4","last_reported":1784837406,"current_range_meters":20800,"station_id":"ce4bh692rcd13ifvqea0","pricing_plan_id":"cebpf4jnsgd1na2vs0mg"},{"bike_id":"ea40c4b9-230a-448a-bbb9-163a6f9d80da","system_id":"levelo_inurba_marseille","lat":43.29304,"lon":5.37163,"is_reserved":false,"is_disabled":false,"rental_uris":{"android":"levelo://app?vid=ea40c4b9-230a-448a-bbb9-163a6f9d80da","ios":"levelo://app?vid=ea40c4b9-230a-448a-bbb9-163a6f9d80da"},"vehicle_type_id":"4","last_reported":1784837406,"current_range_meters":2800,"station_id":"ce4bgh92rcd13ifvqb40","pricing_plan_id":"cebpf4jnsgd1na2vs0mg"},{"bike_id":"2e7c7de6-8025-43a7-b60d-8312904c25f5","system_id":"levelo_inurba_marseille","lat":43.29869,"lon":5.36273,"is_reserved":false,"is_disabled":false,"rental_uris":{"android":"levelo://app?vid=2e7c7de6-8025-43a7-b60d-8312904c25f5","ios":"levelo://app?vid=2e7c7de6-8025-43a7-b60d-8312904c25f5"},"vehicle_type_id":"4","last_reported":1784837406,"current_range_meters":30400,"station_id":"ce4bgpp2rcd13ifvqc3g","pricing_plan_id":"cebpf4jnsgd1na2vs0mg"},{"bike_id":"7764970a-34ed-47ec-8822-620f6c0f8a78","system_id":"levelo_inurba_marseille","lat":43.24961,"lon":5.38957,"is_reserved":false,"is_disabled":true,"rental_uris":{"android":"levelo://app?vid=7764970a-34ed-47ec-8822-620f6c0f8a78","ios":"levelo://app?vid=7764970a-34ed-47ec-8822-620f6c0f8a78"},"vehicle_type_id":"4","last_reported":1784837406,"current_range_meters":0,"station_id":"","pricing_plan_id":"cebpf4jnsgd1na2vs0mg"},{"bike_id":"2154fcce-4dae-44fd-8c16-6859e119f377","system_id":"levelo_inurba_marseille","lat":43.23967,"lon":5.36623,"is_reserved":false,"is_disabled":false,"rental_uris":{"android":"levelo://app?vid=2154fcce-4dae-44fd-8c16-6859e119f377","ios":"levelo://app?vid=2154fcce-4dae-44fd-8c16-6859e119f377"},"vehicle_type_id":"4","last_reported":1784837406,"current_range_meters":19200,"station_id":"ce4bhi12rcd13ifvqfp0","pricing_plan_id":"cebpf4jnsgd1na2vs0mg"},{"bike_id":"6209ee2b-9998-4ff6-9742-4932666acecd","system_id":"levelo_inurba_marseille","lat":43.29849,"lon":5.36279,"is_reserved":false,"is_disabled":false,"rental_uris":{"android":"levelo://app?vid=6209ee2b-9998-4ff6-9742-4932666acecd","ios":"levelo://app?vid=6209ee2b-9998-4ff6-9742-4932666acecd"},"vehicle_type_id":"4","last_reported":1784837406,"current_range_meters":28800,"station_id":"ce4bgpp2rcd13ifvqc3g","pricing_plan_id":"cebpf4jnsgd1na2vs0mg"},{"bike_id":"a338cea5-f797-4d31-b718-3121663ee29c","system_id":"levelo_inurba_marseille","lat":43.30372,"lon":5.37912,"is_reserved":false,"is_disabled":false,"rental_uris":{"android":"levelo://app?vid=a338cea5-f797-4d31-b718-3121663ee29c","ios":"levelo://app?vid=a338cea5-f797-4d31-b718-3121663ee29c"},"vehicle_type_id":"4","last_reported":1784837406,"current_range_meters":28800,"station_id":"","pricing_plan_id":"cebpf4jnsgd1na2vs0mg"},{"bike_id":"12120ca4-ddbe-4dd9-9a56-21f3ef150aee","system_id":"levelo_inurba_marseille","lat":43.30319,"lon":5.37315,"is_reserved":false,"is_disabled":false,"rental_uris":{"android":"levelo://app?vid=12120ca4-ddbe-4dd9-9a56-21f3ef150aee","ios":"levelo://app?vid=12120ca4-ddbe-4dd9-9a56-21f3ef150aee"},"vehicle_type_id":"4","last_reported":1784837406,"current_range_meters":2000,"station_id":"","pricing_plan_id":"cebpf4jnsgd1na2vs0mg"},{"bike_id":"867a157c-6e8c-419e-b660-60bd61f84ac6","system_id":"levelo_inurba_marseille","lat":43.27211,"lon":5.39185,"is_reserved":false,"is_disabled":false,"rental_uris":{"android":"levelo://app?vid=867a157c-6e8c-419e-b660-60bd61f84ac6","ios":"levelo://app?vid=867a157c-6e8c-419e-b660-60bd61f84ac6"},"vehicle_type_id":"4","last_reported":1784837406,"current_range_meters":39200,"station_id":"ce4bhhp2rcd13ifvqfm0","pricing_plan_id":"cebpf4jnsgd1na2vs0mg"},{"bike_id":"db4390af-a429-47c5-9fc6-627ff750e5f3","system_id":"levelo_inurba_marseille","lat":43.29262,"lon":5.38432,"is_reserved":false,"is_disabled":false,"rental_uris":{"android":"levelo://app?vid=db4390af-a429-47c5-9fc6-627ff750e5f3","ios":"levelo://app?vid=db4390af-a429-47c5-9fc6-627ff750e5f3"},"vehicle_type_id":"4","last_reported":1784837406,"current_range_meters":30000,"station_id":"ce4bh692rcd13ifvqea0","pricing_plan_id":"cebpf4jnsgd1na2vs0mg"},{"bike_id":"a7c9489a-3c37-4218-bc38-92c335aa3a8a","system_id":"levelo_inurba_marseille","lat":43.28485,"lon":5.48386,"is_reserved":false,"is_disabled":false,"rental_uris":{"android":"levelo://app?vid=a7c9489a-3c37-4218-bc38-92c335aa3a8a","ios":"levelo://app?vid=a7c9489a-3c37-4218-bc38-92c335aa3a8a"},"vehicle_type_id":"4","last_reported":1784837406,"current_range_meters":38800,"station_id":"st_d3svhcjqgbts73a3dn0g","pricing_plan_id":"cebpf4jnsgd1na2vs0mg"},{"bike_id":"5399c993-aa6e-499a-a8eb-af283fb97f85","system_id":"levelo_inurba_marseille","lat":43.262976,"lon":5.378292,"is_reserved":false,"is_disabled":false,"rental_uris":{"android":"levelo://app?vid=5399c993-aa6e-499a-a8eb-af283fb97f85","ios":"levelo://app?vid=5399c993-aa6e-499a-a8eb-af283fb97f85"},"vehicle_type_id":"4","last_reported":1784837406,"current_range_meters":33600,"station_id":"","pricing_plan_id":"cebpf4jnsgd1na2vs0mg"},{"bike_id":"68a1110a-8aa4-46ed-a7b1-8626bd403edb","system_id":"levelo_inurba_marseille","lat":43.23191,"lon":5.35549,"is_reserved":false,"is_disabled":false,"rental_uris":{"android":"levelo://app?vid=68a1110a-8aa4-46ed-a7b1-8626bd403edb","ios":"levelo://app?vid=68a1110a-8aa4-46ed-a7b1-8626bd403edb"},"vehicle_type_id":"4","last_reported":1784837406,"current_range_meters":22800,"station_id":"ce4bhu92rcd13ifvqi70","pricing_plan_id":"cebpf4jnsgd1na2vs0mg"},{"bike_id":"02bc1f6e-a93d-4c6f-8463-6b5ba3d4d3d8","system_id":"levelo_inurba_marseille","lat":43.25502,"lon":5.37665,"is_reserved":false,"is_disabled":false,"rental_uris":{"android":"levelo://app?vid=02bc1f6e-a93d-4c6f-8463-6b5ba3d4d3d8","ios":"levelo://app?vid=02bc1f6e-a93d-4c6f-8463-6b5ba3d4d3d8"},"vehicle_type_id":"4","last_reported":1784837406,"current_range_meters":38800,"station_id":"ce4bhh12rcd13ifvqff0","pricing_plan_id":"cebpf4jnsgd1na2vs0mg"},{"bike_id":"660f1735-2409-420a-9b2a-ea8d74068e43","system_id":"levelo_inurba_marseille","lat":43.2953,"lon":5.38539,"is_reserved":false,"is_disabled":false,"rental_uris":{"android":"levelo://app?vid=660f1735-2409-420a-9b2a-ea8d74068e43","ios":"levelo://app?vid=660f1735-2409-420a-9b2a-ea8d74068e43"},"vehicle_type_id":"4","last_reported":1784837406,"current_range_meters":38400,"station_id":"ce4bgih2rcd13ifvqba0","pricing_plan_id":"cebpf4jnsgd1na2vs0mg"},{"bike_id":"3d3363f1-b079-4e13-899e-dbc693f0dea6","system_id":"levelo_inurba_marseille","lat":43.27494,"lon":5.42442,"is_reserved":false,"is_disabled":true,"rental_uris":{"android":"levelo://app?vid=3d3363f1-b079-4e13-899e-dbc693f0dea6","ios":"levelo://app?vid=3d3363f1-b079-4e13-899e-dbc693f0dea6"},"vehicle_type_id":"4","last_reported":1784837406,"current_range_meters":0,"station_id":"ce4bhn92rcd13ifvqgrg","pricing_plan_id":"cebpf4jnsgd1na2vs0mg"},{"bike_id":"767f50a8-39a0-4542-bbd2-e6fa01e31212","system_id":"levelo_inurba_marseille","lat":43.29061,"lon":5.37151,"is_reserved":false,"is_disabled":false,"rental_uris":{"android":"levelo://app?vid=767f50a8-39a0-4542-bbd2-e6fa01e31212","ios":"levelo://app?vid=767f50a8-39a0-4542-bbd2-e6fa01e31212"},"vehicle_type_id":"4","last_reported":1784837406,"current_range_meters":16800,"station_id":"ce4bh5p2rcd13ifvqe4g","pricing_plan_id":"cebpf4jnsgd1na2vs0mg"},{"bike_id":"5aa3ca14-34f8-4cf6-bf98-84664ad40ed9","system_id":"levelo_inurba_marseille","lat":43.32362,"lon":5.38889,"is_reserved":false,"is_disabled":false,"rental_uris":{"android":"levelo://app?vid=5aa3ca14-34f8-4cf6-bf98-84664ad40ed9","ios":"levelo://app?vid=5aa3ca14-34f8-4cf6-bf98-84664ad40ed9"},"vehicle_type_id":"4","last_reported":1784837406,"current_range_meters":36800,"station_id":"ce4bhqp2rcd13ifvqhog","pricing_plan_id":"cebpf4jnsgd1na2vs0mg"},{"bike_id":"b3f37588-649a-4d34-ac26-6129e2141b2b","system_id":"levelo_inurba_marseille","lat":43.24803,"lon":5.37469,"is_reserved":false,"is_disabled":false,"rental_uris":{"android":"levelo://app?vid=b3f37588-649a-4d34-ac26-6129e2141b2b","ios":"levelo://app?vid=b3f37588-649a-4d34-ac26-6129e2141b2b"},"vehicle_type_id":"4","last_reported":1784837406,"current_range_meters":39200,"station_id":"ce4bhgh2rcd13ifvqfb0","pricing_plan_id":"cebpf4jnsgd1na2vs0mg"},{"bike_id":"ad5546db-be31-4539-b959-cba3ca226aa3","system_id":"levelo_inurba_marseille","lat":43.24807,"lon":5.37451,"is_reserved":false,"is_disabled":false,"rental_uris":{"android":"levelo://app?vid=ad5546db-be31-4539-b959-cba3ca226aa3","ios":"levelo://app?vid=ad5546db-be31-4539-b959-cba3ca226aa3"},"vehicle_type_id":"4","last_reported":1784837406,"current_range_meters":17600,"station_id":"ce4bhgh2rcd13ifvqfb0","pricing_plan_id":"cebpf4jnsgd1na2vs0mg"},{"bike_id":"8b48f329-937d-4f33-bc8e-cc3992c67190","system_id":"levelo_inurba_marseille","lat":43.29614,"lon":5.37167,"is_reserved":false,"is_disabled":true,"rental_uris":{"android":"levelo://app?vid=8b48f329-937d-4f33-bc8e-cc3992c67190","ios":"levelo://app?vid=8b48f329-937d-4f33-bc8e-cc3992c67190"},"vehicle_type_id":"4","last_reported":1784837406,"current_range_meters":31200,"station_id":"","pricing_plan_id":"cebpf4jnsgd1na2vs0mg"},{"bike_id":"5b041b92-66e8-42dc-9be6-66d97f4e4c27","system_id":"levelo_inurba_marseille","lat":43.29008,"lon":5.37169,"is_reserved":false,"is_disabled":true,"rental_uris":{"android":"levelo://app?vid=5b041b92-66e8-42dc-9be6-66d97f4e4c27","ios":"levelo://app?vid=5b041b92-66e8-42dc-9be6-66d97f4e4c27"},"vehicle_type_id":"4","last_reported":1784837406,"current_range_meters":1200,"station_id":"","pricing_plan_id":"cebpf4jnsgd1na2vs0mg"},{"bike_id":"e5cbfbf9-c01d-498e-a2c2-5212a58c9f04","system_id":"levelo_inurba_marseille","lat":43.29529,"lon":5.38531,"is_reserved":false,"is_disabled":false,"rental_uris":{"android":"levelo://app?vid=e5cbfbf9-c01d-498e-a2c2-5212a58c9f04","ios":"levelo://app?vid=e5cbfbf9-c01d-498e-a2c2-5212a58c9f04"},"vehicle_type_id":"4","last_reported":1784837406,"current_range_meters":31200,"station_id":"ce4bgih2rcd13ifvqba0","pricing_plan_id":"cebpf4jnsgd1na2vs0mg"},{"bike_id":"2704b360-a380-4f00-a6d2-00839d63ce08","system_id":"levelo_inurba_marseille","lat":43.33608,"lon":5.4102,"is_reserved":false,"is_disabled":false,"rental_uris":{"android":"levelo://app?vid=2704b360-a380-4f00-a6d2-00839d63ce08","ios":"levelo://app?vid=2704b360-a380-4f00-a6d2-00839d63ce08"},"vehicle_type_id":"4","last_reported":1784837406,"current_range_meters":27600,"station_id":"ce4bhqh2rcd13ifvqhmg","pricing_plan_id":"cebpf4jnsgd1na2vs0mg"},{"bike_id":"b62c6f43-d381-4900-8a07-23d79aaa3392","system_id":"levelo_inurba_marseille","lat":43.29574,"lon":5.42282,"is_reserved":false,"is_disabled":false,"rental_uris":{"android":"levelo://app?vid=b62c6f43-d381-4900-8a07-23d79aaa3392","ios":"levelo://app?vid=b62c6f43-d381-4900-8a07-23d79aaa3392"},"vehicle_type_id":"4","last_reported":1784837406,"current_range_meters":10800,"station_id":"ce4bhph2rcd13ifvqhdg","pricing_plan_id":"cebpf4jnsgd1na2vs0mg"},{"bike_id":"7dcc10e7-a93e-4506-b7c8-31a59a3e7a8a","system_id":"levelo_inurba_marseille","lat":43.24806,"lon":5.37472,"is_reserved":false,"is_disabled":false,"rental_uris":{"android":"levelo://app?vid=7dcc10e7-a93e-4506-b7c8-31a59a3e7a8a","ios":"levelo://app?vid=7dcc10e7-a93e-4506-b7c8-31a59a3e7a8a"},"vehicle_type_id":"4","last_reported":1784837406,"current_range_meters":17200,"station_id":"ce4bhgh2rcd13ifvqfb0","pricing_plan_id":"cebpf4jnsgd1na2vs0mg"},{"bike_id":"0337f70f-422e-4a94-aa4e-b2dbf437f60c","system_id":"levelo_inurba_marseille","lat":43.29606,"lon":5.37715,"is_reserved":false,"is_disabled":false,"rental_uris":{"android":"levelo://app?vid=0337f70f-422e-4a94-aa4e-b2dbf437f60c","ios":"levelo://app?vid=0337f70f-422e-4a94-aa4e-b2dbf437f60c"},"vehicle_type_id":"4","last_reported":1784837406,"current_range_meters":36800,"station_id":"ce4bgi92rcd13ifvqb90","pricing_plan_id":"cebpf4jnsgd1na2vs0mg"},{"bike_id":"86c39a41-dbb7-492c-80ca-66bbe09aaa85","system_id":"levelo_inurba_marseille","lat":43.30097,"lon":5.39078,"is_reserved":false,"is_disabled":true,"rental_uris":{"android":"levelo://app?vid=86c39a41-dbb7-492c-80ca-66bbe09aaa85","ios":"levelo://app?vid=86c39a41-dbb7-492c-80ca-66bbe09aaa85"},"vehicle_type_id":"4","last_reported":1784837406,"current_range_meters":16800,"station_id":"ce4bh192rcd13ifvqdb0","pricing_plan_id":"cebpf4jnsgd1na2vs0mg"},{"bike_id":"3a295aff-6816-4af7-ac5a-87a5bd41c1cd","system_id":"levelo_inurba_marseille","lat":43.2849,"lon":5.48401,"is_reserved":false,"is_disabled":false,"rental_uris":{"android":"levelo://app?vid=3a295aff-6816-4af7-ac5a-87a5bd41c1cd","ios":"levelo://app?vid=3a295aff-6816-4af7-ac5a-87a5bd41c1cd"},"vehicle_type_id":"4","last_reported":1784837406,"current_range_meters":22400,"station_id":"st_d3svhcjqgbts73a3dn0g","pricing_plan_id":"cebpf4jnsgd1na2vs0mg"},{"bike_id":"7b1a34a9-9772-429a-ac81-dbcf3805788e","system_id":"levelo_inurba_marseille","lat":43.27895,"lon":5.35555,"is_reserved":false,"is_disabled":false,"rental_uris":{"android":"levelo://app?vid=7b1a34a9-9772-429a-ac81-dbcf3805788e","ios":"levelo://app?vid=7b1a34a9-9772-429a-ac81-dbcf3805788e"},"vehicle_type_id":"4","last_reported":1784837406,"current_range_meters":11600,"station_id":"","pricing_plan_id":"cebpf4jnsgd1na2vs0mg"},{"bike_id":"d02b6267-fa8b-4b3c-a02c-69e26539cb80","system_id":"levelo_inurba_marseille","lat":43.28948,"lon":5.364,"is_reserved":false,"is_disabled":false,"rental_uris":{"android":"levelo://app?vid=d02b6267-fa8b-4b3c-a02c-69e26539cb80","ios":"levelo://app?vid=d02b6267-fa8b-4b3c-a02c-69e26539cb80"},"vehicle_type_id":"4","last_reported":1784837406,"current_range_meters":10800,"station_id":"ce4bhc92rcd13ifvqetg","pricing_plan_id":"cebpf4jnsgd1na2vs0mg"},{"bike_id":"6cd0b9a2-a893-4d86-a077-a039a6b6a0f1","system_id":"levelo_inurba_marseille","lat":43.28415,"lon":5.34992,"is_reserved":false,"is_disabled":true,"rental_uris":{"android":"levelo://app?vid=6cd0b9a2-a893-4d86-a077-a039a6b6a0f1","ios":"levelo://app?vid=6cd0b9a2-a893-4d86-a077-a039a6b6a0f1"},"vehicle_type_id":"4","last_reported":1784837406,"current_range_meters":19600,"station_id":"ce4bhbh2rcd13ifvqepg","pricing_plan_id":"cebpf4jnsgd1na2vs0mg"},{"bike_id":"b3615f38-9ae4-47b3-be0f-27da959fb130","system_id":"levelo_inurba_marseille","lat":43.26558,"lon":5.39628,"is_reserved":false,"is_disabled":false,"rental_uris":{"android":"levelo://app?vid=b3615f38-9ae4-47b3-be0f-27da959fb130","ios":"levelo://app?vid=b3615f38-9ae4-47b3-be0f-27da959fb130"},"vehicle_type_id":"4","last_reported":1784837406,"current_range_meters":10000,"station_id":"","pricing_plan_id":"cebpf4jnsgd1na2vs0mg"},{"bike_id":"9564bab2-648b-40e8-b116-3fb3ce3c30e1","system_id":"levelo_inurba_marseille","lat":43.29628,"lon":5.37162,"is_reserved":false,"is_disabled":false,"rental_uris":{"android":"levelo://app?vid=9564bab2-648b-40e8-b116-3fb3ce3c30e1","ios":"levelo://app?vid=9564bab2-648b-40e8-b116-3fb3ce3c30e1"},"vehicle_type_id":"4","last_reported":1784837406,"current_range_meters":27600,"station_id":"","pricing_plan_id":"cebpf4jnsgd1na2vs0mg"},{"bike_id":"c39c8d2d-18ec-49b0-a193-e85a69cb685d","system_id":"levelo_inurba_marseille","lat":43.29914,"lon":5.37486,"is_reserved":false,"is_disabled":false,"rental_uris":{"android":"levelo://app?vid=c39c8d2d-18ec-49b0-a193-e85a69cb685d","ios":"levelo://app?vid=c39c8d2d-18ec-49b0-a193-e85a69cb685d"},"vehicle_type_id":"4","last_reported":1784837406,"current_range_meters":39200,"station_id":"ce4bgjh2rcd13ifvqbg0","pricing_plan_id":"cebpf4jnsgd1na2vs0mg"},{"bike_id":"f95849e3-ecc4-4a70-8bc6-ebfb18113894","system_id":"levelo_inurba_marseille","lat":43.27953,"lon":5.41047,"is_reserved":false,"is_disabled":false,"rental_uris":{"android":"levelo://app?vid=f95849e3-ecc4-4a70-8bc6-ebfb18113894","ios":"levelo://app?vid=f95849e3-ecc4-4a70-8bc6-ebfb18113894"},"vehicle_type_id":"4","last_reported":1784837406,"current_range_meters":38000,"station_id":"ce4bhnp2rcd13ifvqh0g","pricing_plan_id":"cebpf4jnsgd1na2vs0mg"},{"bike_id":"01d9a676-01f3-4b98-beb9-e0a1a490c722","system_id":"levelo_inurba_marseille","lat":43.2816,"lon":5.42643,"is_reserved":false,"is_disabled":false,"rental_uris":{"android":"levelo://app?vid=01d9a676-01f3-4b98-beb9-e0a1a490c722","ios":"levelo://app?vid=01d9a676-01f3-4b98-beb9-e0a1a490c722"},"vehicle_type_id":"4","last_reported":1784837406,"current_range_meters":24400,"station_id":"ce4bhnh2rcd13ifvqgug","pricing_plan_id":"cebpf4jnsgd1na2vs0mg"},{"bike_id":"f765bc46-853b-4f5f-a0cf-13f9a2c85881","system_id":"levelo_inurba_marseille","lat":43.32107,"lon":5.36776,"is_reserved":false,"is_disabled":false,"rental_uris":{"android":"levelo://app?vid=f765bc46-853b-4f5f-a0cf-13f9a2c85881","ios":"levelo://app?vid=f765bc46-853b-4f5f-a0cf-13f9a2c85881"},"vehicle_type_id":"4","last_reported":1784837406,"current_range_meters":28400,"station_id":"ce4bhrh2rcd13ifvqhug","pricing_plan_id":"cebpf4jnsgd1na2vs0mg"},{"bike_id":"0aaab04e-fbf4-4eb5-b726-87439b3409d4","system_id":"levelo_inurba_marseille","lat":43.31223,"lon":5.36945,"is_reserved":false,"is_disabled":true,"rental_uris":{"android":"levelo://app?vid=0aaab04e-fbf4-4eb5-b726-87439b3409d4","ios":"levelo://app?vid=0aaab04e-fbf4-4eb5-b726-87439b3409d4"},"vehicle_type_id":"4","last_reported":1784837406,"current_range_meters":31200,"station_id":"","pricing_plan_id":"cebpf4jnsgd1na2vs0mg"},{"bike_id":"c469d1f0-e1f3-4009-933d-1f7d58ff00a5","system_id":"levelo_inurba_marseille","lat":43.2586,"lon":5.39906,"is_reserved":false,"is_disabled":false,"rental_uris":{"android":"levelo://app?vid=c469d1f0-e1f3-4009-933d-1f7d58ff00a5","ios":"levelo://app?vid=c469d1f0-e1f3-4009-933d-1f7d58ff00a5"},"vehicle_type_id":"4","last_reported":1784837406,"current_range_meters":23200,"station_id":"ce4bhl92rcd13ifvqghg","pricing_plan_id":"cebpf4jnsgd1na2vs0mg"},{"bike_id":"a13e16e4-e177-431d-8bef-33b38f696e96","system_id":"levelo_inurba_marseille","lat":43.26757,"lon":5.39978,"is_reserved":false,"is_disabled":false,"rental_uris":{"android":"levelo://app?vid=a13e16e4-e177-431d-8bef-33b38f696e96","ios":"levelo://app?vid=a13e16e4-e177-431d-8bef-33b38f696e96"},"vehicle_type_id":"4","last_reported":1784837406,"current_range_meters":26800,"station_id":"","pricing_plan_id":"cebpf4jnsgd1na2vs0mg"},{"bike_id":"f25586fc-b334-45e8-92a1-e4d4d04c118c","system_id":"levelo_inurba_marseille","lat":43.25497,"lon":5.3765,"is_reserved":false,"is_disabled":false,"rental_uris":{"android":"levelo://app?vid=f25586fc-b334-45e8-92a1-e4d4d04c118c","ios":"levelo://app?vid=f25586fc-b334-45e8-92a1-e4d4d04c118c"},"vehicle_type_id":"4","last_reported":1784837406,"current_range_meters":39200,"station_id":"ce4bhh12rcd13ifvqff0","pricing_plan_id":"cebpf4jnsgd1na2vs0mg"},{"bike_id":"5a7db9a9-b29b-4c25-830f-2ef715266d8f","system_id":"levelo_inurba_marseille","lat":43.3089,"lon":5.39657,"is_reserved":false,"is_disabled":false,"rental_uris":{"android":"levelo://app?vid=5a7db9a9-b29b-4c25-830f-2ef715266d8f","ios":"levelo://app?vid=5a7db9a9-b29b-4c25-830f-2ef715266d8f"},"vehicle_type_id":"4","last_reported":1784837406,"current_range_meters":32400,"station_id":"ce4bh012rcd13ifvqcv0","pricing_plan_id":"cebpf4jnsgd1na2vs0mg"},{"bike_id":"de84f93e-2efe-44dd-902e-99315be80f66","system_id":"levelo_inurba_marseille","lat":43.24707,"lon":5.40316,"is_reserved":false,"is_disabled":false,"rental_uris":{"android":"levelo://app?vid=de84f93e-2efe-44dd-902e-99315be80f66","ios":"levelo://app?vid=de84f93e-2efe-44dd-902e-99315be80f66"},"vehicle_type_id":"4","last_reported":1784837406,"current_range_meters":32000,"station_id":"","pricing_plan_id":"cebpf4jnsgd1na2vs0mg"},{"bike_id":"8c78291a-f0ed-4cfc-b241-d2ce79d8612f","system_id":"levelo_inurba_marseille","lat":43.2551,"lon":5.37662,"is_reserved":false,"is_disabled":false,"rental_uris":{"android":"levelo://app?vid=8c78291a-f0ed-4cfc-b241-d2ce79d8612f","ios":"levelo://app?vid=8c78291a-f0ed-4cfc-b241-d2ce79d8612f"},"vehicle_type_id":"4","last_reported":1784837406,"current_range_meters":31200,"station_id":"ce4bhh12rcd13ifvqff0","pricing_plan_id":"cebpf4jnsgd1na2vs0mg"},{"bike_id":"bdf4da28-86ab-4551-925b-069b27b991b8","system_id":"levelo_inurba_marseille","lat":43.28104,"lon":5.37845,"is_reserved":false,"is_disabled":false,"rental_uris":{"android":"levelo://app?vid=bdf4da28-86ab-4551-925b-069b27b991b8","ios":"levelo://app?vid=bdf4da28-86ab-4551-925b-069b27b991b8"},"vehicle_type_id":"4","last_reported":1784837406,"current_range_meters":10000,"station_id":"ce4bha12rcd13ifvqee0","pricing_plan_id":"cebpf4jnsgd1na2vs0mg"},{"bike_id":"c6e736fb-e232-45bf-a0ea-16cc4b6b67d6","system_id":"levelo_inurba_marseille","lat":43.24161,"lon":5.36422,"is_reserved":false,"is_disabled":true,"rental_uris":{"android":"levelo://app?vid=c6e736fb-e232-45bf-a0ea-16cc4b6b67d6","ios":"levelo://app?vid=c6e736fb-e232-45bf-a0ea-16cc4b6b67d6"},"vehicle_type_id":"4","last_reported":1784837406,"current_range_meters":38400,"station_id":"cpo36qri1sfpv3e86is0","pricing_plan_id":"cebpf4jnsgd1na2vs0mg"},{"bike_id":"524af406-001f-484d-b7db-e1b08e15e137","system_id":"levelo_inurba_marseille","lat":43.28434,"lon":5.34989,"is_reserved":false,"is_disabled":false,"rental_uris":{"android":"levelo://app?vid=524af406-001f-484d-b7db-e1b08e15e137","ios":"levelo://app?vid=524af406-001f-484d-b7db-e1b08e15e137"},"vehicle_type_id":"4","last_reported":1784837406,"current_range_meters":11600,"station_id":"ce4bhbh2rcd13ifvqepg","pricing_plan_id":"cebpf4jnsgd1na2vs0mg"},{"bike_id":"a438d2ee-26e7-46fa-94f6-0a8dfa65661c","system_id":"levelo_inurba_marseille","lat":43.26496,"lon":5.3952,"is_reserved":false,"is_disabled":false,"rental_uris":{"android":"levelo://app?vid=a438d2ee-26e7-46fa-94f6-0a8dfa65661c","ios":"levelo://app?vid=a438d2ee-26e7-46fa-94f6-0a8dfa65661c"},"vehicle_type_id":"4","last_reported":1784837406,"current_range_meters":22000,"station_id":"ce4bhi12rcd13ifvqfq0","pricing_plan_id":"cebpf4jnsgd1na2vs0mg"},{"bike_id":"c59d0aff-69b3-45af-a81e-861a60187067","system_id":"levelo_inurba_marseille","lat":43.28405,"lon":5.37509,"is_reserved":false,"is_disabled":false,"rental_uris":{"android":"levelo://app?vid=c59d0aff-69b3-45af-a81e-861a60187067","ios":"levelo://app?vid=c59d0aff-69b3-45af-a81e-861a60187067"},"vehicle_type_id":"4","last_reported":1784837406,"current_range_meters":20400,"station_id":"ce4bh412rcd13ifvqds0","pricing_plan_id":"cebpf4jnsgd1na2vs0mg"},{"bike_id":"c037fd15-1fb4-4aa0-a4c6-442b2b874fab","system_id":"levelo_inurba_marseille","lat":43.29046,"lon":5.39932,"is_reserved":false,"is_disabled":true,"rental_uris":{"android":"levelo://app?vid=c037fd15-1fb4-4aa0-a4c6-442b2b874fab","ios":"levelo://app?vid=c037fd15-1fb4-4aa0-a4c6-442b2b874fab"},"vehicle_type_id":"4","last_reported":1784837406,"current_range_meters":24800,"station_id":"ce4bh392rcd13ifvqdm0","pricing_plan_id":"cebpf4jnsgd1na2vs0mg"},{"bike_id":"965b6bd4-eb48-41e3-b3e8-0bcdc52f3759","system_id":"levelo_inurba_marseille","lat":43.28921,"lon":5.38395,"is_reserved":false,"is_disabled":true,"rental_uris":{"android":"levelo://app?vid=965b6bd4-eb48-41e3-b3e8-0bcdc52f3759","ios":"levelo://app?vid=965b6bd4-eb48-41e3-b3e8-0bcdc52f3759"},"vehicle_type_id":"4","last_reported":1784837406,"current_range_meters":35600,"station_id":"ce4bh612rcd13ifvqe6g","pricing_plan_id":"cebpf4jnsgd1na2vs0mg"},{"bike_id":"bbe718e6-fa16-44e8-87a1-2141703d3341","system_id":"levelo_inurba_marseille","lat":43.28169,"lon":5.42339,"is_reserved":false,"is_disabled":false,"rental_uris":{"android":"levelo://app?vid=bbe718e6-fa16-44e8-87a1-2141703d3341","ios":"levelo://app?vid=bbe718e6-fa16-44e8-87a1-2141703d3341"},"vehicle_type_id":"4","last_reported":1784837406,"current_range_meters":11600,"station_id":"","pricing_plan_id":"cebpf4jnsgd1na2vs0mg"},{"bike_id":"6093caa0-2ff7-447f-be0b-f088f46341ef","system_id":"levelo_inurba_marseille","lat":43.29714,"lon":5.36627,"is_reserved":false,"is_disabled":false,"rental_uris":{"android":"levelo://app?vid=6093caa0-2ff7-447f-be0b-f088f46341ef","ios":"levelo://app?vid=6093caa0-2ff7-447f-be0b-f088f46341ef"},"vehicle_type_id":"4","last_reported":1784837406,"current_range_meters":40000,"station_id":"ce4bgn12rcd13ifvqbt0","pricing_plan_id":"cebpf4jnsgd1na2vs0mg"},{"bike_id":"be281d0c-4747-4107-85f5-ef79ebe32d35","system_id":"levelo_inurba_marseille","lat":43.24811,"lon":5.3747,"is_reserved":false,"is_disabled":false,"rental_uris":{"android":"levelo://app?vid=be281d0c-4747-4107-85f5-ef79ebe32d35","ios":"levelo://app?vid=be281d0c-4747-4107-85f5-ef79ebe32d35"},"vehicle_type_id":"4","last_reported":1784837406,"current_range_meters":39200,"station_id":"ce4bhgh2rcd13ifvqfb0","pricing_plan_id":"cebpf4jnsgd1na2vs0mg"},{"bike_id":"a74338b6-ab76-4397-a44a-5b86a8bc675d","system_id":"levelo_inurba_marseille","lat":43.27207,"lon":5.41008,"is_reserved":false,"is_disabled":false,"rental_uris":{"android":"levelo://app?vid=a74338b6-ab76-4397-a44a-5b86a8bc675d","ios":"levelo://app?vid=a74338b6-ab76-4397-a44a-5b86a8bc675d"},"vehicle_type_id":"4","last_reported":1784837406,"current_range_meters":39200,"station_id":"ce4bhl12rcd13ifvqgf0","pricing_plan_id":"cebpf4jnsgd1na2vs0mg"},{"bike_id":"0d742ef8-7ec8-4fca-8f4c-3cef57b81885","system_id":"levelo_inurba_marseille","lat":43.29695,"lon":5.36605,"is_reserved":false,"is_disabled":false,"rental_uris":{"android":"levelo://app?vid=0d742ef8-7ec8-4fca-8f4c-3cef57b81885","ios":"levelo://app?vid=0d742ef8-7ec8-4fca-8f4c-3cef57b81885"},"vehicle_type_id":"4","last_reported":1784837406,"current_range_meters":26000,"station_id":"ce4bgn12rcd13ifvqbt0","pricing_plan_id":"cebpf4jnsgd1na2vs0mg"},{"bike_id":"bd2ae7cd-8659-4fcd-ab4d-6e382a5d87ea","system_id":"levelo_inurba_marseille","lat":43.29284,"lon":5.37461,"is_reserved":false,"is_disabled":false,"rental_uris":{"android":"levelo://app?vid=bd2ae7cd-8659-4fcd-ab4d-6e382a5d87ea","ios":"levelo://app?vid=bd2ae7cd-8659-4fcd-ab4d-6e382a5d87ea"},"vehicle_type_id":"4","last_reported":1784837406,"current_range_meters":39200,"station_id":"ce4bgi12rcd13ifvqb70","pricing_plan_id":"cebpf4jnsgd1na2vs0mg"},{"bike_id":"db87b25b-cd08-4ed7-8d40-64cce0e89f6a","system_id":"levelo_inurba_marseille","lat":43.2751,"lon":5.41596,"is_reserved":false,"is_disabled":false,"rental_uris":{"android":"levelo://app?vid=db87b25b-cd08-4ed7-8d40-64cce0e89f6a","ios":"levelo://app?vid=db87b25b-cd08-4ed7-8d40-64cce0e89f6a"},"vehicle_type_id":"4","last_reported":1784837406,"current_range_meters":39200,"station_id":"st_d6im8g6chgec73a5pndg","pricing_plan_id":"cebpf4jnsgd1na2vs0mg"},{"bike_id":"f1288106-a8c3-4624-ad2a-44299213b3e2","system_id":"levelo_inurba_marseille","lat":43.29565,"lon":5.36762,"is_reserved":false,"is_disabled":true,"rental_uris":{"android":"levelo://app?vid=f1288106-a8c3-4624-ad2a-44299213b3e2","ios":"levelo://app?vid=f1288106-a8c3-4624-ad2a-44299213b3e2"},"vehicle_type_id":"4","last_reported":1784837406,"current_range_meters":38400,"station_id":"","pricing_plan_id":"cebpf4jnsgd1na2vs0mg"},{"bike_id":"ab907c16-2123-44c2-912f-95e0f2737c03","system_id":"levelo_inurba_marseille","lat":43.30407,"lon":5.42749,"is_reserved":false,"is_disabled":true,"rental_uris":{"android":"levelo://app?vid=ab907c16-2123-44c2-912f-95e0f2737c03","ios":"levelo://app?vid=ab907c16-2123-44c2-912f-95e0f2737c03"},"vehicle_type_id":"4","last_reported":1784837406,"current_range_meters":19200,"station_id":"","pricing_plan_id":"cebpf4jnsgd1na2vs0mg"},{"bike_id":"0f27047d-3cee-486f-bbfd-4e43b3a3a5db","system_id":"levelo_inurba_marseille","lat":43.32108,"lon":5.36774,"is_reserved":false,"is_disabled":false,"rental_uris":{"android":"levelo://app?vid=0f27047d-3cee-486f-bbfd-4e43b3a3a5db","ios":"levelo://app?vid=0f27047d-3cee-486f-bbfd-4e43b3a3a5db"},"vehicle_type_id":"4","last_reported":1784837406,"current_range_meters":29600,"station_id":"ce4bhrh2rcd13ifvqhug","pricing_plan_id":"cebpf4jnsgd1na2vs0mg"},{"bike_id":"f0d801fc-9dee-4f8c-80e7-d4dbb0023ff2","system_id":"levelo_inurba_marseille","lat":43.29027,"lon":5.38664,"is_reserved":false,"is_disabled":false,"rental_uris":{"android":"levelo://app?vid=f0d801fc-9dee-4f8c-80e7-d4dbb0023ff2","ios":"levelo://app?vid=f0d801fc-9dee-4f8c-80e7-d4dbb0023ff2"},"vehicle_type_id":"4","last_reported":1784837406,"current_range_meters":25600,"station_id":"ce4bh4p2rcd13ifvqe0g","pricing_plan_id":"cebpf4jnsgd1na2vs0mg"},{"bike_id":"eea7360f-df93-451b-a39b-296a70f49fd5","system_id":"levelo_inurba_marseille","lat":43.28426,"lon":5.34947,"is_reserved":false,"is_disabled":false,"rental_uris":{"android":"levelo://app?vid=eea7360f-df93-451b-a39b-296a70f49fd5","ios":"levelo://app?vid=eea7360f-df93-451b-a39b-296a70f49fd5"},"vehicle_type_id":"4","last_reported":1784837406,"current_range_meters":34800,"station_id":"ce4bhbh2rcd13ifvqepg","pricing_plan_id":"cebpf4jnsgd1na2vs0mg"},{"bike_id":"c520161e-c250-4161-a55a-6b287776d8da","system_id":"levelo_inurba_marseille","lat":43.28467,"lon":5.484,"is_reserved":false,"is_disabled":false,"rental_uris":{"android":"levelo://app?vid=c520161e-c250-4161-a55a-6b287776d8da","ios":"levelo://app?vid=c520161e-c250-4161-a55a-6b287776d8da"},"vehicle_type_id":"4","last_reported":1784837406,"current_range_meters":24400,"station_id":"st_d3svhcjqgbts73a3dn0g","pricing_plan_id":"cebpf4jnsgd1na2vs0mg"},{"bike_id":"1be16c68-4af1-419d-93d4-773b2af07f2a","system_id":"levelo_inurba_marseille","lat":43.28536,"lon":5.44105,"is_reserved":false,"is_disabled":false,"rental_uris":{"android":"levelo://app?vid=1be16c68-4af1-419d-93d4-773b2af07f2a","ios":"levelo://app?vid=1be16c68-4af1-419d-93d4-773b2af07f2a"},"vehicle_type_id":"4","last_reported":1784837406,"current_range_meters":40000,"station_id":"st_d3j3df2ikq2c7380ej80","pricing_plan_id":"cebpf4jnsgd1na2vs0mg"},{"bike_id":"3906feb7-fea4-45f9-92c5-5b6a7e24ba0a","system_id":"levelo_inurba_marseille","lat":43.28951,"lon":5.39632,"is_reserved":false,"is_disabled":false,"rental_uris":{"android":"levelo://app?vid=3906feb7-fea4-45f9-92c5-5b6a7e24ba0a","ios":"levelo://app?vid=3906feb7-fea4-45f9-92c5-5b6a7e24ba0a"},"vehicle_type_id":"4","last_reported":1784837406,"current_range_meters":25600,"station_id":"ce4bh3h2rcd13ifvqdn0","pricing_plan_id":"cebpf4jnsgd1na2vs0mg"},{"bike_id":"dfe9c336-e662-4c4f-b0e2-3694ed8cf4c1","system_id":"levelo_inurba_marseille","lat":43.315,"lon":5.37305,"is_reserved":false,"is_disabled":false,"rental_uris":{"android":"levelo://app?vid=dfe9c336-e662-4c4f-b0e2-3694ed8cf4c1","ios":"levelo://app?vid=dfe9c336-e662-4c4f-b0e2-3694ed8cf4c1"},"vehicle_type_id":"4","last_reported":1784837406,"current_range_meters":38000,"station_id":"ce4bgt12rcd13ifvqcd0","pricing_plan_id":"cebpf4jnsgd1na2vs0mg"},{"bike_id":"c4599c29-f86a-45dc-be51-4124fda90118","system_id":"levelo_inurba_marseille","lat":43.23156,"lon":5.43734,"is_reserved":false,"is_disabled":true,"rental_uris":{"android":"levelo://app?vid=c4599c29-f86a-45dc-be51-4124fda90118","ios":"levelo://app?vid=c4599c29-f86a-45dc-be51-4124fda90118"},"vehicle_type_id":"4","last_reported":1784837406,"current_range_meters":0,"station_id":"ce4bhmp2rcd13ifvqgog","pricing_plan_id":"cebpf4jnsgd1na2vs0mg"},{"bike_id":"afe1d1d4-2588-480f-a268-29a2f866acac","system_id":"levelo_inurba_marseille","lat":43.29615,"lon":5.37172,"is_reserved":false,"is_disabled":false,"rental_uris":{"android":"levelo://app?vid=afe1d1d4-2588-480f-a268-29a2f866acac","ios":"levelo://app?vid=afe1d1d4-2588-480f-a268-29a2f866acac"},"vehicle_type_id":"4","last_reported":1784837406,"current_range_meters":37600,"station_id":"ce4bgnh2rcd13ifvqc0g","pricing_plan_id":"cebpf4jnsgd1na2vs0mg"},{"bike_id":"9868531c-e174-4db8-b9d9-13a834ba893d","system_id":"levelo_inurba_marseille","lat":43.231313,"lon":5.437115,"is_reserved":false,"is_disabled":false,"rental_uris":{"android":"levelo://app?vid=9868531c-e174-4db8-b9d9-13a834ba893d","ios":"levelo://app?vid=9868531c-e174-4db8-b9d9-13a834ba893d"},"vehicle_type_id":"4","last_reported":1784837406,"current_range_meters":16400,"station_id":"ce4bhmp2rcd13ifvqgog","pricing_plan_id":"cebpf4jnsgd1na2vs0mg"},{"bike_id":"9087f2a4-16e4-48bf-9e1b-72921c479e7a","system_id":"levelo_inurba_marseille","lat":43.28419,"lon":5.34979,"is_reserved":false,"is_disabled":false,"rental_uris":{"android":"levelo://app?vid=9087f2a4-16e4-48bf-9e1b-72921c479e7a","ios":"levelo://app?vid=9087f2a4-16e4-48bf-9e1b-72921c479e7a"},"vehicle_type_id":"4","last_reported":1784837406,"current_range_meters":9200,"station_id":"ce4bhbh2rcd13ifvqepg","pricing_plan_id":"cebpf4jnsgd1na2vs0mg"},{"bike_id":"1060b8d8-eba1-4431-89df-df8ff4ab0488","system_id":"levelo_inurba_marseille","lat":43.27364,"lon":5.36258,"is_reserved":false,"is_disabled":false,"rental_uris":{"android":"levelo://app?vid=1060b8d8-eba1-4431-89df-df8ff4ab0488","ios":"levelo://app?vid=1060b8d8-eba1-4431-89df-df8ff4ab0488"},"vehicle_type_id":"4","last_reported":1784837406,"current_range_meters":9600,"station_id":"ce4bhbh2rcd13ifvqeo0","pricing_plan_id":"cebpf4jnsgd1na2vs0mg"},{"bike_id":"9ed82dcc-8694-4b66-8dd5-59f67c95e1d7","system_id":"levelo_inurba_marseille","lat":43.27614,"lon":5.36118,"is_reserved":false,"is_disabled":false,"rental_uris":{"android":"levelo://app?vid=9ed82dcc-8694-4b66-8dd5-59f67c95e1d7","ios":"levelo://app?vid=9ed82dcc-8694-4b66-8dd5-59f67c95e1d7"},"vehicle_type_id":"4","last_reported":1784837406,"current_range_meters":34000,"station_id":"ce4bgj92rcd13ifvqbe0","pricing_plan_id":"cebpf4jnsgd1na2vs0mg"},{"bike_id":"c31ea38b-cee9-41a1-93fb-85dd217b0cbd","system_id":"levelo_inurba_marseille","lat":43.33736,"lon":5.36721,"is_reserved":false,"is_disabled":false,"rental_uris":{"android":"levelo://app?vid=c31ea38b-cee9-41a1-93fb-85dd217b0cbd","ios":"levelo://app?vid=c31ea38b-cee9-41a1-93fb-85dd217b0cbd"},"vehicle_type_id":"4","last_reported":1784837406,"current_range_meters":28000,"station_id":"","pricing_plan_id":"cebpf4jnsgd1na2vs0mg"},{"bike_id":"39d05711-7aec-413f-99ef-dda0cdbc80cc","system_id":"levelo_inurba_marseille","lat":43.29842,"lon":5.36265,"is_reserved":false,"is_disabled":false,"rental_uris":{"android":"levelo://app?vid=39d05711-7aec-413f-99ef-dda0cdbc80cc","ios":"levelo://app?vid=39d05711-7aec-413f-99ef-dda0cdbc80cc"},"vehicle_type_id":"4","last_reported":1784837406,"current_range_meters":17200,"station_id":"ce4bgpp2rcd13ifvqc3g","pricing_plan_id":"cebpf4jnsgd1na2vs0mg"},{"bike_id":"0353fca3-fbdd-4286-a9eb-ebce376c25fa","system_id":"levelo_inurba_marseille","lat":43.23384,"lon":5.41231,"is_reserved":false,"is_disabled":false,"rental_uris":{"android":"levelo://app?vid=0353fca3-fbdd-4286-a9eb-ebce376c25fa","ios":"levelo://app?vid=0353fca3-fbdd-4286-a9eb-ebce376c25fa"},"vehicle_type_id":"4","last_reported":1784837406,"current_range_meters":39200,"station_id":"st_d75pvndhf9lc73cqq3eg","pricing_plan_id":"cebpf4jnsgd1na2vs0mg"},{"bike_id":"b8e43a89-3bb1-4279-9cee-f7b093c9b703","system_id":"levelo_inurba_marseille","lat":43.33718,"lon":5.37415,"is_reserved":false,"is_disabled":false,"rental_uris":{"android":"levelo://app?vid=b8e43a89-3bb1-4279-9cee-f7b093c9b703","ios":"levelo://app?vid=b8e43a89-3bb1-4279-9cee-f7b093c9b703"},"vehicle_type_id":"4","last_reported":1784837406,"current_range_meters":8800,"station_id":"","pricing_plan_id":"cebpf4jnsgd1na2vs0mg"},{"bike_id":"d0e3d421-3232-4fe6-8914-f2fab6f9cce9","system_id":"levelo_inurba_marseille","lat":43.3104,"lon":5.38487,"is_reserved":false,"is_disabled":false,"rental_uris":{"android":"levelo://app?vid=d0e3d421-3232-4fe6-8914-f2fab6f9cce9","ios":"levelo://app?vid=d0e3d421-3232-4fe6-8914-f2fab6f9cce9"},"vehicle_type_id":"4","last_reported":1784837406,"current_range_meters":39200,"station_id":"","pricing_plan_id":"cebpf4jnsgd1na2vs0mg"},{"bike_id":"af8f5110-0dea-4414-b384-8e116760f0fd","system_id":"levelo_inurba_marseille","lat":43.23198,"lon":5.39962,"is_reserved":false,"is_disabled":false,"rental_uris":{"android":"levelo://app?vid=af8f5110-0dea-4414-b384-8e116760f0fd","ios":"levelo://app?vid=af8f5110-0dea-4414-b384-8e116760f0fd"},"vehicle_type_id":"4","last_reported":1784837406,"current_range_meters":9200,"station_id":"ce4bhn12rcd13ifvqgqg","pricing_plan_id":"cebpf4jnsgd1na2vs0mg"},{"bike_id":"31c275e7-8c99-45a0-b66e-3ad60ce6645a","system_id":"levelo_inurba_marseille","lat":43.263142,"lon":5.378281,"is_reserved":false,"is_disabled":false,"rental_uris":{"android":"levelo://app?vid=31c275e7-8c99-45a0-b66e-3ad60ce6645a","ios":"levelo://app?vid=31c275e7-8c99-45a0-b66e-3ad60ce6645a"},"vehicle_type_id":"4","last_reported":1784837406,"current_range_meters":39200,"station_id":"","pricing_plan_id":"cebpf4jnsgd1na2vs0mg"},{"bike_id":"45d1a51f-5eff-4763-8b7c-1c817383ed0f","system_id":"levelo_inurba_marseille","lat":43.3108,"lon":5.42425,"is_reserved":false,"is_disabled":true,"rental_uris":{"android":"levelo://app?vid=45d1a51f-5eff-4763-8b7c-1c817383ed0f","ios":"levelo://app?vid=45d1a51f-5eff-4763-8b7c-1c817383ed0f"},"vehicle_type_id":"4","last_reported":1784837406,"current_range_meters":16800,"station_id":"ce4bhp92rcd13ifvqhag","pricing_plan_id":"cebpf4jnsgd1na2vs0mg"},{"bike_id":"ccef39f5-44a7-42ca-9605-7e62c9bb0005","system_id":"levelo_inurba_marseille","lat":43.28403,"lon":5.35002,"is_reserved":false,"is_disabled":false,"rental_uris":{"android":"levelo://app?vid=ccef39f5-44a7-42ca-9605-7e62c9bb0005","ios":"levelo://app?vid=ccef39f5-44a7-42ca-9605-7e62c9bb0005"},"vehicle_type_id":"4","last_reported":1784837406,"current_range_meters":24400,"station_id":"ce4bhbh2rcd13ifvqepg","pricing_plan_id":"cebpf4jnsgd1na2vs0mg"},{"bike_id":"6772e332-26aa-4530-86da-d14c0f48009d","system_id":"levelo_inurba_marseille","lat":43.24057,"lon":5.37762,"is_reserved":false,"is_disabled":false,"rental_uris":{"android":"levelo://app?vid=6772e332-26aa-4530-86da-d14c0f48009d","ios":"levelo://app?vid=6772e332-26aa-4530-86da-d14c0f48009d"},"vehicle_type_id":"4","last_reported":1784837406,"current_range_meters":37600,"station_id":"ce4bhnp2rcd13ifvqgvg","pricing_plan_id":"cebpf4jnsgd1na2vs0mg"},{"bike_id":"c36224d6-5971-4a21-8df2-2c749759fe14","system_id":"levelo_inurba_marseille","lat":43.27995,"lon":5.40009,"is_reserved":false,"is_disabled":false,"rental_uris":{"android":"levelo://app?vid=c36224d6-5971-4a21-8df2-2c749759fe14","ios":"levelo://app?vid=c36224d6-5971-4a21-8df2-2c749759fe14"},"vehicle_type_id":"4","last_reported":1784837406,"current_range_meters":3600,"station_id":"ce4bho92rcd13ifvqh4g","pricing_plan_id":"cebpf4jnsgd1na2vs0mg"},{"bike_id":"13bbfe3b-874b-44d7-9abb-922c8de23c11","system_id":"levelo_inurba_marseille","lat":43.23256,"lon":5.35391,"is_reserved":false,"is_disabled":false,"rental_uris":{"android":"levelo://app?vid=13bbfe3b-874b-44d7-9abb-922c8de23c11","ios":"levelo://app?vid=13bbfe3b-874b-44d7-9abb-922c8de23c11"},"vehicle_type_id":"4","last_reported":1784837406,"current_range_meters":17600,"station_id":"","pricing_plan_id":"cebpf4jnsgd1na2vs0mg"},{"bike_id":"d424920a-31dc-4f0b-81e7-1697ca51f46a","system_id":"levelo_inurba_marseille","lat":43.2984,"lon":5.36275,"is_reserved":false,"is_disabled":false,"rental_uris":{"android":"levelo://app?vid=d424920a-31dc-4f0b-81e7-1697ca51f46a","ios":"levelo://app?vid=d424920a-31dc-4f0b-81e7-1697ca51f46a"},"vehicle_type_id":"4","last_reported":1784837406,"current_range_meters":28400,"station_id":"ce4bgpp2rcd13ifvqc3g","pricing_plan_id":"cebpf4jnsgd1na2vs0mg"},{"bike_id":"b59d98ed-d4c3-4747-9d3f-c373d9a5b99a","system_id":"levelo_inurba_marseille","lat":43.29238,"lon":5.38478,"is_reserved":false,"is_disabled":false,"rental_uris":{"android":"levelo://app?vid=b59d98ed-d4c3-4747-9d3f-c373d9a5b99a","ios":"levelo://app?vid=b59d98ed-d4c3-4747-9d3f-c373d9a5b99a"},"vehicle_type_id":"4","last_reported":1784837406,"current_range_meters":37600,"station_id":"","pricing_plan_id":"cebpf4jnsgd1na2vs0mg"},{"bike_id":"6ed5f8c3-6da8-4cec-bfad-13253a432d70","system_id":"levelo_inurba_marseille","lat":43.29408,"lon":5.38619,"is_reserved":false,"is_disabled":true,"rental_uris":{"android":"levelo://app?vid=6ed5f8c3-6da8-4cec-bfad-13253a432d70","ios":"levelo://app?vid=6ed5f8c3-6da8-4cec-bfad-13253a432d70"},"vehicle_type_id":"4","last_reported":1784837406,"current_range_meters":28400,"station_id":"","pricing_plan_id":"cebpf4jnsgd1na2vs0mg"},{"bike_id":"0dee0085-d5a5-4c48-b3f1-a323bb744f3d","system_id":"levelo_inurba_marseille","lat":43.22557,"lon":5.41636,"is_reserved":false,"is_disabled":false,"rental_uris":{"android":"levelo://app?vid=0dee0085-d5a5-4c48-b3f1-a323bb744f3d","ios":"levelo://app?vid=0dee0085-d5a5-4c48-b3f1-a323bb744f3d"},"vehicle_type_id":"4","last_reported":1784837406,"current_range_meters":27200,"station_id":"st_d2o4gvlbi1j2169b742g","pricing_plan_id":"cebpf4jnsgd1na2vs0mg"},{"bike_id":"7084cd77-62bf-4053-bb93-7768d587ff7d","system_id":"levelo_inurba_marseille","lat":43.29312,"lon":5.37172,"is_reserved":false,"is_disabled":false,"rental_uris":{"android":"levelo://app?vid=7084cd77-62bf-4053-bb93-7768d587ff7d","ios":"levelo://app?vid=7084cd77-62bf-4053-bb93-7768d587ff7d"},"vehicle_type_id":"4","last_reported":1784837406,"current_range_meters":3600,"station_id":"ce4bgh92rcd13ifvqb40","pricing_plan_id":"cebpf4jnsgd1na2vs0mg"},{"bike_id":"0b2c45f2-fdaa-45fe-9511-e6426cab85f6","system_id":"levelo_inurba_marseille","lat":43.27487,"lon":5.4245,"is_reserved":false,"is_disabled":false,"rental_uris":{"android":"levelo://app?vid=0b2c45f2-fdaa-45fe-9511-e6426cab85f6","ios":"levelo://app?vid=0b2c45f2-fdaa-45fe-9511-e6426cab85f6"},"vehicle_type_id":"4","last_reported":1784837406,"current_range_meters":14800,"station_id":"ce4bhn92rcd13ifvqgrg","pricing_plan_id":"cebpf4jnsgd1na2vs0mg"},{"bike_id":"30c6e6dc-5b58-466d-a422-7befd4c892f6","system_id":"levelo_inurba_marseille","lat":43.28469,"lon":5.38429,"is_reserved":false,"is_disabled":false,"rental_uris":{"android":"levelo://app?vid=30c6e6dc-5b58-466d-a422-7befd4c892f6","ios":"levelo://app?vid=30c6e6dc-5b58-466d-a422-7befd4c892f6"},"vehicle_type_id":"4","last_reported":1784837406,"current_range_meters":27200,"station_id":"ce4bh512rcd13ifvqe3g","pricing_plan_id":"cebpf4jnsgd1na2vs0mg"},{"bike_id":"d5519981-ec73-4b1d-95f3-8a790eb5df05","system_id":"levelo_inurba_marseille","lat":43.24816,"lon":5.3746,"is_reserved":false,"is_disabled":false,"rental_uris":{"android":"levelo://app?vid=d5519981-ec73-4b1d-95f3-8a790eb5df05","ios":"levelo://app?vid=d5519981-ec73-4b1d-95f3-8a790eb5df05"},"vehicle_type_id":"4","last_reported":1784837406,"current_range_meters":38000,"station_id":"ce4bhgh2rcd13ifvqfb0","pricing_plan_id":"cebpf4jnsgd1na2vs0mg"},{"bike_id":"dad5eff3-cb3a-4459-ba39-741abe4a6c6c","system_id":"levelo_inurba_marseille","lat":43.32103,"lon":5.36779,"is_reserved":false,"is_disabled":false,"rental_uris":{"android":"levelo://app?vid=dad5eff3-cb3a-4459-ba39-741abe4a6c6c","ios":"levelo://app?vid=dad5eff3-cb3a-4459-ba39-741abe4a6c6c"},"vehicle_type_id":"4","last_reported":1784837406,"current_range_meters":38400,"station_id":"ce4bhrh2rcd13ifvqhug","pricing_plan_id":"cebpf4jnsgd1na2vs0mg"},{"bike_id":"c70b7c20-ffd4-4776-a204-382536cca9d0","system_id":"levelo_inurba_marseille","lat":43.28043,"lon":5.36954,"is_reserved":false,"is_disabled":false,"rental_uris":{"android":"levelo://app?vid=c70b7c20-ffd4-4776-a204-382536cca9d0","ios":"levelo://app?vid=c70b7c20-ffd4-4776-a204-382536cca9d0"},"vehicle_type_id":"4","last_reported":1784837406,"current_range_meters":35200,"station_id":"ce4bha12rcd13ifvqef0","pricing_plan_id":"cebpf4jnsgd1na2vs0mg"},{"bike_id":"d2a5ef63-aa37-4252-8b6a-a183d1e113ce","system_id":"levelo_inurba_marseille","lat":43.27622,"lon":5.36101,"is_reserved":false,"is_disabled":false,"rental_uris":{"android":"levelo://app?vid=d2a5ef63-aa37-4252-8b6a-a183d1e113ce","ios":"levelo://app?vid=d2a5ef63-aa37-4252-8b6a-a183d1e113ce"},"vehicle_type_id":"4","last_reported":1784837406,"current_range_meters":38000,"station_id":"ce4bgj92rcd13ifvqbe0","pricing_plan_id":"cebpf4jnsgd1na2vs0mg"},{"bike_id":"2acd2ae5-3829-4d5e-b56f-1bb617133f9d","system_id":"levelo_inurba_marseille","lat":43.23198,"lon":5.35558,"is_reserved":false,"is_disabled":false,"rental_uris":{"android":"levelo://app?vid=2acd2ae5-3829-4d5e-b56f-1bb617133f9d","ios":"levelo://app?vid=2acd2ae5-3829-4d5e-b56f-1bb617133f9d"},"vehicle_type_id":"4","last_reported":1784837406,"current_range_meters":28000,"station_id":"ce4bhu92rcd13ifvqi70","pricing_plan_id":"cebpf4jnsgd1na2vs0mg"},{"bike_id":"e9963229-6f79-4069-a94d-d3024b874db2","system_id":"levelo_inurba_marseille","lat":43.251,"lon":5.39478,"is_reserved":false,"is_disabled":false,"rental_uris":{"android":"levelo://app?vid=e9963229-6f79-4069-a94d-d3024b874db2","ios":"levelo://app?vid=e9963229-6f79-4069-a94d-d3024b874db2"},"vehicle_type_id":"4","last_reported":1784837406,"current_range_meters":3200,"station_id":"ce4bhm12rcd13ifvqgkg","pricing_plan_id":"cebpf4jnsgd1na2vs0mg"},{"bike_id":"3860c86d-35d7-4b5e-a839-608b7372a84f","system_id":"levelo_inurba_marseille","lat":43.275,"lon":5.42463,"is_reserved":false,"is_disabled":false,"rental_uris":{"android":"levelo://app?vid=3860c86d-35d7-4b5e-a839-608b7372a84f","ios":"levelo://app?vid=3860c86d-35d7-4b5e-a839-608b7372a84f"},"vehicle_type_id":"4","last_reported":1784837406,"current_range_meters":36000,"station_id":"ce4bhn92rcd13ifvqgrg","pricing_plan_id":"cebpf4jnsgd1na2vs0mg"},{"bike_id":"acab711e-c9ee-406e-ad07-cc8b5c967682","system_id":"levelo_inurba_marseille","lat":43.299828,"lon":5.371924,"is_reserved":false,"is_disabled":false,"rental_uris":{"android":"levelo://app?vid=acab711e-c9ee-406e-ad07-cc8b5c967682","ios":"levelo://app?vid=acab711e-c9ee-406e-ad07-cc8b5c967682"},"vehicle_type_id":"4","last_reported":1784837406,"current_range_meters":30400,"station_id":"ce4bh4p2rcd13ifvqe1g","pricing_plan_id":"cebpf4jnsgd1na2vs0mg"},{"bike_id":"bb6c1d94-b8a1-4d7e-8e26-2628675f7e1d","system_id":"levelo_inurba_marseille","lat":43.29612,"lon":5.3769,"is_reserved":false,"is_disabled":false,"rental_uris":{"android":"levelo://app?vid=bb6c1d94-b8a1-4d7e-8e26-2628675f7e1d","ios":"levelo://app?vid=bb6c1d94-b8a1-4d7e-8e26-2628675f7e1d"},"vehicle_type_id":"4","last_reported":1784837406,"current_range_meters":16400,"station_id":"ce4bgi92rcd13ifvqb90","pricing_plan_id":"cebpf4jnsgd1na2vs0mg"},{"bike_id":"41ae75d9-38e8-4852-854b-12fcad44a700","system_id":"levelo_inurba_marseille","lat":43.29257,"lon":5.38434,"is_reserved":false,"is_disabled":false,"rental_uris":{"android":"levelo://app?vid=41ae75d9-38e8-4852-854b-12fcad44a700","ios":"levelo://app?vid=41ae75d9-38e8-4852-854b-12fcad44a700"},"vehicle_type_id":"4","last_reported":1784837406,"current_range_meters":2800,"station_id":"ce4bh692rcd13ifvqea0","pricing_plan_id":"cebpf4jnsgd1na2vs0mg"},{"bike_id":"0e9b0cff-0052-49cb-95a6-a28acd2c4d00","system_id":"levelo_inurba_marseille","lat":43.28621,"lon":5.35116,"is_reserved":false,"is_disabled":false,"rental_uris":{"android":"levelo://app?vid=0e9b0cff-0052-49cb-95a6-a28acd2c4d00","ios":"levelo://app?vid=0e9b0cff-0052-49cb-95a6-a28acd2c4d00"},"vehicle_type_id":"4","last_reported":1784837406,"current_range_meters":17200,"station_id":"ce4bhch2rcd13ifvqeug","pricing_plan_id":"cebpf4jnsgd1na2vs0mg"},{"bike_id":"1fade11d-8e73-4748-8586-d9741ca55ced","system_id":"levelo_inurba_marseille","lat":43.317152,"lon":5.437034,"is_reserved":false,"is_disabled":false,"rental_uris":{"android":"levelo://app?vid=1fade11d-8e73-4748-8586-d9741ca55ced","ios":"levelo://app?vid=1fade11d-8e73-4748-8586-d9741ca55ced"},"vehicle_type_id":"4","last_reported":1784837406,"current_range_meters":25600,"station_id":"ce4bhp92rcd13ifvqhcg","pricing_plan_id":"cebpf4jnsgd1na2vs0mg"},{"bike_id":"903419bb-a703-46b0-a6ae-a0452537c994","system_id":"levelo_inurba_marseille","lat":43.23182,"lon":5.39989,"is_reserved":false,"is_disabled":false,"rental_uris":{"android":"levelo://app?vid=903419bb-a703-46b0-a6ae-a0452537c994","ios":"levelo://app?vid=903419bb-a703-46b0-a6ae-a0452537c994"},"vehicle_type_id":"4","last_reported":1784837406,"current_range_meters":8800,"station_id":"ce4bhn12rcd13ifvqgqg","pricing_plan_id":"cebpf4jnsgd1na2vs0mg"},{"bike_id":"8f26b666-a16d-4c97-9033-7b300b316545","system_id":"levelo_inurba_marseille","lat":43.28621,"lon":5.35111,"is_reserved":false,"is_disabled":false,"rental_uris":{"android":"levelo://app?vid=8f26b666-a16d-4c97-9033-7b300b316545","ios":"levelo://app?vid=8f26b666-a16d-4c97-9033-7b300b316545"},"vehicle_type_id":"4","last_reported":1784837406,"current_range_meters":39200,"station_id":"ce4bhch2rcd13ifvqeug","pricing_plan_id":"cebpf4jnsgd1na2vs0mg"},{"bike_id":"2b5becdf-f8e2-49e5-a55c-775afd13da26","system_id":"levelo_inurba_marseille","lat":43.21184,"lon":5.35068,"is_reserved":false,"is_disabled":false,"rental_uris":{"android":"levelo://app?vid=2b5becdf-f8e2-49e5-a55c-775afd13da26","ios":"levelo://app?vid=2b5becdf-f8e2-49e5-a55c-775afd13da26"},"vehicle_type_id":"4","last_reported":1784837406,"current_range_meters":6000,"station_id":"st_cvj6sg6p6f1abm77japg","pricing_plan_id":"cebpf4jnsgd1na2vs0mg"},{"bike_id":"4c7bd38f-32c2-4efa-a7e9-60232f064785","system_id":"levelo_inurba_marseille","lat":43.28602,"lon":5.35104,"is_reserved":false,"is_disabled":false,"rental_uris":{"android":"levelo://app?vid=4c7bd38f-32c2-4efa-a7e9-60232f064785","ios":"levelo://app?vid=4c7bd38f-32c2-4efa-a7e9-60232f064785"},"vehicle_type_id":"4","last_reported":1784837406,"current_range_meters":4400,"station_id":"ce4bhch2rcd13ifvqeug","pricing_plan_id":"cebpf4jnsgd1na2vs0mg"},{"bike_id":"f58bd8c4-297f-47e9-9bc8-c646299680b6","system_id":"levelo_inurba_marseille","lat":43.298513,"lon":5.362808,"is_reserved":false,"is_disabled":false,"rental_uris":{"android":"levelo://app?vid=f58bd8c4-297f-47e9-9bc8-c646299680b6","ios":"levelo://app?vid=f58bd8c4-297f-47e9-9bc8-c646299680b6"},"vehicle_type_id":"4","last_reported":1784837406,"current_range_meters":18000,"station_id":"ce4bgpp2rcd13ifvqc3g","pricing_plan_id":"cebpf4jnsgd1na2vs0mg"},{"bike_id":"75146afd-6944-4808-9153-760cee29f303","system_id":"levelo_inurba_marseille","lat":43.24663,"lon":5.37867,"is_reserved":false,"is_disabled":false,"rental_uris":{"android":"levelo://app?vid=75146afd-6944-4808-9153-760cee29f303","ios":"levelo://app?vid=75146afd-6944-4808-9153-760cee29f303"},"vehicle_type_id":"4","last_reported":1784837406,"current_range_meters":19600,"station_id":"","pricing_plan_id":"cebpf4jnsgd1na2vs0mg"},{"bike_id":"6ccdb80e-0c8a-4f17-a34c-33ff437bd75c","system_id":"levelo_inurba_marseille","lat":43.28414,"lon":5.35015,"is_reserved":false,"is_disabled":false,"rental_uris":{"android":"levelo://app?vid=6ccdb80e-0c8a-4f17-a34c-33ff437bd75c","ios":"levelo://app?vid=6ccdb80e-0c8a-4f17-a34c-33ff437bd75c"},"vehicle_type_id":"4","last_reported":1784837406,"current_range_meters":36000,"station_id":"ce4bhbh2rcd13ifvqepg","pricing_plan_id":"cebpf4jnsgd1na2vs0mg"},{"bike_id":"0e8fba60-4666-4ec3-9dec-5f26362b5be6","system_id":"levelo_inurba_marseille","lat":43.26318,"lon":5.3782,"is_reserved":false,"is_disabled":false,"rental_uris":{"android":"levelo://app?vid=0e8fba60-4666-4ec3-9dec-5f26362b5be6","ios":"levelo://app?vid=0e8fba60-4666-4ec3-9dec-5f26362b5be6"},"vehicle_type_id":"4","last_reported":1784837406,"current_range_meters":26000,"station_id":"","pricing_plan_id":"cebpf4jnsgd1na2vs0mg"},{"bike_id":"7b752e13-2ff9-4505-96ca-27ebb0549230","system_id":"levelo_inurba_marseille","lat":43.26327,"lon":5.37825,"is_reserved":false,"is_disabled":false,"rental_uris":{"android":"levelo://app?vid=7b752e13-2ff9-4505-96ca-27ebb0549230","ios":"levelo://app?vid=7b752e13-2ff9-4505-96ca-27ebb0549230"},"vehicle_type_id":"4","last_reported":1784837406,"current_range_meters":39200,"station_id":"st_d163nis0mtpqnht9uue0","pricing_plan_id":"cebpf4jnsgd1na2vs0mg"},{"bike_id":"944b21c4-a98c-414e-9e29-46acc307ae07","system_id":"levelo_inurba_marseille","lat":43.26457,"lon":5.36919,"is_reserved":false,"is_disabled":false,"rental_uris":{"android":"levelo://app?vid=944b21c4-a98c-414e-9e29-46acc307ae07","ios":"levelo://app?vid=944b21c4-a98c-414e-9e29-46acc307ae07"},"vehicle_type_id":"4","last_reported":1784837406,"current_range_meters":4800,"station_id":"","pricing_plan_id":"cebpf4jnsgd1na2vs0mg"},{"bike_id":"51a89345-a2b5-49c4-8e3b-dc3d45e42e6d","system_id":"levelo_inurba_marseille","lat":43.28414,"lon":5.34991,"is_reserved":false,"is_disabled":false,"rental_uris":{"android":"levelo://app?vid=51a89345-a2b5-49c4-8e3b-dc3d45e42e6d","ios":"levelo://app?vid=51a89345-a2b5-49c4-8e3b-dc3d45e42e6d"},"vehicle_type_id":"4","last_reported":1784837406,"current_range_meters":39200,"station_id":"ce4bhbh2rcd13ifvqepg","pricing_plan_id":"cebpf4jnsgd1na2vs0mg"},{"bike_id":"dd38353b-003c-44b5-ba9b-65c3428e9c17","system_id":"levelo_inurba_marseille","lat":43.29271,"lon":5.37621,"is_reserved":false,"is_disabled":false,"rental_uris":{"android":"levelo://app?vid=dd38353b-003c-44b5-ba9b-65c3428e9c17","ios":"levelo://app?vid=dd38353b-003c-44b5-ba9b-65c3428e9c17"},"vehicle_type_id":"4","last_reported":1784837406,"current_range_meters":37600,"station_id":"ce4bgi12rcd13ifvqb80","pricing_plan_id":"cebpf4jnsgd1na2vs0mg"},{"bike_id":"0fb219d7-0eb2-4db7-be60-ac39a2ab39c2","system_id":"levelo_inurba_marseille","lat":43.2668,"lon":5.38278,"is_reserved":false,"is_disabled":false,"rental_uris":{"android":"levelo://app?vid=0fb219d7-0eb2-4db7-be60-ac39a2ab39c2","ios":"levelo://app?vid=0fb219d7-0eb2-4db7-be60-ac39a2ab39c2"},"vehicle_type_id":"4","last_reported":1784837406,"current_range_meters":28000,"station_id":"ce4bhg92rcd13ifvqf90","pricing_plan_id":"cebpf4jnsgd1na2vs0mg"},{"bike_id":"acb6c310-64e8-4ffb-9d0e-3645b38213aa","system_id":"levelo_inurba_marseille","lat":43.22579,"lon":5.41625,"is_reserved":false,"is_disabled":false,"rental_uris":{"android":"levelo://app?vid=acb6c310-64e8-4ffb-9d0e-3645b38213aa","ios":"levelo://app?vid=acb6c310-64e8-4ffb-9d0e-3645b38213aa"},"vehicle_type_id":"4","last_reported":1784837406,"current_range_meters":38000,"station_id":"st_d2o4gvlbi1j2169b742g","pricing_plan_id":"cebpf4jnsgd1na2vs0mg"},{"bike_id":"9c79c837-be1f-43a2-a0e1-b77919f40b72","system_id":"levelo_inurba_marseille","lat":43.29848,"lon":5.36285,"is_reserved":false,"is_disabled":false,"rental_uris":{"android":"levelo://app?vid=9c79c837-be1f-43a2-a0e1-b77919f40b72","ios":"levelo://app?vid=9c79c837-be1f-43a2-a0e1-b77919f40b72"},"vehicle_type_id":"4","last_reported":1784837406,"current_range_meters":10000,"station_id":"ce4bgpp2rcd13ifvqc3g","pricing_plan_id":"cebpf4jnsgd1na2vs0mg"},{"bike_id":"9ee7f49e-e66a-4581-b0ca-bd08a3861bb9","system_id":"levelo_inurba_marseille","lat":43.24812,"lon":5.37454,"is_reserved":false,"is_disabled":false,"rental_uris":{"android":"levelo://app?vid=9ee7f49e-e66a-4581-b0ca-bd08a3861bb9","ios":"levelo://app?vid=9ee7f49e-e66a-4581-b0ca-bd08a3861bb9"},"vehicle_type_id":"4","last_reported":1784837406,"current_range_meters":36400,"station_id":"ce4bhgh2rcd13ifvqfb0","pricing_plan_id":"cebpf4jnsgd1na2vs0mg"},{"bike_id":"2b2d5806-a98a-4b6d-8666-219c96826a65","system_id":"levelo_inurba_marseille","lat":43.33025,"lon":5.39041,"is_reserved":false,"is_disabled":false,"rental_uris":{"android":"levelo://app?vid=2b2d5806-a98a-4b6d-8666-219c96826a65","ios":"levelo://app?vid=2b2d5806-a98a-4b6d-8666-219c96826a65"},"vehicle_type_id":"4","last_reported":1784837406,"current_range_meters":4400,"station_id":"ce4bhr92rcd13ifvqhrg","pricing_plan_id":"cebpf4jnsgd1na2vs0mg"},{"bike_id":"9d4b8430-c687-4ce9-b117-2b375d0afc9f","system_id":"levelo_inurba_marseille","lat":43.23151,"lon":5.43743,"is_reserved":false,"is_disabled":false,"rental_uris":{"android":"levelo://app?vid=9d4b8430-c687-4ce9-b117-2b375d0afc9f","ios":"levelo://app?vid=9d4b8430-c687-4ce9-b117-2b375d0afc9f"},"vehicle_type_id":"4","last_reported":1784837406,"current_range_meters":30400,"station_id":"ce4bhmp2rcd13ifvqgog","pricing_plan_id":"cebpf4jnsgd1na2vs0mg"},{"bike_id":"79ef4875-f70d-4e1e-a5ff-e61a813967d7","system_id":"levelo_inurba_marseille","lat":43.29587,"lon":5.37494,"is_reserved":false,"is_disabled":false,"rental_uris":{"android":"levelo://app?vid=79ef4875-f70d-4e1e-a5ff-e61a813967d7","ios":"levelo://app?vid=79ef4875-f70d-4e1e-a5ff-e61a813967d7"},"vehicle_type_id":"4","last_reported":1784837406,"current_range_meters":37600,"station_id":"ce4bgh92rcd13ifvqb50","pricing_plan_id":"cebpf4jnsgd1na2vs0mg"},{"bike_id":"3f2bdf31-c203-4712-8db4-3dc592b3612b","system_id":"levelo_inurba_marseille","lat":43.25581,"lon":5.38234,"is_reserved":false,"is_disabled":false,"rental_uris":{"android":"levelo://app?vid=3f2bdf31-c203-4712-8db4-3dc592b3612b","ios":"levelo://app?vid=3f2bdf31-c203-4712-8db4-3dc592b3612b"},"vehicle_type_id":"4","last_reported":1784837406,"current_range_meters":8000,"station_id":"ce4bhih2rcd13ifvqfs0","pricing_plan_id":"cebpf4jnsgd1na2vs0mg"},{"bike_id":"429123e4-dc43-429b-abc2-42a83c22e46e","system_id":"levelo_inurba_marseille","lat":43.23217,"lon":5.35527,"is_reserved":false,"is_disabled":false,"rental_uris":{"android":"levelo://app?vid=429123e4-dc43-429b-abc2-42a83c22e46e","ios":"levelo://app?vid=429123e4-dc43-429b-abc2-42a83c22e46e"},"vehicle_type_id":"4","last_reported":1784837406,"current_range_meters":29600,"station_id":"ce4bhu92rcd13ifvqi70","pricing_plan_id":"cebpf4jnsgd1na2vs0mg"},{"bike_id":"2b7c2546-9ab9-4549-86be-37fbe41ef313","system_id":"levelo_inurba_marseille","lat":43.29218,"lon":5.36909,"is_reserved":false,"is_disabled":false,"rental_uris":{"android":"levelo://app?vid=2b7c2546-9ab9-4549-86be-37fbe41ef313","ios":"levelo://app?vid=2b7c2546-9ab9-4549-86be-37fbe41ef313"},"vehicle_type_id":"4","last_reported":1784837406,"current_range_meters":30800,"station_id":"","pricing_plan_id":"cebpf4jnsgd1na2vs0mg"},{"bike_id":"a9500356-c19d-415e-81ed-a8d1baa0c959","system_id":"levelo_inurba_marseille","lat":43.30122,"lon":5.38794,"is_reserved":false,"is_disabled":true,"rental_uris":{"android":"levelo://app?vid=a9500356-c19d-415e-81ed-a8d1baa0c959","ios":"levelo://app?vid=a9500356-c19d-415e-81ed-a8d1baa0c959"},"vehicle_type_id":"4","last_reported":1784837406,"current_range_meters":25600,"station_id":"ce4bghh2rcd13ifvqb60","pricing_plan_id":"cebpf4jnsgd1na2vs0mg"},{"bike_id":"780d70f3-95c4-44fa-ba2a-f31e2ebd1bf6","system_id":"levelo_inurba_marseille","lat":43.29977,"lon":5.38474,"is_reserved":false,"is_disabled":true,"rental_uris":{"android":"levelo://app?vid=780d70f3-95c4-44fa-ba2a-f31e2ebd1bf6","ios":"levelo://app?vid=780d70f3-95c4-44fa-ba2a-f31e2ebd1bf6"},"vehicle_type_id":"4","last_reported":1784837406,"current_range_meters":27600,"station_id":"ce4bgj92rcd13ifvqbd0","pricing_plan_id":"cebpf4jnsgd1na2vs0mg"},{"bike_id":"bace381c-6258-4d80-80f1-070c343af026","system_id":"levelo_inurba_marseille","lat":43.33167,"lon":5.37691,"is_reserved":false,"is_disabled":false,"rental_uris":{"android":"levelo://app?vid=bace381c-6258-4d80-80f1-070c343af026","ios":"levelo://app?vid=bace381c-6258-4d80-80f1-070c343af026"},"vehicle_type_id":"4","last_reported":1784837406,"current_range_meters":5600,"station_id":"st_d46cu089ee8s73dldbu0","pricing_plan_id":"cebpf4jnsgd1na2vs0mg"},{"bike_id":"d5bfa853-ca32-4bbd-9878-0e87a702146b","system_id":"levelo_inurba_marseille","lat":43.29575,"lon":5.37508,"is_reserved":false,"is_disabled":true,"rental_uris":{"android":"levelo://app?vid=d5bfa853-ca32-4bbd-9878-0e87a702146b","ios":"levelo://app?vid=d5bfa853-ca32-4bbd-9878-0e87a702146b"},"vehicle_type_id":"4","last_reported":1784837406,"current_range_meters":800,"station_id":"ce4bgh92rcd13ifvqb50","pricing_plan_id":"cebpf4jnsgd1na2vs0mg"},{"bike_id":"31654163-bbcb-4bb9-a3da-c3202a38c001","system_id":"levelo_inurba_marseille","lat":43.287377,"lon":5.361139,"is_reserved":false,"is_disabled":false,"rental_uris":{"android":"levelo://app?vid=31654163-bbcb-4bb9-a3da-c3202a38c001","ios":"levelo://app?vid=31654163-bbcb-4bb9-a3da-c3202a38c001"},"vehicle_type_id":"4","last_reported":1784837406,"current_range_meters":24000,"station_id":"","pricing_plan_id":"cebpf4jnsgd1na2vs0mg"},{"bike_id":"2374f26b-fca7-4cd2-8a9e-94ffbeb3177f","system_id":"levelo_inurba_marseille","lat":43.28617,"lon":5.35107,"is_reserved":false,"is_disabled":false,"rental_uris":{"android":"levelo://app?vid=2374f26b-fca7-4cd2-8a9e-94ffbeb3177f","ios":"levelo://app?vid=2374f26b-fca7-4cd2-8a9e-94ffbeb3177f"},"vehicle_type_id":"4","last_reported":1784837406,"current_range_meters":3600,"station_id":"ce4bhch2rcd13ifvqeug","pricing_plan_id":"cebpf4jnsgd1na2vs0mg"},{"bike_id":"e9e543b0-8ca5-47a6-998c-4902ea53cdd4","system_id":"levelo_inurba_marseille","lat":43.25205,"lon":5.37347,"is_reserved":false,"is_disabled":true,"rental_uris":{"android":"levelo://app?vid=e9e543b0-8ca5-47a6-998c-4902ea53cdd4","ios":"levelo://app?vid=e9e543b0-8ca5-47a6-998c-4902ea53cdd4"},"vehicle_type_id":"4","last_reported":1784837406,"current_range_meters":8000,"station_id":"","pricing_plan_id":"cebpf4jnsgd1na2vs0mg"},{"bike_id":"2b7d3586-d06d-4c0f-a3a2-652f9ec8e3ae","system_id":"levelo_inurba_marseille","lat":43.24817,"lon":5.37469,"is_reserved":false,"is_disabled":false,"rental_uris":{"android":"levelo://app?vid=2b7d3586-d06d-4c0f-a3a2-652f9ec8e3ae","ios":"levelo://app?vid=2b7d3586-d06d-4c0f-a3a2-652f9ec8e3ae"},"vehicle_type_id":"4","last_reported":1784837406,"current_range_meters":36400,"station_id":"ce4bhgh2rcd13ifvqfb0","pricing_plan_id":"cebpf4jnsgd1na2vs0mg"},{"bike_id":"fe2fcfcf-3ba9-4b4c-b1c1-9378323cfb57","system_id":"levelo_inurba_marseille","lat":43.263162,"lon":5.378251,"is_reserved":false,"is_disabled":false,"rental_uris":{"android":"levelo://app?vid=fe2fcfcf-3ba9-4b4c-b1c1-9378323cfb57","ios":"levelo://app?vid=fe2fcfcf-3ba9-4b4c-b1c1-9378323cfb57"},"vehicle_type_id":"4","last_reported":1784837406,"current_range_meters":7200,"station_id":"","pricing_plan_id":"cebpf4jnsgd1na2vs0mg"},{"bike_id":"07381100-2a43-412d-8493-6e36d0198e03","system_id":"levelo_inurba_marseille","lat":43.29971,"lon":5.38497,"is_reserved":false,"is_disabled":true,"rental_uris":{"android":"levelo://app?vid=07381100-2a43-412d-8493-6e36d0198e03","ios":"levelo://app?vid=07381100-2a43-412d-8493-6e36d0198e03"},"vehicle_type_id":"4","last_reported":1784837406,"current_range_meters":8400,"station_id":"ce4bgj92rcd13ifvqbd0","pricing_plan_id":"cebpf4jnsgd1na2vs0mg"},{"bike_id":"693c14b8-dea8-4bd6-9209-8f095362b343","system_id":"levelo_inurba_marseille","lat":43.25879,"lon":5.40426,"is_reserved":false,"is_disabled":false,"rental_uris":{"android":"levelo://app?vid=693c14b8-dea8-4bd6-9209-8f095362b343","ios":"levelo://app?vid=693c14b8-dea8-4bd6-9209-8f095362b343"},"vehicle_type_id":"4","last_reported":1784837406,"current_range_meters":25600,"station_id":"","pricing_plan_id":"cebpf4jnsgd1na2vs0mg"},{"bike_id":"a0c2f15c-f292-43ef-80a7-c441a26f9b52","system_id":"levelo_inurba_marseille","lat":43.25488,"lon":5.37651,"is_reserved":false,"is_disabled":false,"rental_uris":{"android":"levelo://app?vid=a0c2f15c-f292-43ef-80a7-c441a26f9b52","ios":"levelo://app?vid=a0c2f15c-f292-43ef-80a7-c441a26f9b52"},"vehicle_type_id":"4","last_reported":1784837406,"current_range_meters":21600,"station_id":"ce4bhh12rcd13ifvqff0","pricing_plan_id":"cebpf4jnsgd1na2vs0mg"},{"bike_id":"f97235ec-44d2-4ffd-950e-c54d654c44a8","system_id":"levelo_inurba_marseille","lat":43.30565,"lon":5.36534,"is_reserved":false,"is_disabled":false,"rental_uris":{"android":"levelo://app?vid=f97235ec-44d2-4ffd-950e-c54d654c44a8","ios":"levelo://app?vid=f97235ec-44d2-4ffd-950e-c54d654c44a8"},"vehicle_type_id":"4","last_reported":1784837406,"current_range_meters":12000,"station_id":"ce4bgs12rcd13ifvqcag","pricing_plan_id":"cebpf4jnsgd1na2vs0mg"},{"bike_id":"a6e39fb0-f2e5-41d8-b4aa-b3071fa9ec56","system_id":"levelo_inurba_marseille","lat":43.23148,"lon":5.43723,"is_reserved":false,"is_disabled":false,"rental_uris":{"android":"levelo://app?vid=a6e39fb0-f2e5-41d8-b4aa-b3071fa9ec56","ios":"levelo://app?vid=a6e39fb0-f2e5-41d8-b4aa-b3071fa9ec56"},"vehicle_type_id":"4","last_reported":1784837406,"current_range_meters":21600,"station_id":"ce4bhmp2rcd13ifvqgog","pricing_plan_id":"cebpf4jnsgd1na2vs0mg"},{"bike_id":"8f7f8a15-d876-4143-93a6-7886d8537491","system_id":"levelo_inurba_marseille","lat":43.33593,"lon":5.41016,"is_reserved":false,"is_disabled":false,"rental_uris":{"android":"levelo://app?vid=8f7f8a15-d876-4143-93a6-7886d8537491","ios":"levelo://app?vid=8f7f8a15-d876-4143-93a6-7886d8537491"},"vehicle_type_id":"4","last_reported":1784837406,"current_range_meters":10000,"station_id":"ce4bhqh2rcd13ifvqhmg","pricing_plan_id":"cebpf4jnsgd1na2vs0mg"},{"bike_id":"a2c9fd6e-925c-4795-ba3f-b9c641931695","system_id":"levelo_inurba_marseille","lat":43.314555,"lon":5.373808,"is_reserved":false,"is_disabled":true,"rental_uris":{"android":"levelo://app?vid=a2c9fd6e-925c-4795-ba3f-b9c641931695","ios":"levelo://app?vid=a2c9fd6e-925c-4795-ba3f-b9c641931695"},"vehicle_type_id":"4","last_reported":1784837406,"current_range_meters":18800,"station_id":"","pricing_plan_id":"cebpf4jnsgd1na2vs0mg"},{"bike_id":"d15acef8-1bae-4a6d-a8d1-43e11b8ea147","system_id":"levelo_inurba_marseille","lat":43.29027,"lon":5.35694,"is_reserved":false,"is_disabled":true,"rental_uris":{"android":"levelo://app?vid=d15acef8-1bae-4a6d-a8d1-43e11b8ea147","ios":"levelo://app?vid=d15acef8-1bae-4a6d-a8d1-43e11b8ea147"},"vehicle_type_id":"4","last_reported":1784837406,"current_range_meters":28800,"station_id":"","pricing_plan_id":"cebpf4jnsgd1na2vs0mg"},{"bike_id":"d5bacd06-8390-4630-8a26-b07308e80e9a","system_id":"levelo_inurba_marseille","lat":43.2957,"lon":5.37525,"is_reserved":false,"is_disabled":false,"rental_uris":{"android":"levelo://app?vid=d5bacd06-8390-4630-8a26-b07308e80e9a","ios":"levelo://app?vid=d5bacd06-8390-4630-8a26-b07308e80e9a"},"vehicle_type_id":"4","last_reported":1784837406,"current_range_meters":36800,"station_id":"ce4bgh92rcd13ifvqb50","pricing_plan_id":"cebpf4jnsgd1na2vs0mg"},{"bike_id":"7b7c350c-7fa0-4260-b6c2-812c00fe7727","system_id":"levelo_inurba_marseille","lat":43.32118,"lon":5.36746,"is_reserved":false,"is_disabled":false,"rental_uris":{"android":"levelo://app?vid=7b7c350c-7fa0-4260-b6c2-812c00fe7727","ios":"levelo://app?vid=7b7c350c-7fa0-4260-b6c2-812c00fe7727"},"vehicle_type_id":"4","last_reported":1784837406,"current_range_meters":24400,"station_id":"ce4bhrh2rcd13ifvqhug","pricing_plan_id":"cebpf4jnsgd1na2vs0mg"},{"bike_id":"002b6de9-4906-4900-bd53-a26437451aab","system_id":"levelo_inurba_marseille","lat":43.33247,"lon":5.35898,"is_reserved":false,"is_disabled":false,"rental_uris":{"android":"levelo://app?vid=002b6de9-4906-4900-bd53-a26437451aab","ios":"levelo://app?vid=002b6de9-4906-4900-bd53-a26437451aab"},"vehicle_type_id":"4","last_reported":1784837406,"current_range_meters":9200,"station_id":"","pricing_plan_id":"cebpf4jnsgd1na2vs0mg"},{"bike_id":"12b6f1fd-fee1-4941-931a-df9867fb16ad","system_id":"levelo_inurba_marseille","lat":43.2319,"lon":5.35559,"is_reserved":false,"is_disabled":false,"rental_uris":{"android":"levelo://app?vid=12b6f1fd-fee1-4941-931a-df9867fb16ad","ios":"levelo://app?vid=12b6f1fd-fee1-4941-931a-df9867fb16ad"},"vehicle_type_id":"4","last_reported":1784837406,"current_range_meters":39200,"station_id":"ce4bhu92rcd13ifvqi70","pricing_plan_id":"cebpf4jnsgd1na2vs0mg"},{"bike_id":"94f1b0ad-aaa9-4b51-806c-9eae39355e9b","system_id":"levelo_inurba_marseille","lat":43.27378,"lon":5.36251,"is_reserved":false,"is_disabled":false,"rental_uris":{"android":"levelo://app?vid=94f1b0ad-aaa9-4b51-806c-9eae39355e9b","ios":"levelo://app?vid=94f1b0ad-aaa9-4b51-806c-9eae39355e9b"},"vehicle_type_id":"4","last_reported":1784837406,"current_range_meters":39200,"station_id":"ce4bhbh2rcd13ifvqeo0","pricing_plan_id":"cebpf4jnsgd1na2vs0mg"},{"bike_id":"735a1458-0d87-4257-920c-b013c606cc3d","system_id":"levelo_inurba_marseille","lat":43.27062,"lon":5.42272,"is_reserved":false,"is_disabled":false,"rental_uris":{"android":"levelo://app?vid=735a1458-0d87-4257-920c-b013c606cc3d","ios":"levelo://app?vid=735a1458-0d87-4257-920c-b013c606cc3d"},"vehicle_type_id":"4","last_reported":1784837406,"current_range_meters":39200,"station_id":"ce4bhk92rcd13ifvqgb0","pricing_plan_id":"cebpf4jnsgd1na2vs0mg"},{"bike_id":"379aac76-78f2-4625-ada4-74999853a8a0","system_id":"levelo_inurba_marseille","lat":43.28421,"lon":5.34983,"is_reserved":false,"is_disabled":false,"rental_uris":{"android":"levelo://app?vid=379aac76-78f2-4625-ada4-74999853a8a0","ios":"levelo://app?vid=379aac76-78f2-4625-ada4-74999853a8a0"},"vehicle_type_id":"4","last_reported":1784837406,"current_range_meters":34800,"station_id":"ce4bhbh2rcd13ifvqepg","pricing_plan_id":"cebpf4jnsgd1na2vs0mg"},{"bike_id":"0706f79a-b938-4dbf-90f3-9182e12538c7","system_id":"levelo_inurba_marseille","lat":43.25093,"lon":5.39511,"is_reserved":false,"is_disabled":false,"rental_uris":{"android":"levelo://app?vid=0706f79a-b938-4dbf-90f3-9182e12538c7","ios":"levelo://app?vid=0706f79a-b938-4dbf-90f3-9182e12538c7"},"vehicle_type_id":"4","last_reported":1784837406,"current_range_meters":39200,"station_id":"ce4bhm12rcd13ifvqgkg","pricing_plan_id":"cebpf4jnsgd1na2vs0mg"},{"bike_id":"bd8b3369-74a8-4511-bee7-721b894466b2","system_id":"levelo_inurba_marseille","lat":43.23784,"lon":5.36628,"is_reserved":false,"is_disabled":false,"rental_uris":{"android":"levelo://app?vid=bd8b3369-74a8-4511-bee7-721b894466b2","ios":"levelo://app?vid=bd8b3369-74a8-4511-bee7-721b894466b2"},"vehicle_type_id":"4","last_reported":1784837406,"current_range_meters":36000,"station_id":"st_d3nk18o9ro0c73en2l3g","pricing_plan_id":"cebpf4jnsgd1na2vs0mg"},{"bike_id":"54f2d4c4-fb63-4d4d-964d-b300bd6c5406","system_id":"levelo_inurba_marseille","lat":43.29852,"lon":5.36273,"is_reserved":false,"is_disabled":false,"rental_uris":{"android":"levelo://app?vid=54f2d4c4-fb63-4d4d-964d-b300bd6c5406","ios":"levelo://app?vid=54f2d4c4-fb63-4d4d-964d-b300bd6c5406"},"vehicle_type_id":"4","last_reported":1784837406,"current_range_meters":36800,"station_id":"ce4bgpp2rcd13ifvqc3g","pricing_plan_id":"cebpf4jnsgd1na2vs0mg"},{"bike_id":"22e66e8b-f008-4d04-b17c-751d019a7a36","system_id":"levelo_inurba_marseille","lat":43.29797,"lon":5.44115,"is_reserved":false,"is_disabled":false,"rental_uris":{"android":"levelo://app?vid=22e66e8b-f008-4d04-b17c-751d019a7a36","ios":"levelo://app?vid=22e66e8b-f008-4d04-b17c-751d019a7a36"},"vehicle_type_id":"4","last_reported":1784837406,"current_range_meters":36400,"station_id":"st_d3jp68qikq2c7381ktn0","pricing_plan_id":"cebpf4jnsgd1na2vs0mg"},{"bike_id":"1981d3ef-d7ae-460e-a247-e2f1120f8322","system_id":"levelo_inurba_marseille","lat":43.24587,"lon":5.41948,"is_reserved":false,"is_disabled":false,"rental_uris":{"android":"levelo://app?vid=1981d3ef-d7ae-460e-a247-e2f1120f8322","ios":"levelo://app?vid=1981d3ef-d7ae-460e-a247-e2f1120f8322"},"vehicle_type_id":"4","last_reported":1784837406,"current_range_meters":12400,"station_id":"","pricing_plan_id":"cebpf4jnsgd1na2vs0mg"},{"bike_id":"4bfe087d-ab1b-4645-bfd7-cfd146dc7cc8","system_id":"levelo_inurba_marseille","lat":43.29686,"lon":5.36587,"is_reserved":false,"is_disabled":false,"rental_uris":{"android":"levelo://app?vid=4bfe087d-ab1b-4645-bfd7-cfd146dc7cc8","ios":"levelo://app?vid=4bfe087d-ab1b-4645-bfd7-cfd146dc7cc8"},"vehicle_type_id":"4","last_reported":1784837406,"current_range_meters":38000,"station_id":"ce4bgn12rcd13ifvqbt0","pricing_plan_id":"cebpf4jnsgd1na2vs0mg"},{"bike_id":"bbb6d84d-52b2-4523-b78b-60cb354411ef","system_id":"levelo_inurba_marseille","lat":43.32108,"lon":5.36774,"is_reserved":false,"is_disabled":false,"rental_uris":{"android":"levelo://app?vid=bbb6d84d-52b2-4523-b78b-60cb354411ef","ios":"levelo://app?vid=bbb6d84d-52b2-4523-b78b-60cb354411ef"},"vehicle_type_id":"4","last_reported":1784837406,"current_range_meters":32000,"station_id":"ce4bhrh2rcd13ifvqhug","pricing_plan_id":"cebpf4jnsgd1na2vs0mg"},{"bike_id":"0fb69e68-2442-4daa-851f-442099ce438b","system_id":"levelo_inurba_marseille","lat":43.30186,"lon":5.40164,"is_reserved":false,"is_disabled":false,"rental_uris":{"android":"levelo://app?vid=0fb69e68-2442-4daa-851f-442099ce438b","ios":"levelo://app?vid=0fb69e68-2442-4daa-851f-442099ce438b"},"vehicle_type_id":"4","last_reported":1784837406,"current_range_meters":4000,"station_id":"","pricing_plan_id":"cebpf4jnsgd1na2vs0mg"},{"bike_id":"7c215944-6de0-44b9-b267-ecfcdb73eb11","system_id":"levelo_inurba_marseille","lat":43.27796,"lon":5.40732,"is_reserved":false,"is_disabled":true,"rental_uris":{"android":"levelo://app?vid=7c215944-6de0-44b9-b267-ecfcdb73eb11","ios":"levelo://app?vid=7c215944-6de0-44b9-b267-ecfcdb73eb11"},"vehicle_type_id":"4","last_reported":1784837406,"current_range_meters":38000,"station_id":"ce4bhnh2rcd13ifvqgtg","pricing_plan_id":"cebpf4jnsgd1na2vs0mg"},{"bike_id":"a9863fcb-8ca0-4220-b083-cb27e96475fe","system_id":"levelo_inurba_marseille","lat":43.23201,"lon":5.35551,"is_reserved":false,"is_disabled":false,"rental_uris":{"android":"levelo://app?vid=a9863fcb-8ca0-4220-b083-cb27e96475fe","ios":"levelo://app?vid=a9863fcb-8ca0-4220-b083-cb27e96475fe"},"vehicle_type_id":"4","last_reported":1784837406,"current_range_meters":39200,"station_id":"ce4bhu92rcd13ifvqi70","pricing_plan_id":"cebpf4jnsgd1na2vs0mg"},{"bike_id":"fa9724a7-ee6c-4a2d-a767-5074cf7256a3","system_id":"levelo_inurba_marseille","lat":43.292798,"lon":5.368469,"is_reserved":false,"is_disabled":false,"rental_uris":{"android":"levelo://app?vid=fa9724a7-ee6c-4a2d-a767-5074cf7256a3","ios":"levelo://app?vid=fa9724a7-ee6c-4a2d-a767-5074cf7256a3"},"vehicle_type_id":"4","last_reported":1784837406,"current_range_meters":3200,"station_id":"ce4bhbp2rcd13ifvqesg","pricing_plan_id":"cebpf4jnsgd1na2vs0mg"},{"bike_id":"ded3b29b-0517-489c-a10d-8b949bc6e37f","system_id":"levelo_inurba_marseille","lat":43.26376,"lon":5.37824,"is_reserved":false,"is_disabled":false,"rental_uris":{"android":"levelo://app?vid=ded3b29b-0517-489c-a10d-8b949bc6e37f","ios":"levelo://app?vid=ded3b29b-0517-489c-a10d-8b949bc6e37f"},"vehicle_type_id":"4","last_reported":1784837406,"current_range_meters":28400,"station_id":"st_d163nis0mtpqnht9uue0","pricing_plan_id":"cebpf4jnsgd1na2vs0mg"},{"bike_id":"d62403aa-894f-4ce8-ad6f-b14c65d86282","system_id":"levelo_inurba_marseille","lat":43.248,"lon":5.37456,"is_reserved":false,"is_disabled":false,"rental_uris":{"android":"levelo://app?vid=d62403aa-894f-4ce8-ad6f-b14c65d86282","ios":"levelo://app?vid=d62403aa-894f-4ce8-ad6f-b14c65d86282"},"vehicle_type_id":"4","last_reported":1784837406,"current_range_meters":6000,"station_id":"ce4bhgh2rcd13ifvqfb0","pricing_plan_id":"cebpf4jnsgd1na2vs0mg"},{"bike_id":"6beb94b0-4283-4f7d-810d-b229619bc024","system_id":"levelo_inurba_marseille","lat":43.229591,"lon":5.444884,"is_reserved":false,"is_disabled":false,"rental_uris":{"android":"levelo://app?vid=6beb94b0-4283-4f7d-810d-b229619bc024","ios":"levelo://app?vid=6beb94b0-4283-4f7d-810d-b229619bc024"},"vehicle_type_id":"4","last_reported":1784837406,"current_range_meters":19600,"station_id":"","pricing_plan_id":"cebpf4jnsgd1na2vs0mg"},{"bike_id":"a186e70d-a4a4-41f5-b833-bf3a335e787b","system_id":"levelo_inurba_marseille","lat":43.2481,"lon":5.37451,"is_reserved":false,"is_disabled":false,"rental_uris":{"android":"levelo://app?vid=a186e70d-a4a4-41f5-b833-bf3a335e787b","ios":"levelo://app?vid=a186e70d-a4a4-41f5-b833-bf3a335e787b"},"vehicle_type_id":"4","last_reported":1784837406,"current_range_meters":38800,"station_id":"ce4bhgh2rcd13ifvqfb0","pricing_plan_id":"cebpf4jnsgd1na2vs0mg"},{"bike_id":"25d63c03-240b-4596-9842-ae7363543101","system_id":"levelo_inurba_marseille","lat":43.33151,"lon":5.37645,"is_reserved":false,"is_disabled":false,"rental_uris":{"android":"levelo://app?vid=25d63c03-240b-4596-9842-ae7363543101","ios":"levelo://app?vid=25d63c03-240b-4596-9842-ae7363543101"},"vehicle_type_id":"4","last_reported":1784837406,"current_range_meters":36800,"station_id":"st_d46cu089ee8s73dldbu0","pricing_plan_id":"cebpf4jnsgd1na2vs0mg"},{"bike_id":"d5ce1f70-45dd-47d5-a2a4-e8a19c2ad395","system_id":"levelo_inurba_marseille","lat":43.23787,"lon":5.36632,"is_reserved":false,"is_disabled":false,"rental_uris":{"android":"levelo://app?vid=d5ce1f70-45dd-47d5-a2a4-e8a19c2ad395","ios":"levelo://app?vid=d5ce1f70-45dd-47d5-a2a4-e8a19c2ad395"},"vehicle_type_id":"4","last_reported":1784837406,"current_range_meters":39200,"station_id":"st_d3nk18o9ro0c73en2l3g","pricing_plan_id":"cebpf4jnsgd1na2vs0mg"},{"bike_id":"2227fe95-0a72-4ced-9f02-31d32846fb4e","system_id":"levelo_inurba_marseille","lat":43.25075,"lon":5.395,"is_reserved":false,"is_disabled":false,"rental_uris":{"android":"levelo://app?vid=2227fe95-0a72-4ced-9f02-31d32846fb4e","ios":"levelo://app?vid=2227fe95-0a72-4ced-9f02-31d32846fb4e"},"vehicle_type_id":"4","last_reported":1784837406,"current_range_meters":38800,"station_id":"ce4bhm12rcd13ifvqgkg","pricing_plan_id":"cebpf4jnsgd1na2vs0mg"},{"bike_id":"0c22c396-69ff-4559-b675-55e562ffce35","system_id":"levelo_inurba_marseille","lat":43.29945,"lon":5.36511,"is_reserved":false,"is_disabled":false,"rental_uris":{"android":"levelo://app?vid=0c22c396-69ff-4559-b675-55e562ffce35","ios":"levelo://app?vid=0c22c396-69ff-4559-b675-55e562ffce35"},"vehicle_type_id":"4","last_reported":1784837406,"current_range_meters":39200,"station_id":"ce4bgm92rcd13ifvqbr0","pricing_plan_id":"cebpf4jnsgd1na2vs0mg"},{"bike_id":"f8d90c4e-4908-4f03-845e-3c10c53cb1f4","system_id":"levelo_inurba_marseille","lat":43.30043,"lon":5.40942,"is_reserved":false,"is_disabled":false,"rental_uris":{"android":"levelo://app?vid=f8d90c4e-4908-4f03-845e-3c10c53cb1f4","ios":"levelo://app?vid=f8d90c4e-4908-4f03-845e-3c10c53cb1f4"},"vehicle_type_id":"4","last_reported":1784837406,"current_range_meters":17200,"station_id":"","pricing_plan_id":"cebpf4jnsgd1na2vs0mg"},{"bike_id":"dab9969d-d56b-4047-8f7a-83ba7401e915","system_id":"levelo_inurba_marseille","lat":43.28424,"lon":5.34987,"is_reserved":false,"is_disabled":false,"rental_uris":{"android":"levelo://app?vid=dab9969d-d56b-4047-8f7a-83ba7401e915","ios":"levelo://app?vid=dab9969d-d56b-4047-8f7a-83ba7401e915"},"vehicle_type_id":"4","last_reported":1784837406,"current_range_meters":14800,"station_id":"ce4bhbh2rcd13ifvqepg","pricing_plan_id":"cebpf4jnsgd1na2vs0mg"},{"bike_id":"27e1e4c5-a07c-4ba9-9e46-007cc925fb39","system_id":"levelo_inurba_marseille","lat":43.25436,"lon":5.41638,"is_reserved":false,"is_disabled":false,"rental_uris":{"android":"levelo://app?vid=27e1e4c5-a07c-4ba9-9e46-007cc925fb39","ios":"levelo://app?vid=27e1e4c5-a07c-4ba9-9e46-007cc925fb39"},"vehicle_type_id":"4","last_reported":1784837406,"current_range_meters":6400,"station_id":"","pricing_plan_id":"cebpf4jnsgd1na2vs0mg"},{"bike_id":"edf62b16-4006-4c81-9c57-20873a175b5a","system_id":"levelo_inurba_marseille","lat":43.25591,"lon":5.3825,"is_reserved":false,"is_disabled":false,"rental_uris":{"android":"levelo://app?vid=edf62b16-4006-4c81-9c57-20873a175b5a","ios":"levelo://app?vid=edf62b16-4006-4c81-9c57-20873a175b5a"},"vehicle_type_id":"4","last_reported":1784837406,"current_range_meters":34800,"station_id":"ce4bhih2rcd13ifvqfs0","pricing_plan_id":"cebpf4jnsgd1na2vs0mg"},{"bike_id":"033eab5e-4885-4e3e-a926-9530624df4e6","system_id":"levelo_inurba_marseille","lat":43.29292,"lon":5.37435,"is_reserved":false,"is_disabled":false,"rental_uris":{"android":"levelo://app?vid=033eab5e-4885-4e3e-a926-9530624df4e6","ios":"levelo://app?vid=033eab5e-4885-4e3e-a926-9530624df4e6"},"vehicle_type_id":"4","last_reported":1784837406,"current_range_meters":9200,"station_id":"ce4bgi12rcd13ifvqb70","pricing_plan_id":"cebpf4jnsgd1na2vs0mg"},{"bike_id":"cd288035-eddb-4f42-a73e-3fa03a084ed5","system_id":"levelo_inurba_marseille","lat":43.265732,"lon":5.390492,"is_reserved":false,"is_disabled":true,"rental_uris":{"android":"levelo://app?vid=cd288035-eddb-4f42-a73e-3fa03a084ed5","ios":"levelo://app?vid=cd288035-eddb-4f42-a73e-3fa03a084ed5"},"vehicle_type_id":"4","last_reported":1784837406,"current_range_meters":32400,"station_id":"cpo3532slgdg3j2ikp40","pricing_plan_id":"cebpf4jnsgd1na2vs0mg"},{"bike_id":"318129b4-c7a7-4d62-8daa-bf96cab18e20","system_id":"levelo_inurba_marseille","lat":43.28426,"lon":5.34976,"is_reserved":false,"is_disabled":true,"rental_uris":{"android":"levelo://app?vid=318129b4-c7a7-4d62-8daa-bf96cab18e20","ios":"levelo://app?vid=318129b4-c7a7-4d62-8daa-bf96cab18e20"},"vehicle_type_id":"4","last_reported":1784837406,"current_range_meters":19600,"station_id":"ce4bhbh2rcd13ifvqepg","pricing_plan_id":"cebpf4jnsgd1na2vs0mg"},{"bike_id":"a1865ed6-8512-48e0-a396-750b705f9480","system_id":"levelo_inurba_marseille","lat":43.29912,"lon":5.37461,"is_reserved":false,"is_disabled":false,"rental_uris":{"android":"levelo://app?vid=a1865ed6-8512-48e0-a396-750b705f9480","ios":"levelo://app?vid=a1865ed6-8512-48e0-a396-750b705f9480"},"vehicle_type_id":"4","last_reported":1784837406,"current_range_meters":33200,"station_id":"ce4bgjh2rcd13ifvqbg0","pricing_plan_id":"cebpf4jnsgd1na2vs0mg"},{"bike_id":"2f3c08d1-4cdc-4610-bf4b-5e5ab3853cf7","system_id":"levelo_inurba_marseille","lat":43.31488,"lon":5.39612,"is_reserved":false,"is_disabled":false,"rental_uris":{"android":"levelo://app?vid=2f3c08d1-4cdc-4610-bf4b-5e5ab3853cf7","ios":"levelo://app?vid=2f3c08d1-4cdc-4610-bf4b-5e5ab3853cf7"},"vehicle_type_id":"4","last_reported":1784837406,"current_range_meters":17200,"station_id":"","pricing_plan_id":"cebpf4jnsgd1na2vs0mg"},{"bike_id":"00f0c484-597d-4ed4-91e8-bee8c228882b","system_id":"levelo_inurba_marseille","lat":43.25086,"lon":5.39515,"is_reserved":false,"is_disabled":false,"rental_uris":{"android":"levelo://app?vid=00f0c484-597d-4ed4-91e8-bee8c228882b","ios":"levelo://app?vid=00f0c484-597d-4ed4-91e8-bee8c228882b"},"vehicle_type_id":"4","last_reported":1784837406,"current_range_meters":39200,"station_id":"ce4bhm12rcd13ifvqgkg","pricing_plan_id":"cebpf4jnsgd1na2vs0mg"},{"bike_id":"1164b65c-5c9e-4dbc-b0c4-e4c9a3ca9e39","system_id":"levelo_inurba_marseille","lat":43.28352,"lon":5.38118,"is_reserved":false,"is_disabled":false,"rental_uris":{"android":"levelo://app?vid=1164b65c-5c9e-4dbc-b0c4-e4c9a3ca9e39","ios":"levelo://app?vid=1164b65c-5c9e-4dbc-b0c4-e4c9a3ca9e39"},"vehicle_type_id":"4","last_reported":1784837406,"current_range_meters":35200,"station_id":"ce4bh412rcd13ifvqdr0","pricing_plan_id":"cebpf4jnsgd1na2vs0mg"},{"bike_id":"ee76bc30-36d7-42f2-8939-33784c38e005","system_id":"levelo_inurba_marseille","lat":43.23519,"lon":5.36006,"is_reserved":false,"is_disabled":false,"rental_uris":{"android":"levelo://app?vid=ee76bc30-36d7-42f2-8939-33784c38e005","ios":"levelo://app?vid=ee76bc30-36d7-42f2-8939-33784c38e005"},"vehicle_type_id":"4","last_reported":1784837406,"current_range_meters":4400,"station_id":"","pricing_plan_id":"cebpf4jnsgd1na2vs0mg"},{"bike_id":"4871f915-bca7-49ea-9398-4e2a69e50f8c","system_id":"levelo_inurba_marseille","lat":43.28399,"lon":5.34986,"is_reserved":false,"is_disabled":false,"rental_uris":{"android":"levelo://app?vid=4871f915-bca7-49ea-9398-4e2a69e50f8c","ios":"levelo://app?vid=4871f915-bca7-49ea-9398-4e2a69e50f8c"},"vehicle_type_id":"4","last_reported":1784837406,"current_range_meters":38800,"station_id":"ce4bhbh2rcd13ifvqepg","pricing_plan_id":"cebpf4jnsgd1na2vs0mg"},{"bike_id":"d1b66825-c158-457e-a6ca-20015eb28f13","system_id":"levelo_inurba_marseille","lat":43.33785,"lon":5.37513,"is_reserved":false,"is_disabled":false,"rental_uris":{"android":"levelo://app?vid=d1b66825-c158-457e-a6ca-20015eb28f13","ios":"levelo://app?vid=d1b66825-c158-457e-a6ca-20015eb28f13"},"vehicle_type_id":"4","last_reported":1784837406,"current_range_meters":11600,"station_id":"","pricing_plan_id":"cebpf4jnsgd1na2vs0mg"},{"bike_id":"1ae20384-5ccd-4145-9a1d-f626b16c7a9e","system_id":"levelo_inurba_marseille","lat":43.31159,"lon":5.46393,"is_reserved":false,"is_disabled":false,"rental_uris":{"android":"levelo://app?vid=1ae20384-5ccd-4145-9a1d-f626b16c7a9e","ios":"levelo://app?vid=1ae20384-5ccd-4145-9a1d-f626b16c7a9e"},"vehicle_type_id":"4","last_reported":1784837406,"current_range_meters":4400,"station_id":"","pricing_plan_id":"cebpf4jnsgd1na2vs0mg"},{"bike_id":"c5032ade-04c2-4ad9-acd6-0c757f219d04","system_id":"levelo_inurba_marseille","lat":43.31887,"lon":5.3676,"is_reserved":false,"is_disabled":false,"rental_uris":{"android":"levelo://app?vid=c5032ade-04c2-4ad9-acd6-0c757f219d04","ios":"levelo://app?vid=c5032ade-04c2-4ad9-acd6-0c757f219d04"},"vehicle_type_id":"4","last_reported":1784837406,"current_range_meters":8000,"station_id":"st_d6o2h0d0559c73evc1b0","pricing_plan_id":"cebpf4jnsgd1na2vs0mg"},{"bike_id":"479a25b1-c1db-4e38-9802-13b8f5b183f0","system_id":"levelo_inurba_marseille","lat":43.28468,"lon":5.48403,"is_reserved":false,"is_disabled":false,"rental_uris":{"android":"levelo://app?vid=479a25b1-c1db-4e38-9802-13b8f5b183f0","ios":"levelo://app?vid=479a25b1-c1db-4e38-9802-13b8f5b183f0"},"vehicle_type_id":"4","last_reported":1784837406,"current_range_meters":26800,"station_id":"st_d3svhcjqgbts73a3dn0g","pricing_plan_id":"cebpf4jnsgd1na2vs0mg"},{"bike_id":"5ba3de10-889b-4152-aef4-4bff1e010d26","system_id":"levelo_inurba_marseille","lat":43.32113,"lon":5.36769,"is_reserved":false,"is_disabled":false,"rental_uris":{"android":"levelo://app?vid=5ba3de10-889b-4152-aef4-4bff1e010d26","ios":"levelo://app?vid=5ba3de10-889b-4152-aef4-4bff1e010d26"},"vehicle_type_id":"4","last_reported":1784837406,"current_range_meters":8800,"station_id":"ce4bhrh2rcd13ifvqhug","pricing_plan_id":"cebpf4jnsgd1na2vs0mg"},{"bike_id":"4a44625a-98e7-4ffe-9d7a-43dbdd22c4d2","system_id":"levelo_inurba_marseille","lat":43.31437,"lon":5.37383,"is_reserved":false,"is_disabled":true,"rental_uris":{"android":"levelo://app?vid=4a44625a-98e7-4ffe-9d7a-43dbdd22c4d2","ios":"levelo://app?vid=4a44625a-98e7-4ffe-9d7a-43dbdd22c4d2"},"vehicle_type_id":"4","last_reported":1784837406,"current_range_meters":0,"station_id":"","pricing_plan_id":"cebpf4jnsgd1na2vs0mg"},{"bike_id":"0efcef29-102d-4c99-9588-0091c6994253","system_id":"levelo_inurba_marseille","lat":43.23375,"lon":5.4128,"is_reserved":false,"is_disabled":false,"rental_uris":{"android":"levelo://app?vid=0efcef29-102d-4c99-9588-0091c6994253","ios":"levelo://app?vid=0efcef29-102d-4c99-9588-0091c6994253"},"vehicle_type_id":"4","last_reported":1784837406,"current_range_meters":38400,"station_id":"st_d75pvndhf9lc73cqq3eg","pricing_plan_id":"cebpf4jnsgd1na2vs0mg"},{"bike_id":"c25fe85c-7161-42c5-befd-99612fa43308","system_id":"levelo_inurba_marseille","lat":43.28109,"lon":5.3784,"is_reserved":false,"is_disabled":false,"rental_uris":{"android":"levelo://app?vid=c25fe85c-7161-42c5-befd-99612fa43308","ios":"levelo://app?vid=c25fe85c-7161-42c5-befd-99612fa43308"},"vehicle_type_id":"4","last_reported":1784837406,"current_range_meters":34000,"station_id":"ce4bha12rcd13ifvqee0","pricing_plan_id":"cebpf4jnsgd1na2vs0mg"},{"bike_id":"5a9abbc8-0280-47d8-900a-029568d5f37c","system_id":"levelo_inurba_marseille","lat":43.32402,"lon":5.42655,"is_reserved":false,"is_disabled":false,"rental_uris":{"android":"levelo://app?vid=5a9abbc8-0280-47d8-900a-029568d5f37c","ios":"levelo://app?vid=5a9abbc8-0280-47d8-900a-029568d5f37c"},"vehicle_type_id":"4","last_reported":1784837406,"current_range_meters":16400,"station_id":"","pricing_plan_id":"cebpf4jnsgd1na2vs0mg"},{"bike_id":"cc8568ab-2679-4305-9add-20ef1e360289","system_id":"levelo_inurba_marseille","lat":43.33784,"lon":5.37518,"is_reserved":false,"is_disabled":false,"rental_uris":{"android":"levelo://app?vid=cc8568ab-2679-4305-9add-20ef1e360289","ios":"levelo://app?vid=cc8568ab-2679-4305-9add-20ef1e360289"},"vehicle_type_id":"4","last_reported":1784837406,"current_range_meters":28800,"station_id":"","pricing_plan_id":"cebpf4jnsgd1na2vs0mg"},{"bike_id":"17562a47-532d-4263-9fc1-d1099f0943ed","system_id":"levelo_inurba_marseille","lat":43.2957,"lon":5.37521,"is_reserved":false,"is_disabled":false,"rental_uris":{"android":"levelo://app?vid=17562a47-532d-4263-9fc1-d1099f0943ed","ios":"levelo://app?vid=17562a47-532d-4263-9fc1-d1099f0943ed"},"vehicle_type_id":"4","last_reported":1784837406,"current_range_meters":6800,"station_id":"ce4bgh92rcd13ifvqb50","pricing_plan_id":"cebpf4jnsgd1na2vs0mg"},{"bike_id":"80f2fcef-357e-49cd-aa72-dbf1de6d4695","system_id":"levelo_inurba_marseille","lat":43.31896,"lon":5.36805,"is_reserved":false,"is_disabled":false,"rental_uris":{"android":"levelo://app?vid=80f2fcef-357e-49cd-aa72-dbf1de6d4695","ios":"levelo://app?vid=80f2fcef-357e-49cd-aa72-dbf1de6d4695"},"vehicle_type_id":"4","last_reported":1784837406,"current_range_meters":13600,"station_id":"st_d6o2h0d0559c73evc1b0","pricing_plan_id":"cebpf4jnsgd1na2vs0mg"},{"bike_id":"8a509770-4637-4eb1-b710-97fc2dddc7d5","system_id":"levelo_inurba_marseille","lat":43.2958,"lon":5.37515,"is_reserved":false,"is_disabled":false,"rental_uris":{"android":"levelo://app?vid=8a509770-4637-4eb1-b710-97fc2dddc7d5","ios":"levelo://app?vid=8a509770-4637-4eb1-b710-97fc2dddc7d5"},"vehicle_type_id":"4","last_reported":1784837406,"current_range_meters":12800,"station_id":"","pricing_plan_id":"cebpf4jnsgd1na2vs0mg"},{"bike_id":"f8243129-26e3-4009-a678-84f35758802d","system_id":"levelo_inurba_marseille","lat":43.24071,"lon":5.37764,"is_reserved":false,"is_disabled":false,"rental_uris":{"android":"levelo://app?vid=f8243129-26e3-4009-a678-84f35758802d","ios":"levelo://app?vid=f8243129-26e3-4009-a678-84f35758802d"},"vehicle_type_id":"4","last_reported":1784837406,"current_range_meters":38800,"station_id":"ce4bhnp2rcd13ifvqgvg","pricing_plan_id":"cebpf4jnsgd1na2vs0mg"},{"bike_id":"97ca20bd-f418-4306-80f4-f5741be0c595","system_id":"levelo_inurba_marseille","lat":43.24626,"lon":5.43147,"is_reserved":false,"is_disabled":false,"rental_uris":{"android":"levelo://app?vid=97ca20bd-f418-4306-80f4-f5741be0c595","ios":"levelo://app?vid=97ca20bd-f418-4306-80f4-f5741be0c595"},"vehicle_type_id":"4","last_reported":1784837406,"current_range_meters":4000,"station_id":"st_d2m6c4gdas8pm72e190g","pricing_plan_id":"cebpf4jnsgd1na2vs0mg"},{"bike_id":"aec9aabb-6a78-4988-af6e-9b2a96256088","system_id":"levelo_inurba_marseille","lat":43.28197,"lon":5.39052,"is_reserved":false,"is_disabled":true,"rental_uris":{"android":"levelo://app?vid=aec9aabb-6a78-4988-af6e-9b2a96256088","ios":"levelo://app?vid=aec9aabb-6a78-4988-af6e-9b2a96256088"},