{"last_updated":1737043850,"ttl":60,"version":"2.2","data":{"bikes":[{"bike_id":"97285aa9-5761-409a-831f-0e86e3084153","system_id":"levelo_inurba_marseille","lat":43.31327,"lon":5.39692,"is_reserved":false,"is_disabled":false,"rental_uris":{"android":"levelo://app?vid=97285aa9-5761-409a-831f-0e86e3084153","ios":"levelo://app?vid=97285aa9-5761-409a-831f-0e86e3084153"},"vehicle_type_id":"4","last_reported":1737043850,"current_range_meters":14400,"station_id":"ce4bgvp2rcd13ifvqcu0","pricing_plan_id":"cebpf4jnsgd1na2vs0mg"},{"bike_id":"242bc7dd-aa99-4cef-aab6-ca205a940f64","system_id":"levelo_inurba_marseille","lat":43.24069,"lon":5.37763,"is_reserved":false,"is_disabled":false,"rental_uris":{"android":"levelo://app?vid=242bc7dd-aa99-4cef-aab6-ca205a940f64","ios":"levelo://app?vid=242bc7dd-aa99-4cef-aab6-ca205a940f64"},"vehicle_type_id":"4","last_reported":1737043850,"current_range_meters":8800,"station_id":"ce4bhnp2rcd13ifvqgvg","pricing_plan_id":"cebpf4jnsgd1na2vs0mg"},{"bike_id":"bb0e8f74-6023-4027-9e50-8377470e002f","system_id":"levelo_inurba_marseille","lat":43.3111,"lon":5.37765,"is_reserved":false,"is_disabled":false,"rental_uris":{"android":"levelo://app?vid=bb0e8f74-6023-4027-9e50-8377470e002f","ios":"levelo://app?vid=bb0e8f74-6023-4027-9e50-8377470e002f"},"vehicle_type_id":"4","last_reported":1737043850,"current_range_meters":27200,"station_id":"ce4bgt92rcd13ifvqcg0","pricing_plan_id":"cebpf4jnsgd1na2vs0mg"},{"bike_id":"452c98f5-e0c1-4fd8-9ef5-eb1656e0e828","system_id":"levelo_inurba_marseille","lat":43.32548,"lon":5.41435,"is_reserved":false,"is_disabled":false,"rental_uris":{"android":"levelo://app?vid=452c98f5-e0c1-4fd8-9ef5-eb1656e0e828","ios":"levelo://app?vid=452c98f5-e0c1-4fd8-9ef5-eb1656e0e828"},"vehicle_type_id":"4","last_reported":1737043850,"current_range_meters":30400,"station_id":"ce4bhq12rcd13ifvqhhg","pricing_plan_id":"cebpf4jnsgd1na2vs0mg"},{"bike_id":"6bf20a36-cd76-4558-a422-f3890e620e17","system_id":"levelo_inurba_marseille","lat":43.27614,"lon":5.36107,"is_reserved":false,"is_disabled":false,"rental_uris":{"android":"levelo://app?vid=6bf20a36-cd76-4558-a422-f3890e620e17","ios":"levelo://app?vid=6bf20a36-cd76-4558-a422-f3890e620e17"},"vehicle_type_id":"4","last_reported":1737043850,"current_range_meters":36400,"station_id":"ce4bgj92rcd13ifvqbe0","pricing_plan_id":"cebpf4jnsgd1na2vs0mg"},{"bike_id":"a39c946b-f215-435b-b58f-d6dc4c7b0aaf","system_id":"levelo_inurba_marseille","lat":43.2815,"lon":5.42649,"is_reserved":false,"is_disabled":true,"rental_uris":{"android":"levelo://app?vid=a39c946b-f215-435b-b58f-d6dc4c7b0aaf","ios":"levelo://app?vid=a39c946b-f215-435b-b58f-d6dc4c7b0aaf"},"vehicle_type_id":"4","last_reported":1737043850,"current_range_meters":37600,"station_id":"ce4bhnh2rcd13ifvqgug","pricing_plan_id":"cebpf4jnsgd1na2vs0mg"},{"bike_id":"aeb01433-72f0-4c54-89e0-214e7df3cca2","system_id":"levelo_inurba_marseille","lat":43.2962,"lon":5.37705,"is_reserved":false,"is_disabled":false,"rental_uris":{"android":"levelo://app?vid=aeb01433-72f0-4c54-89e0-214e7df3cca2","ios":"levelo://app?vid=aeb01433-72f0-4c54-89e0-214e7df3cca2"},"vehicle_type_id":"4","last_reported":1737043850,"current_range_meters":28800,"station_id":"ce4bgi92rcd13ifvqb90","pricing_plan_id":"cebpf4jnsgd1na2vs0mg"},{"bike_id":"a9302831-a977-42c7-a552-458f0d4a525a","system_id":"levelo_inurba_marseille","lat":43.29138,"lon":5.38087,"is_reserved":false,"is_disabled":false,"rental_uris":{"android":"levelo://app?vid=a9302831-a977-42c7-a552-458f0d4a525a","ios":"levelo://app?vid=a9302831-a977-42c7-a552-458f0d4a525a"},"vehicle_type_id":"4","last_reported":1737043850,"current_range_meters":32000,"station_id":"","pricing_plan_id":"cebpf4jnsgd1na2vs0mg"},{"bike_id":"25b01166-8b4c-49d6-8386-8f83eb8111f5","system_id":"levelo_inurba_marseille","lat":43.25815,"lon":5.39434,"is_reserved":false,"is_disabled":false,"rental_uris":{"android":"levelo://app?vid=25b01166-8b4c-49d6-8386-8f83eb8111f5","ios":"levelo://app?vid=25b01166-8b4c-49d6-8386-8f83eb8111f5"},"vehicle_type_id":"4","last_reported":1737043850,"current_range_meters":8000,"station_id":"ce4bhip2rcd13ifvqft0","pricing_plan_id":"cebpf4jnsgd1na2vs0mg"},{"bike_id":"5632dcca-c5de-4065-b8af-b1db6a53dd43","system_id":"levelo_inurba_marseille","lat":43.25118,"lon":5.4032,"is_reserved":false,"is_disabled":false,"rental_uris":{"android":"levelo://app?vid=5632dcca-c5de-4065-b8af-b1db6a53dd43","ios":"levelo://app?vid=5632dcca-c5de-4065-b8af-b1db6a53dd43"},"vehicle_type_id":"4","last_reported":1737043850,"current_range_meters":18000,"station_id":"ce4bhlh2rcd13ifvqgig","pricing_plan_id":"cebpf4jnsgd1na2vs0mg"},{"bike_id":"c9cddebf-20e1-4b64-be5f-e96d2d7ef051","system_id":"levelo_inurba_marseille","lat":43.28153,"lon":5.42641,"is_reserved":false,"is_disabled":false,"rental_uris":{"android":"levelo://app?vid=c9cddebf-20e1-4b64-be5f-e96d2d7ef051","ios":"levelo://app?vid=c9cddebf-20e1-4b64-be5f-e96d2d7ef051"},"vehicle_type_id":"4","last_reported":1737043850,"current_range_meters":34000,"station_id":"ce4bhnh2rcd13ifvqgug","pricing_plan_id":"cebpf4jnsgd1na2vs0mg"},{"bike_id":"8800286a-027a-4841-87ae-71bd90fd9e19","system_id":"levelo_inurba_marseille","lat":43.28665,"lon":5.36346,"is_reserved":false,"is_disabled":false,"rental_uris":{"android":"levelo://app?vid=8800286a-027a-4841-87ae-71bd90fd9e19","ios":"levelo://app?vid=8800286a-027a-4841-87ae-71bd90fd9e19"},"vehicle_type_id":"4","last_reported":1737043850,"current_range_meters":28000,"station_id":"ce4bhah2rcd13ifvqej0","pricing_plan_id":"cebpf4jnsgd1na2vs0mg"},{"bike_id":"6383fb74-1ee1-40a6-bd29-dc827f3599e3","system_id":"levelo_inurba_marseille","lat":43.28971,"lon":5.37831,"is_reserved":false,"is_disabled":false,"rental_uris":{"android":"levelo://app?vid=6383fb74-1ee1-40a6-bd29-dc827f3599e3","ios":"levelo://app?vid=6383fb74-1ee1-40a6-bd29-dc827f3599e3"},"vehicle_type_id":"4","last_reported":1737043850,"current_range_meters":28000,"station_id":"ce4bh9p2rcd13ifvqed0","pricing_plan_id":"cebpf4jnsgd1na2vs0mg"},{"bike_id":"19cba082-895d-4d51-80ab-750093bbbcf1","system_id":"levelo_inurba_marseille","lat":43.29255,"lon":5.38454,"is_reserved":false,"is_disabled":false,"rental_uris":{"android":"levelo://app?vid=19cba082-895d-4d51-80ab-750093bbbcf1","ios":"levelo://app?vid=19cba082-895d-4d51-80ab-750093bbbcf1"},"vehicle_type_id":"4","last_reported":1737043850,"current_range_meters":38400,"station_id":"ce4bh692rcd13ifvqea0","pricing_plan_id":"cebpf4jnsgd1na2vs0mg"},{"bike_id":"634b754a-9444-4632-8f77-50de6658abc8","system_id":"levelo_inurba_marseille","lat":43.2797,"lon":5.3872,"is_reserved":false,"is_disabled":false,"rental_uris":{"android":"levelo://app?vid=634b754a-9444-4632-8f77-50de6658abc8","ios":"levelo://app?vid=634b754a-9444-4632-8f77-50de6658abc8"},"vehicle_type_id":"4","last_reported":1737043850,"current_range_meters":20400,"station_id":"ce4bhg12rcd13ifvqf80","pricing_plan_id":"cebpf4jnsgd1na2vs0mg"},{"bike_id":"c4fc9679-1008-473b-9e9b-26f1ed62312e","system_id":"levelo_inurba_marseille","lat":43.22927,"lon":5.35382,"is_reserved":false,"is_disabled":false,"rental_uris":{"android":"levelo://app?vid=c4fc9679-1008-473b-9e9b-26f1ed62312e","ios":"levelo://app?vid=c4fc9679-1008-473b-9e9b-26f1ed62312e"},"vehicle_type_id":"4","last_reported":1737043850,"current_range_meters":22800,"station_id":"cpo3532slgdg3j2ikp40","pricing_plan_id":"cebpf4jnsgd1na2vs0mg"},{"bike_id":"4ae20c8e-0a70-4305-aef8-33b51d7cc6a2","system_id":"levelo_inurba_marseille","lat":43.30135,"lon":5.38781,"is_reserved":false,"is_disabled":false,"rental_uris":{"android":"levelo://app?vid=4ae20c8e-0a70-4305-aef8-33b51d7cc6a2","ios":"levelo://app?vid=4ae20c8e-0a70-4305-aef8-33b51d7cc6a2"},"vehicle_type_id":"4","last_reported":1737043850,"current_range_meters":25600,"station_id":"ce4bghh2rcd13ifvqb60","pricing_plan_id":"cebpf4jnsgd1na2vs0mg"},{"bike_id":"fe67188a-1916-443a-acf8-6efb1f8f6d0b","system_id":"levelo_inurba_marseille","lat":43.28273,"lon":5.3507,"is_reserved":false,"is_disabled":false,"rental_uris":{"android":"levelo://app?vid=fe67188a-1916-443a-acf8-6efb1f8f6d0b","ios":"levelo://app?vid=fe67188a-1916-443a-acf8-6efb1f8f6d0b"},"vehicle_type_id":"4","last_reported":1737043850,"current_range_meters":38000,"station_id":"ce4bhbp2rcd13ifvqerg","pricing_plan_id":"cebpf4jnsgd1na2vs0mg"},{"bike_id":"0e842b39-329d-48e2-b781-7e3babc96cf4","system_id":"levelo_inurba_marseille","lat":43.229357,"lon":5.353853,"is_reserved":false,"is_disabled":false,"rental_uris":{"android":"levelo://app?vid=0e842b39-329d-48e2-b781-7e3babc96cf4","ios":"levelo://app?vid=0e842b39-329d-48e2-b781-7e3babc96cf4"},"vehicle_type_id":"4","last_reported":1737043850,"current_range_meters":14400,"station_id":"cpo3532slgdg3j2ikp40","pricing_plan_id":"cebpf4jnsgd1na2vs0mg"},{"bike_id":"2e7c58f0-f87f-443e-8de0-f219f58aa275","system_id":"levelo_inurba_marseille","lat":43.29843,"lon":5.36267,"is_reserved":false,"is_disabled":false,"rental_uris":{"android":"levelo://app?vid=2e7c58f0-f87f-443e-8de0-f219f58aa275","ios":"levelo://app?vid=2e7c58f0-f87f-443e-8de0-f219f58aa275"},"vehicle_type_id":"4","last_reported":1737043850,"current_range_meters":11200,"station_id":"ce4bgpp2rcd13ifvqc3g","pricing_plan_id":"cebpf4jnsgd1na2vs0mg"},{"bike_id":"99edffd1-a5ba-4759-befa-f12a00faec89","system_id":"levelo_inurba_marseille","lat":43.28566,"lon":5.39484,"is_reserved":false,"is_disabled":true,"rental_uris":{"android":"levelo://app?vid=99edffd1-a5ba-4759-befa-f12a00faec89","ios":"levelo://app?vid=99edffd1-a5ba-4759-befa-f12a00faec89"},"vehicle_type_id":"4","last_reported":1737043850,"current_range_meters":14400,"station_id":"ce4bh292rcd13ifvqdg0","pricing_plan_id":"cebpf4jnsgd1na2vs0mg"},{"bike_id":"eedca34a-74d3-4a3c-b3ef-ad0a55602930","system_id":"levelo_inurba_marseille","lat":43.29889,"lon":5.39731,"is_reserved":false,"is_disabled":true,"rental_uris":{"android":"levelo://app?vid=eedca34a-74d3-4a3c-b3ef-ad0a55602930","ios":"levelo://app?vid=eedca34a-74d3-4a3c-b3ef-ad0a55602930"},"vehicle_type_id":"4","last_reported":1737043850,"current_range_meters":800,"station_id":"ce4bh0h2rcd13ifvqd50","pricing_plan_id":"cebpf4jnsgd1na2vs0mg"},{"bike_id":"a89de975-90d3-4d72-b7fc-8c51198bb937","system_id":"levelo_inurba_marseille","lat":43.27667,"lon":5.38923,"is_reserved":false,"is_disabled":false,"rental_uris":{"android":"levelo://app?vid=a89de975-90d3-4d72-b7fc-8c51198bb937","ios":"levelo://app?vid=a89de975-90d3-4d72-b7fc-8c51198bb937"},"vehicle_type_id":"4","last_reported":1737043850,"current_range_meters":12400,"station_id":"ce4bhi12rcd13ifvqfo0","pricing_plan_id":"cebpf4jnsgd1na2vs0mg"},{"bike_id":"65a397c1-07b1-4480-be0a-2ce730712cf5","system_id":"levelo_inurba_marseille","lat":43.271712,"lon":5.40995,"is_reserved":false,"is_disabled":false,"rental_uris":{"android":"levelo://app?vid=65a397c1-07b1-4480-be0a-2ce730712cf5","ios":"levelo://app?vid=65a397c1-07b1-4480-be0a-2ce730712cf5"},"vehicle_type_id":"4","last_reported":1737043850,"current_range_meters":27600,"station_id":"ce4bhl12rcd13ifvqgf0","pricing_plan_id":"cebpf4jnsgd1na2vs0mg"},{"bike_id":"c47ce6f2-1e7c-4a77-90e6-eadafd379e10","system_id":"levelo_inurba_marseille","lat":43.26573,"lon":5.39017,"is_reserved":false,"is_disabled":false,"rental_uris":{"android":"levelo://app?vid=c47ce6f2-1e7c-4a77-90e6-eadafd379e10","ios":"levelo://app?vid=c47ce6f2-1e7c-4a77-90e6-eadafd379e10"},"vehicle_type_id":"4","last_reported":1737043850,"current_range_meters":38000,"station_id":"ce4bhe12rcd13ifvqf30","pricing_plan_id":"cebpf4jnsgd1na2vs0mg"},{"bike_id":"137fe8c5-9f1d-4761-9c07-e85f258449f5","system_id":"levelo_inurba_marseille","lat":43.28476,"lon":5.38563,"is_reserved":false,"is_disabled":false,"rental_uris":{"android":"levelo://app?vid=137fe8c5-9f1d-4761-9c07-e85f258449f5","ios":"levelo://app?vid=137fe8c5-9f1d-4761-9c07-e85f258449f5"},"vehicle_type_id":"4","last_reported":1737043850,"current_range_meters":32400,"station_id":"ce4bh8p2rcd13ifvqeb0","pricing_plan_id":"cebpf4jnsgd1na2vs0mg"},{"bike_id":"70199fc2-df6a-4ec4-910c-a63d7bb31e5e","system_id":"levelo_inurba_marseille","lat":43.29197,"lon":5.35804,"is_reserved":false,"is_disabled":false,"rental_uris":{"android":"levelo://app?vid=70199fc2-df6a-4ec4-910c-a63d7bb31e5e","ios":"levelo://app?vid=70199fc2-df6a-4ec4-910c-a63d7bb31e5e"},"vehicle_type_id":"4","last_reported":1737043850,"current_range_meters":30000,"station_id":"ce4bhb12rcd13ifvqel0","pricing_plan_id":"cebpf4jnsgd1na2vs0mg"},{"bike_id":"f16f80e0-f98d-4247-8e0c-f7bbc2f9c83f","system_id":"levelo_inurba_marseille","lat":43.30305,"lon":5.36892,"is_reserved":false,"is_disabled":false,"rental_uris":{"android":"levelo://app?vid=f16f80e0-f98d-4247-8e0c-f7bbc2f9c83f","ios":"levelo://app?vid=f16f80e0-f98d-4247-8e0c-f7bbc2f9c83f"},"vehicle_type_id":"4","last_reported":1737043850,"current_range_meters":30400,"station_id":"ce4bgqh2rcd13ifvqc5g","pricing_plan_id":"cebpf4jnsgd1na2vs0mg"},{"bike_id":"85b17b88-0932-436f-a3cd-d6633f9898b6","system_id":"levelo_inurba_marseille","lat":43.23177,"lon":5.39991,"is_reserved":false,"is_disabled":false,"rental_uris":{"android":"levelo://app?vid=85b17b88-0932-436f-a3cd-d6633f9898b6","ios":"levelo://app?vid=85b17b88-0932-436f-a3cd-d6633f9898b6"},"vehicle_type_id":"4","last_reported":1737043850,"current_range_meters":2000,"station_id":"ce4bhn12rcd13ifvqgqg","pricing_plan_id":"cebpf4jnsgd1na2vs0mg"},{"bike_id":"5fc1b6c0-8604-47be-9a91-81372cd3e354","system_id":"levelo_inurba_marseille","lat":43.31997,"lon":5.38144,"is_reserved":false,"is_disabled":false,"rental_uris":{"android":"levelo://app?vid=5fc1b6c0-8604-47be-9a91-81372cd3e354","ios":"levelo://app?vid=5fc1b6c0-8604-47be-9a91-81372cd3e354"},"vehicle_type_id":"4","last_reported":1737043850,"current_range_meters":38800,"station_id":"ce4bhr12rcd13ifvqhpg","pricing_plan_id":"cebpf4jnsgd1na2vs0mg"},{"bike_id":"d2ed35f8-7da5-4b4b-8781-01e92d76cd9e","system_id":"levelo_inurba_marseille","lat":43.2842,"lon":5.37515,"is_reserved":false,"is_disabled":false,"rental_uris":{"android":"levelo://app?vid=d2ed35f8-7da5-4b4b-8781-01e92d76cd9e","ios":"levelo://app?vid=d2ed35f8-7da5-4b4b-8781-01e92d76cd9e"},"vehicle_type_id":"4","last_reported":1737043850,"current_range_meters":5600,"station_id":"ce4bh412rcd13ifvqds0","pricing_plan_id":"cebpf4jnsgd1na2vs0mg"},{"bike_id":"b70e13b7-3391-4c0e-9f63-5b7868985b1d","system_id":"levelo_inurba_marseille","lat":43.29022,"lon":5.38647,"is_reserved":false,"is_disabled":false,"rental_uris":{"android":"levelo://app?vid=b70e13b7-3391-4c0e-9f63-5b7868985b1d","ios":"levelo://app?vid=b70e13b7-3391-4c0e-9f63-5b7868985b1d"},"vehicle_type_id":"4","last_reported":1737043850,"current_range_meters":38000,"station_id":"ce4bh4p2rcd13ifvqe0g","pricing_plan_id":"cebpf4jnsgd1na2vs0mg"},{"bike_id":"90ed37a9-d123-4ac9-9dc6-c4d9ff1c53ef","system_id":"levelo_inurba_marseille","lat":43.30531,"lon":5.3655,"is_reserved":false,"is_disabled":false,"rental_uris":{"android":"levelo://app?vid=90ed37a9-d123-4ac9-9dc6-c4d9ff1c53ef","ios":"levelo://app?vid=90ed37a9-d123-4ac9-9dc6-c4d9ff1c53ef"},"vehicle_type_id":"4","last_reported":1737043850,"current_range_meters":38800,"station_id":"ce4bgs12rcd13ifvqcag","pricing_plan_id":"cebpf4jnsgd1na2vs0mg"},{"bike_id":"507d7b19-702d-4bfb-8bc8-0fc6d8c1a3a4","system_id":"levelo_inurba_marseille","lat":43.29879,"lon":5.39733,"is_reserved":false,"is_disabled":false,"rental_uris":{"android":"levelo://app?vid=507d7b19-702d-4bfb-8bc8-0fc6d8c1a3a4","ios":"levelo://app?vid=507d7b19-702d-4bfb-8bc8-0fc6d8c1a3a4"},"vehicle_type_id":"4","last_reported":1737043850,"current_range_meters":38800,"station_id":"ce4bh0h2rcd13ifvqd50","pricing_plan_id":"cebpf4jnsgd1na2vs0mg"},{"bike_id":"5dc5ff4a-6f97-4551-b16e-6accac849217","system_id":"levelo_inurba_marseille","lat":43.30581,"lon":5.36666,"is_reserved":false,"is_disabled":false,"rental_uris":{"android":"levelo://app?vid=5dc5ff4a-6f97-4551-b16e-6accac849217","ios":"levelo://app?vid=5dc5ff4a-6f97-4551-b16e-6accac849217"},"vehicle_type_id":"4","last_reported":1737043850,"current_range_meters":37600,"station_id":"ce4bgrp2rcd13ifvqc9g","pricing_plan_id":"cebpf4jnsgd1na2vs0mg"},{"bike_id":"f7b36479-004c-471b-8a8d-311295e04458","system_id":"levelo_inurba_marseille","lat":43.30783,"lon":5.37635,"is_reserved":false,"is_disabled":false,"rental_uris":{"android":"levelo://app?vid=f7b36479-004c-471b-8a8d-311295e04458","ios":"levelo://app?vid=f7b36479-004c-471b-8a8d-311295e04458"},"vehicle_type_id":"4","last_reported":1737043850,"current_range_meters":27600,"station_id":"ce4bgv92rcd13ifvqcq0","pricing_plan_id":"cebpf4jnsgd1na2vs0mg"},{"bike_id":"ae6ec69a-9b0e-43e0-a28d-173f309613ee","system_id":"levelo_inurba_marseille","lat":43.29927,"lon":5.37447,"is_reserved":false,"is_disabled":false,"rental_uris":{"android":"levelo://app?vid=ae6ec69a-9b0e-43e0-a28d-173f309613ee","ios":"levelo://app?vid=ae6ec69a-9b0e-43e0-a28d-173f309613ee"},"vehicle_type_id":"4","last_reported":1737043850,"current_range_meters":27200,"station_id":"ce4bgjh2rcd13ifvqbg0","pricing_plan_id":"cebpf4jnsgd1na2vs0mg"},{"bike_id":"fa53afd0-c3c0-46c2-be7e-d056eb14f6b8","system_id":"levelo_inurba_marseille","lat":43.26064,"lon":5.39396,"is_reserved":false,"is_disabled":false,"rental_uris":{"android":"levelo://app?vid=fa53afd0-c3c0-46c2-be7e-d056eb14f6b8","ios":"levelo://app?vid=fa53afd0-c3c0-46c2-be7e-d056eb14f6b8"},"vehicle_type_id":"4","last_reported":1737043850,"current_range_meters":38800,"station_id":"ce4bhh92rcd13ifvqfj0","pricing_plan_id":"cebpf4jnsgd1na2vs0mg"},{"bike_id":"bf570212-0e3b-4bce-85fa-29c1011cfa2d","system_id":"levelo_inurba_marseille","lat":43.32487,"lon":5.36545,"is_reserved":false,"is_disabled":false,"rental_uris":{"android":"levelo://app?vid=bf570212-0e3b-4bce-85fa-29c1011cfa2d","ios":"levelo://app?vid=bf570212-0e3b-4bce-85fa-29c1011cfa2d"},"vehicle_type_id":"4","last_reported":1737043850,"current_range_meters":32400,"station_id":"ce4bhs12rcd13ifvqhvg","pricing_plan_id":"cebpf4jnsgd1na2vs0mg"},{"bike_id":"52d7b98b-2747-445f-a281-b137e3cecfea","system_id":"levelo_inurba_marseille","lat":43.29918,"lon":5.37465,"is_reserved":false,"is_disabled":false,"rental_uris":{"android":"levelo://app?vid=52d7b98b-2747-445f-a281-b137e3cecfea","ios":"levelo://app?vid=52d7b98b-2747-445f-a281-b137e3cecfea"},"vehicle_type_id":"4","last_reported":1737043850,"current_range_meters":31200,"station_id":"ce4bgjh2rcd13ifvqbg0","pricing_plan_id":"cebpf4jnsgd1na2vs0mg"},{"bike_id":"712992dd-47d2-4124-9a65-399995cae815","system_id":"levelo_inurba_marseille","lat":43.28842,"lon":5.39318,"is_reserved":false,"is_disabled":false,"rental_uris":{"android":"levelo://app?vid=712992dd-47d2-4124-9a65-399995cae815","ios":"levelo://app?vid=712992dd-47d2-4124-9a65-399995cae815"},"vehicle_type_id":"4","last_reported":1737043850,"current_range_meters":17200,"station_id":"ce4bh2p2rcd13ifvqdi0","pricing_plan_id":"cebpf4jnsgd1na2vs0mg"},{"bike_id":"155dbf4b-d6fe-46aa-9097-9994452a5158","system_id":"levelo_inurba_marseille","lat":43.23069,"lon":5.35493,"is_reserved":false,"is_disabled":false,"rental_uris":{"android":"levelo://app?vid=155dbf4b-d6fe-46aa-9097-9994452a5158","ios":"levelo://app?vid=155dbf4b-d6fe-46aa-9097-9994452a5158"},"vehicle_type_id":"4","last_reported":1737043850,"current_range_meters":8800,"station_id":"cpo3342slgdg3j2ifvpg","pricing_plan_id":"cebpf4jnsgd1na2vs0mg"},{"bike_id":"80bc6287-ce2b-4ae4-b9d5-67d3150daa6d","system_id":"levelo_inurba_marseille","lat":43.27178,"lon":5.40985,"is_reserved":false,"is_disabled":false,"rental_uris":{"android":"levelo://app?vid=80bc6287-ce2b-4ae4-b9d5-67d3150daa6d","ios":"levelo://app?vid=80bc6287-ce2b-4ae4-b9d5-67d3150daa6d"},"vehicle_type_id":"4","last_reported":1737043850,"current_range_meters":28400,"station_id":"ce4bhl12rcd13ifvqgf0","pricing_plan_id":"cebpf4jnsgd1na2vs0mg"},{"bike_id":"98342f93-7bf2-4304-817a-494cc685e2f4","system_id":"levelo_inurba_marseille","lat":43.33736,"lon":5.3918,"is_reserved":false,"is_disabled":false,"rental_uris":{"android":"levelo://app?vid=98342f93-7bf2-4304-817a-494cc685e2f4","ios":"levelo://app?vid=98342f93-7bf2-4304-817a-494cc685e2f4"},"vehicle_type_id":"4","last_reported":1737043850,"current_range_meters":38800,"station_id":"ce4bhr92rcd13ifvqhsg","pricing_plan_id":"cebpf4jnsgd1na2vs0mg"},{"bike_id":"0e148415-5fb7-4b85-bd8d-2efc964f268e","system_id":"levelo_inurba_marseille","lat":43.33733,"lon":5.39186,"is_reserved":false,"is_disabled":false,"rental_uris":{"android":"levelo://app?vid=0e148415-5fb7-4b85-bd8d-2efc964f268e","ios":"levelo://app?vid=0e148415-5fb7-4b85-bd8d-2efc964f268e"},"vehicle_type_id":"4","last_reported":1737043850,"current_range_meters":38400,"station_id":"ce4bhr92rcd13ifvqhsg","pricing_plan_id":"cebpf4jnsgd1na2vs0mg"},{"bike_id":"b5f30258-5ae8-4337-8b7b-bc959cdf13dd","system_id":"levelo_inurba_marseille","lat":43.31075,"lon":5.38354,"is_reserved":false,"is_disabled":false,"rental_uris":{"android":"levelo://app?vid=b5f30258-5ae8-4337-8b7b-bc959cdf13dd","ios":"levelo://app?vid=b5f30258-5ae8-4337-8b7b-bc959cdf13dd"},"vehicle_type_id":"4","last_reported":1737043850,"current_range_meters":36800,"station_id":"ce4bgv92rcd13ifvqcr0","pricing_plan_id":"cebpf4jnsgd1na2vs0mg"},{"bike_id":"160c4de7-7f2e-4ddd-89ef-4765ad4546e8","system_id":"levelo_inurba_marseille","lat":43.28983,"lon":5.35596,"is_reserved":false,"is_disabled":false,"rental_uris":{"android":"levelo://app?vid=160c4de7-7f2e-4ddd-89ef-4765ad4546e8","ios":"levelo://app?vid=160c4de7-7f2e-4ddd-89ef-4765ad4546e8"},"vehicle_type_id":"4","last_reported":1737043850,"current_range_meters":37600,"station_id":"ce4bhb92rcd13ifvqen0","pricing_plan_id":"cebpf4jnsgd1na2vs0mg"},{"bike_id":"1b9663f9-d149-4574-b962-a0f3722f3a32","system_id":"levelo_inurba_marseille","lat":43.26945,"lon":5.4026,"is_reserved":false,"is_disabled":false,"rental_uris":{"android":"levelo://app?vid=1b9663f9-d149-4574-b962-a0f3722f3a32","ios":"levelo://app?vid=1b9663f9-d149-4574-b962-a0f3722f3a32"},"vehicle_type_id":"4","last_reported":1737043850,"current_range_meters":37600,"station_id":"cjm6bp8fraef2m0cb0m0","pricing_plan_id":"cebpf4jnsgd1na2vs0mg"},{"bike_id":"baf753fc-dc54-426d-a32c-0f27b8c91385","system_id":"levelo_inurba_marseille","lat":43.26764,"lon":5.39422,"is_reserved":false,"is_disabled":false,"rental_uris":{"android":"levelo://app?vid=baf753fc-dc54-426d-a32c-0f27b8c91385","ios":"levelo://app?vid=baf753fc-dc54-426d-a32c-0f27b8c91385"},"vehicle_type_id":"4","last_reported":1737043850,"current_range_meters":13600,"station_id":"ce4bhh12rcd13ifvqfg0","pricing_plan_id":"cebpf4jnsgd1na2vs0mg"},{"bike_id":"6851d26c-9ce1-4383-9e14-ab406b67b568","system_id":"levelo_inurba_marseille","lat":43.26496,"lon":5.39536,"is_reserved":false,"is_disabled":false,"rental_uris":{"android":"levelo://app?vid=6851d26c-9ce1-4383-9e14-ab406b67b568","ios":"levelo://app?vid=6851d26c-9ce1-4383-9e14-ab406b67b568"},"vehicle_type_id":"4","last_reported":1737043850,"current_range_meters":8800,"station_id":"ce4bhi12rcd13ifvqfq0","pricing_plan_id":"cebpf4jnsgd1na2vs0mg"},{"bike_id":"d9b69540-cab5-4dab-af6f-c02ba35d9ede","system_id":"levelo_inurba_marseille","lat":43.3205,"lon":5.41537,"is_reserved":false,"is_disabled":false,"rental_uris":{"android":"levelo://app?vid=d9b69540-cab5-4dab-af6f-c02ba35d9ede","ios":"levelo://app?vid=d9b69540-cab5-4dab-af6f-c02ba35d9ede"},"vehicle_type_id":"4","last_reported":1737043850,"current_range_meters":31200,"station_id":"ce4bhq92rcd13ifvqhkg","pricing_plan_id":"cebpf4jnsgd1na2vs0mg"},{"bike_id":"4d67d339-e8e1-4f5a-8086-1d6e90a5223c","system_id":"levelo_inurba_marseille","lat":43.31444,"lon":5.37606,"is_reserved":false,"is_disabled":false,"rental_uris":{"android":"levelo://app?vid=4d67d339-e8e1-4f5a-8086-1d6e90a5223c","ios":"levelo://app?vid=4d67d339-e8e1-4f5a-8086-1d6e90a5223c"},"vehicle_type_id":"4","last_reported":1737043850,"current_range_meters":38800,"station_id":"","pricing_plan_id":"cebpf4jnsgd1na2vs0mg"},{"bike_id":"e3f33054-34fe-4fef-9837-c639eb24b77b","system_id":"levelo_inurba_marseille","lat":43.30804,"lon":5.38155,"is_reserved":false,"is_disabled":false,"rental_uris":{"android":"levelo://app?vid=e3f33054-34fe-4fef-9837-c639eb24b77b","ios":"levelo://app?vid=e3f33054-34fe-4fef-9837-c639eb24b77b"},"vehicle_type_id":"4","last_reported":1737043850,"current_range_meters":26000,"station_id":"ce4bgt12rcd13ifvqce0","pricing_plan_id":"cebpf4jnsgd1na2vs0mg"},{"bike_id":"2c839bfc-228b-4afd-9c45-0e54b8f36672","system_id":"levelo_inurba_marseille","lat":43.24652,"lon":5.38898,"is_reserved":false,"is_disabled":false,"rental_uris":{"android":"levelo://app?vid=2c839bfc-228b-4afd-9c45-0e54b8f36672","ios":"levelo://app?vid=2c839bfc-228b-4afd-9c45-0e54b8f36672"},"vehicle_type_id":"4","last_reported":1737043850,"current_range_meters":38800,"station_id":"ce4bhg12rcd13ifvqf60","pricing_plan_id":"cebpf4jnsgd1na2vs0mg"},{"bike_id":"b1ddeadc-31f1-42f9-9a80-512818b293b3","system_id":"levelo_inurba_marseille","lat":43.29417,"lon":5.38627,"is_reserved":false,"is_disabled":false,"rental_uris":{"android":"levelo://app?vid=b1ddeadc-31f1-42f9-9a80-512818b293b3","ios":"levelo://app?vid=b1ddeadc-31f1-42f9-9a80-512818b293b3"},"vehicle_type_id":"4","last_reported":1737043850,"current_range_meters":39200,"station_id":"ce4bh2h2rcd13ifvqdh0","pricing_plan_id":"cebpf4jnsgd1na2vs0mg"},{"bike_id":"707ed4b6-32ec-456f-af9b-99b730072abe","system_id":"levelo_inurba_marseille","lat":43.29578,"lon":5.37515,"is_reserved":false,"is_disabled":false,"rental_uris":{"android":"levelo://app?vid=707ed4b6-32ec-456f-af9b-99b730072abe","ios":"levelo://app?vid=707ed4b6-32ec-456f-af9b-99b730072abe"},"vehicle_type_id":"4","last_reported":1737043850,"current_range_meters":22400,"station_id":"ce4bgh92rcd13ifvqb50","pricing_plan_id":"cebpf4jnsgd1na2vs0mg"},{"bike_id":"2766686f-7696-4a1d-bceb-e3abea7dd924","system_id":"levelo_inurba_marseille","lat":43.3121,"lon":5.36867,"is_reserved":false,"is_disabled":false,"rental_uris":{"android":"levelo://app?vid=2766686f-7696-4a1d-bceb-e3abea7dd924","ios":"levelo://app?vid=2766686f-7696-4a1d-bceb-e3abea7dd924"},"vehicle_type_id":"4","last_reported":1737043850,"current_range_meters":32800,"station_id":"ce4bgl92rcd13ifvqbq0","pricing_plan_id":"cebpf4jnsgd1na2vs0mg"},{"bike_id":"d7050576-e251-467e-bad7-669029a977ab","system_id":"levelo_inurba_marseille","lat":43.26497,"lon":5.39543,"is_reserved":false,"is_disabled":false,"rental_uris":{"android":"levelo://app?vid=d7050576-e251-467e-bad7-669029a977ab","ios":"levelo://app?vid=d7050576-e251-467e-bad7-669029a977ab"},"vehicle_type_id":"4","last_reported":1737043850,"current_range_meters":4800,"station_id":"ce4bhi12rcd13ifvqfq0","pricing_plan_id":"cebpf4jnsgd1na2vs0mg"},{"bike_id":"a15980ac-c225-4e68-8982-6cc8c4cbfd79","system_id":"levelo_inurba_marseille","lat":43.231913,"lon":5.355613,"is_reserved":false,"is_disabled":false,"rental_uris":{"android":"levelo://app?vid=a15980ac-c225-4e68-8982-6cc8c4cbfd79","ios":"levelo://app?vid=a15980ac-c225-4e68-8982-6cc8c4cbfd79"},"vehicle_type_id":"4","last_reported":1737043850,"current_range_meters":38800,"station_id":"ce4bhu92rcd13ifvqi70","pricing_plan_id":"cebpf4jnsgd1na2vs0mg"},{"bike_id":"390ab92d-b8c8-4fa3-a463-67c40cf8a73a","system_id":"levelo_inurba_marseille","lat":43.271764,"lon":5.409956,"is_reserved":false,"is_disabled":false,"rental_uris":{"android":"levelo://app?vid=390ab92d-b8c8-4fa3-a463-67c40cf8a73a","ios":"levelo://app?vid=390ab92d-b8c8-4fa3-a463-67c40cf8a73a"},"vehicle_type_id":"4","last_reported":1737043850,"current_range_meters":38800,"station_id":"ce4bhl12rcd13ifvqgf0","pricing_plan_id":"cebpf4jnsgd1na2vs0mg"},{"bike_id":"344bd4d4-3a8a-47e1-aaad-a2c9867ce43b","system_id":"levelo_inurba_marseille","lat":43.273751,"lon":5.362542,"is_reserved":false,"is_disabled":false,"rental_uris":{"android":"levelo://app?vid=344bd4d4-3a8a-47e1-aaad-a2c9867ce43b","ios":"levelo://app?vid=344bd4d4-3a8a-47e1-aaad-a2c9867ce43b"},"vehicle_type_id":"4","last_reported":1737043850,"current_range_meters":39200,"station_id":"ce4bhbh2rcd13ifvqeo0","pricing_plan_id":"cebpf4jnsgd1na2vs0mg"},{"bike_id":"0fa75195-ca6f-4470-9a59-3f578924b033","system_id":"levelo_inurba_marseille","lat":43.27428,"lon":5.39413,"is_reserved":false,"is_disabled":false,"rental_uris":{"android":"levelo://app?vid=0fa75195-ca6f-4470-9a59-3f578924b033","ios":"levelo://app?vid=0fa75195-ca6f-4470-9a59-3f578924b033"},"vehicle_type_id":"4","last_reported":1737043850,"current_range_meters":38800,"station_id":"ce4bhdp2rcd13ifvqf20","pricing_plan_id":"cebpf4jnsgd1na2vs0mg"},{"bike_id":"00c5a083-e33e-4a56-8c92-47fa8bdc8cb5","system_id":"levelo_inurba_marseille","lat":43.29515,"lon":5.3903,"is_reserved":false,"is_disabled":false,"rental_uris":{"android":"levelo://app?vid=00c5a083-e33e-4a56-8c92-47fa8bdc8cb5","ios":"levelo://app?vid=00c5a083-e33e-4a56-8c92-47fa8bdc8cb5"},"vehicle_type_id":"4","last_reported":1737043850,"current_range_meters":17600,"station_id":"ce4bh3p2rcd13ifvqdp0","pricing_plan_id":"cebpf4jnsgd1na2vs0mg"},{"bike_id":"85b4c6df-61f5-47e3-b5ba-099533c320c8","system_id":"levelo_inurba_marseille","lat":43.30802,"lon":5.38146,"is_reserved":false,"is_disabled":false,"rental_uris":{"android":"levelo://app?vid=85b4c6df-61f5-47e3-b5ba-099533c320c8","ios":"levelo://app?vid=85b4c6df-61f5-47e3-b5ba-099533c320c8"},"vehicle_type_id":"4","last_reported":1737043850,"current_range_meters":39200,"station_id":"ce4bgt12rcd13ifvqce0","pricing_plan_id":"cebpf4jnsgd1na2vs0mg"},{"bike_id":"39b38353-1011-4fb2-8fe4-30e99e3ba466","system_id":"levelo_inurba_marseille","lat":43.28728,"lon":5.37383,"is_reserved":false,"is_disabled":false,"rental_uris":{"android":"levelo://app?vid=39b38353-1011-4fb2-8fe4-30e99e3ba466","ios":"levelo://app?vid=39b38353-1011-4fb2-8fe4-30e99e3ba466"},"vehicle_type_id":"4","last_reported":1737043850,"current_range_meters":18000,"station_id":"ce4bh3p2rcd13ifvqdq0","pricing_plan_id":"cebpf4jnsgd1na2vs0mg"},{"bike_id":"54ee1132-bfd8-47ca-b326-15c9b0bf5d42","system_id":"levelo_inurba_marseille","lat":43.30543,"lon":5.36539,"is_reserved":false,"is_disabled":false,"rental_uris":{"android":"levelo://app?vid=54ee1132-bfd8-47ca-b326-15c9b0bf5d42","ios":"levelo://app?vid=54ee1132-bfd8-47ca-b326-15c9b0bf5d42"},"vehicle_type_id":"4","last_reported":1737043850,"current_range_meters":22800,"station_id":"ce4bgs12rcd13ifvqcag","pricing_plan_id":"cebpf4jnsgd1na2vs0mg"},{"bike_id":"7ca16fbe-7403-4ad7-b55e-853058e0317d","system_id":"levelo_inurba_marseille","lat":43.30529,"lon":5.36697,"is_reserved":false,"is_disabled":false,"rental_uris":{"android":"levelo://app?vid=7ca16fbe-7403-4ad7-b55e-853058e0317d","ios":"levelo://app?vid=7ca16fbe-7403-4ad7-b55e-853058e0317d"},"vehicle_type_id":"4","last_reported":1737043850,"current_range_meters":36800,"station_id":"ce4bgrp2rcd13ifvqc9g","pricing_plan_id":"cebpf4jnsgd1na2vs0mg"},{"bike_id":"9be957d2-26d1-49a4-9f85-b06ee3432064","system_id":"levelo_inurba_marseille","lat":43.33734,"lon":5.39188,"is_reserved":false,"is_disabled":false,"rental_uris":{"android":"levelo://app?vid=9be957d2-26d1-49a4-9f85-b06ee3432064","ios":"levelo://app?vid=9be957d2-26d1-49a4-9f85-b06ee3432064"},"vehicle_type_id":"4","last_reported":1737043850,"current_range_meters":34000,"station_id":"ce4bhr92rcd13ifvqhsg","pricing_plan_id":"cebpf4jnsgd1na2vs0mg"},{"bike_id":"4488423e-fb64-4bbe-9192-9966dc0edac0","system_id":"levelo_inurba_marseille","lat":43.31714,"lon":5.37754,"is_reserved":false,"is_disabled":false,"rental_uris":{"android":"levelo://app?vid=4488423e-fb64-4bbe-9192-9966dc0edac0","ios":"levelo://app?vid=4488423e-fb64-4bbe-9192-9966dc0edac0"},"vehicle_type_id":"4","last_reported":1737043850,"current_range_meters":31200,"station_id":"ce4bgth2rcd13ifvqch0","pricing_plan_id":"cebpf4jnsgd1na2vs0mg"},{"bike_id":"d7dbcc25-391a-4e8a-9b74-7b40604397fc","system_id":"levelo_inurba_marseille","lat":43.33017,"lon":5.39043,"is_reserved":false,"is_disabled":false,"rental_uris":{"android":"levelo://app?vid=d7dbcc25-391a-4e8a-9b74-7b40604397fc","ios":"levelo://app?vid=d7dbcc25-391a-4e8a-9b74-7b40604397fc"},"vehicle_type_id":"4","last_reported":1737043850,"current_range_meters":38800,"station_id":"ce4bhr92rcd13ifvqhrg","pricing_plan_id":"cebpf4jnsgd1na2vs0mg"},{"bike_id":"6763d27b-7ec6-4ea7-8414-a5d6b0abc011","system_id":"levelo_inurba_marseille","lat":43.29615,"lon":5.37723,"is_reserved":false,"is_disabled":false,"rental_uris":{"android":"levelo://app?vid=6763d27b-7ec6-4ea7-8414-a5d6b0abc011","ios":"levelo://app?vid=6763d27b-7ec6-4ea7-8414-a5d6b0abc011"},"vehicle_type_id":"4","last_reported":1737043850,"current_range_meters":9600,"station_id":"ce4bgi92rcd13ifvqb90","pricing_plan_id":"cebpf4jnsgd1na2vs0mg"},{"bike_id":"43be8b2e-95c7-4bfc-b572-8790831c05f1","system_id":"levelo_inurba_marseille","lat":43.23968,"lon":5.36632,"is_reserved":false,"is_disabled":false,"rental_uris":{"android":"levelo://app?vid=43be8b2e-95c7-4bfc-b572-8790831c05f1","ios":"levelo://app?vid=43be8b2e-95c7-4bfc-b572-8790831c05f1"},"vehicle_type_id":"4","last_reported":1737043850,"current_range_meters":30000,"station_id":"ce4bhi12rcd13ifvqfp0","pricing_plan_id":"cebpf4jnsgd1na2vs0mg"},{"bike_id":"3bea599d-9d1d-4ce1-a78c-b94821d3e8a3","system_id":"levelo_inurba_marseille","lat":43.25006,"lon":5.38932,"is_reserved":false,"is_disabled":false,"rental_uris":{"android":"levelo://app?vid=3bea599d-9d1d-4ce1-a78c-b94821d3e8a3","ios":"levelo://app?vid=3bea599d-9d1d-4ce1-a78c-b94821d3e8a3"},"vehicle_type_id":"4","last_reported":1737043850,"current_range_meters":36400,"station_id":"ce4bhgp2rcd13ifvqfd0","pricing_plan_id":"cebpf4jnsgd1na2vs0mg"},{"bike_id":"5e4e79e7-0b73-4acf-b02d-aa52106dec1f","system_id":"levelo_inurba_marseille","lat":43.29527,"lon":5.38537,"is_reserved":false,"is_disabled":false,"rental_uris":{"android":"levelo://app?vid=5e4e79e7-0b73-4acf-b02d-aa52106dec1f","ios":"levelo://app?vid=5e4e79e7-0b73-4acf-b02d-aa52106dec1f"},"vehicle_type_id":"4","last_reported":1737043850,"current_range_meters":28000,"station_id":"ce4bgih2rcd13ifvqba0","pricing_plan_id":"cebpf4jnsgd1na2vs0mg"},{"bike_id":"c72f0241-b8c1-44da-8744-7ccc8e668d26","system_id":"levelo_inurba_marseille","lat":43.24806,"lon":5.37454,"is_reserved":false,"is_disabled":false,"rental_uris":{"android":"levelo://app?vid=c72f0241-b8c1-44da-8744-7ccc8e668d26","ios":"levelo://app?vid=c72f0241-b8c1-44da-8744-7ccc8e668d26"},"vehicle_type_id":"4","last_reported":1737043850,"current_range_meters":34800,"station_id":"ce4bhgh2rcd13ifvqfb0","pricing_plan_id":"cebpf4jnsgd1na2vs0mg"},{"bike_id":"36e34a58-3562-4291-bd21-dcf0cdb62cdf","system_id":"levelo_inurba_marseille","lat":43.2783,"lon":5.40678,"is_reserved":false,"is_disabled":false,"rental_uris":{"android":"levelo://app?vid=36e34a58-3562-4291-bd21-dcf0cdb62cdf","ios":"levelo://app?vid=36e34a58-3562-4291-bd21-dcf0cdb62cdf"},"vehicle_type_id":"4","last_reported":1737043850,"current_range_meters":9200,"station_id":"ce4bhnh2rcd13ifvqgtg","pricing_plan_id":"cebpf4jnsgd1na2vs0mg"},{"bike_id":"dd271725-e8da-4070-bdd9-25c3cb0c818b","system_id":"levelo_inurba_marseille","lat":43.295257,"lon":5.375096,"is_reserved":false,"is_disabled":false,"rental_uris":{"android":"levelo://app?vid=dd271725-e8da-4070-bdd9-25c3cb0c818b","ios":"levelo://app?vid=dd271725-e8da-4070-bdd9-25c3cb0c818b"},"vehicle_type_id":"4","last_reported":1737043850,"current_range_meters":31200,"station_id":"cki0cbj6b192h4jlfktg","pricing_plan_id":"cebpf4jnsgd1na2vs0mg"},{"bike_id":"18a4e803-9fed-490d-8b8f-cfa50d31713a","system_id":"levelo_inurba_marseille","lat":43.26064,"lon":5.39368,"is_reserved":false,"is_disabled":false,"rental_uris":{"android":"levelo://app?vid=18a4e803-9fed-490d-8b8f-cfa50d31713a","ios":"levelo://app?vid=18a4e803-9fed-490d-8b8f-cfa50d31713a"},"vehicle_type_id":"4","last_reported":1737043850,"current_range_meters":14800,"station_id":"ce4bhh92rcd13ifvqfj0","pricing_plan_id":"cebpf4jnsgd1na2vs0mg"},{"bike_id":"81f98bca-4538-482c-8d1a-6d04255eb1e5","system_id":"levelo_inurba_marseille","lat":43.27194,"lon":5.39186,"is_reserved":false,"is_disabled":true,"rental_uris":{"android":"levelo://app?vid=81f98bca-4538-482c-8d1a-6d04255eb1e5","ios":"levelo://app?vid=81f98bca-4538-482c-8d1a-6d04255eb1e5"},"vehicle_type_id":"4","last_reported":1737043850,"current_range_meters":0,"station_id":"ce4bhhp2rcd13ifvqfm0","pricing_plan_id":"cebpf4jnsgd1na2vs0mg"},{"bike_id":"cf2b9180-bc86-4580-8e39-46ff744dcbfd","system_id":"levelo_inurba_marseille","lat":43.29727,"lon":5.36579,"is_reserved":false,"is_disabled":false,"rental_uris":{"android":"levelo://app?vid=cf2b9180-bc86-4580-8e39-46ff744dcbfd","ios":"levelo://app?vid=cf2b9180-bc86-4580-8e39-46ff744dcbfd"},"vehicle_type_id":"4","last_reported":1737043850,"current_range_meters":32400,"station_id":"ce4bgn12rcd13ifvqbt0","pricing_plan_id":"cebpf4jnsgd1na2vs0mg"},{"bike_id":"faffe40a-362c-4048-87ef-361721514efa","system_id":"levelo_inurba_marseille","lat":43.308,"lon":5.3816,"is_reserved":false,"is_disabled":false,"rental_uris":{"android":"levelo://app?vid=faffe40a-362c-4048-87ef-361721514efa","ios":"levelo://app?vid=faffe40a-362c-4048-87ef-361721514efa"},"vehicle_type_id":"4","last_reported":1737043850,"current_range_meters":6800,"station_id":"ce4bgt12rcd13ifvqce0","pricing_plan_id":"cebpf4jnsgd1na2vs0mg"},{"bike_id":"4b2a9951-e9c3-48e0-8b22-f77f1838dfc7","system_id":"levelo_inurba_marseille","lat":43.29599,"lon":5.37589,"is_reserved":false,"is_disabled":false,"rental_uris":{"android":"levelo://app?vid=4b2a9951-e9c3-48e0-8b22-f77f1838dfc7","ios":"levelo://app?vid=4b2a9951-e9c3-48e0-8b22-f77f1838dfc7"},"vehicle_type_id":"4","last_reported":1737043850,"current_range_meters":16400,"station_id":"","pricing_plan_id":"cebpf4jnsgd1na2vs0mg"},{"bike_id":"ab83fd1f-7636-46a9-be6f-714c723379d6","system_id":"levelo_inurba_marseille","lat":43.31323,"lon":5.39695,"is_reserved":false,"is_disabled":false,"rental_uris":{"android":"levelo://app?vid=ab83fd1f-7636-46a9-be6f-714c723379d6","ios":"levelo://app?vid=ab83fd1f-7636-46a9-be6f-714c723379d6"},"vehicle_type_id":"4","last_reported":1737043850,"current_range_meters":38800,"station_id":"ce4bgvp2rcd13ifvqcu0","pricing_plan_id":"cebpf4jnsgd1na2vs0mg"},{"bike_id":"227e2104-9342-467a-bb13-dc81a29065f7","system_id":"levelo_inurba_marseille","lat":43.28488,"lon":5.38964,"is_reserved":false,"is_disabled":false,"rental_uris":{"android":"levelo://app?vid=227e2104-9342-467a-bb13-dc81a29065f7","ios":"levelo://app?vid=227e2104-9342-467a-bb13-dc81a29065f7"},"vehicle_type_id":"4","last_reported":1737043850,"current_range_meters":30000,"station_id":"","pricing_plan_id":"cebpf4jnsgd1na2vs0mg"},{"bike_id":"b2632576-d2f4-4f91-975b-2a6e65937421","system_id":"levelo_inurba_marseille","lat":43.25065,"lon":5.39513,"is_reserved":false,"is_disabled":false,"rental_uris":{"android":"levelo://app?vid=b2632576-d2f4-4f91-975b-2a6e65937421","ios":"levelo://app?vid=b2632576-d2f4-4f91-975b-2a6e65937421"},"vehicle_type_id":"4","last_reported":1737043850,"current_range_meters":33600,"station_id":"ce4bhm12rcd13ifvqgkg","pricing_plan_id":"cebpf4jnsgd1na2vs0mg"},{"bike_id":"c032b915-e185-4650-b76d-34976aa7209e","system_id":"levelo_inurba_marseille","lat":43.30878,"lon":5.39663,"is_reserved":false,"is_disabled":false,"rental_uris":{"android":"levelo://app?vid=c032b915-e185-4650-b76d-34976aa7209e","ios":"levelo://app?vid=c032b915-e185-4650-b76d-34976aa7209e"},"vehicle_type_id":"4","last_reported":1737043850,"current_range_meters":35200,"station_id":"ce4bh012rcd13ifvqcv0","pricing_plan_id":"cebpf4jnsgd1na2vs0mg"},{"bike_id":"6a1aca43-add9-4b6f-bb01-eda73237eebd","system_id":"levelo_inurba_marseille","lat":43.29445,"lon":5.383227,"is_reserved":false,"is_disabled":true,"rental_uris":{"android":"levelo://app?vid=6a1aca43-add9-4b6f-bb01-eda73237eebd","ios":"levelo://app?vid=6a1aca43-add9-4b6f-bb01-eda73237eebd"},"vehicle_type_id":"4","last_reported":1737043850,"current_range_meters":0,"station_id":"","pricing_plan_id":"cebpf4jnsgd1na2vs0mg"},{"bike_id":"b57b3f80-8d1c-44fa-a5cc-4b6f26f7e825","system_id":"levelo_inurba_marseille","lat":43.28856,"lon":5.35847,"is_reserved":false,"is_disabled":false,"rental_uris":{"android":"levelo://app?vid=b57b3f80-8d1c-44fa-a5cc-4b6f26f7e825","ios":"levelo://app?vid=b57b3f80-8d1c-44fa-a5cc-4b6f26f7e825"},"vehicle_type_id":"4","last_reported":1737043850,"current_range_meters":18800,"station_id":"ce4bhb12rcd13ifvqem0","pricing_plan_id":"cebpf4jnsgd1na2vs0mg"},{"bike_id":"5685b1ca-51df-4b0c-81b2-5fc50125a990","system_id":"levelo_inurba_marseille","lat":43.29567,"lon":5.37507,"is_reserved":false,"is_disabled":false,"rental_uris":{"android":"levelo://app?vid=5685b1ca-51df-4b0c-81b2-5fc50125a990","ios":"levelo://app?vid=5685b1ca-51df-4b0c-81b2-5fc50125a990"},"vehicle_type_id":"4","last_reported":1737043850,"current_range_meters":28800,"station_id":"ce4bgh92rcd13ifvqb50","pricing_plan_id":"cebpf4jnsgd1na2vs0mg"},{"bike_id":"1bc5285a-f8e6-470f-8534-9c1c69d7c06f","system_id":"levelo_inurba_marseille","lat":43.29567,"lon":5.37502,"is_reserved":false,"is_disabled":false,"rental_uris":{"android":"levelo://app?vid=1bc5285a-f8e6-470f-8534-9c1c69d7c06f","ios":"levelo://app?vid=1bc5285a-f8e6-470f-8534-9c1c69d7c06f"},"vehicle_type_id":"4","last_reported":1737043850,"current_range_meters":36000,"station_id":"ce4bgh92rcd13ifvqb50","pricing_plan_id":"cebpf4jnsgd1na2vs0mg"},{"bike_id":"29cafda1-4601-4d98-aeb3-9f208d2f7c86","system_id":"levelo_inurba_marseille","lat":43.2797,"lon":5.38743,"is_reserved":false,"is_disabled":false,"rental_uris":{"android":"levelo://app?vid=29cafda1-4601-4d98-aeb3-9f208d2f7c86","ios":"levelo://app?vid=29cafda1-4601-4d98-aeb3-9f208d2f7c86"},"vehicle_type_id":"4","last_reported":1737043850,"current_range_meters":25600,"station_id":"ce4bhg12rcd13ifvqf80","pricing_plan_id":"cebpf4jnsgd1na2vs0mg"},{"bike_id":"8b6d4a34-e62b-47b8-b076-8a1ccb84fcf2","system_id":"levelo_inurba_marseille","lat":43.27908,"lon":5.38012,"is_reserved":false,"is_disabled":false,"rental_uris":{"android":"levelo://app?vid=8b6d4a34-e62b-47b8-b076-8a1ccb84fcf2","ios":"levelo://app?vid=8b6d4a34-e62b-47b8-b076-8a1ccb84fcf2"},"vehicle_type_id":"4","last_reported":1737043850,"current_range_meters":14400,"station_id":"ce4bhf92rcd13ifvqf50","pricing_plan_id":"cebpf4jnsgd1na2vs0mg"},{"bike_id":"450e4b2e-2717-46bb-9250-32754d000e21","system_id":"levelo_inurba_marseille","lat":43.31717,"lon":5.37766,"is_reserved":false,"is_disabled":false,"rental_uris":{"android":"levelo://app?vid=450e4b2e-2717-46bb-9250-32754d000e21","ios":"levelo://app?vid=450e4b2e-2717-46bb-9250-32754d000e21"},"vehicle_type_id":"4","last_reported":1737043850,"current_range_meters":39200,"station_id":"ce4bgth2rcd13ifvqch0","pricing_plan_id":"cebpf4jnsgd1na2vs0mg"},{"bike_id":"30587a83-c8e6-42ac-a465-0185f0616544","system_id":"levelo_inurba_marseille","lat":43.26571,"lon":5.39019,"is_reserved":false,"is_disabled":false,"rental_uris":{"android":"levelo://app?vid=30587a83-c8e6-42ac-a465-0185f0616544","ios":"levelo://app?vid=30587a83-c8e6-42ac-a465-0185f0616544"},"vehicle_type_id":"4","last_reported":1737043850,"current_range_meters":10800,"station_id":"ce4bhe12rcd13ifvqf30","pricing_plan_id":"cebpf4jnsgd1na2vs0mg"},{"bike_id":"1c5dee46-9296-4ff0-86e0-56f1d3de6cd3","system_id":"levelo_inurba_marseille","lat":43.29837,"lon":5.36264,"is_reserved":false,"is_disabled":false,"rental_uris":{"android":"levelo://app?vid=1c5dee46-9296-4ff0-86e0-56f1d3de6cd3","ios":"levelo://app?vid=1c5dee46-9296-4ff0-86e0-56f1d3de6cd3"},"vehicle_type_id":"4","last_reported":1737043850,"current_range_meters":12400,"station_id":"ce4bgpp2rcd13ifvqc3g","pricing_plan_id":"cebpf4jnsgd1na2vs0mg"},{"bike_id":"091235b0-e1a5-41c5-86b2-2778d26f4df4","system_id":"levelo_inurba_marseille","lat":43.27167,"lon":5.40996,"is_reserved":false,"is_disabled":false,"rental_uris":{"android":"levelo://app?vid=091235b0-e1a5-41c5-86b2-2778d26f4df4","ios":"levelo://app?vid=091235b0-e1a5-41c5-86b2-2778d26f4df4"},"vehicle_type_id":"4","last_reported":1737043850,"current_range_meters":38800,"station_id":"ce4bhl12rcd13ifvqgf0","pricing_plan_id":"cebpf4jnsgd1na2vs0mg"},{"bike_id":"4121f9d5-b138-4a51-9809-f2a903161b1a","system_id":"levelo_inurba_marseille","lat":43.29536,"lon":5.37484,"is_reserved":false,"is_disabled":false,"rental_uris":{"android":"levelo://app?vid=4121f9d5-b138-4a51-9809-f2a903161b1a","ios":"levelo://app?vid=4121f9d5-b138-4a51-9809-f2a903161b1a"},"vehicle_type_id":"4","last_reported":1737043850,"current_range_meters":38000,"station_id":"ce4bgkp2rcd13ifvqbmg","pricing_plan_id":"cebpf4jnsgd1na2vs0mg"},{"bike_id":"a4b779dc-e9f6-42d9-b786-46a4421bfccd","system_id":"levelo_inurba_marseille","lat":43.30595,"lon":5.37194,"is_reserved":false,"is_disabled":false,"rental_uris":{"android":"levelo://app?vid=a4b779dc-e9f6-42d9-b786-46a4421bfccd","ios":"levelo://app?vid=a4b779dc-e9f6-42d9-b786-46a4421bfccd"},"vehicle_type_id":"4","last_reported":1737043850,"current_range_meters":28800,"station_id":"ce4bgqh2rcd13ifvqc4g","pricing_plan_id":"cebpf4jnsgd1na2vs0mg"},{"bike_id":"7d0d7384-41c7-43ea-8024-2f769992343b","system_id":"levelo_inurba_marseille","lat":43.30324,"lon":5.40434,"is_reserved":false,"is_disabled":false,"rental_uris":{"android":"levelo://app?vid=7d0d7384-41c7-43ea-8024-2f769992343b","ios":"levelo://app?vid=7d0d7384-41c7-43ea-8024-2f769992343b"},"vehicle_type_id":"4","last_reported":1737043850,"current_range_meters":27600,"station_id":"ce4bh012rcd13ifvqd10","pricing_plan_id":"cebpf4jnsgd1na2vs0mg"},{"bike_id":"83cd37b8-de98-4156-b186-da20298deb62","system_id":"levelo_inurba_marseille","lat":43.26493,"lon":5.39545,"is_reserved":false,"is_disabled":false,"rental_uris":{"android":"levelo://app?vid=83cd37b8-de98-4156-b186-da20298deb62","ios":"levelo://app?vid=83cd37b8-de98-4156-b186-da20298deb62"},"vehicle_type_id":"4","last_reported":1737043850,"current_range_meters":10000,"station_id":"ce4bhi12rcd13ifvqfq0","pricing_plan_id":"cebpf4jnsgd1na2vs0mg"},{"bike_id":"34709e64-d1c8-4538-88a5-33805792c0a5","system_id":"levelo_inurba_marseille","lat":43.25827,"lon":5.39433,"is_reserved":false,"is_disabled":true,"rental_uris":{"android":"levelo://app?vid=34709e64-d1c8-4538-88a5-33805792c0a5","ios":"levelo://app?vid=34709e64-d1c8-4538-88a5-33805792c0a5"},"vehicle_type_id":"4","last_reported":1737043850,"current_range_meters":0,"station_id":"ce4bhip2rcd13ifvqft0","pricing_plan_id":"cebpf4jnsgd1na2vs0mg"},{"bike_id":"f318f1dd-46f3-4f29-8378-57db32b7f3d2","system_id":"levelo_inurba_marseille","lat":43.28567,"lon":5.3949,"is_reserved":false,"is_disabled":false,"rental_uris":{"android":"levelo://app?vid=f318f1dd-46f3-4f29-8378-57db32b7f3d2","ios":"levelo://app?vid=f318f1dd-46f3-4f29-8378-57db32b7f3d2"},"vehicle_type_id":"4","last_reported":1737043850,"current_range_meters":38800,"station_id":"ce4bh292rcd13ifvqdg0","pricing_plan_id":"cebpf4jnsgd1na2vs0mg"},{"bike_id":"fba51d90-0553-42ce-9c32-de8123156aa1","system_id":"levelo_inurba_marseille","lat":43.27822,"lon":5.40717,"is_reserved":false,"is_disabled":false,"rental_uris":{"android":"levelo://app?vid=fba51d90-0553-42ce-9c32-de8123156aa1","ios":"levelo://app?vid=fba51d90-0553-42ce-9c32-de8123156aa1"},"vehicle_type_id":"4","last_reported":1737043850,"current_range_meters":34800,"station_id":"ce4bhnh2rcd13ifvqgtg","pricing_plan_id":"cebpf4jnsgd1na2vs0mg"},{"bike_id":"32e1d4a4-e944-4184-bef6-23a277c99163","system_id":"levelo_inurba_marseille","lat":43.28413,"lon":5.3752,"is_reserved":false,"is_disabled":false,"rental_uris":{"android":"levelo://app?vid=32e1d4a4-e944-4184-bef6-23a277c99163","ios":"levelo://app?vid=32e1d4a4-e944-4184-bef6-23a277c99163"},"vehicle_type_id":"4","last_reported":1737043850,"current_range_meters":33200,"station_id":"ce4bh412rcd13ifvqds0","pricing_plan_id":"cebpf4jnsgd1na2vs0mg"},{"bike_id":"7a26b63c-652f-4d2d-8353-1a9dfb4e945a","system_id":"levelo_inurba_marseille","lat":43.33716,"lon":5.39182,"is_reserved":false,"is_disabled":false,"rental_uris":{"android":"levelo://app?vid=7a26b63c-652f-4d2d-8353-1a9dfb4e945a","ios":"levelo://app?vid=7a26b63c-652f-4d2d-8353-1a9dfb4e945a"},"vehicle_type_id":"4","last_reported":1737043850,"current_range_meters":38800,"station_id":"ce4bhr92rcd13ifvqhsg","pricing_plan_id":"cebpf4jnsgd1na2vs0mg"},{"bike_id":"676c685d-59cf-4ca3-bda8-3bc86a27fc20","system_id":"levelo_inurba_marseille","lat":43.30551,"lon":5.36501,"is_reserved":false,"is_disabled":false,"rental_uris":{"android":"levelo://app?vid=676c685d-59cf-4ca3-bda8-3bc86a27fc20","ios":"levelo://app?vid=676c685d-59cf-4ca3-bda8-3bc86a27fc20"},"vehicle_type_id":"4","last_reported":1737043850,"current_range_meters":32800,"station_id":"ce4bgs12rcd13ifvqcag","pricing_plan_id":"cebpf4jnsgd1na2vs0mg"},{"bike_id":"8ab529c5-0c54-40b5-96ac-0bbb4c91817f","system_id":"levelo_inurba_marseille","lat":43.26768,"lon":5.39407,"is_reserved":false,"is_disabled":false,"rental_uris":{"android":"levelo://app?vid=8ab529c5-0c54-40b5-96ac-0bbb4c91817f","ios":"levelo://app?vid=8ab529c5-0c54-40b5-96ac-0bbb4c91817f"},"vehicle_type_id":"4","last_reported":1737043850,"current_range_meters":30400,"station_id":"ce4bhh12rcd13ifvqfg0","pricing_plan_id":"cebpf4jnsgd1na2vs0mg"},{"bike_id":"56b8e9bc-f750-4815-bc98-9098414d16db","system_id":"levelo_inurba_marseille","lat":43.23196,"lon":5.35558,"is_reserved":false,"is_disabled":true,"rental_uris":{"android":"levelo://app?vid=56b8e9bc-f750-4815-bc98-9098414d16db","ios":"levelo://app?vid=56b8e9bc-f750-4815-bc98-9098414d16db"},"vehicle_type_id":"4","last_reported":1737043850,"current_range_meters":0,"station_id":"ce4bhu92rcd13ifvqi70","pricing_plan_id":"cebpf4jnsgd1na2vs0mg"},{"bike_id":"140698b2-c4ff-4e20-9ebc-3b32fd464537","system_id":"levelo_inurba_marseille","lat":43.29415,"lon":5.38623,"is_reserved":false,"is_disabled":false,"rental_uris":{"android":"levelo://app?vid=140698b2-c4ff-4e20-9ebc-3b32fd464537","ios":"levelo://app?vid=140698b2-c4ff-4e20-9ebc-3b32fd464537"},"vehicle_type_id":"4","last_reported":1737043850,"current_range_meters":34000,"station_id":"ce4bh2h2rcd13ifvqdh0","pricing_plan_id":"cebpf4jnsgd1na2vs0mg"},{"bike_id":"d7a710b0-adff-4c5c-bf44-f4013363962c","system_id":"levelo_inurba_marseille","lat":43.24683,"lon":5.39435,"is_reserved":false,"is_disabled":false,"rental_uris":{"android":"levelo://app?vid=d7a710b0-adff-4c5c-bf44-f4013363962c","ios":"levelo://app?vid=d7a710b0-adff-4c5c-bf44-f4013363962c"},"vehicle_type_id":"4","last_reported":1737043850,"current_range_meters":39200,"station_id":"","pricing_plan_id":"cebpf4jnsgd1na2vs0mg"},{"bike_id":"5b5b9902-6477-4816-81ea-170089f5c9a8","system_id":"levelo_inurba_marseille","lat":43.29244,"lon":5.40905,"is_reserved":false,"is_disabled":false,"rental_uris":{"android":"levelo://app?vid=5b5b9902-6477-4816-81ea-170089f5c9a8","ios":"levelo://app?vid=5b5b9902-6477-4816-81ea-170089f5c9a8"},"vehicle_type_id":"4","last_reported":1737043850,"current_range_meters":38000,"station_id":"ce4bh192rcd13ifvqdc0","pricing_plan_id":"cebpf4jnsgd1na2vs0mg"},{"bike_id":"f47ab076-41f5-4143-87f1-14710ac278f6","system_id":"levelo_inurba_marseille","lat":43.29028,"lon":5.38637,"is_reserved":false,"is_disabled":false,"rental_uris":{"android":"levelo://app?vid=f47ab076-41f5-4143-87f1-14710ac278f6","ios":"levelo://app?vid=f47ab076-41f5-4143-87f1-14710ac278f6"},"vehicle_type_id":"4","last_reported":1737043850,"current_range_meters":10000,"station_id":"ce4bh4p2rcd13ifvqe0g","pricing_plan_id":"cebpf4jnsgd1na2vs0mg"},{"bike_id":"27a6b705-2b6e-449e-8598-0810f3a9f4dc","system_id":"levelo_inurba_marseille","lat":43.27618,"lon":5.36112,"is_reserved":false,"is_disabled":false,"rental_uris":{"android":"levelo://app?vid=27a6b705-2b6e-449e-8598-0810f3a9f4dc","ios":"levelo://app?vid=27a6b705-2b6e-449e-8598-0810f3a9f4dc"},"vehicle_type_id":"4","last_reported":1737043850,"current_range_meters":33200,"station_id":"ce4bgj92rcd13ifvqbe0","pricing_plan_id":"cebpf4jnsgd1na2vs0mg"},{"bike_id":"993b1303-5f3a-486e-a837-4dc191452cda","system_id":"levelo_inurba_marseille","lat":43.29263,"lon":5.38441,"is_reserved":false,"is_disabled":false,"rental_uris":{"android":"levelo://app?vid=993b1303-5f3a-486e-a837-4dc191452cda","ios":"levelo://app?vid=993b1303-5f3a-486e-a837-4dc191452cda"},"vehicle_type_id":"4","last_reported":1737043850,"current_range_meters":30400,"station_id":"ce4bh692rcd13ifvqea0","pricing_plan_id":"cebpf4jnsgd1na2vs0mg"},{"bike_id":"4a890658-defc-494c-889f-8420b9ac216d","system_id":"levelo_inurba_marseille","lat":43.290276,"lon":5.356064,"is_reserved":false,"is_disabled":false,"rental_uris":{"android":"levelo://app?vid=4a890658-defc-494c-889f-8420b9ac216d","ios":"levelo://app?vid=4a890658-defc-494c-889f-8420b9ac216d"},"vehicle_type_id":"4","last_reported":1737043850,"current_range_meters":20400,"station_id":"ce4bhb92rcd13ifvqen0","pricing_plan_id":"cebpf4jnsgd1na2vs0mg"},{"bike_id":"2e70836a-a10f-4618-953a-21e9a7e8b8d7","system_id":"levelo_inurba_marseille","lat":43.28415,"lon":5.3752,"is_reserved":false,"is_disabled":false,"rental_uris":{"android":"levelo://app?vid=2e70836a-a10f-4618-953a-21e9a7e8b8d7","ios":"levelo://app?vid=2e70836a-a10f-4618-953a-21e9a7e8b8d7"},"vehicle_type_id":"4","last_reported":1737043850,"current_range_meters":29600,"station_id":"ce4bh412rcd13ifvqds0","pricing_plan_id":"cebpf4jnsgd1na2vs0mg"},{"bike_id":"22465212-93af-4e0b-b803-6ee82bba56d5","system_id":"levelo_inurba_marseille","lat":43.33765,"lon":5.37468,"is_reserved":false,"is_disabled":false,"rental_uris":{"android":"levelo://app?vid=22465212-93af-4e0b-b803-6ee82bba56d5","ios":"levelo://app?vid=22465212-93af-4e0b-b803-6ee82bba56d5"},"vehicle_type_id":"4","last_reported":1737043850,"current_range_meters":32800,"station_id":"","pricing_plan_id":"cebpf4jnsgd1na2vs0mg"},{"bike_id":"0cb07ba2-a2e4-4e9a-87db-d1168126d010","system_id":"levelo_inurba_marseille","lat":43.29631,"lon":5.40596,"is_reserved":false,"is_disabled":false,"rental_uris":{"android":"levelo://app?vid=0cb07ba2-a2e4-4e9a-87db-d1168126d010","ios":"levelo://app?vid=0cb07ba2-a2e4-4e9a-87db-d1168126d010"},"vehicle_type_id":"4","last_reported":1737043850,"current_range_meters":10800,"station_id":"ce4bh0h2rcd13ifvqd60","pricing_plan_id":"cebpf4jnsgd1na2vs0mg"},{"bike_id":"3405efb7-8c88-47c7-b2e1-a7863a06321f","system_id":"levelo_inurba_marseille","lat":43.28414,"lon":5.37502,"is_reserved":false,"is_disabled":false,"rental_uris":{"android":"levelo://app?vid=3405efb7-8c88-47c7-b2e1-a7863a06321f","ios":"levelo://app?vid=3405efb7-8c88-47c7-b2e1-a7863a06321f"},"vehicle_type_id":"4","last_reported":1737043850,"current_range_meters":8800,"station_id":"ce4bh412rcd13ifvqds0","pricing_plan_id":"cebpf4jnsgd1na2vs0mg"},{"bike_id":"fc705563-96e6-45d0-adb3-8588f3962dd4","system_id":"levelo_inurba_marseille","lat":43.32366,"lon":5.38887,"is_reserved":false,"is_disabled":false,"rental_uris":{"android":"levelo://app?vid=fc705563-96e6-45d0-adb3-8588f3962dd4","ios":"levelo://app?vid=fc705563-96e6-45d0-adb3-8588f3962dd4"},"vehicle_type_id":"4","last_reported":1737043850,"current_range_meters":32800,"station_id":"ce4bhqp2rcd13ifvqhog","pricing_plan_id":"cebpf4jnsgd1na2vs0mg"},{"bike_id":"6633e776-dd76-48f9-94c5-8bd8c47654c2","system_id":"levelo_inurba_marseille","lat":43.27329,"lon":5.39109,"is_reserved":false,"is_disabled":false,"rental_uris":{"android":"levelo://app?vid=6633e776-dd76-48f9-94c5-8bd8c47654c2","ios":"levelo://app?vid=6633e776-dd76-48f9-94c5-8bd8c47654c2"},"vehicle_type_id":"4","last_reported":1737043850,"current_range_meters":25600,"station_id":"ce4bhgp2rcd13ifvqfe0","pricing_plan_id":"cebpf4jnsgd1na2vs0mg"},{"bike_id":"0c07e210-c69e-4bf5-9249-756158542f84","system_id":"levelo_inurba_marseille","lat":43.31885,"lon":5.4074,"is_reserved":false,"is_disabled":false,"rental_uris":{"android":"levelo://app?vid=0c07e210-c69e-4bf5-9249-756158542f84","ios":"levelo://app?vid=0c07e210-c69e-4bf5-9249-756158542f84"},"vehicle_type_id":"4","last_reported":1737043850,"current_range_meters":15200,"station_id":"ce4bhq12rcd13ifvqhig","pricing_plan_id":"cebpf4jnsgd1na2vs0mg"},{"bike_id":"1d222f38-f50d-44f5-924e-1c364f861ee8","system_id":"levelo_inurba_marseille","lat":43.29523,"lon":5.39044,"is_reserved":false,"is_disabled":false,"rental_uris":{"android":"levelo://app?vid=1d222f38-f50d-44f5-924e-1c364f861ee8","ios":"levelo://app?vid=1d222f38-f50d-44f5-924e-1c364f861ee8"},"vehicle_type_id":"4","last_reported":1737043850,"current_range_meters":27200,"station_id":"ce4bh3p2rcd13ifvqdp0","pricing_plan_id":"cebpf4jnsgd1na2vs0mg"},{"bike_id":"0c74b65d-6a6b-4f50-a23b-6454b7a923c5","system_id":"levelo_inurba_marseille","lat":43.305403,"lon":5.367119,"is_reserved":false,"is_disabled":false,"rental_uris":{"android":"levelo://app?vid=0c74b65d-6a6b-4f50-a23b-6454b7a923c5","ios":"levelo://app?vid=0c74b65d-6a6b-4f50-a23b-6454b7a923c5"},"vehicle_type_id":"4","last_reported":1737043850,"current_range_meters":27200,"station_id":"ce4bgrp2rcd13ifvqc9g","pricing_plan_id":"cebpf4jnsgd1na2vs0mg"},{"bike_id":"08e907a1-bce4-44b0-928d-c03ba7f5b2e5","system_id":"levelo_inurba_marseille","lat":43.26981,"lon":5.4003,"is_reserved":false,"is_disabled":false,"rental_uris":{"android":"levelo://app?vid=08e907a1-bce4-44b0-928d-c03ba7f5b2e5","ios":"levelo://app?vid=08e907a1-bce4-44b0-928d-c03ba7f5b2e5"},"vehicle_type_id":"4","last_reported":1737043850,"current_range_meters":25200,"station_id":"ce4bgkh2rcd13ifvqbl0","pricing_plan_id":"cebpf4jnsgd1na2vs0mg"},{"bike_id":"620f5798-de92-438d-b848-c5c91a98dd52","system_id":"levelo_inurba_marseille","lat":43.27375,"lon":5.36266,"is_reserved":false,"is_disabled":false,"rental_uris":{"android":"levelo://app?vid=620f5798-de92-438d-b848-c5c91a98dd52","ios":"levelo://app?vid=620f5798-de92-438d-b848-c5c91a98dd52"},"vehicle_type_id":"4","last_reported":1737043850,"current_range_meters":30000,"station_id":"ce4bhbh2rcd13ifvqeo0","pricing_plan_id":"cebpf4jnsgd1na2vs0mg"},{"bike_id":"917148ce-4c9d-450a-97ee-d2deee4d50c3","system_id":"levelo_inurba_marseille","lat":43.3249,"lon":5.36542,"is_reserved":false,"is_disabled":false,"rental_uris":{"android":"levelo://app?vid=917148ce-4c9d-450a-97ee-d2deee4d50c3","ios":"levelo://app?vid=917148ce-4c9d-450a-97ee-d2deee4d50c3"},"vehicle_type_id":"4","last_reported":1737043850,"current_range_meters":10000,"station_id":"ce4bhs12rcd13ifvqhvg","pricing_plan_id":"cebpf4jnsgd1na2vs0mg"},{"bike_id":"6f9fff78-d4d1-4a6e-8ee2-3b3237244db2","system_id":"levelo_inurba_marseille","lat":43.29025,"lon":5.38646,"is_reserved":false,"is_disabled":false,"rental_uris":{"android":"levelo://app?vid=6f9fff78-d4d1-4a6e-8ee2-3b3237244db2","ios":"levelo://app?vid=6f9fff78-d4d1-4a6e-8ee2-3b3237244db2"},"vehicle_type_id":"4","last_reported":1737043850,"current_range_meters":19600,"station_id":"ce4bh4p2rcd13ifvqe0g","pricing_plan_id":"cebpf4jnsgd1na2vs0mg"},{"bike_id":"5f73b1c5-bb2a-4fac-9eb7-14c830fab3ce","system_id":"levelo_inurba_marseille","lat":43.29846,"lon":5.36262,"is_reserved":false,"is_disabled":false,"rental_uris":{"android":"levelo://app?vid=5f73b1c5-bb2a-4fac-9eb7-14c830fab3ce","ios":"levelo://app?vid=5f73b1c5-bb2a-4fac-9eb7-14c830fab3ce"},"vehicle_type_id":"4","last_reported":1737043850,"current_range_meters":38800,"station_id":"ce4bgpp2rcd13ifvqc3g","pricing_plan_id":"cebpf4jnsgd1na2vs0mg"},{"bike_id":"6a7366d7-ed8c-4629-bf0c-70c2abcda36d","system_id":"levelo_inurba_marseille","lat":43.231934,"lon":5.355607,"is_reserved":false,"is_disabled":false,"rental_uris":{"android":"levelo://app?vid=6a7366d7-ed8c-4629-bf0c-70c2abcda36d","ios":"levelo://app?vid=6a7366d7-ed8c-4629-bf0c-70c2abcda36d"},"vehicle_type_id":"4","last_reported":1737043850,"current_range_meters":10800,"station_id":"ce4bhu92rcd13ifvqi70","pricing_plan_id":"cebpf4jnsgd1na2vs0mg"},{"bike_id":"1e53d647-df95-46d5-9a1e-85641c128b40","system_id":"levelo_inurba_marseille","lat":43.24817,"lon":5.37452,"is_reserved":false,"is_disabled":false,"rental_uris":{"android":"levelo://app?vid=1e53d647-df95-46d5-9a1e-85641c128b40","ios":"levelo://app?vid=1e53d647-df95-46d5-9a1e-85641c128b40"},"vehicle_type_id":"4","last_reported":1737043850,"current_range_meters":38800,"station_id":"ce4bhgh2rcd13ifvqfb0","pricing_plan_id":"cebpf4jnsgd1na2vs0mg"},{"bike_id":"2d7f3353-743b-41e1-85f2-e32181d4ae48","system_id":"levelo_inurba_marseille","lat":43.31999,"lon":5.38151,"is_reserved":false,"is_disabled":false,"rental_uris":{"android":"levelo://app?vid=2d7f3353-743b-41e1-85f2-e32181d4ae48","ios":"levelo://app?vid=2d7f3353-743b-41e1-85f2-e32181d4ae48"},"vehicle_type_id":"4","last_reported":1737043850,"current_range_meters":32400,"station_id":"ce4bhr12rcd13ifvqhpg","pricing_plan_id":"cebpf4jnsgd1na2vs0mg"},{"bike_id":"573076c8-1172-47e5-b129-cb987286e5ee","system_id":"levelo_inurba_marseille","lat":43.278158,"lon":5.407145,"is_reserved":false,"is_disabled":false,"rental_uris":{"android":"levelo://app?vid=573076c8-1172-47e5-b129-cb987286e5ee","ios":"levelo://app?vid=573076c8-1172-47e5-b129-cb987286e5ee"},"vehicle_type_id":"4","last_reported":1737043850,"current_range_meters":3600,"station_id":"ce4bhnh2rcd13ifvqgtg","pricing_plan_id":"cebpf4jnsgd1na2vs0mg"},{"bike_id":"35deb437-7ef2-4ee7-9ea5-27ce0001ca7b","system_id":"levelo_inurba_marseille","lat":43.26057,"lon":5.39388,"is_reserved":false,"is_disabled":false,"rental_uris":{"android":"levelo://app?vid=35deb437-7ef2-4ee7-9ea5-27ce0001ca7b","ios":"levelo://app?vid=35deb437-7ef2-4ee7-9ea5-27ce0001ca7b"},"vehicle_type_id":"4","last_reported":1737043850,"current_range_meters":38800,"station_id":"ce4bhh92rcd13ifvqfj0","pricing_plan_id":"cebpf4jnsgd1na2vs0mg"},{"bike_id":"855a2268-02f8-4307-894d-f57dfd10b4c1","system_id":"levelo_inurba_marseille","lat":43.33013,"lon":5.39032,"is_reserved":false,"is_disabled":false,"rental_uris":{"android":"levelo://app?vid=855a2268-02f8-4307-894d-f57dfd10b4c1","ios":"levelo://app?vid=855a2268-02f8-4307-894d-f57dfd10b4c1"},"vehicle_type_id":"4","last_reported":1737043850,"current_range_meters":38800,"station_id":"ce4bhr92rcd13ifvqhrg","pricing_plan_id":"cebpf4jnsgd1na2vs0mg"},{"bike_id":"006eddf6-3b41-4a21-a985-f7a4350b5bf4","system_id":"levelo_inurba_marseille","lat":43.26062,"lon":5.39404,"is_reserved":false,"is_disabled":false,"rental_uris":{"android":"levelo://app?vid=006eddf6-3b41-4a21-a985-f7a4350b5bf4","ios":"levelo://app?vid=006eddf6-3b41-4a21-a985-f7a4350b5bf4"},"vehicle_type_id":"4","last_reported":1737043850,"current_range_meters":32400,"station_id":"ce4bhh92rcd13ifvqfj0","pricing_plan_id":"cebpf4jnsgd1na2vs0mg"},{"bike_id":"b583689d-4b3b-4fec-a4c3-0358dd755494","system_id":"levelo_inurba_marseille","lat":43.266938,"lon":5.382572,"is_reserved":false,"is_disabled":false,"rental_uris":{"android":"levelo://app?vid=b583689d-4b3b-4fec-a4c3-0358dd755494","ios":"levelo://app?vid=b583689d-4b3b-4fec-a4c3-0358dd755494"},"vehicle_type_id":"4","last_reported":1737043850,"current_range_meters":36800,"station_id":"ce4bhg92rcd13ifvqf90","pricing_plan_id":"cebpf4jnsgd1na2vs0mg"},{"bike_id":"5d42a98e-bef8-43af-946e-751274f82d4c","system_id":"levelo_inurba_marseille","lat":43.23664,"lon":5.43594,"is_reserved":false,"is_disabled":true,"rental_uris":{"android":"levelo://app?vid=5d42a98e-bef8-43af-946e-751274f82d4c","ios":"levelo://app?vid=5d42a98e-bef8-43af-946e-751274f82d4c"},"vehicle_type_id":"4","last_reported":1737043850,"current_range_meters":30800,"station_id":"","pricing_plan_id":"cebpf4jnsgd1na2vs0mg"},{"bike_id":"576521bf-1ea2-405b-a2ab-32216f8144ba","system_id":"levelo_inurba_marseille","lat":43.29583,"lon":5.37513,"is_reserved":false,"is_disabled":false,"rental_uris":{"android":"levelo://app?vid=576521bf-1ea2-405b-a2ab-32216f8144ba","ios":"levelo://app?vid=576521bf-1ea2-405b-a2ab-32216f8144ba"},"vehicle_type_id":"4","last_reported":1737043850,"current_range_meters":37600,"station_id":"ce4bgh92rcd13ifvqb50","pricing_plan_id":"cebpf4jnsgd1na2vs0mg"},{"bike_id":"6bb0c2df-6198-4645-b80a-340391eb447c","system_id":"levelo_inurba_marseille","lat":43.28145,"lon":5.42643,"is_reserved":false,"is_disabled":false,"rental_uris":{"android":"levelo://app?vid=6bb0c2df-6198-4645-b80a-340391eb447c","ios":"levelo://app?vid=6bb0c2df-6198-4645-b80a-340391eb447c"},"vehicle_type_id":"4","last_reported":1737043850,"current_range_meters":29600,"station_id":"ce4bhnh2rcd13ifvqgug","pricing_plan_id":"cebpf4jnsgd1na2vs0mg"},{"bike_id":"4b71fbbe-4c0f-4730-ab32-c7f67aa10270","system_id":"levelo_inurba_marseille","lat":43.255,"lon":5.37654,"is_reserved":false,"is_disabled":false,"rental_uris":{"android":"levelo://app?vid=4b71fbbe-4c0f-4730-ab32-c7f67aa10270","ios":"levelo://app?vid=4b71fbbe-4c0f-4730-ab32-c7f67aa10270"},"vehicle_type_id":"4","last_reported":1737043850,"current_range_meters":38800,"station_id":"ce4bhh12rcd13ifvqff0","pricing_plan_id":"cebpf4jnsgd1na2vs0mg"},{"bike_id":"f1e0ba10-67d0-49ef-8a5b-f569e4618044","system_id":"levelo_inurba_marseille","lat":43.29785,"lon":5.37107,"is_reserved":false,"is_disabled":false,"rental_uris":{"android":"levelo://app?vid=f1e0ba10-67d0-49ef-8a5b-f569e4618044","ios":"levelo://app?vid=f1e0ba10-67d0-49ef-8a5b-f569e4618044"},"vehicle_type_id":"4","last_reported":1737043850,"current_range_meters":29600,"station_id":"ce4bgop2rcd13ifvqc1g","pricing_plan_id":"cebpf4jnsgd1na2vs0mg"},{"bike_id":"11e426d4-47dd-475e-b24a-0d07c787de2d","system_id":"levelo_inurba_marseille","lat":43.3056,"lon":5.36519,"is_reserved":false,"is_disabled":false,"rental_uris":{"android":"levelo://app?vid=11e426d4-47dd-475e-b24a-0d07c787de2d","ios":"levelo://app?vid=11e426d4-47dd-475e-b24a-0d07c787de2d"},"vehicle_type_id":"4","last_reported":1737043850,"current_range_meters":21600,"station_id":"ce4bgs12rcd13ifvqcag","pricing_plan_id":"cebpf4jnsgd1na2vs0mg"},{"bike_id":"e21a33db-4ff7-44b2-a73f-b5c05a38c476","system_id":"levelo_inurba_marseille","lat":43.25495,"lon":5.37657,"is_reserved":false,"is_disabled":false,"rental_uris":{"android":"levelo://app?vid=e21a33db-4ff7-44b2-a73f-b5c05a38c476","ios":"levelo://app?vid=e21a33db-4ff7-44b2-a73f-b5c05a38c476"},"vehicle_type_id":"4","last_reported":1737043850,"current_range_meters":38000,"station_id":"ce4bhh12rcd13ifvqff0","pricing_plan_id":"cebpf4jnsgd1na2vs0mg"},{"bike_id":"b6cc3290-8d97-4a09-b52c-61d9cb4c3b4e","system_id":"levelo_inurba_marseille","lat":43.30536,"lon":5.36688,"is_reserved":false,"is_disabled":false,"rental_uris":{"android":"levelo://app?vid=b6cc3290-8d97-4a09-b52c-61d9cb4c3b4e","ios":"levelo://app?vid=b6cc3290-8d97-4a09-b52c-61d9cb4c3b4e"},"vehicle_type_id":"4","last_reported":1737043850,"current_range_meters":32800,"station_id":"ce4bgrp2rcd13ifvqc9g","pricing_plan_id":"cebpf4jnsgd1na2vs0mg"},{"bike_id":"ea68a76e-b4c6-4be9-ab98-1a2f34b18dea","system_id":"levelo_inurba_marseille","lat":43.2418,"lon":5.39745,"is_reserved":false,"is_disabled":false,"rental_uris":{"android":"levelo://app?vid=ea68a76e-b4c6-4be9-ab98-1a2f34b18dea","ios":"levelo://app?vid=ea68a76e-b4c6-4be9-ab98-1a2f34b18dea"},"vehicle_type_id":"4","last_reported":1737043850,"current_range_meters":19200,"station_id":"ce4bhn12rcd13ifvqgpg","pricing_plan_id":"cebpf4jnsgd1na2vs0mg"},{"bike_id":"deed0929-0128-456e-9f76-6afc5444b63c","system_id":"levelo_inurba_marseille","lat":43.2846,"lon":5.3589,"is_reserved":false,"is_disabled":false,"rental_uris":{"android":"levelo://app?vid=deed0929-0128-456e-9f76-6afc5444b63c","ios":"levelo://app?vid=deed0929-0128-456e-9f76-6afc5444b63c"},"vehicle_type_id":"4","last_reported":1737043850,"current_range_meters":8400,"station_id":"ce4bhah2rcd13ifvqei0","pricing_plan_id":"cebpf4jnsgd1na2vs0mg"},{"bike_id":"b66c8a7c-98ac-480c-a383-f54813a2d5aa","system_id":"levelo_inurba_marseille","lat":43.2581,"lon":5.39427,"is_reserved":false,"is_disabled":false,"rental_uris":{"android":"levelo://app?vid=b66c8a7c-98ac-480c-a383-f54813a2d5aa","ios":"levelo://app?vid=b66c8a7c-98ac-480c-a383-f54813a2d5aa"},"vehicle_type_id":"4","last_reported":1737043850,"current_range_meters":38800,"station_id":"ce4bhip2rcd13ifvqft0","pricing_plan_id":"cebpf4jnsgd1na2vs0mg"},{"bike_id":"e17b6980-3f7c-4d79-b8d3-f4bf7717c3e6","system_id":"levelo_inurba_marseille","lat":43.24676,"lon":5.3817,"is_reserved":false,"is_disabled":false,"rental_uris":{"android":"levelo://app?vid=e17b6980-3f7c-4d79-b8d3-f4bf7717c3e6","ios":"levelo://app?vid=e17b6980-3f7c-4d79-b8d3-f4bf7717c3e6"},"vehicle_type_id":"4","last_reported":1737043850,"current_range_meters":22400,"station_id":"ce4bhih2rcd13ifvqfr0","pricing_plan_id":"cebpf4jnsgd1na2vs0mg"},{"bike_id":"ccfe53f0-8dfd-4f5f-b4c7-b77b106d12b3","system_id":"levelo_inurba_marseille","lat":43.24661,"lon":5.38166,"is_reserved":false,"is_disabled":false,"rental_uris":{"android":"levelo://app?vid=ccfe53f0-8dfd-4f5f-b4c7-b77b106d12b3","ios":"levelo://app?vid=ccfe53f0-8dfd-4f5f-b4c7-b77b106d12b3"},"vehicle_type_id":"4","last_reported":1737043850,"current_range_meters":38800,"station_id":"ce4bhih2rcd13ifvqfr0","pricing_plan_id":"cebpf4jnsgd1na2vs0mg"},{"bike_id":"c8d43c1f-b3a7-43ba-8c74-73f40023c56d","system_id":"levelo_inurba_marseille","lat":43.28005,"lon":5.40017,"is_reserved":false,"is_disabled":false,"rental_uris":{"android":"levelo://app?vid=c8d43c1f-b3a7-43ba-8c74-73f40023c56d","ios":"levelo://app?vid=c8d43c1f-b3a7-43ba-8c74-73f40023c56d"},"vehicle_type_id":"4","last_reported":1737043850,"current_range_meters":37600,"station_id":"ce4bho92rcd13ifvqh4g","pricing_plan_id":"cebpf4jnsgd1na2vs0mg"},{"bike_id":"c3f9c16c-00f9-411b-9239-2aa790bf2de0","system_id":"levelo_inurba_marseille","lat":43.24664,"lon":5.38164,"is_reserved":false,"is_disabled":false,"rental_uris":{"android":"levelo://app?vid=c3f9c16c-00f9-411b-9239-2aa790bf2de0","ios":"levelo://app?vid=c3f9c16c-00f9-411b-9239-2aa790bf2de0"},"vehicle_type_id":"4","last_reported":1737043850,"current_range_meters":24000,"station_id":"ce4bhih2rcd13ifvqfr0","pricing_plan_id":"cebpf4jnsgd1na2vs0mg"},{"bike_id":"98c7f46d-51b5-4520-b1da-5976f39fe891","system_id":"levelo_inurba_marseille","lat":43.22941,"lon":5.35373,"is_reserved":false,"is_disabled":false,"rental_uris":{"android":"levelo://app?vid=98c7f46d-51b5-4520-b1da-5976f39fe891","ios":"levelo://app?vid=98c7f46d-51b5-4520-b1da-5976f39fe891"},"vehicle_type_id":"4","last_reported":1737043850,"current_range_meters":21600,"station_id":"cpo3532slgdg3j2ikp40","pricing_plan_id":"cebpf4jnsgd1na2vs0mg"},{"bike_id":"ebd5fff6-5420-41d1-8689-f2245de9053d","system_id":"levelo_inurba_marseille","lat":43.231934,"lon":5.355494,"is_reserved":false,"is_disabled":false,"rental_uris":{"android":"levelo://app?vid=ebd5fff6-5420-41d1-8689-f2245de9053d","ios":"levelo://app?vid=ebd5fff6-5420-41d1-8689-f2245de9053d"},"vehicle_type_id":"4","last_reported":1737043850,"current_range_meters":24400,"station_id":"ce4bhu92rcd13ifvqi70","pricing_plan_id":"cebpf4jnsgd1na2vs0mg"},{"bike_id":"7bff17cc-1c44-40d8-87ad-42c14976da2f","system_id":"levelo_inurba_marseille","lat":43.306,"lon":5.3808,"is_reserved":false,"is_disabled":false,"rental_uris":{"android":"levelo://app?vid=7bff17cc-1c44-40d8-87ad-42c14976da2f","ios":"levelo://app?vid=7bff17cc-1c44-40d8-87ad-42c14976da2f"},"vehicle_type_id":"4","last_reported":1737043850,"current_range_meters":12000,"station_id":"","pricing_plan_id":"cebpf4jnsgd1na2vs0mg"},{"bike_id":"44721705-52d0-4eba-b0b2-b41ea9586411","system_id":"levelo_inurba_marseille","lat":43.23179,"lon":5.35566,"is_reserved":false,"is_disabled":false,"rental_uris":{"android":"levelo://app?vid=44721705-52d0-4eba-b0b2-b41ea9586411","ios":"levelo://app?vid=44721705-52d0-4eba-b0b2-b41ea9586411"},"vehicle_type_id":"4","last_reported":1737043850,"current_range_meters":33600,"station_id":"ce4bhu92rcd13ifvqi70","pricing_plan_id":"cebpf4jnsgd1na2vs0mg"},{"bike_id":"6054bf87-a690-4620-ba3f-06895d956119","system_id":"levelo_inurba_marseille","lat":43.29278,"lon":5.36852,"is_reserved":false,"is_disabled":false,"rental_uris":{"android":"levelo://app?vid=6054bf87-a690-4620-ba3f-06895d956119","ios":"levelo://app?vid=6054bf87-a690-4620-ba3f-06895d956119"},"vehicle_type_id":"4","last_reported":1737043850,"current_range_meters":28000,"station_id":"ce4bhbp2rcd13ifvqesg","pricing_plan_id":"cebpf4jnsgd1na2vs0mg"},{"bike_id":"5cb5db6e-b9e6-43b4-b5c0-58640b4a8f8e","system_id":"levelo_inurba_marseille","lat":43.2792,"lon":5.39588,"is_reserved":false,"is_disabled":false,"rental_uris":{"android":"levelo://app?vid=5cb5db6e-b9e6-43b4-b5c0-58640b4a8f8e","ios":"levelo://app?vid=5cb5db6e-b9e6-43b4-b5c0-58640b4a8f8e"},"vehicle_type_id":"4","last_reported":1737043850,"current_range_meters":32000,"station_id":"ce4bhf92rcd13ifvqf40","pricing_plan_id":"cebpf4jnsgd1na2vs0mg"},{"bike_id":"c8460037-f22d-4486-aed6-b9e4ca6be513","system_id":"levelo_inurba_marseille","lat":43.30553,"lon":5.36532,"is_reserved":false,"is_disabled":false,"rental_uris":{"android":"levelo://app?vid=c8460037-f22d-4486-aed6-b9e4ca6be513","ios":"levelo://app?vid=c8460037-f22d-4486-aed6-b9e4ca6be513"},"vehicle_type_id":"4","last_reported":1737043850,"current_range_meters":28400,"station_id":"ce4bgs12rcd13ifvqcag","pricing_plan_id":"cebpf4jnsgd1na2vs0mg"},{"bike_id":"27371fc3-88d5-40e0-8fcb-13c0dd889d55","system_id":"levelo_inurba_marseille","lat":43.25828,"lon":5.39407,"is_reserved":false,"is_disabled":false,"rental_uris":{"android":"levelo://app?vid=27371fc3-88d5-40e0-8fcb-13c0dd889d55","ios":"levelo://app?vid=27371fc3-88d5-40e0-8fcb-13c0dd889d55"},"vehicle_type_id":"4","last_reported":1737043850,"current_range_meters":24800,"station_id":"ce4bhip2rcd13ifvqft0","pricing_plan_id":"cebpf4jnsgd1na2vs0mg"},{"bike_id":"ca2a8522-cc01-4006-8a0f-c4a9fc45589f","system_id":"levelo_inurba_marseille","lat":43.2499,"lon":5.38944,"is_reserved":false,"is_disabled":false,"rental_uris":{"android":"levelo://app?vid=ca2a8522-cc01-4006-8a0f-c4a9fc45589f","ios":"levelo://app?vid=ca2a8522-cc01-4006-8a0f-c4a9fc45589f"},"vehicle_type_id":"4","last_reported":1737043850,"current_range_meters":22400,"station_id":"ce4bhgp2rcd13ifvqfd0","pricing_plan_id":"cebpf4jnsgd1na2vs0mg"},{"bike_id":"e1f9a0b5-1419-4e67-ab24-a72ee45dfd85","system_id":"levelo_inurba_marseille","lat":43.241707,"lon":5.363973,"is_reserved":false,"is_disabled":false,"rental_uris":{"android":"levelo://app?vid=e1f9a0b5-1419-4e67-ab24-a72ee45dfd85","ios":"levelo://app?vid=e1f9a0b5-1419-4e67-ab24-a72ee45dfd85"},"vehicle_type_id":"4","last_reported":1737043850,"current_range_meters":20400,"station_id":"cpo36qri1sfpv3e86is0","pricing_plan_id":"cebpf4jnsgd1na2vs0mg"},{"bike_id":"98f32485-af82-43a0-85a8-4750c3cd811c","system_id":"levelo_inurba_marseille","lat":43.29554,"lon":5.37522,"is_reserved":false,"is_disabled":false,"rental_uris":{"android":"levelo://app?vid=98f32485-af82-43a0-85a8-4750c3cd811c","ios":"levelo://app?vid=98f32485-af82-43a0-85a8-4750c3cd811c"},"vehicle_type_id":"4","last_reported":1737043850,"current_range_meters":11600,"station_id":"ce4bgh92rcd13ifvqb50","pricing_plan_id":"cebpf4jnsgd1na2vs0mg"},{"bike_id":"a260603c-b529-486c-ace5-a7ed578de957","system_id":"levelo_inurba_marseille","lat":43.29565,"lon":5.37519,"is_reserved":false,"is_disabled":false,"rental_uris":{"android":"levelo://app?vid=a260603c-b529-486c-ace5-a7ed578de957","ios":"levelo://app?vid=a260603c-b529-486c-ace5-a7ed578de957"},"vehicle_type_id":"4","last_reported":1737043850,"current_range_meters":24000,"station_id":"ce4bgh92rcd13ifvqb50","pricing_plan_id":"cebpf4jnsgd1na2vs0mg"},{"bike_id":"f7a93299-4b31-44c2-976e-82f7878bc418","system_id":"levelo_inurba_marseille","lat":43.255,"lon":5.37668,"is_reserved":false,"is_disabled":false,"rental_uris":{"android":"levelo://app?vid=f7a93299-4b31-44c2-976e-82f7878bc418","ios":"levelo://app?vid=f7a93299-4b31-44c2-976e-82f7878bc418"},"vehicle_type_id":"4","last_reported":1737043850,"current_range_meters":38800,"station_id":"ce4bhh12rcd13ifvqff0","pricing_plan_id":"cebpf4jnsgd1na2vs0mg"},{"bike_id":"9914e5f6-1453-40f7-92da-fa40a7a0de94","system_id":"levelo_inurba_marseille","lat":43.29245,"lon":5.40123,"is_reserved":false,"is_disabled":false,"rental_uris":{"android":"levelo://app?vid=9914e5f6-1453-40f7-92da-fa40a7a0de94","ios":"levelo://app?vid=9914e5f6-1453-40f7-92da-fa40a7a0de94"},"vehicle_type_id":"4","last_reported":1737043850,"current_range_meters":5600,"station_id":"ce4bh312rcd13ifvqdk0","pricing_plan_id":"cebpf4jnsgd1na2vs0mg"},{"bike_id":"31f00ed0-b0ca-427a-9039-ac29c940ea2c","system_id":"levelo_inurba_marseille","lat":43.232,"lon":5.35553,"is_reserved":false,"is_disabled":false,"rental_uris":{"android":"levelo://app?vid=31f00ed0-b0ca-427a-9039-ac29c940ea2c","ios":"levelo://app?vid=31f00ed0-b0ca-427a-9039-ac29c940ea2c"},"vehicle_type_id":"4","last_reported":1737043850,"current_range_meters":18800,"station_id":"ce4bhu92rcd13ifvqi70","pricing_plan_id":"cebpf4jnsgd1na2vs0mg"},{"bike_id":"1f7ef294-c1ec-4ab7-9f53-d6785f564fb3","system_id":"levelo_inurba_marseille","lat":43.31084,"lon":5.4243,"is_reserved":false,"is_disabled":false,"rental_uris":{"android":"levelo://app?vid=1f7ef294-c1ec-4ab7-9f53-d6785f564fb3","ios":"levelo://app?vid=1f7ef294-c1ec-4ab7-9f53-d6785f564fb3"},"vehicle_type_id":"4","last_reported":1737043850,"current_range_meters":11600,"station_id":"ce4bhp92rcd13ifvqhag","pricing_plan_id":"cebpf4jnsgd1na2vs0mg"},{"bike_id":"8ccdb8e3-5350-4cab-8a81-1bd6181a6c06","system_id":"levelo_inurba_marseille","lat":43.2321,"lon":5.35549,"is_reserved":false,"is_disabled":false,"rental_uris":{"android":"levelo://app?vid=8ccdb8e3-5350-4cab-8a81-1bd6181a6c06","ios":"levelo://app?vid=8ccdb8e3-5350-4cab-8a81-1bd6181a6c06"},"vehicle_type_id":"4","last_reported":1737043850,"current_range_meters":29600,"station_id":"ce4bhu92rcd13ifvqi70","pricing_plan_id":"cebpf4jnsgd1na2vs0mg"},{"bike_id":"481dc877-f116-42ef-854c-605d03cb6d5f","system_id":"levelo_inurba_marseille","lat":43.25867,"lon":5.39894,"is_reserved":false,"is_disabled":false,"rental_uris":{"android":"levelo://app?vid=481dc877-f116-42ef-854c-605d03cb6d5f","ios":"levelo://app?vid=481dc877-f116-42ef-854c-605d03cb6d5f"},"vehicle_type_id":"4","last_reported":1737043850,"current_range_meters":39200,"station_id":"ce4bhl92rcd13ifvqghg","pricing_plan_id":"cebpf4jnsgd1na2vs0mg"},{"bike_id":"debf1d68-8b1d-4b6b-9d17-2e6033da6eb8","system_id":"levelo_inurba_marseille","lat":43.3132,"lon":5.39698,"is_reserved":false,"is_disabled":false,"rental_uris":{"android":"levelo://app?vid=debf1d68-8b1d-4b6b-9d17-2e6033da6eb8","ios":"levelo://app?vid=debf1d68-8b1d-4b6b-9d17-2e6033da6eb8"},"vehicle_type_id":"4","last_reported":1737043850,"current_range_meters":38800,"station_id":"ce4bgvp2rcd13ifvqcu0","pricing_plan_id":"cebpf4jnsgd1na2vs0mg"},{"bike_id":"ce201219-1b85-4591-9c32-ec85e024bdda","system_id":"levelo_inurba_marseille","lat":43.28616,"lon":5.351,"is_reserved":false,"is_disabled":false,"rental_uris":{"android":"levelo://app?vid=ce201219-1b85-4591-9c32-ec85e024bdda","ios":"levelo://app?vid=ce201219-1b85-4591-9c32-ec85e024bdda"},"vehicle_type_id":"4","last_reported":1737043850,"current_range_meters":33600,"station_id":"ce4bhch2rcd13ifvqeug","pricing_plan_id":"cebpf4jnsgd1na2vs0mg"},{"bike_id":"f5863b18-13a1-4c6e-92de-5668ea912ad3","system_id":"levelo_inurba_marseille","lat":43.26229,"lon":5.40447,"is_reserved":false,"is_disabled":true,"rental_uris":{"android":"levelo://app?vid=f5863b18-13a1-4c6e-92de-5668ea912ad3","ios":"levelo://app?vid=f5863b18-13a1-4c6e-92de-5668ea912ad3"},"vehicle_type_id":"4","last_reported":1737043850,"current_range_meters":1600,"station_id":"","pricing_plan_id":"cebpf4jnsgd1na2vs0mg"},{"bike_id":"ae96dbeb-b386-4f7c-99d5-f04669989075","system_id":"levelo_inurba_marseille","lat":43.30957,"lon":5.39027,"is_reserved":false,"is_disabled":false,"rental_uris":{"android":"levelo://app?vid=ae96dbeb-b386-4f7c-99d5-f04669989075","ios":"levelo://app?vid=ae96dbeb-b386-4f7c-99d5-f04669989075"},"vehicle_type_id":"4","last_reported":1737043850,"current_range_meters":33600,"station_id":"ce4bgup2rcd13ifvqco0","pricing_plan_id":"cebpf4jnsgd1na2vs0mg"},{"bike_id":"a8fad254-19bb-48fe-801d-9e93d4767cef","system_id":"levelo_inurba_marseille","lat":43.31425,"lon":5.37405,"is_reserved":false,"is_disabled":true,"rental_uris":{"android":"levelo://app?vid=a8fad254-19bb-48fe-801d-9e93d4767cef","ios":"levelo://app?vid=a8fad254-19bb-48fe-801d-9e93d4767cef"},"vehicle_type_id":"4","last_reported":1737043850,"current_range_meters":2000,"station_id":"","pricing_plan_id":"cebpf4jnsgd1na2vs0mg"},{"bike_id":"95a70787-da43-4a90-8971-d090331fb546","system_id":"levelo_inurba_marseille","lat":43.2512,"lon":5.40323,"is_reserved":false,"is_disabled":false,"rental_uris":{"android":"levelo://app?vid=95a70787-da43-4a90-8971-d090331fb546","ios":"levelo://app?vid=95a70787-da43-4a90-8971-d090331fb546"},"vehicle_type_id":"4","last_reported":1737043850,"current_range_meters":27600,"station_id":"ce4bhlh2rcd13ifvqgig","pricing_plan_id":"cebpf4jnsgd1na2vs0mg"},{"bike_id":"a9403cc9-b569-4fd7-91a7-ce17a7e41b92","system_id":"levelo_inurba_marseille","lat":43.25087,"lon":5.39525,"is_reserved":false,"is_disabled":false,"rental_uris":{"android":"levelo://app?vid=a9403cc9-b569-4fd7-91a7-ce17a7e41b92","ios":"levelo://app?vid=a9403cc9-b569-4fd7-91a7-ce17a7e41b92"},"vehicle_type_id":"4","last_reported":1737043850,"current_range_meters":22400,"station_id":"ce4bhm12rcd13ifvqgkg","pricing_plan_id":"cebpf4jnsgd1na2vs0mg"},{"bike_id":"b80538f1-bed7-4fbe-806c-123f996da5e7","system_id":"levelo_inurba_marseille","lat":43.30646,"lon":5.4009,"is_reserved":false,"is_disabled":false,"rental_uris":{"android":"levelo://app?vid=b80538f1-bed7-4fbe-806c-123f996da5e7","ios":"levelo://app?vid=b80538f1-bed7-4fbe-806c-123f996da5e7"},"vehicle_type_id":"4","last_reported":1737043850,"current_range_meters":12800,"station_id":"ce4bh112rcd13ifvqda0","pricing_plan_id":"cebpf4jnsgd1na2vs0mg"},{"bike_id":"e5f71037-c3e2-4a5c-b185-51bcddd625d8","system_id":"levelo_inurba_marseille","lat":43.23062,"lon":5.3549,"is_reserved":false,"is_disabled":false,"rental_uris":{"android":"levelo://app?vid=e5f71037-c3e2-4a5c-b185-51bcddd625d8","ios":"levelo://app?vid=e5f71037-c3e2-4a5c-b185-51bcddd625d8"},"vehicle_type_id":"4","last_reported":1737043850,"current_range_meters":4800,"station_id":"cpo3342slgdg3j2ifvpg","pricing_plan_id":"cebpf4jnsgd1na2vs0mg"},{"bike_id":"463fa0a6-9843-469b-879f-38eefc64b504","system_id":"levelo_inurba_marseille","lat":43.31083,"lon":5.42444,"is_reserved":false,"is_disabled":false,"rental_uris":{"android":"levelo://app?vid=463fa0a6-9843-469b-879f-38eefc64b504","ios":"levelo://app?vid=463fa0a6-9843-469b-879f-38eefc64b504"},"vehicle_type_id":"4","last_reported":1737043850,"current_range_meters":24000,"station_id":"ce4bhp92rcd13ifvqhag","pricing_plan_id":"cebpf4jnsgd1na2vs0mg"},{"bike_id":"0f7a8e48-bf3f-4a52-8552-74e922017538","system_id":"levelo_inurba_marseille","lat":43.30432,"lon":5.38893,"is_reserved":false,"is_disabled":false,"rental_uris":{"android":"levelo://app?vid=0f7a8e48-bf3f-4a52-8552-74e922017538","ios":"levelo://app?vid=0f7a8e48-bf3f-4a52-8552-74e922017538"},"vehicle_type_id":"4","last_reported":1737043850,"current_range_meters":17200,"station_id":"ce4bgk12rcd13ifvqbi0","pricing_plan_id":"cebpf4jnsgd1na2vs0mg"},{"bike_id":"a6491385-914e-4b84-9c1e-107dfd291d68","system_id":"levelo_inurba_marseille","lat":43.28611,"lon":5.35103,"is_reserved":false,"is_disabled":false,"rental_uris":{"android":"levelo://app?vid=a6491385-914e-4b84-9c1e-107dfd291d68","ios":"levelo://app?vid=a6491385-914e-4b84-9c1e-107dfd291d68"},"vehicle_type_id":"4","last_reported":1737043850,"current_range_meters":14000,"station_id":"ce4bhch2rcd13ifvqeug","pricing_plan_id":"cebpf4jnsgd1na2vs0mg"},{"bike_id":"d7d33a93-cb90-41b0-baeb-23a9bad3ef62","system_id":"levelo_inurba_marseille","lat":43.2848,"lon":5.38421,"is_reserved":false,"is_disabled":false,"rental_uris":{"android":"levelo://app?vid=d7d33a93-cb90-41b0-baeb-23a9bad3ef62","ios":"levelo://app?vid=d7d33a93-cb90-41b0-baeb-23a9bad3ef62"},"vehicle_type_id":"4","last_reported":1737043850,"current_range_meters":38800,"station_id":"ce4bh512rcd13ifvqe3g","pricing_plan_id":"cebpf4jnsgd1na2vs0mg"},{"bike_id":"b072f420-4357-43e2-9482-fec89157e75c","system_id":"levelo_inurba_marseille","lat":43.30887,"lon":5.37195,"is_reserved":false,"is_disabled":false,"rental_uris":{"android":"levelo://app?vid=b072f420-4357-43e2-9482-fec89157e75c","ios":"levelo://app?vid=b072f420-4357-43e2-9482-fec89157e75c"},"vehicle_type_id":"4","last_reported":1737043850,"current_range_meters":35200,"station_id":"ce4bguh2rcd13ifvqckg","pricing_plan_id":"cebpf4jnsgd1na2vs0mg"},{"bike_id":"9aaeb279-0ae0-4313-9c59-f7df11fd68db","system_id":"levelo_inurba_marseille","lat":43.29567,"lon":5.37501,"is_reserved":false,"is_disabled":false,"rental_uris":{"android":"levelo://app?vid=9aaeb279-0ae0-4313-9c59-f7df11fd68db","ios":"levelo://app?vid=9aaeb279-0ae0-4313-9c59-f7df11fd68db"},"vehicle_type_id":"4","last_reported":1737043850,"current_range_meters":38400,"station_id":"ce4bgh92rcd13ifvqb50","pricing_plan_id":"cebpf4jnsgd1na2vs0mg"},{"bike_id":"d7217db9-ea09-4c3b-8cf1-94b323427fc1","system_id":"levelo_inurba_marseille","lat":43.28276,"lon":5.35083,"is_reserved":false,"is_disabled":false,"rental_uris":{"android":"levelo://app?vid=d7217db9-ea09-4c3b-8cf1-94b323427fc1","ios":"levelo://app?vid=d7217db9-ea09-4c3b-8cf1-94b323427fc1"},"vehicle_type_id":"4","last_reported":1737043850,"current_range_meters":28400,"station_id":"ce4bhbp2rcd13ifvqerg","pricing_plan_id":"cebpf4jnsgd1na2vs0mg"},{"bike_id":"37965afd-ee75-49c6-9c90-89947a3cbd89","system_id":"levelo_inurba_marseille","lat":43.28729,"lon":5.36083,"is_reserved":false,"is_disabled":false,"rental_uris":{"android":"levelo://app?vid=37965afd-ee75-49c6-9c90-89947a3cbd89","ios":"levelo://app?vid=37965afd-ee75-49c6-9c90-89947a3cbd89"},"vehicle_type_id":"4","last_reported":1737043850,"current_range_meters":36400,"station_id":"cki0cbj6b192h4jlfktg","pricing_plan_id":"cebpf4jnsgd1na2vs0mg"},{"bike_id":"7d081940-2dc8-4a17-a173-b694c31520ae","system_id":"levelo_inurba_marseille","lat":43.2963,"lon":5.40603,"is_reserved":false,"is_disabled":false,"rental_uris":{"android":"levelo://app?vid=7d081940-2dc8-4a17-a173-b694c31520ae","ios":"levelo://app?vid=7d081940-2dc8-4a17-a173-b694c31520ae"},"vehicle_type_id":"4","last_reported":1737043850,"current_range_meters":38800,"station_id":"ce4bh0h2rcd13ifvqd60","pricing_plan_id":"cebpf4jnsgd1na2vs0mg"},{"bike_id":"8db63e0f-4abb-4788-801f-e4bb2df95251","system_id":"levelo_inurba_marseille","lat":43.29769,"lon":5.37104,"is_reserved":false,"is_disabled":false,"rental_uris":{"android":"levelo://app?vid=8db63e0f-4abb-4788-801f-e4bb2df95251","ios":"levelo://app?vid=8db63e0f-4abb-4788-801f-e4bb2df95251"},"vehicle_type_id":"4","last_reported":1737043850,"current_range_meters":37600,"station_id":"ce4bgop2rcd13ifvqc1g","pricing_plan_id":"cebpf4jnsgd1na2vs0mg"},{"bike_id":"1cd1658d-dcac-4315-ab2a-ade1a2c34dec","system_id":"levelo_inurba_marseille","lat":43.262041,"lon":5.379197,"is_reserved":false,"is_disabled":false,"rental_uris":{"android":"levelo://app?vid=1cd1658d-dcac-4315-ab2a-ade1a2c34dec","ios":"levelo://app?vid=1cd1658d-dcac-4315-ab2a-ade1a2c34dec"},"vehicle_type_id":"4","last_reported":1737043850,"current_range_meters":37600,"station_id":"ce4bhjp2rcd13ifvqg90","pricing_plan_id":"cebpf4jnsgd1na2vs0mg"},{"bike_id":"8947b970-acef-4643-a8ae-44bd0f4a2b58","system_id":"levelo_inurba_marseille","lat":43.31082,"lon":5.4243,"is_reserved":false,"is_disabled":false,"rental_uris":{"android":"levelo://app?vid=8947b970-acef-4643-a8ae-44bd0f4a2b58","ios":"levelo://app?vid=8947b970-acef-4643-a8ae-44bd0f4a2b58"},"vehicle_type_id":"4","last_reported":1737043850,"current_range_meters":28800,"station_id":"ce4bhp92rcd13ifvqhag","pricing_plan_id":"cebpf4jnsgd1na2vs0mg"},{"bike_id":"424eb7cb-562a-458d-aa85-11e6f99d131b","system_id":"levelo_inurba_marseille","lat":43.273765,"lon":5.36254,"is_reserved":false,"is_disabled":false,"rental_uris":{"android":"levelo://app?vid=424eb7cb-562a-458d-aa85-11e6f99d131b","ios":"levelo://app?vid=424eb7cb-562a-458d-aa85-11e6f99d131b"},"vehicle_type_id":"4","last_reported":1737043850,"current_range_meters":11600,"station_id":"ce4bhbh2rcd13ifvqeo0","pricing_plan_id":"cebpf4jnsgd1na2vs0mg"},{"bike_id":"0e3e7c2a-318b-4693-96e9-be47ad234300","system_id":"levelo_inurba_marseille","lat":43.297791,"lon":5.381286,"is_reserved":false,"is_disabled":false,"rental_uris":{"android":"levelo://app?vid=0e3e7c2a-318b-4693-96e9-be47ad234300","ios":"levelo://app?vid=0e3e7c2a-318b-4693-96e9-be47ad234300"},"vehicle_type_id":"4","last_reported":1737043850,"current_range_meters":30000,"station_id":"ce4bgip2rcd13ifvqbb0","pricing_plan_id":"cebpf4jnsgd1na2vs0mg"},{"bike_id":"8e32d0c6-df7c-4036-b142-1871a4674bba","system_id":"levelo_inurba_marseille","lat":43.323692,"lon":5.388926,"is_reserved":false,"is_disabled":false,"rental_uris":{"android":"levelo://app?vid=8e32d0c6-df7c-4036-b142-1871a4674bba","ios":"levelo://app?vid=8e32d0c6-df7c-4036-b142-1871a4674bba"},"vehicle_type_id":"4","last_reported":1737043850,"current_range_meters":19200,"station_id":"ce4bhqp2rcd13ifvqhog","pricing_plan_id":"cebpf4jnsgd1na2vs0mg"},{"bike_id":"1e38ee6b-79f1-4211-9fb7-dd8cae5d8fd2","system_id":"levelo_inurba_marseille","lat":43.27369,"lon":5.36262,"is_reserved":false,"is_disabled":false,"rental_uris":{"android":"levelo://app?vid=1e38ee6b-79f1-4211-9fb7-dd8cae5d8fd2","ios":"levelo://app?vid=1e38ee6b-79f1-4211-9fb7-dd8cae5d8fd2"},"vehicle_type_id":"4","last_reported":1737043850,"current_range_meters":38000,"station_id":"ce4bhbh2rcd13ifvqeo0","pricing_plan_id":"cebpf4jnsgd1na2vs0mg"},{"bike_id":"0d61f679-ac96-40f0-9e50-8070bd78c5ef","system_id":"levelo_inurba_marseille","lat":43.26196,"lon":5.37444,"is_reserved":false,"is_disabled":false,"rental_uris":{"android":"levelo://app?vid=0d61f679-ac96-40f0-9e50-8070bd78c5ef","ios":"levelo://app?vid=0d61f679-ac96-40f0-9e50-8070bd78c5ef"},"vehicle_type_id":"4","last_reported":1737043850,"current_range_meters":21600,"station_id":"ce4bhgp2rcd13ifvqfc0","pricing_plan_id":"cebpf4jnsgd1na2vs0mg"},{"bike_id":"552376cc-f535-4381-bf86-4a91d7b20f52","system_id":"levelo_inurba_marseille","lat":43.26689,"lon":5.38276,"is_reserved":false,"is_disabled":false,"rental_uris":{"android":"levelo://app?vid=552376cc-f535-4381-bf86-4a91d7b20f52","ios":"levelo://app?vid=552376cc-f535-4381-bf86-4a91d7b20f52"},"vehicle_type_id":"4","last_reported":1737043850,"current_range_meters":36800,"station_id":"ce4bhg92rcd13ifvqf90","pricing_plan_id":"cebpf4jnsgd1na2vs0mg"},{"bike_id":"0ab91b2f-8859-4081-a14d-c5c0c1c0e739","system_id":"levelo_inurba_marseille","lat":43.28025,"lon":5.36951,"is_reserved":false,"is_disabled":false,"rental_uris":{"android":"levelo://app?vid=0ab91b2f-8859-4081-a14d-c5c0c1c0e739","ios":"levelo://app?vid=0ab91b2f-8859-4081-a14d-c5c0c1c0e739"},"vehicle_type_id":"4","last_reported":1737043850,"current_range_meters":38800,"station_id":"ce4bha12rcd13ifvqef0","pricing_plan_id":"cebpf4jnsgd1na2vs0mg"},{"bike_id":"3fc466a4-5364-4636-99d9-c7e2cc2ff0c2","system_id":"levelo_inurba_marseille","lat":43.33022,"lon":5.39045,"is_reserved":false,"is_disabled":false,"rental_uris":{"android":"levelo://app?vid=3fc466a4-5364-4636-99d9-c7e2cc2ff0c2","ios":"levelo://app?vid=3fc466a4-5364-4636-99d9-c7e2cc2ff0c2"},"vehicle_type_id":"4","last_reported":1737043850,"current_range_meters":35200,"station_id":"ce4bhr92rcd13ifvqhrg","pricing_plan_id":"cebpf4jnsgd1na2vs0mg"},{"bike_id":"9fc2e505-732d-4b5e-a078-bf18a5ad6b1a","system_id":"levelo_inurba_marseille","lat":43.2465,"lon":5.38896,"is_reserved":false,"is_disabled":false,"rental_uris":{"android":"levelo://app?vid=9fc2e505-732d-4b5e-a078-bf18a5ad6b1a","ios":"levelo://app?vid=9fc2e505-732d-4b5e-a078-bf18a5ad6b1a"},"vehicle_type_id":"4","last_reported":1737043850,"current_range_meters":39200,"station_id":"ce4bhg12rcd13ifvqf60","pricing_plan_id":"cebpf4jnsgd1na2vs0mg"},{"bike_id":"45bb2fd4-c6a7-4f51-b39a-d48ce6372ac7","system_id":"levelo_inurba_marseille","lat":43.31329,"lon":5.39691,"is_reserved":false,"is_disabled":false,"rental_uris":{"android":"levelo://app?vid=45bb2fd4-c6a7-4f51-b39a-d48ce6372ac7","ios":"levelo://app?vid=45bb2fd4-c6a7-4f51-b39a-d48ce6372ac7"},"vehicle_type_id":"4","last_reported":1737043850,"current_range_meters":34000,"station_id":"ce4bgvp2rcd13ifvqcu0","pricing_plan_id":"cebpf4jnsgd1na2vs0mg"},{"bike_id":"9b5be7b5-3f92-40c8-ab89-55fbb597fcda","system_id":"levelo_inurba_marseille","lat":43.2844,"lon":5.39195,"is_reserved":false,"is_disabled":false,"rental_uris":{"android":"levelo://app?vid=9b5be7b5-3f92-40c8-ab89-55fbb597fcda","ios":"levelo://app?vid=9b5be7b5-3f92-40c8-ab89-55fbb597fcda"},"vehicle_type_id":"4","last_reported":1737043850,"current_range_meters":36000,"station_id":"ce4bhoh2rcd13ifvqh5g","pricing_plan_id":"cebpf4jnsgd1na2vs0mg"},{"bike_id":"7488394b-fc4a-46c0-93dc-002763aa13f1","system_id":"levelo_inurba_marseille","lat":43.32491,"lon":5.36558,"is_reserved":false,"is_disabled":false,"rental_uris":{"android":"levelo://app?vid=7488394b-fc4a-46c0-93dc-002763aa13f1","ios":"levelo://app?vid=7488394b-fc4a-46c0-93dc-002763aa13f1"},"vehicle_type_id":"4","last_reported":1737043850,"current_range_meters":12800,"station_id":"ce4bhs12rcd13ifvqhvg","pricing_plan_id":"cebpf4jnsgd1na2vs0mg"},{"bike_id":"8702bd8d-8f42-4259-9946-53cd0edfb069","system_id":"levelo_inurba_marseille","lat":43.30929,"lon":5.40148,"is_reserved":false,"is_disabled":false,"rental_uris":{"android":"levelo://app?vid=8702bd8d-8f42-4259-9946-53cd0edfb069","ios":"levelo://app?vid=8702bd8d-8f42-4259-9946-53cd0edfb069"},"vehicle_type_id":"4","last_reported":1737043850,"current_range_meters":32800,"station_id":"ce4bh0h2rcd13ifvqd40","pricing_plan_id":"cebpf4jnsgd1na2vs0mg"},{"bike_id":"93265de4-2e40-4c04-a419-9157b33f0179","system_id":"levelo_inurba_marseille","lat":43.29707,"lon":5.37669,"is_reserved":false,"is_disabled":false,"rental_uris":{"android":"levelo://app?vid=93265de4-2e40-4c04-a419-9157b33f0179","ios":"levelo://app?vid=93265de4-2e40-4c04-a419-9157b33f0179"},"vehicle_type_id":"4","last_reported":1737043850,"current_range_meters":38400,"station_id":"ce4bgkh2rcd13ifvqbl0","pricing_plan_id":"cebpf4jnsgd1na2vs0mg"},{"bike_id":"b8f28e2b-e01e-48fe-9b6e-a900012cd7f5","system_id":"levelo_inurba_marseille","lat":43.31492,"lon":5.37314,"is_reserved":false,"is_disabled":false,"rental_uris":{"android":"levelo://app?vid=b8f28e2b-e01e-48fe-9b6e-a900012cd7f5","ios":"levelo://app?vid=b8f28e2b-e01e-48fe-9b6e-a900012cd7f5"},"vehicle_type_id":"4","last_reported":1737043850,"current_range_meters":18000,"station_id":"ce4bgt12rcd13ifvqcd0","pricing_plan_id":"cebpf4jnsgd1na2vs0mg"},{"bike_id":"7dacef68-2a6c-4508-b27d-64fabdde2c7b","system_id":"levelo_inurba_marseille","lat":43.29603,"lon":5.3774,"is_reserved":false,"is_disabled":false,"rental_uris":{"android":"levelo://app?vid=7dacef68-2a6c-4508-b27d-64fabdde2c7b","ios":"levelo://app?vid=7dacef68-2a6c-4508-b27d-64fabdde2c7b"},"vehicle_type_id":"4","last_reported":1737043850,"current_range_meters":38800,"station_id":"ce4bgi92rcd13ifvqb90","pricing_plan_id":"cebpf4jnsgd1na2vs0mg"},{"bike_id":"f6c12b31-597c-49ab-a6ae-71a06c4f46fd","system_id":"levelo_inurba_marseille","lat":43.28721,"lon":5.36083,"is_reserved":false,"is_disabled":false,"rental_uris":{"android":"levelo://app?vid=f6c12b31-597c-49ab-a6ae-71a06c4f46fd","ios":"levelo://app?vid=f6c12b31-597c-49ab-a6ae-71a06c4f46fd"},"vehicle_type_id":"4","last_reported":1737043850,"current_range_meters":10800,"station_id":"cki0cbj6b192h4jlfktg","pricing_plan_id":"cebpf4jnsgd1na2vs0mg"},{"bike_id":"a9d92ac4-4270-44d4-9c73-6e9b286cbe6f","system_id":"levelo_inurba_marseille","lat":43.27923,"lon":5.39598,"is_reserved":false,"is_disabled":false,"rental_uris":{"android":"levelo://app?vid=a9d92ac4-4270-44d4-9c73-6e9b286cbe6f","ios":"levelo://app?vid=a9d92ac4-4270-44d4-9c73-6e9b286cbe6f"},"vehicle_type_id":"4","last_reported":1737043850,"current_range_meters":24000,"station_id":"ce4bhf92rcd13ifvqf40","pricing_plan_id":"cebpf4jnsgd1na2vs0mg"},{"bike_id":"b1b65588-d46e-4985-ab0d-6a43878d36fc","system_id":"levelo_inurba_marseille","lat":43.33737,"lon":5.39185,"is_reserved":false,"is_disabled":false,"rental_uris":{"android":"levelo://app?vid=b1b65588-d46e-4985-ab0d-6a43878d36fc","ios":"levelo://app?vid=b1b65588-d46e-4985-ab0d-6a43878d36fc"},"vehicle_type_id":"4","last_reported":1737043850,"current_range_meters":38800,"station_id":"ce4bhr92rcd13ifvqhsg","pricing_plan_id":"cebpf4jnsgd1na2vs0mg"},{"bike_id":"98840329-b43e-4341-ba2f-db9c839374b7","system_id":"levelo_inurba_marseille","lat":43.29257,"lon":5.40919,"is_reserved":false,"is_disabled":false,"rental_uris":{"android":"levelo://app?vid=98840329-b43e-4341-ba2f-db9c839374b7","ios":"levelo://app?vid=98840329-b43e-4341-ba2f-db9c839374b7"},"vehicle_type_id":"4","last_reported":1737043850,"current_range_meters":38800,"station_id":"ce4bh192rcd13ifvqdc0","pricing_plan_id":"cebpf4jnsgd1na2vs0mg"},{"bike_id":"0dcf3fa6-399b-40ef-a4fb-5df0f8126009","system_id":"levelo_inurba_marseille","lat":43.31991,"lon":5.38164,"is_reserved":false,"is_disabled":false,"rental_uris":{"android":"levelo://app?vid=0dcf3fa6-399b-40ef-a4fb-5df0f8126009","ios":"levelo://app?vid=0dcf3fa6-399b-40ef-a4fb-5df0f8126009"},"vehicle_type_id":"4","last_reported":1737043850,"current_range_meters":38400,"station_id":"ce4bhr12rcd13ifvqhpg","pricing_plan_id":"cebpf4jnsgd1na2vs0mg"},{"bike_id":"99242b69-26ab-42b9-932b-d27651143a84","system_id":"levelo_inurba_marseille","lat":43.28138,"lon":5.42648,"is_reserved":false,"is_disabled":false,"rental_uris":{"android":"levelo://app?vid=99242b69-26ab-42b9-932b-d27651143a84","ios":"levelo://app?vid=99242b69-26ab-42b9-932b-d27651143a84"},"vehicle_type_id":"4","last_reported":1737043850,"current_range_meters":19600,"station_id":"ce4bhnh2rcd13ifvqgug","pricing_plan_id":"cebpf4jnsgd1na2vs0mg"},{"bike_id":"8509165e-77f1-4bd6-8e4c-97aeb3a2c073","system_id":"levelo_inurba_marseille","lat":43.32354,"lon":5.38905,"is_reserved":false,"is_disabled":false,"rental_uris":{"android":"levelo://app?vid=8509165e-77f1-4bd6-8e4c-97aeb3a2c073","ios":"levelo://app?vid=8509165e-77f1-4bd6-8e4c-97aeb3a2c073"},"vehicle_type_id":"4","last_reported":1737043850,"current_range_meters":37600,"station_id":"ce4bhqp2rcd13ifvqhog","pricing_plan_id":"cebpf4jnsgd1na2vs0mg"},{"bike_id":"b6182f75-ed60-4a62-b450-752c3563dcc2","system_id":"levelo_inurba_marseille","lat":43.30591,"lon":5.39362,"is_reserved":false,"is_disabled":false,"rental_uris":{"android":"levelo://app?vid=b6182f75-ed60-4a62-b450-752c3563dcc2","ios":"levelo://app?vid=b6182f75-ed60-4a62-b450-752c3563dcc2"},"vehicle_type_id":"4","last_reported":1737043850,"current_range_meters":27600,"station_id":"ce4bh0p2rcd13ifvqd80","pricing_plan_id":"cebpf4jnsgd1na2vs0mg"},{"bike_id":"a6d4c3bc-5858-4f71-af5b-7e04cf97cdbe","system_id":"levelo_inurba_marseille","lat":43.2593,"lon":5.40877,"is_reserved":false,"is_disabled":false,"rental_uris":{"android":"levelo://app?vid=a6d4c3bc-5858-4f71-af5b-7e04cf97cdbe","ios":"levelo://app?vid=a6d4c3bc-5858-4f71-af5b-7e04cf97cdbe"},"vehicle_type_id":"4","last_reported":1737043850,"current_range_meters":38800,"station_id":"ce4bhm92rcd13ifvqglg","pricing_plan_id":"cebpf4jnsgd1na2vs0mg"},{"bike_id":"a865a35e-ce76-434f-b86f-d50d622d360a","system_id":"levelo_inurba_marseille","lat":43.25494,"lon":5.37657,"is_reserved":false,"is_disabled":false,"rental_uris":{"android":"levelo://app?vid=a865a35e-ce76-434f-b86f-d50d622d360a","ios":"levelo://app?vid=a865a35e-ce76-434f-b86f-d50d622d360a"},"vehicle_type_id":"4","last_reported":1737043850,"current_range_meters":33200,"station_id":"ce4bhh12rcd13ifvqff0","pricing_plan_id":"cebpf4jnsgd1na2vs0mg"},{"bike_id":"8abb819b-80a4-42e8-bb18-d8f458e80f0b","system_id":"levelo_inurba_marseille","lat":43.28625,"lon":5.35078,"is_reserved":false,"is_disabled":false,"rental_uris":{"android":"levelo://app?vid=8abb819b-80a4-42e8-bb18-d8f458e80f0b","ios":"levelo://app?vid=8abb819b-80a4-42e8-bb18-d8f458e80f0b"},"vehicle_type_id":"4","last_reported":1737043850,"current_range_meters":33600,"station_id":"ce4bhch2rcd13ifvqeug","pricing_plan_id":"cebpf4jnsgd1na2vs0mg"},{"bike_id":"bec9872c-daa4-4eb4-bb7a-1b6264b57490","system_id":"levelo_inurba_marseille","lat":43.28607,"lon":5.37053,"is_reserved":false,"is_disabled":false,"rental_uris":{"android":"levelo://app?vid=bec9872c-daa4-4eb4-bb7a-1b6264b57490","ios":"levelo://app?vid=bec9872c-daa4-4eb4-bb7a-1b6264b57490"},"vehicle_type_id":"4","last_reported":1737043850,"current_range_meters":38000,"station_id":"ce4bht12rcd13ifvqi60","pricing_plan_id":"cebpf4jnsgd1na2vs0mg"},