{"last_updated":1773450540,"ttl":60,"version":"2.2","data":{"bikes":[{"bike_id":"0ad92778-0405-4162-92fa-faf21d3b3fbb","system_id":"levelo_inurba_marseille","lat":43.30139,"lon":5.38775,"is_reserved":false,"is_disabled":false,"rental_uris":{"android":"levelo://app?vid=0ad92778-0405-4162-92fa-faf21d3b3fbb","ios":"levelo://app?vid=0ad92778-0405-4162-92fa-faf21d3b3fbb"},"vehicle_type_id":"4","last_reported":1773450541,"current_range_meters":39200,"station_id":"ce4bghh2rcd13ifvqb60","pricing_plan_id":"cebpf4jnsgd1na2vs0mg"},{"bike_id":"84258842-b27c-44d2-a3e3-a8ab065af084","system_id":"levelo_inurba_marseille","lat":43.26061,"lon":5.39402,"is_reserved":false,"is_disabled":false,"rental_uris":{"android":"levelo://app?vid=84258842-b27c-44d2-a3e3-a8ab065af084","ios":"levelo://app?vid=84258842-b27c-44d2-a3e3-a8ab065af084"},"vehicle_type_id":"4","last_reported":1773450541,"current_range_meters":36000,"station_id":"ce4bhh92rcd13ifvqfj0","pricing_plan_id":"cebpf4jnsgd1na2vs0mg"},{"bike_id":"4ee1719e-9828-41ad-ab0e-ac501a6f8dcb","system_id":"levelo_inurba_marseille","lat":43.2606,"lon":5.394,"is_reserved":false,"is_disabled":false,"rental_uris":{"android":"levelo://app?vid=4ee1719e-9828-41ad-ab0e-ac501a6f8dcb","ios":"levelo://app?vid=4ee1719e-9828-41ad-ab0e-ac501a6f8dcb"},"vehicle_type_id":"4","last_reported":1773450541,"current_range_meters":11200,"station_id":"ce4bhh92rcd13ifvqfj0","pricing_plan_id":"cebpf4jnsgd1na2vs0mg"},{"bike_id":"e4c6d513-0f75-4d36-ab87-e09b44465632","system_id":"levelo_inurba_marseille","lat":43.27381,"lon":5.36246,"is_reserved":false,"is_disabled":true,"rental_uris":{"android":"levelo://app?vid=e4c6d513-0f75-4d36-ab87-e09b44465632","ios":"levelo://app?vid=e4c6d513-0f75-4d36-ab87-e09b44465632"},"vehicle_type_id":"4","last_reported":1773450541,"current_range_meters":38400,"station_id":"ce4bhbh2rcd13ifvqeo0","pricing_plan_id":"cebpf4jnsgd1na2vs0mg"},{"bike_id":"7e14bc2e-55c7-4a67-9771-c3ccbb379574","system_id":"levelo_inurba_marseille","lat":43.28437,"lon":5.39205,"is_reserved":false,"is_disabled":false,"rental_uris":{"android":"levelo://app?vid=7e14bc2e-55c7-4a67-9771-c3ccbb379574","ios":"levelo://app?vid=7e14bc2e-55c7-4a67-9771-c3ccbb379574"},"vehicle_type_id":"4","last_reported":1773450541,"current_range_meters":4800,"station_id":"ce4bhoh2rcd13ifvqh5g","pricing_plan_id":"cebpf4jnsgd1na2vs0mg"},{"bike_id":"df1cb355-42ee-497d-aa87-681cf9401c01","system_id":"levelo_inurba_marseille","lat":43.30134,"lon":5.38764,"is_reserved":false,"is_disabled":false,"rental_uris":{"android":"levelo://app?vid=df1cb355-42ee-497d-aa87-681cf9401c01","ios":"levelo://app?vid=df1cb355-42ee-497d-aa87-681cf9401c01"},"vehicle_type_id":"4","last_reported":1773450541,"current_range_meters":10800,"station_id":"ce4bghh2rcd13ifvqb60","pricing_plan_id":"cebpf4jnsgd1na2vs0mg"},{"bike_id":"3ea5179b-699d-45b5-a6d1-f3b54a0b1f97","system_id":"levelo_inurba_marseille","lat":43.29279,"lon":5.40111,"is_reserved":false,"is_disabled":false,"rental_uris":{"android":"levelo://app?vid=3ea5179b-699d-45b5-a6d1-f3b54a0b1f97","ios":"levelo://app?vid=3ea5179b-699d-45b5-a6d1-f3b54a0b1f97"},"vehicle_type_id":"4","last_reported":1773450541,"current_range_meters":22800,"station_id":"ce4bh312rcd13ifvqdk0","pricing_plan_id":"cebpf4jnsgd1na2vs0mg"},{"bike_id":"dfd0a0f6-5285-4bd7-80a4-14fead877d67","system_id":"levelo_inurba_marseille","lat":43.25094,"lon":5.39502,"is_reserved":false,"is_disabled":false,"rental_uris":{"android":"levelo://app?vid=dfd0a0f6-5285-4bd7-80a4-14fead877d67","ios":"levelo://app?vid=dfd0a0f6-5285-4bd7-80a4-14fead877d67"},"vehicle_type_id":"4","last_reported":1773450541,"current_range_meters":35600,"station_id":"ce4bhm12rcd13ifvqgkg","pricing_plan_id":"cebpf4jnsgd1na2vs0mg"},{"bike_id":"10131142-51d3-48eb-9d71-f77ee928720f","system_id":"levelo_inurba_marseille","lat":43.28415,"lon":5.37495,"is_reserved":false,"is_disabled":false,"rental_uris":{"android":"levelo://app?vid=10131142-51d3-48eb-9d71-f77ee928720f","ios":"levelo://app?vid=10131142-51d3-48eb-9d71-f77ee928720f"},"vehicle_type_id":"4","last_reported":1773450541,"current_range_meters":17600,"station_id":"ce4bh412rcd13ifvqds0","pricing_plan_id":"cebpf4jnsgd1na2vs0mg"},{"bike_id":"18f35d94-7133-4b4b-a629-0bec9d48af36","system_id":"levelo_inurba_marseille","lat":43.28477,"lon":5.48389,"is_reserved":false,"is_disabled":false,"rental_uris":{"android":"levelo://app?vid=18f35d94-7133-4b4b-a629-0bec9d48af36","ios":"levelo://app?vid=18f35d94-7133-4b4b-a629-0bec9d48af36"},"vehicle_type_id":"4","last_reported":1773450541,"current_range_meters":27200,"station_id":"","pricing_plan_id":"cebpf4jnsgd1na2vs0mg"},{"bike_id":"058a40ef-aca0-46a1-b31e-3c5dc3514929","system_id":"levelo_inurba_marseille","lat":43.28425,"lon":5.34971,"is_reserved":false,"is_disabled":false,"rental_uris":{"android":"levelo://app?vid=058a40ef-aca0-46a1-b31e-3c5dc3514929","ios":"levelo://app?vid=058a40ef-aca0-46a1-b31e-3c5dc3514929"},"vehicle_type_id":"4","last_reported":1773450541,"current_range_meters":38400,"station_id":"ce4bhbh2rcd13ifvqepg","pricing_plan_id":"cebpf4jnsgd1na2vs0mg"},{"bike_id":"41cb7e86-279c-46aa-999e-3f3d964547db","system_id":"levelo_inurba_marseille","lat":43.31329,"lon":5.39695,"is_reserved":false,"is_disabled":true,"rental_uris":{"android":"levelo://app?vid=41cb7e86-279c-46aa-999e-3f3d964547db","ios":"levelo://app?vid=41cb7e86-279c-46aa-999e-3f3d964547db"},"vehicle_type_id":"4","last_reported":1773450541,"current_range_meters":0,"station_id":"ce4bgvp2rcd13ifvqcu0","pricing_plan_id":"cebpf4jnsgd1na2vs0mg"},{"bike_id":"7db92065-fd6e-4014-982f-daf9b3e1e88d","system_id":"levelo_inurba_marseille","lat":43.25819,"lon":5.39421,"is_reserved":false,"is_disabled":false,"rental_uris":{"android":"levelo://app?vid=7db92065-fd6e-4014-982f-daf9b3e1e88d","ios":"levelo://app?vid=7db92065-fd6e-4014-982f-daf9b3e1e88d"},"vehicle_type_id":"4","last_reported":1773450541,"current_range_meters":17200,"station_id":"ce4bhip2rcd13ifvqft0","pricing_plan_id":"cebpf4jnsgd1na2vs0mg"},{"bike_id":"0a5b7893-4a63-4a1d-aa56-2bd7aa02765a","system_id":"levelo_inurba_marseille","lat":43.3002,"lon":5.38477,"is_reserved":false,"is_disabled":true,"rental_uris":{"android":"levelo://app?vid=0a5b7893-4a63-4a1d-aa56-2bd7aa02765a","ios":"levelo://app?vid=0a5b7893-4a63-4a1d-aa56-2bd7aa02765a"},"vehicle_type_id":"4","last_reported":1773450541,"current_range_meters":39200,"station_id":"","pricing_plan_id":"cebpf4jnsgd1na2vs0mg"},{"bike_id":"2160cf90-c2ed-4bac-8d60-36bbdf94fd16","system_id":"levelo_inurba_marseille","lat":43.31487,"lon":5.37287,"is_reserved":false,"is_disabled":false,"rental_uris":{"android":"levelo://app?vid=2160cf90-c2ed-4bac-8d60-36bbdf94fd16","ios":"levelo://app?vid=2160cf90-c2ed-4bac-8d60-36bbdf94fd16"},"vehicle_type_id":"4","last_reported":1773450541,"current_range_meters":37600,"station_id":"ce4bgt12rcd13ifvqcd0","pricing_plan_id":"cebpf4jnsgd1na2vs0mg"},{"bike_id":"23ec502b-0c7b-403d-91cb-1fdb6af13d42","system_id":"levelo_inurba_marseille","lat":43.29916,"lon":5.37519,"is_reserved":false,"is_disabled":true,"rental_uris":{"android":"levelo://app?vid=23ec502b-0c7b-403d-91cb-1fdb6af13d42","ios":"levelo://app?vid=23ec502b-0c7b-403d-91cb-1fdb6af13d42"},"vehicle_type_id":"4","last_reported":1773450541,"current_range_meters":35200,"station_id":"ce4bgjh2rcd13ifvqbg0","pricing_plan_id":"cebpf4jnsgd1na2vs0mg"},{"bike_id":"d535127d-b482-45bf-972b-548270862af8","system_id":"levelo_inurba_marseille","lat":43.30292,"lon":5.39201,"is_reserved":false,"is_disabled":false,"rental_uris":{"android":"levelo://app?vid=d535127d-b482-45bf-972b-548270862af8","ios":"levelo://app?vid=d535127d-b482-45bf-972b-548270862af8"},"vehicle_type_id":"4","last_reported":1773450541,"current_range_meters":38000,"station_id":"ce4bgkh2rcd13ifvqbk0","pricing_plan_id":"cebpf4jnsgd1na2vs0mg"},{"bike_id":"4a6e962b-de22-4ab6-993c-2385ed69dadf","system_id":"levelo_inurba_marseille","lat":43.26578,"lon":5.37286,"is_reserved":false,"is_disabled":false,"rental_uris":{"android":"levelo://app?vid=4a6e962b-de22-4ab6-993c-2385ed69dadf","ios":"levelo://app?vid=4a6e962b-de22-4ab6-993c-2385ed69dadf"},"vehicle_type_id":"4","last_reported":1773450541,"current_range_meters":11600,"station_id":"ce4bhg12rcd13ifvqf70","pricing_plan_id":"cebpf4jnsgd1na2vs0mg"},{"bike_id":"85cd8cb8-1572-4483-8d2e-ca06fd40ed7c","system_id":"levelo_inurba_marseille","lat":43.32297,"lon":5.38278,"is_reserved":false,"is_disabled":false,"rental_uris":{"android":"levelo://app?vid=85cd8cb8-1572-4483-8d2e-ca06fd40ed7c","ios":"levelo://app?vid=85cd8cb8-1572-4483-8d2e-ca06fd40ed7c"},"vehicle_type_id":"4","last_reported":1773450541,"current_range_meters":39200,"station_id":"ce4bhr12rcd13ifvqhqg","pricing_plan_id":"cebpf4jnsgd1na2vs0mg"},{"bike_id":"3831a459-884d-4c08-bf21-cab0941d2778","system_id":"levelo_inurba_marseille","lat":43.27812,"lon":5.40699,"is_reserved":false,"is_disabled":false,"rental_uris":{"android":"levelo://app?vid=3831a459-884d-4c08-bf21-cab0941d2778","ios":"levelo://app?vid=3831a459-884d-4c08-bf21-cab0941d2778"},"vehicle_type_id":"4","last_reported":1773450541,"current_range_meters":37600,"station_id":"ce4bhnh2rcd13ifvqgtg","pricing_plan_id":"cebpf4jnsgd1na2vs0mg"},{"bike_id":"1aed14f1-e52d-4e6e-b29b-cd4b82bd2364","system_id":"levelo_inurba_marseille","lat":43.26683,"lon":5.38267,"is_reserved":false,"is_disabled":false,"rental_uris":{"android":"levelo://app?vid=1aed14f1-e52d-4e6e-b29b-cd4b82bd2364","ios":"levelo://app?vid=1aed14f1-e52d-4e6e-b29b-cd4b82bd2364"},"vehicle_type_id":"4","last_reported":1773450541,"current_range_meters":36800,"station_id":"ce4bhg92rcd13ifvqf90","pricing_plan_id":"cebpf4jnsgd1na2vs0mg"},{"bike_id":"1c63ee0c-ff6f-42e1-a853-8ec9f0d7e6d1","system_id":"levelo_inurba_marseille","lat":43.30444,"lon":5.38885,"is_reserved":false,"is_disabled":false,"rental_uris":{"android":"levelo://app?vid=1c63ee0c-ff6f-42e1-a853-8ec9f0d7e6d1","ios":"levelo://app?vid=1c63ee0c-ff6f-42e1-a853-8ec9f0d7e6d1"},"vehicle_type_id":"4","last_reported":1773450541,"current_range_meters":30800,"station_id":"ce4bgk12rcd13ifvqbi0","pricing_plan_id":"cebpf4jnsgd1na2vs0mg"},{"bike_id":"a922fe28-c7a8-4324-b6b3-a3df84724c67","system_id":"levelo_inurba_marseille","lat":43.30611,"lon":5.37223,"is_reserved":false,"is_disabled":false,"rental_uris":{"android":"levelo://app?vid=a922fe28-c7a8-4324-b6b3-a3df84724c67","ios":"levelo://app?vid=a922fe28-c7a8-4324-b6b3-a3df84724c67"},"vehicle_type_id":"4","last_reported":1773450541,"current_range_meters":26800,"station_id":"ce4bgqh2rcd13ifvqc4g","pricing_plan_id":"cebpf4jnsgd1na2vs0mg"},{"bike_id":"e0fb680a-263a-4fe2-bcfe-15703457df9f","system_id":"levelo_inurba_marseille","lat":43.30803,"lon":5.38157,"is_reserved":false,"is_disabled":false,"rental_uris":{"android":"levelo://app?vid=e0fb680a-263a-4fe2-bcfe-15703457df9f","ios":"levelo://app?vid=e0fb680a-263a-4fe2-bcfe-15703457df9f"},"vehicle_type_id":"4","last_reported":1773450541,"current_range_meters":23200,"station_id":"ce4bgt12rcd13ifvqce0","pricing_plan_id":"cebpf4jnsgd1na2vs0mg"},{"bike_id":"924c8abd-06a9-4ab6-b637-74a1029d2683","system_id":"levelo_inurba_marseille","lat":43.3042,"lon":5.39749,"is_reserved":false,"is_disabled":false,"rental_uris":{"android":"levelo://app?vid=924c8abd-06a9-4ab6-b637-74a1029d2683","ios":"levelo://app?vid=924c8abd-06a9-4ab6-b637-74a1029d2683"},"vehicle_type_id":"4","last_reported":1773450541,"current_range_meters":32000,"station_id":"ce4bh092rcd13ifvqd20","pricing_plan_id":"cebpf4jnsgd1na2vs0mg"},{"bike_id":"480a954f-db3c-4cd5-acb5-179ba9006c67","system_id":"levelo_inurba_marseille","lat":43.28538,"lon":5.44098,"is_reserved":false,"is_disabled":false,"rental_uris":{"android":"levelo://app?vid=480a954f-db3c-4cd5-acb5-179ba9006c67","ios":"levelo://app?vid=480a954f-db3c-4cd5-acb5-179ba9006c67"},"vehicle_type_id":"4","last_reported":1773450541,"current_range_meters":30400,"station_id":"st_d3j3df2ikq2c7380ej80","pricing_plan_id":"cebpf4jnsgd1na2vs0mg"},{"bike_id":"719f14e6-0b0b-47de-a198-d0325eeb6b12","system_id":"levelo_inurba_marseille","lat":43.28455,"lon":5.35894,"is_reserved":false,"is_disabled":false,"rental_uris":{"android":"levelo://app?vid=719f14e6-0b0b-47de-a198-d0325eeb6b12","ios":"levelo://app?vid=719f14e6-0b0b-47de-a198-d0325eeb6b12"},"vehicle_type_id":"4","last_reported":1773450541,"current_range_meters":29600,"station_id":"ce4bhah2rcd13ifvqei0","pricing_plan_id":"cebpf4jnsgd1na2vs0mg"},{"bike_id":"071351a7-eea7-4a49-8d71-a9ecadb9cf45","system_id":"levelo_inurba_marseille","lat":43.29273,"lon":5.40124,"is_reserved":false,"is_disabled":false,"rental_uris":{"android":"levelo://app?vid=071351a7-eea7-4a49-8d71-a9ecadb9cf45","ios":"levelo://app?vid=071351a7-eea7-4a49-8d71-a9ecadb9cf45"},"vehicle_type_id":"4","last_reported":1773450541,"current_range_meters":31200,"station_id":"ce4bh312rcd13ifvqdk0","pricing_plan_id":"cebpf4jnsgd1na2vs0mg"},{"bike_id":"81c1125e-f8a3-49a5-b6f8-41d65f77b948","system_id":"levelo_inurba_marseille","lat":43.30778,"lon":5.37634,"is_reserved":false,"is_disabled":false,"rental_uris":{"android":"levelo://app?vid=81c1125e-f8a3-49a5-b6f8-41d65f77b948","ios":"levelo://app?vid=81c1125e-f8a3-49a5-b6f8-41d65f77b948"},"vehicle_type_id":"4","last_reported":1773450541,"current_range_meters":17600,"station_id":"ce4bgv92rcd13ifvqcq0","pricing_plan_id":"cebpf4jnsgd1na2vs0mg"},{"bike_id":"04f1721f-1a2a-4a46-bb2d-543bfbf22fd1","system_id":"levelo_inurba_marseille","lat":43.2847,"lon":5.35891,"is_reserved":false,"is_disabled":false,"rental_uris":{"android":"levelo://app?vid=04f1721f-1a2a-4a46-bb2d-543bfbf22fd1","ios":"levelo://app?vid=04f1721f-1a2a-4a46-bb2d-543bfbf22fd1"},"vehicle_type_id":"4","last_reported":1773450541,"current_range_meters":23200,"station_id":"ce4bhah2rcd13ifvqei0","pricing_plan_id":"cebpf4jnsgd1na2vs0mg"},{"bike_id":"1f49797c-2eb0-4b96-9bc7-2370c7c23180","system_id":"levelo_inurba_marseille","lat":43.27364,"lon":5.3625,"is_reserved":false,"is_disabled":false,"rental_uris":{"android":"levelo://app?vid=1f49797c-2eb0-4b96-9bc7-2370c7c23180","ios":"levelo://app?vid=1f49797c-2eb0-4b96-9bc7-2370c7c23180"},"vehicle_type_id":"4","last_reported":1773450541,"current_range_meters":34000,"station_id":"ce4bhbh2rcd13ifvqeo0","pricing_plan_id":"cebpf4jnsgd1na2vs0mg"},{"bike_id":"b308e7af-e586-420b-b9a4-425c9b9ae1c7","system_id":"levelo_inurba_marseille","lat":43.3054,"lon":5.36691,"is_reserved":false,"is_disabled":false,"rental_uris":{"android":"levelo://app?vid=b308e7af-e586-420b-b9a4-425c9b9ae1c7","ios":"levelo://app?vid=b308e7af-e586-420b-b9a4-425c9b9ae1c7"},"vehicle_type_id":"4","last_reported":1773450541,"current_range_meters":36800,"station_id":"ce4bgrp2rcd13ifvqc9g","pricing_plan_id":"cebpf4jnsgd1na2vs0mg"},{"bike_id":"39e5dfee-f031-4742-ad5f-b826fb519621","system_id":"levelo_inurba_marseille","lat":43.29041,"lon":5.40008,"is_reserved":false,"is_disabled":false,"rental_uris":{"android":"levelo://app?vid=39e5dfee-f031-4742-ad5f-b826fb519621","ios":"levelo://app?vid=39e5dfee-f031-4742-ad5f-b826fb519621"},"vehicle_type_id":"4","last_reported":1773450541,"current_range_meters":38800,"station_id":"ce4bh392rcd13ifvqdm0","pricing_plan_id":"cebpf4jnsgd1na2vs0mg"},{"bike_id":"106b5c17-3a4d-41d5-888b-1edf1f351e6e","system_id":"levelo_inurba_marseille","lat":43.25837,"lon":5.39443,"is_reserved":false,"is_disabled":false,"rental_uris":{"android":"levelo://app?vid=106b5c17-3a4d-41d5-888b-1edf1f351e6e","ios":"levelo://app?vid=106b5c17-3a4d-41d5-888b-1edf1f351e6e"},"vehicle_type_id":"4","last_reported":1773450541,"current_range_meters":40000,"station_id":"ce4bhip2rcd13ifvqft0","pricing_plan_id":"cebpf4jnsgd1na2vs0mg"},{"bike_id":"ced05e86-2551-48cf-8692-7f3559e5deac","system_id":"levelo_inurba_marseille","lat":43.29504,"lon":5.43299,"is_reserved":false,"is_disabled":false,"rental_uris":{"android":"levelo://app?vid=ced05e86-2551-48cf-8692-7f3559e5deac","ios":"levelo://app?vid=ced05e86-2551-48cf-8692-7f3559e5deac"},"vehicle_type_id":"4","last_reported":1773450541,"current_range_meters":11200,"station_id":"st_d3j5ugp08ojc73fj9d10","pricing_plan_id":"cebpf4jnsgd1na2vs0mg"},{"bike_id":"430be471-af5f-4ca3-b604-c4bd0be30fbc","system_id":"levelo_inurba_marseille","lat":43.29211,"lon":5.39323,"is_reserved":false,"is_disabled":false,"rental_uris":{"android":"levelo://app?vid=430be471-af5f-4ca3-b604-c4bd0be30fbc","ios":"levelo://app?vid=430be471-af5f-4ca3-b604-c4bd0be30fbc"},"vehicle_type_id":"4","last_reported":1773450541,"current_range_meters":39200,"station_id":"ce4bh192rcd13ifvqdd0","pricing_plan_id":"cebpf4jnsgd1na2vs0mg"},{"bike_id":"fe08e6a2-4e71-4f44-9b62-3d58616ed6db","system_id":"levelo_inurba_marseille","lat":43.30458,"lon":5.38885,"is_reserved":false,"is_disabled":false,"rental_uris":{"android":"levelo://app?vid=fe08e6a2-4e71-4f44-9b62-3d58616ed6db","ios":"levelo://app?vid=fe08e6a2-4e71-4f44-9b62-3d58616ed6db"},"vehicle_type_id":"4","last_reported":1773450541,"current_range_meters":39200,"station_id":"ce4bgk12rcd13ifvqbi0","pricing_plan_id":"cebpf4jnsgd1na2vs0mg"},{"bike_id":"e5725ce8-50a2-40ca-b011-9888ac1cf133","system_id":"levelo_inurba_marseille","lat":43.27371,"lon":5.36246,"is_reserved":false,"is_disabled":false,"rental_uris":{"android":"levelo://app?vid=e5725ce8-50a2-40ca-b011-9888ac1cf133","ios":"levelo://app?vid=e5725ce8-50a2-40ca-b011-9888ac1cf133"},"vehicle_type_id":"4","last_reported":1773450541,"current_range_meters":35200,"station_id":"ce4bhbh2rcd13ifvqeo0","pricing_plan_id":"cebpf4jnsgd1na2vs0mg"},{"bike_id":"41ae287c-9cc1-430a-84ca-70506bc523b6","system_id":"levelo_inurba_marseille","lat":43.22571,"lon":5.41641,"is_reserved":false,"is_disabled":false,"rental_uris":{"android":"levelo://app?vid=41ae287c-9cc1-430a-84ca-70506bc523b6","ios":"levelo://app?vid=41ae287c-9cc1-430a-84ca-70506bc523b6"},"vehicle_type_id":"4","last_reported":1773450541,"current_range_meters":38800,"station_id":"st_d2o4gvlbi1j2169b742g","pricing_plan_id":"cebpf4jnsgd1na2vs0mg"},{"bike_id":"fe8dfa27-62f0-46d6-ba43-c3127399aaa0","system_id":"levelo_inurba_marseille","lat":43.29631,"lon":5.42142,"is_reserved":false,"is_disabled":false,"rental_uris":{"android":"levelo://app?vid=fe8dfa27-62f0-46d6-ba43-c3127399aaa0","ios":"levelo://app?vid=fe8dfa27-62f0-46d6-ba43-c3127399aaa0"},"vehicle_type_id":"4","last_reported":1773450541,"current_range_meters":27600,"station_id":"","pricing_plan_id":"cebpf4jnsgd1na2vs0mg"},{"bike_id":"5c0630ed-bd2b-4642-b36b-ddb6b84186db","system_id":"levelo_inurba_marseille","lat":43.30732,"lon":5.42447,"is_reserved":false,"is_disabled":false,"rental_uris":{"android":"levelo://app?vid=5c0630ed-bd2b-4642-b36b-ddb6b84186db","ios":"levelo://app?vid=5c0630ed-bd2b-4642-b36b-ddb6b84186db"},"vehicle_type_id":"4","last_reported":1773450541,"current_range_meters":27600,"station_id":"st_cvj6ca6bvosntc0bfgr0","pricing_plan_id":"cebpf4jnsgd1na2vs0mg"},{"bike_id":"38e5107a-fdc2-431b-892a-488d0107acb0","system_id":"levelo_inurba_marseille","lat":43.30629,"lon":5.37241,"is_reserved":false,"is_disabled":false,"rental_uris":{"android":"levelo://app?vid=38e5107a-fdc2-431b-892a-488d0107acb0","ios":"levelo://app?vid=38e5107a-fdc2-431b-892a-488d0107acb0"},"vehicle_type_id":"4","last_reported":1773450541,"current_range_meters":34800,"station_id":"ce4bgqh2rcd13ifvqc4g","pricing_plan_id":"cebpf4jnsgd1na2vs0mg"},{"bike_id":"1fb50a2e-5ade-431b-9186-e78a36465668","system_id":"levelo_inurba_marseille","lat":43.30544,"lon":5.38423,"is_reserved":false,"is_disabled":false,"rental_uris":{"android":"levelo://app?vid=1fb50a2e-5ade-431b-9186-e78a36465668","ios":"levelo://app?vid=1fb50a2e-5ade-431b-9186-e78a36465668"},"vehicle_type_id":"4","last_reported":1773450541,"current_range_meters":38000,"station_id":"ce4bgg92rcd13ifvqb30","pricing_plan_id":"cebpf4jnsgd1na2vs0mg"},{"bike_id":"1faa01e2-edd3-4ac7-b477-a225bc019925","system_id":"levelo_inurba_marseille","lat":43.30826,"lon":5.3817,"is_reserved":false,"is_disabled":false,"rental_uris":{"android":"levelo://app?vid=1faa01e2-edd3-4ac7-b477-a225bc019925","ios":"levelo://app?vid=1faa01e2-edd3-4ac7-b477-a225bc019925"},"vehicle_type_id":"4","last_reported":1773450541,"current_range_meters":26800,"station_id":"ce4bgt12rcd13ifvqce0","pricing_plan_id":"cebpf4jnsgd1na2vs0mg"},{"bike_id":"bbd01454-2423-4218-8a6f-60bf3a414075","system_id":"levelo_inurba_marseille","lat":43.28707,"lon":5.37403,"is_reserved":false,"is_disabled":false,"rental_uris":{"android":"levelo://app?vid=bbd01454-2423-4218-8a6f-60bf3a414075","ios":"levelo://app?vid=bbd01454-2423-4218-8a6f-60bf3a414075"},"vehicle_type_id":"4","last_reported":1773450541,"current_range_meters":6400,"station_id":"ce4bh3p2rcd13ifvqdq0","pricing_plan_id":"cebpf4jnsgd1na2vs0mg"},{"bike_id":"e4ba382c-7c51-4960-ab81-2ed3cc4d9a20","system_id":"levelo_inurba_marseille","lat":43.30903,"lon":5.39607,"is_reserved":false,"is_disabled":false,"rental_uris":{"android":"levelo://app?vid=e4ba382c-7c51-4960-ab81-2ed3cc4d9a20","ios":"levelo://app?vid=e4ba382c-7c51-4960-ab81-2ed3cc4d9a20"},"vehicle_type_id":"4","last_reported":1773450541,"current_range_meters":20800,"station_id":"ce4bh012rcd13ifvqcv0","pricing_plan_id":"cebpf4jnsgd1na2vs0mg"},{"bike_id":"1fa66c7c-5bbe-4c72-8397-ac5bb2c15dc7","system_id":"levelo_inurba_marseille","lat":43.32374,"lon":5.38867,"is_reserved":false,"is_disabled":false,"rental_uris":{"android":"levelo://app?vid=1fa66c7c-5bbe-4c72-8397-ac5bb2c15dc7","ios":"levelo://app?vid=1fa66c7c-5bbe-4c72-8397-ac5bb2c15dc7"},"vehicle_type_id":"4","last_reported":1773450541,"current_range_meters":39200,"station_id":"ce4bhqp2rcd13ifvqhog","pricing_plan_id":"cebpf4jnsgd1na2vs0mg"},{"bike_id":"210de9b4-3033-4c95-a839-e4b62a601c40","system_id":"levelo_inurba_marseille","lat":43.27765,"lon":5.40794,"is_reserved":false,"is_disabled":false,"rental_uris":{"android":"levelo://app?vid=210de9b4-3033-4c95-a839-e4b62a601c40","ios":"levelo://app?vid=210de9b4-3033-4c95-a839-e4b62a601c40"},"vehicle_type_id":"4","last_reported":1773450541,"current_range_meters":8400,"station_id":"","pricing_plan_id":"cebpf4jnsgd1na2vs0mg"},{"bike_id":"ee97d76b-d430-4b45-b3b0-dd8a973c7e77","system_id":"levelo_inurba_marseille","lat":43.23964,"lon":5.36624,"is_reserved":false,"is_disabled":false,"rental_uris":{"android":"levelo://app?vid=ee97d76b-d430-4b45-b3b0-dd8a973c7e77","ios":"levelo://app?vid=ee97d76b-d430-4b45-b3b0-dd8a973c7e77"},"vehicle_type_id":"4","last_reported":1773450541,"current_range_meters":14800,"station_id":"ce4bhi12rcd13ifvqfp0","pricing_plan_id":"cebpf4jnsgd1na2vs0mg"},{"bike_id":"97ecf467-9bc2-4716-8380-618c7c7ef61e","system_id":"levelo_inurba_marseille","lat":43.31591,"lon":5.37365,"is_reserved":false,"is_disabled":false,"rental_uris":{"android":"levelo://app?vid=97ecf467-9bc2-4716-8380-618c7c7ef61e","ios":"levelo://app?vid=97ecf467-9bc2-4716-8380-618c7c7ef61e"},"vehicle_type_id":"4","last_reported":1773450541,"current_range_meters":3200,"station_id":"","pricing_plan_id":"cebpf4jnsgd1na2vs0mg"},{"bike_id":"3af7df18-3735-4378-872e-321d771d6193","system_id":"levelo_inurba_marseille","lat":43.301103,"lon":5.400342,"is_reserved":false,"is_disabled":false,"rental_uris":{"android":"levelo://app?vid=3af7df18-3735-4378-872e-321d771d6193","ios":"levelo://app?vid=3af7df18-3735-4378-872e-321d771d6193"},"vehicle_type_id":"4","last_reported":1773450541,"current_range_meters":33200,"station_id":"ce4bgvh2rcd13ifvqcs0","pricing_plan_id":"cebpf4jnsgd1na2vs0mg"},{"bike_id":"d614b50d-6540-48cb-b405-eb6da0677b33","system_id":"levelo_inurba_marseille","lat":43.30238,"lon":5.40045,"is_reserved":false,"is_disabled":false,"rental_uris":{"android":"levelo://app?vid=d614b50d-6540-48cb-b405-eb6da0677b33","ios":"levelo://app?vid=d614b50d-6540-48cb-b405-eb6da0677b33"},"vehicle_type_id":"4","last_reported":1773450541,"current_range_meters":39200,"station_id":"ce4bgvh2rcd13ifvqcs0","pricing_plan_id":"cebpf4jnsgd1na2vs0mg"},{"bike_id":"79483cf5-647d-48ac-aac7-04b4eee60681","system_id":"levelo_inurba_marseille","lat":43.31366,"lon":5.36706,"is_reserved":false,"is_disabled":true,"rental_uris":{"android":"levelo://app?vid=79483cf5-647d-48ac-aac7-04b4eee60681","ios":"levelo://app?vid=79483cf5-647d-48ac-aac7-04b4eee60681"},"vehicle_type_id":"4","last_reported":1773450541,"current_range_meters":38000,"station_id":"","pricing_plan_id":"cebpf4jnsgd1na2vs0mg"},{"bike_id":"a32106be-375b-4a35-92db-7951151fd382","system_id":"levelo_inurba_marseille","lat":43.29664,"lon":5.37121,"is_reserved":false,"is_disabled":true,"rental_uris":{"android":"levelo://app?vid=a32106be-375b-4a35-92db-7951151fd382","ios":"levelo://app?vid=a32106be-375b-4a35-92db-7951151fd382"},"vehicle_type_id":"4","last_reported":1773450541,"current_range_meters":27200,"station_id":"ce4bgnh2rcd13ifvqc0g","pricing_plan_id":"cebpf4jnsgd1na2vs0mg"},{"bike_id":"bc3ac679-c52a-4fed-b3c1-b50ca4322ada","system_id":"levelo_inurba_marseille","lat":43.28971,"lon":5.37845,"is_reserved":false,"is_disabled":false,"rental_uris":{"android":"levelo://app?vid=bc3ac679-c52a-4fed-b3c1-b50ca4322ada","ios":"levelo://app?vid=bc3ac679-c52a-4fed-b3c1-b50ca4322ada"},"vehicle_type_id":"4","last_reported":1773450541,"current_range_meters":15200,"station_id":"ce4bh9p2rcd13ifvqed0","pricing_plan_id":"cebpf4jnsgd1na2vs0mg"},{"bike_id":"1456d7b8-e2f9-4205-9584-20f6abe58a4d","system_id":"levelo_inurba_marseille","lat":43.30078,"lon":5.43728,"is_reserved":false,"is_disabled":false,"rental_uris":{"android":"levelo://app?vid=1456d7b8-e2f9-4205-9584-20f6abe58a4d","ios":"levelo://app?vid=1456d7b8-e2f9-4205-9584-20f6abe58a4d"},"vehicle_type_id":"4","last_reported":1773450541,"current_range_meters":30000,"station_id":"","pricing_plan_id":"cebpf4jnsgd1na2vs0mg"},{"bike_id":"114e304d-e20d-4f8a-9525-1a164e809dee","system_id":"levelo_inurba_marseille","lat":43.23955,"lon":5.36629,"is_reserved":false,"is_disabled":false,"rental_uris":{"android":"levelo://app?vid=114e304d-e20d-4f8a-9525-1a164e809dee","ios":"levelo://app?vid=114e304d-e20d-4f8a-9525-1a164e809dee"},"vehicle_type_id":"4","last_reported":1773450541,"current_range_meters":28400,"station_id":"ce4bhi12rcd13ifvqfp0","pricing_plan_id":"cebpf4jnsgd1na2vs0mg"},{"bike_id":"ed805e5c-c91a-41a9-a21f-ce0355ac464f","system_id":"levelo_inurba_marseille","lat":43.28486,"lon":5.35889,"is_reserved":false,"is_disabled":true,"rental_uris":{"android":"levelo://app?vid=ed805e5c-c91a-41a9-a21f-ce0355ac464f","ios":"levelo://app?vid=ed805e5c-c91a-41a9-a21f-ce0355ac464f"},"vehicle_type_id":"4","last_reported":1773450541,"current_range_meters":19200,"station_id":"ce4bhah2rcd13ifvqei0","pricing_plan_id":"cebpf4jnsgd1na2vs0mg"},{"bike_id":"a29ef319-c201-4a0d-88b8-75666b991d70","system_id":"levelo_inurba_marseille","lat":43.30207,"lon":5.39438,"is_reserved":false,"is_disabled":false,"rental_uris":{"android":"levelo://app?vid=a29ef319-c201-4a0d-88b8-75666b991d70","ios":"levelo://app?vid=a29ef319-c201-4a0d-88b8-75666b991d70"},"vehicle_type_id":"4","last_reported":1773450541,"current_range_meters":12800,"station_id":"ce4bh0p2rcd13ifvqd70","pricing_plan_id":"cebpf4jnsgd1na2vs0mg"},{"bike_id":"a954461b-2487-41f8-9b27-2c78b4f723ea","system_id":"levelo_inurba_marseille","lat":43.30149,"lon":5.38096,"is_reserved":false,"is_disabled":true,"rental_uris":{"android":"levelo://app?vid=a954461b-2487-41f8-9b27-2c78b4f723ea","ios":"levelo://app?vid=a954461b-2487-41f8-9b27-2c78b4f723ea"},"vehicle_type_id":"4","last_reported":1773450541,"current_range_meters":26800,"station_id":"ce4bgjp2rcd13ifvqbh0","pricing_plan_id":"cebpf4jnsgd1na2vs0mg"},{"bike_id":"71c48386-33ee-404d-8473-5643f69a7641","system_id":"levelo_inurba_marseille","lat":43.28943,"lon":5.36417,"is_reserved":false,"is_disabled":false,"rental_uris":{"android":"levelo://app?vid=71c48386-33ee-404d-8473-5643f69a7641","ios":"levelo://app?vid=71c48386-33ee-404d-8473-5643f69a7641"},"vehicle_type_id":"4","last_reported":1773450541,"current_range_meters":24000,"station_id":"ce4bhc92rcd13ifvqetg","pricing_plan_id":"cebpf4jnsgd1na2vs0mg"},{"bike_id":"a64fd749-da53-4223-b873-757b3f4d5f8c","system_id":"levelo_inurba_marseille","lat":43.28426,"lon":5.39204,"is_reserved":false,"is_disabled":false,"rental_uris":{"android":"levelo://app?vid=a64fd749-da53-4223-b873-757b3f4d5f8c","ios":"levelo://app?vid=a64fd749-da53-4223-b873-757b3f4d5f8c"},"vehicle_type_id":"4","last_reported":1773450541,"current_range_meters":38000,"station_id":"ce4bhoh2rcd13ifvqh5g","pricing_plan_id":"cebpf4jnsgd1na2vs0mg"},{"bike_id":"84f4a2bf-2617-4f6d-b5b2-52999d43fb4f","system_id":"levelo_inurba_marseille","lat":43.27374,"lon":5.36254,"is_reserved":false,"is_disabled":false,"rental_uris":{"android":"levelo://app?vid=84f4a2bf-2617-4f6d-b5b2-52999d43fb4f","ios":"levelo://app?vid=84f4a2bf-2617-4f6d-b5b2-52999d43fb4f"},"vehicle_type_id":"4","last_reported":1773450541,"current_range_meters":39200,"station_id":"ce4bhbh2rcd13ifvqeo0","pricing_plan_id":"cebpf4jnsgd1na2vs0mg"},{"bike_id":"5747ffcf-aa70-4b75-b110-285afeb704b8","system_id":"levelo_inurba_marseille","lat":43.31173,"lon":5.38729,"is_reserved":false,"is_disabled":false,"rental_uris":{"android":"levelo://app?vid=5747ffcf-aa70-4b75-b110-285afeb704b8","ios":"levelo://app?vid=5747ffcf-aa70-4b75-b110-285afeb704b8"},"vehicle_type_id":"4","last_reported":1773450541,"current_range_meters":4400,"station_id":"ce4bgv12rcd13ifvqcp0","pricing_plan_id":"cebpf4jnsgd1na2vs0mg"},{"bike_id":"012bb7fa-e4d0-4138-9c92-350c5c6b2640","system_id":"levelo_inurba_marseille","lat":43.2854,"lon":5.44095,"is_reserved":false,"is_disabled":false,"rental_uris":{"android":"levelo://app?vid=012bb7fa-e4d0-4138-9c92-350c5c6b2640","ios":"levelo://app?vid=012bb7fa-e4d0-4138-9c92-350c5c6b2640"},"vehicle_type_id":"4","last_reported":1773450541,"current_range_meters":28400,"station_id":"st_d3j3df2ikq2c7380ej80","pricing_plan_id":"cebpf4jnsgd1na2vs0mg"},{"bike_id":"33248cdb-5a12-47c2-a5a5-eaf5b9099ba0","system_id":"levelo_inurba_marseille","lat":43.29297,"lon":5.40109,"is_reserved":false,"is_disabled":false,"rental_uris":{"android":"levelo://app?vid=33248cdb-5a12-47c2-a5a5-eaf5b9099ba0","ios":"levelo://app?vid=33248cdb-5a12-47c2-a5a5-eaf5b9099ba0"},"vehicle_type_id":"4","last_reported":1773450541,"current_range_meters":39200,"station_id":"ce4bh312rcd13ifvqdk0","pricing_plan_id":"cebpf4jnsgd1na2vs0mg"},{"bike_id":"959cb468-adf5-492c-a8a7-a3170c99be64","system_id":"levelo_inurba_marseille","lat":43.27081,"lon":5.38297,"is_reserved":false,"is_disabled":false,"rental_uris":{"android":"levelo://app?vid=959cb468-adf5-492c-a8a7-a3170c99be64","ios":"levelo://app?vid=959cb468-adf5-492c-a8a7-a3170c99be64"},"vehicle_type_id":"4","last_reported":1773450541,"current_range_meters":12400,"station_id":"st_d3n2fo6cfp8s73cte1j0","pricing_plan_id":"cebpf4jnsgd1na2vs0mg"},{"bike_id":"f32212cf-6d01-43e1-9d28-c332d31396c9","system_id":"levelo_inurba_marseille","lat":43.24675,"lon":5.43357,"is_reserved":false,"is_disabled":false,"rental_uris":{"android":"levelo://app?vid=f32212cf-6d01-43e1-9d28-c332d31396c9","ios":"levelo://app?vid=f32212cf-6d01-43e1-9d28-c332d31396c9"},"vehicle_type_id":"4","last_reported":1773450541,"current_range_meters":20400,"station_id":"","pricing_plan_id":"cebpf4jnsgd1na2vs0mg"},{"bike_id":"6acc6294-778e-4389-ae09-ea37b9c06714","system_id":"levelo_inurba_marseille","lat":43.29727,"lon":5.41059,"is_reserved":false,"is_disabled":false,"rental_uris":{"android":"levelo://app?vid=6acc6294-778e-4389-ae09-ea37b9c06714","ios":"levelo://app?vid=6acc6294-778e-4389-ae09-ea37b9c06714"},"vehicle_type_id":"4","last_reported":1773450541,"current_range_meters":17600,"station_id":"","pricing_plan_id":"cebpf4jnsgd1na2vs0mg"},{"bike_id":"b877202d-ac34-44d6-bd82-d679130bd979","system_id":"levelo_inurba_marseille","lat":43.2749,"lon":5.42439,"is_reserved":false,"is_disabled":false,"rental_uris":{"android":"levelo://app?vid=b877202d-ac34-44d6-bd82-d679130bd979","ios":"levelo://app?vid=b877202d-ac34-44d6-bd82-d679130bd979"},"vehicle_type_id":"4","last_reported":1773450541,"current_range_meters":29600,"station_id":"ce4bhn92rcd13ifvqgrg","pricing_plan_id":"cebpf4jnsgd1na2vs0mg"},{"bike_id":"968e0752-94e3-4427-8693-dccfb2dc93c6","system_id":"levelo_inurba_marseille","lat":43.32339,"lon":5.38841,"is_reserved":false,"is_disabled":false,"rental_uris":{"android":"levelo://app?vid=968e0752-94e3-4427-8693-dccfb2dc93c6","ios":"levelo://app?vid=968e0752-94e3-4427-8693-dccfb2dc93c6"},"vehicle_type_id":"4","last_reported":1773450541,"current_range_meters":36400,"station_id":"ce4bhqp2rcd13ifvqhog","pricing_plan_id":"cebpf4jnsgd1na2vs0mg"},{"bike_id":"48752a35-84d5-41f4-a4fc-fe7d40fd9bc9","system_id":"levelo_inurba_marseille","lat":43.30807,"lon":5.38144,"is_reserved":false,"is_disabled":false,"rental_uris":{"android":"levelo://app?vid=48752a35-84d5-41f4-a4fc-fe7d40fd9bc9","ios":"levelo://app?vid=48752a35-84d5-41f4-a4fc-fe7d40fd9bc9"},"vehicle_type_id":"4","last_reported":1773450541,"current_range_meters":39200,"station_id":"ce4bgt12rcd13ifvqce0","pricing_plan_id":"cebpf4jnsgd1na2vs0mg"},{"bike_id":"e3e76d2d-3d94-4e20-902c-c8b694af4dd8","system_id":"levelo_inurba_marseille","lat":43.27952,"lon":5.41043,"is_reserved":false,"is_disabled":false,"rental_uris":{"android":"levelo://app?vid=e3e76d2d-3d94-4e20-902c-c8b694af4dd8","ios":"levelo://app?vid=e3e76d2d-3d94-4e20-902c-c8b694af4dd8"},"vehicle_type_id":"4","last_reported":1773450541,"current_range_meters":28000,"station_id":"ce4bhnp2rcd13ifvqh0g","pricing_plan_id":"cebpf4jnsgd1na2vs0mg"},{"bike_id":"40cdf2e8-76b5-43fa-bd2e-1a8eb6026b51","system_id":"levelo_inurba_marseille","lat":43.28979,"lon":5.42582,"is_reserved":false,"is_disabled":false,"rental_uris":{"android":"levelo://app?vid=40cdf2e8-76b5-43fa-bd2e-1a8eb6026b51","ios":"levelo://app?vid=40cdf2e8-76b5-43fa-bd2e-1a8eb6026b51"},"vehicle_type_id":"4","last_reported":1773450541,"current_range_meters":24400,"station_id":"","pricing_plan_id":"cebpf4jnsgd1na2vs0mg"},{"bike_id":"885c5720-f8e3-4815-a477-98ae4026ad54","system_id":"levelo_inurba_marseille","lat":43.29143,"lon":5.39954,"is_reserved":false,"is_disabled":false,"rental_uris":{"android":"levelo://app?vid=885c5720-f8e3-4815-a477-98ae4026ad54","ios":"levelo://app?vid=885c5720-f8e3-4815-a477-98ae4026ad54"},"vehicle_type_id":"4","last_reported":1773450541,"current_range_meters":37600,"station_id":"","pricing_plan_id":"cebpf4jnsgd1na2vs0mg"},{"bike_id":"5dbc8de5-1746-40c6-890f-29dadb98e0ce","system_id":"levelo_inurba_marseille","lat":43.28448,"lon":5.34973,"is_reserved":false,"is_disabled":false,"rental_uris":{"android":"levelo://app?vid=5dbc8de5-1746-40c6-890f-29dadb98e0ce","ios":"levelo://app?vid=5dbc8de5-1746-40c6-890f-29dadb98e0ce"},"vehicle_type_id":"4","last_reported":1773450541,"current_range_meters":35600,"station_id":"ce4bhbh2rcd13ifvqepg","pricing_plan_id":"cebpf4jnsgd1na2vs0mg"},{"bike_id":"71501c24-7c0d-4212-996a-19e1a1605792","system_id":"levelo_inurba_marseille","lat":43.29502,"lon":5.43292,"is_reserved":false,"is_disabled":false,"rental_uris":{"android":"levelo://app?vid=71501c24-7c0d-4212-996a-19e1a1605792","ios":"levelo://app?vid=71501c24-7c0d-4212-996a-19e1a1605792"},"vehicle_type_id":"4","last_reported":1773450541,"current_range_meters":2800,"station_id":"st_d3j5ugp08ojc73fj9d10","pricing_plan_id":"cebpf4jnsgd1na2vs0mg"},{"bike_id":"c5cd6bee-ff6a-4f9b-9fb4-3be2cd8497cf","system_id":"levelo_inurba_marseille","lat":43.24414,"lon":5.37049,"is_reserved":false,"is_disabled":false,"rental_uris":{"android":"levelo://app?vid=c5cd6bee-ff6a-4f9b-9fb4-3be2cd8497cf","ios":"levelo://app?vid=c5cd6bee-ff6a-4f9b-9fb4-3be2cd8497cf"},"vehicle_type_id":"4","last_reported":1773450541,"current_range_meters":6800,"station_id":"ce4bhhh2rcd13ifvqfk0","pricing_plan_id":"cebpf4jnsgd1na2vs0mg"},{"bike_id":"72e16886-e6be-40d7-9db6-717ac812c857","system_id":"levelo_inurba_marseille","lat":43.30193,"lon":5.39995,"is_reserved":false,"is_disabled":true,"rental_uris":{"android":"levelo://app?vid=72e16886-e6be-40d7-9db6-717ac812c857","ios":"levelo://app?vid=72e16886-e6be-40d7-9db6-717ac812c857"},"vehicle_type_id":"4","last_reported":1773450541,"current_range_meters":16000,"station_id":"","pricing_plan_id":"cebpf4jnsgd1na2vs0mg"},{"bike_id":"d5455e83-72e4-4ef4-9233-f07b53171cfa","system_id":"levelo_inurba_marseille","lat":43.24951,"lon":5.40484,"is_reserved":false,"is_disabled":false,"rental_uris":{"android":"levelo://app?vid=d5455e83-72e4-4ef4-9233-f07b53171cfa","ios":"levelo://app?vid=d5455e83-72e4-4ef4-9233-f07b53171cfa"},"vehicle_type_id":"4","last_reported":1773450541,"current_range_meters":3200,"station_id":"st_d2ngiaodas8pm72gd1h0","pricing_plan_id":"cebpf4jnsgd1na2vs0mg"},{"bike_id":"4b3e344f-d5f5-47ea-a0e1-c3ff7ab3ba9f","system_id":"levelo_inurba_marseille","lat":43.23389,"lon":5.41234,"is_reserved":false,"is_disabled":false,"rental_uris":{"android":"levelo://app?vid=4b3e344f-d5f5-47ea-a0e1-c3ff7ab3ba9f","ios":"levelo://app?vid=4b3e344f-d5f5-47ea-a0e1-c3ff7ab3ba9f"},"vehicle_type_id":"4","last_reported":1773450541,"current_range_meters":31200,"station_id":"","pricing_plan_id":"cebpf4jnsgd1na2vs0mg"},{"bike_id":"73a3a2e2-ad08-4100-a709-dad3d58213af","system_id":"levelo_inurba_marseille","lat":43.30417,"lon":5.41278,"is_reserved":false,"is_disabled":false,"rental_uris":{"android":"levelo://app?vid=73a3a2e2-ad08-4100-a709-dad3d58213af","ios":"levelo://app?vid=73a3a2e2-ad08-4100-a709-dad3d58213af"},"vehicle_type_id":"4","last_reported":1773450541,"current_range_meters":22800,"station_id":"ce4bhop2rcd13ifvqh8g","pricing_plan_id":"cebpf4jnsgd1na2vs0mg"},{"bike_id":"f3427802-5878-400c-8520-966a18283862","system_id":"levelo_inurba_marseille","lat":43.25142,"lon":5.40345,"is_reserved":false,"is_disabled":false,"rental_uris":{"android":"levelo://app?vid=f3427802-5878-400c-8520-966a18283862","ios":"levelo://app?vid=f3427802-5878-400c-8520-966a18283862"},"vehicle_type_id":"4","last_reported":1773450541,"current_range_meters":27600,"station_id":"ce4bhlh2rcd13ifvqgig","pricing_plan_id":"cebpf4jnsgd1na2vs0mg"},{"bike_id":"b4e7db43-0bcb-420a-8a8e-7147b4affb13","system_id":"levelo_inurba_marseille","lat":43.28562,"lon":5.39482,"is_reserved":false,"is_disabled":false,"rental_uris":{"android":"levelo://app?vid=b4e7db43-0bcb-420a-8a8e-7147b4affb13","ios":"levelo://app?vid=b4e7db43-0bcb-420a-8a8e-7147b4affb13"},"vehicle_type_id":"4","last_reported":1773450541,"current_range_meters":33200,"station_id":"ce4bh292rcd13ifvqdg0","pricing_plan_id":"cebpf4jnsgd1na2vs0mg"},{"bike_id":"1b76ca95-f18f-46ad-b5e2-115c03b09dc0","system_id":"levelo_inurba_marseille","lat":43.29799,"lon":5.42746,"is_reserved":false,"is_disabled":false,"rental_uris":{"android":"levelo://app?vid=1b76ca95-f18f-46ad-b5e2-115c03b09dc0","ios":"levelo://app?vid=1b76ca95-f18f-46ad-b5e2-115c03b09dc0"},"vehicle_type_id":"4","last_reported":1773450541,"current_range_meters":24000,"station_id":"st_d3md5207bmas73dh9klg","pricing_plan_id":"cebpf4jnsgd1na2vs0mg"},{"bike_id":"aa1ea814-effc-4a82-a7ce-fc6b0be25510","system_id":"levelo_inurba_marseille","lat":43.31837,"lon":5.36982,"is_reserved":false,"is_disabled":false,"rental_uris":{"android":"levelo://app?vid=aa1ea814-effc-4a82-a7ce-fc6b0be25510","ios":"levelo://app?vid=aa1ea814-effc-4a82-a7ce-fc6b0be25510"},"vehicle_type_id":"4","last_reported":1773450541,"current_range_meters":36400,"station_id":"","pricing_plan_id":"cebpf4jnsgd1na2vs0mg"},{"bike_id":"7704b38f-82bd-49cd-9941-f2baf8ee666d","system_id":"levelo_inurba_marseille","lat":43.27618,"lon":5.36116,"is_reserved":false,"is_disabled":false,"rental_uris":{"android":"levelo://app?vid=7704b38f-82bd-49cd-9941-f2baf8ee666d","ios":"levelo://app?vid=7704b38f-82bd-49cd-9941-f2baf8ee666d"},"vehicle_type_id":"4","last_reported":1773450541,"current_range_meters":28400,"station_id":"ce4bgj92rcd13ifvqbe0","pricing_plan_id":"cebpf4jnsgd1na2vs0mg"},{"bike_id":"93b038d9-2cb8-45d1-acbc-dd4e629d63a0","system_id":"levelo_inurba_marseille","lat":43.25509,"lon":5.37642,"is_reserved":false,"is_disabled":false,"rental_uris":{"android":"levelo://app?vid=93b038d9-2cb8-45d1-acbc-dd4e629d63a0","ios":"levelo://app?vid=93b038d9-2cb8-45d1-acbc-dd4e629d63a0"},"vehicle_type_id":"4","last_reported":1773450541,"current_range_meters":4000,"station_id":"ce4bhh12rcd13ifvqff0","pricing_plan_id":"cebpf4jnsgd1na2vs0mg"},{"bike_id":"10b5bc78-7677-4fe1-b764-f014c1f25939","system_id":"levelo_inurba_marseille","lat":43.30289,"lon":5.36934,"is_reserved":false,"is_disabled":false,"rental_uris":{"android":"levelo://app?vid=10b5bc78-7677-4fe1-b764-f014c1f25939","ios":"levelo://app?vid=10b5bc78-7677-4fe1-b764-f014c1f25939"},"vehicle_type_id":"4","last_reported":1773450541,"current_range_meters":32400,"station_id":"ce4bgqh2rcd13ifvqc5g","pricing_plan_id":"cebpf4jnsgd1na2vs0mg"},{"bike_id":"7a4c48ba-f270-413c-a15b-9a608d497a67","system_id":"levelo_inurba_marseille","lat":43.27823,"lon":5.40714,"is_reserved":false,"is_disabled":false,"rental_uris":{"android":"levelo://app?vid=7a4c48ba-f270-413c-a15b-9a608d497a67","ios":"levelo://app?vid=7a4c48ba-f270-413c-a15b-9a608d497a67"},"vehicle_type_id":"4","last_reported":1773450541,"current_range_meters":39200,"station_id":"ce4bhnh2rcd13ifvqgtg","pricing_plan_id":"cebpf4jnsgd1na2vs0mg"},{"bike_id":"9bb58202-02ff-4e31-a3eb-9587f79034ad","system_id":"levelo_inurba_marseille","lat":43.26975,"lon":5.38647,"is_reserved":false,"is_disabled":true,"rental_uris":{"android":"levelo://app?vid=9bb58202-02ff-4e31-a3eb-9587f79034ad","ios":"levelo://app?vid=9bb58202-02ff-4e31-a3eb-9587f79034ad"},"vehicle_type_id":"4","last_reported":1773450541,"current_range_meters":0,"station_id":"ce4bhh92rcd13ifvqfh0","pricing_plan_id":"cebpf4jnsgd1na2vs0mg"},{"bike_id":"8d1d6e8b-5750-4bc4-847c-d5a2d80e3e6b","system_id":"levelo_inurba_marseille","lat":43.31521,"lon":5.37335,"is_reserved":false,"is_disabled":false,"rental_uris":{"android":"levelo://app?vid=8d1d6e8b-5750-4bc4-847c-d5a2d80e3e6b","ios":"levelo://app?vid=8d1d6e8b-5750-4bc4-847c-d5a2d80e3e6b"},"vehicle_type_id":"4","last_reported":1773450541,"current_range_meters":39200,"station_id":"ce4bgt12rcd13ifvqcd0","pricing_plan_id":"cebpf4jnsgd1na2vs0mg"},{"bike_id":"ff6e15ae-9b17-41d6-9b23-da9c56425c3c","system_id":"levelo_inurba_marseille","lat":43.30307,"lon":5.39217,"is_reserved":false,"is_disabled":false,"rental_uris":{"android":"levelo://app?vid=ff6e15ae-9b17-41d6-9b23-da9c56425c3c","ios":"levelo://app?vid=ff6e15ae-9b17-41d6-9b23-da9c56425c3c"},"vehicle_type_id":"4","last_reported":1773450541,"current_range_meters":9200,"station_id":"ce4bgkh2rcd13ifvqbk0","pricing_plan_id":"cebpf4jnsgd1na2vs0mg"},{"bike_id":"eb2f308c-8a12-4604-91b5-c6e7beca1962","system_id":"levelo_inurba_marseille","lat":43.25577,"lon":5.38232,"is_reserved":false,"is_disabled":false,"rental_uris":{"android":"levelo://app?vid=eb2f308c-8a12-4604-91b5-c6e7beca1962","ios":"levelo://app?vid=eb2f308c-8a12-4604-91b5-c6e7beca1962"},"vehicle_type_id":"4","last_reported":1773450541,"current_range_meters":27200,"station_id":"ce4bhih2rcd13ifvqfs0","pricing_plan_id":"cebpf4jnsgd1na2vs0mg"},{"bike_id":"9275d7e0-6f92-4728-99cc-26ef8f5159ad","system_id":"levelo_inurba_marseille","lat":43.29116,"lon":5.43276,"is_reserved":false,"is_disabled":false,"rental_uris":{"android":"levelo://app?vid=9275d7e0-6f92-4728-99cc-26ef8f5159ad","ios":"levelo://app?vid=9275d7e0-6f92-4728-99cc-26ef8f5159ad"},"vehicle_type_id":"4","last_reported":1773450541,"current_range_meters":33200,"station_id":"","pricing_plan_id":"cebpf4jnsgd1na2vs0mg"},{"bike_id":"0129e82f-23e7-41dc-b218-2c46214b3ed1","system_id":"levelo_inurba_marseille","lat":43.31277,"lon":5.40178,"is_reserved":false,"is_disabled":false,"rental_uris":{"android":"levelo://app?vid=0129e82f-23e7-41dc-b218-2c46214b3ed1","ios":"levelo://app?vid=0129e82f-23e7-41dc-b218-2c46214b3ed1"},"vehicle_type_id":"4","last_reported":1773450541,"current_range_meters":24800,"station_id":"ce4bh092rcd13ifvqd30","pricing_plan_id":"cebpf4jnsgd1na2vs0mg"},{"bike_id":"95d4f6aa-da6e-48d3-ad60-c8e1890448a4","system_id":"levelo_inurba_marseille","lat":43.27987,"lon":5.41659,"is_reserved":false,"is_disabled":false,"rental_uris":{"android":"levelo://app?vid=95d4f6aa-da6e-48d3-ad60-c8e1890448a4","ios":"levelo://app?vid=95d4f6aa-da6e-48d3-ad60-c8e1890448a4"},"vehicle_type_id":"4","last_reported":1773450541,"current_range_meters":11600,"station_id":"ce4bho12rcd13ifvqh1g","pricing_plan_id":"cebpf4jnsgd1na2vs0mg"},{"bike_id":"be4b33f3-f666-4b28-9e53-550c3c6e8b23","system_id":"levelo_inurba_marseille","lat":43.28477,"lon":5.48403,"is_reserved":false,"is_disabled":false,"rental_uris":{"android":"levelo://app?vid=be4b33f3-f666-4b28-9e53-550c3c6e8b23","ios":"levelo://app?vid=be4b33f3-f666-4b28-9e53-550c3c6e8b23"},"vehicle_type_id":"4","last_reported":1773450541,"current_range_meters":20000,"station_id":"","pricing_plan_id":"cebpf4jnsgd1na2vs0mg"},{"bike_id":"8d199b1c-0ac9-464d-a0db-db030357808e","system_id":"levelo_inurba_marseille","lat":43.279,"lon":5.40996,"is_reserved":false,"is_disabled":false,"rental_uris":{"android":"levelo://app?vid=8d199b1c-0ac9-464d-a0db-db030357808e","ios":"levelo://app?vid=8d199b1c-0ac9-464d-a0db-db030357808e"},"vehicle_type_id":"4","last_reported":1773450541,"current_range_meters":12000,"station_id":"","pricing_plan_id":"cebpf4jnsgd1na2vs0mg"},{"bike_id":"18b94e32-c0fc-4f34-a2a9-cd156ee3282a","system_id":"levelo_inurba_marseille","lat":43.30612,"lon":5.37217,"is_reserved":false,"is_disabled":false,"rental_uris":{"android":"levelo://app?vid=18b94e32-c0fc-4f34-a2a9-cd156ee3282a","ios":"levelo://app?vid=18b94e32-c0fc-4f34-a2a9-cd156ee3282a"},"vehicle_type_id":"4","last_reported":1773450541,"current_range_meters":38000,"station_id":"ce4bgqh2rcd13ifvqc4g","pricing_plan_id":"cebpf4jnsgd1na2vs0mg"},{"bike_id":"45ab8758-cb84-41aa-8059-0012d460eb55","system_id":"levelo_inurba_marseille","lat":43.25114,"lon":5.40317,"is_reserved":false,"is_disabled":false,"rental_uris":{"android":"levelo://app?vid=45ab8758-cb84-41aa-8059-0012d460eb55","ios":"levelo://app?vid=45ab8758-cb84-41aa-8059-0012d460eb55"},"vehicle_type_id":"4","last_reported":1773450541,"current_range_meters":27600,"station_id":"ce4bhlh2rcd13ifvqgig","pricing_plan_id":"cebpf4jnsgd1na2vs0mg"},{"bike_id":"193cbe9d-b7d2-421e-9f76-9c8c86aebb4a","system_id":"levelo_inurba_marseille","lat":43.33542,"lon":5.37468,"is_reserved":false,"is_disabled":false,"rental_uris":{"android":"levelo://app?vid=193cbe9d-b7d2-421e-9f76-9c8c86aebb4a","ios":"levelo://app?vid=193cbe9d-b7d2-421e-9f76-9c8c86aebb4a"},"vehicle_type_id":"4","last_reported":1773450541,"current_range_meters":12800,"station_id":"st_d46tts09ee8s73dlu43g","pricing_plan_id":"cebpf4jnsgd1na2vs0mg"},{"bike_id":"9f555977-ed84-4e25-9c81-1c0c6fccc8b6","system_id":"levelo_inurba_marseille","lat":43.2437,"lon":5.44107,"is_reserved":false,"is_disabled":true,"rental_uris":{"android":"levelo://app?vid=9f555977-ed84-4e25-9c81-1c0c6fccc8b6","ios":"levelo://app?vid=9f555977-ed84-4e25-9c81-1c0c6fccc8b6"},"vehicle_type_id":"4","last_reported":1773450541,"current_range_meters":4400,"station_id":"","pricing_plan_id":"cebpf4jnsgd1na2vs0mg"},{"bike_id":"e486edc7-a4e7-416b-8828-357e3d99472d","system_id":"levelo_inurba_marseille","lat":43.30946,"lon":5.39038,"is_reserved":false,"is_disabled":false,"rental_uris":{"android":"levelo://app?vid=e486edc7-a4e7-416b-8828-357e3d99472d","ios":"levelo://app?vid=e486edc7-a4e7-416b-8828-357e3d99472d"},"vehicle_type_id":"4","last_reported":1773450541,"current_range_meters":10000,"station_id":"ce4bgup2rcd13ifvqco0","pricing_plan_id":"cebpf4jnsgd1na2vs0mg"},{"bike_id":"58284b8d-4564-474e-ad19-2f38a205c343","system_id":"levelo_inurba_marseille","lat":43.2938,"lon":5.37864,"is_reserved":false,"is_disabled":false,"rental_uris":{"android":"levelo://app?vid=58284b8d-4564-474e-ad19-2f38a205c343","ios":"levelo://app?vid=58284b8d-4564-474e-ad19-2f38a205c343"},"vehicle_type_id":"4","last_reported":1773450541,"current_range_meters":38800,"station_id":"ce4bgjh2rcd13ifvqbf0","pricing_plan_id":"cebpf4jnsgd1na2vs0mg"},{"bike_id":"641cab82-5627-4c24-a3b6-dfa17af8941b","system_id":"levelo_inurba_marseille","lat":43.24548,"lon":5.39494,"is_reserved":false,"is_disabled":false,"rental_uris":{"android":"levelo://app?vid=641cab82-5627-4c24-a3b6-dfa17af8941b","ios":"levelo://app?vid=641cab82-5627-4c24-a3b6-dfa17af8941b"},"vehicle_type_id":"4","last_reported":1773450541,"current_range_meters":28400,"station_id":"ce4bhlp2rcd13ifvqgjg","pricing_plan_id":"cebpf4jnsgd1na2vs0mg"},{"bike_id":"3115ec2c-0e1c-40e3-beba-8ab26217ce9f","system_id":"levelo_inurba_marseille","lat":43.28236,"lon":5.39045,"is_reserved":false,"is_disabled":true,"rental_uris":{"android":"levelo://app?vid=3115ec2c-0e1c-40e3-beba-8ab26217ce9f","ios":"levelo://app?vid=3115ec2c-0e1c-40e3-beba-8ab26217ce9f"},"vehicle_type_id":"4","last_reported":1773450541,"current_range_meters":34000,"station_id":"ce4bhn92rcd13ifvqgsg","pricing_plan_id":"cebpf4jnsgd1na2vs0mg"},{"bike_id":"c507ad31-13a8-4812-86d2-979e4a29518c","system_id":"levelo_inurba_marseille","lat":43.26945,"lon":5.38911,"is_reserved":false,"is_disabled":true,"rental_uris":{"android":"levelo://app?vid=c507ad31-13a8-4812-86d2-979e4a29518c","ios":"levelo://app?vid=c507ad31-13a8-4812-86d2-979e4a29518c"},"vehicle_type_id":"4","last_reported":1773450541,"current_range_meters":0,"station_id":"ce4bhhh2rcd13ifvqfl0","pricing_plan_id":"cebpf4jnsgd1na2vs0mg"},{"bike_id":"55abb020-e202-4c59-9516-a42a3a5ede08","system_id":"levelo_inurba_marseille","lat":43.27995,"lon":5.41669,"is_reserved":false,"is_disabled":false,"rental_uris":{"android":"levelo://app?vid=55abb020-e202-4c59-9516-a42a3a5ede08","ios":"levelo://app?vid=55abb020-e202-4c59-9516-a42a3a5ede08"},"vehicle_type_id":"4","last_reported":1773450541,"current_range_meters":2800,"station_id":"ce4bho12rcd13ifvqh1g","pricing_plan_id":"cebpf4jnsgd1na2vs0mg"},{"bike_id":"72025f50-d750-489d-95ad-9aa0f9ecf812","system_id":"levelo_inurba_marseille","lat":43.28261,"lon":5.35035,"is_reserved":false,"is_disabled":false,"rental_uris":{"android":"levelo://app?vid=72025f50-d750-489d-95ad-9aa0f9ecf812","ios":"levelo://app?vid=72025f50-d750-489d-95ad-9aa0f9ecf812"},"vehicle_type_id":"4","last_reported":1773450541,"current_range_meters":36800,"station_id":"ce4bhbp2rcd13ifvqerg","pricing_plan_id":"cebpf4jnsgd1na2vs0mg"},{"bike_id":"83ac7713-e611-403f-b939-28f7d5a673ff","system_id":"levelo_inurba_marseille","lat":43.304779,"lon":5.37919,"is_reserved":false,"is_disabled":false,"rental_uris":{"android":"levelo://app?vid=83ac7713-e611-403f-b939-28f7d5a673ff","ios":"levelo://app?vid=83ac7713-e611-403f-b939-28f7d5a673ff"},"vehicle_type_id":"4","last_reported":1773450541,"current_range_meters":26000,"station_id":"","pricing_plan_id":"cebpf4jnsgd1na2vs0mg"},{"bike_id":"a4788739-d140-4719-bf1d-af345fd215df","system_id":"levelo_inurba_marseille","lat":43.23184,"lon":5.39996,"is_reserved":false,"is_disabled":false,"rental_uris":{"android":"levelo://app?vid=a4788739-d140-4719-bf1d-af345fd215df","ios":"levelo://app?vid=a4788739-d140-4719-bf1d-af345fd215df"},"vehicle_type_id":"4","last_reported":1773450541,"current_range_meters":6800,"station_id":"ce4bhn12rcd13ifvqgqg","pricing_plan_id":"cebpf4jnsgd1na2vs0mg"},{"bike_id":"cec9ed91-d236-4550-8a1b-e4a966f730a4","system_id":"levelo_inurba_marseille","lat":43.30255,"lon":5.36682,"is_reserved":false,"is_disabled":false,"rental_uris":{"android":"levelo://app?vid=cec9ed91-d236-4550-8a1b-e4a966f730a4","ios":"levelo://app?vid=cec9ed91-d236-4550-8a1b-e4a966f730a4"},"vehicle_type_id":"4","last_reported":1773450541,"current_range_meters":22000,"station_id":"","pricing_plan_id":"cebpf4jnsgd1na2vs0mg"},{"bike_id":"e082d5df-265c-42c2-b4b5-86660567b022","system_id":"levelo_inurba_marseille","lat":43.32665,"lon":5.40988,"is_reserved":false,"is_disabled":false,"rental_uris":{"android":"levelo://app?vid=e082d5df-265c-42c2-b4b5-86660567b022","ios":"levelo://app?vid=e082d5df-265c-42c2-b4b5-86660567b022"},"vehicle_type_id":"4","last_reported":1773450541,"current_range_meters":5600,"station_id":"ce4bhpp2rcd13ifvqhgg","pricing_plan_id":"cebpf4jnsgd1na2vs0mg"},{"bike_id":"cc5b0885-42c5-4a4d-b627-a530813f9138","system_id":"levelo_inurba_marseille","lat":43.30738,"lon":5.4244,"is_reserved":false,"is_disabled":false,"rental_uris":{"android":"levelo://app?vid=cc5b0885-42c5-4a4d-b627-a530813f9138","ios":"levelo://app?vid=cc5b0885-42c5-4a4d-b627-a530813f9138"},"vehicle_type_id":"4","last_reported":1773450541,"current_range_meters":28400,"station_id":"st_cvj6ca6bvosntc0bfgr0","pricing_plan_id":"cebpf4jnsgd1na2vs0mg"},{"bike_id":"545f3a79-87bf-4cad-b7dc-def28c2dec96","system_id":"levelo_inurba_marseille","lat":43.28597,"lon":5.39488,"is_reserved":false,"is_disabled":false,"rental_uris":{"android":"levelo://app?vid=545f3a79-87bf-4cad-b7dc-def28c2dec96","ios":"levelo://app?vid=545f3a79-87bf-4cad-b7dc-def28c2dec96"},"vehicle_type_id":"4","last_reported":1773450541,"current_range_meters":28800,"station_id":"ce4bh292rcd13ifvqdg0","pricing_plan_id":"cebpf4jnsgd1na2vs0mg"},{"bike_id":"64069c02-c977-4af0-a752-efe4502ec874","system_id":"levelo_inurba_marseille","lat":43.28483,"lon":5.48392,"is_reserved":false,"is_disabled":false,"rental_uris":{"android":"levelo://app?vid=64069c02-c977-4af0-a752-efe4502ec874","ios":"levelo://app?vid=64069c02-c977-4af0-a752-efe4502ec874"},"vehicle_type_id":"4","last_reported":1773450541,"current_range_meters":8800,"station_id":"","pricing_plan_id":"cebpf4jnsgd1na2vs0mg"},{"bike_id":"030d87a5-4fd6-406c-97be-8b1d2c082c10","system_id":"levelo_inurba_marseille","lat":43.24519,"lon":5.39453,"is_reserved":false,"is_disabled":false,"rental_uris":{"android":"levelo://app?vid=030d87a5-4fd6-406c-97be-8b1d2c082c10","ios":"levelo://app?vid=030d87a5-4fd6-406c-97be-8b1d2c082c10"},"vehicle_type_id":"4","last_reported":1773450541,"current_range_meters":38800,"station_id":"","pricing_plan_id":"cebpf4jnsgd1na2vs0mg"},{"bike_id":"74c72bf5-6f17-4dd6-bcac-57a3878df3b7","system_id":"levelo_inurba_marseille","lat":43.29041,"lon":5.39983,"is_reserved":false,"is_disabled":false,"rental_uris":{"android":"levelo://app?vid=74c72bf5-6f17-4dd6-bcac-57a3878df3b7","ios":"levelo://app?vid=74c72bf5-6f17-4dd6-bcac-57a3878df3b7"},"vehicle_type_id":"4","last_reported":1773450541,"current_range_meters":7200,"station_id":"ce4bh392rcd13ifvqdm0","pricing_plan_id":"cebpf4jnsgd1na2vs0mg"},{"bike_id":"57b4f028-c223-4c21-8fd1-2092c1d27d12","system_id":"levelo_inurba_marseille","lat":43.30285,"lon":5.41857,"is_reserved":false,"is_disabled":false,"rental_uris":{"android":"levelo://app?vid=57b4f028-c223-4c21-8fd1-2092c1d27d12","ios":"levelo://app?vid=57b4f028-c223-4c21-8fd1-2092c1d27d12"},"vehicle_type_id":"4","last_reported":1773450541,"current_range_meters":26800,"station_id":"","pricing_plan_id":"cebpf4jnsgd1na2vs0mg"},{"bike_id":"6ba02607-5543-4986-b3cb-a1df5f02d1dd","system_id":"levelo_inurba_marseille","lat":43.31438,"lon":5.36585,"is_reserved":false,"is_disabled":true,"rental_uris":{"android":"levelo://app?vid=6ba02607-5543-4986-b3cb-a1df5f02d1dd","ios":"levelo://app?vid=6ba02607-5543-4986-b3cb-a1df5f02d1dd"},"vehicle_type_id":"4","last_reported":1773450541,"current_range_meters":0,"station_id":"","pricing_plan_id":"cebpf4jnsgd1na2vs0mg"},{"bike_id":"7bf0a830-d498-457c-a030-91c3bd84fed4","system_id":"levelo_inurba_marseille","lat":43.23195,"lon":5.35588,"is_reserved":false,"is_disabled":false,"rental_uris":{"android":"levelo://app?vid=7bf0a830-d498-457c-a030-91c3bd84fed4","ios":"levelo://app?vid=7bf0a830-d498-457c-a030-91c3bd84fed4"},"vehicle_type_id":"4","last_reported":1773450541,"current_range_meters":36800,"station_id":"ce4bhu92rcd13ifvqi70","pricing_plan_id":"cebpf4jnsgd1na2vs0mg"},{"bike_id":"db5fc025-f609-443b-b481-2f6cefb137d4","system_id":"levelo_inurba_marseille","lat":43.2848,"lon":5.48387,"is_reserved":false,"is_disabled":false,"rental_uris":{"android":"levelo://app?vid=db5fc025-f609-443b-b481-2f6cefb137d4","ios":"levelo://app?vid=db5fc025-f609-443b-b481-2f6cefb137d4"},"vehicle_type_id":"4","last_reported":1773450541,"current_range_meters":32000,"station_id":"","pricing_plan_id":"cebpf4jnsgd1na2vs0mg"},{"bike_id":"3b85e9e8-4938-4ae7-a83e-c8e2526a550f","system_id":"levelo_inurba_marseille","lat":43.24168,"lon":5.36397,"is_reserved":false,"is_disabled":false,"rental_uris":{"android":"levelo://app?vid=3b85e9e8-4938-4ae7-a83e-c8e2526a550f","ios":"levelo://app?vid=3b85e9e8-4938-4ae7-a83e-c8e2526a550f"},"vehicle_type_id":"4","last_reported":1773450541,"current_range_meters":26000,"station_id":"cpo36qri1sfpv3e86is0","pricing_plan_id":"cebpf4jnsgd1na2vs0mg"},{"bike_id":"3c1a31b5-1e72-4c95-95c6-affdb8221f31","system_id":"levelo_inurba_marseille","lat":43.2906,"lon":5.39948,"is_reserved":false,"is_disabled":false,"rental_uris":{"android":"levelo://app?vid=3c1a31b5-1e72-4c95-95c6-affdb8221f31","ios":"levelo://app?vid=3c1a31b5-1e72-4c95-95c6-affdb8221f31"},"vehicle_type_id":"4","last_reported":1773450541,"current_range_meters":36000,"station_id":"ce4bh392rcd13ifvqdm0","pricing_plan_id":"cebpf4jnsgd1na2vs0mg"},{"bike_id":"57aa564f-18d7-4da2-b67c-e3aff3bc078f","system_id":"levelo_inurba_marseille","lat":43.30545,"lon":5.36685,"is_reserved":false,"is_disabled":false,"rental_uris":{"android":"levelo://app?vid=57aa564f-18d7-4da2-b67c-e3aff3bc078f","ios":"levelo://app?vid=57aa564f-18d7-4da2-b67c-e3aff3bc078f"},"vehicle_type_id":"4","last_reported":1773450541,"current_range_meters":39200,"station_id":"ce4bgrp2rcd13ifvqc9g","pricing_plan_id":"cebpf4jnsgd1na2vs0mg"},{"bike_id":"d24ddeef-9278-443f-903c-dce36f2aff8f","system_id":"levelo_inurba_marseille","lat":43.28471,"lon":5.35863,"is_reserved":false,"is_disabled":false,"rental_uris":{"android":"levelo://app?vid=d24ddeef-9278-443f-903c-dce36f2aff8f","ios":"levelo://app?vid=d24ddeef-9278-443f-903c-dce36f2aff8f"},"vehicle_type_id":"4","last_reported":1773450541,"current_range_meters":36800,"station_id":"ce4bhah2rcd13ifvqei0","pricing_plan_id":"cebpf4jnsgd1na2vs0mg"},{"bike_id":"77ef838e-27ec-4729-8006-994b47b34b88","system_id":"levelo_inurba_marseille","lat":43.30809,"lon":5.38141,"is_reserved":false,"is_disabled":false,"rental_uris":{"android":"levelo://app?vid=77ef838e-27ec-4729-8006-994b47b34b88","ios":"levelo://app?vid=77ef838e-27ec-4729-8006-994b47b34b88"},"vehicle_type_id":"4","last_reported":1773450541,"current_range_meters":36800,"station_id":"ce4bgt12rcd13ifvqce0","pricing_plan_id":"cebpf4jnsgd1na2vs0mg"},{"bike_id":"ab7d9189-2568-4974-829e-49dee9a447d5","system_id":"levelo_inurba_marseille","lat":43.23193,"lon":5.35548,"is_reserved":false,"is_disabled":false,"rental_uris":{"android":"levelo://app?vid=ab7d9189-2568-4974-829e-49dee9a447d5","ios":"levelo://app?vid=ab7d9189-2568-4974-829e-49dee9a447d5"},"vehicle_type_id":"4","last_reported":1773450541,"current_range_meters":39200,"station_id":"ce4bhu92rcd13ifvqi70","pricing_plan_id":"cebpf4jnsgd1na2vs0mg"},{"bike_id":"734e018e-369b-4e22-8448-013f77c4e902","system_id":"levelo_inurba_marseille","lat":43.28719,"lon":5.36097,"is_reserved":false,"is_disabled":false,"rental_uris":{"android":"levelo://app?vid=734e018e-369b-4e22-8448-013f77c4e902","ios":"levelo://app?vid=734e018e-369b-4e22-8448-013f77c4e902"},"vehicle_type_id":"4","last_reported":1773450541,"current_range_meters":38400,"station_id":"cki0cbj6b192h4jlfktg","pricing_plan_id":"cebpf4jnsgd1na2vs0mg"},{"bike_id":"c0c5d9dc-928d-48b1-bc04-fe5d71707694","system_id":"levelo_inurba_marseille","lat":43.32347,"lon":5.36722,"is_reserved":false,"is_disabled":false,"rental_uris":{"android":"levelo://app?vid=c0c5d9dc-928d-48b1-bc04-fe5d71707694","ios":"levelo://app?vid=c0c5d9dc-928d-48b1-bc04-fe5d71707694"},"vehicle_type_id":"4","last_reported":1773450541,"current_range_meters":38000,"station_id":"ce4bhsh2rcd13ifvqi2g","pricing_plan_id":"cebpf4jnsgd1na2vs0mg"},{"bike_id":"c1477131-caab-43d7-95bb-c758b4857c85","system_id":"levelo_inurba_marseille","lat":43.30817,"lon":5.38174,"is_reserved":false,"is_disabled":false,"rental_uris":{"android":"levelo://app?vid=c1477131-caab-43d7-95bb-c758b4857c85","ios":"levelo://app?vid=c1477131-caab-43d7-95bb-c758b4857c85"},"vehicle_type_id":"4","last_reported":1773450541,"current_range_meters":28400,"station_id":"ce4bgt12rcd13ifvqce0","pricing_plan_id":"cebpf4jnsgd1na2vs0mg"},{"bike_id":"475f6229-3b8f-4eab-b8fd-2fbd86f0fb75","system_id":"levelo_inurba_marseille","lat":43.24156,"lon":5.364,"is_reserved":false,"is_disabled":false,"rental_uris":{"android":"levelo://app?vid=475f6229-3b8f-4eab-b8fd-2fbd86f0fb75","ios":"levelo://app?vid=475f6229-3b8f-4eab-b8fd-2fbd86f0fb75"},"vehicle_type_id":"4","last_reported":1773450541,"current_range_meters":39200,"station_id":"cpo36qri1sfpv3e86is0","pricing_plan_id":"cebpf4jnsgd1na2vs0mg"},{"bike_id":"aaf56433-ee77-470c-b7b6-221e680ae993","system_id":"levelo_inurba_marseille","lat":43.22581,"lon":5.41631,"is_reserved":false,"is_disabled":false,"rental_uris":{"android":"levelo://app?vid=aaf56433-ee77-470c-b7b6-221e680ae993","ios":"levelo://app?vid=aaf56433-ee77-470c-b7b6-221e680ae993"},"vehicle_type_id":"4","last_reported":1773450541,"current_range_meters":10000,"station_id":"st_d2o4gvlbi1j2169b742g","pricing_plan_id":"cebpf4jnsgd1na2vs0mg"},{"bike_id":"3ff3df78-eee4-4716-9de4-5e86fa44030b","system_id":"levelo_inurba_marseille","lat":43.30131,"lon":5.3741,"is_reserved":false,"is_disabled":false,"rental_uris":{"android":"levelo://app?vid=3ff3df78-eee4-4716-9de4-5e86fa44030b","ios":"levelo://app?vid=3ff3df78-eee4-4716-9de4-5e86fa44030b"},"vehicle_type_id":"4","last_reported":1773450541,"current_range_meters":32400,"station_id":"ce4bgs92rcd13ifvqcc0","pricing_plan_id":"cebpf4jnsgd1na2vs0mg"},{"bike_id":"3a3e1c85-dbae-420f-b6d9-3a4969e8b66e","system_id":"levelo_inurba_marseille","lat":43.24473,"lon":5.42536,"is_reserved":false,"is_disabled":false,"rental_uris":{"android":"levelo://app?vid=3a3e1c85-dbae-420f-b6d9-3a4969e8b66e","ios":"levelo://app?vid=3a3e1c85-dbae-420f-b6d9-3a4969e8b66e"},"vehicle_type_id":"4","last_reported":1773450541,"current_range_meters":7200,"station_id":"st_d4a3vfp97mjs738cd8kg","pricing_plan_id":"cebpf4jnsgd1na2vs0mg"},{"bike_id":"36be6fdc-a39f-47dc-8cc1-973b53a697ed","system_id":"levelo_inurba_marseille","lat":43.30932,"lon":5.39031,"is_reserved":false,"is_disabled":false,"rental_uris":{"android":"levelo://app?vid=36be6fdc-a39f-47dc-8cc1-973b53a697ed","ios":"levelo://app?vid=36be6fdc-a39f-47dc-8cc1-973b53a697ed"},"vehicle_type_id":"4","last_reported":1773450541,"current_range_meters":17600,"station_id":"ce4bgup2rcd13ifvqco0","pricing_plan_id":"cebpf4jnsgd1na2vs0mg"},{"bike_id":"eb259eb3-17cb-4932-bfd9-164bb2aaf2fe","system_id":"levelo_inurba_marseille","lat":43.23209,"lon":5.35531,"is_reserved":false,"is_disabled":false,"rental_uris":{"android":"levelo://app?vid=eb259eb3-17cb-4932-bfd9-164bb2aaf2fe","ios":"levelo://app?vid=eb259eb3-17cb-4932-bfd9-164bb2aaf2fe"},"vehicle_type_id":"4","last_reported":1773450541,"current_range_meters":36000,"station_id":"ce4bhu92rcd13ifvqi70","pricing_plan_id":"cebpf4jnsgd1na2vs0mg"},{"bike_id":"6380b4d4-4664-4934-bc3a-27e6f5af2fec","system_id":"levelo_inurba_marseille","lat":43.31323,"lon":5.39691,"is_reserved":false,"is_disabled":false,"rental_uris":{"android":"levelo://app?vid=6380b4d4-4664-4934-bc3a-27e6f5af2fec","ios":"levelo://app?vid=6380b4d4-4664-4934-bc3a-27e6f5af2fec"},"vehicle_type_id":"4","last_reported":1773450541,"current_range_meters":17600,"station_id":"ce4bgvp2rcd13ifvqcu0","pricing_plan_id":"cebpf4jnsgd1na2vs0mg"},{"bike_id":"41b16539-d93d-4e64-a8e4-b7d380ab4e3b","system_id":"levelo_inurba_marseille","lat":43.25001,"lon":5.38935,"is_reserved":false,"is_disabled":false,"rental_uris":{"android":"levelo://app?vid=41b16539-d93d-4e64-a8e4-b7d380ab4e3b","ios":"levelo://app?vid=41b16539-d93d-4e64-a8e4-b7d380ab4e3b"},"vehicle_type_id":"4","last_reported":1773450541,"current_range_meters":10000,"station_id":"ce4bhgp2rcd13ifvqfd0","pricing_plan_id":"cebpf4jnsgd1na2vs0mg"},{"bike_id":"0b2264b5-c334-420f-aba4-f75197fcd601","system_id":"levelo_inurba_marseille","lat":43.28973,"lon":5.37836,"is_reserved":false,"is_disabled":false,"rental_uris":{"android":"levelo://app?vid=0b2264b5-c334-420f-aba4-f75197fcd601","ios":"levelo://app?vid=0b2264b5-c334-420f-aba4-f75197fcd601"},"vehicle_type_id":"4","last_reported":1773450541,"current_range_meters":37600,"station_id":"ce4bh9p2rcd13ifvqed0","pricing_plan_id":"cebpf4jnsgd1na2vs0mg"},{"bike_id":"b3bddb16-0149-44e8-bd3a-8a9efd5a9794","system_id":"levelo_inurba_marseille","lat":43.26939,"lon":5.40253,"is_reserved":false,"is_disabled":false,"rental_uris":{"android":"levelo://app?vid=b3bddb16-0149-44e8-bd3a-8a9efd5a9794","ios":"levelo://app?vid=b3bddb16-0149-44e8-bd3a-8a9efd5a9794"},"vehicle_type_id":"4","last_reported":1773450541,"current_range_meters":28800,"station_id":"cjm6bp8fraef2m0cb0m0","pricing_plan_id":"cebpf4jnsgd1na2vs0mg"},{"bike_id":"2128a46a-0bd0-4d15-9e86-afad7d697ea7","system_id":"levelo_inurba_marseille","lat":43.28481,"lon":5.38465,"is_reserved":false,"is_disabled":false,"rental_uris":{"android":"levelo://app?vid=2128a46a-0bd0-4d15-9e86-afad7d697ea7","ios":"levelo://app?vid=2128a46a-0bd0-4d15-9e86-afad7d697ea7"},"vehicle_type_id":"4","last_reported":1773450541,"current_range_meters":39200,"station_id":"ce4bh512rcd13ifvqe3g","pricing_plan_id":"cebpf4jnsgd1na2vs0mg"},{"bike_id":"af04683b-e462-44be-8018-569fb65efcf0","system_id":"levelo_inurba_marseille","lat":43.29045,"lon":5.39961,"is_reserved":false,"is_disabled":false,"rental_uris":{"android":"levelo://app?vid=af04683b-e462-44be-8018-569fb65efcf0","ios":"levelo://app?vid=af04683b-e462-44be-8018-569fb65efcf0"},"vehicle_type_id":"4","last_reported":1773450541,"current_range_meters":30800,"station_id":"ce4bh392rcd13ifvqdm0","pricing_plan_id":"cebpf4jnsgd1na2vs0mg"},{"bike_id":"e305725b-6b92-46c5-a744-6991250b3bf0","system_id":"levelo_inurba_marseille","lat":43.28475,"lon":5.35871,"is_reserved":false,"is_disabled":false,"rental_uris":{"android":"levelo://app?vid=e305725b-6b92-46c5-a744-6991250b3bf0","ios":"levelo://app?vid=e305725b-6b92-46c5-a744-6991250b3bf0"},"vehicle_type_id":"4","last_reported":1773450541,"current_range_meters":12400,"station_id":"ce4bhah2rcd13ifvqei0","pricing_plan_id":"cebpf4jnsgd1na2vs0mg"},{"bike_id":"92f42bc1-a735-43a4-906a-779551f2e4c8","system_id":"levelo_inurba_marseille","lat":43.29783,"lon":5.38089,"is_reserved":false,"is_disabled":true,"rental_uris":{"android":"levelo://app?vid=92f42bc1-a735-43a4-906a-779551f2e4c8","ios":"levelo://app?vid=92f42bc1-a735-43a4-906a-779551f2e4c8"},"vehicle_type_id":"4","last_reported":1773450541,"current_range_meters":24400,"station_id":"ce4bgip2rcd13ifvqbb0","pricing_plan_id":"cebpf4jnsgd1na2vs0mg"},{"bike_id":"88cb8c7f-0ccd-4a01-91f9-3a530d0e94ef","system_id":"levelo_inurba_marseille","lat":43.28651,"lon":5.3508,"is_reserved":false,"is_disabled":false,"rental_uris":{"android":"levelo://app?vid=88cb8c7f-0ccd-4a01-91f9-3a530d0e94ef","ios":"levelo://app?vid=88cb8c7f-0ccd-4a01-91f9-3a530d0e94ef"},"vehicle_type_id":"4","last_reported":1773450541,"current_range_meters":39200,"station_id":"ce4bhch2rcd13ifvqeug","pricing_plan_id":"cebpf4jnsgd1na2vs0mg"},{"bike_id":"32358ead-44ff-491d-882b-0c4122b7d796","system_id":"levelo_inurba_marseille","lat":43.21187,"lon":5.35069,"is_reserved":false,"is_disabled":false,"rental_uris":{"android":"levelo://app?vid=32358ead-44ff-491d-882b-0c4122b7d796","ios":"levelo://app?vid=32358ead-44ff-491d-882b-0c4122b7d796"},"vehicle_type_id":"4","last_reported":1773450541,"current_range_meters":7200,"station_id":"st_cvj6sg6p6f1abm77japg","pricing_plan_id":"cebpf4jnsgd1na2vs0mg"},{"bike_id":"88baf1fe-4b9b-4c52-81f7-dd067c921a9f","system_id":"levelo_inurba_marseille","lat":43.2982,"lon":5.44056,"is_reserved":false,"is_disabled":false,"rental_uris":{"android":"levelo://app?vid=88baf1fe-4b9b-4c52-81f7-dd067c921a9f","ios":"levelo://app?vid=88baf1fe-4b9b-4c52-81f7-dd067c921a9f"},"vehicle_type_id":"4","last_reported":1773450541,"current_range_meters":15200,"station_id":"st_d3jp68qikq2c7381ktn0","pricing_plan_id":"cebpf4jnsgd1na2vs0mg"},{"bike_id":"9809ed74-801c-4fe4-9601-8064fccc6e3e","system_id":"levelo_inurba_marseille","lat":43.26871,"lon":5.3702,"is_reserved":false,"is_disabled":false,"rental_uris":{"android":"levelo://app?vid=9809ed74-801c-4fe4-9601-8064fccc6e3e","ios":"levelo://app?vid=9809ed74-801c-4fe4-9601-8064fccc6e3e"},"vehicle_type_id":"4","last_reported":1773450541,"current_range_meters":38000,"station_id":"","pricing_plan_id":"cebpf4jnsgd1na2vs0mg"},{"bike_id":"daa99b61-4d2f-4778-923c-e1245242aa17","system_id":"levelo_inurba_marseille","lat":43.29206,"lon":5.39303,"is_reserved":false,"is_disabled":false,"rental_uris":{"android":"levelo://app?vid=daa99b61-4d2f-4778-923c-e1245242aa17","ios":"levelo://app?vid=daa99b61-4d2f-4778-923c-e1245242aa17"},"vehicle_type_id":"4","last_reported":1773450541,"current_range_meters":39200,"station_id":"ce4bh192rcd13ifvqdd0","pricing_plan_id":"cebpf4jnsgd1na2vs0mg"},{"bike_id":"0f0d92f0-3031-4109-9545-b12e61aeb8ea","system_id":"levelo_inurba_marseille","lat":43.25474,"lon":5.37639,"is_reserved":false,"is_disabled":false,"rental_uris":{"android":"levelo://app?vid=0f0d92f0-3031-4109-9545-b12e61aeb8ea","ios":"levelo://app?vid=0f0d92f0-3031-4109-9545-b12e61aeb8ea"},"vehicle_type_id":"4","last_reported":1773450541,"current_range_meters":39200,"station_id":"ce4bhh12rcd13ifvqff0","pricing_plan_id":"cebpf4jnsgd1na2vs0mg"},{"bike_id":"60e5ee64-23dd-4b76-ba43-a71a00813c74","system_id":"levelo_inurba_marseille","lat":43.2972,"lon":5.37678,"is_reserved":false,"is_disabled":true,"rental_uris":{"android":"levelo://app?vid=60e5ee64-23dd-4b76-ba43-a71a00813c74","ios":"levelo://app?vid=60e5ee64-23dd-4b76-ba43-a71a00813c74"},"vehicle_type_id":"4","last_reported":1773450541,"current_range_meters":6000,"station_id":"ce4bgkh2rcd13ifvqbl0","pricing_plan_id":"cebpf4jnsgd1na2vs0mg"},{"bike_id":"5ac94716-44b8-4ae4-8f63-01aed3be190f","system_id":"levelo_inurba_marseille","lat":43.23964,"lon":5.36624,"is_reserved":false,"is_disabled":false,"rental_uris":{"android":"levelo://app?vid=5ac94716-44b8-4ae4-8f63-01aed3be190f","ios":"levelo://app?vid=5ac94716-44b8-4ae4-8f63-01aed3be190f"},"vehicle_type_id":"4","last_reported":1773450541,"current_range_meters":10800,"station_id":"ce4bhi12rcd13ifvqfp0","pricing_plan_id":"cebpf4jnsgd1na2vs0mg"},{"bike_id":"b46fd29e-03f5-41fe-a2f0-04b7e9712915","system_id":"levelo_inurba_marseille","lat":43.24825,"lon":5.3743,"is_reserved":false,"is_disabled":false,"rental_uris":{"android":"levelo://app?vid=b46fd29e-03f5-41fe-a2f0-04b7e9712915","ios":"levelo://app?vid=b46fd29e-03f5-41fe-a2f0-04b7e9712915"},"vehicle_type_id":"4","last_reported":1773450541,"current_range_meters":16800,"station_id":"ce4bhgh2rcd13ifvqfb0","pricing_plan_id":"cebpf4jnsgd1na2vs0mg"},{"bike_id":"4b89016e-4162-40fe-a211-e0b3a395484a","system_id":"levelo_inurba_marseille","lat":43.31359,"lon":5.39666,"is_reserved":false,"is_disabled":false,"rental_uris":{"android":"levelo://app?vid=4b89016e-4162-40fe-a211-e0b3a395484a","ios":"levelo://app?vid=4b89016e-4162-40fe-a211-e0b3a395484a"},"vehicle_type_id":"4","last_reported":1773450541,"current_range_meters":8800,"station_id":"ce4bgvp2rcd13ifvqcu0","pricing_plan_id":"cebpf4jnsgd1na2vs0mg"},{"bike_id":"d008a3ca-bdab-43f7-957e-465391a2d48d","system_id":"levelo_inurba_marseille","lat":43.31715,"lon":5.4241,"is_reserved":false,"is_disabled":false,"rental_uris":{"android":"levelo://app?vid=d008a3ca-bdab-43f7-957e-465391a2d48d","ios":"levelo://app?vid=d008a3ca-bdab-43f7-957e-465391a2d48d"},"vehicle_type_id":"4","last_reported":1773450541,"current_range_meters":38000,"station_id":"ce4bhp92rcd13ifvqhbg","pricing_plan_id":"cebpf4jnsgd1na2vs0mg"},{"bike_id":"1e56537e-8220-45c2-bf2a-9b133d7e2992","system_id":"levelo_inurba_marseille","lat":43.30151,"lon":5.39855,"is_reserved":false,"is_disabled":false,"rental_uris":{"android":"levelo://app?vid=1e56537e-8220-45c2-bf2a-9b133d7e2992","ios":"levelo://app?vid=1e56537e-8220-45c2-bf2a-9b133d7e2992"},"vehicle_type_id":"4","last_reported":1773450541,"current_range_meters":24800,"station_id":"ce4bh0h2rcd13ifvqd40","pricing_plan_id":"cebpf4jnsgd1na2vs0mg"},{"bike_id":"6d245beb-95d8-4d9e-938b-14a601c52230","system_id":"levelo_inurba_marseille","lat":43.29936,"lon":5.36501,"is_reserved":false,"is_disabled":false,"rental_uris":{"android":"levelo://app?vid=6d245beb-95d8-4d9e-938b-14a601c52230","ios":"levelo://app?vid=6d245beb-95d8-4d9e-938b-14a601c52230"},"vehicle_type_id":"4","last_reported":1773450541,"current_range_meters":28400,"station_id":"ce4bgm92rcd13ifvqbr0","pricing_plan_id":"cebpf4jnsgd1na2vs0mg"},{"bike_id":"9596f94a-278a-429c-a324-f3e305c15fe7","system_id":"levelo_inurba_marseille","lat":43.28256,"lon":5.35039,"is_reserved":false,"is_disabled":false,"rental_uris":{"android":"levelo://app?vid=9596f94a-278a-429c-a324-f3e305c15fe7","ios":"levelo://app?vid=9596f94a-278a-429c-a324-f3e305c15fe7"},"vehicle_type_id":"4","last_reported":1773450541,"current_range_meters":28000,"station_id":"ce4bhbp2rcd13ifvqerg","pricing_plan_id":"cebpf4jnsgd1na2vs0mg"},{"bike_id":"5dc68016-e723-4d55-a806-f89366f89466","system_id":"levelo_inurba_marseille","lat":43.28343,"lon":5.38102,"is_reserved":false,"is_disabled":false,"rental_uris":{"android":"levelo://app?vid=5dc68016-e723-4d55-a806-f89366f89466","ios":"levelo://app?vid=5dc68016-e723-4d55-a806-f89366f89466"},"vehicle_type_id":"4","last_reported":1773450541,"current_range_meters":35200,"station_id":"ce4bh412rcd13ifvqdr0","pricing_plan_id":"cebpf4jnsgd1na2vs0mg"},{"bike_id":"40c27b0e-4f22-4745-bcd8-0841599fb5ad","system_id":"levelo_inurba_marseille","lat":43.30334,"lon":5.40435,"is_reserved":false,"is_disabled":false,"rental_uris":{"android":"levelo://app?vid=40c27b0e-4f22-4745-bcd8-0841599fb5ad","ios":"levelo://app?vid=40c27b0e-4f22-4745-bcd8-0841599fb5ad"},"vehicle_type_id":"4","last_reported":1773450541,"current_range_meters":40000,"station_id":"ce4bh012rcd13ifvqd10","pricing_plan_id":"cebpf4jnsgd1na2vs0mg"},{"bike_id":"3e06761e-9383-4890-a624-e03f90266941","system_id":"levelo_inurba_marseille","lat":43.30929,"lon":5.39047,"is_reserved":false,"is_disabled":false,"rental_uris":{"android":"levelo://app?vid=3e06761e-9383-4890-a624-e03f90266941","ios":"levelo://app?vid=3e06761e-9383-4890-a624-e03f90266941"},"vehicle_type_id":"4","last_reported":1773450541,"current_range_meters":38800,"station_id":"ce4bgup2rcd13ifvqco0","pricing_plan_id":"cebpf4jnsgd1na2vs0mg"},{"bike_id":"9a2fbe44-96fa-42fa-b7e7-679196e3a792","system_id":"levelo_inurba_marseille","lat":43.30938,"lon":5.40152,"is_reserved":false,"is_disabled":false,"rental_uris":{"android":"levelo://app?vid=9a2fbe44-96fa-42fa-b7e7-679196e3a792","ios":"levelo://app?vid=9a2fbe44-96fa-42fa-b7e7-679196e3a792"},"vehicle_type_id":"4","last_reported":1773450541,"current_range_meters":40000,"station_id":"ce4bgvp2rcd13ifvqct0","pricing_plan_id":"cebpf4jnsgd1na2vs0mg"},{"bike_id":"18a0fb9e-e224-426e-8d68-1c285ec71ac8","system_id":"levelo_inurba_marseille","lat":43.29249,"lon":5.38423,"is_reserved":false,"is_disabled":true,"rental_uris":{"android":"levelo://app?vid=18a0fb9e-e224-426e-8d68-1c285ec71ac8","ios":"levelo://app?vid=18a0fb9e-e224-426e-8d68-1c285ec71ac8"},"vehicle_type_id":"4","last_reported":1773450541,"current_range_meters":25600,"station_id":"ce4bh692rcd13ifvqea0","pricing_plan_id":"cebpf4jnsgd1na2vs0mg"},{"bike_id":"c467a0f5-89cc-4622-b3d8-e0205841be0f","system_id":"levelo_inurba_marseille","lat":43.29226,"lon":5.38451,"is_reserved":false,"is_disabled":true,"rental_uris":{"android":"levelo://app?vid=c467a0f5-89cc-4622-b3d8-e0205841be0f","ios":"levelo://app?vid=c467a0f5-89cc-4622-b3d8-e0205841be0f"},"vehicle_type_id":"4","last_reported":1773450541,"current_range_meters":1600,"station_id":"ce4bh692rcd13ifvqea0","pricing_plan_id":"cebpf4jnsgd1na2vs0mg"},{"bike_id":"9fad7457-7dba-48ad-8c87-721ef15f20b7","system_id":"levelo_inurba_marseille","lat":43.28453,"lon":5.35872,"is_reserved":false,"is_disabled":false,"rental_uris":{"android":"levelo://app?vid=9fad7457-7dba-48ad-8c87-721ef15f20b7","ios":"levelo://app?vid=9fad7457-7dba-48ad-8c87-721ef15f20b7"},"vehicle_type_id":"4","last_reported":1773450541,"current_range_meters":21600,"station_id":"ce4bhah2rcd13ifvqei0","pricing_plan_id":"cebpf4jnsgd1na2vs0mg"},{"bike_id":"ef364c26-b12f-4ac2-8385-acdb623c591d","system_id":"levelo_inurba_marseille","lat":43.22552,"lon":5.41631,"is_reserved":false,"is_disabled":true,"rental_uris":{"android":"levelo://app?vid=ef364c26-b12f-4ac2-8385-acdb623c591d","ios":"levelo://app?vid=ef364c26-b12f-4ac2-8385-acdb623c591d"},"vehicle_type_id":"4","last_reported":1773450541,"current_range_meters":16400,"station_id":"st_d2o4gvlbi1j2169b742g","pricing_plan_id":"cebpf4jnsgd1na2vs0mg"},{"bike_id":"1f6349b5-213e-4c70-8847-e120f033f762","system_id":"levelo_inurba_marseille","lat":43.31891,"lon":5.40728,"is_reserved":false,"is_disabled":false,"rental_uris":{"android":"levelo://app?vid=1f6349b5-213e-4c70-8847-e120f033f762","ios":"levelo://app?vid=1f6349b5-213e-4c70-8847-e120f033f762"},"vehicle_type_id":"4","last_reported":1773450541,"current_range_meters":39200,"station_id":"ce4bhq12rcd13ifvqhig","pricing_plan_id":"cebpf4jnsgd1na2vs0mg"},{"bike_id":"277a42f0-d4cb-4574-92aa-b9ec96816d63","system_id":"levelo_inurba_marseille","lat":43.31179,"lon":5.38706,"is_reserved":false,"is_disabled":false,"rental_uris":{"android":"levelo://app?vid=277a42f0-d4cb-4574-92aa-b9ec96816d63","ios":"levelo://app?vid=277a42f0-d4cb-4574-92aa-b9ec96816d63"},"vehicle_type_id":"4","last_reported":1773450541,"current_range_meters":20400,"station_id":"ce4bgv12rcd13ifvqcp0","pricing_plan_id":"cebpf4jnsgd1na2vs0mg"},{"bike_id":"0caef11f-bbfb-4366-8e8c-be825fa3903a","system_id":"levelo_inurba_marseille","lat":43.31122,"lon":5.37762,"is_reserved":false,"is_disabled":false,"rental_uris":{"android":"levelo://app?vid=0caef11f-bbfb-4366-8e8c-be825fa3903a","ios":"levelo://app?vid=0caef11f-bbfb-4366-8e8c-be825fa3903a"},"vehicle_type_id":"4","last_reported":1773450541,"current_range_meters":30800,"station_id":"ce4bgt92rcd13ifvqcg0","pricing_plan_id":"cebpf4jnsgd1na2vs0mg"},{"bike_id":"8617b24d-bdd2-49e3-beda-5d74fc474252","system_id":"levelo_inurba_marseille","lat":43.28481,"lon":5.484,"is_reserved":false,"is_disabled":false,"rental_uris":{"android":"levelo://app?vid=8617b24d-bdd2-49e3-beda-5d74fc474252","ios":"levelo://app?vid=8617b24d-bdd2-49e3-beda-5d74fc474252"},"vehicle_type_id":"4","last_reported":1773450541,"current_range_meters":28400,"station_id":"","pricing_plan_id":"cebpf4jnsgd1na2vs0mg"},{"bike_id":"220d894a-f644-4c83-8dff-27c56f0eea16","system_id":"levelo_inurba_marseille","lat":43.24805,"lon":5.37448,"is_reserved":false,"is_disabled":true,"rental_uris":{"android":"levelo://app?vid=220d894a-f644-4c83-8dff-27c56f0eea16","ios":"levelo://app?vid=220d894a-f644-4c83-8dff-27c56f0eea16"},"vehicle_type_id":"4","last_reported":1773450541,"current_range_meters":23200,"station_id":"ce4bhgh2rcd13ifvqfb0","pricing_plan_id":"cebpf4jnsgd1na2vs0mg"},{"bike_id":"75f14208-a968-40dc-80f8-68b063e0d714","system_id":"levelo_inurba_marseille","lat":43.23152,"lon":5.43684,"is_reserved":false,"is_disabled":false,"rental_uris":{"android":"levelo://app?vid=75f14208-a968-40dc-80f8-68b063e0d714","ios":"levelo://app?vid=75f14208-a968-40dc-80f8-68b063e0d714"},"vehicle_type_id":"4","last_reported":1773450541,"current_range_meters":12400,"station_id":"ce4bhmp2rcd13ifvqgog","pricing_plan_id":"cebpf4jnsgd1na2vs0mg"},{"bike_id":"2c4b9baa-150c-43c0-9983-79477495e674","system_id":"levelo_inurba_marseille","lat":43.31575,"lon":5.38911,"is_reserved":false,"is_disabled":false,"rental_uris":{"android":"levelo://app?vid=2c4b9baa-150c-43c0-9983-79477495e674","ios":"levelo://app?vid=2c4b9baa-150c-43c0-9983-79477495e674"},"vehicle_type_id":"4","last_reported":1773450541,"current_range_meters":4800,"station_id":"","pricing_plan_id":"cebpf4jnsgd1na2vs0mg"},{"bike_id":"4a09330b-b9bf-424e-8693-aafe00acb3cd","system_id":"levelo_inurba_marseille","lat":43.29543,"lon":5.42281,"is_reserved":false,"is_disabled":false,"rental_uris":{"android":"levelo://app?vid=4a09330b-b9bf-424e-8693-aafe00acb3cd","ios":"levelo://app?vid=4a09330b-b9bf-424e-8693-aafe00acb3cd"},"vehicle_type_id":"4","last_reported":1773450541,"current_range_meters":38000,"station_id":"ce4bhph2rcd13ifvqhdg","pricing_plan_id":"cebpf4jnsgd1na2vs0mg"},{"bike_id":"af2e80dc-23a8-428f-b0f6-a691171e6533","system_id":"levelo_inurba_marseille","lat":43.24672,"lon":5.3818,"is_reserved":false,"is_disabled":false,"rental_uris":{"android":"levelo://app?vid=af2e80dc-23a8-428f-b0f6-a691171e6533","ios":"levelo://app?vid=af2e80dc-23a8-428f-b0f6-a691171e6533"},"vehicle_type_id":"4","last_reported":1773450541,"current_range_meters":10000,"station_id":"ce4bhih2rcd13ifvqfr0","pricing_plan_id":"cebpf4jnsgd1na2vs0mg"},{"bike_id":"3d4208c2-815f-40bf-8bb0-f78b87ee07d6","system_id":"levelo_inurba_marseille","lat":43.28401,"lon":5.34986,"is_reserved":false,"is_disabled":false,"rental_uris":{"android":"levelo://app?vid=3d4208c2-815f-40bf-8bb0-f78b87ee07d6","ios":"levelo://app?vid=3d4208c2-815f-40bf-8bb0-f78b87ee07d6"},"vehicle_type_id":"4","last_reported":1773450541,"current_range_meters":38800,"station_id":"ce4bhbh2rcd13ifvqepg","pricing_plan_id":"cebpf4jnsgd1na2vs0mg"},{"bike_id":"a9476746-a5fc-47b3-b041-81daf8b73d87","system_id":"levelo_inurba_marseille","lat":43.29557,"lon":5.42262,"is_reserved":false,"is_disabled":false,"rental_uris":{"android":"levelo://app?vid=a9476746-a5fc-47b3-b041-81daf8b73d87","ios":"levelo://app?vid=a9476746-a5fc-47b3-b041-81daf8b73d87"},"vehicle_type_id":"4","last_reported":1773450541,"current_range_meters":35600,"station_id":"ce4bhph2rcd13ifvqhdg","pricing_plan_id":"cebpf4jnsgd1na2vs0mg"},{"bike_id":"4a128c70-7b4b-4754-8f4f-e3724c3c9838","system_id":"levelo_inurba_marseille","lat":43.30938,"lon":5.4012,"is_reserved":false,"is_disabled":false,"rental_uris":{"android":"levelo://app?vid=4a128c70-7b4b-4754-8f4f-e3724c3c9838","ios":"levelo://app?vid=4a128c70-7b4b-4754-8f4f-e3724c3c9838"},"vehicle_type_id":"4","last_reported":1773450541,"current_range_meters":7200,"station_id":"ce4bgvp2rcd13ifvqct0","pricing_plan_id":"cebpf4jnsgd1na2vs0mg"},{"bike_id":"ce0b5a49-a110-4e38-9055-caddd456e168","system_id":"levelo_inurba_marseille","lat":43.29977,"lon":5.37173,"is_reserved":false,"is_disabled":false,"rental_uris":{"android":"levelo://app?vid=ce0b5a49-a110-4e38-9055-caddd456e168","ios":"levelo://app?vid=ce0b5a49-a110-4e38-9055-caddd456e168"},"vehicle_type_id":"4","last_reported":1773450541,"current_range_meters":6000,"station_id":"ce4bgr92rcd13ifvqc7g","pricing_plan_id":"cebpf4jnsgd1na2vs0mg"},{"bike_id":"56fddcda-c541-44a5-8391-f7fbf087f4ed","system_id":"levelo_inurba_marseille","lat":43.22567,"lon":5.41629,"is_reserved":false,"is_disabled":false,"rental_uris":{"android":"levelo://app?vid=56fddcda-c541-44a5-8391-f7fbf087f4ed","ios":"levelo://app?vid=56fddcda-c541-44a5-8391-f7fbf087f4ed"},"vehicle_type_id":"4","last_reported":1773450541,"current_range_meters":39200,"station_id":"st_d2o4gvlbi1j2169b742g","pricing_plan_id":"cebpf4jnsgd1na2vs0mg"},{"bike_id":"5fe0b310-a018-4fa3-bec0-00459f67e656","system_id":"levelo_inurba_marseille","lat":43.30951,"lon":5.39026,"is_reserved":false,"is_disabled":false,"rental_uris":{"android":"levelo://app?vid=5fe0b310-a018-4fa3-bec0-00459f67e656","ios":"levelo://app?vid=5fe0b310-a018-4fa3-bec0-00459f67e656"},"vehicle_type_id":"4","last_reported":1773450541,"current_range_meters":12800,"station_id":"ce4bgup2rcd13ifvqco0","pricing_plan_id":"cebpf4jnsgd1na2vs0mg"},{"bike_id":"04d16ef4-39d1-4e51-b75d-bfa218adb8ad","system_id":"levelo_inurba_marseille","lat":43.30511,"lon":5.36785,"is_reserved":false,"is_disabled":false,"rental_uris":{"android":"levelo://app?vid=04d16ef4-39d1-4e51-b75d-bfa218adb8ad","ios":"levelo://app?vid=04d16ef4-39d1-4e51-b75d-bfa218adb8ad"},"vehicle_type_id":"4","last_reported":1773450541,"current_range_meters":27200,"station_id":"ce4bgrp2rcd13ifvqc9g","pricing_plan_id":"cebpf4jnsgd1na2vs0mg"},{"bike_id":"7b39c3ab-1ec2-4a85-b74e-65bc5157e762","system_id":"levelo_inurba_marseille","lat":43.24381,"lon":5.37065,"is_reserved":false,"is_disabled":false,"rental_uris":{"android":"levelo://app?vid=7b39c3ab-1ec2-4a85-b74e-65bc5157e762","ios":"levelo://app?vid=7b39c3ab-1ec2-4a85-b74e-65bc5157e762"},"vehicle_type_id":"4","last_reported":1773450541,"current_range_meters":28000,"station_id":"ce4bhhh2rcd13ifvqfk0","pricing_plan_id":"cebpf4jnsgd1na2vs0mg"},{"bike_id":"0e78647e-6d33-42c7-a2f0-4bfeca262543","system_id":"levelo_inurba_marseille","lat":43.2793,"lon":5.39584,"is_reserved":false,"is_disabled":false,"rental_uris":{"android":"levelo://app?vid=0e78647e-6d33-42c7-a2f0-4bfeca262543","ios":"levelo://app?vid=0e78647e-6d33-42c7-a2f0-4bfeca262543"},"vehicle_type_id":"4","last_reported":1773450541,"current_range_meters":22400,"station_id":"ce4bhf92rcd13ifvqf40","pricing_plan_id":"cebpf4jnsgd1na2vs0mg"},{"bike_id":"8bea8868-7b3a-44b3-a04d-f8c5896cd9e9","system_id":"levelo_inurba_marseille","lat":43.2792,"lon":5.39576,"is_reserved":false,"is_disabled":false,"rental_uris":{"android":"levelo://app?vid=8bea8868-7b3a-44b3-a04d-f8c5896cd9e9","ios":"levelo://app?vid=8bea8868-7b3a-44b3-a04d-f8c5896cd9e9"},"vehicle_type_id":"4","last_reported":1773450541,"current_range_meters":17600,"station_id":"ce4bhf92rcd13ifvqf40","pricing_plan_id":"cebpf4jnsgd1na2vs0mg"},{"bike_id":"c4f31f61-76ca-4a4f-a5a6-16b26f7866d2","system_id":"levelo_inurba_marseille","lat":43.30952,"lon":5.39028,"is_reserved":false,"is_disabled":false,"rental_uris":{"android":"levelo://app?vid=c4f31f61-76ca-4a4f-a5a6-16b26f7866d2","ios":"levelo://app?vid=c4f31f61-76ca-4a4f-a5a6-16b26f7866d2"},"vehicle_type_id":"4","last_reported":1773450541,"current_range_meters":14000,"station_id":"ce4bgup2rcd13ifvqco0","pricing_plan_id":"cebpf4jnsgd1na2vs0mg"},{"bike_id":"d213d92d-5289-4183-93be-f84e36b07244","system_id":"levelo_inurba_marseille","lat":43.28999,"lon":5.35613,"is_reserved":false,"is_disabled":true,"rental_uris":{"android":"levelo://app?vid=d213d92d-5289-4183-93be-f84e36b07244","ios":"levelo://app?vid=d213d92d-5289-4183-93be-f84e36b07244"},"vehicle_type_id":"4","last_reported":1773450541,"current_range_meters":28400,"station_id":"ce4bhb92rcd13ifvqen0","pricing_plan_id":"cebpf4jnsgd1na2vs0mg"},{"bike_id":"45178e07-c6f9-4de8-aed6-22bf1ae4e812","system_id":"levelo_inurba_marseille","lat":43.30536,"lon":5.36676,"is_reserved":false,"is_disabled":false,"rental_uris":{"android":"levelo://app?vid=45178e07-c6f9-4de8-aed6-22bf1ae4e812","ios":"levelo://app?vid=45178e07-c6f9-4de8-aed6-22bf1ae4e812"},"vehicle_type_id":"4","last_reported":1773450541,"current_range_meters":39200,"station_id":"ce4bgrp2rcd13ifvqc9g","pricing_plan_id":"cebpf4jnsgd1na2vs0mg"},{"bike_id":"342f3e2c-a907-4625-be97-c1abdcf52674","system_id":"levelo_inurba_marseille","lat":43.28925,"lon":5.38392,"is_reserved":false,"is_disabled":false,"rental_uris":{"android":"levelo://app?vid=342f3e2c-a907-4625-be97-c1abdcf52674","ios":"levelo://app?vid=342f3e2c-a907-4625-be97-c1abdcf52674"},"vehicle_type_id":"4","last_reported":1773450541,"current_range_meters":38800,"station_id":"ce4bh612rcd13ifvqe6g","pricing_plan_id":"cebpf4jnsgd1na2vs0mg"},{"bike_id":"aea6c993-6728-44cf-981b-cb3a9bd01459","system_id":"levelo_inurba_marseille","lat":43.29197,"lon":5.39305,"is_reserved":false,"is_disabled":false,"rental_uris":{"android":"levelo://app?vid=aea6c993-6728-44cf-981b-cb3a9bd01459","ios":"levelo://app?vid=aea6c993-6728-44cf-981b-cb3a9bd01459"},"vehicle_type_id":"4","last_reported":1773450541,"current_range_meters":37600,"station_id":"ce4bh192rcd13ifvqdd0","pricing_plan_id":"cebpf4jnsgd1na2vs0mg"},{"bike_id":"1072a2a8-0c4d-4e1d-a618-9cb5fde068bb","system_id":"levelo_inurba_marseille","lat":43.24399,"lon":5.37064,"is_reserved":false,"is_disabled":false,"rental_uris":{"android":"levelo://app?vid=1072a2a8-0c4d-4e1d-a618-9cb5fde068bb","ios":"levelo://app?vid=1072a2a8-0c4d-4e1d-a618-9cb5fde068bb"},"vehicle_type_id":"4","last_reported":1773450541,"current_range_meters":38000,"station_id":"ce4bhhh2rcd13ifvqfk0","pricing_plan_id":"cebpf4jnsgd1na2vs0mg"},{"bike_id":"9a127c17-ae93-453c-9375-8a63f3a2c95d","system_id":"levelo_inurba_marseille","lat":43.29586,"lon":5.39966,"is_reserved":false,"is_disabled":false,"rental_uris":{"android":"levelo://app?vid=9a127c17-ae93-453c-9375-8a63f3a2c95d","ios":"levelo://app?vid=9a127c17-ae93-453c-9375-8a63f3a2c95d"},"vehicle_type_id":"4","last_reported":1773450541,"current_range_meters":28400,"station_id":"ce4bh312rcd13ifvqdj0","pricing_plan_id":"cebpf4jnsgd1na2vs0mg"},{"bike_id":"ac325101-b5a7-4f5d-9bc7-aba501847b2e","system_id":"levelo_inurba_marseille","lat":43.2737,"lon":5.3625,"is_reserved":false,"is_disabled":true,"rental_uris":{"android":"levelo://app?vid=ac325101-b5a7-4f5d-9bc7-aba501847b2e","ios":"levelo://app?vid=ac325101-b5a7-4f5d-9bc7-aba501847b2e"},"vehicle_type_id":"4","last_reported":1773450541,"current_range_meters":39200,"station_id":"ce4bhbh2rcd13ifvqeo0","pricing_plan_id":"cebpf4jnsgd1na2vs0mg"},{"bike_id":"cffdf26c-1919-4029-87b5-8b45a2bc0447","system_id":"levelo_inurba_marseille","lat":43.2958,"lon":5.36749,"is_reserved":false,"is_disabled":true,"rental_uris":{"android":"levelo://app?vid=cffdf26c-1919-4029-87b5-8b45a2bc0447","ios":"levelo://app?vid=cffdf26c-1919-4029-87b5-8b45a2bc0447"},"vehicle_type_id":"4","last_reported":1773450541,"current_range_meters":2800,"station_id":"ce4bgph2rcd13ifvqc2g","pricing_plan_id":"cebpf4jnsgd1na2vs0mg"},{"bike_id":"1026a843-5ad2-4108-8ed8-7e0baa3350eb","system_id":"levelo_inurba_marseille","lat":43.30274,"lon":5.4014,"is_reserved":false,"is_disabled":false,"rental_uris":{"android":"levelo://app?vid=1026a843-5ad2-4108-8ed8-7e0baa3350eb","ios":"levelo://app?vid=1026a843-5ad2-4108-8ed8-7e0baa3350eb"},"vehicle_type_id":"4","last_reported":1773450541,"current_range_meters":10000,"station_id":"ce4bgvh2rcd13ifvqcs0","pricing_plan_id":"cebpf4jnsgd1na2vs0mg"},{"bike_id":"d6d30534-eb35-4103-8b2a-427179c9c67f","system_id":"levelo_inurba_marseille","lat":43.30944,"lon":5.39036,"is_reserved":false,"is_disabled":false,"rental_uris":{"android":"levelo://app?vid=d6d30534-eb35-4103-8b2a-427179c9c67f","ios":"levelo://app?vid=d6d30534-eb35-4103-8b2a-427179c9c67f"},"vehicle_type_id":"4","last_reported":1773450541,"current_range_meters":36400,"station_id":"ce4bgup2rcd13ifvqco0","pricing_plan_id":"cebpf4jnsgd1na2vs0mg"},{"bike_id":"b55e7dd1-4091-4cd0-9b33-d385b7f63602","system_id":"levelo_inurba_marseille","lat":43.265459,"lon":5.372797,"is_reserved":false,"is_disabled":false,"rental_uris":{"android":"levelo://app?vid=b55e7dd1-4091-4cd0-9b33-d385b7f63602","ios":"levelo://app?vid=b55e7dd1-4091-4cd0-9b33-d385b7f63602"},"vehicle_type_id":"4","last_reported":1773450541,"current_range_meters":4000,"station_id":"ce4bhb92rcd13ifvqen0","pricing_plan_id":"cebpf4jnsgd1na2vs0mg"},{"bike_id":"6840f6df-3461-42c8-98d7-357f6584e26f","system_id":"levelo_inurba_marseille","lat":43.2737,"lon":5.36255,"is_reserved":false,"is_disabled":false,"rental_uris":{"android":"levelo://app?vid=6840f6df-3461-42c8-98d7-357f6584e26f","ios":"levelo://app?vid=6840f6df-3461-42c8-98d7-357f6584e26f"},"vehicle_type_id":"4","last_reported":1773450541,"current_range_meters":37600,"station_id":"ce4bhbh2rcd13ifvqeo0","pricing_plan_id":"cebpf4jnsgd1na2vs0mg"},{"bike_id":"de93280a-7897-461b-b954-4038a52e43eb","system_id":"levelo_inurba_marseille","lat":43.33735,"lon":5.37439,"is_reserved":false,"is_disabled":true,"rental_uris":{"android":"levelo://app?vid=de93280a-7897-461b-b954-4038a52e43eb","ios":"levelo://app?vid=de93280a-7897-461b-b954-4038a52e43eb"},"vehicle_type_id":"4","last_reported":1773450541,"current_range_meters":0,"station_id":"","pricing_plan_id":"cebpf4jnsgd1na2vs0mg"},{"bike_id":"13b759af-9f39-4385-b233-8157f102d0b7","system_id":"levelo_inurba_marseille","lat":43.23984,"lon":5.36631,"is_reserved":false,"is_disabled":false,"rental_uris":{"android":"levelo://app?vid=13b759af-9f39-4385-b233-8157f102d0b7","ios":"levelo://app?vid=13b759af-9f39-4385-b233-8157f102d0b7"},"vehicle_type_id":"4","last_reported":1773450541,"current_range_meters":6800,"station_id":"ce4bhi12rcd13ifvqfp0","pricing_plan_id":"cebpf4jnsgd1na2vs0mg"},{"bike_id":"1a4153a4-6c00-42df-9ed8-cf853dc869fe","system_id":"levelo_inurba_marseille","lat":43.31148,"lon":5.38708,"is_reserved":false,"is_disabled":false,"rental_uris":{"android":"levelo://app?vid=1a4153a4-6c00-42df-9ed8-cf853dc869fe","ios":"levelo://app?vid=1a4153a4-6c00-42df-9ed8-cf853dc869fe"},"vehicle_type_id":"4","last_reported":1773450541,"current_range_meters":25600,"station_id":"ce4bgv12rcd13ifvqcp0","pricing_plan_id":"cebpf4jnsgd1na2vs0mg"},{"bike_id":"252a5d80-6607-454c-ba50-bf5f3c088b90","system_id":"levelo_inurba_marseille","lat":43.30882,"lon":5.39608,"is_reserved":false,"is_disabled":false,"rental_uris":{"android":"levelo://app?vid=252a5d80-6607-454c-ba50-bf5f3c088b90","ios":"levelo://app?vid=252a5d80-6607-454c-ba50-bf5f3c088b90"},"vehicle_type_id":"4","last_reported":1773450541,"current_range_meters":21600,"station_id":"ce4bh012rcd13ifvqcv0","pricing_plan_id":"cebpf4jnsgd1na2vs0mg"},{"bike_id":"93c8107a-44d9-4b92-a485-08cbd24bb80c","system_id":"levelo_inurba_marseille","lat":43.28614,"lon":5.35086,"is_reserved":false,"is_disabled":false,"rental_uris":{"android":"levelo://app?vid=93c8107a-44d9-4b92-a485-08cbd24bb80c","ios":"levelo://app?vid=93c8107a-44d9-4b92-a485-08cbd24bb80c"},"vehicle_type_id":"4","last_reported":1773450541,"current_range_meters":17200,"station_id":"ce4bhch2rcd13ifvqeug","pricing_plan_id":"cebpf4jnsgd1na2vs0mg"},{"bike_id":"4605d0eb-aef4-494c-b103-fe3cbd9a939f","system_id":"levelo_inurba_marseille","lat":43.26059,"lon":5.39391,"is_reserved":false,"is_disabled":false,"rental_uris":{"android":"levelo://app?vid=4605d0eb-aef4-494c-b103-fe3cbd9a939f","ios":"levelo://app?vid=4605d0eb-aef4-494c-b103-fe3cbd9a939f"},"vehicle_type_id":"4","last_reported":1773450541,"current_range_meters":22000,"station_id":"ce4bhh92rcd13ifvqfj0","pricing_plan_id":"cebpf4jnsgd1na2vs0mg"},{"bike_id":"e2ff8fbe-6ee0-4693-94cc-f4a9ec9cf6bf","system_id":"levelo_inurba_marseille","lat":43.31285,"lon":5.40165,"is_reserved":false,"is_disabled":false,"rental_uris":{"android":"levelo://app?vid=e2ff8fbe-6ee0-4693-94cc-f4a9ec9cf6bf","ios":"levelo://app?vid=e2ff8fbe-6ee0-4693-94cc-f4a9ec9cf6bf"},"vehicle_type_id":"4","last_reported":1773450541,"current_range_meters":14400,"station_id":"ce4bh092rcd13ifvqd30","pricing_plan_id":"cebpf4jnsgd1na2vs0mg"},{"bike_id":"c4bc4c4b-1b65-4f1c-9292-7dbc626f973c","system_id":"levelo_inurba_marseille","lat":43.33779,"lon":5.37461,"is_reserved":false,"is_disabled":false,"rental_uris":{"android":"levelo://app?vid=c4bc4c4b-1b65-4f1c-9292-7dbc626f973c","ios":"levelo://app?vid=c4bc4c4b-1b65-4f1c-9292-7dbc626f973c"},"vehicle_type_id":"4","last_reported":1773450541,"current_range_meters":36400,"station_id":"","pricing_plan_id":"cebpf4jnsgd1na2vs0mg"},{"bike_id":"a4e1eda7-e339-4e89-aeab-5ba3de0c460b","system_id":"levelo_inurba_marseille","lat":43.2835,"lon":5.38086,"is_reserved":false,"is_disabled":true,"rental_uris":{"android":"levelo://app?vid=a4e1eda7-e339-4e89-aeab-5ba3de0c460b","ios":"levelo://app?vid=a4e1eda7-e339-4e89-aeab-5ba3de0c460b"},"vehicle_type_id":"4","last_reported":1773450541,"current_range_meters":36800,"station_id":"ce4bh412rcd13ifvqdr0","pricing_plan_id":"cebpf4jnsgd1na2vs0mg"},{"bike_id":"36d46123-1b41-417b-9791-17a81620f364","system_id":"levelo_inurba_marseille","lat":43.3234,"lon":5.36723,"is_reserved":false,"is_disabled":false,"rental_uris":{"android":"levelo://app?vid=36d46123-1b41-417b-9791-17a81620f364","ios":"levelo://app?vid=36d46123-1b41-417b-9791-17a81620f364"},"vehicle_type_id":"4","last_reported":1773450541,"current_range_meters":39200,"station_id":"ce4bhsh2rcd13ifvqi2g","pricing_plan_id":"cebpf4jnsgd1na2vs0mg"},{"bike_id":"48358f2d-f55c-46c5-9640-4bd45a2b2905","system_id":"levelo_inurba_marseille","lat":43.24445,"lon":5.37056,"is_reserved":false,"is_disabled":true,"rental_uris":{"android":"levelo://app?vid=48358f2d-f55c-46c5-9640-4bd45a2b2905","ios":"levelo://app?vid=48358f2d-f55c-46c5-9640-4bd45a2b2905"},"vehicle_type_id":"4","last_reported":1773450541,"current_range_meters":32400,"station_id":"","pricing_plan_id":"cebpf4jnsgd1na2vs0mg"},{"bike_id":"04c994cf-f457-4693-8133-467151150b6e","system_id":"levelo_inurba_marseille","lat":43.25525,"lon":5.37633,"is_reserved":false,"is_disabled":false,"rental_uris":{"android":"levelo://app?vid=04c994cf-f457-4693-8133-467151150b6e","ios":"levelo://app?vid=04c994cf-f457-4693-8133-467151150b6e"},"vehicle_type_id":"4","last_reported":1773450541,"current_range_meters":16800,"station_id":"ce4bhh12rcd13ifvqff0","pricing_plan_id":"cebpf4jnsgd1na2vs0mg"},{"bike_id":"da7f86cf-e44a-4069-ac5a-c0af0d80fd2c","system_id":"levelo_inurba_marseille","lat":43.24788,"lon":5.37432,"is_reserved":false,"is_disabled":true,"rental_uris":{"android":"levelo://app?vid=da7f86cf-e44a-4069-ac5a-c0af0d80fd2c","ios":"levelo://app?vid=da7f86cf-e44a-4069-ac5a-c0af0d80fd2c"},"vehicle_type_id":"4","last_reported":1773450541,"current_range_meters":37600,"station_id":"ce4bhgh2rcd13ifvqfb0","pricing_plan_id":"cebpf4jnsgd1na2vs0mg"},{"bike_id":"626a35f0-447c-4bce-95ad-77821380f26a","system_id":"levelo_inurba_marseille","lat":43.30901,"lon":5.40092,"is_reserved":false,"is_disabled":true,"rental_uris":{"android":"levelo://app?vid=626a35f0-447c-4bce-95ad-77821380f26a","ios":"levelo://app?vid=626a35f0-447c-4bce-95ad-77821380f26a"},"vehicle_type_id":"4","last_reported":1773450541,"current_range_meters":39200,"station_id":"","pricing_plan_id":"cebpf4jnsgd1na2vs0mg"},{"bike_id":"edf8e9bb-dd65-4f5d-9c37-53194300b8b5","system_id":"levelo_inurba_marseille","lat":43.3376,"lon":5.37476,"is_reserved":false,"is_disabled":false,"rental_uris":{"android":"levelo://app?vid=edf8e9bb-dd65-4f5d-9c37-53194300b8b5","ios":"levelo://app?vid=edf8e9bb-dd65-4f5d-9c37-53194300b8b5"},"vehicle_type_id":"4","last_reported":1773450541,"current_range_meters":33600,"station_id":"","pricing_plan_id":"cebpf4jnsgd1na2vs0mg"},{"bike_id":"bb63d02d-c1ed-4615-82e5-40fd91312844","system_id":"levelo_inurba_marseille","lat":43.29174,"lon":5.35786,"is_reserved":false,"is_disabled":true,"rental_uris":{"android":"levelo://app?vid=bb63d02d-c1ed-4615-82e5-40fd91312844","ios":"levelo://app?vid=bb63d02d-c1ed-4615-82e5-40fd91312844"},"vehicle_type_id":"4","last_reported":1773450541,"current_range_meters":32800,"station_id":"ce4bhb12rcd13ifvqel0","pricing_plan_id":"cebpf4jnsgd1na2vs0mg"},{"bike_id":"cc861bc1-1aca-46be-a176-b5ecc6ef06de","system_id":"levelo_inurba_marseille","lat":43.29277,"lon":5.36847,"is_reserved":false,"is_disabled":false,"rental_uris":{"android":"levelo://app?vid=cc861bc1-1aca-46be-a176-b5ecc6ef06de","ios":"levelo://app?vid=cc861bc1-1aca-46be-a176-b5ecc6ef06de"},"vehicle_type_id":"4","last_reported":1773450541,"current_range_meters":5600,"station_id":"ce4bhbp2rcd13ifvqesg","pricing_plan_id":"cebpf4jnsgd1na2vs0mg"},{"bike_id":"858e7504-d8fc-4828-9501-ec4e74d3079e","system_id":"levelo_inurba_marseille","lat":43.31166,"lon":5.3873,"is_reserved":false,"is_disabled":false,"rental_uris":{"android":"levelo://app?vid=858e7504-d8fc-4828-9501-ec4e74d3079e","ios":"levelo://app?vid=858e7504-d8fc-4828-9501-ec4e74d3079e"},"vehicle_type_id":"4","last_reported":1773450541,"current_range_meters":29600,"station_id":"ce4bgv12rcd13ifvqcp0","pricing_plan_id":"cebpf4jnsgd1na2vs0mg"},{"bike_id":"0fbc03ea-38ff-4c48-914d-196117a17426","system_id":"levelo_inurba_marseille","lat":43.27617,"lon":5.36115,"is_reserved":false,"is_disabled":false,"rental_uris":{"android":"levelo://app?vid=0fbc03ea-38ff-4c48-914d-196117a17426","ios":"levelo://app?vid=0fbc03ea-38ff-4c48-914d-196117a17426"},"vehicle_type_id":"4","last_reported":1773450541,"current_range_meters":37600,"station_id":"ce4bgj92rcd13ifvqbe0","pricing_plan_id":"cebpf4jnsgd1na2vs0mg"},{"bike_id":"61a4ae79-d0b6-414f-8906-b833322210b6","system_id":"levelo_inurba_marseille","lat":43.26573,"lon":5.40322,"is_reserved":false,"is_disabled":false,"rental_uris":{"android":"levelo://app?vid=61a4ae79-d0b6-414f-8906-b833322210b6","ios":"levelo://app?vid=61a4ae79-d0b6-414f-8906-b833322210b6"},"vehicle_type_id":"4","last_reported":1773450541,"current_range_meters":38400,"station_id":"ce4bhmp2rcd13ifvqgng","pricing_plan_id":"cebpf4jnsgd1na2vs0mg"},