{"last_updated":1728540796,"ttl":60,"version":"2.2","data":{"bikes":[{"bike_id":"414ef79c-1a49-4e68-bebc-dff4e327ae48","system_id":"levelo_inurba_marseille","lat":43.28157,"lon":5.4264,"is_reserved":false,"is_disabled":false,"rental_uris":{"android":"levelo://app?vid=414ef79c-1a49-4e68-bebc-dff4e327ae48","ios":"levelo://app?vid=414ef79c-1a49-4e68-bebc-dff4e327ae48"},"vehicle_type_id":"4","last_reported":1728540796,"current_range_meters":16400,"station_id":"ce4bhnh2rcd13ifvqgug","pricing_plan_id":"cebpf4jnsgd1na2vs0mg"},{"bike_id":"3bcc5591-65aa-4a72-a724-e23b8b64be33","system_id":"levelo_inurba_marseille","lat":43.28357,"lon":5.38107,"is_reserved":false,"is_disabled":false,"rental_uris":{"android":"levelo://app?vid=3bcc5591-65aa-4a72-a724-e23b8b64be33","ios":"levelo://app?vid=3bcc5591-65aa-4a72-a724-e23b8b64be33"},"vehicle_type_id":"4","last_reported":1728540796,"current_range_meters":8400,"station_id":"ce4bh412rcd13ifvqdr0","pricing_plan_id":"cebpf4jnsgd1na2vs0mg"},{"bike_id":"75a9026e-c25f-4e13-9968-02a895be48e4","system_id":"levelo_inurba_marseille","lat":43.24076,"lon":5.37756,"is_reserved":false,"is_disabled":false,"rental_uris":{"android":"levelo://app?vid=75a9026e-c25f-4e13-9968-02a895be48e4","ios":"levelo://app?vid=75a9026e-c25f-4e13-9968-02a895be48e4"},"vehicle_type_id":"4","last_reported":1728540796,"current_range_meters":37600,"station_id":"ce4bhnp2rcd13ifvqgvg","pricing_plan_id":"cebpf4jnsgd1na2vs0mg"},{"bike_id":"5de4f8f4-8d19-48c2-9e6d-6ec7a45e78a7","system_id":"levelo_inurba_marseille","lat":43.30946,"lon":5.39037,"is_reserved":false,"is_disabled":false,"rental_uris":{"android":"levelo://app?vid=5de4f8f4-8d19-48c2-9e6d-6ec7a45e78a7","ios":"levelo://app?vid=5de4f8f4-8d19-48c2-9e6d-6ec7a45e78a7"},"vehicle_type_id":"4","last_reported":1728540796,"current_range_meters":20000,"station_id":"ce4bgup2rcd13ifvqco0","pricing_plan_id":"cebpf4jnsgd1na2vs0mg"},{"bike_id":"69e77010-a535-4398-8159-24f48f4c7d15","system_id":"levelo_inurba_marseille","lat":43.23064,"lon":5.35483,"is_reserved":false,"is_disabled":false,"rental_uris":{"android":"levelo://app?vid=69e77010-a535-4398-8159-24f48f4c7d15","ios":"levelo://app?vid=69e77010-a535-4398-8159-24f48f4c7d15"},"vehicle_type_id":"4","last_reported":1728540796,"current_range_meters":4800,"station_id":"cpo3342slgdg3j2ifvpg","pricing_plan_id":"cebpf4jnsgd1na2vs0mg"},{"bike_id":"4c52a9fc-63cd-4df1-989f-95aacc35a0ef","system_id":"levelo_inurba_marseille","lat":43.28358,"lon":5.38117,"is_reserved":false,"is_disabled":false,"rental_uris":{"android":"levelo://app?vid=4c52a9fc-63cd-4df1-989f-95aacc35a0ef","ios":"levelo://app?vid=4c52a9fc-63cd-4df1-989f-95aacc35a0ef"},"vehicle_type_id":"4","last_reported":1728540796,"current_range_meters":33200,"station_id":"ce4bh412rcd13ifvqdr0","pricing_plan_id":"cebpf4jnsgd1na2vs0mg"},{"bike_id":"6d29c6c3-31dc-4a8c-a13d-c0889c7b9412","system_id":"levelo_inurba_marseille","lat":43.29229,"lon":5.36404,"is_reserved":false,"is_disabled":false,"rental_uris":{"android":"levelo://app?vid=6d29c6c3-31dc-4a8c-a13d-c0889c7b9412","ios":"levelo://app?vid=6d29c6c3-31dc-4a8c-a13d-c0889c7b9412"},"vehicle_type_id":"4","last_reported":1728540796,"current_range_meters":30000,"station_id":"","pricing_plan_id":"cebpf4jnsgd1na2vs0mg"},{"bike_id":"312f7ff7-0410-4581-af7a-b1305e85abe0","system_id":"levelo_inurba_marseille","lat":43.29557,"lon":5.42291,"is_reserved":false,"is_disabled":false,"rental_uris":{"android":"levelo://app?vid=312f7ff7-0410-4581-af7a-b1305e85abe0","ios":"levelo://app?vid=312f7ff7-0410-4581-af7a-b1305e85abe0"},"vehicle_type_id":"4","last_reported":1728540796,"current_range_meters":38400,"station_id":"ce4bhph2rcd13ifvqhdg","pricing_plan_id":"cebpf4jnsgd1na2vs0mg"},{"bike_id":"fef204cd-3f7b-4866-b6e5-697771a3d001","system_id":"levelo_inurba_marseille","lat":43.30913,"lon":5.36832,"is_reserved":false,"is_disabled":false,"rental_uris":{"android":"levelo://app?vid=fef204cd-3f7b-4866-b6e5-697771a3d001","ios":"levelo://app?vid=fef204cd-3f7b-4866-b6e5-697771a3d001"},"vehicle_type_id":"4","last_reported":1728540796,"current_range_meters":35600,"station_id":"ce4bgn92rcd13ifvqbvg","pricing_plan_id":"cebpf4jnsgd1na2vs0mg"},{"bike_id":"beb07366-7b4b-4cf1-a1eb-4f650c3fdb6f","system_id":"levelo_inurba_marseille","lat":43.2408,"lon":5.37758,"is_reserved":false,"is_disabled":false,"rental_uris":{"android":"levelo://app?vid=beb07366-7b4b-4cf1-a1eb-4f650c3fdb6f","ios":"levelo://app?vid=beb07366-7b4b-4cf1-a1eb-4f650c3fdb6f"},"vehicle_type_id":"4","last_reported":1728540796,"current_range_meters":26800,"station_id":"ce4bhnp2rcd13ifvqgvg","pricing_plan_id":"cebpf4jnsgd1na2vs0mg"},{"bike_id":"16346ba1-5c79-4a0d-b6f8-99d1753b2f75","system_id":"levelo_inurba_marseille","lat":43.32477,"lon":5.36576,"is_reserved":false,"is_disabled":false,"rental_uris":{"android":"levelo://app?vid=16346ba1-5c79-4a0d-b6f8-99d1753b2f75","ios":"levelo://app?vid=16346ba1-5c79-4a0d-b6f8-99d1753b2f75"},"vehicle_type_id":"4","last_reported":1728540796,"current_range_meters":18800,"station_id":"ce4bhs12rcd13ifvqhvg","pricing_plan_id":"cebpf4jnsgd1na2vs0mg"},{"bike_id":"696145f4-1e70-49bc-9369-50eed6c21736","system_id":"levelo_inurba_marseille","lat":43.3414,"lon":5.40906,"is_reserved":false,"is_disabled":false,"rental_uris":{"android":"levelo://app?vid=696145f4-1e70-49bc-9369-50eed6c21736","ios":"levelo://app?vid=696145f4-1e70-49bc-9369-50eed6c21736"},"vehicle_type_id":"4","last_reported":1728540796,"current_range_meters":29600,"station_id":"ce4bhqh2rcd13ifvqhlg","pricing_plan_id":"cebpf4jnsgd1na2vs0mg"},{"bike_id":"cc48e78b-0de2-48fc-bd8c-835ef145dac9","system_id":"levelo_inurba_marseille","lat":43.28537,"lon":5.39865,"is_reserved":false,"is_disabled":false,"rental_uris":{"android":"levelo://app?vid=cc48e78b-0de2-48fc-bd8c-835ef145dac9","ios":"levelo://app?vid=cc48e78b-0de2-48fc-bd8c-835ef145dac9"},"vehicle_type_id":"4","last_reported":1728540796,"current_range_meters":25600,"station_id":"ce4bhnh2rcd13ifvqgug","pricing_plan_id":"cebpf4jnsgd1na2vs0mg"},{"bike_id":"2c427dac-c1a0-49fd-91a2-1ed7202cff34","system_id":"levelo_inurba_marseille","lat":43.28872,"lon":5.35839,"is_reserved":false,"is_disabled":false,"rental_uris":{"android":"levelo://app?vid=2c427dac-c1a0-49fd-91a2-1ed7202cff34","ios":"levelo://app?vid=2c427dac-c1a0-49fd-91a2-1ed7202cff34"},"vehicle_type_id":"4","last_reported":1728540796,"current_range_meters":38800,"station_id":"ce4bhb12rcd13ifvqem0","pricing_plan_id":"cebpf4jnsgd1na2vs0mg"},{"bike_id":"b6238d41-ee15-425a-90f4-5765634a5d7f","system_id":"levelo_inurba_marseille","lat":43.23156,"lon":5.43709,"is_reserved":false,"is_disabled":false,"rental_uris":{"android":"levelo://app?vid=b6238d41-ee15-425a-90f4-5765634a5d7f","ios":"levelo://app?vid=b6238d41-ee15-425a-90f4-5765634a5d7f"},"vehicle_type_id":"4","last_reported":1728540796,"current_range_meters":23200,"station_id":"ce4bhmp2rcd13ifvqgog","pricing_plan_id":"cebpf4jnsgd1na2vs0mg"},{"bike_id":"a705ba65-72e5-49b3-acf5-27834b22f856","system_id":"levelo_inurba_marseille","lat":43.2408,"lon":5.37752,"is_reserved":false,"is_disabled":false,"rental_uris":{"android":"levelo://app?vid=a705ba65-72e5-49b3-acf5-27834b22f856","ios":"levelo://app?vid=a705ba65-72e5-49b3-acf5-27834b22f856"},"vehicle_type_id":"4","last_reported":1728540796,"current_range_meters":38800,"station_id":"ce4bhnp2rcd13ifvqgvg","pricing_plan_id":"cebpf4jnsgd1na2vs0mg"},{"bike_id":"729d92a6-b5d4-421f-82bd-c3e31fbc602e","system_id":"levelo_inurba_marseille","lat":43.23175,"lon":5.436452,"is_reserved":false,"is_disabled":false,"rental_uris":{"android":"levelo://app?vid=729d92a6-b5d4-421f-82bd-c3e31fbc602e","ios":"levelo://app?vid=729d92a6-b5d4-421f-82bd-c3e31fbc602e"},"vehicle_type_id":"4","last_reported":1728540796,"current_range_meters":36400,"station_id":"ce4bhmp2rcd13ifvqgog","pricing_plan_id":"cebpf4jnsgd1na2vs0mg"},{"bike_id":"6cb2fd54-0aca-4f7d-aadb-bc057dc4fb59","system_id":"levelo_inurba_marseille","lat":43.23063,"lon":5.35491,"is_reserved":false,"is_disabled":false,"rental_uris":{"android":"levelo://app?vid=6cb2fd54-0aca-4f7d-aadb-bc057dc4fb59","ios":"levelo://app?vid=6cb2fd54-0aca-4f7d-aadb-bc057dc4fb59"},"vehicle_type_id":"4","last_reported":1728540796,"current_range_meters":35200,"station_id":"cpo3342slgdg3j2ifvpg","pricing_plan_id":"cebpf4jnsgd1na2vs0mg"},{"bike_id":"1653f649-3f7e-4444-966a-6234fdc3452e","system_id":"levelo_inurba_marseille","lat":43.27237,"lon":5.39178,"is_reserved":false,"is_disabled":false,"rental_uris":{"android":"levelo://app?vid=1653f649-3f7e-4444-966a-6234fdc3452e","ios":"levelo://app?vid=1653f649-3f7e-4444-966a-6234fdc3452e"},"vehicle_type_id":"4","last_reported":1728540796,"current_range_meters":34800,"station_id":"ce4bhhp2rcd13ifvqfm0","pricing_plan_id":"cebpf4jnsgd1na2vs0mg"},{"bike_id":"b7965caf-e4c5-4273-9940-2e0802cd8590","system_id":"levelo_inurba_marseille","lat":43.28538,"lon":5.38364,"is_reserved":false,"is_disabled":false,"rental_uris":{"android":"levelo://app?vid=b7965caf-e4c5-4273-9940-2e0802cd8590","ios":"levelo://app?vid=b7965caf-e4c5-4273-9940-2e0802cd8590"},"vehicle_type_id":"4","last_reported":1728540796,"current_range_meters":36400,"station_id":"ce4bhq12rcd13ifvqhig","pricing_plan_id":"cebpf4jnsgd1na2vs0mg"},{"bike_id":"886aa239-0ce6-4cc7-a1be-709bc947b872","system_id":"levelo_inurba_marseille","lat":43.28151,"lon":5.42652,"is_reserved":false,"is_disabled":false,"rental_uris":{"android":"levelo://app?vid=886aa239-0ce6-4cc7-a1be-709bc947b872","ios":"levelo://app?vid=886aa239-0ce6-4cc7-a1be-709bc947b872"},"vehicle_type_id":"4","last_reported":1728540796,"current_range_meters":7200,"station_id":"ce4bhnh2rcd13ifvqgug","pricing_plan_id":"cebpf4jnsgd1na2vs0mg"},{"bike_id":"6ac01319-5f01-43b5-b52d-79391e18b456","system_id":"levelo_inurba_marseille","lat":43.24184,"lon":5.39718,"is_reserved":false,"is_disabled":false,"rental_uris":{"android":"levelo://app?vid=6ac01319-5f01-43b5-b52d-79391e18b456","ios":"levelo://app?vid=6ac01319-5f01-43b5-b52d-79391e18b456"},"vehicle_type_id":"4","last_reported":1728540796,"current_range_meters":36800,"station_id":"ce4bhn12rcd13ifvqgpg","pricing_plan_id":"cebpf4jnsgd1na2vs0mg"},{"bike_id":"e5aae892-bf84-4196-b8d8-b1812af6f5d8","system_id":"levelo_inurba_marseille","lat":43.33608,"lon":5.41032,"is_reserved":false,"is_disabled":false,"rental_uris":{"android":"levelo://app?vid=e5aae892-bf84-4196-b8d8-b1812af6f5d8","ios":"levelo://app?vid=e5aae892-bf84-4196-b8d8-b1812af6f5d8"},"vehicle_type_id":"4","last_reported":1728540796,"current_range_meters":28400,"station_id":"ce4bhqh2rcd13ifvqhmg","pricing_plan_id":"cebpf4jnsgd1na2vs0mg"},{"bike_id":"97797349-fd2a-4ce4-b723-14f3d465d041","system_id":"levelo_inurba_marseille","lat":43.27497,"lon":5.42447,"is_reserved":false,"is_disabled":false,"rental_uris":{"android":"levelo://app?vid=97797349-fd2a-4ce4-b723-14f3d465d041","ios":"levelo://app?vid=97797349-fd2a-4ce4-b723-14f3d465d041"},"vehicle_type_id":"4","last_reported":1728540796,"current_range_meters":38400,"station_id":"ce4bhn92rcd13ifvqgrg","pricing_plan_id":"cebpf4jnsgd1na2vs0mg"},{"bike_id":"39d4f329-5b71-4253-bb84-effb88455907","system_id":"levelo_inurba_marseille","lat":43.31754,"lon":5.39028,"is_reserved":false,"is_disabled":false,"rental_uris":{"android":"levelo://app?vid=39d4f329-5b71-4253-bb84-effb88455907","ios":"levelo://app?vid=39d4f329-5b71-4253-bb84-effb88455907"},"vehicle_type_id":"4","last_reported":1728540796,"current_range_meters":34800,"station_id":"ce4bhqp2rcd13ifvqhng","pricing_plan_id":"cebpf4jnsgd1na2vs0mg"},{"bike_id":"9801f54a-433d-4d93-84b8-0159e49a9906","system_id":"levelo_inurba_marseille","lat":43.28154,"lon":5.42644,"is_reserved":false,"is_disabled":false,"rental_uris":{"android":"levelo://app?vid=9801f54a-433d-4d93-84b8-0159e49a9906","ios":"levelo://app?vid=9801f54a-433d-4d93-84b8-0159e49a9906"},"vehicle_type_id":"4","last_reported":1728540796,"current_range_meters":37600,"station_id":"ce4bhnh2rcd13ifvqgug","pricing_plan_id":"cebpf4jnsgd1na2vs0mg"},{"bike_id":"d7b8abd4-9a33-4811-9456-42bf85af954b","system_id":"levelo_inurba_marseille","lat":43.29637,"lon":5.40608,"is_reserved":false,"is_disabled":false,"rental_uris":{"android":"levelo://app?vid=d7b8abd4-9a33-4811-9456-42bf85af954b","ios":"levelo://app?vid=d7b8abd4-9a33-4811-9456-42bf85af954b"},"vehicle_type_id":"4","last_reported":1728540796,"current_range_meters":16000,"station_id":"ce4bh0h2rcd13ifvqd60","pricing_plan_id":"cebpf4jnsgd1na2vs0mg"},{"bike_id":"100b902e-7cae-4750-a6e3-3c4472c7c49e","system_id":"levelo_inurba_marseille","lat":43.29894,"lon":5.38901,"is_reserved":false,"is_disabled":false,"rental_uris":{"android":"levelo://app?vid=100b902e-7cae-4750-a6e3-3c4472c7c49e","ios":"levelo://app?vid=100b902e-7cae-4750-a6e3-3c4472c7c49e"},"vehicle_type_id":"4","last_reported":1728540796,"current_range_meters":37600,"station_id":"ce4bh392rcd13ifvqdl0","pricing_plan_id":"cebpf4jnsgd1na2vs0mg"},{"bike_id":"dfab4b68-cc09-488f-8b3f-780a350ce72f","system_id":"levelo_inurba_marseille","lat":43.24651,"lon":5.38899,"is_reserved":false,"is_disabled":false,"rental_uris":{"android":"levelo://app?vid=dfab4b68-cc09-488f-8b3f-780a350ce72f","ios":"levelo://app?vid=dfab4b68-cc09-488f-8b3f-780a350ce72f"},"vehicle_type_id":"4","last_reported":1728540796,"current_range_meters":38800,"station_id":"ce4bhg12rcd13ifvqf60","pricing_plan_id":"cebpf4jnsgd1na2vs0mg"},{"bike_id":"55ffd6b0-efc9-4d56-8190-9744898fe3be","system_id":"levelo_inurba_marseille","lat":43.31361,"lon":5.384921,"is_reserved":false,"is_disabled":false,"rental_uris":{"android":"levelo://app?vid=55ffd6b0-efc9-4d56-8190-9744898fe3be","ios":"levelo://app?vid=55ffd6b0-efc9-4d56-8190-9744898fe3be"},"vehicle_type_id":"4","last_reported":1728540796,"current_range_meters":7200,"station_id":"ce4bgt92rcd13ifvqcf0","pricing_plan_id":"cebpf4jnsgd1na2vs0mg"},{"bike_id":"0383e821-f7aa-4bba-a5f5-642d7a1d6b38","system_id":"levelo_inurba_marseille","lat":43.27494,"lon":5.42458,"is_reserved":false,"is_disabled":false,"rental_uris":{"android":"levelo://app?vid=0383e821-f7aa-4bba-a5f5-642d7a1d6b38","ios":"levelo://app?vid=0383e821-f7aa-4bba-a5f5-642d7a1d6b38"},"vehicle_type_id":"4","last_reported":1728540796,"current_range_meters":38400,"station_id":"ce4bhn92rcd13ifvqgrg","pricing_plan_id":"cebpf4jnsgd1na2vs0mg"},{"bike_id":"bc65a028-d620-4d80-8664-b44cfbd027d0","system_id":"levelo_inurba_marseille","lat":43.28471,"lon":5.35895,"is_reserved":false,"is_disabled":false,"rental_uris":{"android":"levelo://app?vid=bc65a028-d620-4d80-8664-b44cfbd027d0","ios":"levelo://app?vid=bc65a028-d620-4d80-8664-b44cfbd027d0"},"vehicle_type_id":"4","last_reported":1728540796,"current_range_meters":38800,"station_id":"ce4bhah2rcd13ifvqei0","pricing_plan_id":"cebpf4jnsgd1na2vs0mg"},{"bike_id":"e872fc30-3c57-4a83-b46e-c9748d4c279a","system_id":"levelo_inurba_marseille","lat":43.33727,"lon":5.39188,"is_reserved":false,"is_disabled":false,"rental_uris":{"android":"levelo://app?vid=e872fc30-3c57-4a83-b46e-c9748d4c279a","ios":"levelo://app?vid=e872fc30-3c57-4a83-b46e-c9748d4c279a"},"vehicle_type_id":"4","last_reported":1728540796,"current_range_meters":27600,"station_id":"ce4bhr92rcd13ifvqhsg","pricing_plan_id":"cebpf4jnsgd1na2vs0mg"},{"bike_id":"af28d066-a466-4ed7-bf62-08efa15ec1ce","system_id":"levelo_inurba_marseille","lat":43.24183,"lon":5.3972,"is_reserved":false,"is_disabled":false,"rental_uris":{"android":"levelo://app?vid=af28d066-a466-4ed7-bf62-08efa15ec1ce","ios":"levelo://app?vid=af28d066-a466-4ed7-bf62-08efa15ec1ce"},"vehicle_type_id":"4","last_reported":1728540796,"current_range_meters":37600,"station_id":"ce4bhn12rcd13ifvqgpg","pricing_plan_id":"cebpf4jnsgd1na2vs0mg"},{"bike_id":"3fed2ea5-deb4-423b-873d-c853010cf09a","system_id":"levelo_inurba_marseille","lat":43.27071,"lon":5.42283,"is_reserved":false,"is_disabled":false,"rental_uris":{"android":"levelo://app?vid=3fed2ea5-deb4-423b-873d-c853010cf09a","ios":"levelo://app?vid=3fed2ea5-deb4-423b-873d-c853010cf09a"},"vehicle_type_id":"4","last_reported":1728540796,"current_range_meters":24800,"station_id":"ce4bhk92rcd13ifvqgb0","pricing_plan_id":"cebpf4jnsgd1na2vs0mg"},{"bike_id":"57409636-8be5-4a2d-b3a3-9427df081b80","system_id":"levelo_inurba_marseille","lat":43.30466,"lon":5.379,"is_reserved":false,"is_disabled":false,"rental_uris":{"android":"levelo://app?vid=57409636-8be5-4a2d-b3a3-9427df081b80","ios":"levelo://app?vid=57409636-8be5-4a2d-b3a3-9427df081b80"},"vehicle_type_id":"4","last_reported":1728540796,"current_range_meters":38800,"station_id":"ce4bgup2rcd13ifvqcn0","pricing_plan_id":"cebpf4jnsgd1na2vs0mg"},{"bike_id":"7c830a7a-88a3-47c3-beae-d7986b2e3594","system_id":"levelo_inurba_marseille","lat":43.337576,"lon":5.374671,"is_reserved":false,"is_disabled":false,"rental_uris":{"android":"levelo://app?vid=7c830a7a-88a3-47c3-beae-d7986b2e3594","ios":"levelo://app?vid=7c830a7a-88a3-47c3-beae-d7986b2e3594"},"vehicle_type_id":"4","last_reported":1728540796,"current_range_meters":10000,"station_id":"ce4rr2p2rcd13i802rgg","pricing_plan_id":"cebpf4jnsgd1na2vs0mg"},{"bike_id":"1724a986-206e-44c4-acc6-99c3f365633c","system_id":"levelo_inurba_marseille","lat":43.23191,"lon":5.3555,"is_reserved":false,"is_disabled":false,"rental_uris":{"android":"levelo://app?vid=1724a986-206e-44c4-acc6-99c3f365633c","ios":"levelo://app?vid=1724a986-206e-44c4-acc6-99c3f365633c"},"vehicle_type_id":"4","last_reported":1728540796,"current_range_meters":20000,"station_id":"ce4bhu92rcd13ifvqi70","pricing_plan_id":"cebpf4jnsgd1na2vs0mg"},{"bike_id":"df844ab7-c88c-4f82-ad62-70286f8257be","system_id":"levelo_inurba_marseille","lat":43.28363,"lon":5.38107,"is_reserved":false,"is_disabled":false,"rental_uris":{"android":"levelo://app?vid=df844ab7-c88c-4f82-ad62-70286f8257be","ios":"levelo://app?vid=df844ab7-c88c-4f82-ad62-70286f8257be"},"vehicle_type_id":"4","last_reported":1728540796,"current_range_meters":25600,"station_id":"ce4bh412rcd13ifvqdr0","pricing_plan_id":"cebpf4jnsgd1na2vs0mg"},{"bike_id":"c9f14e7e-cd41-4306-8cc0-0536ea78d422","system_id":"levelo_inurba_marseille","lat":43.337444,"lon":5.374475,"is_reserved":false,"is_disabled":false,"rental_uris":{"android":"levelo://app?vid=c9f14e7e-cd41-4306-8cc0-0536ea78d422","ios":"levelo://app?vid=c9f14e7e-cd41-4306-8cc0-0536ea78d422"},"vehicle_type_id":"4","last_reported":1728540796,"current_range_meters":35200,"station_id":"ce4rr2p2rcd13i802rgg","pricing_plan_id":"cebpf4jnsgd1na2vs0mg"},{"bike_id":"9fb561af-1165-43b4-ba74-81f5923c4f1c","system_id":"levelo_inurba_marseille","lat":43.33611,"lon":5.41029,"is_reserved":false,"is_disabled":false,"rental_uris":{"android":"levelo://app?vid=9fb561af-1165-43b4-ba74-81f5923c4f1c","ios":"levelo://app?vid=9fb561af-1165-43b4-ba74-81f5923c4f1c"},"vehicle_type_id":"4","last_reported":1728540796,"current_range_meters":33600,"station_id":"ce4bhqh2rcd13ifvqhmg","pricing_plan_id":"cebpf4jnsgd1na2vs0mg"},{"bike_id":"66407e65-82eb-4df8-bd3e-b7da8b6e915a","system_id":"levelo_inurba_marseille","lat":43.283487,"lon":5.381035,"is_reserved":false,"is_disabled":false,"rental_uris":{"android":"levelo://app?vid=66407e65-82eb-4df8-bd3e-b7da8b6e915a","ios":"levelo://app?vid=66407e65-82eb-4df8-bd3e-b7da8b6e915a"},"vehicle_type_id":"4","last_reported":1728540796,"current_range_meters":30800,"station_id":"ce4bh412rcd13ifvqdr0","pricing_plan_id":"cebpf4jnsgd1na2vs0mg"},{"bike_id":"2901e185-86be-4533-8c67-bc9c3fe67c09","system_id":"levelo_inurba_marseille","lat":43.3254,"lon":5.41432,"is_reserved":false,"is_disabled":false,"rental_uris":{"android":"levelo://app?vid=2901e185-86be-4533-8c67-bc9c3fe67c09","ios":"levelo://app?vid=2901e185-86be-4533-8c67-bc9c3fe67c09"},"vehicle_type_id":"4","last_reported":1728540796,"current_range_meters":38800,"station_id":"ce4bhq12rcd13ifvqhhg","pricing_plan_id":"cebpf4jnsgd1na2vs0mg"},{"bike_id":"19094843-dc6a-46ed-8afe-365ba070e376","system_id":"levelo_inurba_marseille","lat":43.25082,"lon":5.39516,"is_reserved":false,"is_disabled":false,"rental_uris":{"android":"levelo://app?vid=19094843-dc6a-46ed-8afe-365ba070e376","ios":"levelo://app?vid=19094843-dc6a-46ed-8afe-365ba070e376"},"vehicle_type_id":"4","last_reported":1728540796,"current_range_meters":38800,"station_id":"ce4bhm12rcd13ifvqgkg","pricing_plan_id":"cebpf4jnsgd1na2vs0mg"},{"bike_id":"48eb448e-b6fb-4512-990e-d0fcb0a36119","system_id":"levelo_inurba_marseille","lat":43.28953,"lon":5.3971,"is_reserved":false,"is_disabled":false,"rental_uris":{"android":"levelo://app?vid=48eb448e-b6fb-4512-990e-d0fcb0a36119","ios":"levelo://app?vid=48eb448e-b6fb-4512-990e-d0fcb0a36119"},"vehicle_type_id":"4","last_reported":1728540796,"current_range_meters":9200,"station_id":"ce4bhg12rcd13ifvqf80","pricing_plan_id":"cebpf4jnsgd1na2vs0mg"},{"bike_id":"e867caaa-47ce-41d0-a181-5ca72ea6ae9b","system_id":"levelo_inurba_marseille","lat":43.309537,"lon":5.379943,"is_reserved":false,"is_disabled":false,"rental_uris":{"android":"levelo://app?vid=e867caaa-47ce-41d0-a181-5ca72ea6ae9b","ios":"levelo://app?vid=e867caaa-47ce-41d0-a181-5ca72ea6ae9b"},"vehicle_type_id":"4","last_reported":1728540796,"current_range_meters":13600,"station_id":"ce4bgg92rcd13ifvqb30","pricing_plan_id":"cebpf4jnsgd1na2vs0mg"},{"bike_id":"a283cbf4-3a4c-46de-ac3d-4d7c731b36e3","system_id":"levelo_inurba_marseille","lat":43.33607,"lon":5.41031,"is_reserved":false,"is_disabled":false,"rental_uris":{"android":"levelo://app?vid=a283cbf4-3a4c-46de-ac3d-4d7c731b36e3","ios":"levelo://app?vid=a283cbf4-3a4c-46de-ac3d-4d7c731b36e3"},"vehicle_type_id":"4","last_reported":1728540796,"current_range_meters":22800,"station_id":"ce4bhqh2rcd13ifvqhmg","pricing_plan_id":"cebpf4jnsgd1na2vs0mg"},{"bike_id":"47599fab-79da-461f-89fd-43d1d10b8a6d","system_id":"levelo_inurba_marseille","lat":43.23156,"lon":5.4371,"is_reserved":false,"is_disabled":false,"rental_uris":{"android":"levelo://app?vid=47599fab-79da-461f-89fd-43d1d10b8a6d","ios":"levelo://app?vid=47599fab-79da-461f-89fd-43d1d10b8a6d"},"vehicle_type_id":"4","last_reported":1728540796,"current_range_meters":38800,"station_id":"ce4bhmp2rcd13ifvqgog","pricing_plan_id":"cebpf4jnsgd1na2vs0mg"},{"bike_id":"c2709d8c-182c-4c66-9678-32143d413767","system_id":"levelo_inurba_marseille","lat":43.22936,"lon":5.35378,"is_reserved":false,"is_disabled":false,"rental_uris":{"android":"levelo://app?vid=c2709d8c-182c-4c66-9678-32143d413767","ios":"levelo://app?vid=c2709d8c-182c-4c66-9678-32143d413767"},"vehicle_type_id":"4","last_reported":1728540796,"current_range_meters":37600,"station_id":"cpo3532slgdg3j2ikp40","pricing_plan_id":"cebpf4jnsgd1na2vs0mg"},{"bike_id":"f8200944-5b41-4f63-b091-0ca496f6d926","system_id":"levelo_inurba_marseille","lat":43.29608,"lon":5.37715,"is_reserved":false,"is_disabled":false,"rental_uris":{"android":"levelo://app?vid=f8200944-5b41-4f63-b091-0ca496f6d926","ios":"levelo://app?vid=f8200944-5b41-4f63-b091-0ca496f6d926"},"vehicle_type_id":"4","last_reported":1728540796,"current_range_meters":30800,"station_id":"ce4bgi92rcd13ifvqb90","pricing_plan_id":"cebpf4jnsgd1na2vs0mg"},{"bike_id":"5817fef0-15a1-468d-986a-38ad6dde31f1","system_id":"levelo_inurba_marseille","lat":43.3254,"lon":5.41429,"is_reserved":false,"is_disabled":false,"rental_uris":{"android":"levelo://app?vid=5817fef0-15a1-468d-986a-38ad6dde31f1","ios":"levelo://app?vid=5817fef0-15a1-468d-986a-38ad6dde31f1"},"vehicle_type_id":"4","last_reported":1728540796,"current_range_meters":2800,"station_id":"ce4bhq12rcd13ifvqhhg","pricing_plan_id":"cebpf4jnsgd1na2vs0mg"},{"bike_id":"1dcaef22-2c4c-46cd-a47b-712f6c26cc51","system_id":"levelo_inurba_marseille","lat":43.2749,"lon":5.42456,"is_reserved":false,"is_disabled":false,"rental_uris":{"android":"levelo://app?vid=1dcaef22-2c4c-46cd-a47b-712f6c26cc51","ios":"levelo://app?vid=1dcaef22-2c4c-46cd-a47b-712f6c26cc51"},"vehicle_type_id":"4","last_reported":1728540796,"current_range_meters":38000,"station_id":"ce4bhn92rcd13ifvqgrg","pricing_plan_id":"cebpf4jnsgd1na2vs0mg"},{"bike_id":"80bbef6d-6277-4344-8af7-875ac4a945bd","system_id":"levelo_inurba_marseille","lat":43.25579,"lon":5.38226,"is_reserved":false,"is_disabled":false,"rental_uris":{"android":"levelo://app?vid=80bbef6d-6277-4344-8af7-875ac4a945bd","ios":"levelo://app?vid=80bbef6d-6277-4344-8af7-875ac4a945bd"},"vehicle_type_id":"4","last_reported":1728540796,"current_range_meters":32800,"station_id":"ce4bhih2rcd13ifvqfs0","pricing_plan_id":"cebpf4jnsgd1na2vs0mg"},{"bike_id":"c86f6620-b7b6-409f-aa96-cceffc7a9be7","system_id":"levelo_inurba_marseille","lat":43.27495,"lon":5.42442,"is_reserved":false,"is_disabled":false,"rental_uris":{"android":"levelo://app?vid=c86f6620-b7b6-409f-aa96-cceffc7a9be7","ios":"levelo://app?vid=c86f6620-b7b6-409f-aa96-cceffc7a9be7"},"vehicle_type_id":"4","last_reported":1728540796,"current_range_meters":22400,"station_id":"ce4bhn92rcd13ifvqgrg","pricing_plan_id":"cebpf4jnsgd1na2vs0mg"},{"bike_id":"19a2cb84-cf46-4abb-a6f3-027ac0c52cb4","system_id":"levelo_inurba_marseille","lat":43.24073,"lon":5.37757,"is_reserved":false,"is_disabled":false,"rental_uris":{"android":"levelo://app?vid=19a2cb84-cf46-4abb-a6f3-027ac0c52cb4","ios":"levelo://app?vid=19a2cb84-cf46-4abb-a6f3-027ac0c52cb4"},"vehicle_type_id":"4","last_reported":1728540796,"current_range_meters":37600,"station_id":"ce4bhnp2rcd13ifvqgvg","pricing_plan_id":"cebpf4jnsgd1na2vs0mg"},{"bike_id":"af059450-81b1-4513-8105-427d08378aaf","system_id":"levelo_inurba_marseille","lat":43.2408,"lon":5.37759,"is_reserved":false,"is_disabled":false,"rental_uris":{"android":"levelo://app?vid=af059450-81b1-4513-8105-427d08378aaf","ios":"levelo://app?vid=af059450-81b1-4513-8105-427d08378aaf"},"vehicle_type_id":"4","last_reported":1728540796,"current_range_meters":28800,"station_id":"ce4bhnp2rcd13ifvqgvg","pricing_plan_id":"cebpf4jnsgd1na2vs0mg"},{"bike_id":"a555d13d-478e-4cd8-84e4-63f998af861f","system_id":"levelo_inurba_marseille","lat":43.286721,"lon":5.363474,"is_reserved":false,"is_disabled":false,"rental_uris":{"android":"levelo://app?vid=a555d13d-478e-4cd8-84e4-63f998af861f","ios":"levelo://app?vid=a555d13d-478e-4cd8-84e4-63f998af861f"},"vehicle_type_id":"4","last_reported":1728540796,"current_range_meters":38800,"station_id":"ce4bhah2rcd13ifvqej0","pricing_plan_id":"cebpf4jnsgd1na2vs0mg"},{"bike_id":"54e8a3c6-aa06-416b-9d73-ea31fa0ff0f0","system_id":"levelo_inurba_marseille","lat":43.26934,"lon":5.38922,"is_reserved":false,"is_disabled":false,"rental_uris":{"android":"levelo://app?vid=54e8a3c6-aa06-416b-9d73-ea31fa0ff0f0","ios":"levelo://app?vid=54e8a3c6-aa06-416b-9d73-ea31fa0ff0f0"},"vehicle_type_id":"4","last_reported":1728540796,"current_range_meters":24000,"station_id":"ce4bhhh2rcd13ifvqfl0","pricing_plan_id":"cebpf4jnsgd1na2vs0mg"},{"bike_id":"9d66ea66-aee5-4d81-b0fb-4e4111d9317a","system_id":"levelo_inurba_marseille","lat":43.282074,"lon":5.386328,"is_reserved":false,"is_disabled":false,"rental_uris":{"android":"levelo://app?vid=9d66ea66-aee5-4d81-b0fb-4e4111d9317a","ios":"levelo://app?vid=9d66ea66-aee5-4d81-b0fb-4e4111d9317a"},"vehicle_type_id":"4","last_reported":1728540796,"current_range_meters":9600,"station_id":"ce4bh5p2rcd13ifvqe4g","pricing_plan_id":"cebpf4jnsgd1na2vs0mg"},{"bike_id":"007cfdb1-6075-41cd-99c6-15899c91c4e3","system_id":"levelo_inurba_marseille","lat":43.32105,"lon":5.36784,"is_reserved":false,"is_disabled":false,"rental_uris":{"android":"levelo://app?vid=007cfdb1-6075-41cd-99c6-15899c91c4e3","ios":"levelo://app?vid=007cfdb1-6075-41cd-99c6-15899c91c4e3"},"vehicle_type_id":"4","last_reported":1728540796,"current_range_meters":37600,"station_id":"ce4bhrh2rcd13ifvqhug","pricing_plan_id":"cebpf4jnsgd1na2vs0mg"},{"bike_id":"f4d16d74-9f5d-4324-bee1-48b07e6d7978","system_id":"levelo_inurba_marseille","lat":43.32657,"lon":5.40997,"is_reserved":false,"is_disabled":false,"rental_uris":{"android":"levelo://app?vid=f4d16d74-9f5d-4324-bee1-48b07e6d7978","ios":"levelo://app?vid=f4d16d74-9f5d-4324-bee1-48b07e6d7978"},"vehicle_type_id":"4","last_reported":1728540796,"current_range_meters":28400,"station_id":"ce4bhpp2rcd13ifvqhgg","pricing_plan_id":"cebpf4jnsgd1na2vs0mg"},{"bike_id":"2dff9241-e894-4a69-a505-eb9b79750a16","system_id":"levelo_inurba_marseille","lat":43.28937,"lon":5.39635,"is_reserved":false,"is_disabled":false,"rental_uris":{"android":"levelo://app?vid=2dff9241-e894-4a69-a505-eb9b79750a16","ios":"levelo://app?vid=2dff9241-e894-4a69-a505-eb9b79750a16"},"vehicle_type_id":"4","last_reported":1728540796,"current_range_meters":37600,"station_id":"ce4bh3h2rcd13ifvqdn0","pricing_plan_id":"cebpf4jnsgd1na2vs0mg"},{"bike_id":"2d699359-1fda-4436-8dd2-afca7db1336c","system_id":"levelo_inurba_marseille","lat":43.3061,"lon":5.39363,"is_reserved":false,"is_disabled":false,"rental_uris":{"android":"levelo://app?vid=2d699359-1fda-4436-8dd2-afca7db1336c","ios":"levelo://app?vid=2d699359-1fda-4436-8dd2-afca7db1336c"},"vehicle_type_id":"4","last_reported":1728540796,"current_range_meters":37600,"station_id":"ce4bh0p2rcd13ifvqd80","pricing_plan_id":"cebpf4jnsgd1na2vs0mg"},{"bike_id":"f92a9fb8-9f73-4cf9-bc9b-2bdf5b520248","system_id":"levelo_inurba_marseille","lat":43.325472,"lon":5.414434,"is_reserved":false,"is_disabled":false,"rental_uris":{"android":"levelo://app?vid=f92a9fb8-9f73-4cf9-bc9b-2bdf5b520248","ios":"levelo://app?vid=f92a9fb8-9f73-4cf9-bc9b-2bdf5b520248"},"vehicle_type_id":"4","last_reported":1728540796,"current_range_meters":38800,"station_id":"ce4bhq12rcd13ifvqhhg","pricing_plan_id":"cebpf4jnsgd1na2vs0mg"},{"bike_id":"836a7059-07f6-4520-95ac-789f43649a18","system_id":"levelo_inurba_marseille","lat":43.33608,"lon":5.41034,"is_reserved":false,"is_disabled":false,"rental_uris":{"android":"levelo://app?vid=836a7059-07f6-4520-95ac-789f43649a18","ios":"levelo://app?vid=836a7059-07f6-4520-95ac-789f43649a18"},"vehicle_type_id":"4","last_reported":1728540796,"current_range_meters":2800,"station_id":"ce4bhqh2rcd13ifvqhmg","pricing_plan_id":"cebpf4jnsgd1na2vs0mg"},{"bike_id":"cc0620a8-51ac-4f4c-98d5-e28e124686e9","system_id":"levelo_inurba_marseille","lat":43.24081,"lon":5.37755,"is_reserved":false,"is_disabled":false,"rental_uris":{"android":"levelo://app?vid=cc0620a8-51ac-4f4c-98d5-e28e124686e9","ios":"levelo://app?vid=cc0620a8-51ac-4f4c-98d5-e28e124686e9"},"vehicle_type_id":"4","last_reported":1728540796,"current_range_meters":24800,"station_id":"ce4bhnp2rcd13ifvqgvg","pricing_plan_id":"cebpf4jnsgd1na2vs0mg"},{"bike_id":"d2a1c955-ade1-43ae-9d9a-c903fb854bd9","system_id":"levelo_inurba_marseille","lat":43.27946,"lon":5.41045,"is_reserved":false,"is_disabled":false,"rental_uris":{"android":"levelo://app?vid=d2a1c955-ade1-43ae-9d9a-c903fb854bd9","ios":"levelo://app?vid=d2a1c955-ade1-43ae-9d9a-c903fb854bd9"},"vehicle_type_id":"4","last_reported":1728540796,"current_range_meters":3600,"station_id":"ce4bhnp2rcd13ifvqh0g","pricing_plan_id":"cebpf4jnsgd1na2vs0mg"},{"bike_id":"6e0ea931-7501-46bc-9508-6eccb758348e","system_id":"levelo_inurba_marseille","lat":43.24072,"lon":5.37762,"is_reserved":false,"is_disabled":false,"rental_uris":{"android":"levelo://app?vid=6e0ea931-7501-46bc-9508-6eccb758348e","ios":"levelo://app?vid=6e0ea931-7501-46bc-9508-6eccb758348e"},"vehicle_type_id":"4","last_reported":1728540796,"current_range_meters":38000,"station_id":"ce4bhnp2rcd13ifvqgvg","pricing_plan_id":"cebpf4jnsgd1na2vs0mg"},{"bike_id":"1041b9a4-24b6-4e96-8c12-5b22e14ad25e","system_id":"levelo_inurba_marseille","lat":43.29027,"lon":5.37569,"is_reserved":false,"is_disabled":false,"rental_uris":{"android":"levelo://app?vid=1041b9a4-24b6-4e96-8c12-5b22e14ad25e","ios":"levelo://app?vid=1041b9a4-24b6-4e96-8c12-5b22e14ad25e"},"vehicle_type_id":"4","last_reported":1728540796,"current_range_meters":30400,"station_id":"ce4bh692rcd13ifvqe90","pricing_plan_id":"cebpf4jnsgd1na2vs0mg"},{"bike_id":"10917b18-70a1-432f-94f8-ecc65431ae3b","system_id":"levelo_inurba_marseille","lat":43.27056,"lon":5.40265,"is_reserved":false,"is_disabled":false,"rental_uris":{"android":"levelo://app?vid=10917b18-70a1-432f-94f8-ecc65431ae3b","ios":"levelo://app?vid=10917b18-70a1-432f-94f8-ecc65431ae3b"},"vehicle_type_id":"4","last_reported":1728540796,"current_range_meters":20000,"station_id":"ce4bhk92rcd13ifvqgc0","pricing_plan_id":"cebpf4jnsgd1na2vs0mg"},{"bike_id":"7c24fe02-f2b8-4e4c-9d99-9b350762dca2","system_id":"levelo_inurba_marseille","lat":43.24077,"lon":5.37753,"is_reserved":false,"is_disabled":false,"rental_uris":{"android":"levelo://app?vid=7c24fe02-f2b8-4e4c-9d99-9b350762dca2","ios":"levelo://app?vid=7c24fe02-f2b8-4e4c-9d99-9b350762dca2"},"vehicle_type_id":"4","last_reported":1728540796,"current_range_meters":24800,"station_id":"ce4bhnp2rcd13ifvqgvg","pricing_plan_id":"cebpf4jnsgd1na2vs0mg"},{"bike_id":"50aa4af7-94b4-48c9-959d-eeec3eaec001","system_id":"levelo_inurba_marseille","lat":43.23196,"lon":5.35545,"is_reserved":false,"is_disabled":false,"rental_uris":{"android":"levelo://app?vid=50aa4af7-94b4-48c9-959d-eeec3eaec001","ios":"levelo://app?vid=50aa4af7-94b4-48c9-959d-eeec3eaec001"},"vehicle_type_id":"4","last_reported":1728540796,"current_range_meters":8400,"station_id":"ce4bhu92rcd13ifvqi70","pricing_plan_id":"cebpf4jnsgd1na2vs0mg"},{"bike_id":"2fc520c6-ec15-4e61-8b1b-87c16b01b31c","system_id":"levelo_inurba_marseille","lat":43.25088,"lon":5.39509,"is_reserved":false,"is_disabled":false,"rental_uris":{"android":"levelo://app?vid=2fc520c6-ec15-4e61-8b1b-87c16b01b31c","ios":"levelo://app?vid=2fc520c6-ec15-4e61-8b1b-87c16b01b31c"},"vehicle_type_id":"4","last_reported":1728540796,"current_range_meters":18800,"station_id":"ce4bhm12rcd13ifvqgkg","pricing_plan_id":"cebpf4jnsgd1na2vs0mg"},{"bike_id":"8d81993c-3cb0-4181-a034-be0139704d79","system_id":"levelo_inurba_marseille","lat":43.2894,"lon":5.36629,"is_reserved":false,"is_disabled":false,"rental_uris":{"android":"levelo://app?vid=8d81993c-3cb0-4181-a034-be0139704d79","ios":"levelo://app?vid=8d81993c-3cb0-4181-a034-be0139704d79"},"vehicle_type_id":"4","last_reported":1728540796,"current_range_meters":38000,"station_id":"ce4bhap2rcd13ifvqek0","pricing_plan_id":"cebpf4jnsgd1na2vs0mg"},{"bike_id":"ca356b29-ff94-4441-a9e1-4395d5b28767","system_id":"levelo_inurba_marseille","lat":43.2669,"lon":5.38283,"is_reserved":false,"is_disabled":false,"rental_uris":{"android":"levelo://app?vid=ca356b29-ff94-4441-a9e1-4395d5b28767","ios":"levelo://app?vid=ca356b29-ff94-4441-a9e1-4395d5b28767"},"vehicle_type_id":"4","last_reported":1728540796,"current_range_meters":28400,"station_id":"ce4bhg92rcd13ifvqf90","pricing_plan_id":"cebpf4jnsgd1na2vs0mg"},{"bike_id":"7c391a4a-0f07-4127-9193-ebd114642d44","system_id":"levelo_inurba_marseille","lat":43.23961,"lon":5.3663,"is_reserved":false,"is_disabled":false,"rental_uris":{"android":"levelo://app?vid=7c391a4a-0f07-4127-9193-ebd114642d44","ios":"levelo://app?vid=7c391a4a-0f07-4127-9193-ebd114642d44"},"vehicle_type_id":"4","last_reported":1728540796,"current_range_meters":3600,"station_id":"ce4bhi12rcd13ifvqfp0","pricing_plan_id":"cebpf4jnsgd1na2vs0mg"},{"bike_id":"9538e3e5-58ef-45b6-a364-02e6e8e5b5df","system_id":"levelo_inurba_marseille","lat":43.24075,"lon":5.37758,"is_reserved":false,"is_disabled":false,"rental_uris":{"android":"levelo://app?vid=9538e3e5-58ef-45b6-a364-02e6e8e5b5df","ios":"levelo://app?vid=9538e3e5-58ef-45b6-a364-02e6e8e5b5df"},"vehicle_type_id":"4","last_reported":1728540796,"current_range_meters":35200,"station_id":"ce4bhnp2rcd13ifvqgvg","pricing_plan_id":"cebpf4jnsgd1na2vs0mg"},{"bike_id":"7e4cee4c-145e-4242-a1e1-0a33e4d1e07c","system_id":"levelo_inurba_marseille","lat":43.29026,"lon":5.39978,"is_reserved":false,"is_disabled":false,"rental_uris":{"android":"levelo://app?vid=7e4cee4c-145e-4242-a1e1-0a33e4d1e07c","ios":"levelo://app?vid=7e4cee4c-145e-4242-a1e1-0a33e4d1e07c"},"vehicle_type_id":"4","last_reported":1728540796,"current_range_meters":36800,"station_id":"ce4bh392rcd13ifvqdm0","pricing_plan_id":"cebpf4jnsgd1na2vs0mg"},{"bike_id":"09f79f1c-6319-482d-b2f6-19e2bc15c740","system_id":"levelo_inurba_marseille","lat":43.28083,"lon":5.40504,"is_reserved":false,"is_disabled":false,"rental_uris":{"android":"levelo://app?vid=09f79f1c-6319-482d-b2f6-19e2bc15c740","ios":"levelo://app?vid=09f79f1c-6319-482d-b2f6-19e2bc15c740"},"vehicle_type_id":"4","last_reported":1728540796,"current_range_meters":4800,"station_id":"","pricing_plan_id":"cebpf4jnsgd1na2vs0mg"},{"bike_id":"0dd8b709-aa00-43b3-b3c2-57354fabd0ef","system_id":"levelo_inurba_marseille","lat":43.306,"lon":5.37639,"is_reserved":false,"is_disabled":false,"rental_uris":{"android":"levelo://app?vid=0dd8b709-aa00-43b3-b3c2-57354fabd0ef","ios":"levelo://app?vid=0dd8b709-aa00-43b3-b3c2-57354fabd0ef"},"vehicle_type_id":"4","last_reported":1728540796,"current_range_meters":34800,"station_id":"","pricing_plan_id":"cebpf4jnsgd1na2vs0mg"},{"bike_id":"681983d2-d7b4-433f-ba3d-f27101ded291","system_id":"levelo_inurba_marseille","lat":43.28369,"lon":5.38646,"is_reserved":false,"is_disabled":false,"rental_uris":{"android":"levelo://app?vid=681983d2-d7b4-433f-ba3d-f27101ded291","ios":"levelo://app?vid=681983d2-d7b4-433f-ba3d-f27101ded291"},"vehicle_type_id":"4","last_reported":1728540796,"current_range_meters":16000,"station_id":"ce4bh492rcd13ifvqdvg","pricing_plan_id":"cebpf4jnsgd1na2vs0mg"},{"bike_id":"36b9e64a-ec83-475a-aaf3-72ab98e97806","system_id":"levelo_inurba_marseille","lat":43.2898,"lon":5.37843,"is_reserved":false,"is_disabled":false,"rental_uris":{"android":"levelo://app?vid=36b9e64a-ec83-475a-aaf3-72ab98e97806","ios":"levelo://app?vid=36b9e64a-ec83-475a-aaf3-72ab98e97806"},"vehicle_type_id":"4","last_reported":1728540796,"current_range_meters":37600,"station_id":"ce4bh9p2rcd13ifvqed0","pricing_plan_id":"cebpf4jnsgd1na2vs0mg"},{"bike_id":"9095492c-2915-4dda-ad94-98fe934a7474","system_id":"levelo_inurba_marseille","lat":43.31759,"lon":5.39013,"is_reserved":false,"is_disabled":false,"rental_uris":{"android":"levelo://app?vid=9095492c-2915-4dda-ad94-98fe934a7474","ios":"levelo://app?vid=9095492c-2915-4dda-ad94-98fe934a7474"},"vehicle_type_id":"4","last_reported":1728540796,"current_range_meters":9200,"station_id":"ce4bhqp2rcd13ifvqhng","pricing_plan_id":"cebpf4jnsgd1na2vs0mg"},{"bike_id":"c9249d66-b59f-4600-854f-e65a10f03367","system_id":"levelo_inurba_marseille","lat":43.27179,"lon":5.40994,"is_reserved":false,"is_disabled":false,"rental_uris":{"android":"levelo://app?vid=c9249d66-b59f-4600-854f-e65a10f03367","ios":"levelo://app?vid=c9249d66-b59f-4600-854f-e65a10f03367"},"vehicle_type_id":"4","last_reported":1728540796,"current_range_meters":30400,"station_id":"ce4bhl12rcd13ifvqgf0","pricing_plan_id":"cebpf4jnsgd1na2vs0mg"},{"bike_id":"a20de2ff-1942-443f-9e71-a3fcbc3c3851","system_id":"levelo_inurba_marseille","lat":43.29783,"lon":5.39338,"is_reserved":false,"is_disabled":false,"rental_uris":{"android":"levelo://app?vid=a20de2ff-1942-443f-9e71-a3fcbc3c3851","ios":"levelo://app?vid=a20de2ff-1942-443f-9e71-a3fcbc3c3851"},"vehicle_type_id":"4","last_reported":1728540796,"current_range_meters":31200,"station_id":"chh1huq6cuj3fo74tm60","pricing_plan_id":"cebpf4jnsgd1na2vs0mg"},{"bike_id":"59b80e1c-ee01-4d86-911c-c2215c6be7a9","system_id":"levelo_inurba_marseille","lat":43.3254,"lon":5.41426,"is_reserved":false,"is_disabled":false,"rental_uris":{"android":"levelo://app?vid=59b80e1c-ee01-4d86-911c-c2215c6be7a9","ios":"levelo://app?vid=59b80e1c-ee01-4d86-911c-c2215c6be7a9"},"vehicle_type_id":"4","last_reported":1728540796,"current_range_meters":6800,"station_id":"ce4bhq12rcd13ifvqhhg","pricing_plan_id":"cebpf4jnsgd1na2vs0mg"},{"bike_id":"0b1140d6-a172-4a8a-803f-15d303370b5c","system_id":"levelo_inurba_marseille","lat":43.28158,"lon":5.42641,"is_reserved":false,"is_disabled":false,"rental_uris":{"android":"levelo://app?vid=0b1140d6-a172-4a8a-803f-15d303370b5c","ios":"levelo://app?vid=0b1140d6-a172-4a8a-803f-15d303370b5c"},"vehicle_type_id":"4","last_reported":1728540796,"current_range_meters":21600,"station_id":"ce4bhnh2rcd13ifvqgug","pricing_plan_id":"cebpf4jnsgd1na2vs0mg"},{"bike_id":"5a7137cd-20ce-47d5-ad6b-64cdfafc0d32","system_id":"levelo_inurba_marseille","lat":43.27829,"lon":5.35481,"is_reserved":false,"is_disabled":false,"rental_uris":{"android":"levelo://app?vid=5a7137cd-20ce-47d5-ad6b-64cdfafc0d32","ios":"levelo://app?vid=5a7137cd-20ce-47d5-ad6b-64cdfafc0d32"},"vehicle_type_id":"4","last_reported":1728540796,"current_range_meters":25600,"station_id":"","pricing_plan_id":"cebpf4jnsgd1na2vs0mg"},{"bike_id":"496ad983-3fb2-4768-9db3-d56bb4f7c098","system_id":"levelo_inurba_marseille","lat":43.30147,"lon":5.38077,"is_reserved":false,"is_disabled":false,"rental_uris":{"android":"levelo://app?vid=496ad983-3fb2-4768-9db3-d56bb4f7c098","ios":"levelo://app?vid=496ad983-3fb2-4768-9db3-d56bb4f7c098"},"vehicle_type_id":"4","last_reported":1728540796,"current_range_meters":36400,"station_id":"ce4bgjp2rcd13ifvqbh0","pricing_plan_id":"cebpf4jnsgd1na2vs0mg"},{"bike_id":"81587ada-cc61-4386-b0c2-234cfb97acad","system_id":"levelo_inurba_marseille","lat":43.29554,"lon":5.42285,"is_reserved":false,"is_disabled":false,"rental_uris":{"android":"levelo://app?vid=81587ada-cc61-4386-b0c2-234cfb97acad","ios":"levelo://app?vid=81587ada-cc61-4386-b0c2-234cfb97acad"},"vehicle_type_id":"4","last_reported":1728540796,"current_range_meters":37600,"station_id":"ce4bhph2rcd13ifvqhdg","pricing_plan_id":"cebpf4jnsgd1na2vs0mg"},{"bike_id":"26598773-8eeb-4d5a-b8b3-3f5460620682","system_id":"levelo_inurba_marseille","lat":43.22935,"lon":5.35375,"is_reserved":false,"is_disabled":false,"rental_uris":{"android":"levelo://app?vid=26598773-8eeb-4d5a-b8b3-3f5460620682","ios":"levelo://app?vid=26598773-8eeb-4d5a-b8b3-3f5460620682"},"vehicle_type_id":"4","last_reported":1728540796,"current_range_meters":37600,"station_id":"cpo3532slgdg3j2ikp40","pricing_plan_id":"cebpf4jnsgd1na2vs0mg"},{"bike_id":"a22b04d3-9083-47af-bb7b-280e95b56aaf","system_id":"levelo_inurba_marseille","lat":43.26568,"lon":5.39,"is_reserved":false,"is_disabled":false,"rental_uris":{"android":"levelo://app?vid=a22b04d3-9083-47af-bb7b-280e95b56aaf","ios":"levelo://app?vid=a22b04d3-9083-47af-bb7b-280e95b56aaf"},"vehicle_type_id":"4","last_reported":1728540796,"current_range_meters":25200,"station_id":"ce4bhe12rcd13ifvqf30","pricing_plan_id":"cebpf4jnsgd1na2vs0mg"},{"bike_id":"ff68b789-7173-415f-860f-fb58c1b9d01d","system_id":"levelo_inurba_marseille","lat":43.22928,"lon":5.35376,"is_reserved":false,"is_disabled":false,"rental_uris":{"android":"levelo://app?vid=ff68b789-7173-415f-860f-fb58c1b9d01d","ios":"levelo://app?vid=ff68b789-7173-415f-860f-fb58c1b9d01d"},"vehicle_type_id":"4","last_reported":1728540796,"current_range_meters":37600,"station_id":"cpo3532slgdg3j2ikp40","pricing_plan_id":"cebpf4jnsgd1na2vs0mg"},{"bike_id":"0853fb6d-356b-49b7-9973-8eb7cd27c2b3","system_id":"levelo_inurba_marseille","lat":43.28856,"lon":5.35861,"is_reserved":false,"is_disabled":false,"rental_uris":{"android":"levelo://app?vid=0853fb6d-356b-49b7-9973-8eb7cd27c2b3","ios":"levelo://app?vid=0853fb6d-356b-49b7-9973-8eb7cd27c2b3"},"vehicle_type_id":"4","last_reported":1728540796,"current_range_meters":9600,"station_id":"ce4bhb12rcd13ifvqem0","pricing_plan_id":"cebpf4jnsgd1na2vs0mg"},{"bike_id":"467be7be-e0b0-4e6b-904e-e3d8987c9a55","system_id":"levelo_inurba_marseille","lat":43.27494,"lon":5.4246,"is_reserved":false,"is_disabled":false,"rental_uris":{"android":"levelo://app?vid=467be7be-e0b0-4e6b-904e-e3d8987c9a55","ios":"levelo://app?vid=467be7be-e0b0-4e6b-904e-e3d8987c9a55"},"vehicle_type_id":"4","last_reported":1728540796,"current_range_meters":36400,"station_id":"ce4bhn92rcd13ifvqgrg","pricing_plan_id":"cebpf4jnsgd1na2vs0mg"},{"bike_id":"86a78c2a-79e3-4f25-99d0-9a42b0acad1f","system_id":"levelo_inurba_marseille","lat":43.31898,"lon":5.40731,"is_reserved":false,"is_disabled":false,"rental_uris":{"android":"levelo://app?vid=86a78c2a-79e3-4f25-99d0-9a42b0acad1f","ios":"levelo://app?vid=86a78c2a-79e3-4f25-99d0-9a42b0acad1f"},"vehicle_type_id":"4","last_reported":1728540796,"current_range_meters":38800,"station_id":"ce4bhq12rcd13ifvqhig","pricing_plan_id":"cebpf4jnsgd1na2vs0mg"},{"bike_id":"0e98676c-587f-43bc-910b-99569055e7c1","system_id":"levelo_inurba_marseille","lat":43.24081,"lon":5.37749,"is_reserved":false,"is_disabled":false,"rental_uris":{"android":"levelo://app?vid=0e98676c-587f-43bc-910b-99569055e7c1","ios":"levelo://app?vid=0e98676c-587f-43bc-910b-99569055e7c1"},"vehicle_type_id":"4","last_reported":1728540796,"current_range_meters":24400,"station_id":"ce4bhnp2rcd13ifvqgvg","pricing_plan_id":"cebpf4jnsgd1na2vs0mg"},{"bike_id":"6c833d99-b529-40d4-a4b8-fc654d808bad","system_id":"levelo_inurba_marseille","lat":43.29908,"lon":5.38131,"is_reserved":false,"is_disabled":false,"rental_uris":{"android":"levelo://app?vid=6c833d99-b529-40d4-a4b8-fc654d808bad","ios":"levelo://app?vid=6c833d99-b529-40d4-a4b8-fc654d808bad"},"vehicle_type_id":"4","last_reported":1728540796,"current_range_meters":20400,"station_id":"ce4bgj12rcd13ifvqbc0","pricing_plan_id":"cebpf4jnsgd1na2vs0mg"},{"bike_id":"6d09f4ec-9749-4bf3-8c35-035218920dac","system_id":"levelo_inurba_marseille","lat":43.28054,"lon":5.40842,"is_reserved":false,"is_disabled":false,"rental_uris":{"android":"levelo://app?vid=6d09f4ec-9749-4bf3-8c35-035218920dac","ios":"levelo://app?vid=6d09f4ec-9749-4bf3-8c35-035218920dac"},"vehicle_type_id":"4","last_reported":1728540796,"current_range_meters":14800,"station_id":"","pricing_plan_id":"cebpf4jnsgd1na2vs0mg"},{"bike_id":"8ec87018-5952-4b12-8380-53b3a6d01183","system_id":"levelo_inurba_marseille","lat":43.28728,"lon":5.37944,"is_reserved":false,"is_disabled":false,"rental_uris":{"android":"levelo://app?vid=8ec87018-5952-4b12-8380-53b3a6d01183","ios":"levelo://app?vid=8ec87018-5952-4b12-8380-53b3a6d01183"},"vehicle_type_id":"4","last_reported":1728540796,"current_range_meters":35600,"station_id":"ce4bh9p2rcd13ifvqec0","pricing_plan_id":"cebpf4jnsgd1na2vs0mg"},{"bike_id":"56f08e8c-ca64-4dfb-9fad-559e0b5800e2","system_id":"levelo_inurba_marseille","lat":43.30592,"lon":5.39356,"is_reserved":false,"is_disabled":false,"rental_uris":{"android":"levelo://app?vid=56f08e8c-ca64-4dfb-9fad-559e0b5800e2","ios":"levelo://app?vid=56f08e8c-ca64-4dfb-9fad-559e0b5800e2"},"vehicle_type_id":"4","last_reported":1728540796,"current_range_meters":38800,"station_id":"ce4bh0p2rcd13ifvqd80","pricing_plan_id":"cebpf4jnsgd1na2vs0mg"},{"bike_id":"fc34a4c2-5dda-43dc-8c76-0302a62a6427","system_id":"levelo_inurba_marseille","lat":43.2319,"lon":5.35558,"is_reserved":false,"is_disabled":false,"rental_uris":{"android":"levelo://app?vid=fc34a4c2-5dda-43dc-8c76-0302a62a6427","ios":"levelo://app?vid=fc34a4c2-5dda-43dc-8c76-0302a62a6427"},"vehicle_type_id":"4","last_reported":1728540796,"current_range_meters":36800,"station_id":"ce4bhu92rcd13ifvqi70","pricing_plan_id":"cebpf4jnsgd1na2vs0mg"},{"bike_id":"e69e17e0-0ca8-4a95-b8f4-81597f014eb7","system_id":"levelo_inurba_marseille","lat":43.30153,"lon":5.38081,"is_reserved":false,"is_disabled":false,"rental_uris":{"android":"levelo://app?vid=e69e17e0-0ca8-4a95-b8f4-81597f014eb7","ios":"levelo://app?vid=e69e17e0-0ca8-4a95-b8f4-81597f014eb7"},"vehicle_type_id":"4","last_reported":1728540796,"current_range_meters":32000,"station_id":"ce4bgjp2rcd13ifvqbh0","pricing_plan_id":"cebpf4jnsgd1na2vs0mg"},{"bike_id":"b084f8f2-785d-4945-9a7d-21ae3ff0d864","system_id":"levelo_inurba_marseille","lat":43.30513,"lon":5.37997,"is_reserved":false,"is_disabled":false,"rental_uris":{"android":"levelo://app?vid=b084f8f2-785d-4945-9a7d-21ae3ff0d864","ios":"levelo://app?vid=b084f8f2-785d-4945-9a7d-21ae3ff0d864"},"vehicle_type_id":"4","last_reported":1728540796,"current_range_meters":37600,"station_id":"","pricing_plan_id":"cebpf4jnsgd1na2vs0mg"},{"bike_id":"ef8803a1-4847-492c-a579-3d60ff96d306","system_id":"levelo_inurba_marseille","lat":43.27497,"lon":5.42456,"is_reserved":false,"is_disabled":false,"rental_uris":{"android":"levelo://app?vid=ef8803a1-4847-492c-a579-3d60ff96d306","ios":"levelo://app?vid=ef8803a1-4847-492c-a579-3d60ff96d306"},"vehicle_type_id":"4","last_reported":1728540796,"current_range_meters":22400,"station_id":"ce4bhn92rcd13ifvqgrg","pricing_plan_id":"cebpf4jnsgd1na2vs0mg"},{"bike_id":"58037c12-ebe8-47d9-934c-3e692bf7960b","system_id":"levelo_inurba_marseille","lat":43.27495,"lon":5.42448,"is_reserved":false,"is_disabled":false,"rental_uris":{"android":"levelo://app?vid=58037c12-ebe8-47d9-934c-3e692bf7960b","ios":"levelo://app?vid=58037c12-ebe8-47d9-934c-3e692bf7960b"},"vehicle_type_id":"4","last_reported":1728540796,"current_range_meters":30000,"station_id":"ce4bhn92rcd13ifvqgrg","pricing_plan_id":"cebpf4jnsgd1na2vs0mg"},{"bike_id":"1e7e5049-1b3e-4a01-b1f8-c9e134a95cb9","system_id":"levelo_inurba_marseille","lat":43.28366,"lon":5.38637,"is_reserved":false,"is_disabled":false,"rental_uris":{"android":"levelo://app?vid=1e7e5049-1b3e-4a01-b1f8-c9e134a95cb9","ios":"levelo://app?vid=1e7e5049-1b3e-4a01-b1f8-c9e134a95cb9"},"vehicle_type_id":"4","last_reported":1728540796,"current_range_meters":38400,"station_id":"ce4bh492rcd13ifvqdvg","pricing_plan_id":"cebpf4jnsgd1na2vs0mg"},{"bike_id":"f4dddf09-e4d4-4ce8-b2e3-46717250c965","system_id":"levelo_inurba_marseille","lat":43.24814,"lon":5.37458,"is_reserved":false,"is_disabled":false,"rental_uris":{"android":"levelo://app?vid=f4dddf09-e4d4-4ce8-b2e3-46717250c965","ios":"levelo://app?vid=f4dddf09-e4d4-4ce8-b2e3-46717250c965"},"vehicle_type_id":"4","last_reported":1728540796,"current_range_meters":26000,"station_id":"ce4bhgh2rcd13ifvqfb0","pricing_plan_id":"cebpf4jnsgd1na2vs0mg"},{"bike_id":"c770c873-6ba7-4f44-ae36-497fe604d1ad","system_id":"levelo_inurba_marseille","lat":43.32665,"lon":5.40988,"is_reserved":false,"is_disabled":false,"rental_uris":{"android":"levelo://app?vid=c770c873-6ba7-4f44-ae36-497fe604d1ad","ios":"levelo://app?vid=c770c873-6ba7-4f44-ae36-497fe604d1ad"},"vehicle_type_id":"4","last_reported":1728540796,"current_range_meters":38800,"station_id":"ce4bhpp2rcd13ifvqhgg","pricing_plan_id":"cebpf4jnsgd1na2vs0mg"},{"bike_id":"e4f4ee38-85be-4856-9961-bb2a1fcfec20","system_id":"levelo_inurba_marseille","lat":43.31753,"lon":5.39025,"is_reserved":false,"is_disabled":false,"rental_uris":{"android":"levelo://app?vid=e4f4ee38-85be-4856-9961-bb2a1fcfec20","ios":"levelo://app?vid=e4f4ee38-85be-4856-9961-bb2a1fcfec20"},"vehicle_type_id":"4","last_reported":1728540796,"current_range_meters":24400,"station_id":"ce4bhqp2rcd13ifvqhng","pricing_plan_id":"cebpf4jnsgd1na2vs0mg"},{"bike_id":"4e4e7083-89bd-4f48-a4f6-01f4a7d2fcc0","system_id":"levelo_inurba_marseille","lat":43.34142,"lon":5.40906,"is_reserved":false,"is_disabled":false,"rental_uris":{"android":"levelo://app?vid=4e4e7083-89bd-4f48-a4f6-01f4a7d2fcc0","ios":"levelo://app?vid=4e4e7083-89bd-4f48-a4f6-01f4a7d2fcc0"},"vehicle_type_id":"4","last_reported":1728540796,"current_range_meters":38400,"station_id":"ce4bhqh2rcd13ifvqhlg","pricing_plan_id":"cebpf4jnsgd1na2vs0mg"},{"bike_id":"c49e959e-c7e7-4579-bbd1-c0b9283cb92d","system_id":"levelo_inurba_marseille","lat":43.304657,"lon":5.379002,"is_reserved":false,"is_disabled":false,"rental_uris":{"android":"levelo://app?vid=c49e959e-c7e7-4579-bbd1-c0b9283cb92d","ios":"levelo://app?vid=c49e959e-c7e7-4579-bbd1-c0b9283cb92d"},"vehicle_type_id":"4","last_reported":1728540796,"current_range_meters":31200,"station_id":"ce4bgup2rcd13ifvqcn0","pricing_plan_id":"cebpf4jnsgd1na2vs0mg"},{"bike_id":"a8be26b3-4fa2-47ff-ada6-16fb081de54a","system_id":"levelo_inurba_marseille","lat":43.311096,"lon":5.377767,"is_reserved":false,"is_disabled":false,"rental_uris":{"android":"levelo://app?vid=a8be26b3-4fa2-47ff-ada6-16fb081de54a","ios":"levelo://app?vid=a8be26b3-4fa2-47ff-ada6-16fb081de54a"},"vehicle_type_id":"4","last_reported":1728540796,"current_range_meters":28000,"station_id":"ce4bgt92rcd13ifvqcg0","pricing_plan_id":"cebpf4jnsgd1na2vs0mg"},{"bike_id":"e86d01e2-2710-427d-82b6-ffb883d95617","system_id":"levelo_inurba_marseille","lat":43.24069,"lon":5.3776,"is_reserved":false,"is_disabled":false,"rental_uris":{"android":"levelo://app?vid=e86d01e2-2710-427d-82b6-ffb883d95617","ios":"levelo://app?vid=e86d01e2-2710-427d-82b6-ffb883d95617"},"vehicle_type_id":"4","last_reported":1728540796,"current_range_meters":25200,"station_id":"ce4bhnp2rcd13ifvqgvg","pricing_plan_id":"cebpf4jnsgd1na2vs0mg"},{"bike_id":"4ed7c4f9-4646-432b-8918-e57a22cb6c6b","system_id":"levelo_inurba_marseille","lat":43.27495,"lon":5.42448,"is_reserved":false,"is_disabled":false,"rental_uris":{"android":"levelo://app?vid=4ed7c4f9-4646-432b-8918-e57a22cb6c6b","ios":"levelo://app?vid=4ed7c4f9-4646-432b-8918-e57a22cb6c6b"},"vehicle_type_id":"4","last_reported":1728540796,"current_range_meters":8400,"station_id":"ce4bhn92rcd13ifvqgrg","pricing_plan_id":"cebpf4jnsgd1na2vs0mg"},{"bike_id":"ca7f651b-c6f2-4d29-b448-ba1051480b94","system_id":"levelo_inurba_marseille","lat":43.30141,"lon":5.38064,"is_reserved":false,"is_disabled":false,"rental_uris":{"android":"levelo://app?vid=ca7f651b-c6f2-4d29-b448-ba1051480b94","ios":"levelo://app?vid=ca7f651b-c6f2-4d29-b448-ba1051480b94"},"vehicle_type_id":"4","last_reported":1728540796,"current_range_meters":30000,"station_id":"ce4bgjp2rcd13ifvqbh0","pricing_plan_id":"cebpf4jnsgd1na2vs0mg"},{"bike_id":"02893b5b-0a93-438a-9734-9eff91df5c62","system_id":"levelo_inurba_marseille","lat":43.24391,"lon":5.37062,"is_reserved":false,"is_disabled":false,"rental_uris":{"android":"levelo://app?vid=02893b5b-0a93-438a-9734-9eff91df5c62","ios":"levelo://app?vid=02893b5b-0a93-438a-9734-9eff91df5c62"},"vehicle_type_id":"4","last_reported":1728540796,"current_range_meters":29600,"station_id":"ce4bhhh2rcd13ifvqfk0","pricing_plan_id":"cebpf4jnsgd1na2vs0mg"},{"bike_id":"f90ca49f-87e5-4ffa-83bf-89fbe4726d17","system_id":"levelo_inurba_marseille","lat":43.232,"lon":5.35551,"is_reserved":false,"is_disabled":false,"rental_uris":{"android":"levelo://app?vid=f90ca49f-87e5-4ffa-83bf-89fbe4726d17","ios":"levelo://app?vid=f90ca49f-87e5-4ffa-83bf-89fbe4726d17"},"vehicle_type_id":"4","last_reported":1728540796,"current_range_meters":36800,"station_id":"ce4bhu92rcd13ifvqi70","pricing_plan_id":"cebpf4jnsgd1na2vs0mg"},{"bike_id":"3b1fa369-d0fc-402a-9458-9b4eb4954fef","system_id":"levelo_inurba_marseille","lat":43.32545,"lon":5.41428,"is_reserved":false,"is_disabled":false,"rental_uris":{"android":"levelo://app?vid=3b1fa369-d0fc-402a-9458-9b4eb4954fef","ios":"levelo://app?vid=3b1fa369-d0fc-402a-9458-9b4eb4954fef"},"vehicle_type_id":"4","last_reported":1728540796,"current_range_meters":34800,"station_id":"ce4bhq12rcd13ifvqhhg","pricing_plan_id":"cebpf4jnsgd1na2vs0mg"},{"bike_id":"7980552a-8eee-4325-8b1a-a5e2acdf441a","system_id":"levelo_inurba_marseille","lat":43.32656,"lon":5.40997,"is_reserved":false,"is_disabled":false,"rental_uris":{"android":"levelo://app?vid=7980552a-8eee-4325-8b1a-a5e2acdf441a","ios":"levelo://app?vid=7980552a-8eee-4325-8b1a-a5e2acdf441a"},"vehicle_type_id":"4","last_reported":1728540796,"current_range_meters":25200,"station_id":"ce4bhpp2rcd13ifvqhgg","pricing_plan_id":"cebpf4jnsgd1na2vs0mg"},{"bike_id":"1e895f78-0c26-498b-bd66-4337c893f93a","system_id":"levelo_inurba_marseille","lat":43.29801,"lon":5.40413,"is_reserved":false,"is_disabled":false,"rental_uris":{"android":"levelo://app?vid=1e895f78-0c26-498b-bd66-4337c893f93a","ios":"levelo://app?vid=1e895f78-0c26-498b-bd66-4337c893f93a"},"vehicle_type_id":"4","last_reported":1728540796,"current_range_meters":25600,"station_id":"ce4bh112rcd13ifvqd90","pricing_plan_id":"cebpf4jnsgd1na2vs0mg"},{"bike_id":"eac4d1f3-69e7-42fa-8e90-fa30310580cc","system_id":"levelo_inurba_marseille","lat":43.27491,"lon":5.42458,"is_reserved":false,"is_disabled":false,"rental_uris":{"android":"levelo://app?vid=eac4d1f3-69e7-42fa-8e90-fa30310580cc","ios":"levelo://app?vid=eac4d1f3-69e7-42fa-8e90-fa30310580cc"},"vehicle_type_id":"4","last_reported":1728540796,"current_range_meters":32800,"station_id":"ce4bhn92rcd13ifvqgrg","pricing_plan_id":"cebpf4jnsgd1na2vs0mg"},{"bike_id":"18aaddff-7a2c-44d9-b951-2654092acdd6","system_id":"levelo_inurba_marseille","lat":43.27496,"lon":5.42449,"is_reserved":false,"is_disabled":false,"rental_uris":{"android":"levelo://app?vid=18aaddff-7a2c-44d9-b951-2654092acdd6","ios":"levelo://app?vid=18aaddff-7a2c-44d9-b951-2654092acdd6"},"vehicle_type_id":"4","last_reported":1728540796,"current_range_meters":27600,"station_id":"ce4bhn92rcd13ifvqgrg","pricing_plan_id":"cebpf4jnsgd1na2vs0mg"},{"bike_id":"d5ef266a-d41a-4bb1-b81a-e58a6ea9a71a","system_id":"levelo_inurba_marseille","lat":43.31704,"lon":5.40477,"is_reserved":false,"is_disabled":false,"rental_uris":{"android":"levelo://app?vid=d5ef266a-d41a-4bb1-b81a-e58a6ea9a71a","ios":"levelo://app?vid=d5ef266a-d41a-4bb1-b81a-e58a6ea9a71a"},"vehicle_type_id":"4","last_reported":1728540796,"current_range_meters":9200,"station_id":"ce4bh012rcd13ifvqd00","pricing_plan_id":"cebpf4jnsgd1na2vs0mg"},{"bike_id":"629eb630-acdb-4130-8129-135bfcb63f78","system_id":"levelo_inurba_marseille","lat":43.27177,"lon":5.40997,"is_reserved":false,"is_disabled":false,"rental_uris":{"android":"levelo://app?vid=629eb630-acdb-4130-8129-135bfcb63f78","ios":"levelo://app?vid=629eb630-acdb-4130-8129-135bfcb63f78"},"vehicle_type_id":"4","last_reported":1728540796,"current_range_meters":28800,"station_id":"ce4bhl12rcd13ifvqgf0","pricing_plan_id":"cebpf4jnsgd1na2vs0mg"},{"bike_id":"d499e449-9dbc-46ac-b8a2-2feb89d23344","system_id":"levelo_inurba_marseille","lat":43.27491,"lon":5.42461,"is_reserved":false,"is_disabled":false,"rental_uris":{"android":"levelo://app?vid=d499e449-9dbc-46ac-b8a2-2feb89d23344","ios":"levelo://app?vid=d499e449-9dbc-46ac-b8a2-2feb89d23344"},"vehicle_type_id":"4","last_reported":1728540796,"current_range_meters":32000,"station_id":"ce4bhn92rcd13ifvqgrg","pricing_plan_id":"cebpf4jnsgd1na2vs0mg"},{"bike_id":"4d23c7bb-df21-4f45-87db-a0f462e6627b","system_id":"levelo_inurba_marseille","lat":43.25002,"lon":5.38921,"is_reserved":false,"is_disabled":false,"rental_uris":{"android":"levelo://app?vid=4d23c7bb-df21-4f45-87db-a0f462e6627b","ios":"levelo://app?vid=4d23c7bb-df21-4f45-87db-a0f462e6627b"},"vehicle_type_id":"4","last_reported":1728540796,"current_range_meters":20800,"station_id":"ce4bhgp2rcd13ifvqfd0","pricing_plan_id":"cebpf4jnsgd1na2vs0mg"},{"bike_id":"cb63b7ae-12bf-4b28-b0d8-9f6d819fd860","system_id":"levelo_inurba_marseille","lat":43.29608,"lon":5.38109,"is_reserved":false,"is_disabled":false,"rental_uris":{"android":"levelo://app?vid=cb63b7ae-12bf-4b28-b0d8-9f6d819fd860","ios":"levelo://app?vid=cb63b7ae-12bf-4b28-b0d8-9f6d819fd860"},"vehicle_type_id":"4","last_reported":1728540796,"current_range_meters":26000,"station_id":"ce4bgl12rcd13ifvqbo0","pricing_plan_id":"cebpf4jnsgd1na2vs0mg"},{"bike_id":"8b4a5ff8-0994-4201-919e-c4c801e548ac","system_id":"levelo_inurba_marseille","lat":43.30591,"lon":5.39352,"is_reserved":false,"is_disabled":false,"rental_uris":{"android":"levelo://app?vid=8b4a5ff8-0994-4201-919e-c4c801e548ac","ios":"levelo://app?vid=8b4a5ff8-0994-4201-919e-c4c801e548ac"},"vehicle_type_id":"4","last_reported":1728540796,"current_range_meters":38800,"station_id":"ce4bh0p2rcd13ifvqd80","pricing_plan_id":"cebpf4jnsgd1na2vs0mg"},{"bike_id":"fd788659-0e78-402b-91a4-458257ccd222","system_id":"levelo_inurba_marseille","lat":43.26957,"lon":5.38642,"is_reserved":false,"is_disabled":false,"rental_uris":{"android":"levelo://app?vid=fd788659-0e78-402b-91a4-458257ccd222","ios":"levelo://app?vid=fd788659-0e78-402b-91a4-458257ccd222"},"vehicle_type_id":"4","last_reported":1728540796,"current_range_meters":28400,"station_id":"ce4bhh92rcd13ifvqfh0","pricing_plan_id":"cebpf4jnsgd1na2vs0mg"},{"bike_id":"64004c3b-edcd-449b-b711-74e244225b40","system_id":"levelo_inurba_marseille","lat":43.29978,"lon":5.37185,"is_reserved":false,"is_disabled":false,"rental_uris":{"android":"levelo://app?vid=64004c3b-edcd-449b-b711-74e244225b40","ios":"levelo://app?vid=64004c3b-edcd-449b-b711-74e244225b40"},"vehicle_type_id":"4","last_reported":1728540796,"current_range_meters":9600,"station_id":"ce4bgr92rcd13ifvqc7g","pricing_plan_id":"cebpf4jnsgd1na2vs0mg"},{"bike_id":"f22cc9bd-066d-4fae-bcba-f966e5bd56ad","system_id":"levelo_inurba_marseille","lat":43.33022,"lon":5.39039,"is_reserved":false,"is_disabled":false,"rental_uris":{"android":"levelo://app?vid=f22cc9bd-066d-4fae-bcba-f966e5bd56ad","ios":"levelo://app?vid=f22cc9bd-066d-4fae-bcba-f966e5bd56ad"},"vehicle_type_id":"4","last_reported":1728540796,"current_range_meters":38800,"station_id":"ce4bhr92rcd13ifvqhrg","pricing_plan_id":"cebpf4jnsgd1na2vs0mg"},{"bike_id":"6c177a40-4704-434a-9cda-37a59fc669e7","system_id":"levelo_inurba_marseille","lat":43.23157,"lon":5.43708,"is_reserved":false,"is_disabled":false,"rental_uris":{"android":"levelo://app?vid=6c177a40-4704-434a-9cda-37a59fc669e7","ios":"levelo://app?vid=6c177a40-4704-434a-9cda-37a59fc669e7"},"vehicle_type_id":"4","last_reported":1728540796,"current_range_meters":33600,"station_id":"ce4bhmp2rcd13ifvqgog","pricing_plan_id":"cebpf4jnsgd1na2vs0mg"},{"bike_id":"9db8985d-e8b0-44d3-98db-80c880cfecda","system_id":"levelo_inurba_marseille","lat":43.31598,"lon":5.404,"is_reserved":false,"is_disabled":false,"rental_uris":{"android":"levelo://app?vid=9db8985d-e8b0-44d3-98db-80c880cfecda","ios":"levelo://app?vid=9db8985d-e8b0-44d3-98db-80c880cfecda"},"vehicle_type_id":"4","last_reported":1728540796,"current_range_meters":34800,"station_id":"ce4bhqh2rcd13ifvqhmg","pricing_plan_id":"cebpf4jnsgd1na2vs0mg"},{"bike_id":"52b57bd8-4bc3-4259-a580-fd0c76aa104e","system_id":"levelo_inurba_marseille","lat":43.30506,"lon":5.38002,"is_reserved":false,"is_disabled":false,"rental_uris":{"android":"levelo://app?vid=52b57bd8-4bc3-4259-a580-fd0c76aa104e","ios":"levelo://app?vid=52b57bd8-4bc3-4259-a580-fd0c76aa104e"},"vehicle_type_id":"4","last_reported":1728540796,"current_range_meters":16400,"station_id":"","pricing_plan_id":"cebpf4jnsgd1na2vs0mg"},{"bike_id":"1d219b72-f5b7-4ec5-93e0-d20414f1655d","system_id":"levelo_inurba_marseille","lat":43.32538,"lon":5.41433,"is_reserved":false,"is_disabled":false,"rental_uris":{"android":"levelo://app?vid=1d219b72-f5b7-4ec5-93e0-d20414f1655d","ios":"levelo://app?vid=1d219b72-f5b7-4ec5-93e0-d20414f1655d"},"vehicle_type_id":"4","last_reported":1728540796,"current_range_meters":34000,"station_id":"ce4bhq12rcd13ifvqhhg","pricing_plan_id":"cebpf4jnsgd1na2vs0mg"},{"bike_id":"5b26d757-7a99-4c5a-8828-b13efd066993","system_id":"levelo_inurba_marseille","lat":43.29604,"lon":5.38106,"is_reserved":false,"is_disabled":false,"rental_uris":{"android":"levelo://app?vid=5b26d757-7a99-4c5a-8828-b13efd066993","ios":"levelo://app?vid=5b26d757-7a99-4c5a-8828-b13efd066993"},"vehicle_type_id":"4","last_reported":1728540796,"current_range_meters":10800,"station_id":"ce4bgl12rcd13ifvqbo0","pricing_plan_id":"cebpf4jnsgd1na2vs0mg"},{"bike_id":"6621e1af-9ca0-463c-a3ad-f651030b0dd3","system_id":"levelo_inurba_marseille","lat":43.23193,"lon":5.35549,"is_reserved":false,"is_disabled":false,"rental_uris":{"android":"levelo://app?vid=6621e1af-9ca0-463c-a3ad-f651030b0dd3","ios":"levelo://app?vid=6621e1af-9ca0-463c-a3ad-f651030b0dd3"},"vehicle_type_id":"4","last_reported":1728540796,"current_range_meters":37600,"station_id":"ce4bhu92rcd13ifvqi70","pricing_plan_id":"cebpf4jnsgd1na2vs0mg"},{"bike_id":"dbbb62cb-4f9e-48bd-80c2-e05a0143e2e7","system_id":"levelo_inurba_marseille","lat":43.32536,"lon":5.41427,"is_reserved":false,"is_disabled":false,"rental_uris":{"android":"levelo://app?vid=dbbb62cb-4f9e-48bd-80c2-e05a0143e2e7","ios":"levelo://app?vid=dbbb62cb-4f9e-48bd-80c2-e05a0143e2e7"},"vehicle_type_id":"4","last_reported":1728540796,"current_range_meters":24400,"station_id":"ce4bhq12rcd13ifvqhhg","pricing_plan_id":"cebpf4jnsgd1na2vs0mg"},{"bike_id":"b9dabf33-163d-4f82-9f66-b2092719a209","system_id":"levelo_inurba_marseille","lat":43.28863,"lon":5.35861,"is_reserved":false,"is_disabled":false,"rental_uris":{"android":"levelo://app?vid=b9dabf33-163d-4f82-9f66-b2092719a209","ios":"levelo://app?vid=b9dabf33-163d-4f82-9f66-b2092719a209"},"vehicle_type_id":"4","last_reported":1728540796,"current_range_meters":38800,"station_id":"ce4bhb12rcd13ifvqem0","pricing_plan_id":"cebpf4jnsgd1na2vs0mg"},{"bike_id":"557de473-76be-47b1-9d51-8af8423de307","system_id":"levelo_inurba_marseille","lat":43.27497,"lon":5.42449,"is_reserved":false,"is_disabled":false,"rental_uris":{"android":"levelo://app?vid=557de473-76be-47b1-9d51-8af8423de307","ios":"levelo://app?vid=557de473-76be-47b1-9d51-8af8423de307"},"vehicle_type_id":"4","last_reported":1728540796,"current_range_meters":36000,"station_id":"ce4bhn92rcd13ifvqgrg","pricing_plan_id":"cebpf4jnsgd1na2vs0mg"},{"bike_id":"5121ed0c-b747-4b1f-a1f7-ece26aab0efb","system_id":"levelo_inurba_marseille","lat":43.30464,"lon":5.37913,"is_reserved":false,"is_disabled":false,"rental_uris":{"android":"levelo://app?vid=5121ed0c-b747-4b1f-a1f7-ece26aab0efb","ios":"levelo://app?vid=5121ed0c-b747-4b1f-a1f7-ece26aab0efb"},"vehicle_type_id":"4","last_reported":1728540796,"current_range_meters":18000,"station_id":"ce4bgup2rcd13ifvqcn0","pricing_plan_id":"cebpf4jnsgd1na2vs0mg"},{"bike_id":"ee8e341b-0f15-4ef3-994e-4215d9cbd244","system_id":"levelo_inurba_marseille","lat":43.2879,"lon":5.376744,"is_reserved":false,"is_disabled":false,"rental_uris":{"android":"levelo://app?vid=ee8e341b-0f15-4ef3-994e-4215d9cbd244","ios":"levelo://app?vid=ee8e341b-0f15-4ef3-994e-4215d9cbd244"},"vehicle_type_id":"4","last_reported":1728540796,"current_range_meters":35600,"station_id":"","pricing_plan_id":"cebpf4jnsgd1na2vs0mg"},{"bike_id":"840c8c8c-016f-4839-a567-c0eb7f264da4","system_id":"levelo_inurba_marseille","lat":43.25942,"lon":5.40904,"is_reserved":false,"is_disabled":false,"rental_uris":{"android":"levelo://app?vid=840c8c8c-016f-4839-a567-c0eb7f264da4","ios":"levelo://app?vid=840c8c8c-016f-4839-a567-c0eb7f264da4"},"vehicle_type_id":"4","last_reported":1728540796,"current_range_meters":36400,"station_id":"ce4bhm92rcd13ifvqglg","pricing_plan_id":"cebpf4jnsgd1na2vs0mg"},{"bike_id":"9119f974-ea12-4975-b484-8868e7a8c451","system_id":"levelo_inurba_marseille","lat":43.32549,"lon":5.41435,"is_reserved":false,"is_disabled":false,"rental_uris":{"android":"levelo://app?vid=9119f974-ea12-4975-b484-8868e7a8c451","ios":"levelo://app?vid=9119f974-ea12-4975-b484-8868e7a8c451"},"vehicle_type_id":"4","last_reported":1728540796,"current_range_meters":8400,"station_id":"ce4bhq12rcd13ifvqhhg","pricing_plan_id":"cebpf4jnsgd1na2vs0mg"},{"bike_id":"37aed8a1-3fa7-4b24-ad4f-1103f233069c","system_id":"levelo_inurba_marseille","lat":43.32543,"lon":5.41427,"is_reserved":false,"is_disabled":false,"rental_uris":{"android":"levelo://app?vid=37aed8a1-3fa7-4b24-ad4f-1103f233069c","ios":"levelo://app?vid=37aed8a1-3fa7-4b24-ad4f-1103f233069c"},"vehicle_type_id":"4","last_reported":1728540796,"current_range_meters":32000,"station_id":"ce4bhq12rcd13ifvqhhg","pricing_plan_id":"cebpf4jnsgd1na2vs0mg"},{"bike_id":"eac3bf75-faff-452e-9d38-51a106f0cdcd","system_id":"levelo_inurba_marseille","lat":43.31338,"lon":5.36713,"is_reserved":false,"is_disabled":false,"rental_uris":{"android":"levelo://app?vid=eac3bf75-faff-452e-9d38-51a106f0cdcd","ios":"levelo://app?vid=eac3bf75-faff-452e-9d38-51a106f0cdcd"},"vehicle_type_id":"4","last_reported":1728540796,"current_range_meters":36400,"station_id":"ce4bgr92rcd13ifvqc6g","pricing_plan_id":"cebpf4jnsgd1na2vs0mg"},{"bike_id":"825eb988-067a-44bc-b880-3ad9cb2dcb11","system_id":"levelo_inurba_marseille","lat":43.288661,"lon":5.366625,"is_reserved":false,"is_disabled":false,"rental_uris":{"android":"levelo://app?vid=825eb988-067a-44bc-b880-3ad9cb2dcb11","ios":"levelo://app?vid=825eb988-067a-44bc-b880-3ad9cb2dcb11"},"vehicle_type_id":"4","last_reported":1728540796,"current_range_meters":38400,"station_id":"ce4bhap2rcd13ifvqek0","pricing_plan_id":"cebpf4jnsgd1na2vs0mg"},{"bike_id":"bde6dd15-ba0c-45b8-986e-858faabb3a7e","system_id":"levelo_inurba_marseille","lat":43.24118,"lon":5.37577,"is_reserved":false,"is_disabled":false,"rental_uris":{"android":"levelo://app?vid=bde6dd15-ba0c-45b8-986e-858faabb3a7e","ios":"levelo://app?vid=bde6dd15-ba0c-45b8-986e-858faabb3a7e"},"vehicle_type_id":"4","last_reported":1728540796,"current_range_meters":33600,"station_id":"","pricing_plan_id":"cebpf4jnsgd1na2vs0mg"},{"bike_id":"910334d2-d108-4fc2-83c4-e16f3f792eec","system_id":"levelo_inurba_marseille","lat":43.30536,"lon":5.36534,"is_reserved":false,"is_disabled":false,"rental_uris":{"android":"levelo://app?vid=910334d2-d108-4fc2-83c4-e16f3f792eec","ios":"levelo://app?vid=910334d2-d108-4fc2-83c4-e16f3f792eec"},"vehicle_type_id":"4","last_reported":1728540796,"current_range_meters":34800,"station_id":"ce4bgs12rcd13ifvqcag","pricing_plan_id":"cebpf4jnsgd1na2vs0mg"},{"bike_id":"0423ff4b-5837-4388-8faf-9fc4c1ea92cc","system_id":"levelo_inurba_marseille","lat":43.25945,"lon":5.40899,"is_reserved":false,"is_disabled":false,"rental_uris":{"android":"levelo://app?vid=0423ff4b-5837-4388-8faf-9fc4c1ea92cc","ios":"levelo://app?vid=0423ff4b-5837-4388-8faf-9fc4c1ea92cc"},"vehicle_type_id":"4","last_reported":1728540796,"current_range_meters":13600,"station_id":"ce4bhm92rcd13ifvqglg","pricing_plan_id":"cebpf4jnsgd1na2vs0mg"},{"bike_id":"6cd7d39b-2087-4d21-86bb-e2284a62aeb5","system_id":"levelo_inurba_marseille","lat":43.23189,"lon":5.35555,"is_reserved":false,"is_disabled":false,"rental_uris":{"android":"levelo://app?vid=6cd7d39b-2087-4d21-86bb-e2284a62aeb5","ios":"levelo://app?vid=6cd7d39b-2087-4d21-86bb-e2284a62aeb5"},"vehicle_type_id":"4","last_reported":1728540796,"current_range_meters":4000,"station_id":"ce4bhu92rcd13ifvqi70","pricing_plan_id":"cebpf4jnsgd1na2vs0mg"},{"bike_id":"8a1e694c-979c-4187-add5-7b891cc3e6f0","system_id":"levelo_inurba_marseille","lat":43.32537,"lon":5.41431,"is_reserved":false,"is_disabled":false,"rental_uris":{"android":"levelo://app?vid=8a1e694c-979c-4187-add5-7b891cc3e6f0","ios":"levelo://app?vid=8a1e694c-979c-4187-add5-7b891cc3e6f0"},"vehicle_type_id":"4","last_reported":1728540796,"current_range_meters":4000,"station_id":"ce4bhq12rcd13ifvqhhg","pricing_plan_id":"cebpf4jnsgd1na2vs0mg"},{"bike_id":"60098230-9c6b-4727-adac-60752fa30bf1","system_id":"levelo_inurba_marseille","lat":43.30926,"lon":5.36852,"is_reserved":false,"is_disabled":false,"rental_uris":{"android":"levelo://app?vid=60098230-9c6b-4727-adac-60752fa30bf1","ios":"levelo://app?vid=60098230-9c6b-4727-adac-60752fa30bf1"},"vehicle_type_id":"4","last_reported":1728540796,"current_range_meters":24000,"station_id":"ce4bgn92rcd13ifvqbvg","pricing_plan_id":"cebpf4jnsgd1na2vs0mg"},{"bike_id":"5df7ec6f-65de-4288-8b8c-b5e4fca36445","system_id":"levelo_inurba_marseille","lat":43.29024,"lon":5.39992,"is_reserved":false,"is_disabled":false,"rental_uris":{"android":"levelo://app?vid=5df7ec6f-65de-4288-8b8c-b5e4fca36445","ios":"levelo://app?vid=5df7ec6f-65de-4288-8b8c-b5e4fca36445"},"vehicle_type_id":"4","last_reported":1728540796,"current_range_meters":38800,"station_id":"ce4bh392rcd13ifvqdm0","pricing_plan_id":"cebpf4jnsgd1na2vs0mg"},{"bike_id":"a5f20a9c-ff84-43e6-8b43-14005dee38bc","system_id":"levelo_inurba_marseille","lat":43.30158,"lon":5.38086,"is_reserved":false,"is_disabled":false,"rental_uris":{"android":"levelo://app?vid=a5f20a9c-ff84-43e6-8b43-14005dee38bc","ios":"levelo://app?vid=a5f20a9c-ff84-43e6-8b43-14005dee38bc"},"vehicle_type_id":"4","last_reported":1728540796,"current_range_meters":21600,"station_id":"ce4bgjp2rcd13ifvqbh0","pricing_plan_id":"cebpf4jnsgd1na2vs0mg"},{"bike_id":"0a914b9b-1fcc-4758-a91b-1f2a11f6cf7a","system_id":"levelo_inurba_marseille","lat":43.27183,"lon":5.40995,"is_reserved":false,"is_disabled":false,"rental_uris":{"android":"levelo://app?vid=0a914b9b-1fcc-4758-a91b-1f2a11f6cf7a","ios":"levelo://app?vid=0a914b9b-1fcc-4758-a91b-1f2a11f6cf7a"},"vehicle_type_id":"4","last_reported":1728540796,"current_range_meters":18000,"station_id":"ce4bhl12rcd13ifvqgf0","pricing_plan_id":"cebpf4jnsgd1na2vs0mg"},{"bike_id":"d65db0a0-2fe8-42de-a50f-73a9d36e8924","system_id":"levelo_inurba_marseille","lat":43.33607,"lon":5.41018,"is_reserved":false,"is_disabled":false,"rental_uris":{"android":"levelo://app?vid=d65db0a0-2fe8-42de-a50f-73a9d36e8924","ios":"levelo://app?vid=d65db0a0-2fe8-42de-a50f-73a9d36e8924"},"vehicle_type_id":"4","last_reported":1728540796,"current_range_meters":36800,"station_id":"ce4bhqh2rcd13ifvqhmg","pricing_plan_id":"cebpf4jnsgd1na2vs0mg"},{"bike_id":"5b9fe21e-ac55-4ff4-95f8-3f6705a4d2d4","system_id":"levelo_inurba_marseille","lat":43.27494,"lon":5.42455,"is_reserved":false,"is_disabled":false,"rental_uris":{"android":"levelo://app?vid=5b9fe21e-ac55-4ff4-95f8-3f6705a4d2d4","ios":"levelo://app?vid=5b9fe21e-ac55-4ff4-95f8-3f6705a4d2d4"},"vehicle_type_id":"4","last_reported":1728540796,"current_range_meters":12400,"station_id":"ce4bhn92rcd13ifvqgrg","pricing_plan_id":"cebpf4jnsgd1na2vs0mg"},{"bike_id":"1eac309f-c1ea-4f24-9bf1-742a5787b598","system_id":"levelo_inurba_marseille","lat":43.26573,"lon":5.3902,"is_reserved":false,"is_disabled":false,"rental_uris":{"android":"levelo://app?vid=1eac309f-c1ea-4f24-9bf1-742a5787b598","ios":"levelo://app?vid=1eac309f-c1ea-4f24-9bf1-742a5787b598"},"vehicle_type_id":"4","last_reported":1728540796,"current_range_meters":38800,"station_id":"ce4bhe12rcd13ifvqf30","pricing_plan_id":"cebpf4jnsgd1na2vs0mg"},{"bike_id":"75e8242b-465d-4e64-ac51-b9af4bdb0d74","system_id":"levelo_inurba_marseille","lat":43.29894,"lon":5.43661,"is_reserved":false,"is_disabled":false,"rental_uris":{"android":"levelo://app?vid=75e8242b-465d-4e64-ac51-b9af4bdb0d74","ios":"levelo://app?vid=75e8242b-465d-4e64-ac51-b9af4bdb0d74"},"vehicle_type_id":"4","last_reported":1728540796,"current_range_meters":38800,"station_id":"ce4bhpp2rcd13ifvqhfg","pricing_plan_id":"cebpf4jnsgd1na2vs0mg"},{"bike_id":"50982262-c212-48cc-aa1f-28e8f923107a","system_id":"levelo_inurba_marseille","lat":43.30594,"lon":5.39352,"is_reserved":false,"is_disabled":false,"rental_uris":{"android":"levelo://app?vid=50982262-c212-48cc-aa1f-28e8f923107a","ios":"levelo://app?vid=50982262-c212-48cc-aa1f-28e8f923107a"},"vehicle_type_id":"4","last_reported":1728540796,"current_range_meters":36800,"station_id":"ce4bh0p2rcd13ifvqd80","pricing_plan_id":"cebpf4jnsgd1na2vs0mg"},{"bike_id":"c111393d-9cd9-41aa-904d-9a71386ece93","system_id":"levelo_inurba_marseille","lat":43.3254,"lon":5.41435,"is_reserved":false,"is_disabled":false,"rental_uris":{"android":"levelo://app?vid=c111393d-9cd9-41aa-904d-9a71386ece93","ios":"levelo://app?vid=c111393d-9cd9-41aa-904d-9a71386ece93"},"vehicle_type_id":"4","last_reported":1728540796,"current_range_meters":30400,"station_id":"ce4bhq12rcd13ifvqhhg","pricing_plan_id":"cebpf4jnsgd1na2vs0mg"},{"bike_id":"c36785e0-16e7-4c4f-af83-fd603b02cc5b","system_id":"levelo_inurba_marseille","lat":43.33022,"lon":5.39046,"is_reserved":false,"is_disabled":false,"rental_uris":{"android":"levelo://app?vid=c36785e0-16e7-4c4f-af83-fd603b02cc5b","ios":"levelo://app?vid=c36785e0-16e7-4c4f-af83-fd603b02cc5b"},"vehicle_type_id":"4","last_reported":1728540796,"current_range_meters":32400,"station_id":"ce4bhr92rcd13ifvqhrg","pricing_plan_id":"cebpf4jnsgd1na2vs0mg"},{"bike_id":"ad4c62cc-78b9-4e85-82ac-3a3249e343f4","system_id":"levelo_inurba_marseille","lat":43.28455,"lon":5.37503,"is_reserved":false,"is_disabled":false,"rental_uris":{"android":"levelo://app?vid=ad4c62cc-78b9-4e85-82ac-3a3249e343f4","ios":"levelo://app?vid=ad4c62cc-78b9-4e85-82ac-3a3249e343f4"},"vehicle_type_id":"4","last_reported":1728540796,"current_range_meters":13600,"station_id":"","pricing_plan_id":"cebpf4jnsgd1na2vs0mg"},{"bike_id":"4bfec9fb-f4a3-4a68-b94a-fe78c1f0b652","system_id":"levelo_inurba_marseille","lat":43.24181,"lon":5.39735,"is_reserved":false,"is_disabled":false,"rental_uris":{"android":"levelo://app?vid=4bfec9fb-f4a3-4a68-b94a-fe78c1f0b652","ios":"levelo://app?vid=4bfec9fb-f4a3-4a68-b94a-fe78c1f0b652"},"vehicle_type_id":"4","last_reported":1728540796,"current_range_meters":16800,"station_id":"ce4bhn12rcd13ifvqgpg","pricing_plan_id":"cebpf4jnsgd1na2vs0mg"},{"bike_id":"693ef618-8549-4d96-a95a-75e12dd33ec1","system_id":"levelo_inurba_marseille","lat":43.2996,"lon":5.41316,"is_reserved":false,"is_disabled":false,"rental_uris":{"android":"levelo://app?vid=693ef618-8549-4d96-a95a-75e12dd33ec1","ios":"levelo://app?vid=693ef618-8549-4d96-a95a-75e12dd33ec1"},"vehicle_type_id":"4","last_reported":1728540796,"current_range_meters":37600,"station_id":"ce4bhp12rcd13ifvqh9g","pricing_plan_id":"cebpf4jnsgd1na2vs0mg"},{"bike_id":"9bac0547-caca-4eef-b3cb-aa22e13232b1","system_id":"levelo_inurba_marseille","lat":43.25936,"lon":5.40908,"is_reserved":false,"is_disabled":false,"rental_uris":{"android":"levelo://app?vid=9bac0547-caca-4eef-b3cb-aa22e13232b1","ios":"levelo://app?vid=9bac0547-caca-4eef-b3cb-aa22e13232b1"},"vehicle_type_id":"4","last_reported":1728540796,"current_range_meters":24800,"station_id":"ce4bhm92rcd13ifvqglg","pricing_plan_id":"cebpf4jnsgd1na2vs0mg"},{"bike_id":"a10b0483-fa1e-4f24-8ad1-ba4d87fbbb28","system_id":"levelo_inurba_marseille","lat":43.28939,"lon":5.36639,"is_reserved":false,"is_disabled":false,"rental_uris":{"android":"levelo://app?vid=a10b0483-fa1e-4f24-8ad1-ba4d87fbbb28","ios":"levelo://app?vid=a10b0483-fa1e-4f24-8ad1-ba4d87fbbb28"},"vehicle_type_id":"4","last_reported":1728540796,"current_range_meters":6000,"station_id":"ce4bhap2rcd13ifvqek0","pricing_plan_id":"cebpf4jnsgd1na2vs0mg"},{"bike_id":"3175468d-30c1-4c19-9df0-892a3b5400a7","system_id":"levelo_inurba_marseille","lat":43.29222,"lon":5.36077,"is_reserved":false,"is_disabled":false,"rental_uris":{"android":"levelo://app?vid=3175468d-30c1-4c19-9df0-892a3b5400a7","ios":"levelo://app?vid=3175468d-30c1-4c19-9df0-892a3b5400a7"},"vehicle_type_id":"4","last_reported":1728540796,"current_range_meters":38400,"station_id":"ce4bhbh2rcd13ifvqeqg","pricing_plan_id":"cebpf4jnsgd1na2vs0mg"},{"bike_id":"68012474-d247-4629-a3eb-b62caef40590","system_id":"levelo_inurba_marseille","lat":43.28859,"lon":5.35841,"is_reserved":false,"is_disabled":false,"rental_uris":{"android":"levelo://app?vid=68012474-d247-4629-a3eb-b62caef40590","ios":"levelo://app?vid=68012474-d247-4629-a3eb-b62caef40590"},"vehicle_type_id":"4","last_reported":1728540796,"current_range_meters":38400,"station_id":"ce4bhb12rcd13ifvqem0","pricing_plan_id":"cebpf4jnsgd1na2vs0mg"},{"bike_id":"fc3f0547-89f3-45ed-b216-20a87ce42cb7","system_id":"levelo_inurba_marseille","lat":43.23154,"lon":5.43715,"is_reserved":false,"is_disabled":false,"rental_uris":{"android":"levelo://app?vid=fc3f0547-89f3-45ed-b216-20a87ce42cb7","ios":"levelo://app?vid=fc3f0547-89f3-45ed-b216-20a87ce42cb7"},"vehicle_type_id":"4","last_reported":1728540796,"current_range_meters":25200,"station_id":"ce4bhmp2rcd13ifvqgog","pricing_plan_id":"cebpf4jnsgd1na2vs0mg"},{"bike_id":"9335ab70-fa09-4b52-a653-23f61876eb94","system_id":"levelo_inurba_marseille","lat":43.27427,"lon":5.39407,"is_reserved":false,"is_disabled":false,"rental_uris":{"android":"levelo://app?vid=9335ab70-fa09-4b52-a653-23f61876eb94","ios":"levelo://app?vid=9335ab70-fa09-4b52-a653-23f61876eb94"},"vehicle_type_id":"4","last_reported":1728540796,"current_range_meters":36800,"station_id":"ce4bhdp2rcd13ifvqf20","pricing_plan_id":"cebpf4jnsgd1na2vs0mg"},{"bike_id":"771e73b5-822c-442c-a5d4-b201a5fbfe1e","system_id":"levelo_inurba_marseille","lat":43.30913,"lon":5.36834,"is_reserved":false,"is_disabled":false,"rental_uris":{"android":"levelo://app?vid=771e73b5-822c-442c-a5d4-b201a5fbfe1e","ios":"levelo://app?vid=771e73b5-822c-442c-a5d4-b201a5fbfe1e"},"vehicle_type_id":"4","last_reported":1728540796,"current_range_meters":38800,"station_id":"ce4bgn92rcd13ifvqbvg","pricing_plan_id":"cebpf4jnsgd1na2vs0mg"},{"bike_id":"b4aef492-9c8e-44dc-ad05-f038721e21b9","system_id":"levelo_inurba_marseille","lat":43.313669,"lon":5.385021,"is_reserved":false,"is_disabled":false,"rental_uris":{"android":"levelo://app?vid=b4aef492-9c8e-44dc-ad05-f038721e21b9","ios":"levelo://app?vid=b4aef492-9c8e-44dc-ad05-f038721e21b9"},"vehicle_type_id":"4","last_reported":1728540796,"current_range_meters":28800,"station_id":"ce4bh312rcd13ifvqdj0","pricing_plan_id":"cebpf4jnsgd1na2vs0mg"},{"bike_id":"7694d6c2-ef89-4707-8bc2-60143665e66b","system_id":"levelo_inurba_marseille","lat":43.31703,"lon":5.40475,"is_reserved":false,"is_disabled":false,"rental_uris":{"android":"levelo://app?vid=7694d6c2-ef89-4707-8bc2-60143665e66b","ios":"levelo://app?vid=7694d6c2-ef89-4707-8bc2-60143665e66b"},"vehicle_type_id":"4","last_reported":1728540796,"current_range_meters":17600,"station_id":"ce4bh012rcd13ifvqd00","pricing_plan_id":"cebpf4jnsgd1na2vs0mg"},{"bike_id":"2b8e8c73-90c8-481a-84f1-73cdc584e805","system_id":"levelo_inurba_marseille","lat":43.30593,"lon":5.39363,"is_reserved":false,"is_disabled":false,"rental_uris":{"android":"levelo://app?vid=2b8e8c73-90c8-481a-84f1-73cdc584e805","ios":"levelo://app?vid=2b8e8c73-90c8-481a-84f1-73cdc584e805"},"vehicle_type_id":"4","last_reported":1728540796,"current_range_meters":29600,"station_id":"ce4bh0p2rcd13ifvqd80","pricing_plan_id":"cebpf4jnsgd1na2vs0mg"},{"bike_id":"aa75c41c-1391-4d5a-b0ad-fb29c317877d","system_id":"levelo_inurba_marseille","lat":43.2307,"lon":5.35492,"is_reserved":false,"is_disabled":false,"rental_uris":{"android":"levelo://app?vid=aa75c41c-1391-4d5a-b0ad-fb29c317877d","ios":"levelo://app?vid=aa75c41c-1391-4d5a-b0ad-fb29c317877d"},"vehicle_type_id":"4","last_reported":1728540796,"current_range_meters":13600,"station_id":"cpo3342slgdg3j2ifvpg","pricing_plan_id":"cebpf4jnsgd1na2vs0mg"},{"bike_id":"f6963f46-5e73-42df-9f9e-8258ce538093","system_id":"levelo_inurba_marseille","lat":43.25492,"lon":5.37647,"is_reserved":false,"is_disabled":false,"rental_uris":{"android":"levelo://app?vid=f6963f46-5e73-42df-9f9e-8258ce538093","ios":"levelo://app?vid=f6963f46-5e73-42df-9f9e-8258ce538093"},"vehicle_type_id":"4","last_reported":1728540796,"current_range_meters":33200,"station_id":"ce4bhh12rcd13ifvqff0","pricing_plan_id":"cebpf4jnsgd1na2vs0mg"},{"bike_id":"3815e933-e20e-4440-bbdd-11c9132eb606","system_id":"levelo_inurba_marseille","lat":43.336,"lon":5.41027,"is_reserved":false,"is_disabled":false,"rental_uris":{"android":"levelo://app?vid=3815e933-e20e-4440-bbdd-11c9132eb606","ios":"levelo://app?vid=3815e933-e20e-4440-bbdd-11c9132eb606"},"vehicle_type_id":"4","last_reported":1728540796,"current_range_meters":39200,"station_id":"ce4bhqh2rcd13ifvqhmg","pricing_plan_id":"cebpf4jnsgd1na2vs0mg"},{"bike_id":"b7507c69-0bc0-4e9e-9023-7bda0a81f93b","system_id":"levelo_inurba_marseille","lat":43.30553,"lon":5.3654,"is_reserved":false,"is_disabled":false,"rental_uris":{"android":"levelo://app?vid=b7507c69-0bc0-4e9e-9023-7bda0a81f93b","ios":"levelo://app?vid=b7507c69-0bc0-4e9e-9023-7bda0a81f93b"},"vehicle_type_id":"4","last_reported":1728540796,"current_range_meters":38800,"station_id":"ce4bgs12rcd13ifvqcag","pricing_plan_id":"cebpf4jnsgd1na2vs0mg"},{"bike_id":"cffa0fb1-252e-49d0-9a3c-70e95ff36166","system_id":"levelo_inurba_marseille","lat":43.26959,"lon":5.38646,"is_reserved":false,"is_disabled":false,"rental_uris":{"android":"levelo://app?vid=cffa0fb1-252e-49d0-9a3c-70e95ff36166","ios":"levelo://app?vid=cffa0fb1-252e-49d0-9a3c-70e95ff36166"},"vehicle_type_id":"4","last_reported":1728540796,"current_range_meters":34800,"station_id":"ce4bhh92rcd13ifvqfh0","pricing_plan_id":"cebpf4jnsgd1na2vs0mg"},{"bike_id":"ad9314fe-c5cb-4bca-b410-41e675a101a4","system_id":"levelo_inurba_marseille","lat":43.33755,"lon":5.37444,"is_reserved":false,"is_disabled":false,"rental_uris":{"android":"levelo://app?vid=ad9314fe-c5cb-4bca-b410-41e675a101a4","ios":"levelo://app?vid=ad9314fe-c5cb-4bca-b410-41e675a101a4"},"vehicle_type_id":"4","last_reported":1728540796,"current_range_meters":20000,"station_id":"","pricing_plan_id":"cebpf4jnsgd1na2vs0mg"},{"bike_id":"432008ef-61d6-4211-bcc5-bc5240595fc3","system_id":"levelo_inurba_marseille","lat":43.28349,"lon":5.38116,"is_reserved":false,"is_disabled":false,"rental_uris":{"android":"levelo://app?vid=432008ef-61d6-4211-bcc5-bc5240595fc3","ios":"levelo://app?vid=432008ef-61d6-4211-bcc5-bc5240595fc3"},"vehicle_type_id":"4","last_reported":1728540796,"current_range_meters":32000,"station_id":"ce4bh412rcd13ifvqdr0","pricing_plan_id":"cebpf4jnsgd1na2vs0mg"},{"bike_id":"f156d4d0-3503-49f8-8671-c8fd3b9f5299","system_id":"levelo_inurba_marseille","lat":43.24081,"lon":5.37758,"is_reserved":false,"is_disabled":false,"rental_uris":{"android":"levelo://app?vid=f156d4d0-3503-49f8-8671-c8fd3b9f5299","ios":"levelo://app?vid=f156d4d0-3503-49f8-8671-c8fd3b9f5299"},"vehicle_type_id":"4","last_reported":1728540796,"current_range_meters":38400,"station_id":"ce4bhnp2rcd13ifvqgvg","pricing_plan_id":"cebpf4jnsgd1na2vs0mg"},{"bike_id":"101d89f9-c6c1-46de-b9db-b649498f27b4","system_id":"levelo_inurba_marseille","lat":43.32534,"lon":5.4143,"is_reserved":false,"is_disabled":false,"rental_uris":{"android":"levelo://app?vid=101d89f9-c6c1-46de-b9db-b649498f27b4","ios":"levelo://app?vid=101d89f9-c6c1-46de-b9db-b649498f27b4"},"vehicle_type_id":"4","last_reported":1728540796,"current_range_meters":11200,"station_id":"ce4bhq12rcd13ifvqhhg","pricing_plan_id":"cebpf4jnsgd1na2vs0mg"},{"bike_id":"3839644e-7a47-449e-b381-26f0d2401dfd","system_id":"levelo_inurba_marseille","lat":43.29726,"lon":5.37692,"is_reserved":false,"is_disabled":false,"rental_uris":{"android":"levelo://app?vid=3839644e-7a47-449e-b381-26f0d2401dfd","ios":"levelo://app?vid=3839644e-7a47-449e-b381-26f0d2401dfd"},"vehicle_type_id":"4","last_reported":1728540796,"current_range_meters":38800,"station_id":"ce4bgkh2rcd13ifvqbl0","pricing_plan_id":"cebpf4jnsgd1na2vs0mg"},{"bike_id":"b0204589-2685-4d1a-b68b-ce0b8ac3ca33","system_id":"levelo_inurba_marseille","lat":43.30796,"lon":5.43521,"is_reserved":false,"is_disabled":false,"rental_uris":{"android":"levelo://app?vid=b0204589-2685-4d1a-b68b-ce0b8ac3ca33","ios":"levelo://app?vid=b0204589-2685-4d1a-b68b-ce0b8ac3ca33"},"vehicle_type_id":"4","last_reported":1728540796,"current_range_meters":28800,"station_id":"ce4bhph2rcd13ifvqheg","pricing_plan_id":"cebpf4jnsgd1na2vs0mg"},{"bike_id":"796930d2-49b5-4d90-9741-617e85c90984","system_id":"levelo_inurba_marseille","lat":43.31344,"lon":5.36696,"is_reserved":false,"is_disabled":false,"rental_uris":{"android":"levelo://app?vid=796930d2-49b5-4d90-9741-617e85c90984","ios":"levelo://app?vid=796930d2-49b5-4d90-9741-617e85c90984"},"vehicle_type_id":"4","last_reported":1728540796,"current_range_meters":28800,"station_id":"ce4bgr92rcd13ifvqc6g","pricing_plan_id":"cebpf4jnsgd1na2vs0mg"},{"bike_id":"07a11765-742b-4120-a741-292878830c33","system_id":"levelo_inurba_marseille","lat":43.33607,"lon":5.41033,"is_reserved":false,"is_disabled":false,"rental_uris":{"android":"levelo://app?vid=07a11765-742b-4120-a741-292878830c33","ios":"levelo://app?vid=07a11765-742b-4120-a741-292878830c33"},"vehicle_type_id":"4","last_reported":1728540796,"current_range_meters":27600,"station_id":"ce4bhqh2rcd13ifvqhmg","pricing_plan_id":"cebpf4jnsgd1na2vs0mg"},{"bike_id":"62f352ec-e233-4d7f-8753-6a5615214777","system_id":"levelo_inurba_marseille","lat":43.322888,"lon":5.38273,"is_reserved":false,"is_disabled":false,"rental_uris":{"android":"levelo://app?vid=62f352ec-e233-4d7f-8753-6a5615214777","ios":"levelo://app?vid=62f352ec-e233-4d7f-8753-6a5615214777"},"vehicle_type_id":"4","last_reported":1728540796,"current_range_meters":38800,"station_id":"ce4bhr12rcd13ifvqhqg","pricing_plan_id":"cebpf4jnsgd1na2vs0mg"},{"bike_id":"51133b7f-82a8-4321-a71d-82a632b1a824","system_id":"levelo_inurba_marseille","lat":43.28326,"lon":5.38084,"is_reserved":false,"is_disabled":false,"rental_uris":{"android":"levelo://app?vid=51133b7f-82a8-4321-a71d-82a632b1a824","ios":"levelo://app?vid=51133b7f-82a8-4321-a71d-82a632b1a824"},"vehicle_type_id":"4","last_reported":1728540796,"current_range_meters":31200,"station_id":"ce4bh412rcd13ifvqdr0","pricing_plan_id":"cebpf4jnsgd1na2vs0mg"},{"bike_id":"07be1c92-c360-4d9f-b2b2-c7fc01eea3a1","system_id":"levelo_inurba_marseille","lat":43.29006,"lon":5.35602,"is_reserved":false,"is_disabled":false,"rental_uris":{"android":"levelo://app?vid=07be1c92-c360-4d9f-b2b2-c7fc01eea3a1","ios":"levelo://app?vid=07be1c92-c360-4d9f-b2b2-c7fc01eea3a1"},"vehicle_type_id":"4","last_reported":1728540796,"current_range_meters":37600,"station_id":"ce4bhb92rcd13ifvqen0","pricing_plan_id":"cebpf4jnsgd1na2vs0mg"},{"bike_id":"0ba0b2e2-01ef-437e-9576-dbde08c306f9","system_id":"levelo_inurba_marseille","lat":43.33749,"lon":5.37442,"is_reserved":false,"is_disabled":false,"rental_uris":{"android":"levelo://app?vid=0ba0b2e2-01ef-437e-9576-dbde08c306f9","ios":"levelo://app?vid=0ba0b2e2-01ef-437e-9576-dbde08c306f9"},"vehicle_type_id":"4","last_reported":1728540796,"current_range_meters":24800,"station_id":"ce4rr2p2rcd13i802rgg","pricing_plan_id":"cebpf4jnsgd1na2vs0mg"},{"bike_id":"04e8ed20-ed17-4020-9ad4-5f8e7d0512b2","system_id":"levelo_inurba_marseille","lat":43.28855,"lon":5.35866,"is_reserved":false,"is_disabled":false,"rental_uris":{"android":"levelo://app?vid=04e8ed20-ed17-4020-9ad4-5f8e7d0512b2","ios":"levelo://app?vid=04e8ed20-ed17-4020-9ad4-5f8e7d0512b2"},"vehicle_type_id":"4","last_reported":1728540796,"current_range_meters":38800,"station_id":"ce4bhb12rcd13ifvqem0","pricing_plan_id":"cebpf4jnsgd1na2vs0mg"},{"bike_id":"1e5ceaa4-b0ef-42f7-a1f6-825323991d2e","system_id":"levelo_inurba_marseille","lat":43.26569,"lon":5.3901,"is_reserved":false,"is_disabled":false,"rental_uris":{"android":"levelo://app?vid=1e5ceaa4-b0ef-42f7-a1f6-825323991d2e","ios":"levelo://app?vid=1e5ceaa4-b0ef-42f7-a1f6-825323991d2e"},"vehicle_type_id":"4","last_reported":1728540796,"current_range_meters":32000,"station_id":"ce4bhe12rcd13ifvqf30","pricing_plan_id":"cebpf4jnsgd1na2vs0mg"},{"bike_id":"1f895dbc-3965-4492-aefc-9655a2c81753","system_id":"levelo_inurba_marseille","lat":43.30597,"lon":5.40088,"is_reserved":false,"is_disabled":false,"rental_uris":{"android":"levelo://app?vid=1f895dbc-3965-4492-aefc-9655a2c81753","ios":"levelo://app?vid=1f895dbc-3965-4492-aefc-9655a2c81753"},"vehicle_type_id":"4","last_reported":1728540796,"current_range_meters":22000,"station_id":"ce4bh112rcd13ifvqda0","pricing_plan_id":"cebpf4jnsgd1na2vs0mg"},{"bike_id":"0e9c6b43-7406-41df-bc67-45c54d115be0","system_id":"levelo_inurba_marseille","lat":43.26576,"lon":5.39013,"is_reserved":false,"is_disabled":false,"rental_uris":{"android":"levelo://app?vid=0e9c6b43-7406-41df-bc67-45c54d115be0","ios":"levelo://app?vid=0e9c6b43-7406-41df-bc67-45c54d115be0"},"vehicle_type_id":"4","last_reported":1728540796,"current_range_meters":38800,"station_id":"ce4bhe12rcd13ifvqf30","pricing_plan_id":"cebpf4jnsgd1na2vs0mg"},{"bike_id":"b4c1e98c-d728-4bf5-8db0-eb7dbfeedbee","system_id":"levelo_inurba_marseille","lat":43.2767,"lon":5.38894,"is_reserved":false,"is_disabled":false,"rental_uris":{"android":"levelo://app?vid=b4c1e98c-d728-4bf5-8db0-eb7dbfeedbee","ios":"levelo://app?vid=b4c1e98c-d728-4bf5-8db0-eb7dbfeedbee"},"vehicle_type_id":"4","last_reported":1728540796,"current_range_meters":4800,"station_id":"ce4bhi12rcd13ifvqfo0","pricing_plan_id":"cebpf4jnsgd1na2vs0mg"},{"bike_id":"438bc1cc-b4d3-4022-9900-961794a0508c","system_id":"levelo_inurba_marseille","lat":43.29959,"lon":5.41318,"is_reserved":false,"is_disabled":false,"rental_uris":{"android":"levelo://app?vid=438bc1cc-b4d3-4022-9900-961794a0508c","ios":"levelo://app?vid=438bc1cc-b4d3-4022-9900-961794a0508c"},"vehicle_type_id":"4","last_reported":1728540796,"current_range_meters":34000,"station_id":"ce4bhp12rcd13ifvqh9g","pricing_plan_id":"cebpf4jnsgd1na2vs0mg"},{"bike_id":"9ec2e3a7-901e-4bba-b293-ac8ab8c8b7be","system_id":"levelo_inurba_marseille","lat":43.2407,"lon":5.37765,"is_reserved":false,"is_disabled":false,"rental_uris":{"android":"levelo://app?vid=9ec2e3a7-901e-4bba-b293-ac8ab8c8b7be","ios":"levelo://app?vid=9ec2e3a7-901e-4bba-b293-ac8ab8c8b7be"},"vehicle_type_id":"4","last_reported":1728540796,"current_range_meters":18000,"station_id":"ce4bhnp2rcd13ifvqgvg","pricing_plan_id":"cebpf4jnsgd1na2vs0mg"},{"bike_id":"ca816f8a-b6cf-4882-b10a-b1fb99b86dc4","system_id":"levelo_inurba_marseille","lat":43.27497,"lon":5.42451,"is_reserved":false,"is_disabled":false,"rental_uris":{"android":"levelo://app?vid=ca816f8a-b6cf-4882-b10a-b1fb99b86dc4","ios":"levelo://app?vid=ca816f8a-b6cf-4882-b10a-b1fb99b86dc4"},"vehicle_type_id":"4","last_reported":1728540796,"current_range_meters":23200,"station_id":"ce4bhn92rcd13ifvqgrg","pricing_plan_id":"cebpf4jnsgd1na2vs0mg"},{"bike_id":"8d5c98db-58b9-4471-8bba-f07f779135d3","system_id":"levelo_inurba_marseille","lat":43.28355,"lon":5.38105,"is_reserved":false,"is_disabled":false,"rental_uris":{"android":"levelo://app?vid=8d5c98db-58b9-4471-8bba-f07f779135d3","ios":"levelo://app?vid=8d5c98db-58b9-4471-8bba-f07f779135d3"},"vehicle_type_id":"4","last_reported":1728540796,"current_range_meters":34000,"station_id":"ce4bh412rcd13ifvqdr0","pricing_plan_id":"cebpf4jnsgd1na2vs0mg"},{"bike_id":"fae5338b-4f18-4ee7-b5e4-a9b30aa1aef2","system_id":"levelo_inurba_marseille","lat":43.27676,"lon":5.38873,"is_reserved":false,"is_disabled":false,"rental_uris":{"android":"levelo://app?vid=fae5338b-4f18-4ee7-b5e4-a9b30aa1aef2","ios":"levelo://app?vid=fae5338b-4f18-4ee7-b5e4-a9b30aa1aef2"},"vehicle_type_id":"4","last_reported":1728540796,"current_range_meters":28000,"station_id":"ce4bhi12rcd13ifvqfo0","pricing_plan_id":"cebpf4jnsgd1na2vs0mg"},{"bike_id":"9c9dc537-21f6-4e0e-a48b-639a402b9364","system_id":"levelo_inurba_marseille","lat":43.32344,"lon":5.4062,"is_reserved":false,"is_disabled":false,"rental_uris":{"android":"levelo://app?vid=9c9dc537-21f6-4e0e-a48b-639a402b9364","ios":"levelo://app?vid=9c9dc537-21f6-4e0e-a48b-639a402b9364"},"vehicle_type_id":"4","last_reported":1728540796,"current_range_meters":38400,"station_id":"ce4bhq92rcd13ifvqhjg","pricing_plan_id":"cebpf4jnsgd1na2vs0mg"},{"bike_id":"52104642-a800-46c3-987a-472577e3d292","system_id":"levelo_inurba_marseille","lat":43.2888,"lon":5.35854,"is_reserved":false,"is_disabled":false,"rental_uris":{"android":"levelo://app?vid=52104642-a800-46c3-987a-472577e3d292","ios":"levelo://app?vid=52104642-a800-46c3-987a-472577e3d292"},"vehicle_type_id":"4","last_reported":1728540796,"current_range_meters":38000,"station_id":"ce4bhb12rcd13ifvqem0","pricing_plan_id":"cebpf4jnsgd1na2vs0mg"},{"bike_id":"251f6cc8-15ca-45c5-a79f-6f605c72fafc","system_id":"levelo_inurba_marseille","lat":43.2781,"lon":5.40727,"is_reserved":false,"is_disabled":false,"rental_uris":{"android":"levelo://app?vid=251f6cc8-15ca-45c5-a79f-6f605c72fafc","ios":"levelo://app?vid=251f6cc8-15ca-45c5-a79f-6f605c72fafc"},"vehicle_type_id":"4","last_reported":1728540796,"current_range_meters":38000,"station_id":"ce4bhnh2rcd13ifvqgtg","pricing_plan_id":"cebpf4jnsgd1na2vs0mg"},{"bike_id":"b6425a15-6725-4907-a397-a238f746c683","system_id":"levelo_inurba_marseille","lat":43.28941,"lon":5.39637,"is_reserved":false,"is_disabled":false,"rental_uris":{"android":"levelo://app?vid=b6425a15-6725-4907-a397-a238f746c683","ios":"levelo://app?vid=b6425a15-6725-4907-a397-a238f746c683"},"vehicle_type_id":"4","last_reported":1728540796,"current_range_meters":8800,"station_id":"ce4bh3h2rcd13ifvqdn0","pricing_plan_id":"cebpf4jnsgd1na2vs0mg"},{"bike_id":"29199244-d70c-4782-84db-d2ced7e599e4","system_id":"levelo_inurba_marseille","lat":43.29638,"lon":5.40595,"is_reserved":false,"is_disabled":false,"rental_uris":{"android":"levelo://app?vid=29199244-d70c-4782-84db-d2ced7e599e4","ios":"levelo://app?vid=29199244-d70c-4782-84db-d2ced7e599e4"},"vehicle_type_id":"4","last_reported":1728540796,"current_range_meters":31200,"station_id":"ce4bh0h2rcd13ifvqd60","pricing_plan_id":"cebpf4jnsgd1na2vs0mg"},{"bike_id":"651eb07f-27a8-44af-962d-d8fd68bde4bd","system_id":"levelo_inurba_marseille","lat":43.29583,"lon":5.36746,"is_reserved":false,"is_disabled":false,"rental_uris":{"android":"levelo://app?vid=651eb07f-27a8-44af-962d-d8fd68bde4bd","ios":"levelo://app?vid=651eb07f-27a8-44af-962d-d8fd68bde4bd"},"vehicle_type_id":"4","last_reported":1728540796,"current_range_meters":36800,"station_id":"ce4bgph2rcd13ifvqc2g","pricing_plan_id":"cebpf4jnsgd1na2vs0mg"},{"bike_id":"1e4edb65-ef41-498c-957a-f24a17b44f6e","system_id":"levelo_inurba_marseille","lat":43.28942,"lon":5.36397,"is_reserved":false,"is_disabled":false,"rental_uris":{"android":"levelo://app?vid=1e4edb65-ef41-498c-957a-f24a17b44f6e","ios":"levelo://app?vid=1e4edb65-ef41-498c-957a-f24a17b44f6e"},"vehicle_type_id":"4","last_reported":1728540796,"current_range_meters":36000,"station_id":"ce4bhc92rcd13ifvqetg","pricing_plan_id":"cebpf4jnsgd1na2vs0mg"},{"bike_id":"dc0ad16b-b08d-47a1-91d2-7b0d66ca6146","system_id":"levelo_inurba_marseille","lat":43.3026,"lon":5.40054,"is_reserved":false,"is_disabled":false,"rental_uris":{"android":"levelo://app?vid=dc0ad16b-b08d-47a1-91d2-7b0d66ca6146","ios":"levelo://app?vid=dc0ad16b-b08d-47a1-91d2-7b0d66ca6146"},"vehicle_type_id":"4","last_reported":1728540796,"current_range_meters":25600,"station_id":"ce4bgvh2rcd13ifvqcs0","pricing_plan_id":"cebpf4jnsgd1na2vs0mg"},{"bike_id":"98930f40-4776-4190-b913-e4ed8efc4310","system_id":"levelo_inurba_marseille","lat":43.2835,"lon":5.38096,"is_reserved":false,"is_disabled":false,"rental_uris":{"android":"levelo://app?vid=98930f40-4776-4190-b913-e4ed8efc4310","ios":"levelo://app?vid=98930f40-4776-4190-b913-e4ed8efc4310"},"vehicle_type_id":"4","last_reported":1728540796,"current_range_meters":38000,"station_id":"ce4bh412rcd13ifvqdr0","pricing_plan_id":"cebpf4jnsgd1na2vs0mg"},{"bike_id":"8ae8bbf4-7502-4e26-9a9b-508af29fc57f","system_id":"levelo_inurba_marseille","lat":43.30168,"lon":5.38077,"is_reserved":false,"is_disabled":false,"rental_uris":{"android":"levelo://app?vid=8ae8bbf4-7502-4e26-9a9b-508af29fc57f","ios":"levelo://app?vid=8ae8bbf4-7502-4e26-9a9b-508af29fc57f"},"vehicle_type_id":"4","last_reported":1728540796,"current_range_meters":30000,"station_id":"ce4bgjp2rcd13ifvqbh0","pricing_plan_id":"cebpf4jnsgd1na2vs0mg"},{"bike_id":"ed3cf72a-10e7-4c01-b0b8-a6a611853d67","system_id":"levelo_inurba_marseille","lat":43.32341,"lon":5.40617,"is_reserved":false,"is_disabled":false,"rental_uris":{"android":"levelo://app?vid=ed3cf72a-10e7-4c01-b0b8-a6a611853d67","ios":"levelo://app?vid=ed3cf72a-10e7-4c01-b0b8-a6a611853d67"},"vehicle_type_id":"4","last_reported":1728540796,"current_range_meters":36800,"station_id":"ce4bhq92rcd13ifvqhjg","pricing_plan_id":"cebpf4jnsgd1na2vs0mg"},{"bike_id":"a4d9193f-992e-4cd0-8a97-afb4e0659ba3","system_id":"levelo_inurba_marseille","lat":43.326595,"lon":5.409881,"is_reserved":false,"is_disabled":false,"rental_uris":{"android":"levelo://app?vid=a4d9193f-992e-4cd0-8a97-afb4e0659ba3","ios":"levelo://app?vid=a4d9193f-992e-4cd0-8a97-afb4e0659ba3"},"vehicle_type_id":"4","last_reported":1728540796,"current_range_meters":38800,"station_id":"ce4bhpp2rcd13ifvqhgg","pricing_plan_id":"cebpf4jnsgd1na2vs0mg"},{"bike_id":"94e21a69-ba2b-4e5b-a9e4-7687309b5a29","system_id":"levelo_inurba_marseille","lat":43.24078,"lon":5.37759,"is_reserved":false,"is_disabled":false,"rental_uris":{"android":"levelo://app?vid=94e21a69-ba2b-4e5b-a9e4-7687309b5a29","ios":"levelo://app?vid=94e21a69-ba2b-4e5b-a9e4-7687309b5a29"},"vehicle_type_id":"4","last_reported":1728540796,"current_range_meters":38800,"station_id":"ce4bhnp2rcd13ifvqgvg","pricing_plan_id":"cebpf4jnsgd1na2vs0mg"},{"bike_id":"fb9d5853-6106-4305-98b9-26fbcb0d3942","system_id":"levelo_inurba_marseille","lat":43.28357,"lon":5.38107,"is_reserved":false,"is_disabled":false,"rental_uris":{"android":"levelo://app?vid=fb9d5853-6106-4305-98b9-26fbcb0d3942","ios":"levelo://app?vid=fb9d5853-6106-4305-98b9-26fbcb0d3942"},"vehicle_type_id":"4","last_reported":1728540796,"current_range_meters":30400,"station_id":"ce4bh412rcd13ifvqdr0","pricing_plan_id":"cebpf4jnsgd1na2vs0mg"},{"bike_id":"ed768d60-84aa-490d-855b-8634f718682a","system_id":"levelo_inurba_marseille","lat":43.30596,"lon":5.39363,"is_reserved":false,"is_disabled":false,"rental_uris":{"android":"levelo://app?vid=ed768d60-84aa-490d-855b-8634f718682a","ios":"levelo://app?vid=ed768d60-84aa-490d-855b-8634f718682a"},"vehicle_type_id":"4","last_reported":1728540796,"current_range_meters":36800,"station_id":"ce4bh0p2rcd13ifvqd80","pricing_plan_id":"cebpf4jnsgd1na2vs0mg"},