{"last_updated":1727576272,"ttl":60,"version":"2.2","data":{"bikes":[{"bike_id":"e003e6d5-3a4f-4fa6-b67b-c95797b7f8ee","system_id":"levelo_inurba_marseille","lat":43.29008,"lon":5.3562,"is_reserved":false,"is_disabled":false,"rental_uris":{"android":"levelo://app?vid=e003e6d5-3a4f-4fa6-b67b-c95797b7f8ee","ios":"levelo://app?vid=e003e6d5-3a4f-4fa6-b67b-c95797b7f8ee"},"vehicle_type_id":"4","last_reported":1727576272,"current_range_meters":22000,"station_id":"ce4bhb92rcd13ifvqen0","pricing_plan_id":"cebpf4jnsgd1na2vs0mg"},{"bike_id":"6103b553-d24f-40fb-9867-6ef9176545d9","system_id":"levelo_inurba_marseille","lat":43.2791,"lon":5.39572,"is_reserved":false,"is_disabled":false,"rental_uris":{"android":"levelo://app?vid=6103b553-d24f-40fb-9867-6ef9176545d9","ios":"levelo://app?vid=6103b553-d24f-40fb-9867-6ef9176545d9"},"vehicle_type_id":"4","last_reported":1727576272,"current_range_meters":38400,"station_id":"ce4bhf92rcd13ifvqf40","pricing_plan_id":"cebpf4jnsgd1na2vs0mg"},{"bike_id":"1f67e8a5-7545-4f70-9a7b-0b7f6b5a2813","system_id":"levelo_inurba_marseille","lat":43.28377,"lon":5.3864,"is_reserved":false,"is_disabled":false,"rental_uris":{"android":"levelo://app?vid=1f67e8a5-7545-4f70-9a7b-0b7f6b5a2813","ios":"levelo://app?vid=1f67e8a5-7545-4f70-9a7b-0b7f6b5a2813"},"vehicle_type_id":"4","last_reported":1727576272,"current_range_meters":15200,"station_id":"ce4bh492rcd13ifvqdvg","pricing_plan_id":"cebpf4jnsgd1na2vs0mg"},{"bike_id":"409f8e56-7b05-4fc8-983d-fadc6468525f","system_id":"levelo_inurba_marseille","lat":43.28454,"lon":5.39159,"is_reserved":false,"is_disabled":false,"rental_uris":{"android":"levelo://app?vid=409f8e56-7b05-4fc8-983d-fadc6468525f","ios":"levelo://app?vid=409f8e56-7b05-4fc8-983d-fadc6468525f"},"vehicle_type_id":"4","last_reported":1727576272,"current_range_meters":38800,"station_id":"ce4bhoh2rcd13ifvqh5g","pricing_plan_id":"cebpf4jnsgd1na2vs0mg"},{"bike_id":"d3c2fe0e-3f4e-4303-ae23-7f25f368fade","system_id":"levelo_inurba_marseille","lat":43.323693,"lon":5.388813,"is_reserved":false,"is_disabled":false,"rental_uris":{"android":"levelo://app?vid=d3c2fe0e-3f4e-4303-ae23-7f25f368fade","ios":"levelo://app?vid=d3c2fe0e-3f4e-4303-ae23-7f25f368fade"},"vehicle_type_id":"4","last_reported":1727576272,"current_range_meters":8800,"station_id":"ce4bhqp2rcd13ifvqhog","pricing_plan_id":"cebpf4jnsgd1na2vs0mg"},{"bike_id":"acf0da7d-e6b3-48a2-8905-5de8bc3b795a","system_id":"levelo_inurba_marseille","lat":43.31991,"lon":5.38134,"is_reserved":false,"is_disabled":false,"rental_uris":{"android":"levelo://app?vid=acf0da7d-e6b3-48a2-8905-5de8bc3b795a","ios":"levelo://app?vid=acf0da7d-e6b3-48a2-8905-5de8bc3b795a"},"vehicle_type_id":"4","last_reported":1727576272,"current_range_meters":10000,"station_id":"ce4bhr12rcd13ifvqhpg","pricing_plan_id":"cebpf4jnsgd1na2vs0mg"},{"bike_id":"0ea9e4c4-cc08-41d9-862d-a80f7d54740c","system_id":"levelo_inurba_marseille","lat":43.32236,"lon":5.38367,"is_reserved":false,"is_disabled":false,"rental_uris":{"android":"levelo://app?vid=0ea9e4c4-cc08-41d9-862d-a80f7d54740c","ios":"levelo://app?vid=0ea9e4c4-cc08-41d9-862d-a80f7d54740c"},"vehicle_type_id":"4","last_reported":1727576272,"current_range_meters":38800,"station_id":"","pricing_plan_id":"cebpf4jnsgd1na2vs0mg"},{"bike_id":"61d2ac86-dd9c-46d1-86f5-897af05c5375","system_id":"levelo_inurba_marseille","lat":43.30415,"lon":5.4129,"is_reserved":false,"is_disabled":false,"rental_uris":{"android":"levelo://app?vid=61d2ac86-dd9c-46d1-86f5-897af05c5375","ios":"levelo://app?vid=61d2ac86-dd9c-46d1-86f5-897af05c5375"},"vehicle_type_id":"4","last_reported":1727576272,"current_range_meters":32000,"station_id":"ce4bhop2rcd13ifvqh8g","pricing_plan_id":"cebpf4jnsgd1na2vs0mg"},{"bike_id":"a7f78ba6-f302-4191-9898-adba7098a8f9","system_id":"levelo_inurba_marseille","lat":43.24997,"lon":5.38943,"is_reserved":false,"is_disabled":false,"rental_uris":{"android":"levelo://app?vid=a7f78ba6-f302-4191-9898-adba7098a8f9","ios":"levelo://app?vid=a7f78ba6-f302-4191-9898-adba7098a8f9"},"vehicle_type_id":"4","last_reported":1727576272,"current_range_meters":14800,"station_id":"ce4bhgp2rcd13ifvqfd0","pricing_plan_id":"cebpf4jnsgd1na2vs0mg"},{"bike_id":"2d3249f7-ef4c-4fe0-ab5a-b79d1f9efe86","system_id":"levelo_inurba_marseille","lat":43.29184,"lon":5.35795,"is_reserved":false,"is_disabled":false,"rental_uris":{"android":"levelo://app?vid=2d3249f7-ef4c-4fe0-ab5a-b79d1f9efe86","ios":"levelo://app?vid=2d3249f7-ef4c-4fe0-ab5a-b79d1f9efe86"},"vehicle_type_id":"4","last_reported":1727576272,"current_range_meters":38800,"station_id":"ce4bhb12rcd13ifvqel0","pricing_plan_id":"cebpf4jnsgd1na2vs0mg"},{"bike_id":"30267a5c-36b3-47f8-be66-a3c926903716","system_id":"levelo_inurba_marseille","lat":43.27626,"lon":5.36128,"is_reserved":false,"is_disabled":false,"rental_uris":{"android":"levelo://app?vid=30267a5c-36b3-47f8-be66-a3c926903716","ios":"levelo://app?vid=30267a5c-36b3-47f8-be66-a3c926903716"},"vehicle_type_id":"4","last_reported":1727576272,"current_range_meters":37600,"station_id":"ce4bgj92rcd13ifvqbe0","pricing_plan_id":"cebpf4jnsgd1na2vs0mg"},{"bike_id":"e8f339a7-5e65-4275-8576-718fc09f5e43","system_id":"levelo_inurba_marseille","lat":43.27619,"lon":5.36104,"is_reserved":false,"is_disabled":false,"rental_uris":{"android":"levelo://app?vid=e8f339a7-5e65-4275-8576-718fc09f5e43","ios":"levelo://app?vid=e8f339a7-5e65-4275-8576-718fc09f5e43"},"vehicle_type_id":"4","last_reported":1727576272,"current_range_meters":38800,"station_id":"ce4bgj92rcd13ifvqbe0","pricing_plan_id":"cebpf4jnsgd1na2vs0mg"},{"bike_id":"d843e2e7-e3ed-4209-b66b-b3c4139c8028","system_id":"levelo_inurba_marseille","lat":43.29896,"lon":5.43664,"is_reserved":false,"is_disabled":false,"rental_uris":{"android":"levelo://app?vid=d843e2e7-e3ed-4209-b66b-b3c4139c8028","ios":"levelo://app?vid=d843e2e7-e3ed-4209-b66b-b3c4139c8028"},"vehicle_type_id":"4","last_reported":1727576272,"current_range_meters":38800,"station_id":"ce4bhpp2rcd13ifvqhfg","pricing_plan_id":"cebpf4jnsgd1na2vs0mg"},{"bike_id":"9ae9a0e9-1fff-4bed-b39c-08cfa9601a74","system_id":"levelo_inurba_marseille","lat":43.336,"lon":5.4102,"is_reserved":false,"is_disabled":false,"rental_uris":{"android":"levelo://app?vid=9ae9a0e9-1fff-4bed-b39c-08cfa9601a74","ios":"levelo://app?vid=9ae9a0e9-1fff-4bed-b39c-08cfa9601a74"},"vehicle_type_id":"4","last_reported":1727576272,"current_range_meters":39200,"station_id":"ce4bhqh2rcd13ifvqhmg","pricing_plan_id":"cebpf4jnsgd1na2vs0mg"},{"bike_id":"9b5f5642-2491-4749-8ae4-e6530ea426af","system_id":"levelo_inurba_marseille","lat":43.24395,"lon":5.37056,"is_reserved":false,"is_disabled":false,"rental_uris":{"android":"levelo://app?vid=9b5f5642-2491-4749-8ae4-e6530ea426af","ios":"levelo://app?vid=9b5f5642-2491-4749-8ae4-e6530ea426af"},"vehicle_type_id":"4","last_reported":1727576272,"current_range_meters":38000,"station_id":"ce4bhhh2rcd13ifvqfk0","pricing_plan_id":"cebpf4jnsgd1na2vs0mg"},{"bike_id":"e673b20f-f89b-49a7-a8fd-a8caf9fb8574","system_id":"levelo_inurba_marseille","lat":43.31174,"lon":5.38741,"is_reserved":false,"is_disabled":false,"rental_uris":{"android":"levelo://app?vid=e673b20f-f89b-49a7-a8fd-a8caf9fb8574","ios":"levelo://app?vid=e673b20f-f89b-49a7-a8fd-a8caf9fb8574"},"vehicle_type_id":"4","last_reported":1727576272,"current_range_meters":38800,"station_id":"ce4bgv12rcd13ifvqcp0","pricing_plan_id":"cebpf4jnsgd1na2vs0mg"},{"bike_id":"4a5497a0-697e-4d67-ae71-268ffa91ceb7","system_id":"levelo_inurba_marseille","lat":43.31076,"lon":5.38353,"is_reserved":false,"is_disabled":false,"rental_uris":{"android":"levelo://app?vid=4a5497a0-697e-4d67-ae71-268ffa91ceb7","ios":"levelo://app?vid=4a5497a0-697e-4d67-ae71-268ffa91ceb7"},"vehicle_type_id":"4","last_reported":1727576272,"current_range_meters":32000,"station_id":"ce4bgv92rcd13ifvqcr0","pricing_plan_id":"cebpf4jnsgd1na2vs0mg"},{"bike_id":"9a47dcb1-61bb-411f-affb-55731480b4cc","system_id":"levelo_inurba_marseille","lat":43.23972,"lon":5.36616,"is_reserved":false,"is_disabled":false,"rental_uris":{"android":"levelo://app?vid=9a47dcb1-61bb-411f-affb-55731480b4cc","ios":"levelo://app?vid=9a47dcb1-61bb-411f-affb-55731480b4cc"},"vehicle_type_id":"4","last_reported":1727576272,"current_range_meters":38000,"station_id":"ce4bhi12rcd13ifvqfp0","pricing_plan_id":"cebpf4jnsgd1na2vs0mg"},{"bike_id":"2f504a24-b9a4-4f81-9caa-a1f3fb224178","system_id":"levelo_inurba_marseille","lat":43.27946,"lon":5.38678,"is_reserved":false,"is_disabled":false,"rental_uris":{"android":"levelo://app?vid=2f504a24-b9a4-4f81-9caa-a1f3fb224178","ios":"levelo://app?vid=2f504a24-b9a4-4f81-9caa-a1f3fb224178"},"vehicle_type_id":"4","last_reported":1727576272,"current_range_meters":6000,"station_id":"","pricing_plan_id":"cebpf4jnsgd1na2vs0mg"},{"bike_id":"3153391e-1fe5-447f-8d27-51a81c70d662","system_id":"levelo_inurba_marseille","lat":43.30249,"lon":5.40071,"is_reserved":false,"is_disabled":false,"rental_uris":{"android":"levelo://app?vid=3153391e-1fe5-447f-8d27-51a81c70d662","ios":"levelo://app?vid=3153391e-1fe5-447f-8d27-51a81c70d662"},"vehicle_type_id":"4","last_reported":1727576272,"current_range_meters":34000,"station_id":"ce4bgvh2rcd13ifvqcs0","pricing_plan_id":"cebpf4jnsgd1na2vs0mg"},{"bike_id":"737fadf7-7b87-481f-b8ab-a7b67cb77008","system_id":"levelo_inurba_marseille","lat":43.31074,"lon":5.3835,"is_reserved":false,"is_disabled":false,"rental_uris":{"android":"levelo://app?vid=737fadf7-7b87-481f-b8ab-a7b67cb77008","ios":"levelo://app?vid=737fadf7-7b87-481f-b8ab-a7b67cb77008"},"vehicle_type_id":"4","last_reported":1727576272,"current_range_meters":30400,"station_id":"ce4bgv92rcd13ifvqcr0","pricing_plan_id":"cebpf4jnsgd1na2vs0mg"},{"bike_id":"efb21e2e-5c82-417c-ab4e-ff8afd90868f","system_id":"levelo_inurba_marseille","lat":43.30806,"lon":5.43524,"is_reserved":false,"is_disabled":false,"rental_uris":{"android":"levelo://app?vid=efb21e2e-5c82-417c-ab4e-ff8afd90868f","ios":"levelo://app?vid=efb21e2e-5c82-417c-ab4e-ff8afd90868f"},"vehicle_type_id":"4","last_reported":1727576272,"current_range_meters":39200,"station_id":"ce4bhph2rcd13ifvqheg","pricing_plan_id":"cebpf4jnsgd1na2vs0mg"},{"bike_id":"a6563da1-c61b-46a8-896c-26658203a445","system_id":"levelo_inurba_marseille","lat":43.31171,"lon":5.38724,"is_reserved":false,"is_disabled":false,"rental_uris":{"android":"levelo://app?vid=a6563da1-c61b-46a8-896c-26658203a445","ios":"levelo://app?vid=a6563da1-c61b-46a8-896c-26658203a445"},"vehicle_type_id":"4","last_reported":1727576272,"current_range_meters":38800,"station_id":"ce4bgv12rcd13ifvqcp0","pricing_plan_id":"cebpf4jnsgd1na2vs0mg"},{"bike_id":"d1d01b91-0fce-4e2a-9c3d-345221636410","system_id":"levelo_inurba_marseille","lat":43.29631,"lon":5.40616,"is_reserved":false,"is_disabled":false,"rental_uris":{"android":"levelo://app?vid=d1d01b91-0fce-4e2a-9c3d-345221636410","ios":"levelo://app?vid=d1d01b91-0fce-4e2a-9c3d-345221636410"},"vehicle_type_id":"4","last_reported":1727576272,"current_range_meters":35600,"station_id":"ce4bh0h2rcd13ifvqd60","pricing_plan_id":"cebpf4jnsgd1na2vs0mg"},{"bike_id":"1f6af292-f791-4d6a-ad8a-6e72e5f55232","system_id":"levelo_inurba_marseille","lat":43.33603,"lon":5.41031,"is_reserved":false,"is_disabled":false,"rental_uris":{"android":"levelo://app?vid=1f6af292-f791-4d6a-ad8a-6e72e5f55232","ios":"levelo://app?vid=1f6af292-f791-4d6a-ad8a-6e72e5f55232"},"vehicle_type_id":"4","last_reported":1727576272,"current_range_meters":13600,"station_id":"ce4bhqh2rcd13ifvqhmg","pricing_plan_id":"cebpf4jnsgd1na2vs0mg"},{"bike_id":"65b9b958-16f1-411c-a2c7-3c2353d4d07c","system_id":"levelo_inurba_marseille","lat":43.31745,"lon":5.39032,"is_reserved":false,"is_disabled":false,"rental_uris":{"android":"levelo://app?vid=65b9b958-16f1-411c-a2c7-3c2353d4d07c","ios":"levelo://app?vid=65b9b958-16f1-411c-a2c7-3c2353d4d07c"},"vehicle_type_id":"4","last_reported":1727576272,"current_range_meters":37600,"station_id":"ce4bhqp2rcd13ifvqhng","pricing_plan_id":"cebpf4jnsgd1na2vs0mg"},{"bike_id":"1318bdc3-2821-40e3-a091-8f42f09db68d","system_id":"levelo_inurba_marseille","lat":43.23968,"lon":5.36634,"is_reserved":false,"is_disabled":false,"rental_uris":{"android":"levelo://app?vid=1318bdc3-2821-40e3-a091-8f42f09db68d","ios":"levelo://app?vid=1318bdc3-2821-40e3-a091-8f42f09db68d"},"vehicle_type_id":"4","last_reported":1727576272,"current_range_meters":38800,"station_id":"ce4bhi12rcd13ifvqfp0","pricing_plan_id":"cebpf4jnsgd1na2vs0mg"},{"bike_id":"a5564a9a-3d9e-405c-b3bf-4c7bb6eae734","system_id":"levelo_inurba_marseille","lat":43.2861,"lon":5.37067,"is_reserved":false,"is_disabled":false,"rental_uris":{"android":"levelo://app?vid=a5564a9a-3d9e-405c-b3bf-4c7bb6eae734","ios":"levelo://app?vid=a5564a9a-3d9e-405c-b3bf-4c7bb6eae734"},"vehicle_type_id":"4","last_reported":1727576272,"current_range_meters":36400,"station_id":"ce4bht12rcd13ifvqi60","pricing_plan_id":"cebpf4jnsgd1na2vs0mg"},{"bike_id":"068708ae-427f-4495-a710-061be8d8cd5c","system_id":"levelo_inurba_marseille","lat":43.28728,"lon":5.39989,"is_reserved":false,"is_disabled":false,"rental_uris":{"android":"levelo://app?vid=068708ae-427f-4495-a710-061be8d8cd5c","ios":"levelo://app?vid=068708ae-427f-4495-a710-061be8d8cd5c"},"vehicle_type_id":"4","last_reported":1727576272,"current_range_meters":19200,"station_id":"ce4bho92rcd13ifvqh3g","pricing_plan_id":"cebpf4jnsgd1na2vs0mg"},{"bike_id":"0521cc37-3a0f-4bc8-964a-96f026706e98","system_id":"levelo_inurba_marseille","lat":43.28026,"lon":5.36087,"is_reserved":false,"is_disabled":false,"rental_uris":{"android":"levelo://app?vid=0521cc37-3a0f-4bc8-964a-96f026706e98","ios":"levelo://app?vid=0521cc37-3a0f-4bc8-964a-96f026706e98"},"vehicle_type_id":"4","last_reported":1727576272,"current_range_meters":25600,"station_id":"","pricing_plan_id":"cebpf4jnsgd1na2vs0mg"},{"bike_id":"22b463e1-22d7-402e-91d5-802bf742d7f7","system_id":"levelo_inurba_marseille","lat":43.29549,"lon":5.42279,"is_reserved":false,"is_disabled":false,"rental_uris":{"android":"levelo://app?vid=22b463e1-22d7-402e-91d5-802bf742d7f7","ios":"levelo://app?vid=22b463e1-22d7-402e-91d5-802bf742d7f7"},"vehicle_type_id":"4","last_reported":1727576272,"current_range_meters":38800,"station_id":"ce4bhph2rcd13ifvqhdg","pricing_plan_id":"cebpf4jnsgd1na2vs0mg"},{"bike_id":"259a6f89-57c2-4fa2-bec1-62e847679bf7","system_id":"levelo_inurba_marseille","lat":43.28849,"lon":5.35866,"is_reserved":false,"is_disabled":false,"rental_uris":{"android":"levelo://app?vid=259a6f89-57c2-4fa2-bec1-62e847679bf7","ios":"levelo://app?vid=259a6f89-57c2-4fa2-bec1-62e847679bf7"},"vehicle_type_id":"4","last_reported":1727576272,"current_range_meters":32000,"station_id":"ce4bhb12rcd13ifvqem0","pricing_plan_id":"cebpf4jnsgd1na2vs0mg"},{"bike_id":"c529090c-5370-45e9-ba3f-f55585b5289b","system_id":"levelo_inurba_marseille","lat":43.24998,"lon":5.38927,"is_reserved":false,"is_disabled":false,"rental_uris":{"android":"levelo://app?vid=c529090c-5370-45e9-ba3f-f55585b5289b","ios":"levelo://app?vid=c529090c-5370-45e9-ba3f-f55585b5289b"},"vehicle_type_id":"4","last_reported":1727576272,"current_range_meters":29600,"station_id":"ce4bhgp2rcd13ifvqfd0","pricing_plan_id":"cebpf4jnsgd1na2vs0mg"},{"bike_id":"784443d8-15b4-46d7-b31f-5703c5b64e23","system_id":"levelo_inurba_marseille","lat":43.27373,"lon":5.36262,"is_reserved":false,"is_disabled":false,"rental_uris":{"android":"levelo://app?vid=784443d8-15b4-46d7-b31f-5703c5b64e23","ios":"levelo://app?vid=784443d8-15b4-46d7-b31f-5703c5b64e23"},"vehicle_type_id":"4","last_reported":1727576272,"current_range_meters":38800,"station_id":"ce4bhbh2rcd13ifvqeo0","pricing_plan_id":"cebpf4jnsgd1na2vs0mg"},{"bike_id":"8bbfb954-7ff3-43dc-ab19-55e66ad5a1ff","system_id":"levelo_inurba_marseille","lat":43.27359,"lon":5.36236,"is_reserved":false,"is_disabled":false,"rental_uris":{"android":"levelo://app?vid=8bbfb954-7ff3-43dc-ab19-55e66ad5a1ff","ios":"levelo://app?vid=8bbfb954-7ff3-43dc-ab19-55e66ad5a1ff"},"vehicle_type_id":"4","last_reported":1727576272,"current_range_meters":38400,"station_id":"ce4bhbh2rcd13ifvqeo0","pricing_plan_id":"cebpf4jnsgd1na2vs0mg"},{"bike_id":"a4a80944-40bd-46d0-aa51-1f93c481ae36","system_id":"levelo_inurba_marseille","lat":43.31242,"lon":5.40099,"is_reserved":false,"is_disabled":false,"rental_uris":{"android":"levelo://app?vid=a4a80944-40bd-46d0-aa51-1f93c481ae36","ios":"levelo://app?vid=a4a80944-40bd-46d0-aa51-1f93c481ae36"},"vehicle_type_id":"4","last_reported":1727576272,"current_range_meters":7200,"station_id":"ce4bh092rcd13ifvqd30","pricing_plan_id":"cebpf4jnsgd1na2vs0mg"},{"bike_id":"8de4c3b4-4234-4850-a29d-da6f86d94621","system_id":"levelo_inurba_marseille","lat":43.28459,"lon":5.35881,"is_reserved":false,"is_disabled":false,"rental_uris":{"android":"levelo://app?vid=8de4c3b4-4234-4850-a29d-da6f86d94621","ios":"levelo://app?vid=8de4c3b4-4234-4850-a29d-da6f86d94621"},"vehicle_type_id":"4","last_reported":1727576272,"current_range_meters":38800,"station_id":"ce4bhah2rcd13ifvqei0","pricing_plan_id":"cebpf4jnsgd1na2vs0mg"},{"bike_id":"1ce7c25b-6bd2-4b64-b4ae-543ea784fc5d","system_id":"levelo_inurba_marseille","lat":43.337444,"lon":5.374475,"is_reserved":false,"is_disabled":false,"rental_uris":{"android":"levelo://app?vid=1ce7c25b-6bd2-4b64-b4ae-543ea784fc5d","ios":"levelo://app?vid=1ce7c25b-6bd2-4b64-b4ae-543ea784fc5d"},"vehicle_type_id":"4","last_reported":1727576272,"current_range_meters":34800,"station_id":"","pricing_plan_id":"cebpf4jnsgd1na2vs0mg"},{"bike_id":"a1c3dd20-86c0-4dad-a795-b2047bec3f5b","system_id":"levelo_inurba_marseille","lat":43.31771,"lon":5.39023,"is_reserved":false,"is_disabled":false,"rental_uris":{"android":"levelo://app?vid=a1c3dd20-86c0-4dad-a795-b2047bec3f5b","ios":"levelo://app?vid=a1c3dd20-86c0-4dad-a795-b2047bec3f5b"},"vehicle_type_id":"4","last_reported":1727576272,"current_range_meters":38000,"station_id":"ce4bhqp2rcd13ifvqhng","pricing_plan_id":"cebpf4jnsgd1na2vs0mg"},{"bike_id":"8ebb382c-4990-47fa-88d0-106d66e64af6","system_id":"levelo_inurba_marseille","lat":43.29638,"lon":5.40596,"is_reserved":false,"is_disabled":false,"rental_uris":{"android":"levelo://app?vid=8ebb382c-4990-47fa-88d0-106d66e64af6","ios":"levelo://app?vid=8ebb382c-4990-47fa-88d0-106d66e64af6"},"vehicle_type_id":"4","last_reported":1727576272,"current_range_meters":38800,"station_id":"ce4bh0h2rcd13ifvqd60","pricing_plan_id":"cebpf4jnsgd1na2vs0mg"},{"bike_id":"35a6ca74-a0b6-4f73-bcf2-e86397ec7a04","system_id":"levelo_inurba_marseille","lat":43.24809,"lon":5.37458,"is_reserved":false,"is_disabled":false,"rental_uris":{"android":"levelo://app?vid=35a6ca74-a0b6-4f73-bcf2-e86397ec7a04","ios":"levelo://app?vid=35a6ca74-a0b6-4f73-bcf2-e86397ec7a04"},"vehicle_type_id":"4","last_reported":1727576272,"current_range_meters":3600,"station_id":"ce4bhgh2rcd13ifvqfb0","pricing_plan_id":"cebpf4jnsgd1na2vs0mg"},{"bike_id":"691af550-40f2-46d0-a7de-1ee88b12e159","system_id":"levelo_inurba_marseille","lat":43.31877,"lon":5.4073,"is_reserved":false,"is_disabled":false,"rental_uris":{"android":"levelo://app?vid=691af550-40f2-46d0-a7de-1ee88b12e159","ios":"levelo://app?vid=691af550-40f2-46d0-a7de-1ee88b12e159"},"vehicle_type_id":"4","last_reported":1727576272,"current_range_meters":6800,"station_id":"ce4bhq12rcd13ifvqhig","pricing_plan_id":"cebpf4jnsgd1na2vs0mg"},{"bike_id":"2bf9ffd1-4ea3-4b5a-9013-f4327b8a63c4","system_id":"levelo_inurba_marseille","lat":43.264968,"lon":5.395386,"is_reserved":false,"is_disabled":false,"rental_uris":{"android":"levelo://app?vid=2bf9ffd1-4ea3-4b5a-9013-f4327b8a63c4","ios":"levelo://app?vid=2bf9ffd1-4ea3-4b5a-9013-f4327b8a63c4"},"vehicle_type_id":"4","last_reported":1727576272,"current_range_meters":38800,"station_id":"ce4bhi12rcd13ifvqfq0","pricing_plan_id":"cebpf4jnsgd1na2vs0mg"},{"bike_id":"0c6a3edd-0259-43fd-a8d1-3d4bb6023605","system_id":"levelo_inurba_marseille","lat":43.24389,"lon":5.37043,"is_reserved":false,"is_disabled":false,"rental_uris":{"android":"levelo://app?vid=0c6a3edd-0259-43fd-a8d1-3d4bb6023605","ios":"levelo://app?vid=0c6a3edd-0259-43fd-a8d1-3d4bb6023605"},"vehicle_type_id":"4","last_reported":1727576272,"current_range_meters":39200,"station_id":"ce4bhhh2rcd13ifvqfk0","pricing_plan_id":"cebpf4jnsgd1na2vs0mg"},{"bike_id":"710ea95f-73b9-45b3-8be5-942d030d4a9c","system_id":"levelo_inurba_marseille","lat":43.31081,"lon":5.4244,"is_reserved":false,"is_disabled":false,"rental_uris":{"android":"levelo://app?vid=710ea95f-73b9-45b3-8be5-942d030d4a9c","ios":"levelo://app?vid=710ea95f-73b9-45b3-8be5-942d030d4a9c"},"vehicle_type_id":"4","last_reported":1727576272,"current_range_meters":30800,"station_id":"ce4bhp92rcd13ifvqhag","pricing_plan_id":"cebpf4jnsgd1na2vs0mg"},{"bike_id":"08c36d1e-77a7-4de5-beb1-abd12dc73382","system_id":"levelo_inurba_marseille","lat":43.24805,"lon":5.37452,"is_reserved":false,"is_disabled":false,"rental_uris":{"android":"levelo://app?vid=08c36d1e-77a7-4de5-beb1-abd12dc73382","ios":"levelo://app?vid=08c36d1e-77a7-4de5-beb1-abd12dc73382"},"vehicle_type_id":"4","last_reported":1727576272,"current_range_meters":38800,"station_id":"ce4bhgh2rcd13ifvqfb0","pricing_plan_id":"cebpf4jnsgd1na2vs0mg"},{"bike_id":"b54fdcda-42f0-4a1b-b3c7-a428d3775509","system_id":"levelo_inurba_marseille","lat":43.25864,"lon":5.39898,"is_reserved":false,"is_disabled":false,"rental_uris":{"android":"levelo://app?vid=b54fdcda-42f0-4a1b-b3c7-a428d3775509","ios":"levelo://app?vid=b54fdcda-42f0-4a1b-b3c7-a428d3775509"},"vehicle_type_id":"4","last_reported":1727576272,"current_range_meters":26000,"station_id":"ce4bhl92rcd13ifvqghg","pricing_plan_id":"cebpf4jnsgd1na2vs0mg"},{"bike_id":"3e4ae6dd-5305-4d10-a79a-b5ff877edb8c","system_id":"levelo_inurba_marseille","lat":43.28448,"lon":5.39193,"is_reserved":false,"is_disabled":false,"rental_uris":{"android":"levelo://app?vid=3e4ae6dd-5305-4d10-a79a-b5ff877edb8c","ios":"levelo://app?vid=3e4ae6dd-5305-4d10-a79a-b5ff877edb8c"},"vehicle_type_id":"4","last_reported":1727576272,"current_range_meters":26800,"station_id":"ce4bhoh2rcd13ifvqh5g","pricing_plan_id":"cebpf4jnsgd1na2vs0mg"},{"bike_id":"53723ec1-4486-4d43-958f-19d45a23b8fa","system_id":"levelo_inurba_marseille","lat":43.30955,"lon":5.39035,"is_reserved":false,"is_disabled":false,"rental_uris":{"android":"levelo://app?vid=53723ec1-4486-4d43-958f-19d45a23b8fa","ios":"levelo://app?vid=53723ec1-4486-4d43-958f-19d45a23b8fa"},"vehicle_type_id":"4","last_reported":1727576272,"current_range_meters":38800,"station_id":"ce4bgup2rcd13ifvqco0","pricing_plan_id":"cebpf4jnsgd1na2vs0mg"},{"bike_id":"6a52f468-9bf5-46c2-819d-2c732c18128e","system_id":"levelo_inurba_marseille","lat":43.23962,"lon":5.36625,"is_reserved":false,"is_disabled":false,"rental_uris":{"android":"levelo://app?vid=6a52f468-9bf5-46c2-819d-2c732c18128e","ios":"levelo://app?vid=6a52f468-9bf5-46c2-819d-2c732c18128e"},"vehicle_type_id":"4","last_reported":1727576272,"current_range_meters":36800,"station_id":"ce4bhi12rcd13ifvqfp0","pricing_plan_id":"cebpf4jnsgd1na2vs0mg"},{"bike_id":"ae2334e7-52b9-4660-b873-d116d27bf548","system_id":"levelo_inurba_marseille","lat":43.30954,"lon":5.39026,"is_reserved":false,"is_disabled":false,"rental_uris":{"android":"levelo://app?vid=ae2334e7-52b9-4660-b873-d116d27bf548","ios":"levelo://app?vid=ae2334e7-52b9-4660-b873-d116d27bf548"},"vehicle_type_id":"4","last_reported":1727576272,"current_range_meters":30800,"station_id":"ce4bgup2rcd13ifvqco0","pricing_plan_id":"cebpf4jnsgd1na2vs0mg"},{"bike_id":"6542600a-0331-4a7b-bf1b-8aced53610f0","system_id":"levelo_inurba_marseille","lat":43.28438,"lon":5.39182,"is_reserved":false,"is_disabled":false,"rental_uris":{"android":"levelo://app?vid=6542600a-0331-4a7b-bf1b-8aced53610f0","ios":"levelo://app?vid=6542600a-0331-4a7b-bf1b-8aced53610f0"},"vehicle_type_id":"4","last_reported":1727576272,"current_range_meters":16400,"station_id":"ce4bhoh2rcd13ifvqh5g","pricing_plan_id":"cebpf4jnsgd1na2vs0mg"},{"bike_id":"cdeae8c9-ba56-4b50-8d73-1e30acc71661","system_id":"levelo_inurba_marseille","lat":43.32001,"lon":5.38126,"is_reserved":false,"is_disabled":false,"rental_uris":{"android":"levelo://app?vid=cdeae8c9-ba56-4b50-8d73-1e30acc71661","ios":"levelo://app?vid=cdeae8c9-ba56-4b50-8d73-1e30acc71661"},"vehicle_type_id":"4","last_reported":1727576272,"current_range_meters":32400,"station_id":"ce4bhr12rcd13ifvqhpg","pricing_plan_id":"cebpf4jnsgd1na2vs0mg"},{"bike_id":"67b9eb05-c36e-4582-9b61-98d56d57348d","system_id":"levelo_inurba_marseille","lat":43.26052,"lon":5.39385,"is_reserved":false,"is_disabled":false,"rental_uris":{"android":"levelo://app?vid=67b9eb05-c36e-4582-9b61-98d56d57348d","ios":"levelo://app?vid=67b9eb05-c36e-4582-9b61-98d56d57348d"},"vehicle_type_id":"4","last_reported":1727576272,"current_range_meters":38800,"station_id":"ce4bhh92rcd13ifvqfj0","pricing_plan_id":"cebpf4jnsgd1na2vs0mg"},{"bike_id":"7b90f3e9-46ed-425c-9d75-68c75f948943","system_id":"levelo_inurba_marseille","lat":43.29966,"lon":5.38501,"is_reserved":false,"is_disabled":false,"rental_uris":{"android":"levelo://app?vid=7b90f3e9-46ed-425c-9d75-68c75f948943","ios":"levelo://app?vid=7b90f3e9-46ed-425c-9d75-68c75f948943"},"vehicle_type_id":"4","last_reported":1727576272,"current_range_meters":26800,"station_id":"ce4bgj92rcd13ifvqbd0","pricing_plan_id":"cebpf4jnsgd1na2vs0mg"},{"bike_id":"0d8c20b1-a2e8-4e8b-b550-37b2370b38b1","system_id":"levelo_inurba_marseille","lat":43.30424,"lon":5.41295,"is_reserved":false,"is_disabled":false,"rental_uris":{"android":"levelo://app?vid=0d8c20b1-a2e8-4e8b-b550-37b2370b38b1","ios":"levelo://app?vid=0d8c20b1-a2e8-4e8b-b550-37b2370b38b1"},"vehicle_type_id":"4","last_reported":1727576272,"current_range_meters":27200,"station_id":"ce4bhop2rcd13ifvqh8g","pricing_plan_id":"cebpf4jnsgd1na2vs0mg"},{"bike_id":"6811c9ec-ea64-44b4-93d3-158194024def","system_id":"levelo_inurba_marseille","lat":43.3054,"lon":5.3842,"is_reserved":false,"is_disabled":false,"rental_uris":{"android":"levelo://app?vid=6811c9ec-ea64-44b4-93d3-158194024def","ios":"levelo://app?vid=6811c9ec-ea64-44b4-93d3-158194024def"},"vehicle_type_id":"4","last_reported":1727576272,"current_range_meters":38400,"station_id":"ce4bgg92rcd13ifvqb30","pricing_plan_id":"cebpf4jnsgd1na2vs0mg"},{"bike_id":"240b6ed0-de28-4b78-b2af-b6ff5eb271e9","system_id":"levelo_inurba_marseille","lat":43.23587,"lon":5.36628,"is_reserved":false,"is_disabled":false,"rental_uris":{"android":"levelo://app?vid=240b6ed0-de28-4b78-b2af-b6ff5eb271e9","ios":"levelo://app?vid=240b6ed0-de28-4b78-b2af-b6ff5eb271e9"},"vehicle_type_id":"4","last_reported":1727576272,"current_range_meters":36000,"station_id":"","pricing_plan_id":"cebpf4jnsgd1na2vs0mg"},{"bike_id":"9cab4b77-e73b-485b-9196-05681379298d","system_id":"levelo_inurba_marseille","lat":43.32292,"lon":5.38262,"is_reserved":false,"is_disabled":false,"rental_uris":{"android":"levelo://app?vid=9cab4b77-e73b-485b-9196-05681379298d","ios":"levelo://app?vid=9cab4b77-e73b-485b-9196-05681379298d"},"vehicle_type_id":"4","last_reported":1727576272,"current_range_meters":38800,"station_id":"ce4bhr12rcd13ifvqhqg","pricing_plan_id":"cebpf4jnsgd1na2vs0mg"},{"bike_id":"815abeb5-1f5d-4787-8295-cfdd1932afe7","system_id":"levelo_inurba_marseille","lat":43.31165,"lon":5.38726,"is_reserved":false,"is_disabled":false,"rental_uris":{"android":"levelo://app?vid=815abeb5-1f5d-4787-8295-cfdd1932afe7","ios":"levelo://app?vid=815abeb5-1f5d-4787-8295-cfdd1932afe7"},"vehicle_type_id":"4","last_reported":1727576272,"current_range_meters":21600,"station_id":"ce4bgv12rcd13ifvqcp0","pricing_plan_id":"cebpf4jnsgd1na2vs0mg"},{"bike_id":"f6692a04-fd04-4663-94a3-4418e3afb60c","system_id":"levelo_inurba_marseille","lat":43.30798,"lon":5.38159,"is_reserved":false,"is_disabled":false,"rental_uris":{"android":"levelo://app?vid=f6692a04-fd04-4663-94a3-4418e3afb60c","ios":"levelo://app?vid=f6692a04-fd04-4663-94a3-4418e3afb60c"},"vehicle_type_id":"4","last_reported":1727576272,"current_range_meters":31200,"station_id":"ce4bgt12rcd13ifvqce0","pricing_plan_id":"cebpf4jnsgd1na2vs0mg"},{"bike_id":"8e047d7f-c072-44a2-8170-7786551c1be3","system_id":"levelo_inurba_marseille","lat":43.28719,"lon":5.39986,"is_reserved":false,"is_disabled":false,"rental_uris":{"android":"levelo://app?vid=8e047d7f-c072-44a2-8170-7786551c1be3","ios":"levelo://app?vid=8e047d7f-c072-44a2-8170-7786551c1be3"},"vehicle_type_id":"4","last_reported":1727576272,"current_range_meters":38800,"station_id":"ce4bho92rcd13ifvqh3g","pricing_plan_id":"cebpf4jnsgd1na2vs0mg"},{"bike_id":"d0a255de-5280-4fc9-a1e8-fc0557b5f08c","system_id":"levelo_inurba_marseille","lat":43.29555,"lon":5.42266,"is_reserved":false,"is_disabled":false,"rental_uris":{"android":"levelo://app?vid=d0a255de-5280-4fc9-a1e8-fc0557b5f08c","ios":"levelo://app?vid=d0a255de-5280-4fc9-a1e8-fc0557b5f08c"},"vehicle_type_id":"4","last_reported":1727576272,"current_range_meters":33600,"station_id":"ce4bhph2rcd13ifvqhdg","pricing_plan_id":"cebpf4jnsgd1na2vs0mg"},{"bike_id":"17727ddd-b3b2-4a18-af94-8a60b6428766","system_id":"levelo_inurba_marseille","lat":43.28705,"lon":5.37383,"is_reserved":false,"is_disabled":false,"rental_uris":{"android":"levelo://app?vid=17727ddd-b3b2-4a18-af94-8a60b6428766","ios":"levelo://app?vid=17727ddd-b3b2-4a18-af94-8a60b6428766"},"vehicle_type_id":"4","last_reported":1727576272,"current_range_meters":38800,"station_id":"ce4bh3p2rcd13ifvqdq0","pricing_plan_id":"cebpf4jnsgd1na2vs0mg"},{"bike_id":"56f7910d-52ac-4666-ae4d-1add0cdeeda1","system_id":"levelo_inurba_marseille","lat":43.30812,"lon":5.38154,"is_reserved":false,"is_disabled":false,"rental_uris":{"android":"levelo://app?vid=56f7910d-52ac-4666-ae4d-1add0cdeeda1","ios":"levelo://app?vid=56f7910d-52ac-4666-ae4d-1add0cdeeda1"},"vehicle_type_id":"4","last_reported":1727576272,"current_range_meters":23200,"station_id":"ce4bgt12rcd13ifvqce0","pricing_plan_id":"cebpf4jnsgd1na2vs0mg"},{"bike_id":"c461601d-3770-42d3-b850-f6196138e0e3","system_id":"levelo_inurba_marseille","lat":43.31334,"lon":5.39703,"is_reserved":false,"is_disabled":false,"rental_uris":{"android":"levelo://app?vid=c461601d-3770-42d3-b850-f6196138e0e3","ios":"levelo://app?vid=c461601d-3770-42d3-b850-f6196138e0e3"},"vehicle_type_id":"4","last_reported":1727576272,"current_range_meters":38800,"station_id":"ce4bgvp2rcd13ifvqcu0","pricing_plan_id":"cebpf4jnsgd1na2vs0mg"},{"bike_id":"6bd79052-280b-4428-8de8-892ce42e806e","system_id":"levelo_inurba_marseille","lat":43.31764,"lon":5.39006,"is_reserved":false,"is_disabled":false,"rental_uris":{"android":"levelo://app?vid=6bd79052-280b-4428-8de8-892ce42e806e","ios":"levelo://app?vid=6bd79052-280b-4428-8de8-892ce42e806e"},"vehicle_type_id":"4","last_reported":1727576272,"current_range_meters":38800,"station_id":"ce4bhqp2rcd13ifvqhng","pricing_plan_id":"cebpf4jnsgd1na2vs0mg"},{"bike_id":"58e674b1-b2f0-4949-97a4-2eaf7c317faa","system_id":"levelo_inurba_marseille","lat":43.28959,"lon":5.36648,"is_reserved":false,"is_disabled":false,"rental_uris":{"android":"levelo://app?vid=58e674b1-b2f0-4949-97a4-2eaf7c317faa","ios":"levelo://app?vid=58e674b1-b2f0-4949-97a4-2eaf7c317faa"},"vehicle_type_id":"4","last_reported":1727576272,"current_range_meters":36800,"station_id":"ce4bhap2rcd13ifvqek0","pricing_plan_id":"cebpf4jnsgd1na2vs0mg"},{"bike_id":"9fdcde87-f871-44ea-acf0-1fcd1bb17a60","system_id":"levelo_inurba_marseille","lat":43.28404,"lon":5.37517,"is_reserved":false,"is_disabled":false,"rental_uris":{"android":"levelo://app?vid=9fdcde87-f871-44ea-acf0-1fcd1bb17a60","ios":"levelo://app?vid=9fdcde87-f871-44ea-acf0-1fcd1bb17a60"},"vehicle_type_id":"4","last_reported":1727576272,"current_range_meters":36800,"station_id":"ce4bh412rcd13ifvqds0","pricing_plan_id":"cebpf4jnsgd1na2vs0mg"},{"bike_id":"dddd9fd8-f049-43ad-a677-7f095f63d2ad","system_id":"levelo_inurba_marseille","lat":43.28108,"lon":5.37843,"is_reserved":false,"is_disabled":false,"rental_uris":{"android":"levelo://app?vid=dddd9fd8-f049-43ad-a677-7f095f63d2ad","ios":"levelo://app?vid=dddd9fd8-f049-43ad-a677-7f095f63d2ad"},"vehicle_type_id":"4","last_reported":1727576272,"current_range_meters":38800,"station_id":"ce4bha12rcd13ifvqee0","pricing_plan_id":"cebpf4jnsgd1na2vs0mg"},{"bike_id":"7140e453-f332-495d-81d8-84ebfd05d324","system_id":"levelo_inurba_marseille","lat":43.25566,"lon":5.38244,"is_reserved":false,"is_disabled":false,"rental_uris":{"android":"levelo://app?vid=7140e453-f332-495d-81d8-84ebfd05d324","ios":"levelo://app?vid=7140e453-f332-495d-81d8-84ebfd05d324"},"vehicle_type_id":"4","last_reported":1727576272,"current_range_meters":39200,"station_id":"ce4bhih2rcd13ifvqfs0","pricing_plan_id":"cebpf4jnsgd1na2vs0mg"},{"bike_id":"cf2a99f0-171d-46e2-b5f9-b8e518581e33","system_id":"levelo_inurba_marseille","lat":43.23966,"lon":5.36625,"is_reserved":false,"is_disabled":false,"rental_uris":{"android":"levelo://app?vid=cf2a99f0-171d-46e2-b5f9-b8e518581e33","ios":"levelo://app?vid=cf2a99f0-171d-46e2-b5f9-b8e518581e33"},"vehicle_type_id":"4","last_reported":1727576272,"current_range_meters":35600,"station_id":"ce4bhi12rcd13ifvqfp0","pricing_plan_id":"cebpf4jnsgd1na2vs0mg"},{"bike_id":"e5f96fcd-0538-4d74-8ab8-d19e4df7cc95","system_id":"levelo_inurba_marseille","lat":43.31759,"lon":5.38996,"is_reserved":false,"is_disabled":false,"rental_uris":{"android":"levelo://app?vid=e5f96fcd-0538-4d74-8ab8-d19e4df7cc95","ios":"levelo://app?vid=e5f96fcd-0538-4d74-8ab8-d19e4df7cc95"},"vehicle_type_id":"4","last_reported":1727576272,"current_range_meters":12000,"station_id":"ce4bhqp2rcd13ifvqhng","pricing_plan_id":"cebpf4jnsgd1na2vs0mg"},{"bike_id":"60d9ce3d-2af9-47ba-90ad-995a8191b45d","system_id":"levelo_inurba_marseille","lat":43.30799,"lon":5.3816,"is_reserved":false,"is_disabled":false,"rental_uris":{"android":"levelo://app?vid=60d9ce3d-2af9-47ba-90ad-995a8191b45d","ios":"levelo://app?vid=60d9ce3d-2af9-47ba-90ad-995a8191b45d"},"vehicle_type_id":"4","last_reported":1727576272,"current_range_meters":32400,"station_id":"ce4bgt12rcd13ifvqce0","pricing_plan_id":"cebpf4jnsgd1na2vs0mg"},{"bike_id":"859e907e-3e01-45c3-acd9-550f385e7a79","system_id":"levelo_inurba_marseille","lat":43.27843,"lon":5.38498,"is_reserved":false,"is_disabled":false,"rental_uris":{"android":"levelo://app?vid=859e907e-3e01-45c3-acd9-550f385e7a79","ios":"levelo://app?vid=859e907e-3e01-45c3-acd9-550f385e7a79"},"vehicle_type_id":"4","last_reported":1727576272,"current_range_meters":33600,"station_id":"","pricing_plan_id":"cebpf4jnsgd1na2vs0mg"},{"bike_id":"a1585792-a705-409d-93a4-c31da8100088","system_id":"levelo_inurba_marseille","lat":43.23188,"lon":5.35558,"is_reserved":false,"is_disabled":false,"rental_uris":{"android":"levelo://app?vid=a1585792-a705-409d-93a4-c31da8100088","ios":"levelo://app?vid=a1585792-a705-409d-93a4-c31da8100088"},"vehicle_type_id":"4","last_reported":1727576272,"current_range_meters":11600,"station_id":"ce4bhu92rcd13ifvqi70","pricing_plan_id":"cebpf4jnsgd1na2vs0mg"},{"bike_id":"b8e2d9f3-2bfa-4db2-9db3-10638d12c8e0","system_id":"levelo_inurba_marseille","lat":43.27363,"lon":5.36225,"is_reserved":false,"is_disabled":false,"rental_uris":{"android":"levelo://app?vid=b8e2d9f3-2bfa-4db2-9db3-10638d12c8e0","ios":"levelo://app?vid=b8e2d9f3-2bfa-4db2-9db3-10638d12c8e0"},"vehicle_type_id":"4","last_reported":1727576272,"current_range_meters":38000,"station_id":"ce4bhbh2rcd13ifvqeo0","pricing_plan_id":"cebpf4jnsgd1na2vs0mg"},{"bike_id":"fdb61897-97d0-4689-adc4-02e79ee31d57","system_id":"levelo_inurba_marseille","lat":43.23965,"lon":5.36617,"is_reserved":false,"is_disabled":false,"rental_uris":{"android":"levelo://app?vid=fdb61897-97d0-4689-adc4-02e79ee31d57","ios":"levelo://app?vid=fdb61897-97d0-4689-adc4-02e79ee31d57"},"vehicle_type_id":"4","last_reported":1727576272,"current_range_meters":36800,"station_id":"ce4bhi12rcd13ifvqfp0","pricing_plan_id":"cebpf4jnsgd1na2vs0mg"},{"bike_id":"52f17877-110a-422d-89ae-fdeda162e6f3","system_id":"levelo_inurba_marseille","lat":43.23964,"lon":5.3662,"is_reserved":false,"is_disabled":false,"rental_uris":{"android":"levelo://app?vid=52f17877-110a-422d-89ae-fdeda162e6f3","ios":"levelo://app?vid=52f17877-110a-422d-89ae-fdeda162e6f3"},"vehicle_type_id":"4","last_reported":1727576272,"current_range_meters":8400,"station_id":"ce4bhi12rcd13ifvqfp0","pricing_plan_id":"cebpf4jnsgd1na2vs0mg"},{"bike_id":"7a8f28c6-ab6f-49c3-b59d-8e597cfc4655","system_id":"levelo_inurba_marseille","lat":43.33716,"lon":5.3918,"is_reserved":false,"is_disabled":false,"rental_uris":{"android":"levelo://app?vid=7a8f28c6-ab6f-49c3-b59d-8e597cfc4655","ios":"levelo://app?vid=7a8f28c6-ab6f-49c3-b59d-8e597cfc4655"},"vehicle_type_id":"4","last_reported":1727576272,"current_range_meters":19600,"station_id":"ce4bhr92rcd13ifvqhsg","pricing_plan_id":"cebpf4jnsgd1na2vs0mg"},{"bike_id":"addedf71-6612-4f48-b1b2-83f7838376de","system_id":"levelo_inurba_marseille","lat":43.303,"lon":5.39213,"is_reserved":false,"is_disabled":false,"rental_uris":{"android":"levelo://app?vid=addedf71-6612-4f48-b1b2-83f7838376de","ios":"levelo://app?vid=addedf71-6612-4f48-b1b2-83f7838376de"},"vehicle_type_id":"4","last_reported":1727576272,"current_range_meters":30400,"station_id":"ce4bgkh2rcd13ifvqbk0","pricing_plan_id":"cebpf4jnsgd1na2vs0mg"},{"bike_id":"76f413e3-c612-4d1b-b17d-3b3c1dd4352a","system_id":"levelo_inurba_marseille","lat":43.25579,"lon":5.38253,"is_reserved":false,"is_disabled":false,"rental_uris":{"android":"levelo://app?vid=76f413e3-c612-4d1b-b17d-3b3c1dd4352a","ios":"levelo://app?vid=76f413e3-c612-4d1b-b17d-3b3c1dd4352a"},"vehicle_type_id":"4","last_reported":1727576272,"current_range_meters":38800,"station_id":"ce4bhih2rcd13ifvqfs0","pricing_plan_id":"cebpf4jnsgd1na2vs0mg"},{"bike_id":"83ea36cb-5521-4f82-9511-1eb0dd2eba7b","system_id":"levelo_inurba_marseille","lat":43.28978,"lon":5.37836,"is_reserved":false,"is_disabled":false,"rental_uris":{"android":"levelo://app?vid=83ea36cb-5521-4f82-9511-1eb0dd2eba7b","ios":"levelo://app?vid=83ea36cb-5521-4f82-9511-1eb0dd2eba7b"},"vehicle_type_id":"4","last_reported":1727576272,"current_range_meters":34800,"station_id":"","pricing_plan_id":"cebpf4jnsgd1na2vs0mg"},{"bike_id":"61bfd186-0f27-4fc9-b2b6-ffff2e6b74f7","system_id":"levelo_inurba_marseille","lat":43.27371,"lon":5.36259,"is_reserved":false,"is_disabled":false,"rental_uris":{"android":"levelo://app?vid=61bfd186-0f27-4fc9-b2b6-ffff2e6b74f7","ios":"levelo://app?vid=61bfd186-0f27-4fc9-b2b6-ffff2e6b74f7"},"vehicle_type_id":"4","last_reported":1727576272,"current_range_meters":38800,"station_id":"ce4bhbh2rcd13ifvqeo0","pricing_plan_id":"cebpf4jnsgd1na2vs0mg"},{"bike_id":"ab994941-8182-4cf4-af2e-1d33fc2c5393","system_id":"levelo_inurba_marseille","lat":43.25705,"lon":5.4104,"is_reserved":false,"is_disabled":false,"rental_uris":{"android":"levelo://app?vid=ab994941-8182-4cf4-af2e-1d33fc2c5393","ios":"levelo://app?vid=ab994941-8182-4cf4-af2e-1d33fc2c5393"},"vehicle_type_id":"4","last_reported":1727576272,"current_range_meters":4400,"station_id":"","pricing_plan_id":"cebpf4jnsgd1na2vs0mg"},{"bike_id":"1347408c-e17f-4890-9dba-2621d2b63fef","system_id":"levelo_inurba_marseille","lat":43.28072,"lon":5.39655,"is_reserved":false,"is_disabled":false,"rental_uris":{"android":"levelo://app?vid=1347408c-e17f-4890-9dba-2621d2b63fef","ios":"levelo://app?vid=1347408c-e17f-4890-9dba-2621d2b63fef"},"vehicle_type_id":"4","last_reported":1727576272,"current_range_meters":39200,"station_id":"ce4bho12rcd13ifvqh2g","pricing_plan_id":"cebpf4jnsgd1na2vs0mg"},{"bike_id":"8706dbad-74a1-4401-bd4a-b4ae01455ac4","system_id":"levelo_inurba_marseille","lat":43.27621,"lon":5.3611,"is_reserved":false,"is_disabled":false,"rental_uris":{"android":"levelo://app?vid=8706dbad-74a1-4401-bd4a-b4ae01455ac4","ios":"levelo://app?vid=8706dbad-74a1-4401-bd4a-b4ae01455ac4"},"vehicle_type_id":"4","last_reported":1727576272,"current_range_meters":17200,"station_id":"ce4bgj92rcd13ifvqbe0","pricing_plan_id":"cebpf4jnsgd1na2vs0mg"},{"bike_id":"a3d8adc6-a419-41b7-9a8f-1b8309bbbc94","system_id":"levelo_inurba_marseille","lat":43.32507,"lon":5.41457,"is_reserved":false,"is_disabled":false,"rental_uris":{"android":"levelo://app?vid=a3d8adc6-a419-41b7-9a8f-1b8309bbbc94","ios":"levelo://app?vid=a3d8adc6-a419-41b7-9a8f-1b8309bbbc94"},"vehicle_type_id":"4","last_reported":1727576272,"current_range_meters":38000,"station_id":"ce4bhq12rcd13ifvqhhg","pricing_plan_id":"cebpf4jnsgd1na2vs0mg"},{"bike_id":"22fdebd7-346e-4458-a5e7-e4cd59d653af","system_id":"levelo_inurba_marseille","lat":43.27879,"lon":5.37988,"is_reserved":false,"is_disabled":false,"rental_uris":{"android":"levelo://app?vid=22fdebd7-346e-4458-a5e7-e4cd59d653af","ios":"levelo://app?vid=22fdebd7-346e-4458-a5e7-e4cd59d653af"},"vehicle_type_id":"4","last_reported":1727576272,"current_range_meters":33600,"station_id":"ce4bhf92rcd13ifvqf50","pricing_plan_id":"cebpf4jnsgd1na2vs0mg"},{"bike_id":"9e0e602a-711e-4e75-a4b3-f0d70db8f823","system_id":"levelo_inurba_marseille","lat":43.2396,"lon":5.36623,"is_reserved":false,"is_disabled":false,"rental_uris":{"android":"levelo://app?vid=9e0e602a-711e-4e75-a4b3-f0d70db8f823","ios":"levelo://app?vid=9e0e602a-711e-4e75-a4b3-f0d70db8f823"},"vehicle_type_id":"4","last_reported":1727576272,"current_range_meters":16800,"station_id":"ce4bhi12rcd13ifvqfp0","pricing_plan_id":"cebpf4jnsgd1na2vs0mg"},{"bike_id":"64287320-744d-4ddf-8d29-f29a538a1023","system_id":"levelo_inurba_marseille","lat":43.30468,"lon":5.37899,"is_reserved":false,"is_disabled":false,"rental_uris":{"android":"levelo://app?vid=64287320-744d-4ddf-8d29-f29a538a1023","ios":"levelo://app?vid=64287320-744d-4ddf-8d29-f29a538a1023"},"vehicle_type_id":"4","last_reported":1727576272,"current_range_meters":38000,"station_id":"ce4bgup2rcd13ifvqcn0","pricing_plan_id":"cebpf4jnsgd1na2vs0mg"},{"bike_id":"594923ab-6151-46ef-b1e9-625586026106","system_id":"levelo_inurba_marseille","lat":43.31335,"lon":5.39673,"is_reserved":false,"is_disabled":false,"rental_uris":{"android":"levelo://app?vid=594923ab-6151-46ef-b1e9-625586026106","ios":"levelo://app?vid=594923ab-6151-46ef-b1e9-625586026106"},"vehicle_type_id":"4","last_reported":1727576272,"current_range_meters":6000,"station_id":"ce4bgvp2rcd13ifvqcu0","pricing_plan_id":"cebpf4jnsgd1na2vs0mg"},{"bike_id":"5dccdce7-b1a1-4eb6-81a2-8dca1382289c","system_id":"levelo_inurba_marseille","lat":43.33,"lon":5.39034,"is_reserved":false,"is_disabled":false,"rental_uris":{"android":"levelo://app?vid=5dccdce7-b1a1-4eb6-81a2-8dca1382289c","ios":"levelo://app?vid=5dccdce7-b1a1-4eb6-81a2-8dca1382289c"},"vehicle_type_id":"4","last_reported":1727576272,"current_range_meters":39200,"station_id":"ce4bhr92rcd13ifvqhrg","pricing_plan_id":"cebpf4jnsgd1na2vs0mg"},{"bike_id":"2d527b57-f1c3-402a-bdb7-1a17c2c3785a","system_id":"levelo_inurba_marseille","lat":43.30603,"lon":5.39353,"is_reserved":false,"is_disabled":false,"rental_uris":{"android":"levelo://app?vid=2d527b57-f1c3-402a-bdb7-1a17c2c3785a","ios":"levelo://app?vid=2d527b57-f1c3-402a-bdb7-1a17c2c3785a"},"vehicle_type_id":"4","last_reported":1727576272,"current_range_meters":36800,"station_id":"ce4bh0p2rcd13ifvqd80","pricing_plan_id":"cebpf4jnsgd1na2vs0mg"},{"bike_id":"4b66f5f2-c486-47ac-bf11-139e5b2e7872","system_id":"levelo_inurba_marseille","lat":43.31085,"lon":5.42435,"is_reserved":false,"is_disabled":false,"rental_uris":{"android":"levelo://app?vid=4b66f5f2-c486-47ac-bf11-139e5b2e7872","ios":"levelo://app?vid=4b66f5f2-c486-47ac-bf11-139e5b2e7872"},"vehicle_type_id":"4","last_reported":1727576272,"current_range_meters":38800,"station_id":"ce4bhp92rcd13ifvqhag","pricing_plan_id":"cebpf4jnsgd1na2vs0mg"},{"bike_id":"5f0d5c99-8030-458d-9ec5-e24ec96db0ec","system_id":"levelo_inurba_marseille","lat":43.30131,"lon":5.39859,"is_reserved":false,"is_disabled":false,"rental_uris":{"android":"levelo://app?vid=5f0d5c99-8030-458d-9ec5-e24ec96db0ec","ios":"levelo://app?vid=5f0d5c99-8030-458d-9ec5-e24ec96db0ec"},"vehicle_type_id":"4","last_reported":1727576272,"current_range_meters":37600,"station_id":"ce4bh0h2rcd13ifvqd40","pricing_plan_id":"cebpf4jnsgd1na2vs0mg"},{"bike_id":"d8cb3c0e-d1a9-4751-82c4-b4537f005b5b","system_id":"levelo_inurba_marseille","lat":43.30448,"lon":5.38918,"is_reserved":false,"is_disabled":false,"rental_uris":{"android":"levelo://app?vid=d8cb3c0e-d1a9-4751-82c4-b4537f005b5b","ios":"levelo://app?vid=d8cb3c0e-d1a9-4751-82c4-b4537f005b5b"},"vehicle_type_id":"4","last_reported":1727576272,"current_range_meters":30000,"station_id":"ce4bgk12rcd13ifvqbi0","pricing_plan_id":"cebpf4jnsgd1na2vs0mg"},{"bike_id":"c4d29d53-7958-4594-90bb-b85ab3fd69c4","system_id":"levelo_inurba_marseille","lat":43.31176,"lon":5.38713,"is_reserved":false,"is_disabled":false,"rental_uris":{"android":"levelo://app?vid=c4d29d53-7958-4594-90bb-b85ab3fd69c4","ios":"levelo://app?vid=c4d29d53-7958-4594-90bb-b85ab3fd69c4"},"vehicle_type_id":"4","last_reported":1727576272,"current_range_meters":17200,"station_id":"ce4bgv12rcd13ifvqcp0","pricing_plan_id":"cebpf4jnsgd1na2vs0mg"},{"bike_id":"801dee94-6df9-4ac7-b8ff-19b18de3acb6","system_id":"levelo_inurba_marseille","lat":43.32005,"lon":5.38149,"is_reserved":false,"is_disabled":false,"rental_uris":{"android":"levelo://app?vid=801dee94-6df9-4ac7-b8ff-19b18de3acb6","ios":"levelo://app?vid=801dee94-6df9-4ac7-b8ff-19b18de3acb6"},"vehicle_type_id":"4","last_reported":1727576272,"current_range_meters":24800,"station_id":"ce4bhr12rcd13ifvqhpg","pricing_plan_id":"cebpf4jnsgd1na2vs0mg"},{"bike_id":"18ea8fba-dd38-4c1e-b15a-2b4a2edf1b4d","system_id":"levelo_inurba_marseille","lat":43.30893,"lon":5.3965,"is_reserved":false,"is_disabled":false,"rental_uris":{"android":"levelo://app?vid=18ea8fba-dd38-4c1e-b15a-2b4a2edf1b4d","ios":"levelo://app?vid=18ea8fba-dd38-4c1e-b15a-2b4a2edf1b4d"},"vehicle_type_id":"4","last_reported":1727576272,"current_range_meters":22400,"station_id":"ce4bh012rcd13ifvqcv0","pricing_plan_id":"cebpf4jnsgd1na2vs0mg"},{"bike_id":"848da01c-249f-40a1-a74f-e4a7991db9ba","system_id":"levelo_inurba_marseille","lat":43.27555,"lon":5.38381,"is_reserved":false,"is_disabled":false,"rental_uris":{"android":"levelo://app?vid=848da01c-249f-40a1-a74f-e4a7991db9ba","ios":"levelo://app?vid=848da01c-249f-40a1-a74f-e4a7991db9ba"},"vehicle_type_id":"4","last_reported":1727576272,"current_range_meters":6800,"station_id":"ce4bhh92rcd13ifvqfi0","pricing_plan_id":"cebpf4jnsgd1na2vs0mg"},{"bike_id":"02445b2d-cba6-4635-a53c-c1cbb0644eb1","system_id":"levelo_inurba_marseille","lat":43.27809,"lon":5.39204,"is_reserved":false,"is_disabled":false,"rental_uris":{"android":"levelo://app?vid=02445b2d-cba6-4635-a53c-c1cbb0644eb1","ios":"levelo://app?vid=02445b2d-cba6-4635-a53c-c1cbb0644eb1"},"vehicle_type_id":"4","last_reported":1727576272,"current_range_meters":36800,"station_id":"ce4bhjp2rcd13ifvqga0","pricing_plan_id":"cebpf4jnsgd1na2vs0mg"},{"bike_id":"14e6435e-3051-4b48-9562-4e428d1050a4","system_id":"levelo_inurba_marseille","lat":43.31107,"lon":5.37779,"is_reserved":false,"is_disabled":false,"rental_uris":{"android":"levelo://app?vid=14e6435e-3051-4b48-9562-4e428d1050a4","ios":"levelo://app?vid=14e6435e-3051-4b48-9562-4e428d1050a4"},"vehicle_type_id":"4","last_reported":1727576272,"current_range_meters":38400,"station_id":"ce4bgt92rcd13ifvqcg0","pricing_plan_id":"cebpf4jnsgd1na2vs0mg"},{"bike_id":"5667981f-e35c-4801-90dd-6e56d87feaaf","system_id":"levelo_inurba_marseille","lat":43.23147,"lon":5.43702,"is_reserved":false,"is_disabled":false,"rental_uris":{"android":"levelo://app?vid=5667981f-e35c-4801-90dd-6e56d87feaaf","ios":"levelo://app?vid=5667981f-e35c-4801-90dd-6e56d87feaaf"},"vehicle_type_id":"4","last_reported":1727576272,"current_range_meters":6000,"station_id":"ce4bhmp2rcd13ifvqgog","pricing_plan_id":"cebpf4jnsgd1na2vs0mg"},{"bike_id":"7e89877b-1540-4b0e-8510-b199e7b510e3","system_id":"levelo_inurba_marseille","lat":43.26804,"lon":5.40271,"is_reserved":false,"is_disabled":false,"rental_uris":{"android":"levelo://app?vid=7e89877b-1540-4b0e-8510-b199e7b510e3","ios":"levelo://app?vid=7e89877b-1540-4b0e-8510-b199e7b510e3"},"vehicle_type_id":"4","last_reported":1727576272,"current_range_meters":29600,"station_id":"ce501612rcd8frsf0b60","pricing_plan_id":"cebpf4jnsgd1na2vs0mg"},{"bike_id":"258e025d-f605-4338-84a0-17f713af0b8d","system_id":"levelo_inurba_marseille","lat":43.24802,"lon":5.37453,"is_reserved":false,"is_disabled":false,"rental_uris":{"android":"levelo://app?vid=258e025d-f605-4338-84a0-17f713af0b8d","ios":"levelo://app?vid=258e025d-f605-4338-84a0-17f713af0b8d"},"vehicle_type_id":"4","last_reported":1727576272,"current_range_meters":36800,"station_id":"ce4bhgh2rcd13ifvqfb0","pricing_plan_id":"cebpf4jnsgd1na2vs0mg"},{"bike_id":"e4a8085c-73dc-4acb-ac48-224d38a0de10","system_id":"levelo_inurba_marseille","lat":43.31268,"lon":5.40166,"is_reserved":false,"is_disabled":false,"rental_uris":{"android":"levelo://app?vid=e4a8085c-73dc-4acb-ac48-224d38a0de10","ios":"levelo://app?vid=e4a8085c-73dc-4acb-ac48-224d38a0de10"},"vehicle_type_id":"4","last_reported":1727576272,"current_range_meters":18800,"station_id":"ce4bh092rcd13ifvqd30","pricing_plan_id":"cebpf4jnsgd1na2vs0mg"},{"bike_id":"48ac0a00-7daa-4c12-9a4d-5dab28220f2e","system_id":"levelo_inurba_marseille","lat":43.32341,"lon":5.38913,"is_reserved":false,"is_disabled":false,"rental_uris":{"android":"levelo://app?vid=48ac0a00-7daa-4c12-9a4d-5dab28220f2e","ios":"levelo://app?vid=48ac0a00-7daa-4c12-9a4d-5dab28220f2e"},"vehicle_type_id":"4","last_reported":1727576272,"current_range_meters":8400,"station_id":"ce4bhqp2rcd13ifvqhog","pricing_plan_id":"cebpf4jnsgd1na2vs0mg"},{"bike_id":"c6638d32-9ecd-4fa3-9332-f6c79a15bec5","system_id":"levelo_inurba_marseille","lat":43.28628,"lon":5.35101,"is_reserved":false,"is_disabled":false,"rental_uris":{"android":"levelo://app?vid=c6638d32-9ecd-4fa3-9332-f6c79a15bec5","ios":"levelo://app?vid=c6638d32-9ecd-4fa3-9332-f6c79a15bec5"},"vehicle_type_id":"4","last_reported":1727576272,"current_range_meters":38000,"station_id":"ce4bhch2rcd13ifvqeug","pricing_plan_id":"cebpf4jnsgd1na2vs0mg"},{"bike_id":"2b89b034-9d48-4061-89ca-7cd2f5925637","system_id":"levelo_inurba_marseille","lat":43.28669,"lon":5.36369,"is_reserved":false,"is_disabled":false,"rental_uris":{"android":"levelo://app?vid=2b89b034-9d48-4061-89ca-7cd2f5925637","ios":"levelo://app?vid=2b89b034-9d48-4061-89ca-7cd2f5925637"},"vehicle_type_id":"4","last_reported":1727576272,"current_range_meters":39200,"station_id":"ce4bhah2rcd13ifvqej0","pricing_plan_id":"cebpf4jnsgd1na2vs0mg"},{"bike_id":"109b3c0c-8bf1-4c6c-995c-e118c5a0c15c","system_id":"levelo_inurba_marseille","lat":43.27561,"lon":5.38376,"is_reserved":false,"is_disabled":false,"rental_uris":{"android":"levelo://app?vid=109b3c0c-8bf1-4c6c-995c-e118c5a0c15c","ios":"levelo://app?vid=109b3c0c-8bf1-4c6c-995c-e118c5a0c15c"},"vehicle_type_id":"4","last_reported":1727576272,"current_range_meters":38800,"station_id":"","pricing_plan_id":"cebpf4jnsgd1na2vs0mg"},{"bike_id":"4b13f813-fd12-48f1-b9e1-149c6d9d680e","system_id":"levelo_inurba_marseille","lat":43.26934,"lon":5.38921,"is_reserved":false,"is_disabled":false,"rental_uris":{"android":"levelo://app?vid=4b13f813-fd12-48f1-b9e1-149c6d9d680e","ios":"levelo://app?vid=4b13f813-fd12-48f1-b9e1-149c6d9d680e"},"vehicle_type_id":"4","last_reported":1727576272,"current_range_meters":36400,"station_id":"ce4bhhh2rcd13ifvqfl0","pricing_plan_id":"cebpf4jnsgd1na2vs0mg"},{"bike_id":"1f313afb-1cf8-4bb7-8831-2c9f193c2d0c","system_id":"levelo_inurba_marseille","lat":43.24802,"lon":5.37452,"is_reserved":false,"is_disabled":false,"rental_uris":{"android":"levelo://app?vid=1f313afb-1cf8-4bb7-8831-2c9f193c2d0c","ios":"levelo://app?vid=1f313afb-1cf8-4bb7-8831-2c9f193c2d0c"},"vehicle_type_id":"4","last_reported":1727576272,"current_range_meters":39200,"station_id":"ce4bhgh2rcd13ifvqfb0","pricing_plan_id":"cebpf4jnsgd1na2vs0mg"},{"bike_id":"a63d4449-4f5a-4f1c-9a3c-27c8d74bd2a3","system_id":"levelo_inurba_marseille","lat":43.24398,"lon":5.37067,"is_reserved":false,"is_disabled":false,"rental_uris":{"android":"levelo://app?vid=a63d4449-4f5a-4f1c-9a3c-27c8d74bd2a3","ios":"levelo://app?vid=a63d4449-4f5a-4f1c-9a3c-27c8d74bd2a3"},"vehicle_type_id":"4","last_reported":1727576272,"current_range_meters":12000,"station_id":"ce4bhhh2rcd13ifvqfk0","pricing_plan_id":"cebpf4jnsgd1na2vs0mg"},{"bike_id":"f053546e-9417-4cdc-8c24-aa8dc21c1501","system_id":"levelo_inurba_marseille","lat":43.28458,"lon":5.35888,"is_reserved":false,"is_disabled":false,"rental_uris":{"android":"levelo://app?vid=f053546e-9417-4cdc-8c24-aa8dc21c1501","ios":"levelo://app?vid=f053546e-9417-4cdc-8c24-aa8dc21c1501"},"vehicle_type_id":"4","last_reported":1727576272,"current_range_meters":39200,"station_id":"ce4bhah2rcd13ifvqei0","pricing_plan_id":"cebpf4jnsgd1na2vs0mg"},{"bike_id":"78d148f0-3c38-4c7c-bd23-ca4919ee45aa","system_id":"levelo_inurba_marseille","lat":43.25083,"lon":5.39512,"is_reserved":false,"is_disabled":false,"rental_uris":{"android":"levelo://app?vid=78d148f0-3c38-4c7c-bd23-ca4919ee45aa","ios":"levelo://app?vid=78d148f0-3c38-4c7c-bd23-ca4919ee45aa"},"vehicle_type_id":"4","last_reported":1727576272,"current_range_meters":34800,"station_id":"ce4bhm12rcd13ifvqgkg","pricing_plan_id":"cebpf4jnsgd1na2vs0mg"},{"bike_id":"8a94828f-a35b-41cc-ba6b-1d284c7f36f6","system_id":"levelo_inurba_marseille","lat":43.27907,"lon":5.38013,"is_reserved":false,"is_disabled":false,"rental_uris":{"android":"levelo://app?vid=8a94828f-a35b-41cc-ba6b-1d284c7f36f6","ios":"levelo://app?vid=8a94828f-a35b-41cc-ba6b-1d284c7f36f6"},"vehicle_type_id":"4","last_reported":1727576272,"current_range_meters":26800,"station_id":"ce4bhf92rcd13ifvqf50","pricing_plan_id":"cebpf4jnsgd1na2vs0mg"},{"bike_id":"1f9a9c65-5108-4be0-9fb9-4c7311975c6f","system_id":"levelo_inurba_marseille","lat":43.30911,"lon":5.36846,"is_reserved":false,"is_disabled":false,"rental_uris":{"android":"levelo://app?vid=1f9a9c65-5108-4be0-9fb9-4c7311975c6f","ios":"levelo://app?vid=1f9a9c65-5108-4be0-9fb9-4c7311975c6f"},"vehicle_type_id":"4","last_reported":1727576272,"current_range_meters":26000,"station_id":"ce4bgn92rcd13ifvqbvg","pricing_plan_id":"cebpf4jnsgd1na2vs0mg"},{"bike_id":"bc7dc6a9-589f-4649-9e06-6ce7434d3293","system_id":"levelo_inurba_marseille","lat":43.29063,"lon":5.36965,"is_reserved":false,"is_disabled":false,"rental_uris":{"android":"levelo://app?vid=bc7dc6a9-589f-4649-9e06-6ce7434d3293","ios":"levelo://app?vid=bc7dc6a9-589f-4649-9e06-6ce7434d3293"},"vehicle_type_id":"4","last_reported":1727576272,"current_range_meters":27600,"station_id":"ce4bhah2rcd13ifvqej0","pricing_plan_id":"cebpf4jnsgd1na2vs0mg"},{"bike_id":"f8cd1665-2182-42bb-993d-799437deb95c","system_id":"levelo_inurba_marseille","lat":43.23203,"lon":5.35563,"is_reserved":false,"is_disabled":false,"rental_uris":{"android":"levelo://app?vid=f8cd1665-2182-42bb-993d-799437deb95c","ios":"levelo://app?vid=f8cd1665-2182-42bb-993d-799437deb95c"},"vehicle_type_id":"4","last_reported":1727576272,"current_range_meters":6000,"station_id":"ce4bhu92rcd13ifvqi70","pricing_plan_id":"cebpf4jnsgd1na2vs0mg"},{"bike_id":"479bcbb8-672d-4a2e-9417-299a45c8d546","system_id":"levelo_inurba_marseille","lat":43.25815,"lon":5.39416,"is_reserved":false,"is_disabled":false,"rental_uris":{"android":"levelo://app?vid=479bcbb8-672d-4a2e-9417-299a45c8d546","ios":"levelo://app?vid=479bcbb8-672d-4a2e-9417-299a45c8d546"},"vehicle_type_id":"4","last_reported":1727576272,"current_range_meters":12800,"station_id":"ce4bhip2rcd13ifvqft0","pricing_plan_id":"cebpf4jnsgd1na2vs0mg"},{"bike_id":"31fa25e9-2d65-4c2d-b7d1-53ad6527cbe6","system_id":"levelo_inurba_marseille","lat":43.30806,"lon":5.38171,"is_reserved":false,"is_disabled":false,"rental_uris":{"android":"levelo://app?vid=31fa25e9-2d65-4c2d-b7d1-53ad6527cbe6","ios":"levelo://app?vid=31fa25e9-2d65-4c2d-b7d1-53ad6527cbe6"},"vehicle_type_id":"4","last_reported":1727576272,"current_range_meters":38800,"station_id":"ce4bgt12rcd13ifvqce0","pricing_plan_id":"cebpf4jnsgd1na2vs0mg"},{"bike_id":"0769877c-c4e7-47ae-99ae-b7d49750ae44","system_id":"levelo_inurba_marseille","lat":43.28699,"lon":5.39972,"is_reserved":false,"is_disabled":false,"rental_uris":{"android":"levelo://app?vid=0769877c-c4e7-47ae-99ae-b7d49750ae44","ios":"levelo://app?vid=0769877c-c4e7-47ae-99ae-b7d49750ae44"},"vehicle_type_id":"4","last_reported":1727576272,"current_range_meters":38800,"station_id":"ce4bho92rcd13ifvqh3g","pricing_plan_id":"cebpf4jnsgd1na2vs0mg"},{"bike_id":"3b39c6b7-5d9c-4a0b-8d4e-ca79a2c006c2","system_id":"levelo_inurba_marseille","lat":43.30241,"lon":5.40048,"is_reserved":false,"is_disabled":false,"rental_uris":{"android":"levelo://app?vid=3b39c6b7-5d9c-4a0b-8d4e-ca79a2c006c2","ios":"levelo://app?vid=3b39c6b7-5d9c-4a0b-8d4e-ca79a2c006c2"},"vehicle_type_id":"4","last_reported":1727576272,"current_range_meters":38400,"station_id":"ce4bgvh2rcd13ifvqcs0","pricing_plan_id":"cebpf4jnsgd1na2vs0mg"},{"bike_id":"4962e903-e156-4362-9553-6fb2f9c6d618","system_id":"levelo_inurba_marseille","lat":43.2587,"lon":5.3989,"is_reserved":false,"is_disabled":false,"rental_uris":{"android":"levelo://app?vid=4962e903-e156-4362-9553-6fb2f9c6d618","ios":"levelo://app?vid=4962e903-e156-4362-9553-6fb2f9c6d618"},"vehicle_type_id":"4","last_reported":1727576272,"current_range_meters":38800,"station_id":"ce4bhl92rcd13ifvqghg","pricing_plan_id":"cebpf4jnsgd1na2vs0mg"},{"bike_id":"02c85c47-c574-4439-ab43-a1fe4054bee2","system_id":"levelo_inurba_marseille","lat":43.30963,"lon":5.39033,"is_reserved":false,"is_disabled":false,"rental_uris":{"android":"levelo://app?vid=02c85c47-c574-4439-ab43-a1fe4054bee2","ios":"levelo://app?vid=02c85c47-c574-4439-ab43-a1fe4054bee2"},"vehicle_type_id":"4","last_reported":1727576272,"current_range_meters":38400,"station_id":"ce4bgup2rcd13ifvqco0","pricing_plan_id":"cebpf4jnsgd1na2vs0mg"},{"bike_id":"620732d6-2269-4ba1-ba4a-ef9d58149754","system_id":"levelo_inurba_marseille","lat":43.26568,"lon":5.39012,"is_reserved":false,"is_disabled":false,"rental_uris":{"android":"levelo://app?vid=620732d6-2269-4ba1-ba4a-ef9d58149754","ios":"levelo://app?vid=620732d6-2269-4ba1-ba4a-ef9d58149754"},"vehicle_type_id":"4","last_reported":1727576272,"current_range_meters":30400,"station_id":"ce4bhe12rcd13ifvqf30","pricing_plan_id":"cebpf4jnsgd1na2vs0mg"},{"bike_id":"6dbcdd02-2acc-4d5b-909e-db280eb5b7f0","system_id":"levelo_inurba_marseille","lat":43.26564,"lon":5.39007,"is_reserved":false,"is_disabled":false,"rental_uris":{"android":"levelo://app?vid=6dbcdd02-2acc-4d5b-909e-db280eb5b7f0","ios":"levelo://app?vid=6dbcdd02-2acc-4d5b-909e-db280eb5b7f0"},"vehicle_type_id":"4","last_reported":1727576272,"current_range_meters":24000,"station_id":"ce4bhe12rcd13ifvqf30","pricing_plan_id":"cebpf4jnsgd1na2vs0mg"},{"bike_id":"2d0b0bbd-5a31-4c40-acb0-100c5b8393aa","system_id":"levelo_inurba_marseille","lat":43.30945,"lon":5.3904,"is_reserved":false,"is_disabled":false,"rental_uris":{"android":"levelo://app?vid=2d0b0bbd-5a31-4c40-acb0-100c5b8393aa","ios":"levelo://app?vid=2d0b0bbd-5a31-4c40-acb0-100c5b8393aa"},"vehicle_type_id":"4","last_reported":1727576272,"current_range_meters":17200,"station_id":"ce4bgup2rcd13ifvqco0","pricing_plan_id":"cebpf4jnsgd1na2vs0mg"},{"bike_id":"ed84faff-17c5-48fb-8753-c2f883b40c1d","system_id":"levelo_inurba_marseille","lat":43.23968,"lon":5.3663,"is_reserved":false,"is_disabled":false,"rental_uris":{"android":"levelo://app?vid=ed84faff-17c5-48fb-8753-c2f883b40c1d","ios":"levelo://app?vid=ed84faff-17c5-48fb-8753-c2f883b40c1d"},"vehicle_type_id":"4","last_reported":1727576272,"current_range_meters":38800,"station_id":"ce4bhi12rcd13ifvqfp0","pricing_plan_id":"cebpf4jnsgd1na2vs0mg"},{"bike_id":"1fc6360b-b716-4868-9d7c-71fb261a0a10","system_id":"levelo_inurba_marseille","lat":43.31984,"lon":5.38112,"is_reserved":false,"is_disabled":false,"rental_uris":{"android":"levelo://app?vid=1fc6360b-b716-4868-9d7c-71fb261a0a10","ios":"levelo://app?vid=1fc6360b-b716-4868-9d7c-71fb261a0a10"},"vehicle_type_id":"4","last_reported":1727576272,"current_range_meters":30400,"station_id":"ce4bhr12rcd13ifvqhpg","pricing_plan_id":"cebpf4jnsgd1na2vs0mg"},{"bike_id":"3b170ecf-4bbb-421f-886d-94818fba1de8","system_id":"levelo_inurba_marseille","lat":43.284794,"lon":5.400183,"is_reserved":false,"is_disabled":false,"rental_uris":{"android":"levelo://app?vid=3b170ecf-4bbb-421f-886d-94818fba1de8","ios":"levelo://app?vid=3b170ecf-4bbb-421f-886d-94818fba1de8"},"vehicle_type_id":"4","last_reported":1727576272,"current_range_meters":33600,"station_id":"ce4bh2h2rcd13ifvqdh0","pricing_plan_id":"cebpf4jnsgd1na2vs0mg"},{"bike_id":"fbd6dca8-1d60-4fd9-950d-7ea8198ecebb","system_id":"levelo_inurba_marseille","lat":43.29025,"lon":5.38639,"is_reserved":false,"is_disabled":false,"rental_uris":{"android":"levelo://app?vid=fbd6dca8-1d60-4fd9-950d-7ea8198ecebb","ios":"levelo://app?vid=fbd6dca8-1d60-4fd9-950d-7ea8198ecebb"},"vehicle_type_id":"4","last_reported":1727576272,"current_range_meters":28000,"station_id":"ce4bh4p2rcd13ifvqe0g","pricing_plan_id":"cebpf4jnsgd1na2vs0mg"},{"bike_id":"a84742ce-84eb-4d21-873c-4e72b449188c","system_id":"levelo_inurba_marseille","lat":43.26199,"lon":5.37922,"is_reserved":false,"is_disabled":false,"rental_uris":{"android":"levelo://app?vid=a84742ce-84eb-4d21-873c-4e72b449188c","ios":"levelo://app?vid=a84742ce-84eb-4d21-873c-4e72b449188c"},"vehicle_type_id":"4","last_reported":1727576272,"current_range_meters":36800,"station_id":"ce4bhjp2rcd13ifvqg90","pricing_plan_id":"cebpf4jnsgd1na2vs0mg"},{"bike_id":"b1fbf633-158f-4826-87cd-61ac506ccf65","system_id":"levelo_inurba_marseille","lat":43.33603,"lon":5.40986,"is_reserved":false,"is_disabled":false,"rental_uris":{"android":"levelo://app?vid=b1fbf633-158f-4826-87cd-61ac506ccf65","ios":"levelo://app?vid=b1fbf633-158f-4826-87cd-61ac506ccf65"},"vehicle_type_id":"4","last_reported":1727576272,"current_range_meters":38800,"station_id":"ce4bhqh2rcd13ifvqhmg","pricing_plan_id":"cebpf4jnsgd1na2vs0mg"},{"bike_id":"b0770d00-c38f-4e37-b240-ed7bc5977b1a","system_id":"levelo_inurba_marseille","lat":43.24658,"lon":5.38904,"is_reserved":false,"is_disabled":false,"rental_uris":{"android":"levelo://app?vid=b0770d00-c38f-4e37-b240-ed7bc5977b1a","ios":"levelo://app?vid=b0770d00-c38f-4e37-b240-ed7bc5977b1a"},"vehicle_type_id":"4","last_reported":1727576272,"current_range_meters":38400,"station_id":"ce4bhg12rcd13ifvqf60","pricing_plan_id":"cebpf4jnsgd1na2vs0mg"},{"bike_id":"a3688464-e73a-4d75-ac1f-64edd469d10b","system_id":"levelo_inurba_marseille","lat":43.30596,"lon":5.37234,"is_reserved":false,"is_disabled":false,"rental_uris":{"android":"levelo://app?vid=a3688464-e73a-4d75-ac1f-64edd469d10b","ios":"levelo://app?vid=a3688464-e73a-4d75-ac1f-64edd469d10b"},"vehicle_type_id":"4","last_reported":1727576272,"current_range_meters":39200,"station_id":"ce4bgqh2rcd13ifvqc4g","pricing_plan_id":"cebpf4jnsgd1na2vs0mg"},{"bike_id":"7cbdd151-1e4e-434f-a539-3a67c68f4471","system_id":"levelo_inurba_marseille","lat":43.23188,"lon":5.39975,"is_reserved":false,"is_disabled":false,"rental_uris":{"android":"levelo://app?vid=7cbdd151-1e4e-434f-a539-3a67c68f4471","ios":"levelo://app?vid=7cbdd151-1e4e-434f-a539-3a67c68f4471"},"vehicle_type_id":"4","last_reported":1727576272,"current_range_meters":28000,"station_id":"ce4bhn12rcd13ifvqgqg","pricing_plan_id":"cebpf4jnsgd1na2vs0mg"},{"bike_id":"b977b2fa-cb07-4572-9c34-a3fece1077de","system_id":"levelo_inurba_marseille","lat":43.29897,"lon":5.43668,"is_reserved":false,"is_disabled":false,"rental_uris":{"android":"levelo://app?vid=b977b2fa-cb07-4572-9c34-a3fece1077de","ios":"levelo://app?vid=b977b2fa-cb07-4572-9c34-a3fece1077de"},"vehicle_type_id":"4","last_reported":1727576272,"current_range_meters":7200,"station_id":"ce4bhpp2rcd13ifvqhfg","pricing_plan_id":"cebpf4jnsgd1na2vs0mg"},{"bike_id":"b4d5cc87-74f3-4d5f-891d-6e50dc9154a1","system_id":"levelo_inurba_marseille","lat":43.28436,"lon":5.3918,"is_reserved":false,"is_disabled":false,"rental_uris":{"android":"levelo://app?vid=b4d5cc87-74f3-4d5f-891d-6e50dc9154a1","ios":"levelo://app?vid=b4d5cc87-74f3-4d5f-891d-6e50dc9154a1"},"vehicle_type_id":"4","last_reported":1727576272,"current_range_meters":25600,"station_id":"ce4bhoh2rcd13ifvqh5g","pricing_plan_id":"cebpf4jnsgd1na2vs0mg"},{"bike_id":"a7f02e11-7266-4284-bcaf-f042ff58ae8a","system_id":"levelo_inurba_marseille","lat":43.29268,"lon":5.40901,"is_reserved":false,"is_disabled":false,"rental_uris":{"android":"levelo://app?vid=a7f02e11-7266-4284-bcaf-f042ff58ae8a","ios":"levelo://app?vid=a7f02e11-7266-4284-bcaf-f042ff58ae8a"},"vehicle_type_id":"4","last_reported":1727576272,"current_range_meters":38800,"station_id":"ce4bh192rcd13ifvqdc0","pricing_plan_id":"cebpf4jnsgd1na2vs0mg"},{"bike_id":"c51e285c-8141-4023-9ee3-49bcc68cf98c","system_id":"levelo_inurba_marseille","lat":43.25076,"lon":5.39501,"is_reserved":false,"is_disabled":false,"rental_uris":{"android":"levelo://app?vid=c51e285c-8141-4023-9ee3-49bcc68cf98c","ios":"levelo://app?vid=c51e285c-8141-4023-9ee3-49bcc68cf98c"},"vehicle_type_id":"4","last_reported":1727576272,"current_range_meters":38800,"station_id":"ce4bhm12rcd13ifvqgkg","pricing_plan_id":"cebpf4jnsgd1na2vs0mg"},{"bike_id":"28805098-09eb-4895-ac25-0248db865370","system_id":"levelo_inurba_marseille","lat":43.30788,"lon":5.37663,"is_reserved":false,"is_disabled":false,"rental_uris":{"android":"levelo://app?vid=28805098-09eb-4895-ac25-0248db865370","ios":"levelo://app?vid=28805098-09eb-4895-ac25-0248db865370"},"vehicle_type_id":"4","last_reported":1727576272,"current_range_meters":25200,"station_id":"ce4bgv92rcd13ifvqcq0","pricing_plan_id":"cebpf4jnsgd1na2vs0mg"},{"bike_id":"e73d2f8f-2974-4cdf-987c-a13b580a58f4","system_id":"levelo_inurba_marseille","lat":43.30434,"lon":5.38876,"is_reserved":false,"is_disabled":false,"rental_uris":{"android":"levelo://app?vid=e73d2f8f-2974-4cdf-987c-a13b580a58f4","ios":"levelo://app?vid=e73d2f8f-2974-4cdf-987c-a13b580a58f4"},"vehicle_type_id":"4","last_reported":1727576272,"current_range_meters":30400,"station_id":"ce4bgk12rcd13ifvqbi0","pricing_plan_id":"cebpf4jnsgd1na2vs0mg"},{"bike_id":"f71847c8-2159-4faa-96a8-b0113de2b7b7","system_id":"levelo_inurba_marseille","lat":43.31707,"lon":5.37789,"is_reserved":false,"is_disabled":false,"rental_uris":{"android":"levelo://app?vid=f71847c8-2159-4faa-96a8-b0113de2b7b7","ios":"levelo://app?vid=f71847c8-2159-4faa-96a8-b0113de2b7b7"},"vehicle_type_id":"4","last_reported":1727576272,"current_range_meters":34800,"station_id":"ce4bgth2rcd13ifvqch0","pricing_plan_id":"cebpf4jnsgd1na2vs0mg"},{"bike_id":"65e541cf-0b22-4d01-84b8-d19408cc233a","system_id":"levelo_inurba_marseille","lat":43.29577,"lon":5.37507,"is_reserved":false,"is_disabled":false,"rental_uris":{"android":"levelo://app?vid=65e541cf-0b22-4d01-84b8-d19408cc233a","ios":"levelo://app?vid=65e541cf-0b22-4d01-84b8-d19408cc233a"},"vehicle_type_id":"4","last_reported":1727576272,"current_range_meters":38000,"station_id":"ce4bgh92rcd13ifvqb50","pricing_plan_id":"cebpf4jnsgd1na2vs0mg"},{"bike_id":"7cfbd935-09f5-4a64-9e66-38667ba738a9","system_id":"levelo_inurba_marseille","lat":43.30545,"lon":5.38429,"is_reserved":false,"is_disabled":false,"rental_uris":{"android":"levelo://app?vid=7cfbd935-09f5-4a64-9e66-38667ba738a9","ios":"levelo://app?vid=7cfbd935-09f5-4a64-9e66-38667ba738a9"},"vehicle_type_id":"4","last_reported":1727576272,"current_range_meters":28000,"station_id":"ce4bgg92rcd13ifvqb30","pricing_plan_id":"cebpf4jnsgd1na2vs0mg"},{"bike_id":"c4a8f360-1206-4f4f-a92d-ac3dc185d9ac","system_id":"levelo_inurba_marseille","lat":43.30958,"lon":5.39032,"is_reserved":false,"is_disabled":false,"rental_uris":{"android":"levelo://app?vid=c4a8f360-1206-4f4f-a92d-ac3dc185d9ac","ios":"levelo://app?vid=c4a8f360-1206-4f4f-a92d-ac3dc185d9ac"},"vehicle_type_id":"4","last_reported":1727576272,"current_range_meters":26800,"station_id":"ce4bgup2rcd13ifvqco0","pricing_plan_id":"cebpf4jnsgd1na2vs0mg"},{"bike_id":"b0a72c88-459b-4686-a2b8-8e68bceab7c9","system_id":"levelo_inurba_marseille","lat":43.27911,"lon":5.39584,"is_reserved":false,"is_disabled":false,"rental_uris":{"android":"levelo://app?vid=b0a72c88-459b-4686-a2b8-8e68bceab7c9","ios":"levelo://app?vid=b0a72c88-459b-4686-a2b8-8e68bceab7c9"},"vehicle_type_id":"4","last_reported":1727576272,"current_range_meters":28400,"station_id":"ce4bhf92rcd13ifvqf40","pricing_plan_id":"cebpf4jnsgd1na2vs0mg"},{"bike_id":"eb35b74a-e100-4849-baf8-86135e114bef","system_id":"levelo_inurba_marseille","lat":43.2315,"lon":5.43697,"is_reserved":false,"is_disabled":false,"rental_uris":{"android":"levelo://app?vid=eb35b74a-e100-4849-baf8-86135e114bef","ios":"levelo://app?vid=eb35b74a-e100-4849-baf8-86135e114bef"},"vehicle_type_id":"4","last_reported":1727576272,"current_range_meters":33600,"station_id":"ce4bhmp2rcd13ifvqgog","pricing_plan_id":"cebpf4jnsgd1na2vs0mg"},{"bike_id":"3745d9c5-d2d6-4ca4-867b-77d0c4c7d04e","system_id":"levelo_inurba_marseille","lat":43.276865,"lon":5.389042,"is_reserved":false,"is_disabled":false,"rental_uris":{"android":"levelo://app?vid=3745d9c5-d2d6-4ca4-867b-77d0c4c7d04e","ios":"levelo://app?vid=3745d9c5-d2d6-4ca4-867b-77d0c4c7d04e"},"vehicle_type_id":"4","last_reported":1727576272,"current_range_meters":38400,"station_id":"ce4bhi12rcd13ifvqfo0","pricing_plan_id":"cebpf4jnsgd1na2vs0mg"},{"bike_id":"f277ccf0-1ace-449b-8f15-ca09dfbbe22b","system_id":"levelo_inurba_marseille","lat":43.28441,"lon":5.39191,"is_reserved":false,"is_disabled":false,"rental_uris":{"android":"levelo://app?vid=f277ccf0-1ace-449b-8f15-ca09dfbbe22b","ios":"levelo://app?vid=f277ccf0-1ace-449b-8f15-ca09dfbbe22b"},"vehicle_type_id":"4","last_reported":1727576272,"current_range_meters":20800,"station_id":"ce4bhoh2rcd13ifvqh5g","pricing_plan_id":"cebpf4jnsgd1na2vs0mg"},{"bike_id":"a2abc75e-5709-4b39-a3c5-861db4d4bbab","system_id":"levelo_inurba_marseille","lat":43.30288,"lon":5.39199,"is_reserved":false,"is_disabled":false,"rental_uris":{"android":"levelo://app?vid=a2abc75e-5709-4b39-a3c5-861db4d4bbab","ios":"levelo://app?vid=a2abc75e-5709-4b39-a3c5-861db4d4bbab"},"vehicle_type_id":"4","last_reported":1727576272,"current_range_meters":37600,"station_id":"ce4bgkh2rcd13ifvqbk0","pricing_plan_id":"cebpf4jnsgd1na2vs0mg"},{"bike_id":"a237980e-0e2a-46a3-88f4-0a016074b4d8","system_id":"levelo_inurba_marseille","lat":43.28854,"lon":5.3932,"is_reserved":false,"is_disabled":false,"rental_uris":{"android":"levelo://app?vid=a237980e-0e2a-46a3-88f4-0a016074b4d8","ios":"levelo://app?vid=a237980e-0e2a-46a3-88f4-0a016074b4d8"},"vehicle_type_id":"4","last_reported":1727576272,"current_range_meters":37600,"station_id":"ce4bh2p2rcd13ifvqdi0","pricing_plan_id":"cebpf4jnsgd1na2vs0mg"},{"bike_id":"5e5df2a8-fc83-409e-b866-856c2f3a7a92","system_id":"levelo_inurba_marseille","lat":43.30798,"lon":5.43517,"is_reserved":false,"is_disabled":false,"rental_uris":{"android":"levelo://app?vid=5e5df2a8-fc83-409e-b866-856c2f3a7a92","ios":"levelo://app?vid=5e5df2a8-fc83-409e-b866-856c2f3a7a92"},"vehicle_type_id":"4","last_reported":1727576272,"current_range_meters":27200,"station_id":"ce4bhph2rcd13ifvqheg","pricing_plan_id":"cebpf4jnsgd1na2vs0mg"},{"bike_id":"ec031ee8-d5aa-4504-b193-b76ff1fe44a4","system_id":"levelo_inurba_marseille","lat":43.30354,"lon":5.41871,"is_reserved":false,"is_disabled":false,"rental_uris":{"android":"levelo://app?vid=ec031ee8-d5aa-4504-b193-b76ff1fe44a4","ios":"levelo://app?vid=ec031ee8-d5aa-4504-b193-b76ff1fe44a4"},"vehicle_type_id":"4","last_reported":1727576272,"current_range_meters":36800,"station_id":"ce4bhop2rcd13ifvqh7g","pricing_plan_id":"cebpf4jnsgd1na2vs0mg"},{"bike_id":"40ff7732-bf7f-44dc-8434-dc5fcb280bc9","system_id":"levelo_inurba_marseille","lat":43.28455,"lon":5.35882,"is_reserved":false,"is_disabled":false,"rental_uris":{"android":"levelo://app?vid=40ff7732-bf7f-44dc-8434-dc5fcb280bc9","ios":"levelo://app?vid=40ff7732-bf7f-44dc-8434-dc5fcb280bc9"},"vehicle_type_id":"4","last_reported":1727576272,"current_range_meters":9200,"station_id":"ce4bhah2rcd13ifvqei0","pricing_plan_id":"cebpf4jnsgd1na2vs0mg"},{"bike_id":"5e54b452-ef58-4674-9b2d-4f9ba7c220ea","system_id":"levelo_inurba_marseille","lat":43.2811,"lon":5.37854,"is_reserved":false,"is_disabled":false,"rental_uris":{"android":"levelo://app?vid=5e54b452-ef58-4674-9b2d-4f9ba7c220ea","ios":"levelo://app?vid=5e54b452-ef58-4674-9b2d-4f9ba7c220ea"},"vehicle_type_id":"4","last_reported":1727576272,"current_range_meters":38800,"station_id":"ce4bha12rcd13ifvqee0","pricing_plan_id":"cebpf4jnsgd1na2vs0mg"},{"bike_id":"8eb5911f-c95e-4f31-a6d6-b3cd459f46bc","system_id":"levelo_inurba_marseille","lat":43.32478,"lon":5.36558,"is_reserved":false,"is_disabled":false,"rental_uris":{"android":"levelo://app?vid=8eb5911f-c95e-4f31-a6d6-b3cd459f46bc","ios":"levelo://app?vid=8eb5911f-c95e-4f31-a6d6-b3cd459f46bc"},"vehicle_type_id":"4","last_reported":1727576272,"current_range_meters":38800,"station_id":"ce4bhs12rcd13ifvqhvg","pricing_plan_id":"cebpf4jnsgd1na2vs0mg"},{"bike_id":"8c15f7b9-c15a-47d4-80f3-7d4bf38a2dce","system_id":"levelo_inurba_marseille","lat":43.29432,"lon":5.3863,"is_reserved":false,"is_disabled":false,"rental_uris":{"android":"levelo://app?vid=8c15f7b9-c15a-47d4-80f3-7d4bf38a2dce","ios":"levelo://app?vid=8c15f7b9-c15a-47d4-80f3-7d4bf38a2dce"},"vehicle_type_id":"4","last_reported":1727576272,"current_range_meters":34800,"station_id":"ce4bh2h2rcd13ifvqdh0","pricing_plan_id":"cebpf4jnsgd1na2vs0mg"},{"bike_id":"2cee1cba-5de8-4115-88f8-9dd26eb81e4e","system_id":"levelo_inurba_marseille","lat":43.28441,"lon":5.39184,"is_reserved":false,"is_disabled":false,"rental_uris":{"android":"levelo://app?vid=2cee1cba-5de8-4115-88f8-9dd26eb81e4e","ios":"levelo://app?vid=2cee1cba-5de8-4115-88f8-9dd26eb81e4e"},"vehicle_type_id":"4","last_reported":1727576272,"current_range_meters":36800,"station_id":"ce4bhoh2rcd13ifvqh5g","pricing_plan_id":"cebpf4jnsgd1na2vs0mg"},{"bike_id":"43581255-33c3-4285-83db-b19715dc7e5c","system_id":"levelo_inurba_marseille","lat":43.28956,"lon":5.39589,"is_reserved":false,"is_disabled":false,"rental_uris":{"android":"levelo://app?vid=43581255-33c3-4285-83db-b19715dc7e5c","ios":"levelo://app?vid=43581255-33c3-4285-83db-b19715dc7e5c"},"vehicle_type_id":"4","last_reported":1727576272,"current_range_meters":38800,"station_id":"ce4bh3h2rcd13ifvqdn0","pricing_plan_id":"cebpf4jnsgd1na2vs0mg"},{"bike_id":"a4b3be87-d47f-490d-9d83-26f3f511b770","system_id":"levelo_inurba_marseille","lat":43.3053,"lon":5.36716,"is_reserved":false,"is_disabled":false,"rental_uris":{"android":"levelo://app?vid=a4b3be87-d47f-490d-9d83-26f3f511b770","ios":"levelo://app?vid=a4b3be87-d47f-490d-9d83-26f3f511b770"},"vehicle_type_id":"4","last_reported":1727576272,"current_range_meters":38000,"station_id":"ce4bgrp2rcd13ifvqc9g","pricing_plan_id":"cebpf4jnsgd1na2vs0mg"},{"bike_id":"166fc8d0-d9a4-4ce9-98ad-940751752c83","system_id":"levelo_inurba_marseille","lat":43.25864,"lon":5.39897,"is_reserved":false,"is_disabled":false,"rental_uris":{"android":"levelo://app?vid=166fc8d0-d9a4-4ce9-98ad-940751752c83","ios":"levelo://app?vid=166fc8d0-d9a4-4ce9-98ad-940751752c83"},"vehicle_type_id":"4","last_reported":1727576272,"current_range_meters":15200,"station_id":"ce4bhl92rcd13ifvqghg","pricing_plan_id":"cebpf4jnsgd1na2vs0mg"},{"bike_id":"82657748-dafa-473e-a064-9a1e2aff5637","system_id":"levelo_inurba_marseille","lat":43.29176,"lon":5.35803,"is_reserved":false,"is_disabled":false,"rental_uris":{"android":"levelo://app?vid=82657748-dafa-473e-a064-9a1e2aff5637","ios":"levelo://app?vid=82657748-dafa-473e-a064-9a1e2aff5637"},"vehicle_type_id":"4","last_reported":1727576272,"current_range_meters":38800,"station_id":"ce4bhb12rcd13ifvqel0","pricing_plan_id":"cebpf4jnsgd1na2vs0mg"},{"bike_id":"ba682837-9f1a-4f56-9e3f-53323e5a6c3d","system_id":"levelo_inurba_marseille","lat":43.2868,"lon":5.38683,"is_reserved":false,"is_disabled":false,"rental_uris":{"android":"levelo://app?vid=ba682837-9f1a-4f56-9e3f-53323e5a6c3d","ios":"levelo://app?vid=ba682837-9f1a-4f56-9e3f-53323e5a6c3d"},"vehicle_type_id":"4","last_reported":1727576272,"current_range_meters":27600,"station_id":"ce4bh492rcd13ifvqdug","pricing_plan_id":"cebpf4jnsgd1na2vs0mg"},{"bike_id":"5697e06e-09a4-4143-bb2c-edc70f212a00","system_id":"levelo_inurba_marseille","lat":43.280884,"lon":5.406891,"is_reserved":false,"is_disabled":false,"rental_uris":{"android":"levelo://app?vid=5697e06e-09a4-4143-bb2c-edc70f212a00","ios":"levelo://app?vid=5697e06e-09a4-4143-bb2c-edc70f212a00"},"vehicle_type_id":"4","last_reported":1727576272,"current_range_meters":33600,"station_id":"","pricing_plan_id":"cebpf4jnsgd1na2vs0mg"},{"bike_id":"6a66b30d-b7e8-4317-88c5-fb9f52bf2878","system_id":"levelo_inurba_marseille","lat":43.23957,"lon":5.3663,"is_reserved":false,"is_disabled":false,"rental_uris":{"android":"levelo://app?vid=6a66b30d-b7e8-4317-88c5-fb9f52bf2878","ios":"levelo://app?vid=6a66b30d-b7e8-4317-88c5-fb9f52bf2878"},"vehicle_type_id":"4","last_reported":1727576272,"current_range_meters":38800,"station_id":"ce4bhi12rcd13ifvqfp0","pricing_plan_id":"cebpf4jnsgd1na2vs0mg"},{"bike_id":"9de0b148-f770-4dd7-833c-4ccee05e3af0","system_id":"levelo_inurba_marseille","lat":43.32654,"lon":5.40988,"is_reserved":false,"is_disabled":false,"rental_uris":{"android":"levelo://app?vid=9de0b148-f770-4dd7-833c-4ccee05e3af0","ios":"levelo://app?vid=9de0b148-f770-4dd7-833c-4ccee05e3af0"},"vehicle_type_id":"4","last_reported":1727576272,"current_range_meters":28000,"station_id":"ce4bhpp2rcd13ifvqhgg","pricing_plan_id":"cebpf4jnsgd1na2vs0mg"},{"bike_id":"c988cd7d-26c1-4bd0-ae7e-36efe31c873b","system_id":"levelo_inurba_marseille","lat":43.24651,"lon":5.389,"is_reserved":false,"is_disabled":false,"rental_uris":{"android":"levelo://app?vid=c988cd7d-26c1-4bd0-ae7e-36efe31c873b","ios":"levelo://app?vid=c988cd7d-26c1-4bd0-ae7e-36efe31c873b"},"vehicle_type_id":"4","last_reported":1727576272,"current_range_meters":30000,"station_id":"ce4bhg12rcd13ifvqf60","pricing_plan_id":"cebpf4jnsgd1na2vs0mg"},{"bike_id":"36e28af7-ddee-4540-a244-b5691f735fa0","system_id":"levelo_inurba_marseille","lat":43.31695,"lon":5.37759,"is_reserved":false,"is_disabled":false,"rental_uris":{"android":"levelo://app?vid=36e28af7-ddee-4540-a244-b5691f735fa0","ios":"levelo://app?vid=36e28af7-ddee-4540-a244-b5691f735fa0"},"vehicle_type_id":"4","last_reported":1727576272,"current_range_meters":9600,"station_id":"ce4bgth2rcd13ifvqch0","pricing_plan_id":"cebpf4jnsgd1na2vs0mg"},{"bike_id":"9efdf05c-571e-4c3a-a0bf-af0e0fbc032d","system_id":"levelo_inurba_marseille","lat":43.25097,"lon":5.39527,"is_reserved":false,"is_disabled":false,"rental_uris":{"android":"levelo://app?vid=9efdf05c-571e-4c3a-a0bf-af0e0fbc032d","ios":"levelo://app?vid=9efdf05c-571e-4c3a-a0bf-af0e0fbc032d"},"vehicle_type_id":"4","last_reported":1727576272,"current_range_meters":19600,"station_id":"ce4bhm12rcd13ifvqgkg","pricing_plan_id":"cebpf4jnsgd1na2vs0mg"},{"bike_id":"1cc77019-af30-41ea-a86f-a24abb3696c0","system_id":"levelo_inurba_marseille","lat":43.30594,"lon":5.37223,"is_reserved":false,"is_disabled":false,"rental_uris":{"android":"levelo://app?vid=1cc77019-af30-41ea-a86f-a24abb3696c0","ios":"levelo://app?vid=1cc77019-af30-41ea-a86f-a24abb3696c0"},"vehicle_type_id":"4","last_reported":1727576272,"current_range_meters":28800,"station_id":"ce4bgqh2rcd13ifvqc4g","pricing_plan_id":"cebpf4jnsgd1na2vs0mg"},{"bike_id":"f9f81779-6dce-4c4b-92b6-98ee48ba7231","system_id":"levelo_inurba_marseille","lat":43.2693,"lon":5.38919,"is_reserved":false,"is_disabled":false,"rental_uris":{"android":"levelo://app?vid=f9f81779-6dce-4c4b-92b6-98ee48ba7231","ios":"levelo://app?vid=f9f81779-6dce-4c4b-92b6-98ee48ba7231"},"vehicle_type_id":"4","last_reported":1727576272,"current_range_meters":36800,"station_id":"ce4bhhh2rcd13ifvqfl0","pricing_plan_id":"cebpf4jnsgd1na2vs0mg"},{"bike_id":"8537bd26-c143-480b-ac7c-86d2b5338011","system_id":"levelo_inurba_marseille","lat":43.26207,"lon":5.37454,"is_reserved":false,"is_disabled":false,"rental_uris":{"android":"levelo://app?vid=8537bd26-c143-480b-ac7c-86d2b5338011","ios":"levelo://app?vid=8537bd26-c143-480b-ac7c-86d2b5338011"},"vehicle_type_id":"4","last_reported":1727576272,"current_range_meters":38000,"station_id":"ce4bhgp2rcd13ifvqfc0","pricing_plan_id":"cebpf4jnsgd1na2vs0mg"},{"bike_id":"199f764e-7942-4511-a407-33ff4a7dc457","system_id":"levelo_inurba_marseille","lat":43.26018,"lon":5.37558,"is_reserved":false,"is_disabled":false,"rental_uris":{"android":"levelo://app?vid=199f764e-7942-4511-a407-33ff4a7dc457","ios":"levelo://app?vid=199f764e-7942-4511-a407-33ff4a7dc457"},"vehicle_type_id":"4","last_reported":1727576272,"current_range_meters":38000,"station_id":"ce4bhgh2rcd13ifvqfa0","pricing_plan_id":"cebpf4jnsgd1na2vs0mg"},{"bike_id":"0701cf2a-674c-4c9d-af1e-6650acbaaf74","system_id":"levelo_inurba_marseille","lat":43.28387,"lon":5.37296,"is_reserved":false,"is_disabled":false,"rental_uris":{"android":"levelo://app?vid=0701cf2a-674c-4c9d-af1e-6650acbaaf74","ios":"levelo://app?vid=0701cf2a-674c-4c9d-af1e-6650acbaaf74"},"vehicle_type_id":"4","last_reported":1727576272,"current_range_meters":11600,"station_id":"","pricing_plan_id":"cebpf4jnsgd1na2vs0mg"},{"bike_id":"26d19603-8175-4b6f-aa29-c8a304bccb18","system_id":"levelo_inurba_marseille","lat":43.24176,"lon":5.39736,"is_reserved":false,"is_disabled":false,"rental_uris":{"android":"levelo://app?vid=26d19603-8175-4b6f-aa29-c8a304bccb18","ios":"levelo://app?vid=26d19603-8175-4b6f-aa29-c8a304bccb18"},"vehicle_type_id":"4","last_reported":1727576272,"current_range_meters":8800,"station_id":"ce4bhn12rcd13ifvqgpg","pricing_plan_id":"cebpf4jnsgd1na2vs0mg"},{"bike_id":"07b2ddc3-3bf0-43f2-a213-ce4b66d54f1f","system_id":"levelo_inurba_marseille","lat":43.31169,"lon":5.38703,"is_reserved":false,"is_disabled":false,"rental_uris":{"android":"levelo://app?vid=07b2ddc3-3bf0-43f2-a213-ce4b66d54f1f","ios":"levelo://app?vid=07b2ddc3-3bf0-43f2-a213-ce4b66d54f1f"},"vehicle_type_id":"4","last_reported":1727576272,"current_range_meters":9600,"station_id":"ce4bgv12rcd13ifvqcp0","pricing_plan_id":"cebpf4jnsgd1na2vs0mg"},{"bike_id":"8dc67aea-8c43-4618-97ea-d8c40591f0a3","system_id":"levelo_inurba_marseille","lat":43.30886,"lon":5.3963,"is_reserved":false,"is_disabled":false,"rental_uris":{"android":"levelo://app?vid=8dc67aea-8c43-4618-97ea-d8c40591f0a3","ios":"levelo://app?vid=8dc67aea-8c43-4618-97ea-d8c40591f0a3"},"vehicle_type_id":"4","last_reported":1727576272,"current_range_meters":39200,"station_id":"ce4bh012rcd13ifvqcv0","pricing_plan_id":"cebpf4jnsgd1na2vs0mg"},{"bike_id":"85a015c0-c4c9-4a4f-b766-42ac9c9a1b08","system_id":"levelo_inurba_marseille","lat":43.30244,"lon":5.40065,"is_reserved":false,"is_disabled":false,"rental_uris":{"android":"levelo://app?vid=85a015c0-c4c9-4a4f-b766-42ac9c9a1b08","ios":"levelo://app?vid=85a015c0-c4c9-4a4f-b766-42ac9c9a1b08"},"vehicle_type_id":"4","last_reported":1727576272,"current_range_meters":39200,"station_id":"ce4bgvh2rcd13ifvqcs0","pricing_plan_id":"cebpf4jnsgd1na2vs0mg"},{"bike_id":"7c4071a4-9719-4e76-b949-99424a6ceea1","system_id":"levelo_inurba_marseille","lat":43.28464,"lon":5.35884,"is_reserved":false,"is_disabled":false,"rental_uris":{"android":"levelo://app?vid=7c4071a4-9719-4e76-b949-99424a6ceea1","ios":"levelo://app?vid=7c4071a4-9719-4e76-b949-99424a6ceea1"},"vehicle_type_id":"4","last_reported":1727576272,"current_range_meters":15200,"station_id":"ce4bhah2rcd13ifvqei0","pricing_plan_id":"cebpf4jnsgd1na2vs0mg"},{"bike_id":"420580b5-10a3-4293-8084-f8846fbc415a","system_id":"levelo_inurba_marseille","lat":43.28266,"lon":5.35077,"is_reserved":false,"is_disabled":false,"rental_uris":{"android":"levelo://app?vid=420580b5-10a3-4293-8084-f8846fbc415a","ios":"levelo://app?vid=420580b5-10a3-4293-8084-f8846fbc415a"},"vehicle_type_id":"4","last_reported":1727576272,"current_range_meters":38800,"station_id":"ce4bhbp2rcd13ifvqerg","pricing_plan_id":"cebpf4jnsgd1na2vs0mg"},{"bike_id":"91dce4e8-64ff-4b6c-a5c6-cdb6b952027b","system_id":"levelo_inurba_marseille","lat":43.31277,"lon":5.40196,"is_reserved":false,"is_disabled":false,"rental_uris":{"android":"levelo://app?vid=91dce4e8-64ff-4b6c-a5c6-cdb6b952027b","ios":"levelo://app?vid=91dce4e8-64ff-4b6c-a5c6-cdb6b952027b"},"vehicle_type_id":"4","last_reported":1727576272,"current_range_meters":33200,"station_id":"ce4bh092rcd13ifvqd30","pricing_plan_id":"cebpf4jnsgd1na2vs0mg"},{"bike_id":"d275d077-d0e4-45f6-b800-93db28a2b4ff","system_id":"levelo_inurba_marseille","lat":43.3149,"lon":5.3731,"is_reserved":false,"is_disabled":false,"rental_uris":{"android":"levelo://app?vid=d275d077-d0e4-45f6-b800-93db28a2b4ff","ios":"levelo://app?vid=d275d077-d0e4-45f6-b800-93db28a2b4ff"},"vehicle_type_id":"4","last_reported":1727576272,"current_range_meters":10000,"station_id":"ce4bgt12rcd13ifvqcd0","pricing_plan_id":"cebpf4jnsgd1na2vs0mg"},{"bike_id":"f389741c-aa7d-460e-a8b7-712fd6efee59","system_id":"levelo_inurba_marseille","lat":43.27624,"lon":5.36121,"is_reserved":false,"is_disabled":false,"rental_uris":{"android":"levelo://app?vid=f389741c-aa7d-460e-a8b7-712fd6efee59","ios":"levelo://app?vid=f389741c-aa7d-460e-a8b7-712fd6efee59"},"vehicle_type_id":"4","last_reported":1727576272,"current_range_meters":38800,"station_id":"ce4bgj92rcd13ifvqbe0","pricing_plan_id":"cebpf4jnsgd1na2vs0mg"},{"bike_id":"6cdca13d-24d1-4302-912a-54d18c748242","system_id":"levelo_inurba_marseille","lat":43.31083,"lon":5.40132,"is_reserved":false,"is_disabled":false,"rental_uris":{"android":"levelo://app?vid=6cdca13d-24d1-4302-912a-54d18c748242","ios":"levelo://app?vid=6cdca13d-24d1-4302-912a-54d18c748242"},"vehicle_type_id":"4","last_reported":1727576272,"current_range_meters":6800,"station_id":"","pricing_plan_id":"cebpf4jnsgd1na2vs0mg"},{"bike_id":"8db0e5cd-2187-4a1e-887b-1a2f8d3b39de","system_id":"levelo_inurba_marseille","lat":43.32261,"lon":5.38288,"is_reserved":false,"is_disabled":false,"rental_uris":{"android":"levelo://app?vid=8db0e5cd-2187-4a1e-887b-1a2f8d3b39de","ios":"levelo://app?vid=8db0e5cd-2187-4a1e-887b-1a2f8d3b39de"},"vehicle_type_id":"4","last_reported":1727576272,"current_range_meters":21600,"station_id":"ce4bhr12rcd13ifvqhqg","pricing_plan_id":"cebpf4jnsgd1na2vs0mg"},{"bike_id":"4b02d02f-e4f8-4503-af33-737662778152","system_id":"levelo_inurba_marseille","lat":43.27989,"lon":5.40009,"is_reserved":false,"is_disabled":false,"rental_uris":{"android":"levelo://app?vid=4b02d02f-e4f8-4503-af33-737662778152","ios":"levelo://app?vid=4b02d02f-e4f8-4503-af33-737662778152"},"vehicle_type_id":"4","last_reported":1727576272,"current_range_meters":38800,"station_id":"ce4bho92rcd13ifvqh4g","pricing_plan_id":"cebpf4jnsgd1na2vs0mg"},{"bike_id":"4189ce78-ba10-4b9f-926a-8ccc721e2613","system_id":"levelo_inurba_marseille","lat":43.28001,"lon":5.40018,"is_reserved":false,"is_disabled":false,"rental_uris":{"android":"levelo://app?vid=4189ce78-ba10-4b9f-926a-8ccc721e2613","ios":"levelo://app?vid=4189ce78-ba10-4b9f-926a-8ccc721e2613"},"vehicle_type_id":"4","last_reported":1727576272,"current_range_meters":38000,"station_id":"ce4bho92rcd13ifvqh4g","pricing_plan_id":"cebpf4jnsgd1na2vs0mg"},{"bike_id":"2739f21a-7d48-4a2c-8180-69d444e34103","system_id":"levelo_inurba_marseille","lat":43.26694,"lon":5.38262,"is_reserved":false,"is_disabled":false,"rental_uris":{"android":"levelo://app?vid=2739f21a-7d48-4a2c-8180-69d444e34103","ios":"levelo://app?vid=2739f21a-7d48-4a2c-8180-69d444e34103"},"vehicle_type_id":"4","last_reported":1727576272,"current_range_meters":34800,"station_id":"ce4bhg92rcd13ifvqf90","pricing_plan_id":"cebpf4jnsgd1na2vs0mg"},{"bike_id":"69ae3c53-f9ed-44c0-88fc-ca658486737b","system_id":"levelo_inurba_marseille","lat":43.31258,"lon":5.40172,"is_reserved":false,"is_disabled":false,"rental_uris":{"android":"levelo://app?vid=69ae3c53-f9ed-44c0-88fc-ca658486737b","ios":"levelo://app?vid=69ae3c53-f9ed-44c0-88fc-ca658486737b"},"vehicle_type_id":"4","last_reported":1727576272,"current_range_meters":26000,"station_id":"ce4bh092rcd13ifvqd30","pricing_plan_id":"cebpf4jnsgd1na2vs0mg"},{"bike_id":"5220e7ba-5183-450c-986e-1a09b217d618","system_id":"levelo_inurba_marseille","lat":43.28267,"lon":5.35064,"is_reserved":false,"is_disabled":false,"rental_uris":{"android":"levelo://app?vid=5220e7ba-5183-450c-986e-1a09b217d618","ios":"levelo://app?vid=5220e7ba-5183-450c-986e-1a09b217d618"},"vehicle_type_id":"4","last_reported":1727576272,"current_range_meters":38800,"station_id":"ce4bhbp2rcd13ifvqerg","pricing_plan_id":"cebpf4jnsgd1na2vs0mg"},{"bike_id":"3407da71-e9f5-4375-9956-506983640a2f","system_id":"levelo_inurba_marseille","lat":43.28998,"lon":5.37594,"is_reserved":false,"is_disabled":false,"rental_uris":{"android":"levelo://app?vid=3407da71-e9f5-4375-9956-506983640a2f","ios":"levelo://app?vid=3407da71-e9f5-4375-9956-506983640a2f"},"vehicle_type_id":"4","last_reported":1727576272,"current_range_meters":26000,"station_id":"ce4bh692rcd13ifvqe90","pricing_plan_id":"cebpf4jnsgd1na2vs0mg"},{"bike_id":"ccb5f810-f851-4128-b638-de137529ff01","system_id":"levelo_inurba_marseille","lat":43.26514,"lon":5.39551,"is_reserved":false,"is_disabled":false,"rental_uris":{"android":"levelo://app?vid=ccb5f810-f851-4128-b638-de137529ff01","ios":"levelo://app?vid=ccb5f810-f851-4128-b638-de137529ff01"},"vehicle_type_id":"4","last_reported":1727576272,"current_range_meters":38800,"station_id":"ce4bhi12rcd13ifvqfq0","pricing_plan_id":"cebpf4jnsgd1na2vs0mg"},{"bike_id":"90229d46-e6dc-4cb2-8d31-13c4ced060e1","system_id":"levelo_inurba_marseille","lat":43.29627,"lon":5.40592,"is_reserved":false,"is_disabled":false,"rental_uris":{"android":"levelo://app?vid=90229d46-e6dc-4cb2-8d31-13c4ced060e1","ios":"levelo://app?vid=90229d46-e6dc-4cb2-8d31-13c4ced060e1"},"vehicle_type_id":"4","last_reported":1727576272,"current_range_meters":30400,"station_id":"ce4bh0h2rcd13ifvqd60","pricing_plan_id":"cebpf4jnsgd1na2vs0mg"},{"bike_id":"98bf0500-3871-4a1d-aa4e-7c0118a7b6b4","system_id":"levelo_inurba_marseille","lat":43.313678,"lon":5.38492,"is_reserved":false,"is_disabled":false,"rental_uris":{"android":"levelo://app?vid=98bf0500-3871-4a1d-aa4e-7c0118a7b6b4","ios":"levelo://app?vid=98bf0500-3871-4a1d-aa4e-7c0118a7b6b4"},"vehicle_type_id":"4","last_reported":1727576272,"current_range_meters":31200,"station_id":"ce4bh2h2rcd13ifvqdh0","pricing_plan_id":"cebpf4jnsgd1na2vs0mg"},{"bike_id":"e66ea585-3401-4c11-b239-454e44cd71a2","system_id":"levelo_inurba_marseille","lat":43.3079,"lon":5.38151,"is_reserved":false,"is_disabled":false,"rental_uris":{"android":"levelo://app?vid=e66ea585-3401-4c11-b239-454e44cd71a2","ios":"levelo://app?vid=e66ea585-3401-4c11-b239-454e44cd71a2"},"vehicle_type_id":"4","last_reported":1727576272,"current_range_meters":37600,"station_id":"ce4bgt12rcd13ifvqce0","pricing_plan_id":"cebpf4jnsgd1na2vs0mg"},{"bike_id":"df4200b2-6a72-413d-9f09-d7539e057157","system_id":"levelo_inurba_marseille","lat":43.3117,"lon":5.38715,"is_reserved":false,"is_disabled":false,"rental_uris":{"android":"levelo://app?vid=df4200b2-6a72-413d-9f09-d7539e057157","ios":"levelo://app?vid=df4200b2-6a72-413d-9f09-d7539e057157"},"vehicle_type_id":"4","last_reported":1727576272,"current_range_meters":8000,"station_id":"ce4bgv12rcd13ifvqcp0","pricing_plan_id":"cebpf4jnsgd1na2vs0mg"},{"bike_id":"7363d669-645a-4bd6-bbf6-8d817ca7e68e","system_id":"levelo_inurba_marseille","lat":43.3043,"lon":5.38868,"is_reserved":false,"is_disabled":false,"rental_uris":{"android":"levelo://app?vid=7363d669-645a-4bd6-bbf6-8d817ca7e68e","ios":"levelo://app?vid=7363d669-645a-4bd6-bbf6-8d817ca7e68e"},"vehicle_type_id":"4","last_reported":1727576272,"current_range_meters":39200,"station_id":"ce4bgk12rcd13ifvqbi0","pricing_plan_id":"cebpf4jnsgd1na2vs0mg"},{"bike_id":"41ca4c63-8def-4c31-9103-fc1045ebe4a5","system_id":"levelo_inurba_marseille","lat":43.23191,"lon":5.35549,"is_reserved":false,"is_disabled":false,"rental_uris":{"android":"levelo://app?vid=41ca4c63-8def-4c31-9103-fc1045ebe4a5","ios":"levelo://app?vid=41ca4c63-8def-4c31-9103-fc1045ebe4a5"},"vehicle_type_id":"4","last_reported":1727576272,"current_range_meters":27200,"station_id":"ce4bhu92rcd13ifvqi70","pricing_plan_id":"cebpf4jnsgd1na2vs0mg"},{"bike_id":"0a199339-a1f6-40d6-9853-d66426462a31","system_id":"levelo_inurba_marseille","lat":43.29556,"lon":5.42279,"is_reserved":false,"is_disabled":false,"rental_uris":{"android":"levelo://app?vid=0a199339-a1f6-40d6-9853-d66426462a31","ios":"levelo://app?vid=0a199339-a1f6-40d6-9853-d66426462a31"},"vehicle_type_id":"4","last_reported":1727576272,"current_range_meters":37600,"station_id":"ce4bhph2rcd13ifvqhdg","pricing_plan_id":"cebpf4jnsgd1na2vs0mg"},{"bike_id":"63d59279-7897-4992-a91c-99431f9552ce","system_id":"levelo_inurba_marseille","lat":43.31175,"lon":5.38717,"is_reserved":false,"is_disabled":false,"rental_uris":{"android":"levelo://app?vid=63d59279-7897-4992-a91c-99431f9552ce","ios":"levelo://app?vid=63d59279-7897-4992-a91c-99431f9552ce"},"vehicle_type_id":"4","last_reported":1727576272,"current_range_meters":38800,"station_id":"ce4bgv12rcd13ifvqcp0","pricing_plan_id":"cebpf4jnsgd1na2vs0mg"},{"bike_id":"ad2828b2-2852-44f7-a21b-241451c370b5","system_id":"levelo_inurba_marseille","lat":43.33013,"lon":5.39039,"is_reserved":false,"is_disabled":false,"rental_uris":{"android":"levelo://app?vid=ad2828b2-2852-44f7-a21b-241451c370b5","ios":"levelo://app?vid=ad2828b2-2852-44f7-a21b-241451c370b5"},"vehicle_type_id":"4","last_reported":1727576272,"current_range_meters":39200,"station_id":"ce4bhr92rcd13ifvqhrg","pricing_plan_id":"cebpf4jnsgd1na2vs0mg"},{"bike_id":"b03d6611-22e8-4e2e-97e2-1377af580d0d","system_id":"levelo_inurba_marseille","lat":43.28657,"lon":5.38673,"is_reserved":false,"is_disabled":false,"rental_uris":{"android":"levelo://app?vid=b03d6611-22e8-4e2e-97e2-1377af580d0d","ios":"levelo://app?vid=b03d6611-22e8-4e2e-97e2-1377af580d0d"},"vehicle_type_id":"4","last_reported":1727576272,"current_range_meters":38400,"station_id":"ce4bh492rcd13ifvqdug","pricing_plan_id":"cebpf4jnsgd1na2vs0mg"},{"bike_id":"28704e94-6d32-447e-bf92-213dabd0e2e8","system_id":"levelo_inurba_marseille","lat":43.23188,"lon":5.39993,"is_reserved":false,"is_disabled":false,"rental_uris":{"android":"levelo://app?vid=28704e94-6d32-447e-bf92-213dabd0e2e8","ios":"levelo://app?vid=28704e94-6d32-447e-bf92-213dabd0e2e8"},"vehicle_type_id":"4","last_reported":1727576272,"current_range_meters":15200,"station_id":"ce4bhn12rcd13ifvqgqg","pricing_plan_id":"cebpf4jnsgd1na2vs0mg"},{"bike_id":"fff97008-1bf3-4acf-ba4c-e2258080dc12","system_id":"levelo_inurba_marseille","lat":43.3108,"lon":5.38352,"is_reserved":false,"is_disabled":false,"rental_uris":{"android":"levelo://app?vid=fff97008-1bf3-4acf-ba4c-e2258080dc12","ios":"levelo://app?vid=fff97008-1bf3-4acf-ba4c-e2258080dc12"},"vehicle_type_id":"4","last_reported":1727576272,"current_range_meters":36000,"station_id":"ce4bgv92rcd13ifvqcr0","pricing_plan_id":"cebpf4jnsgd1na2vs0mg"},{"bike_id":"8f020b6a-2426-411b-8ad3-71a44f103914","system_id":"levelo_inurba_marseille","lat":43.33608,"lon":5.41027,"is_reserved":false,"is_disabled":false,"rental_uris":{"android":"levelo://app?vid=8f020b6a-2426-411b-8ad3-71a44f103914","ios":"levelo://app?vid=8f020b6a-2426-411b-8ad3-71a44f103914"},"vehicle_type_id":"4","last_reported":1727576272,"current_range_meters":18800,"station_id":"ce4bhqh2rcd13ifvqhmg","pricing_plan_id":"cebpf4jnsgd1na2vs0mg"},{"bike_id":"275b0a25-1a9f-498c-9202-be550b06c3de","system_id":"levelo_inurba_marseille","lat":43.32291,"lon":5.38279,"is_reserved":false,"is_disabled":false,"rental_uris":{"android":"levelo://app?vid=275b0a25-1a9f-498c-9202-be550b06c3de","ios":"levelo://app?vid=275b0a25-1a9f-498c-9202-be550b06c3de"},"vehicle_type_id":"4","last_reported":1727576272,"current_range_meters":39200,"station_id":"ce4bhr12rcd13ifvqhqg","pricing_plan_id":"cebpf4jnsgd1na2vs0mg"},{"bike_id":"589811c5-7952-408c-99c6-27831d825ec0","system_id":"levelo_inurba_marseille","lat":43.2621,"lon":5.37917,"is_reserved":false,"is_disabled":false,"rental_uris":{"android":"levelo://app?vid=589811c5-7952-408c-99c6-27831d825ec0","ios":"levelo://app?vid=589811c5-7952-408c-99c6-27831d825ec0"},"vehicle_type_id":"4","last_reported":1727576272,"current_range_meters":37600,"station_id":"ce4bhjp2rcd13ifvqg90","pricing_plan_id":"cebpf4jnsgd1na2vs0mg"},{"bike_id":"e0448498-1923-4013-96e2-5aec4fc93af7","system_id":"levelo_inurba_marseille","lat":43.24808,"lon":5.37452,"is_reserved":false,"is_disabled":false,"rental_uris":{"android":"levelo://app?vid=e0448498-1923-4013-96e2-5aec4fc93af7","ios":"levelo://app?vid=e0448498-1923-4013-96e2-5aec4fc93af7"},"vehicle_type_id":"4","last_reported":1727576272,"current_range_meters":36400,"station_id":"ce4bhgh2rcd13ifvqfb0","pricing_plan_id":"cebpf4jnsgd1na2vs0mg"},{"bike_id":"90bd98a8-64e4-485e-ae20-a830b64e6d1f","system_id":"levelo_inurba_marseille","lat":43.2621,"lon":5.37446,"is_reserved":false,"is_disabled":false,"rental_uris":{"android":"levelo://app?vid=90bd98a8-64e4-485e-ae20-a830b64e6d1f","ios":"levelo://app?vid=90bd98a8-64e4-485e-ae20-a830b64e6d1f"},"vehicle_type_id":"4","last_reported":1727576272,"current_range_meters":32800,"station_id":"ce4bhgp2rcd13ifvqfc0","pricing_plan_id":"cebpf4jnsgd1na2vs0mg"},{"bike_id":"34a5ea0a-624d-4116-9185-b8cc0665a894","system_id":"levelo_inurba_marseille","lat":43.27219,"lon":5.3919,"is_reserved":false,"is_disabled":false,"rental_uris":{"android":"levelo://app?vid=34a5ea0a-624d-4116-9185-b8cc0665a894","ios":"levelo://app?vid=34a5ea0a-624d-4116-9185-b8cc0665a894"},"vehicle_type_id":"4","last_reported":1727576272,"current_range_meters":38800,"station_id":"ce4bhhp2rcd13ifvqfm0","pricing_plan_id":"cebpf4jnsgd1na2vs0mg"},{"bike_id":"0c3f0369-7cdf-4cba-a0db-09435ab8c8da","system_id":"levelo_inurba_marseille","lat":43.23188,"lon":5.39989,"is_reserved":false,"is_disabled":false,"rental_uris":{"android":"levelo://app?vid=0c3f0369-7cdf-4cba-a0db-09435ab8c8da","ios":"levelo://app?vid=0c3f0369-7cdf-4cba-a0db-09435ab8c8da"},"vehicle_type_id":"4","last_reported":1727576272,"current_range_meters":28400,"station_id":"ce4bhn12rcd13ifvqgqg","pricing_plan_id":"cebpf4jnsgd1na2vs0mg"},{"bike_id":"0df5d59f-82a7-48dc-a845-6aecb73c4853","system_id":"levelo_inurba_marseille","lat":43.31737,"lon":5.37731,"is_reserved":false,"is_disabled":false,"rental_uris":{"android":"levelo://app?vid=0df5d59f-82a7-48dc-a845-6aecb73c4853","ios":"levelo://app?vid=0df5d59f-82a7-48dc-a845-6aecb73c4853"},"vehicle_type_id":"4","last_reported":1727576272,"current_range_meters":38400,"station_id":"ce4bgth2rcd13ifvqch0","pricing_plan_id":"cebpf4jnsgd1na2vs0mg"},{"bike_id":"77643dcd-0518-4c6a-8cec-2c2c74faa607","system_id":"levelo_inurba_marseille","lat":43.30885,"lon":5.39627,"is_reserved":false,"is_disabled":false,"rental_uris":{"android":"levelo://app?vid=77643dcd-0518-4c6a-8cec-2c2c74faa607","ios":"levelo://app?vid=77643dcd-0518-4c6a-8cec-2c2c74faa607"},"vehicle_type_id":"4","last_reported":1727576272,"current_range_meters":8400,"station_id":"ce4bh012rcd13ifvqcv0","pricing_plan_id":"cebpf4jnsgd1na2vs0mg"},{"bike_id":"7cae8da8-36fc-4b61-9e74-80fcd16616d6","system_id":"levelo_inurba_marseille","lat":43.29236,"lon":5.40178,"is_reserved":false,"is_disabled":false,"rental_uris":{"android":"levelo://app?vid=7cae8da8-36fc-4b61-9e74-80fcd16616d6","ios":"levelo://app?vid=7cae8da8-36fc-4b61-9e74-80fcd16616d6"},"vehicle_type_id":"4","last_reported":1727576272,"current_range_meters":38000,"station_id":"ce4bh312rcd13ifvqdk0","pricing_plan_id":"cebpf4jnsgd1na2vs0mg"},{"bike_id":"1b89fa20-6646-4f25-9318-35703e24f767","system_id":"levelo_inurba_marseille","lat":43.25494,"lon":5.37651,"is_reserved":false,"is_disabled":false,"rental_uris":{"android":"levelo://app?vid=1b89fa20-6646-4f25-9318-35703e24f767","ios":"levelo://app?vid=1b89fa20-6646-4f25-9318-35703e24f767"},"vehicle_type_id":"4","last_reported":1727576272,"current_range_meters":38800,"station_id":"ce4bhh12rcd13ifvqff0","pricing_plan_id":"cebpf4jnsgd1na2vs0mg"},{"bike_id":"578ce527-fa82-4bc5-9233-45e69a86eb22","system_id":"levelo_inurba_marseille","lat":43.3199,"lon":5.38124,"is_reserved":false,"is_disabled":false,"rental_uris":{"android":"levelo://app?vid=578ce527-fa82-4bc5-9233-45e69a86eb22","ios":"levelo://app?vid=578ce527-fa82-4bc5-9233-45e69a86eb22"},"vehicle_type_id":"4","last_reported":1727576272,"current_range_meters":38800,"station_id":"ce4bhr12rcd13ifvqhpg","pricing_plan_id":"cebpf4jnsgd1na2vs0mg"},