{"last_updated":1742915422,"ttl":60,"version":"2.2","data":{"bikes":[{"bike_id":"d1257018-446a-4772-b636-eb92013c3d00","system_id":"levelo_inurba_marseille","lat":43.295229,"lon":5.375042,"is_reserved":false,"is_disabled":true,"rental_uris":{"android":"levelo://app?vid=d1257018-446a-4772-b636-eb92013c3d00","ios":"levelo://app?vid=d1257018-446a-4772-b636-eb92013c3d00"},"vehicle_type_id":"4","last_reported":1742915422,"current_range_meters":2800,"station_id":"","pricing_plan_id":"cebpf4jnsgd1na2vs0mg"},{"bike_id":"9fc1abbd-e03c-40c2-a57d-31648a4ce831","system_id":"levelo_inurba_marseille","lat":43.29222,"lon":5.36059,"is_reserved":false,"is_disabled":false,"rental_uris":{"android":"levelo://app?vid=9fc1abbd-e03c-40c2-a57d-31648a4ce831","ios":"levelo://app?vid=9fc1abbd-e03c-40c2-a57d-31648a4ce831"},"vehicle_type_id":"4","last_reported":1742915422,"current_range_meters":1200,"station_id":"ce4bhbh2rcd13ifvqeqg","pricing_plan_id":"cebpf4jnsgd1na2vs0mg"},{"bike_id":"7f643d53-da24-475e-9549-683091c8c325","system_id":"levelo_inurba_marseille","lat":43.30871,"lon":5.39631,"is_reserved":false,"is_disabled":false,"rental_uris":{"android":"levelo://app?vid=7f643d53-da24-475e-9549-683091c8c325","ios":"levelo://app?vid=7f643d53-da24-475e-9549-683091c8c325"},"vehicle_type_id":"4","last_reported":1742915422,"current_range_meters":2800,"station_id":"ce4bh012rcd13ifvqcv0","pricing_plan_id":"cebpf4jnsgd1na2vs0mg"},{"bike_id":"67a9e6a2-98f2-4e0d-928f-e1fee2432423","system_id":"levelo_inurba_marseille","lat":43.304016,"lon":5.364996,"is_reserved":false,"is_disabled":false,"rental_uris":{"android":"levelo://app?vid=67a9e6a2-98f2-4e0d-928f-e1fee2432423","ios":"levelo://app?vid=67a9e6a2-98f2-4e0d-928f-e1fee2432423"},"vehicle_type_id":"4","last_reported":1742915422,"current_range_meters":2800,"station_id":"ce4bh9p2rcd13ifvqed0","pricing_plan_id":"cebpf4jnsgd1na2vs0mg"},{"bike_id":"b171da26-119e-41e1-b2cd-afb442ce6a35","system_id":"levelo_inurba_marseille","lat":43.32346,"lon":5.36729,"is_reserved":false,"is_disabled":false,"rental_uris":{"android":"levelo://app?vid=b171da26-119e-41e1-b2cd-afb442ce6a35","ios":"levelo://app?vid=b171da26-119e-41e1-b2cd-afb442ce6a35"},"vehicle_type_id":"4","last_reported":1742915422,"current_range_meters":3200,"station_id":"ce4bhsh2rcd13ifvqi2g","pricing_plan_id":"cebpf4jnsgd1na2vs0mg"},{"bike_id":"03dc2499-7722-4659-b342-035ff90fd4f4","system_id":"levelo_inurba_marseille","lat":43.31365,"lon":5.36681,"is_reserved":false,"is_disabled":false,"rental_uris":{"android":"levelo://app?vid=03dc2499-7722-4659-b342-035ff90fd4f4","ios":"levelo://app?vid=03dc2499-7722-4659-b342-035ff90fd4f4"},"vehicle_type_id":"4","last_reported":1742915422,"current_range_meters":3200,"station_id":"ce4bgr92rcd13ifvqc6g","pricing_plan_id":"cebpf4jnsgd1na2vs0mg"},{"bike_id":"e8a8681a-90be-4ab3-80a0-95a4b8b4cbd9","system_id":"levelo_inurba_marseille","lat":43.31244,"lon":5.36849,"is_reserved":false,"is_disabled":false,"rental_uris":{"android":"levelo://app?vid=e8a8681a-90be-4ab3-80a0-95a4b8b4cbd9","ios":"levelo://app?vid=e8a8681a-90be-4ab3-80a0-95a4b8b4cbd9"},"vehicle_type_id":"4","last_reported":1742915422,"current_range_meters":3200,"station_id":"ce4bgl92rcd13ifvqbq0","pricing_plan_id":"cebpf4jnsgd1na2vs0mg"},{"bike_id":"a636d69c-19b5-419a-b2eb-a8424be63df9","system_id":"levelo_inurba_marseille","lat":43.232,"lon":5.35556,"is_reserved":false,"is_disabled":false,"rental_uris":{"android":"levelo://app?vid=a636d69c-19b5-419a-b2eb-a8424be63df9","ios":"levelo://app?vid=a636d69c-19b5-419a-b2eb-a8424be63df9"},"vehicle_type_id":"4","last_reported":1742915422,"current_range_meters":3200,"station_id":"ce4bhu92rcd13ifvqi70","pricing_plan_id":"cebpf4jnsgd1na2vs0mg"},{"bike_id":"d9e04fb2-4307-487c-887e-1ba8fa9c11fc","system_id":"levelo_inurba_marseille","lat":43.33189,"lon":5.38153,"is_reserved":false,"is_disabled":false,"rental_uris":{"android":"levelo://app?vid=d9e04fb2-4307-487c-887e-1ba8fa9c11fc","ios":"levelo://app?vid=d9e04fb2-4307-487c-887e-1ba8fa9c11fc"},"vehicle_type_id":"4","last_reported":1742915422,"current_range_meters":3600,"station_id":"","pricing_plan_id":"cebpf4jnsgd1na2vs0mg"},{"bike_id":"d8a6fc19-79ee-4e7e-8f4a-91045e903b5a","system_id":"levelo_inurba_marseille","lat":43.28276,"lon":5.3507,"is_reserved":false,"is_disabled":false,"rental_uris":{"android":"levelo://app?vid=d8a6fc19-79ee-4e7e-8f4a-91045e903b5a","ios":"levelo://app?vid=d8a6fc19-79ee-4e7e-8f4a-91045e903b5a"},"vehicle_type_id":"4","last_reported":1742915422,"current_range_meters":3600,"station_id":"ce4bhbp2rcd13ifvqerg","pricing_plan_id":"cebpf4jnsgd1na2vs0mg"},{"bike_id":"e6d5511a-5834-4560-8939-68a100cb53a1","system_id":"levelo_inurba_marseille","lat":43.29981,"lon":5.38489,"is_reserved":false,"is_disabled":false,"rental_uris":{"android":"levelo://app?vid=e6d5511a-5834-4560-8939-68a100cb53a1","ios":"levelo://app?vid=e6d5511a-5834-4560-8939-68a100cb53a1"},"vehicle_type_id":"4","last_reported":1742915422,"current_range_meters":3600,"station_id":"ce4bgj92rcd13ifvqbd0","pricing_plan_id":"cebpf4jnsgd1na2vs0mg"},{"bike_id":"a0a460eb-34d7-43d6-85ef-87b30455cbf0","system_id":"levelo_inurba_marseille","lat":43.23946,"lon":5.36616,"is_reserved":false,"is_disabled":false,"rental_uris":{"android":"levelo://app?vid=a0a460eb-34d7-43d6-85ef-87b30455cbf0","ios":"levelo://app?vid=a0a460eb-34d7-43d6-85ef-87b30455cbf0"},"vehicle_type_id":"4","last_reported":1742915422,"current_range_meters":3600,"station_id":"ce4bhi12rcd13ifvqfp0","pricing_plan_id":"cebpf4jnsgd1na2vs0mg"},{"bike_id":"c723a9e2-9573-4a67-8c27-178ee7e12990","system_id":"levelo_inurba_marseille","lat":43.27495,"lon":5.42448,"is_reserved":false,"is_disabled":false,"rental_uris":{"android":"levelo://app?vid=c723a9e2-9573-4a67-8c27-178ee7e12990","ios":"levelo://app?vid=c723a9e2-9573-4a67-8c27-178ee7e12990"},"vehicle_type_id":"4","last_reported":1742915422,"current_range_meters":3600,"station_id":"ce4bhn92rcd13ifvqgrg","pricing_plan_id":"cebpf4jnsgd1na2vs0mg"},{"bike_id":"eede77d7-2fcd-4caa-8de9-5dea982dd971","system_id":"levelo_inurba_marseille","lat":43.30803,"lon":5.37656,"is_reserved":false,"is_disabled":false,"rental_uris":{"android":"levelo://app?vid=eede77d7-2fcd-4caa-8de9-5dea982dd971","ios":"levelo://app?vid=eede77d7-2fcd-4caa-8de9-5dea982dd971"},"vehicle_type_id":"4","last_reported":1742915422,"current_range_meters":6000,"station_id":"ce4bgv92rcd13ifvqcq0","pricing_plan_id":"cebpf4jnsgd1na2vs0mg"},{"bike_id":"be295973-b64b-4612-a980-85ed6abce5b1","system_id":"levelo_inurba_marseille","lat":43.30419,"lon":5.39749,"is_reserved":false,"is_disabled":true,"rental_uris":{"android":"levelo://app?vid=be295973-b64b-4612-a980-85ed6abce5b1","ios":"levelo://app?vid=be295973-b64b-4612-a980-85ed6abce5b1"},"vehicle_type_id":"4","last_reported":1742915422,"current_range_meters":4000,"station_id":"ce4bh092rcd13ifvqd20","pricing_plan_id":"cebpf4jnsgd1na2vs0mg"},{"bike_id":"1768e305-c8dd-4dfa-93bf-5e4743b57457","system_id":"levelo_inurba_marseille","lat":43.29595,"lon":5.38102,"is_reserved":false,"is_disabled":false,"rental_uris":{"android":"levelo://app?vid=1768e305-c8dd-4dfa-93bf-5e4743b57457","ios":"levelo://app?vid=1768e305-c8dd-4dfa-93bf-5e4743b57457"},"vehicle_type_id":"4","last_reported":1742915422,"current_range_meters":4000,"station_id":"ce4bgl12rcd13ifvqbo0","pricing_plan_id":"cebpf4jnsgd1na2vs0mg"},{"bike_id":"ebf86de8-a3f7-4563-b9cd-62f5316ef4ec","system_id":"levelo_inurba_marseille","lat":43.30928,"lon":5.40145,"is_reserved":false,"is_disabled":true,"rental_uris":{"android":"levelo://app?vid=ebf86de8-a3f7-4563-b9cd-62f5316ef4ec","ios":"levelo://app?vid=ebf86de8-a3f7-4563-b9cd-62f5316ef4ec"},"vehicle_type_id":"4","last_reported":1742915422,"current_range_meters":4000,"station_id":"ce4bgvp2rcd13ifvqct0","pricing_plan_id":"cebpf4jnsgd1na2vs0mg"},{"bike_id":"5d655cd6-908c-415f-a582-1013a684d073","system_id":"levelo_inurba_marseille","lat":43.251105,"lon":5.403204,"is_reserved":false,"is_disabled":false,"rental_uris":{"android":"levelo://app?vid=5d655cd6-908c-415f-a582-1013a684d073","ios":"levelo://app?vid=5d655cd6-908c-415f-a582-1013a684d073"},"vehicle_type_id":"4","last_reported":1742915422,"current_range_meters":4000,"station_id":"ce4bhph2rcd13ifvqhdg","pricing_plan_id":"cebpf4jnsgd1na2vs0mg"},{"bike_id":"c674abf4-d5b2-45b5-99ee-1dd3f5179b2d","system_id":"levelo_inurba_marseille","lat":43.29683,"lon":5.36201,"is_reserved":false,"is_disabled":false,"rental_uris":{"android":"levelo://app?vid=c674abf4-d5b2-45b5-99ee-1dd3f5179b2d","ios":"levelo://app?vid=c674abf4-d5b2-45b5-99ee-1dd3f5179b2d"},"vehicle_type_id":"4","last_reported":1742915422,"current_range_meters":4000,"station_id":"","pricing_plan_id":"cebpf4jnsgd1na2vs0mg"},{"bike_id":"38c86b9d-9dd3-4ede-a2a3-f44b312eecca","system_id":"levelo_inurba_marseille","lat":43.3124,"lon":5.36856,"is_reserved":false,"is_disabled":false,"rental_uris":{"android":"levelo://app?vid=38c86b9d-9dd3-4ede-a2a3-f44b312eecca","ios":"levelo://app?vid=38c86b9d-9dd3-4ede-a2a3-f44b312eecca"},"vehicle_type_id":"4","last_reported":1742915422,"current_range_meters":4000,"station_id":"ce4bgl92rcd13ifvqbq0","pricing_plan_id":"cebpf4jnsgd1na2vs0mg"},{"bike_id":"63bd7dd6-1ec6-4081-abe3-a7f921de2485","system_id":"levelo_inurba_marseille","lat":43.26032,"lon":5.37548,"is_reserved":false,"is_disabled":false,"rental_uris":{"android":"levelo://app?vid=63bd7dd6-1ec6-4081-abe3-a7f921de2485","ios":"levelo://app?vid=63bd7dd6-1ec6-4081-abe3-a7f921de2485"},"vehicle_type_id":"4","last_reported":1742915422,"current_range_meters":4400,"station_id":"ce4bhgh2rcd13ifvqfa0","pricing_plan_id":"cebpf4jnsgd1na2vs0mg"},{"bike_id":"05160a09-5251-42a3-b58c-5d0443f8c766","system_id":"levelo_inurba_marseille","lat":43.23959,"lon":5.36646,"is_reserved":false,"is_disabled":false,"rental_uris":{"android":"levelo://app?vid=05160a09-5251-42a3-b58c-5d0443f8c766","ios":"levelo://app?vid=05160a09-5251-42a3-b58c-5d0443f8c766"},"vehicle_type_id":"4","last_reported":1742915422,"current_range_meters":4000,"station_id":"ce4bhi12rcd13ifvqfp0","pricing_plan_id":"cebpf4jnsgd1na2vs0mg"},{"bike_id":"8346cff8-8c16-44ab-8aad-37c09e3e19f8","system_id":"levelo_inurba_marseille","lat":43.29794,"lon":5.39345,"is_reserved":false,"is_disabled":false,"rental_uris":{"android":"levelo://app?vid=8346cff8-8c16-44ab-8aad-37c09e3e19f8","ios":"levelo://app?vid=8346cff8-8c16-44ab-8aad-37c09e3e19f8"},"vehicle_type_id":"4","last_reported":1742915422,"current_range_meters":4400,"station_id":"chh1huq6cuj3fo74tm60","pricing_plan_id":"cebpf4jnsgd1na2vs0mg"},{"bike_id":"f02a77b8-f810-41ff-bf5b-5ab742b469a7","system_id":"levelo_inurba_marseille","lat":43.23157,"lon":5.43694,"is_reserved":false,"is_disabled":false,"rental_uris":{"android":"levelo://app?vid=f02a77b8-f810-41ff-bf5b-5ab742b469a7","ios":"levelo://app?vid=f02a77b8-f810-41ff-bf5b-5ab742b469a7"},"vehicle_type_id":"4","last_reported":1742915422,"current_range_meters":4400,"station_id":"ce4bhmp2rcd13ifvqgog","pricing_plan_id":"cebpf4jnsgd1na2vs0mg"},{"bike_id":"755e2276-5383-44cf-b672-1079a206f824","system_id":"levelo_inurba_marseille","lat":43.29007,"lon":5.35608,"is_reserved":false,"is_disabled":false,"rental_uris":{"android":"levelo://app?vid=755e2276-5383-44cf-b672-1079a206f824","ios":"levelo://app?vid=755e2276-5383-44cf-b672-1079a206f824"},"vehicle_type_id":"4","last_reported":1742915422,"current_range_meters":4400,"station_id":"ce4bhb92rcd13ifvqen0","pricing_plan_id":"cebpf4jnsgd1na2vs0mg"},{"bike_id":"03921b2b-dbed-40f2-96f4-f2a269cdd9e3","system_id":"levelo_inurba_marseille","lat":43.292729,"lon":5.384298,"is_reserved":false,"is_disabled":false,"rental_uris":{"android":"levelo://app?vid=03921b2b-dbed-40f2-96f4-f2a269cdd9e3","ios":"levelo://app?vid=03921b2b-dbed-40f2-96f4-f2a269cdd9e3"},"vehicle_type_id":"4","last_reported":1742915422,"current_range_meters":4800,"station_id":"ce4bh012rcd13ifvqd10","pricing_plan_id":"cebpf4jnsgd1na2vs0mg"},{"bike_id":"cb0a9bcb-d684-4354-93e8-d7bbdde80dcb","system_id":"levelo_inurba_marseille","lat":43.29007,"lon":5.35606,"is_reserved":false,"is_disabled":false,"rental_uris":{"android":"levelo://app?vid=cb0a9bcb-d684-4354-93e8-d7bbdde80dcb","ios":"levelo://app?vid=cb0a9bcb-d684-4354-93e8-d7bbdde80dcb"},"vehicle_type_id":"4","last_reported":1742915422,"current_range_meters":4800,"station_id":"ce4bhb92rcd13ifvqen0","pricing_plan_id":"cebpf4jnsgd1na2vs0mg"},{"bike_id":"b8727117-5b78-4931-b703-6482be2d0344","system_id":"levelo_inurba_marseille","lat":43.25574,"lon":5.38237,"is_reserved":false,"is_disabled":false,"rental_uris":{"android":"levelo://app?vid=b8727117-5b78-4931-b703-6482be2d0344","ios":"levelo://app?vid=b8727117-5b78-4931-b703-6482be2d0344"},"vehicle_type_id":"4","last_reported":1742915422,"current_range_meters":4800,"station_id":"ce4bhih2rcd13ifvqfs0","pricing_plan_id":"cebpf4jnsgd1na2vs0mg"},{"bike_id":"b00ff642-be2e-436c-937d-290e7ef11bc5","system_id":"levelo_inurba_marseille","lat":43.25829,"lon":5.39429,"is_reserved":false,"is_disabled":false,"rental_uris":{"android":"levelo://app?vid=b00ff642-be2e-436c-937d-290e7ef11bc5","ios":"levelo://app?vid=b00ff642-be2e-436c-937d-290e7ef11bc5"},"vehicle_type_id":"4","last_reported":1742915422,"current_range_meters":4800,"station_id":"ce4bhip2rcd13ifvqft0","pricing_plan_id":"cebpf4jnsgd1na2vs0mg"},{"bike_id":"ff2e60d0-cc5d-485b-8b45-8f58e1016574","system_id":"levelo_inurba_marseille","lat":43.26696,"lon":5.38268,"is_reserved":false,"is_disabled":false,"rental_uris":{"android":"levelo://app?vid=ff2e60d0-cc5d-485b-8b45-8f58e1016574","ios":"levelo://app?vid=ff2e60d0-cc5d-485b-8b45-8f58e1016574"},"vehicle_type_id":"4","last_reported":1742915422,"current_range_meters":4800,"station_id":"ce4bhg92rcd13ifvqf90","pricing_plan_id":"cebpf4jnsgd1na2vs0mg"},{"bike_id":"99d08e56-dd78-493f-ab84-d4c9c6af602e","system_id":"levelo_inurba_marseille","lat":43.26803,"lon":5.40261,"is_reserved":false,"is_disabled":false,"rental_uris":{"android":"levelo://app?vid=99d08e56-dd78-493f-ab84-d4c9c6af602e","ios":"levelo://app?vid=99d08e56-dd78-493f-ab84-d4c9c6af602e"},"vehicle_type_id":"4","last_reported":1742915422,"current_range_meters":4800,"station_id":"ce501612rcd8frsf0b60","pricing_plan_id":"cebpf4jnsgd1na2vs0mg"},{"bike_id":"1d30640d-8c72-4eea-b61d-280f327187cd","system_id":"levelo_inurba_marseille","lat":43.30802,"lon":5.38157,"is_reserved":false,"is_disabled":false,"rental_uris":{"android":"levelo://app?vid=1d30640d-8c72-4eea-b61d-280f327187cd","ios":"levelo://app?vid=1d30640d-8c72-4eea-b61d-280f327187cd"},"vehicle_type_id":"4","last_reported":1742915422,"current_range_meters":4800,"station_id":"ce4bgt12rcd13ifvqce0","pricing_plan_id":"cebpf4jnsgd1na2vs0mg"},{"bike_id":"2f08ba24-c017-4334-8cd8-6cb49eab4771","system_id":"levelo_inurba_marseille","lat":43.31672,"lon":5.37253,"is_reserved":false,"is_disabled":false,"rental_uris":{"android":"levelo://app?vid=2f08ba24-c017-4334-8cd8-6cb49eab4771","ios":"levelo://app?vid=2f08ba24-c017-4334-8cd8-6cb49eab4771"},"vehicle_type_id":"4","last_reported":1742915422,"current_range_meters":4800,"station_id":"","pricing_plan_id":"cebpf4jnsgd1na2vs0mg"},{"bike_id":"7ae60f32-8e9e-46ef-b4bc-b2fbf5a5b138","system_id":"levelo_inurba_marseille","lat":43.24386,"lon":5.37063,"is_reserved":false,"is_disabled":false,"rental_uris":{"android":"levelo://app?vid=7ae60f32-8e9e-46ef-b4bc-b2fbf5a5b138","ios":"levelo://app?vid=7ae60f32-8e9e-46ef-b4bc-b2fbf5a5b138"},"vehicle_type_id":"4","last_reported":1742915422,"current_range_meters":4800,"station_id":"ce4bhhh2rcd13ifvqfk0","pricing_plan_id":"cebpf4jnsgd1na2vs0mg"},{"bike_id":"27d69d9d-3592-4e5c-b7d4-570054e639c8","system_id":"levelo_inurba_marseille","lat":43.31115,"lon":5.37774,"is_reserved":false,"is_disabled":false,"rental_uris":{"android":"levelo://app?vid=27d69d9d-3592-4e5c-b7d4-570054e639c8","ios":"levelo://app?vid=27d69d9d-3592-4e5c-b7d4-570054e639c8"},"vehicle_type_id":"4","last_reported":1742915422,"current_range_meters":4800,"station_id":"ce4bgt92rcd13ifvqcg0","pricing_plan_id":"cebpf4jnsgd1na2vs0mg"},{"bike_id":"48d89c9a-3a5d-412c-9902-b59eaba01bd7","system_id":"levelo_inurba_marseille","lat":43.28278,"lon":5.35073,"is_reserved":false,"is_disabled":false,"rental_uris":{"android":"levelo://app?vid=48d89c9a-3a5d-412c-9902-b59eaba01bd7","ios":"levelo://app?vid=48d89c9a-3a5d-412c-9902-b59eaba01bd7"},"vehicle_type_id":"4","last_reported":1742915422,"current_range_meters":5600,"station_id":"ce4bhbp2rcd13ifvqerg","pricing_plan_id":"cebpf4jnsgd1na2vs0mg"},{"bike_id":"6f3a3ecb-8dc9-4ceb-9c21-88f381d21dc9","system_id":"levelo_inurba_marseille","lat":43.31296,"lon":5.3761,"is_reserved":false,"is_disabled":false,"rental_uris":{"android":"levelo://app?vid=6f3a3ecb-8dc9-4ceb-9c21-88f381d21dc9","ios":"levelo://app?vid=6f3a3ecb-8dc9-4ceb-9c21-88f381d21dc9"},"vehicle_type_id":"4","last_reported":1742915422,"current_range_meters":5600,"station_id":"","pricing_plan_id":"cebpf4jnsgd1na2vs0mg"},{"bike_id":"a18bcc34-c41a-4d6a-897b-5b97c82ff532","system_id":"levelo_inurba_marseille","lat":43.25868,"lon":5.39896,"is_reserved":false,"is_disabled":false,"rental_uris":{"android":"levelo://app?vid=a18bcc34-c41a-4d6a-897b-5b97c82ff532","ios":"levelo://app?vid=a18bcc34-c41a-4d6a-897b-5b97c82ff532"},"vehicle_type_id":"4","last_reported":1742915422,"current_range_meters":5600,"station_id":"ce4bhl92rcd13ifvqghg","pricing_plan_id":"cebpf4jnsgd1na2vs0mg"},{"bike_id":"15e3e5eb-d835-4728-a546-750b58ac5259","system_id":"levelo_inurba_marseille","lat":43.31761,"lon":5.39013,"is_reserved":false,"is_disabled":false,"rental_uris":{"android":"levelo://app?vid=15e3e5eb-d835-4728-a546-750b58ac5259","ios":"levelo://app?vid=15e3e5eb-d835-4728-a546-750b58ac5259"},"vehicle_type_id":"4","last_reported":1742915422,"current_range_meters":6000,"station_id":"ce4bhqp2rcd13ifvqhng","pricing_plan_id":"cebpf4jnsgd1na2vs0mg"},{"bike_id":"89476b7e-1230-48da-bfa3-5763f7c9bde6","system_id":"levelo_inurba_marseille","lat":43.29739,"lon":5.37678,"is_reserved":false,"is_disabled":false,"rental_uris":{"android":"levelo://app?vid=89476b7e-1230-48da-bfa3-5763f7c9bde6","ios":"levelo://app?vid=89476b7e-1230-48da-bfa3-5763f7c9bde6"},"vehicle_type_id":"4","last_reported":1742915422,"current_range_meters":6000,"station_id":"ce4bgkh2rcd13ifvqbl0","pricing_plan_id":"cebpf4jnsgd1na2vs0mg"},{"bike_id":"40c6c38d-7c08-4634-b2e8-fc9f8f5447a9","system_id":"levelo_inurba_marseille","lat":43.24809,"lon":5.37455,"is_reserved":false,"is_disabled":false,"rental_uris":{"android":"levelo://app?vid=40c6c38d-7c08-4634-b2e8-fc9f8f5447a9","ios":"levelo://app?vid=40c6c38d-7c08-4634-b2e8-fc9f8f5447a9"},"vehicle_type_id":"4","last_reported":1742915422,"current_range_meters":9600,"station_id":"ce4bhgh2rcd13ifvqfb0","pricing_plan_id":"cebpf4jnsgd1na2vs0mg"},{"bike_id":"cf30ba2d-9dd5-4d8d-b3a7-9af496f3ef85","system_id":"levelo_inurba_marseille","lat":43.289226,"lon":5.381897,"is_reserved":false,"is_disabled":false,"rental_uris":{"android":"levelo://app?vid=cf30ba2d-9dd5-4d8d-b3a7-9af496f3ef85","ios":"levelo://app?vid=cf30ba2d-9dd5-4d8d-b3a7-9af496f3ef85"},"vehicle_type_id":"4","last_reported":1742915422,"current_range_meters":6000,"station_id":"ce4bh4p2rcd13ifvqe1g","pricing_plan_id":"cebpf4jnsgd1na2vs0mg"},{"bike_id":"7fe9a385-3cb1-429e-bc3b-abab1a23a3a2","system_id":"levelo_inurba_marseille","lat":43.23061,"lon":5.35496,"is_reserved":false,"is_disabled":false,"rental_uris":{"android":"levelo://app?vid=7fe9a385-3cb1-429e-bc3b-abab1a23a3a2","ios":"levelo://app?vid=7fe9a385-3cb1-429e-bc3b-abab1a23a3a2"},"vehicle_type_id":"4","last_reported":1742915422,"current_range_meters":6000,"station_id":"cpo3342slgdg3j2ifvpg","pricing_plan_id":"cebpf4jnsgd1na2vs0mg"},{"bike_id":"df632c8e-92f6-4b8a-9524-6d142d68aad1","system_id":"levelo_inurba_marseille","lat":43.255822,"lon":5.38232,"is_reserved":false,"is_disabled":false,"rental_uris":{"android":"levelo://app?vid=df632c8e-92f6-4b8a-9524-6d142d68aad1","ios":"levelo://app?vid=df632c8e-92f6-4b8a-9524-6d142d68aad1"},"vehicle_type_id":"4","last_reported":1742915422,"current_range_meters":6000,"station_id":"ce4bhih2rcd13ifvqfs0","pricing_plan_id":"cebpf4jnsgd1na2vs0mg"},{"bike_id":"9aea6e8a-b86b-41ee-a5bb-d2182d80f312","system_id":"levelo_inurba_marseille","lat":43.32033,"lon":5.41574,"is_reserved":false,"is_disabled":false,"rental_uris":{"android":"levelo://app?vid=9aea6e8a-b86b-41ee-a5bb-d2182d80f312","ios":"levelo://app?vid=9aea6e8a-b86b-41ee-a5bb-d2182d80f312"},"vehicle_type_id":"4","last_reported":1742915422,"current_range_meters":6400,"station_id":"ce4bhq92rcd13ifvqhkg","pricing_plan_id":"cebpf4jnsgd1na2vs0mg"},{"bike_id":"985cdd90-801c-40bf-9bb4-75028da6a7b9","system_id":"levelo_inurba_marseille","lat":43.30302,"lon":5.39211,"is_reserved":false,"is_disabled":false,"rental_uris":{"android":"levelo://app?vid=985cdd90-801c-40bf-9bb4-75028da6a7b9","ios":"levelo://app?vid=985cdd90-801c-40bf-9bb4-75028da6a7b9"},"vehicle_type_id":"4","last_reported":1742915422,"current_range_meters":6400,"station_id":"ce4bgkh2rcd13ifvqbk0","pricing_plan_id":"cebpf4jnsgd1na2vs0mg"},{"bike_id":"ad53f3fc-cf5b-43d1-b346-44e38477f0f2","system_id":"levelo_inurba_marseille","lat":43.248073,"lon":5.374631,"is_reserved":false,"is_disabled":false,"rental_uris":{"android":"levelo://app?vid=ad53f3fc-cf5b-43d1-b346-44e38477f0f2","ios":"levelo://app?vid=ad53f3fc-cf5b-43d1-b346-44e38477f0f2"},"vehicle_type_id":"4","last_reported":1742915422,"current_range_meters":4400,"station_id":"ce4bhgh2rcd13ifvqfb0","pricing_plan_id":"cebpf4jnsgd1na2vs0mg"},{"bike_id":"48048a86-a5b1-453a-bfb2-de8a0132daea","system_id":"levelo_inurba_marseille","lat":43.303009,"lon":5.36888,"is_reserved":false,"is_disabled":false,"rental_uris":{"android":"levelo://app?vid=48048a86-a5b1-453a-bfb2-de8a0132daea","ios":"levelo://app?vid=48048a86-a5b1-453a-bfb2-de8a0132daea"},"vehicle_type_id":"4","last_reported":1742915422,"current_range_meters":6400,"station_id":"ce4bgqh2rcd13ifvqc5g","pricing_plan_id":"cebpf4jnsgd1na2vs0mg"},{"bike_id":"a1467c8d-d458-48fa-ae2a-398452ffafde","system_id":"levelo_inurba_marseille","lat":43.31759,"lon":5.38996,"is_reserved":false,"is_disabled":false,"rental_uris":{"android":"levelo://app?vid=a1467c8d-d458-48fa-ae2a-398452ffafde","ios":"levelo://app?vid=a1467c8d-d458-48fa-ae2a-398452ffafde"},"vehicle_type_id":"4","last_reported":1742915422,"current_range_meters":6400,"station_id":"ce4bhqp2rcd13ifvqhng","pricing_plan_id":"cebpf4jnsgd1na2vs0mg"},{"bike_id":"d0de300c-b25d-4431-929e-879e18667c2d","system_id":"levelo_inurba_marseille","lat":43.33076,"lon":5.38701,"is_reserved":false,"is_disabled":false,"rental_uris":{"android":"levelo://app?vid=d0de300c-b25d-4431-929e-879e18667c2d","ios":"levelo://app?vid=d0de300c-b25d-4431-929e-879e18667c2d"},"vehicle_type_id":"4","last_reported":1742915422,"current_range_meters":6400,"station_id":"","pricing_plan_id":"cebpf4jnsgd1na2vs0mg"},{"bike_id":"775601d0-1d64-4764-8b8d-386525c8a65d","system_id":"levelo_inurba_marseille","lat":43.32113,"lon":5.3677,"is_reserved":false,"is_disabled":false,"rental_uris":{"android":"levelo://app?vid=775601d0-1d64-4764-8b8d-386525c8a65d","ios":"levelo://app?vid=775601d0-1d64-4764-8b8d-386525c8a65d"},"vehicle_type_id":"4","last_reported":1742915422,"current_range_meters":6400,"station_id":"ce4bhrh2rcd13ifvqhug","pricing_plan_id":"cebpf4jnsgd1na2vs0mg"},{"bike_id":"8723922e-320e-4649-af0a-8190d390afa0","system_id":"levelo_inurba_marseille","lat":43.32109,"lon":5.36779,"is_reserved":false,"is_disabled":false,"rental_uris":{"android":"levelo://app?vid=8723922e-320e-4649-af0a-8190d390afa0","ios":"levelo://app?vid=8723922e-320e-4649-af0a-8190d390afa0"},"vehicle_type_id":"4","last_reported":1742915422,"current_range_meters":6400,"station_id":"ce4bhrh2rcd13ifvqhug","pricing_plan_id":"cebpf4jnsgd1na2vs0mg"},{"bike_id":"fbfecbb6-5794-4d9a-9176-1810e4b4a7ef","system_id":"levelo_inurba_marseille","lat":43.23049,"lon":5.35485,"is_reserved":false,"is_disabled":false,"rental_uris":{"android":"levelo://app?vid=fbfecbb6-5794-4d9a-9176-1810e4b4a7ef","ios":"levelo://app?vid=fbfecbb6-5794-4d9a-9176-1810e4b4a7ef"},"vehicle_type_id":"4","last_reported":1742915422,"current_range_meters":6400,"station_id":"cpo3342slgdg3j2ifvpg","pricing_plan_id":"cebpf4jnsgd1na2vs0mg"},{"bike_id":"54a40a98-dfab-48eb-b83b-388ce6f29848","system_id":"levelo_inurba_marseille","lat":43.219403,"lon":5.418993,"is_reserved":false,"is_disabled":false,"rental_uris":{"android":"levelo://app?vid=54a40a98-dfab-48eb-b83b-388ce6f29848","ios":"levelo://app?vid=54a40a98-dfab-48eb-b83b-388ce6f29848"},"vehicle_type_id":"4","last_reported":1742915422,"current_range_meters":6400,"station_id":"","pricing_plan_id":"cebpf4jnsgd1na2vs0mg"},{"bike_id":"1b65f3cd-728f-4b90-b6fb-89cc294d02b1","system_id":"levelo_inurba_marseille","lat":43.29883,"lon":5.4366,"is_reserved":false,"is_disabled":false,"rental_uris":{"android":"levelo://app?vid=1b65f3cd-728f-4b90-b6fb-89cc294d02b1","ios":"levelo://app?vid=1b65f3cd-728f-4b90-b6fb-89cc294d02b1"},"vehicle_type_id":"4","last_reported":1742915422,"current_range_meters":6400,"station_id":"ce4bhpp2rcd13ifvqhfg","pricing_plan_id":"cebpf4jnsgd1na2vs0mg"},{"bike_id":"b44c183d-ee02-4b53-bf17-2dce3e3d84c3","system_id":"levelo_inurba_marseille","lat":43.31708,"lon":5.37735,"is_reserved":false,"is_disabled":false,"rental_uris":{"android":"levelo://app?vid=b44c183d-ee02-4b53-bf17-2dce3e3d84c3","ios":"levelo://app?vid=b44c183d-ee02-4b53-bf17-2dce3e3d84c3"},"vehicle_type_id":"4","last_reported":1742915422,"current_range_meters":6400,"station_id":"ce4bgth2rcd13ifvqch0","pricing_plan_id":"cebpf4jnsgd1na2vs0mg"},{"bike_id":"b50a5395-2b79-4841-9b61-d520ff6ff027","system_id":"levelo_inurba_marseille","lat":43.29794,"lon":5.38092,"is_reserved":false,"is_disabled":false,"rental_uris":{"android":"levelo://app?vid=b50a5395-2b79-4841-9b61-d520ff6ff027","ios":"levelo://app?vid=b50a5395-2b79-4841-9b61-d520ff6ff027"},"vehicle_type_id":"4","last_reported":1742915422,"current_range_meters":6800,"station_id":"ce4bgip2rcd13ifvqbb0","pricing_plan_id":"cebpf4jnsgd1na2vs0mg"},{"bike_id":"2462aff4-312c-46a9-ae18-d864ef42c20c","system_id":"levelo_inurba_marseille","lat":43.24176,"lon":5.36387,"is_reserved":false,"is_disabled":false,"rental_uris":{"android":"levelo://app?vid=2462aff4-312c-46a9-ae18-d864ef42c20c","ios":"levelo://app?vid=2462aff4-312c-46a9-ae18-d864ef42c20c"},"vehicle_type_id":"4","last_reported":1742915422,"current_range_meters":6800,"station_id":"cpo36qri1sfpv3e86is0","pricing_plan_id":"cebpf4jnsgd1na2vs0mg"},{"bike_id":"aee65f89-d928-4f0d-b9ee-4a47671540a1","system_id":"levelo_inurba_marseille","lat":43.31215,"lon":5.36853,"is_reserved":false,"is_disabled":false,"rental_uris":{"android":"levelo://app?vid=aee65f89-d928-4f0d-b9ee-4a47671540a1","ios":"levelo://app?vid=aee65f89-d928-4f0d-b9ee-4a47671540a1"},"vehicle_type_id":"4","last_reported":1742915422,"current_range_meters":6800,"station_id":"ce4bgl92rcd13ifvqbq0","pricing_plan_id":"cebpf4jnsgd1na2vs0mg"},{"bike_id":"1b8779ee-15bd-411f-8230-66fb3b9d06b8","system_id":"levelo_inurba_marseille","lat":43.29907,"lon":5.43656,"is_reserved":false,"is_disabled":false,"rental_uris":{"android":"levelo://app?vid=1b8779ee-15bd-411f-8230-66fb3b9d06b8","ios":"levelo://app?vid=1b8779ee-15bd-411f-8230-66fb3b9d06b8"},"vehicle_type_id":"4","last_reported":1742915422,"current_range_meters":6800,"station_id":"ce4bhpp2rcd13ifvqhfg","pricing_plan_id":"cebpf4jnsgd1na2vs0mg"},{"bike_id":"3476d96e-b00f-4daa-8a59-91c43b98658a","system_id":"levelo_inurba_marseille","lat":43.30146,"lon":5.37421,"is_reserved":false,"is_disabled":false,"rental_uris":{"android":"levelo://app?vid=3476d96e-b00f-4daa-8a59-91c43b98658a","ios":"levelo://app?vid=3476d96e-b00f-4daa-8a59-91c43b98658a"},"vehicle_type_id":"4","last_reported":1742915422,"current_range_meters":6800,"station_id":"ce4bgs92rcd13ifvqcc0","pricing_plan_id":"cebpf4jnsgd1na2vs0mg"},{"bike_id":"1cdb5e5f-6bda-4e07-b645-0554ed59cc39","system_id":"levelo_inurba_marseille","lat":43.25824,"lon":5.39436,"is_reserved":false,"is_disabled":false,"rental_uris":{"android":"levelo://app?vid=1cdb5e5f-6bda-4e07-b645-0554ed59cc39","ios":"levelo://app?vid=1cdb5e5f-6bda-4e07-b645-0554ed59cc39"},"vehicle_type_id":"4","last_reported":1742915422,"current_range_meters":6800,"station_id":"ce4bhip2rcd13ifvqft0","pricing_plan_id":"cebpf4jnsgd1na2vs0mg"},{"bike_id":"bd19e553-e5f5-4b5c-8770-02920f14b999","system_id":"levelo_inurba_marseille","lat":43.31397,"lon":5.36675,"is_reserved":false,"is_disabled":false,"rental_uris":{"android":"levelo://app?vid=bd19e553-e5f5-4b5c-8770-02920f14b999","ios":"levelo://app?vid=bd19e553-e5f5-4b5c-8770-02920f14b999"},"vehicle_type_id":"4","last_reported":1742915422,"current_range_meters":6800,"station_id":"","pricing_plan_id":"cebpf4jnsgd1na2vs0mg"},{"bike_id":"4b82f9a6-2f12-42e5-86cc-35d0acf12b8e","system_id":"levelo_inurba_marseille","lat":43.250943,"lon":5.395166,"is_reserved":false,"is_disabled":false,"rental_uris":{"android":"levelo://app?vid=4b82f9a6-2f12-42e5-86cc-35d0acf12b8e","ios":"levelo://app?vid=4b82f9a6-2f12-42e5-86cc-35d0acf12b8e"},"vehicle_type_id":"4","last_reported":1742915422,"current_range_meters":6800,"station_id":"ce4bhm12rcd13ifvqgkg","pricing_plan_id":"cebpf4jnsgd1na2vs0mg"},{"bike_id":"b1d42ec9-b25c-405e-b481-e18d1d15116a","system_id":"levelo_inurba_marseille","lat":43.28457,"lon":5.35888,"is_reserved":false,"is_disabled":false,"rental_uris":{"android":"levelo://app?vid=b1d42ec9-b25c-405e-b481-e18d1d15116a","ios":"levelo://app?vid=b1d42ec9-b25c-405e-b481-e18d1d15116a"},"vehicle_type_id":"4","last_reported":1742915422,"current_range_meters":6800,"station_id":"ce4bhah2rcd13ifvqei0","pricing_plan_id":"cebpf4jnsgd1na2vs0mg"},{"bike_id":"0c85e981-4a7d-4a03-81bb-c341b621aca9","system_id":"levelo_inurba_marseille","lat":43.293681,"lon":5.37847,"is_reserved":false,"is_disabled":false,"rental_uris":{"android":"levelo://app?vid=0c85e981-4a7d-4a03-81bb-c341b621aca9","ios":"levelo://app?vid=0c85e981-4a7d-4a03-81bb-c341b621aca9"},"vehicle_type_id":"4","last_reported":1742915422,"current_range_meters":11200,"station_id":"ce4bh192rcd13ifvqdb0","pricing_plan_id":"cebpf4jnsgd1na2vs0mg"},{"bike_id":"60a4bfdd-976f-4f2f-a21a-68c4e333ecd6","system_id":"levelo_inurba_marseille","lat":43.23064,"lon":5.35493,"is_reserved":false,"is_disabled":false,"rental_uris":{"android":"levelo://app?vid=60a4bfdd-976f-4f2f-a21a-68c4e333ecd6","ios":"levelo://app?vid=60a4bfdd-976f-4f2f-a21a-68c4e333ecd6"},"vehicle_type_id":"4","last_reported":1742915422,"current_range_meters":6800,"station_id":"cpo3342slgdg3j2ifvpg","pricing_plan_id":"cebpf4jnsgd1na2vs0mg"},{"bike_id":"c25dc083-e0b1-4df6-be60-f5722be711e8","system_id":"levelo_inurba_marseille","lat":43.31229,"lon":5.36857,"is_reserved":false,"is_disabled":false,"rental_uris":{"android":"levelo://app?vid=c25dc083-e0b1-4df6-be60-f5722be711e8","ios":"levelo://app?vid=c25dc083-e0b1-4df6-be60-f5722be711e8"},"vehicle_type_id":"4","last_reported":1742915422,"current_range_meters":6800,"station_id":"ce4bgl92rcd13ifvqbq0","pricing_plan_id":"cebpf4jnsgd1na2vs0mg"},{"bike_id":"e117a0a5-1095-47c3-90e2-c8d5bf6e72e4","system_id":"levelo_inurba_marseille","lat":43.30547,"lon":5.3667,"is_reserved":false,"is_disabled":false,"rental_uris":{"android":"levelo://app?vid=e117a0a5-1095-47c3-90e2-c8d5bf6e72e4","ios":"levelo://app?vid=e117a0a5-1095-47c3-90e2-c8d5bf6e72e4"},"vehicle_type_id":"4","last_reported":1742915422,"current_range_meters":6800,"station_id":"","pricing_plan_id":"cebpf4jnsgd1na2vs0mg"},{"bike_id":"e56f4c4f-abb0-4eff-85d8-3bf9684a4762","system_id":"levelo_inurba_marseille","lat":43.29038,"lon":5.37567,"is_reserved":false,"is_disabled":false,"rental_uris":{"android":"levelo://app?vid=e56f4c4f-abb0-4eff-85d8-3bf9684a4762","ios":"levelo://app?vid=e56f4c4f-abb0-4eff-85d8-3bf9684a4762"},"vehicle_type_id":"4","last_reported":1742915422,"current_range_meters":7200,"station_id":"ce4bh692rcd13ifvqe90","pricing_plan_id":"cebpf4jnsgd1na2vs0mg"},{"bike_id":"89726fdc-bac8-4a97-9944-0e6899c7f8d2","system_id":"levelo_inurba_marseille","lat":43.29693,"lon":5.36249,"is_reserved":false,"is_disabled":false,"rental_uris":{"android":"levelo://app?vid=89726fdc-bac8-4a97-9944-0e6899c7f8d2","ios":"levelo://app?vid=89726fdc-bac8-4a97-9944-0e6899c7f8d2"},"vehicle_type_id":"4","last_reported":1742915422,"current_range_meters":7200,"station_id":"","pricing_plan_id":"cebpf4jnsgd1na2vs0mg"},{"bike_id":"aed69125-97ee-4528-9111-b69673862534","system_id":"levelo_inurba_marseille","lat":43.28459,"lon":5.35892,"is_reserved":false,"is_disabled":false,"rental_uris":{"android":"levelo://app?vid=aed69125-97ee-4528-9111-b69673862534","ios":"levelo://app?vid=aed69125-97ee-4528-9111-b69673862534"},"vehicle_type_id":"4","last_reported":1742915422,"current_range_meters":7200,"station_id":"ce4bhah2rcd13ifvqei0","pricing_plan_id":"cebpf4jnsgd1na2vs0mg"},{"bike_id":"077f2b93-8f43-4f08-8ace-a02b56488cac","system_id":"levelo_inurba_marseille","lat":43.26224,"lon":5.40459,"is_reserved":false,"is_disabled":false,"rental_uris":{"android":"levelo://app?vid=077f2b93-8f43-4f08-8ace-a02b56488cac","ios":"levelo://app?vid=077f2b93-8f43-4f08-8ace-a02b56488cac"},"vehicle_type_id":"4","last_reported":1742915422,"current_range_meters":7200,"station_id":"ce4bhmh2rcd13ifvqgmg","pricing_plan_id":"cebpf4jnsgd1na2vs0mg"},{"bike_id":"54b2eb2e-f099-4f46-9067-448b807e02c4","system_id":"levelo_inurba_marseille","lat":43.29042,"lon":5.356,"is_reserved":false,"is_disabled":false,"rental_uris":{"android":"levelo://app?vid=54b2eb2e-f099-4f46-9067-448b807e02c4","ios":"levelo://app?vid=54b2eb2e-f099-4f46-9067-448b807e02c4"},"vehicle_type_id":"4","last_reported":1742915422,"current_range_meters":7200,"station_id":"","pricing_plan_id":"cebpf4jnsgd1na2vs0mg"},{"bike_id":"e95ab481-e584-4fb7-bc63-0bd77da140c4","system_id":"levelo_inurba_marseille","lat":43.3302,"lon":5.390037,"is_reserved":false,"is_disabled":false,"rental_uris":{"android":"levelo://app?vid=e95ab481-e584-4fb7-bc63-0bd77da140c4","ios":"levelo://app?vid=e95ab481-e584-4fb7-bc63-0bd77da140c4"},"vehicle_type_id":"4","last_reported":1742915422,"current_range_meters":7200,"station_id":"ce4bhr92rcd13ifvqhrg","pricing_plan_id":"cebpf4jnsgd1na2vs0mg"},{"bike_id":"1e611466-2c74-4567-9eb9-7c7a16ab3cce","system_id":"levelo_inurba_marseille","lat":43.28154,"lon":5.42636,"is_reserved":false,"is_disabled":false,"rental_uris":{"android":"levelo://app?vid=1e611466-2c74-4567-9eb9-7c7a16ab3cce","ios":"levelo://app?vid=1e611466-2c74-4567-9eb9-7c7a16ab3cce"},"vehicle_type_id":"4","last_reported":1742915422,"current_range_meters":7200,"station_id":"ce4bhnh2rcd13ifvqgug","pricing_plan_id":"cebpf4jnsgd1na2vs0mg"},{"bike_id":"640ea4b6-fa44-49b5-9378-cd6b5c97bbe6","system_id":"levelo_inurba_marseille","lat":43.29596,"lon":5.381,"is_reserved":false,"is_disabled":false,"rental_uris":{"android":"levelo://app?vid=640ea4b6-fa44-49b5-9378-cd6b5c97bbe6","ios":"levelo://app?vid=640ea4b6-fa44-49b5-9378-cd6b5c97bbe6"},"vehicle_type_id":"4","last_reported":1742915422,"current_range_meters":8000,"station_id":"ce4bgl12rcd13ifvqbo0","pricing_plan_id":"cebpf4jnsgd1na2vs0mg"},{"bike_id":"cd8456dc-e50a-46d0-b7a0-0ad92d02cfb5","system_id":"levelo_inurba_marseille","lat":43.314973,"lon":5.37315,"is_reserved":false,"is_disabled":false,"rental_uris":{"android":"levelo://app?vid=cd8456dc-e50a-46d0-b7a0-0ad92d02cfb5","ios":"levelo://app?vid=cd8456dc-e50a-46d0-b7a0-0ad92d02cfb5"},"vehicle_type_id":"4","last_reported":1742915422,"current_range_meters":8000,"station_id":"ce4bgt92rcd13ifvqcg0","pricing_plan_id":"cebpf4jnsgd1na2vs0mg"},{"bike_id":"85b3d61b-2258-48d9-8bf7-c2ef70b10193","system_id":"levelo_inurba_marseille","lat":43.25865,"lon":5.39896,"is_reserved":false,"is_disabled":false,"rental_uris":{"android":"levelo://app?vid=85b3d61b-2258-48d9-8bf7-c2ef70b10193","ios":"levelo://app?vid=85b3d61b-2258-48d9-8bf7-c2ef70b10193"},"vehicle_type_id":"4","last_reported":1742915422,"current_range_meters":8000,"station_id":"ce4bhl92rcd13ifvqghg","pricing_plan_id":"cebpf4jnsgd1na2vs0mg"},{"bike_id":"a6ef28f0-c60f-4119-bd1a-2502381c6037","system_id":"levelo_inurba_marseille","lat":43.30318,"lon":5.36906,"is_reserved":false,"is_disabled":false,"rental_uris":{"android":"levelo://app?vid=a6ef28f0-c60f-4119-bd1a-2502381c6037","ios":"levelo://app?vid=a6ef28f0-c60f-4119-bd1a-2502381c6037"},"vehicle_type_id":"4","last_reported":1742915422,"current_range_meters":8000,"station_id":"ce4bgqh2rcd13ifvqc5g","pricing_plan_id":"cebpf4jnsgd1na2vs0mg"},{"bike_id":"0dfb0d89-73f2-49b8-91e9-15d856e46939","system_id":"levelo_inurba_marseille","lat":43.24193,"lon":5.3972,"is_reserved":false,"is_disabled":false,"rental_uris":{"android":"levelo://app?vid=0dfb0d89-73f2-49b8-91e9-15d856e46939","ios":"levelo://app?vid=0dfb0d89-73f2-49b8-91e9-15d856e46939"},"vehicle_type_id":"4","last_reported":1742915422,"current_range_meters":8000,"station_id":"ce4bhn12rcd13ifvqgpg","pricing_plan_id":"cebpf4jnsgd1na2vs0mg"},{"bike_id":"4c682185-e6e5-4c8a-9441-25d3773bebc8","system_id":"levelo_inurba_marseille","lat":43.31758,"lon":5.39016,"is_reserved":false,"is_disabled":false,"rental_uris":{"android":"levelo://app?vid=4c682185-e6e5-4c8a-9441-25d3773bebc8","ios":"levelo://app?vid=4c682185-e6e5-4c8a-9441-25d3773bebc8"},"vehicle_type_id":"4","last_reported":1742915422,"current_range_meters":8000,"station_id":"ce4bhqp2rcd13ifvqhng","pricing_plan_id":"cebpf4jnsgd1na2vs0mg"},{"bike_id":"c0802077-7a16-4727-a8dd-d6fc82bd7f7d","system_id":"levelo_inurba_marseille","lat":43.26685,"lon":5.3827,"is_reserved":false,"is_disabled":false,"rental_uris":{"android":"levelo://app?vid=c0802077-7a16-4727-a8dd-d6fc82bd7f7d","ios":"levelo://app?vid=c0802077-7a16-4727-a8dd-d6fc82bd7f7d"},"vehicle_type_id":"4","last_reported":1742915422,"current_range_meters":8000,"station_id":"ce4bhg92rcd13ifvqf90","pricing_plan_id":"cebpf4jnsgd1na2vs0mg"},{"bike_id":"d5066645-afe1-47ec-b723-aa535f6130b7","system_id":"levelo_inurba_marseille","lat":43.29038,"lon":5.3758,"is_reserved":false,"is_disabled":false,"rental_uris":{"android":"levelo://app?vid=d5066645-afe1-47ec-b723-aa535f6130b7","ios":"levelo://app?vid=d5066645-afe1-47ec-b723-aa535f6130b7"},"vehicle_type_id":"4","last_reported":1742915422,"current_range_meters":8000,"station_id":"ce4bh692rcd13ifvqe90","pricing_plan_id":"cebpf4jnsgd1na2vs0mg"},{"bike_id":"ebe7d085-ac3c-48e7-9a36-54a9f134007a","system_id":"levelo_inurba_marseille","lat":43.31376,"lon":5.367,"is_reserved":false,"is_disabled":false,"rental_uris":{"android":"levelo://app?vid=ebe7d085-ac3c-48e7-9a36-54a9f134007a","ios":"levelo://app?vid=ebe7d085-ac3c-48e7-9a36-54a9f134007a"},"vehicle_type_id":"4","last_reported":1742915422,"current_range_meters":8000,"station_id":"ce4bgr92rcd13ifvqc6g","pricing_plan_id":"cebpf4jnsgd1na2vs0mg"},{"bike_id":"a0d4632a-7a87-4031-aeeb-061ca0feaca6","system_id":"levelo_inurba_marseille","lat":43.23959,"lon":5.36623,"is_reserved":false,"is_disabled":false,"rental_uris":{"android":"levelo://app?vid=a0d4632a-7a87-4031-aeeb-061ca0feaca6","ios":"levelo://app?vid=a0d4632a-7a87-4031-aeeb-061ca0feaca6"},"vehicle_type_id":"4","last_reported":1742915422,"current_range_meters":8400,"station_id":"ce4bhi12rcd13ifvqfp0","pricing_plan_id":"cebpf4jnsgd1na2vs0mg"},{"bike_id":"8863ea21-846f-4583-9230-75e6392ab351","system_id":"levelo_inurba_marseille","lat":43.31759,"lon":5.390323,"is_reserved":false,"is_disabled":false,"rental_uris":{"android":"levelo://app?vid=8863ea21-846f-4583-9230-75e6392ab351","ios":"levelo://app?vid=8863ea21-846f-4583-9230-75e6392ab351"},"vehicle_type_id":"4","last_reported":1742915422,"current_range_meters":8400,"station_id":"ce4bhqp2rcd13ifvqhng","pricing_plan_id":"cebpf4jnsgd1na2vs0mg"},{"bike_id":"e6cf5725-f827-412d-9ab3-d2471539fc7f","system_id":"levelo_inurba_marseille","lat":43.27208,"lon":5.39197,"is_reserved":false,"is_disabled":false,"rental_uris":{"android":"levelo://app?vid=e6cf5725-f827-412d-9ab3-d2471539fc7f","ios":"levelo://app?vid=e6cf5725-f827-412d-9ab3-d2471539fc7f"},"vehicle_type_id":"4","last_reported":1742915422,"current_range_meters":8400,"station_id":"ce4bhhp2rcd13ifvqfm0","pricing_plan_id":"cebpf4jnsgd1na2vs0mg"},{"bike_id":"fd671901-c79c-4635-b010-316e30e4a7ca","system_id":"levelo_inurba_marseille","lat":43.30554,"lon":5.3671,"is_reserved":false,"is_disabled":false,"rental_uris":{"android":"levelo://app?vid=fd671901-c79c-4635-b010-316e30e4a7ca","ios":"levelo://app?vid=fd671901-c79c-4635-b010-316e30e4a7ca"},"vehicle_type_id":"4","last_reported":1742915422,"current_range_meters":8400,"station_id":"ce4bgrp2rcd13ifvqc9g","pricing_plan_id":"cebpf4jnsgd1na2vs0mg"},{"bike_id":"ef43d9bd-e531-4a59-b8a9-fdc80b41fa34","system_id":"levelo_inurba_marseille","lat":43.31279,"lon":5.40171,"is_reserved":false,"is_disabled":true,"rental_uris":{"android":"levelo://app?vid=ef43d9bd-e531-4a59-b8a9-fdc80b41fa34","ios":"levelo://app?vid=ef43d9bd-e531-4a59-b8a9-fdc80b41fa34"},"vehicle_type_id":"4","last_reported":1742915422,"current_range_meters":8400,"station_id":"ce4bh092rcd13ifvqd30","pricing_plan_id":"cebpf4jnsgd1na2vs0mg"},{"bike_id":"9ea54192-fb11-48f4-94a2-a7add4650084","system_id":"levelo_inurba_marseille","lat":43.2827,"lon":5.35065,"is_reserved":false,"is_disabled":false,"rental_uris":{"android":"levelo://app?vid=9ea54192-fb11-48f4-94a2-a7add4650084","ios":"levelo://app?vid=9ea54192-fb11-48f4-94a2-a7add4650084"},"vehicle_type_id":"4","last_reported":1742915422,"current_range_meters":8400,"station_id":"ce4bhbp2rcd13ifvqerg","pricing_plan_id":"cebpf4jnsgd1na2vs0mg"},{"bike_id":"a12928e8-2ec5-48bb-9fe6-e4726f6a2ad5","system_id":"levelo_inurba_marseille","lat":43.23064,"lon":5.35483,"is_reserved":false,"is_disabled":false,"rental_uris":{"android":"levelo://app?vid=a12928e8-2ec5-48bb-9fe6-e4726f6a2ad5","ios":"levelo://app?vid=a12928e8-2ec5-48bb-9fe6-e4726f6a2ad5"},"vehicle_type_id":"4","last_reported":1742915422,"current_range_meters":8400,"station_id":"cpo3342slgdg3j2ifvpg","pricing_plan_id":"cebpf4jnsgd1na2vs0mg"},{"bike_id":"8c525436-78cb-4eda-8b88-16e3a6e0d390","system_id":"levelo_inurba_marseille","lat":43.24804,"lon":5.37453,"is_reserved":false,"is_disabled":false,"rental_uris":{"android":"levelo://app?vid=8c525436-78cb-4eda-8b88-16e3a6e0d390","ios":"levelo://app?vid=8c525436-78cb-4eda-8b88-16e3a6e0d390"},"vehicle_type_id":"4","last_reported":1742915422,"current_range_meters":8400,"station_id":"ce4bhgh2rcd13ifvqfb0","pricing_plan_id":"cebpf4jnsgd1na2vs0mg"},{"bike_id":"d7608a6d-c028-4adf-a31d-366dbf880c43","system_id":"levelo_inurba_marseille","lat":43.29227,"lon":5.36044,"is_reserved":false,"is_disabled":false,"rental_uris":{"android":"levelo://app?vid=d7608a6d-c028-4adf-a31d-366dbf880c43","ios":"levelo://app?vid=d7608a6d-c028-4adf-a31d-366dbf880c43"},"vehicle_type_id":"4","last_reported":1742915422,"current_range_meters":8800,"station_id":"ce4bhbh2rcd13ifvqeqg","pricing_plan_id":"cebpf4jnsgd1na2vs0mg"},{"bike_id":"d7c12436-4bbb-40d1-a28a-aede6f2646e5","system_id":"levelo_inurba_marseille","lat":43.3123,"lon":5.36864,"is_reserved":false,"is_disabled":false,"rental_uris":{"android":"levelo://app?vid=d7c12436-4bbb-40d1-a28a-aede6f2646e5","ios":"levelo://app?vid=d7c12436-4bbb-40d1-a28a-aede6f2646e5"},"vehicle_type_id":"4","last_reported":1742915422,"current_range_meters":8800,"station_id":"ce4bgl92rcd13ifvqbq0","pricing_plan_id":"cebpf4jnsgd1na2vs0mg"},{"bike_id":"c353c957-fbb8-408a-9097-46c8d6b68074","system_id":"levelo_inurba_marseille","lat":43.24229,"lon":5.39617,"is_reserved":false,"is_disabled":false,"rental_uris":{"android":"levelo://app?vid=c353c957-fbb8-408a-9097-46c8d6b68074","ios":"levelo://app?vid=c353c957-fbb8-408a-9097-46c8d6b68074"},"vehicle_type_id":"4","last_reported":1742915422,"current_range_meters":8800,"station_id":"","pricing_plan_id":"cebpf4jnsgd1na2vs0mg"},{"bike_id":"d5471ddf-454d-4589-823a-a8b819e75841","system_id":"levelo_inurba_marseille","lat":43.281551,"lon":5.426545,"is_reserved":false,"is_disabled":false,"rental_uris":{"android":"levelo://app?vid=d5471ddf-454d-4589-823a-a8b819e75841","ios":"levelo://app?vid=d5471ddf-454d-4589-823a-a8b819e75841"},"vehicle_type_id":"4","last_reported":1742915422,"current_range_meters":9200,"station_id":"ce4bhnh2rcd13ifvqgug","pricing_plan_id":"cebpf4jnsgd1na2vs0mg"},{"bike_id":"2a00e69f-e8f0-4293-a71f-9f6c011d4f23","system_id":"levelo_inurba_marseille","lat":43.25001,"lon":5.38921,"is_reserved":false,"is_disabled":false,"rental_uris":{"android":"levelo://app?vid=2a00e69f-e8f0-4293-a71f-9f6c011d4f23","ios":"levelo://app?vid=2a00e69f-e8f0-4293-a71f-9f6c011d4f23"},"vehicle_type_id":"4","last_reported":1742915422,"current_range_meters":9200,"station_id":"ce4bhgp2rcd13ifvqfd0","pricing_plan_id":"cebpf4jnsgd1na2vs0mg"},{"bike_id":"2a99ecb7-4bf0-4c00-89bb-11ff019b8a6d","system_id":"levelo_inurba_marseille","lat":43.22938,"lon":5.35392,"is_reserved":false,"is_disabled":false,"rental_uris":{"android":"levelo://app?vid=2a99ecb7-4bf0-4c00-89bb-11ff019b8a6d","ios":"levelo://app?vid=2a99ecb7-4bf0-4c00-89bb-11ff019b8a6d"},"vehicle_type_id":"4","last_reported":1742915422,"current_range_meters":9200,"station_id":"cpo3532slgdg3j2ikp40","pricing_plan_id":"cebpf4jnsgd1na2vs0mg"},{"bike_id":"c92ac62d-2e46-4289-843a-c760d8da0c94","system_id":"levelo_inurba_marseille","lat":43.25738,"lon":5.41146,"is_reserved":false,"is_disabled":false,"rental_uris":{"android":"levelo://app?vid=c92ac62d-2e46-4289-843a-c760d8da0c94","ios":"levelo://app?vid=c92ac62d-2e46-4289-843a-c760d8da0c94"},"vehicle_type_id":"4","last_reported":1742915422,"current_range_meters":9200,"station_id":"ce4bhkp2rcd13ifvqgd0","pricing_plan_id":"cebpf4jnsgd1na2vs0mg"},{"bike_id":"d3fecb38-2c1f-4e38-844f-b904bd73d02c","system_id":"levelo_inurba_marseille","lat":43.29554,"lon":5.4229,"is_reserved":false,"is_disabled":false,"rental_uris":{"android":"levelo://app?vid=d3fecb38-2c1f-4e38-844f-b904bd73d02c","ios":"levelo://app?vid=d3fecb38-2c1f-4e38-844f-b904bd73d02c"},"vehicle_type_id":"4","last_reported":1742915422,"current_range_meters":9200,"station_id":"ce4bhph2rcd13ifvqhdg","pricing_plan_id":"cebpf4jnsgd1na2vs0mg"},{"bike_id":"eb13ddc1-ad37-43fa-a295-1f99c655fb28","system_id":"levelo_inurba_marseille","lat":43.28416,"lon":5.34977,"is_reserved":false,"is_disabled":false,"rental_uris":{"android":"levelo://app?vid=eb13ddc1-ad37-43fa-a295-1f99c655fb28","ios":"levelo://app?vid=eb13ddc1-ad37-43fa-a295-1f99c655fb28"},"vehicle_type_id":"4","last_reported":1742915422,"current_range_meters":9200,"station_id":"ce4bhbh2rcd13ifvqepg","pricing_plan_id":"cebpf4jnsgd1na2vs0mg"},{"bike_id":"1848cf99-7a86-429c-a1af-abe291b1144c","system_id":"levelo_inurba_marseille","lat":43.32479,"lon":5.36575,"is_reserved":false,"is_disabled":false,"rental_uris":{"android":"levelo://app?vid=1848cf99-7a86-429c-a1af-abe291b1144c","ios":"levelo://app?vid=1848cf99-7a86-429c-a1af-abe291b1144c"},"vehicle_type_id":"4","last_reported":1742915422,"current_range_meters":9200,"station_id":"ce4bhs12rcd13ifvqhvg","pricing_plan_id":"cebpf4jnsgd1na2vs0mg"},{"bike_id":"73f3ec16-bfdc-4f38-98c2-6dfc57ca4da1","system_id":"levelo_inurba_marseille","lat":43.29541,"lon":5.37497,"is_reserved":false,"is_disabled":false,"rental_uris":{"android":"levelo://app?vid=73f3ec16-bfdc-4f38-98c2-6dfc57ca4da1","ios":"levelo://app?vid=73f3ec16-bfdc-4f38-98c2-6dfc57ca4da1"},"vehicle_type_id":"4","last_reported":1742915422,"current_range_meters":9200,"station_id":"ce4bgkp2rcd13ifvqbmg","pricing_plan_id":"cebpf4jnsgd1na2vs0mg"},{"bike_id":"d0ce6a4c-8c1a-4117-b620-bb8816808dbc","system_id":"levelo_inurba_marseille","lat":43.239659,"lon":5.366298,"is_reserved":false,"is_disabled":false,"rental_uris":{"android":"levelo://app?vid=d0ce6a4c-8c1a-4117-b620-bb8816808dbc","ios":"levelo://app?vid=d0ce6a4c-8c1a-4117-b620-bb8816808dbc"},"vehicle_type_id":"4","last_reported":1742915422,"current_range_meters":9200,"station_id":"ce4bhi12rcd13ifvqfp0","pricing_plan_id":"cebpf4jnsgd1na2vs0mg"},{"bike_id":"197a5fba-44c1-4e8a-8e0f-bef154324847","system_id":"levelo_inurba_marseille","lat":43.2827,"lon":5.35075,"is_reserved":false,"is_disabled":false,"rental_uris":{"android":"levelo://app?vid=197a5fba-44c1-4e8a-8e0f-bef154324847","ios":"levelo://app?vid=197a5fba-44c1-4e8a-8e0f-bef154324847"},"vehicle_type_id":"4","last_reported":1742915422,"current_range_meters":9200,"station_id":"ce4bhbp2rcd13ifvqerg","pricing_plan_id":"cebpf4jnsgd1na2vs0mg"},{"bike_id":"78cc74cc-3a70-4a25-843c-3bc4d38bc7c6","system_id":"levelo_inurba_marseille","lat":43.30808,"lon":5.38153,"is_reserved":false,"is_disabled":false,"rental_uris":{"android":"levelo://app?vid=78cc74cc-3a70-4a25-843c-3bc4d38bc7c6","ios":"levelo://app?vid=78cc74cc-3a70-4a25-843c-3bc4d38bc7c6"},"vehicle_type_id":"4","last_reported":1742915422,"current_range_meters":6800,"station_id":"ce4bgt12rcd13ifvqce0","pricing_plan_id":"cebpf4jnsgd1na2vs0mg"},{"bike_id":"8871fee1-c30f-4721-bb9f-022f22051a94","system_id":"levelo_inurba_marseille","lat":43.24165,"lon":5.39733,"is_reserved":false,"is_disabled":false,"rental_uris":{"android":"levelo://app?vid=8871fee1-c30f-4721-bb9f-022f22051a94","ios":"levelo://app?vid=8871fee1-c30f-4721-bb9f-022f22051a94"},"vehicle_type_id":"4","last_reported":1742915422,"current_range_meters":9600,"station_id":"ce4bhn12rcd13ifvqgpg","pricing_plan_id":"cebpf4jnsgd1na2vs0mg"},{"bike_id":"f294d69a-8637-46e9-95b8-3d82151d6376","system_id":"levelo_inurba_marseille","lat":43.27992,"lon":5.4166,"is_reserved":false,"is_disabled":true,"rental_uris":{"android":"levelo://app?vid=f294d69a-8637-46e9-95b8-3d82151d6376","ios":"levelo://app?vid=f294d69a-8637-46e9-95b8-3d82151d6376"},"vehicle_type_id":"4","last_reported":1742915422,"current_range_meters":9600,"station_id":"ce4bho12rcd13ifvqh1g","pricing_plan_id":"cebpf4jnsgd1na2vs0mg"},{"bike_id":"e3f76d45-4904-44a7-aac2-e04832e991bb","system_id":"levelo_inurba_marseille","lat":43.29966,"lon":5.4132,"is_reserved":false,"is_disabled":true,"rental_uris":{"android":"levelo://app?vid=e3f76d45-4904-44a7-aac2-e04832e991bb","ios":"levelo://app?vid=e3f76d45-4904-44a7-aac2-e04832e991bb"},"vehicle_type_id":"4","last_reported":1742915422,"current_range_meters":9600,"station_id":"ce4bhp12rcd13ifvqh9g","pricing_plan_id":"cebpf4jnsgd1na2vs0mg"},{"bike_id":"f5f4e51b-dfe9-4880-93b8-d8ae3d87c58c","system_id":"levelo_inurba_marseille","lat":43.23189,"lon":5.35564,"is_reserved":false,"is_disabled":false,"rental_uris":{"android":"levelo://app?vid=f5f4e51b-dfe9-4880-93b8-d8ae3d87c58c","ios":"levelo://app?vid=f5f4e51b-dfe9-4880-93b8-d8ae3d87c58c"},"vehicle_type_id":"4","last_reported":1742915422,"current_range_meters":9600,"station_id":"ce4bhu92rcd13ifvqi70","pricing_plan_id":"cebpf4jnsgd1na2vs0mg"},{"bike_id":"2f3e2a92-1301-4a27-8eaa-7b0ea525530e","system_id":"levelo_inurba_marseille","lat":43.31663,"lon":5.43694,"is_reserved":false,"is_disabled":false,"rental_uris":{"android":"levelo://app?vid=2f3e2a92-1301-4a27-8eaa-7b0ea525530e","ios":"levelo://app?vid=2f3e2a92-1301-4a27-8eaa-7b0ea525530e"},"vehicle_type_id":"4","last_reported":1742915422,"current_range_meters":9600,"station_id":"","pricing_plan_id":"cebpf4jnsgd1na2vs0mg"},{"bike_id":"ada4ba7b-2dc8-47ef-a5a8-9dc4e4bd1916","system_id":"levelo_inurba_marseille","lat":43.29529,"lon":5.36125,"is_reserved":false,"is_disabled":false,"rental_uris":{"android":"levelo://app?vid=ada4ba7b-2dc8-47ef-a5a8-9dc4e4bd1916","ios":"levelo://app?vid=ada4ba7b-2dc8-47ef-a5a8-9dc4e4bd1916"},"vehicle_type_id":"4","last_reported":1742915422,"current_range_meters":9600,"station_id":"","pricing_plan_id":"cebpf4jnsgd1na2vs0mg"},{"bike_id":"5c5dc2c1-e740-457f-b95a-98e5ccd39bc5","system_id":"levelo_inurba_marseille","lat":43.24385,"lon":5.37071,"is_reserved":false,"is_disabled":false,"rental_uris":{"android":"levelo://app?vid=5c5dc2c1-e740-457f-b95a-98e5ccd39bc5","ios":"levelo://app?vid=5c5dc2c1-e740-457f-b95a-98e5ccd39bc5"},"vehicle_type_id":"4","last_reported":1742915422,"current_range_meters":9600,"station_id":"ce4bhhh2rcd13ifvqfk0","pricing_plan_id":"cebpf4jnsgd1na2vs0mg"},{"bike_id":"ed7c4421-621c-4515-9e20-24d468012942","system_id":"levelo_inurba_marseille","lat":43.27618,"lon":5.36104,"is_reserved":false,"is_disabled":false,"rental_uris":{"android":"levelo://app?vid=ed7c4421-621c-4515-9e20-24d468012942","ios":"levelo://app?vid=ed7c4421-621c-4515-9e20-24d468012942"},"vehicle_type_id":"4","last_reported":1742915422,"current_range_meters":9600,"station_id":"ce4bgj92rcd13ifvqbe0","pricing_plan_id":"cebpf4jnsgd1na2vs0mg"},{"bike_id":"deed17d9-8f9b-439e-bd98-25edb3957693","system_id":"levelo_inurba_marseille","lat":43.29004,"lon":5.35607,"is_reserved":false,"is_disabled":false,"rental_uris":{"android":"levelo://app?vid=deed17d9-8f9b-439e-bd98-25edb3957693","ios":"levelo://app?vid=deed17d9-8f9b-439e-bd98-25edb3957693"},"vehicle_type_id":"4","last_reported":1742915422,"current_range_meters":9600,"station_id":"ce4bhb92rcd13ifvqen0","pricing_plan_id":"cebpf4jnsgd1na2vs0mg"},{"bike_id":"387e46fb-04ad-46f3-b565-157004e55c64","system_id":"levelo_inurba_marseille","lat":43.29637,"lon":5.40602,"is_reserved":false,"is_disabled":false,"rental_uris":{"android":"levelo://app?vid=387e46fb-04ad-46f3-b565-157004e55c64","ios":"levelo://app?vid=387e46fb-04ad-46f3-b565-157004e55c64"},"vehicle_type_id":"4","last_reported":1742915422,"current_range_meters":9600,"station_id":"ce4bh0h2rcd13ifvqd60","pricing_plan_id":"cebpf4jnsgd1na2vs0mg"},{"bike_id":"2e4d1aa8-2114-4b40-942a-3d2acedf813a","system_id":"levelo_inurba_marseille","lat":43.30151,"lon":5.37424,"is_reserved":false,"is_disabled":false,"rental_uris":{"android":"levelo://app?vid=2e4d1aa8-2114-4b40-942a-3d2acedf813a","ios":"levelo://app?vid=2e4d1aa8-2114-4b40-942a-3d2acedf813a"},"vehicle_type_id":"4","last_reported":1742915422,"current_range_meters":9600,"station_id":"ce4bgs92rcd13ifvqcc0","pricing_plan_id":"cebpf4jnsgd1na2vs0mg"},{"bike_id":"b6fd1ec3-47b2-486f-8b84-f71e2b87ecef","system_id":"levelo_inurba_marseille","lat":43.31073,"lon":5.42441,"is_reserved":false,"is_disabled":true,"rental_uris":{"android":"levelo://app?vid=b6fd1ec3-47b2-486f-8b84-f71e2b87ecef","ios":"levelo://app?vid=b6fd1ec3-47b2-486f-8b84-f71e2b87ecef"},"vehicle_type_id":"4","last_reported":1742915422,"current_range_meters":9600,"station_id":"ce4bhp92rcd13ifvqhag","pricing_plan_id":"cebpf4jnsgd1na2vs0mg"},{"bike_id":"8f208df7-81e0-45c5-bd98-a49c85a38fa2","system_id":"levelo_inurba_marseille","lat":43.30304,"lon":5.36902,"is_reserved":false,"is_disabled":false,"rental_uris":{"android":"levelo://app?vid=8f208df7-81e0-45c5-bd98-a49c85a38fa2","ios":"levelo://app?vid=8f208df7-81e0-45c5-bd98-a49c85a38fa2"},"vehicle_type_id":"4","last_reported":1742915422,"current_range_meters":9600,"station_id":"ce4bgqh2rcd13ifvqc5g","pricing_plan_id":"cebpf4jnsgd1na2vs0mg"},{"bike_id":"b72438e9-2390-4111-af9e-292065faca84","system_id":"levelo_inurba_marseille","lat":43.30307,"lon":5.37711,"is_reserved":false,"is_disabled":false,"rental_uris":{"android":"levelo://app?vid=b72438e9-2390-4111-af9e-292065faca84","ios":"levelo://app?vid=b72438e9-2390-4111-af9e-292065faca84"},"vehicle_type_id":"4","last_reported":1742915422,"current_range_meters":9600,"station_id":"ce4bguh2rcd13ifvqcj0","pricing_plan_id":"cebpf4jnsgd1na2vs0mg"},{"bike_id":"bb58f931-d39b-4674-bcbc-5096c1d815e7","system_id":"levelo_inurba_marseille","lat":43.24176,"lon":5.39724,"is_reserved":false,"is_disabled":false,"rental_uris":{"android":"levelo://app?vid=bb58f931-d39b-4674-bcbc-5096c1d815e7","ios":"levelo://app?vid=bb58f931-d39b-4674-bcbc-5096c1d815e7"},"vehicle_type_id":"4","last_reported":1742915422,"current_range_meters":9600,"station_id":"ce4bhn12rcd13ifvqgpg","pricing_plan_id":"cebpf4jnsgd1na2vs0mg"},{"bike_id":"6bb6f1fc-5b4f-4f3d-97c1-f093e7e9a8ef","system_id":"levelo_inurba_marseille","lat":43.2306,"lon":5.35498,"is_reserved":false,"is_disabled":false,"rental_uris":{"android":"levelo://app?vid=6bb6f1fc-5b4f-4f3d-97c1-f093e7e9a8ef","ios":"levelo://app?vid=6bb6f1fc-5b4f-4f3d-97c1-f093e7e9a8ef"},"vehicle_type_id":"4","last_reported":1742915422,"current_range_meters":9600,"station_id":"cpo3342slgdg3j2ifvpg","pricing_plan_id":"cebpf4jnsgd1na2vs0mg"},{"bike_id":"1eb0b26c-463a-4d28-b94e-fd5f60d10d4c","system_id":"levelo_inurba_marseille","lat":43.28716,"lon":5.37937,"is_reserved":false,"is_disabled":false,"rental_uris":{"android":"levelo://app?vid=1eb0b26c-463a-4d28-b94e-fd5f60d10d4c","ios":"levelo://app?vid=1eb0b26c-463a-4d28-b94e-fd5f60d10d4c"},"vehicle_type_id":"4","last_reported":1742915422,"current_range_meters":9600,"station_id":"ce4bh9p2rcd13ifvqec0","pricing_plan_id":"cebpf4jnsgd1na2vs0mg"},{"bike_id":"f8d9e271-1395-4359-b702-1bb66f9e2939","system_id":"levelo_inurba_marseille","lat":43.25578,"lon":5.3823,"is_reserved":false,"is_disabled":false,"rental_uris":{"android":"levelo://app?vid=f8d9e271-1395-4359-b702-1bb66f9e2939","ios":"levelo://app?vid=f8d9e271-1395-4359-b702-1bb66f9e2939"},"vehicle_type_id":"4","last_reported":1742915422,"current_range_meters":10000,"station_id":"ce4bhih2rcd13ifvqfs0","pricing_plan_id":"cebpf4jnsgd1na2vs0mg"},{"bike_id":"df3729ba-70de-4783-a99f-66161dde118b","system_id":"levelo_inurba_marseille","lat":43.29034,"lon":5.38122,"is_reserved":false,"is_disabled":false,"rental_uris":{"android":"levelo://app?vid=df3729ba-70de-4783-a99f-66161dde118b","ios":"levelo://app?vid=df3729ba-70de-4783-a99f-66161dde118b"},"vehicle_type_id":"4","last_reported":1742915422,"current_range_meters":10000,"station_id":"ce4bh4p2rcd13ifvqe1g","pricing_plan_id":"cebpf4jnsgd1na2vs0mg"},{"bike_id":"225cbe9d-4f8e-432e-b5e7-cd7e14da2d62","system_id":"levelo_inurba_marseille","lat":43.28168,"lon":5.42656,"is_reserved":false,"is_disabled":false,"rental_uris":{"android":"levelo://app?vid=225cbe9d-4f8e-432e-b5e7-cd7e14da2d62","ios":"levelo://app?vid=225cbe9d-4f8e-432e-b5e7-cd7e14da2d62"},"vehicle_type_id":"4","last_reported":1742915422,"current_range_meters":10000,"station_id":"ce4bhnh2rcd13ifvqgug","pricing_plan_id":"cebpf4jnsgd1na2vs0mg"},{"bike_id":"73098e66-a44d-4fd1-a26f-b78f715d4d94","system_id":"levelo_inurba_marseille","lat":43.3121,"lon":5.36868,"is_reserved":false,"is_disabled":false,"rental_uris":{"android":"levelo://app?vid=73098e66-a44d-4fd1-a26f-b78f715d4d94","ios":"levelo://app?vid=73098e66-a44d-4fd1-a26f-b78f715d4d94"},"vehicle_type_id":"4","last_reported":1742915422,"current_range_meters":10000,"station_id":"ce4bgl92rcd13ifvqbq0","pricing_plan_id":"cebpf4jnsgd1na2vs0mg"},{"bike_id":"af623c75-5db3-429d-be85-c4b472314003","system_id":"levelo_inurba_marseille","lat":43.292268,"lon":5.360614,"is_reserved":false,"is_disabled":false,"rental_uris":{"android":"levelo://app?vid=af623c75-5db3-429d-be85-c4b472314003","ios":"levelo://app?vid=af623c75-5db3-429d-be85-c4b472314003"},"vehicle_type_id":"4","last_reported":1742915422,"current_range_meters":12000,"station_id":"ce4bhbh2rcd13ifvqeqg","pricing_plan_id":"cebpf4jnsgd1na2vs0mg"},{"bike_id":"068af398-d30d-4b72-b7df-4dbc9c3b893b","system_id":"levelo_inurba_marseille","lat":43.28615,"lon":5.35087,"is_reserved":false,"is_disabled":false,"rental_uris":{"android":"levelo://app?vid=068af398-d30d-4b72-b7df-4dbc9c3b893b","ios":"levelo://app?vid=068af398-d30d-4b72-b7df-4dbc9c3b893b"},"vehicle_type_id":"4","last_reported":1742915422,"current_range_meters":10000,"station_id":"ce4bhch2rcd13ifvqeug","pricing_plan_id":"cebpf4jnsgd1na2vs0mg"},{"bike_id":"a830f52f-aeba-4ddd-9c3f-5756c42841a5","system_id":"levelo_inurba_marseille","lat":43.32491,"lon":5.36607,"is_reserved":false,"is_disabled":false,"rental_uris":{"android":"levelo://app?vid=a830f52f-aeba-4ddd-9c3f-5756c42841a5","ios":"levelo://app?vid=a830f52f-aeba-4ddd-9c3f-5756c42841a5"},"vehicle_type_id":"4","last_reported":1742915422,"current_range_meters":10000,"station_id":"ce4bhs12rcd13ifvqhvg","pricing_plan_id":"cebpf4jnsgd1na2vs0mg"},{"bike_id":"74406c35-ee35-437d-be26-2d7711378046","system_id":"levelo_inurba_marseille","lat":43.32347,"lon":5.36728,"is_reserved":false,"is_disabled":false,"rental_uris":{"android":"levelo://app?vid=74406c35-ee35-437d-be26-2d7711378046","ios":"levelo://app?vid=74406c35-ee35-437d-be26-2d7711378046"},"vehicle_type_id":"4","last_reported":1742915422,"current_range_meters":10000,"station_id":"ce4bhsh2rcd13ifvqi2g","pricing_plan_id":"cebpf4jnsgd1na2vs0mg"},{"bike_id":"d7c9b119-99cc-4acd-80c4-6ecaf67a26b1","system_id":"levelo_inurba_marseille","lat":43.23082,"lon":5.35483,"is_reserved":false,"is_disabled":false,"rental_uris":{"android":"levelo://app?vid=d7c9b119-99cc-4acd-80c4-6ecaf67a26b1","ios":"levelo://app?vid=d7c9b119-99cc-4acd-80c4-6ecaf67a26b1"},"vehicle_type_id":"4","last_reported":1742915422,"current_range_meters":10000,"station_id":"cpo3342slgdg3j2ifvpg","pricing_plan_id":"cebpf4jnsgd1na2vs0mg"},{"bike_id":"6af6a1ba-d1aa-4b6e-a13c-10b67605fd05","system_id":"levelo_inurba_marseille","lat":43.27066,"lon":5.40267,"is_reserved":false,"is_disabled":false,"rental_uris":{"android":"levelo://app?vid=6af6a1ba-d1aa-4b6e-a13c-10b67605fd05","ios":"levelo://app?vid=6af6a1ba-d1aa-4b6e-a13c-10b67605fd05"},"vehicle_type_id":"4","last_reported":1742915422,"current_range_meters":10000,"station_id":"ce4bhk92rcd13ifvqgc0","pricing_plan_id":"cebpf4jnsgd1na2vs0mg"},{"bike_id":"3661a9a0-cbfd-4e88-b091-6c142dd10c1e","system_id":"levelo_inurba_marseille","lat":43.29794,"lon":5.38088,"is_reserved":false,"is_disabled":false,"rental_uris":{"android":"levelo://app?vid=3661a9a0-cbfd-4e88-b091-6c142dd10c1e","ios":"levelo://app?vid=3661a9a0-cbfd-4e88-b091-6c142dd10c1e"},"vehicle_type_id":"4","last_reported":1742915422,"current_range_meters":10000,"station_id":"ce4bgip2rcd13ifvqbb0","pricing_plan_id":"cebpf4jnsgd1na2vs0mg"},{"bike_id":"46774e41-cc26-42e2-8ed3-a8ea17d2f850","system_id":"levelo_inurba_marseille","lat":43.31334,"lon":5.368213,"is_reserved":false,"is_disabled":false,"rental_uris":{"android":"levelo://app?vid=46774e41-cc26-42e2-8ed3-a8ea17d2f850","ios":"levelo://app?vid=46774e41-cc26-42e2-8ed3-a8ea17d2f850"},"vehicle_type_id":"4","last_reported":1742915422,"current_range_meters":10000,"station_id":"","pricing_plan_id":"cebpf4jnsgd1na2vs0mg"},{"bike_id":"045a009e-668a-4be8-8a13-f435cc582dcb","system_id":"levelo_inurba_marseille","lat":43.290955,"lon":5.381286,"is_reserved":false,"is_disabled":false,"rental_uris":{"android":"levelo://app?vid=045a009e-668a-4be8-8a13-f435cc582dcb","ios":"levelo://app?vid=045a009e-668a-4be8-8a13-f435cc582dcb"},"vehicle_type_id":"4","last_reported":1742915422,"current_range_meters":10000,"station_id":"ce4bh512rcd13ifvqe2g","pricing_plan_id":"cebpf4jnsgd1na2vs0mg"},{"bike_id":"e10d5dbd-f9a6-41a4-9f5f-f9cc08516f3e","system_id":"levelo_inurba_marseille","lat":43.29799,"lon":5.40401,"is_reserved":false,"is_disabled":false,"rental_uris":{"android":"levelo://app?vid=e10d5dbd-f9a6-41a4-9f5f-f9cc08516f3e","ios":"levelo://app?vid=e10d5dbd-f9a6-41a4-9f5f-f9cc08516f3e"},"vehicle_type_id":"4","last_reported":1742915422,"current_range_meters":10000,"station_id":"ce4bh112rcd13ifvqd90","pricing_plan_id":"cebpf4jnsgd1na2vs0mg"},{"bike_id":"aa9809ed-d6de-4550-96a3-ee9ffd118530","system_id":"levelo_inurba_marseille","lat":43.26567,"lon":5.39002,"is_reserved":false,"is_disabled":false,"rental_uris":{"android":"levelo://app?vid=aa9809ed-d6de-4550-96a3-ee9ffd118530","ios":"levelo://app?vid=aa9809ed-d6de-4550-96a3-ee9ffd118530"},"vehicle_type_id":"4","last_reported":1742915422,"current_range_meters":10000,"station_id":"ce4bhe12rcd13ifvqf30","pricing_plan_id":"cebpf4jnsgd1na2vs0mg"},{"bike_id":"89e75ed9-7f20-48f7-ad37-e0033e47c633","system_id":"levelo_inurba_marseille","lat":43.2466,"lon":5.38888,"is_reserved":false,"is_disabled":false,"rental_uris":{"android":"levelo://app?vid=89e75ed9-7f20-48f7-ad37-e0033e47c633","ios":"levelo://app?vid=89e75ed9-7f20-48f7-ad37-e0033e47c633"},"vehicle_type_id":"4","last_reported":1742915422,"current_range_meters":10000,"station_id":"ce4bhg12rcd13ifvqf60","pricing_plan_id":"cebpf4jnsgd1na2vs0mg"},{"bike_id":"5aeb641c-8c67-430e-bd09-77076d22412d","system_id":"levelo_inurba_marseille","lat":43.31053,"lon":5.37535,"is_reserved":false,"is_disabled":false,"rental_uris":{"android":"levelo://app?vid=5aeb641c-8c67-430e-bd09-77076d22412d","ios":"levelo://app?vid=5aeb641c-8c67-430e-bd09-77076d22412d"},"vehicle_type_id":"4","last_reported":1742915422,"current_range_meters":10800,"station_id":"","pricing_plan_id":"cebpf4jnsgd1na2vs0mg"},{"bike_id":"6633349b-54ae-41b8-88d5-61ec5d012302","system_id":"levelo_inurba_marseille","lat":43.32117,"lon":5.36774,"is_reserved":false,"is_disabled":false,"rental_uris":{"android":"levelo://app?vid=6633349b-54ae-41b8-88d5-61ec5d012302","ios":"levelo://app?vid=6633349b-54ae-41b8-88d5-61ec5d012302"},"vehicle_type_id":"4","last_reported":1742915422,"current_range_meters":10800,"station_id":"ce4bhrh2rcd13ifvqhug","pricing_plan_id":"cebpf4jnsgd1na2vs0mg"},{"bike_id":"f83dc16a-0892-41f5-ac77-5fd42c063ee1","system_id":"levelo_inurba_marseille","lat":43.25003,"lon":5.38923,"is_reserved":false,"is_disabled":false,"rental_uris":{"android":"levelo://app?vid=f83dc16a-0892-41f5-ac77-5fd42c063ee1","ios":"levelo://app?vid=f83dc16a-0892-41f5-ac77-5fd42c063ee1"},"vehicle_type_id":"4","last_reported":1742915422,"current_range_meters":10800,"station_id":"ce4bhgp2rcd13ifvqfd0","pricing_plan_id":"cebpf4jnsgd1na2vs0mg"},{"bike_id":"fdcc714d-c762-4a16-91da-437181feabf2","system_id":"levelo_inurba_marseille","lat":43.26681,"lon":5.38257,"is_reserved":false,"is_disabled":false,"rental_uris":{"android":"levelo://app?vid=fdcc714d-c762-4a16-91da-437181feabf2","ios":"levelo://app?vid=fdcc714d-c762-4a16-91da-437181feabf2"},"vehicle_type_id":"4","last_reported":1742915422,"current_range_meters":10800,"station_id":"ce4bhg92rcd13ifvqf90","pricing_plan_id":"cebpf4jnsgd1na2vs0mg"},{"bike_id":"ea3e9b02-52a5-4aee-93b7-9f27af9d7079","system_id":"levelo_inurba_marseille","lat":43.30541,"lon":5.36723,"is_reserved":false,"is_disabled":false,"rental_uris":{"android":"levelo://app?vid=ea3e9b02-52a5-4aee-93b7-9f27af9d7079","ios":"levelo://app?vid=ea3e9b02-52a5-4aee-93b7-9f27af9d7079"},"vehicle_type_id":"4","last_reported":1742915422,"current_range_meters":10800,"station_id":"ce4bgrp2rcd13ifvqc9g","pricing_plan_id":"cebpf4jnsgd1na2vs0mg"},{"bike_id":"e60001b5-798b-46b8-98e7-dca3dac8bb3c","system_id":"levelo_inurba_marseille","lat":43.232462,"lon":5.39992,"is_reserved":false,"is_disabled":false,"rental_uris":{"android":"levelo://app?vid=e60001b5-798b-46b8-98e7-dca3dac8bb3c","ios":"levelo://app?vid=e60001b5-798b-46b8-98e7-dca3dac8bb3c"},"vehicle_type_id":"4","last_reported":1742915422,"current_range_meters":10800,"station_id":"ce4bhn12rcd13ifvqgqg","pricing_plan_id":"cebpf4jnsgd1na2vs0mg"},{"bike_id":"6bfb1389-db87-477f-906a-7e43fd18c87c","system_id":"levelo_inurba_marseille","lat":43.2439,"lon":5.37062,"is_reserved":false,"is_disabled":false,"rental_uris":{"android":"levelo://app?vid=6bfb1389-db87-477f-906a-7e43fd18c87c","ios":"levelo://app?vid=6bfb1389-db87-477f-906a-7e43fd18c87c"},"vehicle_type_id":"4","last_reported":1742915422,"current_range_meters":10800,"station_id":"ce4bhhh2rcd13ifvqfk0","pricing_plan_id":"cebpf4jnsgd1na2vs0mg"},{"bike_id":"bb60f83b-7897-4e72-a0b1-f9069640727d","system_id":"levelo_inurba_marseille","lat":43.29025,"lon":5.38132,"is_reserved":false,"is_disabled":false,"rental_uris":{"android":"levelo://app?vid=bb60f83b-7897-4e72-a0b1-f9069640727d","ios":"levelo://app?vid=bb60f83b-7897-4e72-a0b1-f9069640727d"},"vehicle_type_id":"4","last_reported":1742915422,"current_range_meters":10800,"station_id":"ce4bh4p2rcd13ifvqe1g","pricing_plan_id":"cebpf4jnsgd1na2vs0mg"},{"bike_id":"8583bcae-e817-4db7-ab92-448c595780ea","system_id":"levelo_inurba_marseille","lat":43.33012,"lon":5.39022,"is_reserved":false,"is_disabled":false,"rental_uris":{"android":"levelo://app?vid=8583bcae-e817-4db7-ab92-448c595780ea","ios":"levelo://app?vid=8583bcae-e817-4db7-ab92-448c595780ea"},"vehicle_type_id":"4","last_reported":1742915422,"current_range_meters":10800,"station_id":"ce4bhr92rcd13ifvqhrg","pricing_plan_id":"cebpf4jnsgd1na2vs0mg"},{"bike_id":"f3bd7a86-4eaa-47fc-acad-a2e82aa9dddd","system_id":"levelo_inurba_marseille","lat":43.28104,"lon":5.37838,"is_reserved":false,"is_disabled":false,"rental_uris":{"android":"levelo://app?vid=f3bd7a86-4eaa-47fc-acad-a2e82aa9dddd","ios":"levelo://app?vid=f3bd7a86-4eaa-47fc-acad-a2e82aa9dddd"},"vehicle_type_id":"4","last_reported":1742915422,"current_range_meters":10800,"station_id":"ce4bha12rcd13ifvqee0","pricing_plan_id":"cebpf4jnsgd1na2vs0mg"},{"bike_id":"f0510ba7-c335-4b7a-aec7-5e60e076b988","system_id":"levelo_inurba_marseille","lat":43.27376,"lon":5.36244,"is_reserved":false,"is_disabled":false,"rental_uris":{"android":"levelo://app?vid=f0510ba7-c335-4b7a-aec7-5e60e076b988","ios":"levelo://app?vid=f0510ba7-c335-4b7a-aec7-5e60e076b988"},"vehicle_type_id":"4","last_reported":1742915422,"current_range_meters":11200,"station_id":"ce4bhbh2rcd13ifvqeo0","pricing_plan_id":"cebpf4jnsgd1na2vs0mg"},{"bike_id":"844d3370-21e5-4de2-9d45-2b091e1157d6","system_id":"levelo_inurba_marseille","lat":43.23966,"lon":5.36638,"is_reserved":false,"is_disabled":false,"rental_uris":{"android":"levelo://app?vid=844d3370-21e5-4de2-9d45-2b091e1157d6","ios":"levelo://app?vid=844d3370-21e5-4de2-9d45-2b091e1157d6"},"vehicle_type_id":"4","last_reported":1742915422,"current_range_meters":11200,"station_id":"ce4bhi12rcd13ifvqfp0","pricing_plan_id":"cebpf4jnsgd1na2vs0mg"},{"bike_id":"0d01ceaf-8ddf-46d8-8df9-f3ba6cfcdfd2","system_id":"levelo_inurba_marseille","lat":43.26564,"lon":5.39011,"is_reserved":false,"is_disabled":false,"rental_uris":{"android":"levelo://app?vid=0d01ceaf-8ddf-46d8-8df9-f3ba6cfcdfd2","ios":"levelo://app?vid=0d01ceaf-8ddf-46d8-8df9-f3ba6cfcdfd2"},"vehicle_type_id":"4","last_reported":1742915422,"current_range_meters":11200,"station_id":"ce4bhe12rcd13ifvqf30","pricing_plan_id":"cebpf4jnsgd1na2vs0mg"},{"bike_id":"50e3359a-15f1-4f66-bbc8-eed7afb5cb08","system_id":"levelo_inurba_marseille","lat":43.2594,"lon":5.40899,"is_reserved":false,"is_disabled":false,"rental_uris":{"android":"levelo://app?vid=50e3359a-15f1-4f66-bbc8-eed7afb5cb08","ios":"levelo://app?vid=50e3359a-15f1-4f66-bbc8-eed7afb5cb08"},"vehicle_type_id":"4","last_reported":1742915422,"current_range_meters":11200,"station_id":"ce4bhm92rcd13ifvqglg","pricing_plan_id":"cebpf4jnsgd1na2vs0mg"},{"bike_id":"405474af-a369-4f46-bd30-9c01040b10db","system_id":"levelo_inurba_marseille","lat":43.27948,"lon":5.41028,"is_reserved":false,"is_disabled":false,"rental_uris":{"android":"levelo://app?vid=405474af-a369-4f46-bd30-9c01040b10db","ios":"levelo://app?vid=405474af-a369-4f46-bd30-9c01040b10db"},"vehicle_type_id":"4","last_reported":1742915422,"current_range_meters":11600,"station_id":"ce4bhnp2rcd13ifvqh0g","pricing_plan_id":"cebpf4jnsgd1na2vs0mg"},{"bike_id":"fa0bd830-b5e1-4d00-82d7-ed272fa92124","system_id":"levelo_inurba_marseille","lat":43.27365,"lon":5.36257,"is_reserved":false,"is_disabled":false,"rental_uris":{"android":"levelo://app?vid=fa0bd830-b5e1-4d00-82d7-ed272fa92124","ios":"levelo://app?vid=fa0bd830-b5e1-4d00-82d7-ed272fa92124"},"vehicle_type_id":"4","last_reported":1742915422,"current_range_meters":11600,"station_id":"ce4bhbh2rcd13ifvqeo0","pricing_plan_id":"cebpf4jnsgd1na2vs0mg"},{"bike_id":"9604c210-b673-4d97-be59-e6f1daae7d01","system_id":"levelo_inurba_marseille","lat":43.29038,"lon":5.35942,"is_reserved":false,"is_disabled":false,"rental_uris":{"android":"levelo://app?vid=9604c210-b673-4d97-be59-e6f1daae7d01","ios":"levelo://app?vid=9604c210-b673-4d97-be59-e6f1daae7d01"},"vehicle_type_id":"4","last_reported":1742915422,"current_range_meters":11600,"station_id":"ce4bha92rcd13ifvqeg0","pricing_plan_id":"cebpf4jnsgd1na2vs0mg"},{"bike_id":"e6e708e5-52c4-4ee7-86eb-cf9115105f3b","system_id":"levelo_inurba_marseille","lat":43.29198,"lon":5.358,"is_reserved":false,"is_disabled":false,"rental_uris":{"android":"levelo://app?vid=e6e708e5-52c4-4ee7-86eb-cf9115105f3b","ios":"levelo://app?vid=e6e708e5-52c4-4ee7-86eb-cf9115105f3b"},"vehicle_type_id":"4","last_reported":1742915422,"current_range_meters":11600,"station_id":"ce4bhb12rcd13ifvqel0","pricing_plan_id":"cebpf4jnsgd1na2vs0mg"},{"bike_id":"c7f39b6e-8875-4c61-bd97-f6fe48f19c38","system_id":"levelo_inurba_marseille","lat":43.28927,"lon":5.38386,"is_reserved":false,"is_disabled":false,"rental_uris":{"android":"levelo://app?vid=c7f39b6e-8875-4c61-bd97-f6fe48f19c38","ios":"levelo://app?vid=c7f39b6e-8875-4c61-bd97-f6fe48f19c38"},"vehicle_type_id":"4","last_reported":1742915422,"current_range_meters":11600,"station_id":"ce4bh612rcd13ifvqe6g","pricing_plan_id":"cebpf4jnsgd1na2vs0mg"},{"bike_id":"38351309-2dec-417c-a558-74c8bc991036","system_id":"levelo_inurba_marseille","lat":43.30799,"lon":5.40648,"is_reserved":false,"is_disabled":true,"rental_uris":{"android":"levelo://app?vid=38351309-2dec-417c-a558-74c8bc991036","ios":"levelo://app?vid=38351309-2dec-417c-a558-74c8bc991036"},"vehicle_type_id":"4","last_reported":1742915422,"current_range_meters":11600,"station_id":"","pricing_plan_id":"cebpf4jnsgd1na2vs0mg"},{"bike_id":"28dc0c8a-542b-45f8-a521-988655cfc900","system_id":"levelo_inurba_marseille","lat":43.31403,"lon":5.36648,"is_reserved":false,"is_disabled":false,"rental_uris":{"android":"levelo://app?vid=28dc0c8a-542b-45f8-a521-988655cfc900","ios":"levelo://app?vid=28dc0c8a-542b-45f8-a521-988655cfc900"},"vehicle_type_id":"4","last_reported":1742915422,"current_range_meters":11600,"station_id":"","pricing_plan_id":"cebpf4jnsgd1na2vs0mg"},{"bike_id":"354b13e0-1f93-4ccc-818c-eb3d79ee1535","system_id":"levelo_inurba_marseille","lat":43.29438,"lon":5.39754,"is_reserved":false,"is_disabled":false,"rental_uris":{"android":"levelo://app?vid=354b13e0-1f93-4ccc-818c-eb3d79ee1535","ios":"levelo://app?vid=354b13e0-1f93-4ccc-818c-eb3d79ee1535"},"vehicle_type_id":"4","last_reported":1742915422,"current_range_meters":12000,"station_id":"ce4bh3h2rcd13ifvqdo0","pricing_plan_id":"cebpf4jnsgd1na2vs0mg"},{"bike_id":"095c83ef-708d-41a7-9a28-9f01b5f8fbbe","system_id":"levelo_inurba_marseille","lat":43.28927,"lon":5.38401,"is_reserved":false,"is_disabled":false,"rental_uris":{"android":"levelo://app?vid=095c83ef-708d-41a7-9a28-9f01b5f8fbbe","ios":"levelo://app?vid=095c83ef-708d-41a7-9a28-9f01b5f8fbbe"},"vehicle_type_id":"4","last_reported":1742915422,"current_range_meters":12000,"station_id":"ce4bh612rcd13ifvqe6g","pricing_plan_id":"cebpf4jnsgd1na2vs0mg"},{"bike_id":"cbd7409a-38a3-4dfb-985a-c0fe577978a9","system_id":"levelo_inurba_marseille","lat":43.28157,"lon":5.42641,"is_reserved":false,"is_disabled":false,"rental_uris":{"android":"levelo://app?vid=cbd7409a-38a3-4dfb-985a-c0fe577978a9","ios":"levelo://app?vid=cbd7409a-38a3-4dfb-985a-c0fe577978a9"},"vehicle_type_id":"4","last_reported":1742915422,"current_range_meters":12000,"station_id":"ce4bhnh2rcd13ifvqgug","pricing_plan_id":"cebpf4jnsgd1na2vs0mg"},{"bike_id":"0a3af149-b299-474f-affc-d01ecb590b24","system_id":"levelo_inurba_marseille","lat":43.30306,"lon":5.36873,"is_reserved":false,"is_disabled":false,"rental_uris":{"android":"levelo://app?vid=0a3af149-b299-474f-affc-d01ecb590b24","ios":"levelo://app?vid=0a3af149-b299-474f-affc-d01ecb590b24"},"vehicle_type_id":"4","last_reported":1742915422,"current_range_meters":12400,"station_id":"ce4bgqh2rcd13ifvqc5g","pricing_plan_id":"cebpf4jnsgd1na2vs0mg"},{"bike_id":"25deb906-7774-4e7d-851c-98436f121382","system_id":"levelo_inurba_marseille","lat":43.29083,"lon":5.37172,"is_reserved":false,"is_disabled":false,"rental_uris":{"android":"levelo://app?vid=25deb906-7774-4e7d-851c-98436f121382","ios":"levelo://app?vid=25deb906-7774-4e7d-851c-98436f121382"},"vehicle_type_id":"4","last_reported":1742915422,"current_range_meters":12400,"station_id":"ce4bh5p2rcd13ifvqe4g","pricing_plan_id":"cebpf4jnsgd1na2vs0mg"},{"bike_id":"3f76eee9-d516-4490-8475-91b09820e33b","system_id":"levelo_inurba_marseille","lat":43.30933,"lon":5.4014,"is_reserved":false,"is_disabled":false,"rental_uris":{"android":"levelo://app?vid=3f76eee9-d516-4490-8475-91b09820e33b","ios":"levelo://app?vid=3f76eee9-d516-4490-8475-91b09820e33b"},"vehicle_type_id":"4","last_reported":1742915422,"current_range_meters":12400,"station_id":"ce4bgvp2rcd13ifvqct0","pricing_plan_id":"cebpf4jnsgd1na2vs0mg"},{"bike_id":"303a90d4-6f77-4b54-9860-ae4c2559f77a","system_id":"levelo_inurba_marseille","lat":43.30307,"lon":5.36888,"is_reserved":false,"is_disabled":false,"rental_uris":{"android":"levelo://app?vid=303a90d4-6f77-4b54-9860-ae4c2559f77a","ios":"levelo://app?vid=303a90d4-6f77-4b54-9860-ae4c2559f77a"},"vehicle_type_id":"4","last_reported":1742915422,"current_range_meters":12400,"station_id":"ce4bgqh2rcd13ifvqc5g","pricing_plan_id":"cebpf4jnsgd1na2vs0mg"},{"bike_id":"dbeb9c14-80bb-419d-9f4f-e446556bc012","system_id":"levelo_inurba_marseille","lat":43.2742,"lon":5.39415,"is_reserved":false,"is_disabled":false,"rental_uris":{"android":"levelo://app?vid=dbeb9c14-80bb-419d-9f4f-e446556bc012","ios":"levelo://app?vid=dbeb9c14-80bb-419d-9f4f-e446556bc012"},"vehicle_type_id":"4","last_reported":1742915422,"current_range_meters":12400,"station_id":"ce4bhdp2rcd13ifvqf20","pricing_plan_id":"cebpf4jnsgd1na2vs0mg"},{"bike_id":"2d4e687a-9c18-4086-9d00-f57175bd6e2a","system_id":"levelo_inurba_marseille","lat":43.322368,"lon":5.389566,"is_reserved":false,"is_disabled":false,"rental_uris":{"android":"levelo://app?vid=2d4e687a-9c18-4086-9d00-f57175bd6e2a","ios":"levelo://app?vid=2d4e687a-9c18-4086-9d00-f57175bd6e2a"},"vehicle_type_id":"4","last_reported":1742915422,"current_range_meters":12400,"station_id":"ce4bhqp2rcd13ifvqhog","pricing_plan_id":"cebpf4jnsgd1na2vs0mg"},{"bike_id":"fe4c69ca-3ab9-4d3a-8526-49258d6433e7","system_id":"levelo_inurba_marseille","lat":43.2455,"lon":5.39525,"is_reserved":false,"is_disabled":false,"rental_uris":{"android":"levelo://app?vid=fe4c69ca-3ab9-4d3a-8526-49258d6433e7","ios":"levelo://app?vid=fe4c69ca-3ab9-4d3a-8526-49258d6433e7"},"vehicle_type_id":"4","last_reported":1742915422,"current_range_meters":12800,"station_id":"ce4bhlp2rcd13ifvqgjg","pricing_plan_id":"cebpf4jnsgd1na2vs0mg"},{"bike_id":"99f0b94e-7f38-4046-aa35-051416b9f854","system_id":"levelo_inurba_marseille","lat":43.28263,"lon":5.35065,"is_reserved":false,"is_disabled":false,"rental_uris":{"android":"levelo://app?vid=99f0b94e-7f38-4046-aa35-051416b9f854","ios":"levelo://app?vid=99f0b94e-7f38-4046-aa35-051416b9f854"},"vehicle_type_id":"4","last_reported":1742915422,"current_range_meters":12800,"station_id":"ce4bhbp2rcd13ifvqerg","pricing_plan_id":"cebpf4jnsgd1na2vs0mg"},{"bike_id":"1b640f21-e6ba-412e-95c5-8b9ac2ca66d5","system_id":"levelo_inurba_marseille","lat":43.30147,"lon":5.37417,"is_reserved":false,"is_disabled":false,"rental_uris":{"android":"levelo://app?vid=1b640f21-e6ba-412e-95c5-8b9ac2ca66d5","ios":"levelo://app?vid=1b640f21-e6ba-412e-95c5-8b9ac2ca66d5"},"vehicle_type_id":"4","last_reported":1742915422,"current_range_meters":12800,"station_id":"ce4bgs92rcd13ifvqcc0","pricing_plan_id":"cebpf4jnsgd1na2vs0mg"},{"bike_id":"605c60fb-51a1-46ee-9798-e2e3724c0d91","system_id":"levelo_inurba_marseille","lat":43.29886,"lon":5.43681,"is_reserved":false,"is_disabled":false,"rental_uris":{"android":"levelo://app?vid=605c60fb-51a1-46ee-9798-e2e3724c0d91","ios":"levelo://app?vid=605c60fb-51a1-46ee-9798-e2e3724c0d91"},"vehicle_type_id":"4","last_reported":1742915422,"current_range_meters":12800,"station_id":"ce4bhpp2rcd13ifvqhfg","pricing_plan_id":"cebpf4jnsgd1na2vs0mg"},{"bike_id":"f023d44a-9671-4865-8d72-6515995bfc3c","system_id":"levelo_inurba_marseille","lat":43.292645,"lon":5.408999,"is_reserved":false,"is_disabled":false,"rental_uris":{"android":"levelo://app?vid=f023d44a-9671-4865-8d72-6515995bfc3c","ios":"levelo://app?vid=f023d44a-9671-4865-8d72-6515995bfc3c"},"vehicle_type_id":"4","last_reported":1742915422,"current_range_meters":12800,"station_id":"ce4bh192rcd13ifvqdc0","pricing_plan_id":"cebpf4jnsgd1na2vs0mg"},{"bike_id":"e22f3105-8d04-4ba2-b032-58eacda4e9db","system_id":"levelo_inurba_marseille","lat":43.26065,"lon":5.39394,"is_reserved":false,"is_disabled":false,"rental_uris":{"android":"levelo://app?vid=e22f3105-8d04-4ba2-b032-58eacda4e9db","ios":"levelo://app?vid=e22f3105-8d04-4ba2-b032-58eacda4e9db"},"vehicle_type_id":"4","last_reported":1742915422,"current_range_meters":12800,"station_id":"ce4bhh92rcd13ifvqfj0","pricing_plan_id":"cebpf4jnsgd1na2vs0mg"},{"bike_id":"df9ca7d4-4051-4f2e-8c84-46c5685400eb","system_id":"levelo_inurba_marseille","lat":43.24073,"lon":5.3774,"is_reserved":false,"is_disabled":false,"rental_uris":{"android":"levelo://app?vid=df9ca7d4-4051-4f2e-8c84-46c5685400eb","ios":"levelo://app?vid=df9ca7d4-4051-4f2e-8c84-46c5685400eb"},"vehicle_type_id":"4","last_reported":1742915422,"current_range_meters":12800,"station_id":"ce4bhnp2rcd13ifvqgvg","pricing_plan_id":"cebpf4jnsgd1na2vs0mg"},{"bike_id":"5c831237-8e7e-41ab-895c-38555a454c3b","system_id":"levelo_inurba_marseille","lat":43.28441,"lon":5.3919,"is_reserved":false,"is_disabled":false,"rental_uris":{"android":"levelo://app?vid=5c831237-8e7e-41ab-895c-38555a454c3b","ios":"levelo://app?vid=5c831237-8e7e-41ab-895c-38555a454c3b"},"vehicle_type_id":"4","last_reported":1742915422,"current_range_meters":12800,"station_id":"ce4bhoh2rcd13ifvqh5g","pricing_plan_id":"cebpf4jnsgd1na2vs0mg"},{"bike_id":"825bb2d9-bdc4-41e3-8f2f-ebc5a10a1e2c","system_id":"levelo_inurba_marseille","lat":43.28272,"lon":5.35059,"is_reserved":false,"is_disabled":false,"rental_uris":{"android":"levelo://app?vid=825bb2d9-bdc4-41e3-8f2f-ebc5a10a1e2c","ios":"levelo://app?vid=825bb2d9-bdc4-41e3-8f2f-ebc5a10a1e2c"},"vehicle_type_id":"4","last_reported":1742915422,"current_range_meters":12800,"station_id":"ce4bhbp2rcd13ifvqerg","pricing_plan_id":"cebpf4jnsgd1na2vs0mg"},{"bike_id":"20ca5c4c-4720-471d-9aff-758ae3790a92","system_id":"levelo_inurba_marseille","lat":43.28275,"lon":5.35056,"is_reserved":false,"is_disabled":false,"rental_uris":{"android":"levelo://app?vid=20ca5c4c-4720-471d-9aff-758ae3790a92","ios":"levelo://app?vid=20ca5c4c-4720-471d-9aff-758ae3790a92"},"vehicle_type_id":"4","last_reported":1742915422,"current_range_meters":12800,"station_id":"ce4bhbp2rcd13ifvqerg","pricing_plan_id":"cebpf4jnsgd1na2vs0mg"},{"bike_id":"477b14df-46ee-491f-a953-479236d44f7d","system_id":"levelo_inurba_marseille","lat":43.30136,"lon":5.39863,"is_reserved":false,"is_disabled":false,"rental_uris":{"android":"levelo://app?vid=477b14df-46ee-491f-a953-479236d44f7d","ios":"levelo://app?vid=477b14df-46ee-491f-a953-479236d44f7d"},"vehicle_type_id":"4","last_reported":1742915422,"current_range_meters":12800,"station_id":"ce4bh0h2rcd13ifvqd40","pricing_plan_id":"cebpf4jnsgd1na2vs0mg"},{"bike_id":"dbad5e6a-78b2-4b47-b732-49bd28fe9f28","system_id":"levelo_inurba_marseille","lat":43.29173,"lon":5.3715,"is_reserved":false,"is_disabled":false,"rental_uris":{"android":"levelo://app?vid=dbad5e6a-78b2-4b47-b732-49bd28fe9f28","ios":"levelo://app?vid=dbad5e6a-78b2-4b47-b732-49bd28fe9f28"},"vehicle_type_id":"4","last_reported":1742915422,"current_range_meters":12800,"station_id":"ce4bha92rcd13ifvqeh0","pricing_plan_id":"cebpf4jnsgd1na2vs0mg"},{"bike_id":"abed569d-3f1c-4648-8f86-9e9d08d3d799","system_id":"levelo_inurba_marseille","lat":43.31714,"lon":5.43709,"is_reserved":false,"is_disabled":false,"rental_uris":{"android":"levelo://app?vid=abed569d-3f1c-4648-8f86-9e9d08d3d799","ios":"levelo://app?vid=abed569d-3f1c-4648-8f86-9e9d08d3d799"},"vehicle_type_id":"4","last_reported":1742915422,"current_range_meters":13600,"station_id":"ce4bhp92rcd13ifvqhcg","pricing_plan_id":"cebpf4jnsgd1na2vs0mg"},{"bike_id":"a131070a-e779-4800-86bd-eec8ea7cf525","system_id":"levelo_inurba_marseille","lat":43.28105,"lon":5.3784,"is_reserved":false,"is_disabled":false,"rental_uris":{"android":"levelo://app?vid=a131070a-e779-4800-86bd-eec8ea7cf525","ios":"levelo://app?vid=a131070a-e779-4800-86bd-eec8ea7cf525"},"vehicle_type_id":"4","last_reported":1742915422,"current_range_meters":13600,"station_id":"ce4bha12rcd13ifvqee0","pricing_plan_id":"cebpf4jnsgd1na2vs0mg"},{"bike_id":"b8dd6df4-e2e4-4d9a-a8b4-84fa5507046a","system_id":"levelo_inurba_marseille","lat":43.30895,"lon":5.37189,"is_reserved":false,"is_disabled":false,"rental_uris":{"android":"levelo://app?vid=b8dd6df4-e2e4-4d9a-a8b4-84fa5507046a","ios":"levelo://app?vid=b8dd6df4-e2e4-4d9a-a8b4-84fa5507046a"},"vehicle_type_id":"4","last_reported":1742915422,"current_range_meters":13600,"station_id":"ce4bguh2rcd13ifvqckg","pricing_plan_id":"cebpf4jnsgd1na2vs0mg"},{"bike_id":"ddb7f249-fb9a-4f48-95b9-230960137d65","system_id":"levelo_inurba_marseille","lat":43.29208,"lon":5.39326,"is_reserved":false,"is_disabled":false,"rental_uris":{"android":"levelo://app?vid=ddb7f249-fb9a-4f48-95b9-230960137d65","ios":"levelo://app?vid=ddb7f249-fb9a-4f48-95b9-230960137d65"},"vehicle_type_id":"4","last_reported":1742915422,"current_range_meters":12800,"station_id":"ce4bh192rcd13ifvqdd0","pricing_plan_id":"cebpf4jnsgd1na2vs0mg"},{"bike_id":"1d8a3249-9200-4972-bc96-75314e87b237","system_id":"levelo_inurba_marseille","lat":43.30654,"lon":5.36692,"is_reserved":false,"is_disabled":false,"rental_uris":{"android":"levelo://app?vid=1d8a3249-9200-4972-bc96-75314e87b237","ios":"levelo://app?vid=1d8a3249-9200-4972-bc96-75314e87b237"},"vehicle_type_id":"4","last_reported":1742915422,"current_range_meters":13600,"station_id":"","pricing_plan_id":"cebpf4jnsgd1na2vs0mg"},{"bike_id":"b008f56f-2be2-477a-80ed-eac216c9058f","system_id":"levelo_inurba_marseille","lat":43.30115,"lon":5.36685,"is_reserved":false,"is_disabled":false,"rental_uris":{"android":"levelo://app?vid=b008f56f-2be2-477a-80ed-eac216c9058f","ios":"levelo://app?vid=b008f56f-2be2-477a-80ed-eac216c9058f"},"vehicle_type_id":"4","last_reported":1742915422,"current_range_meters":13600,"station_id":"ce4bgn12rcd13ifvqbt0","pricing_plan_id":"cebpf4jnsgd1na2vs0mg"},{"bike_id":"b9992462-960c-4575-8bd9-0d73cf06a0ce","system_id":"levelo_inurba_marseille","lat":43.28277,"lon":5.35082,"is_reserved":false,"is_disabled":false,"rental_uris":{"android":"levelo://app?vid=b9992462-960c-4575-8bd9-0d73cf06a0ce","ios":"levelo://app?vid=b9992462-960c-4575-8bd9-0d73cf06a0ce"},"vehicle_type_id":"4","last_reported":1742915422,"current_range_meters":14000,"station_id":"ce4bhbp2rcd13ifvqerg","pricing_plan_id":"cebpf4jnsgd1na2vs0mg"},{"bike_id":"0737ea8b-6ae1-4e0e-aaf3-c29048f4f353","system_id":"levelo_inurba_marseille","lat":43.30541,"lon":5.36693,"is_reserved":false,"is_disabled":false,"rental_uris":{"android":"levelo://app?vid=0737ea8b-6ae1-4e0e-aaf3-c29048f4f353","ios":"levelo://app?vid=0737ea8b-6ae1-4e0e-aaf3-c29048f4f353"},"vehicle_type_id":"4","last_reported":1742915422,"current_range_meters":14000,"station_id":"ce4bgrp2rcd13ifvqc9g","pricing_plan_id":"cebpf4jnsgd1na2vs0mg"},{"bike_id":"6d77b754-e3f0-4fc0-b9fe-b8660b72f6dd","system_id":"levelo_inurba_marseille","lat":43.31334,"lon":5.39697,"is_reserved":false,"is_disabled":false,"rental_uris":{"android":"levelo://app?vid=6d77b754-e3f0-4fc0-b9fe-b8660b72f6dd","ios":"levelo://app?vid=6d77b754-e3f0-4fc0-b9fe-b8660b72f6dd"},"vehicle_type_id":"4","last_reported":1742915422,"current_range_meters":14000,"station_id":"ce4bgvp2rcd13ifvqcu0","pricing_plan_id":"cebpf4jnsgd1na2vs0mg"},{"bike_id":"c6b94905-f665-4803-b1ef-0bbce5d69f51","system_id":"levelo_inurba_marseille","lat":43.27437,"lon":5.39421,"is_reserved":false,"is_disabled":false,"rental_uris":{"android":"levelo://app?vid=c6b94905-f665-4803-b1ef-0bbce5d69f51","ios":"levelo://app?vid=c6b94905-f665-4803-b1ef-0bbce5d69f51"},"vehicle_type_id":"4","last_reported":1742915422,"current_range_meters":14000,"station_id":"ce4bhdp2rcd13ifvqf20","pricing_plan_id":"cebpf4jnsgd1na2vs0mg"},{"bike_id":"34f86d08-4027-466e-9cab-f2a844c49b43","system_id":"levelo_inurba_marseille","lat":43.282779,"lon":5.350614,"is_reserved":false,"is_disabled":false,"rental_uris":{"android":"levelo://app?vid=34f86d08-4027-466e-9cab-f2a844c49b43","ios":"levelo://app?vid=34f86d08-4027-466e-9cab-f2a844c49b43"},"vehicle_type_id":"4","last_reported":1742915422,"current_range_meters":14000,"station_id":"ce4bhbp2rcd13ifvqerg","pricing_plan_id":"cebpf4jnsgd1na2vs0mg"},{"bike_id":"a7eb0a24-012b-402e-8672-9e86a51bc673","system_id":"levelo_inurba_marseille","lat":43.30516,"lon":5.36663,"is_reserved":false,"is_disabled":false,"rental_uris":{"android":"levelo://app?vid=a7eb0a24-012b-402e-8672-9e86a51bc673","ios":"levelo://app?vid=a7eb0a24-012b-402e-8672-9e86a51bc673"},"vehicle_type_id":"4","last_reported":1742915422,"current_range_meters":14000,"station_id":"ce4bgrp2rcd13ifvqc9g","pricing_plan_id":"cebpf4jnsgd1na2vs0mg"},{"bike_id":"ae64d049-3c54-4b63-a552-b1e07d06f548","system_id":"levelo_inurba_marseille","lat":43.25088,"lon":5.3952,"is_reserved":false,"is_disabled":false,"rental_uris":{"android":"levelo://app?vid=ae64d049-3c54-4b63-a552-b1e07d06f548","ios":"levelo://app?vid=ae64d049-3c54-4b63-a552-b1e07d06f548"},"vehicle_type_id":"4","last_reported":1742915422,"current_range_meters":13600,"station_id":"ce4bho12rcd13ifvqh1g","pricing_plan_id":"cebpf4jnsgd1na2vs0mg"},{"bike_id":"a15bcc86-b902-4d8f-bd2e-90a68d1fdab7","system_id":"levelo_inurba_marseille","lat":43.28084,"lon":5.39662,"is_reserved":false,"is_disabled":false,"rental_uris":{"android":"levelo://app?vid=a15bcc86-b902-4d8f-bd2e-90a68d1fdab7","ios":"levelo://app?vid=a15bcc86-b902-4d8f-bd2e-90a68d1fdab7"},"vehicle_type_id":"4","last_reported":1742915422,"current_range_meters":14000,"station_id":"ce4bho12rcd13ifvqh2g","pricing_plan_id":"cebpf4jnsgd1na2vs0mg"},{"bike_id":"da43d894-069e-486e-a738-14255c3635ad","system_id":"levelo_inurba_marseille","lat":43.26045,"lon":5.39414,"is_reserved":false,"is_disabled":false,"rental_uris":{"android":"levelo://app?vid=da43d894-069e-486e-a738-14255c3635ad","ios":"levelo://app?vid=da43d894-069e-486e-a738-14255c3635ad"},"vehicle_type_id":"4","last_reported":1742915422,"current_range_meters":14000,"station_id":"ce4bhh92rcd13ifvqfj0","pricing_plan_id":"cebpf4jnsgd1na2vs0mg"},{"bike_id":"a387d8a9-2128-4c13-a47e-aef06021ff03","system_id":"levelo_inurba_marseille","lat":43.27669,"lon":5.38896,"is_reserved":false,"is_disabled":false,"rental_uris":{"android":"levelo://app?vid=a387d8a9-2128-4c13-a47e-aef06021ff03","ios":"levelo://app?vid=a387d8a9-2128-4c13-a47e-aef06021ff03"},"vehicle_type_id":"4","last_reported":1742915422,"current_range_meters":14000,"station_id":"ce4bhi12rcd13ifvqfo0","pricing_plan_id":"cebpf4jnsgd1na2vs0mg"},{"bike_id":"04429668-290b-4a3a-82dc-a1bde802ae86","system_id":"levelo_inurba_marseille","lat":43.30426,"lon":5.397407,"is_reserved":false,"is_disabled":false,"rental_uris":{"android":"levelo://app?vid=04429668-290b-4a3a-82dc-a1bde802ae86","ios":"levelo://app?vid=04429668-290b-4a3a-82dc-a1bde802ae86"},"vehicle_type_id":"4","last_reported":1742915422,"current_range_meters":14000,"station_id":"ce4bhbh2rcd13ifvqeqg","pricing_plan_id":"cebpf4jnsgd1na2vs0mg"},{"bike_id":"b052d2e2-e875-4904-a7e7-4c54f441a36b","system_id":"levelo_inurba_marseille","lat":43.312,"lon":5.36851,"is_reserved":false,"is_disabled":false,"rental_uris":{"android":"levelo://app?vid=b052d2e2-e875-4904-a7e7-4c54f441a36b","ios":"levelo://app?vid=b052d2e2-e875-4904-a7e7-4c54f441a36b"},"vehicle_type_id":"4","last_reported":1742915422,"current_range_meters":14000,"station_id":"ce4bgl92rcd13ifvqbq0","pricing_plan_id":"cebpf4jnsgd1na2vs0mg"},{"bike_id":"d19f2d38-82f4-4298-8042-adda81f60364","system_id":"levelo_inurba_marseille","lat":43.28355,"lon":5.38103,"is_reserved":false,"is_disabled":false,"rental_uris":{"android":"levelo://app?vid=d19f2d38-82f4-4298-8042-adda81f60364","ios":"levelo://app?vid=d19f2d38-82f4-4298-8042-adda81f60364"},"vehicle_type_id":"4","last_reported":1742915422,"current_range_meters":14000,"station_id":"ce4bh412rcd13ifvqdr0","pricing_plan_id":"cebpf4jnsgd1na2vs0mg"},{"bike_id":"48844298-e040-4ef6-8a39-e65ba1d078c0","system_id":"levelo_inurba_marseille","lat":43.21944,"lon":5.41905,"is_reserved":false,"is_disabled":false,"rental_uris":{"android":"levelo://app?vid=48844298-e040-4ef6-8a39-e65ba1d078c0","ios":"levelo://app?vid=48844298-e040-4ef6-8a39-e65ba1d078c0"},"vehicle_type_id":"4","last_reported":1742915422,"current_range_meters":14000,"station_id":"","pricing_plan_id":"cebpf4jnsgd1na2vs0mg"},{"bike_id":"3291f040-37be-4ac9-a33a-35268e664631","system_id":"levelo_inurba_marseille","lat":43.31315,"lon":5.3973,"is_reserved":false,"is_disabled":false,"rental_uris":{"android":"levelo://app?vid=3291f040-37be-4ac9-a33a-35268e664631","ios":"levelo://app?vid=3291f040-37be-4ac9-a33a-35268e664631"},"vehicle_type_id":"4","last_reported":1742915422,"current_range_meters":14000,"station_id":"ce4bgvp2rcd13ifvqcu0","pricing_plan_id":"cebpf4jnsgd1na2vs0mg"},{"bike_id":"11bb0b32-fdc0-4c22-aa18-db9114dfbe3f","system_id":"levelo_inurba_marseille","lat":43.27372,"lon":5.36257,"is_reserved":false,"is_disabled":false,"rental_uris":{"android":"levelo://app?vid=11bb0b32-fdc0-4c22-aa18-db9114dfbe3f","ios":"levelo://app?vid=11bb0b32-fdc0-4c22-aa18-db9114dfbe3f"},"vehicle_type_id":"4","last_reported":1742915422,"current_range_meters":14000,"station_id":"ce4bhbh2rcd13ifvqeo0","pricing_plan_id":"cebpf4jnsgd1na2vs0mg"},{"bike_id":"13275590-1c08-42a4-8b33-34c133fd18bd","system_id":"levelo_inurba_marseille","lat":43.29866,"lon":5.39735,"is_reserved":false,"is_disabled":false,"rental_uris":{"android":"levelo://app?vid=13275590-1c08-42a4-8b33-34c133fd18bd","ios":"levelo://app?vid=13275590-1c08-42a4-8b33-34c133fd18bd"},"vehicle_type_id":"4","last_reported":1742915422,"current_range_meters":14400,"station_id":"ce4bh0h2rcd13ifvqd50","pricing_plan_id":"cebpf4jnsgd1na2vs0mg"},{"bike_id":"1d2a591d-bee8-49ad-ac24-b12f3f5fd018","system_id":"levelo_inurba_marseille","lat":43.290196,"lon":5.381351,"is_reserved":false,"is_disabled":false,"rental_uris":{"android":"levelo://app?vid=1d2a591d-bee8-49ad-ac24-b12f3f5fd018","ios":"levelo://app?vid=1d2a591d-bee8-49ad-ac24-b12f3f5fd018"},"vehicle_type_id":"4","last_reported":1742915422,"current_range_meters":14400,"station_id":"ce4bh4p2rcd13ifvqe1g","pricing_plan_id":"cebpf4jnsgd1na2vs0mg"},{"bike_id":"2b40bf48-39e3-4936-b1da-fca968455116","system_id":"levelo_inurba_marseille","lat":43.28007,"lon":5.40008,"is_reserved":false,"is_disabled":false,"rental_uris":{"android":"levelo://app?vid=2b40bf48-39e3-4936-b1da-fca968455116","ios":"levelo://app?vid=2b40bf48-39e3-4936-b1da-fca968455116"},"vehicle_type_id":"4","last_reported":1742915422,"current_range_meters":14400,"station_id":"ce4bho92rcd13ifvqh4g","pricing_plan_id":"cebpf4jnsgd1na2vs0mg"},{"bike_id":"7fdecdeb-36cb-4cf4-9c98-d803f5809435","system_id":"levelo_inurba_marseille","lat":43.2615,"lon":5.39866,"is_reserved":false,"is_disabled":false,"rental_uris":{"android":"levelo://app?vid=7fdecdeb-36cb-4cf4-9c98-d803f5809435","ios":"levelo://app?vid=7fdecdeb-36cb-4cf4-9c98-d803f5809435"},"vehicle_type_id":"4","last_reported":1742915422,"current_range_meters":14400,"station_id":"","pricing_plan_id":"cebpf4jnsgd1na2vs0mg"},{"bike_id":"39dd3a0d-5b61-48d8-a69f-25b5d345b395","system_id":"levelo_inurba_marseille","lat":43.30539,"lon":5.36532,"is_reserved":false,"is_disabled":false,"rental_uris":{"android":"levelo://app?vid=39dd3a0d-5b61-48d8-a69f-25b5d345b395","ios":"levelo://app?vid=39dd3a0d-5b61-48d8-a69f-25b5d345b395"},"vehicle_type_id":"4","last_reported":1742915422,"current_range_meters":14400,"station_id":"ce4bgs12rcd13ifvqcag","pricing_plan_id":"cebpf4jnsgd1na2vs0mg"},{"bike_id":"0aea2c8b-a3f7-47d3-88d0-95fbd5fe692b","system_id":"levelo_inurba_marseille","lat":43.26688,"lon":5.3826,"is_reserved":false,"is_disabled":false,"rental_uris":{"android":"levelo://app?vid=0aea2c8b-a3f7-47d3-88d0-95fbd5fe692b","ios":"levelo://app?vid=0aea2c8b-a3f7-47d3-88d0-95fbd5fe692b"},"vehicle_type_id":"4","last_reported":1742915422,"current_range_meters":14400,"station_id":"ce4bhg92rcd13ifvqf90","pricing_plan_id":"cebpf4jnsgd1na2vs0mg"},{"bike_id":"84a7a785-5392-42bc-8088-fb903bcc7f5c","system_id":"levelo_inurba_marseille","lat":43.23086,"lon":5.35486,"is_reserved":false,"is_disabled":false,"rental_uris":{"android":"levelo://app?vid=84a7a785-5392-42bc-8088-fb903bcc7f5c","ios":"levelo://app?vid=84a7a785-5392-42bc-8088-fb903bcc7f5c"},"vehicle_type_id":"4","last_reported":1742915422,"current_range_meters":14800,"station_id":"cpo3342slgdg3j2ifvpg","pricing_plan_id":"cebpf4jnsgd1na2vs0mg"},{"bike_id":"0c9cada4-2764-4013-a528-15089818cb84","system_id":"levelo_inurba_marseille","lat":43.27755,"lon":5.41137,"is_reserved":false,"is_disabled":false,"rental_uris":{"android":"levelo://app?vid=0c9cada4-2764-4013-a528-15089818cb84","ios":"levelo://app?vid=0c9cada4-2764-4013-a528-15089818cb84"},"vehicle_type_id":"4","last_reported":1742915422,"current_range_meters":14800,"station_id":"","pricing_plan_id":"cebpf4jnsgd1na2vs0mg"},{"bike_id":"6b965375-05a4-4b49-86b0-0560f637ecfe","system_id":"levelo_inurba_marseille","lat":43.28725,"lon":5.36079,"is_reserved":false,"is_disabled":false,"rental_uris":{"android":"levelo://app?vid=6b965375-05a4-4b49-86b0-0560f637ecfe","ios":"levelo://app?vid=6b965375-05a4-4b49-86b0-0560f637ecfe"},"vehicle_type_id":"4","last_reported":1742915422,"current_range_meters":14800,"station_id":"cki0cbj6b192h4jlfktg","pricing_plan_id":"cebpf4jnsgd1na2vs0mg"},{"bike_id":"e188127a-982e-47e7-a38c-97a0d95e1457","system_id":"levelo_inurba_marseille","lat":43.25817,"lon":5.39416,"is_reserved":false,"is_disabled":false,"rental_uris":{"android":"levelo://app?vid=e188127a-982e-47e7-a38c-97a0d95e1457","ios":"levelo://app?vid=e188127a-982e-47e7-a38c-97a0d95e1457"},"vehicle_type_id":"4","last_reported":1742915422,"current_range_meters":14800,"station_id":"ce4bhip2rcd13ifvqft0","pricing_plan_id":"cebpf4jnsgd1na2vs0mg"},{"bike_id":"974f5876-effd-44d0-911c-76ea7a107a8c","system_id":"levelo_inurba_marseille","lat":43.3329,"lon":5.35861,"is_reserved":false,"is_disabled":false,"rental_uris":{"android":"levelo://app?vid=974f5876-effd-44d0-911c-76ea7a107a8c","ios":"levelo://app?vid=974f5876-effd-44d0-911c-76ea7a107a8c"},"vehicle_type_id":"4","last_reported":1742915422,"current_range_meters":14800,"station_id":"","pricing_plan_id":"cebpf4jnsgd1na2vs0mg"},{"bike_id":"82f4f99b-51fe-4936-a4de-49b3b1a04600","system_id":"levelo_inurba_marseille","lat":43.27624,"lon":5.36107,"is_reserved":false,"is_disabled":false,"rental_uris":{"android":"levelo://app?vid=82f4f99b-51fe-4936-a4de-49b3b1a04600","ios":"levelo://app?vid=82f4f99b-51fe-4936-a4de-49b3b1a04600"},"vehicle_type_id":"4","last_reported":1742915422,"current_range_meters":14800,"station_id":"ce4bgj92rcd13ifvqbe0","pricing_plan_id":"cebpf4jnsgd1na2vs0mg"},{"bike_id":"5336a8ca-abfb-46ae-b16d-c019918b2528","system_id":"levelo_inurba_marseille","lat":43.24812,"lon":5.3744,"is_reserved":false,"is_disabled":false,"rental_uris":{"android":"levelo://app?vid=5336a8ca-abfb-46ae-b16d-c019918b2528","ios":"levelo://app?vid=5336a8ca-abfb-46ae-b16d-c019918b2528"},"vehicle_type_id":"4","last_reported":1742915422,"current_range_meters":15200,"station_id":"ce4bhgh2rcd13ifvqfb0","pricing_plan_id":"cebpf4jnsgd1na2vs0mg"},{"bike_id":"8e1b69fe-38a9-404e-9145-427fd10d244c","system_id":"levelo_inurba_marseille","lat":43.284265,"lon":5.349792,"is_reserved":false,"is_disabled":true,"rental_uris":{"android":"levelo://app?vid=8e1b69fe-38a9-404e-9145-427fd10d244c","ios":"levelo://app?vid=8e1b69fe-38a9-404e-9145-427fd10d244c"},"vehicle_type_id":"4","last_reported":1742915422,"current_range_meters":15200,"station_id":"ce4bhlh2rcd13ifvqgig","pricing_plan_id":"cebpf4jnsgd1na2vs0mg"},{"bike_id":"f2909e0b-66a1-413c-8f99-3da575ed0353","system_id":"levelo_inurba_marseille","lat":43.25581,"lon":5.38236,"is_reserved":false,"is_disabled":false,"rental_uris":{"android":"levelo://app?vid=f2909e0b-66a1-413c-8f99-3da575ed0353","ios":"levelo://app?vid=f2909e0b-66a1-413c-8f99-3da575ed0353"},"vehicle_type_id":"4","last_reported":1742915422,"current_range_meters":15200,"station_id":"ce4bhih2rcd13ifvqfs0","pricing_plan_id":"cebpf4jnsgd1na2vs0mg"},{"bike_id":"f51bb3ce-5698-4ef0-9b82-fbed643af36d","system_id":"levelo_inurba_marseille","lat":43.29799,"lon":5.38091,"is_reserved":false,"is_disabled":false,"rental_uris":{"android":"levelo://app?vid=f51bb3ce-5698-4ef0-9b82-fbed643af36d","ios":"levelo://app?vid=f51bb3ce-5698-4ef0-9b82-fbed643af36d"},