{"last_updated":1744236539,"ttl":60,"version":"2.2","data":{"bikes":[{"bike_id":"cd5076ed-34b0-4459-b64b-b2a98ffe5b20","system_id":"levelo_inurba_marseille","lat":43.2989,"lon":5.38391,"is_reserved":false,"is_disabled":false,"rental_uris":{"android":"levelo://app?vid=cd5076ed-34b0-4459-b64b-b2a98ffe5b20","ios":"levelo://app?vid=cd5076ed-34b0-4459-b64b-b2a98ffe5b20"},"vehicle_type_id":"4","last_reported":1744236539,"current_range_meters":2800,"station_id":"","pricing_plan_id":"cebpf4jnsgd1na2vs0mg"},{"bike_id":"0842854b-e993-4746-afbe-dc61ba9afef9","system_id":"levelo_inurba_marseille","lat":43.28436,"lon":5.39197,"is_reserved":false,"is_disabled":false,"rental_uris":{"android":"levelo://app?vid=0842854b-e993-4746-afbe-dc61ba9afef9","ios":"levelo://app?vid=0842854b-e993-4746-afbe-dc61ba9afef9"},"vehicle_type_id":"4","last_reported":1744236539,"current_range_meters":2800,"station_id":"ce4bhoh2rcd13ifvqh5g","pricing_plan_id":"cebpf4jnsgd1na2vs0mg"},{"bike_id":"a5893a1f-7c9d-4af5-acab-6328a27154af","system_id":"levelo_inurba_marseille","lat":43.292785,"lon":5.408999,"is_reserved":false,"is_disabled":true,"rental_uris":{"android":"levelo://app?vid=a5893a1f-7c9d-4af5-acab-6328a27154af","ios":"levelo://app?vid=a5893a1f-7c9d-4af5-acab-6328a27154af"},"vehicle_type_id":"4","last_reported":1744236539,"current_range_meters":2800,"station_id":"","pricing_plan_id":"cebpf4jnsgd1na2vs0mg"},{"bike_id":"55ad112b-604f-4b39-ad09-bd6eabedad68","system_id":"levelo_inurba_marseille","lat":43.31358,"lon":5.38495,"is_reserved":false,"is_disabled":false,"rental_uris":{"android":"levelo://app?vid=55ad112b-604f-4b39-ad09-bd6eabedad68","ios":"levelo://app?vid=55ad112b-604f-4b39-ad09-bd6eabedad68"},"vehicle_type_id":"4","last_reported":1744236539,"current_range_meters":3200,"station_id":"ce4bgt92rcd13ifvqcf0","pricing_plan_id":"cebpf4jnsgd1na2vs0mg"},{"bike_id":"61faeab7-d3b1-42ea-8185-a6bb834269b2","system_id":"levelo_inurba_marseille","lat":43.27136,"lon":5.41477,"is_reserved":false,"is_disabled":false,"rental_uris":{"android":"levelo://app?vid=61faeab7-d3b1-42ea-8185-a6bb834269b2","ios":"levelo://app?vid=61faeab7-d3b1-42ea-8185-a6bb834269b2"},"vehicle_type_id":"4","last_reported":1744236539,"current_range_meters":3200,"station_id":"","pricing_plan_id":"cebpf4jnsgd1na2vs0mg"},{"bike_id":"8e1f857a-8192-42a6-885d-8af1667c3797","system_id":"levelo_inurba_marseille","lat":43.30308,"lon":5.39216,"is_reserved":false,"is_disabled":false,"rental_uris":{"android":"levelo://app?vid=8e1f857a-8192-42a6-885d-8af1667c3797","ios":"levelo://app?vid=8e1f857a-8192-42a6-885d-8af1667c3797"},"vehicle_type_id":"4","last_reported":1744236539,"current_range_meters":3200,"station_id":"ce4bgkh2rcd13ifvqbk0","pricing_plan_id":"cebpf4jnsgd1na2vs0mg"},{"bike_id":"e53704fe-8d2d-4679-a540-dff4c4193fd5","system_id":"levelo_inurba_marseille","lat":43.29578,"lon":5.36739,"is_reserved":false,"is_disabled":false,"rental_uris":{"android":"levelo://app?vid=e53704fe-8d2d-4679-a540-dff4c4193fd5","ios":"levelo://app?vid=e53704fe-8d2d-4679-a540-dff4c4193fd5"},"vehicle_type_id":"4","last_reported":1744236539,"current_range_meters":3200,"station_id":"ce4bgph2rcd13ifvqc2g","pricing_plan_id":"cebpf4jnsgd1na2vs0mg"},{"bike_id":"ae7fc30f-36a4-4b2d-8b99-bb40d3c9eacc","system_id":"levelo_inurba_marseille","lat":43.29416,"lon":5.38623,"is_reserved":false,"is_disabled":true,"rental_uris":{"android":"levelo://app?vid=ae7fc30f-36a4-4b2d-8b99-bb40d3c9eacc","ios":"levelo://app?vid=ae7fc30f-36a4-4b2d-8b99-bb40d3c9eacc"},"vehicle_type_id":"4","last_reported":1744236539,"current_range_meters":3600,"station_id":"ce4bh2h2rcd13ifvqdh0","pricing_plan_id":"cebpf4jnsgd1na2vs0mg"},{"bike_id":"0c3a3bd3-4301-4ccc-9dfa-35c0c716dcce","system_id":"levelo_inurba_marseille","lat":43.24666,"lon":5.38174,"is_reserved":false,"is_disabled":true,"rental_uris":{"android":"levelo://app?vid=0c3a3bd3-4301-4ccc-9dfa-35c0c716dcce","ios":"levelo://app?vid=0c3a3bd3-4301-4ccc-9dfa-35c0c716dcce"},"vehicle_type_id":"4","last_reported":1744236539,"current_range_meters":3600,"station_id":"ce4bhih2rcd13ifvqfr0","pricing_plan_id":"cebpf4jnsgd1na2vs0mg"},{"bike_id":"7929e964-3189-4a8d-ab5b-0826ccb19e97","system_id":"levelo_inurba_marseille","lat":43.292633,"lon":5.408986,"is_reserved":false,"is_disabled":false,"rental_uris":{"android":"levelo://app?vid=7929e964-3189-4a8d-ab5b-0826ccb19e97","ios":"levelo://app?vid=7929e964-3189-4a8d-ab5b-0826ccb19e97"},"vehicle_type_id":"4","last_reported":1744236539,"current_range_meters":3600,"station_id":"ce4bh192rcd13ifvqdc0","pricing_plan_id":"cebpf4jnsgd1na2vs0mg"},{"bike_id":"bcda631b-d2ea-460a-bdf6-42561697c519","system_id":"levelo_inurba_marseille","lat":43.33553,"lon":5.36337,"is_reserved":false,"is_disabled":false,"rental_uris":{"android":"levelo://app?vid=bcda631b-d2ea-460a-bdf6-42561697c519","ios":"levelo://app?vid=bcda631b-d2ea-460a-bdf6-42561697c519"},"vehicle_type_id":"4","last_reported":1744236539,"current_range_meters":3600,"station_id":"","pricing_plan_id":"cebpf4jnsgd1na2vs0mg"},{"bike_id":"58b518c7-3105-4f5e-96af-5214cce79c4a","system_id":"levelo_inurba_marseille","lat":43.3081,"lon":5.38125,"is_reserved":false,"is_disabled":false,"rental_uris":{"android":"levelo://app?vid=58b518c7-3105-4f5e-96af-5214cce79c4a","ios":"levelo://app?vid=58b518c7-3105-4f5e-96af-5214cce79c4a"},"vehicle_type_id":"4","last_reported":1744236539,"current_range_meters":4000,"station_id":"ce4bgt12rcd13ifvqce0","pricing_plan_id":"cebpf4jnsgd1na2vs0mg"},{"bike_id":"18cb5788-678a-4dc4-9bfb-c9ef66309a4a","system_id":"levelo_inurba_marseille","lat":43.29274,"lon":5.38432,"is_reserved":false,"is_disabled":false,"rental_uris":{"android":"levelo://app?vid=18cb5788-678a-4dc4-9bfb-c9ef66309a4a","ios":"levelo://app?vid=18cb5788-678a-4dc4-9bfb-c9ef66309a4a"},"vehicle_type_id":"4","last_reported":1744236539,"current_range_meters":3600,"station_id":"ce4bh692rcd13ifvqea0","pricing_plan_id":"cebpf4jnsgd1na2vs0mg"},{"bike_id":"aca4a431-5366-4c84-b3b7-8d3167681cd1","system_id":"levelo_inurba_marseille","lat":43.295939,"lon":5.381075,"is_reserved":false,"is_disabled":false,"rental_uris":{"android":"levelo://app?vid=aca4a431-5366-4c84-b3b7-8d3167681cd1","ios":"levelo://app?vid=aca4a431-5366-4c84-b3b7-8d3167681cd1"},"vehicle_type_id":"4","last_reported":1744236539,"current_range_meters":4000,"station_id":"ce4bgrh2rcd13ifvqc8g","pricing_plan_id":"cebpf4jnsgd1na2vs0mg"},{"bike_id":"488970c7-ad85-4166-a4ad-456252c5bcc5","system_id":"levelo_inurba_marseille","lat":43.27375,"lon":5.40872,"is_reserved":false,"is_disabled":false,"rental_uris":{"android":"levelo://app?vid=488970c7-ad85-4166-a4ad-456252c5bcc5","ios":"levelo://app?vid=488970c7-ad85-4166-a4ad-456252c5bcc5"},"vehicle_type_id":"4","last_reported":1744236539,"current_range_meters":4000,"station_id":"","pricing_plan_id":"cebpf4jnsgd1na2vs0mg"},{"bike_id":"ebe1ea58-9f38-4c10-a6da-a9d33ab03a52","system_id":"levelo_inurba_marseille","lat":43.249924,"lon":5.389474,"is_reserved":false,"is_disabled":true,"rental_uris":{"android":"levelo://app?vid=ebe1ea58-9f38-4c10-a6da-a9d33ab03a52","ios":"levelo://app?vid=ebe1ea58-9f38-4c10-a6da-a9d33ab03a52"},"vehicle_type_id":"4","last_reported":1744236539,"current_range_meters":4400,"station_id":"ce4bhgp2rcd13ifvqfd0","pricing_plan_id":"cebpf4jnsgd1na2vs0mg"},{"bike_id":"3ea27e54-f8eb-412e-930d-2d778578f9d0","system_id":"levelo_inurba_marseille","lat":43.24063,"lon":5.37765,"is_reserved":false,"is_disabled":false,"rental_uris":{"android":"levelo://app?vid=3ea27e54-f8eb-412e-930d-2d778578f9d0","ios":"levelo://app?vid=3ea27e54-f8eb-412e-930d-2d778578f9d0"},"vehicle_type_id":"4","last_reported":1744236539,"current_range_meters":4400,"station_id":"ce4bhnp2rcd13ifvqgvg","pricing_plan_id":"cebpf4jnsgd1na2vs0mg"},{"bike_id":"0afa710d-ae25-4ea1-8b2d-be4f5b57249c","system_id":"levelo_inurba_marseille","lat":43.2717,"lon":5.41004,"is_reserved":false,"is_disabled":false,"rental_uris":{"android":"levelo://app?vid=0afa710d-ae25-4ea1-8b2d-be4f5b57249c","ios":"levelo://app?vid=0afa710d-ae25-4ea1-8b2d-be4f5b57249c"},"vehicle_type_id":"4","last_reported":1744236539,"current_range_meters":4400,"station_id":"ce4bhl12rcd13ifvqgf0","pricing_plan_id":"cebpf4jnsgd1na2vs0mg"},{"bike_id":"ec41b842-c84f-4ab1-894c-fc6101e00efb","system_id":"levelo_inurba_marseille","lat":43.3173,"lon":5.40354,"is_reserved":false,"is_disabled":false,"rental_uris":{"android":"levelo://app?vid=ec41b842-c84f-4ab1-894c-fc6101e00efb","ios":"levelo://app?vid=ec41b842-c84f-4ab1-894c-fc6101e00efb"},"vehicle_type_id":"4","last_reported":1744236539,"current_range_meters":4400,"station_id":"","pricing_plan_id":"cebpf4jnsgd1na2vs0mg"},{"bike_id":"90ae1cb6-654c-470b-aec0-aa5a360687ef","system_id":"levelo_inurba_marseille","lat":43.269384,"lon":5.402546,"is_reserved":false,"is_disabled":false,"rental_uris":{"android":"levelo://app?vid=90ae1cb6-654c-470b-aec0-aa5a360687ef","ios":"levelo://app?vid=90ae1cb6-654c-470b-aec0-aa5a360687ef"},"vehicle_type_id":"4","last_reported":1744236539,"current_range_meters":4400,"station_id":"ce4bhmp2rcd13ifvqgog","pricing_plan_id":"cebpf4jnsgd1na2vs0mg"},{"bike_id":"cd07658d-a6fb-41d7-b49f-5b25a6336379","system_id":"levelo_inurba_marseille","lat":43.23956,"lon":5.36644,"is_reserved":false,"is_disabled":false,"rental_uris":{"android":"levelo://app?vid=cd07658d-a6fb-41d7-b49f-5b25a6336379","ios":"levelo://app?vid=cd07658d-a6fb-41d7-b49f-5b25a6336379"},"vehicle_type_id":"4","last_reported":1744236539,"current_range_meters":4400,"station_id":"ce4bhi12rcd13ifvqfp0","pricing_plan_id":"cebpf4jnsgd1na2vs0mg"},{"bike_id":"e7834a97-3a8f-4d84-b6d1-bf6e661836ed","system_id":"levelo_inurba_marseille","lat":43.2903,"lon":5.38644,"is_reserved":false,"is_disabled":false,"rental_uris":{"android":"levelo://app?vid=e7834a97-3a8f-4d84-b6d1-bf6e661836ed","ios":"levelo://app?vid=e7834a97-3a8f-4d84-b6d1-bf6e661836ed"},"vehicle_type_id":"4","last_reported":1744236539,"current_range_meters":4800,"station_id":"ce4bh4p2rcd13ifvqe0g","pricing_plan_id":"cebpf4jnsgd1na2vs0mg"},{"bike_id":"7708189a-89cf-4648-9115-082c524291e7","system_id":"levelo_inurba_marseille","lat":43.28713,"lon":5.37951,"is_reserved":false,"is_disabled":false,"rental_uris":{"android":"levelo://app?vid=7708189a-89cf-4648-9115-082c524291e7","ios":"levelo://app?vid=7708189a-89cf-4648-9115-082c524291e7"},"vehicle_type_id":"4","last_reported":1744236539,"current_range_meters":4800,"station_id":"ce4bh9p2rcd13ifvqec0","pricing_plan_id":"cebpf4jnsgd1na2vs0mg"},{"bike_id":"992dd0c7-70bc-41c5-843e-f62ba93733c1","system_id":"levelo_inurba_marseille","lat":43.29534,"lon":5.39397,"is_reserved":false,"is_disabled":false,"rental_uris":{"android":"levelo://app?vid=992dd0c7-70bc-41c5-843e-f62ba93733c1","ios":"levelo://app?vid=992dd0c7-70bc-41c5-843e-f62ba93733c1"},"vehicle_type_id":"4","last_reported":1744236539,"current_range_meters":4400,"station_id":"ce4bh292rcd13ifvqdf0","pricing_plan_id":"cebpf4jnsgd1na2vs0mg"},{"bike_id":"79b4a3fe-83b6-4a7e-b62d-fbe80c1f5666","system_id":"levelo_inurba_marseille","lat":43.21756,"lon":5.34594,"is_reserved":false,"is_disabled":false,"rental_uris":{"android":"levelo://app?vid=79b4a3fe-83b6-4a7e-b62d-fbe80c1f5666","ios":"levelo://app?vid=79b4a3fe-83b6-4a7e-b62d-fbe80c1f5666"},"vehicle_type_id":"4","last_reported":1744236539,"current_range_meters":5600,"station_id":"st_cvj6r9ubvosntc0bgbag","pricing_plan_id":"cebpf4jnsgd1na2vs0mg"},{"bike_id":"6569a176-a49c-464b-9416-ff731ba8b325","system_id":"levelo_inurba_marseille","lat":43.31128,"lon":5.37797,"is_reserved":false,"is_disabled":true,"rental_uris":{"android":"levelo://app?vid=6569a176-a49c-464b-9416-ff731ba8b325","ios":"levelo://app?vid=6569a176-a49c-464b-9416-ff731ba8b325"},"vehicle_type_id":"4","last_reported":1744236539,"current_range_meters":5600,"station_id":"ce4bgt92rcd13ifvqcg0","pricing_plan_id":"cebpf4jnsgd1na2vs0mg"},{"bike_id":"92a1b036-eec2-47ce-a366-75a6fb804fc7","system_id":"levelo_inurba_marseille","lat":43.28945,"lon":5.36407,"is_reserved":false,"is_disabled":false,"rental_uris":{"android":"levelo://app?vid=92a1b036-eec2-47ce-a366-75a6fb804fc7","ios":"levelo://app?vid=92a1b036-eec2-47ce-a366-75a6fb804fc7"},"vehicle_type_id":"4","last_reported":1744236539,"current_range_meters":5600,"station_id":"ce4bhc92rcd13ifvqetg","pricing_plan_id":"cebpf4jnsgd1na2vs0mg"},{"bike_id":"9ccf9bdc-9aef-4c42-adae-facc43143628","system_id":"levelo_inurba_marseille","lat":43.27914,"lon":5.39577,"is_reserved":false,"is_disabled":false,"rental_uris":{"android":"levelo://app?vid=9ccf9bdc-9aef-4c42-adae-facc43143628","ios":"levelo://app?vid=9ccf9bdc-9aef-4c42-adae-facc43143628"},"vehicle_type_id":"4","last_reported":1744236539,"current_range_meters":5600,"station_id":"ce4bhf92rcd13ifvqf40","pricing_plan_id":"cebpf4jnsgd1na2vs0mg"},{"bike_id":"3bfd792d-8024-4b3d-8c0a-4428de874fa2","system_id":"levelo_inurba_marseille","lat":43.32042,"lon":5.38592,"is_reserved":false,"is_disabled":true,"rental_uris":{"android":"levelo://app?vid=3bfd792d-8024-4b3d-8c0a-4428de874fa2","ios":"levelo://app?vid=3bfd792d-8024-4b3d-8c0a-4428de874fa2"},"vehicle_type_id":"4","last_reported":1744236539,"current_range_meters":6000,"station_id":"","pricing_plan_id":"cebpf4jnsgd1na2vs0mg"},{"bike_id":"a7b5897b-7931-4ab2-bb23-be702923d52e","system_id":"levelo_inurba_marseille","lat":43.29257,"lon":5.40906,"is_reserved":false,"is_disabled":false,"rental_uris":{"android":"levelo://app?vid=a7b5897b-7931-4ab2-bb23-be702923d52e","ios":"levelo://app?vid=a7b5897b-7931-4ab2-bb23-be702923d52e"},"vehicle_type_id":"4","last_reported":1744236539,"current_range_meters":6000,"station_id":"ce4bh192rcd13ifvqdc0","pricing_plan_id":"cebpf4jnsgd1na2vs0mg"},{"bike_id":"03926bc9-f9d8-4451-80fc-eb49eedc74e1","system_id":"levelo_inurba_marseille","lat":43.27821,"lon":5.40708,"is_reserved":false,"is_disabled":false,"rental_uris":{"android":"levelo://app?vid=03926bc9-f9d8-4451-80fc-eb49eedc74e1","ios":"levelo://app?vid=03926bc9-f9d8-4451-80fc-eb49eedc74e1"},"vehicle_type_id":"4","last_reported":1744236539,"current_range_meters":6400,"station_id":"ce4bhnh2rcd13ifvqgtg","pricing_plan_id":"cebpf4jnsgd1na2vs0mg"},{"bike_id":"9dad613b-fd85-481c-8b7c-456e1be1d564","system_id":"levelo_inurba_marseille","lat":43.26217,"lon":5.3794,"is_reserved":false,"is_disabled":false,"rental_uris":{"android":"levelo://app?vid=9dad613b-fd85-481c-8b7c-456e1be1d564","ios":"levelo://app?vid=9dad613b-fd85-481c-8b7c-456e1be1d564"},"vehicle_type_id":"4","last_reported":1744236539,"current_range_meters":6400,"station_id":"ce4bhjp2rcd13ifvqg90","pricing_plan_id":"cebpf4jnsgd1na2vs0mg"},{"bike_id":"55f6bc2d-96cc-431e-8686-27d600d2c453","system_id":"levelo_inurba_marseille","lat":43.31132,"lon":5.38745,"is_reserved":false,"is_disabled":false,"rental_uris":{"android":"levelo://app?vid=55f6bc2d-96cc-431e-8686-27d600d2c453","ios":"levelo://app?vid=55f6bc2d-96cc-431e-8686-27d600d2c453"},"vehicle_type_id":"4","last_reported":1744236539,"current_range_meters":6400,"station_id":"ce4bgv12rcd13ifvqcp0","pricing_plan_id":"cebpf4jnsgd1na2vs0mg"},{"bike_id":"68d1cc33-0218-451e-8e10-d32225c21263","system_id":"levelo_inurba_marseille","lat":43.23141,"lon":5.43628,"is_reserved":false,"is_disabled":true,"rental_uris":{"android":"levelo://app?vid=68d1cc33-0218-451e-8e10-d32225c21263","ios":"levelo://app?vid=68d1cc33-0218-451e-8e10-d32225c21263"},"vehicle_type_id":"4","last_reported":1744236539,"current_range_meters":6400,"station_id":"ce4bhmp2rcd13ifvqgog","pricing_plan_id":"cebpf4jnsgd1na2vs0mg"},{"bike_id":"7f4ae8d2-ce44-46e0-a53e-624e502f6a71","system_id":"levelo_inurba_marseille","lat":43.29716,"lon":5.3661,"is_reserved":false,"is_disabled":false,"rental_uris":{"android":"levelo://app?vid=7f4ae8d2-ce44-46e0-a53e-624e502f6a71","ios":"levelo://app?vid=7f4ae8d2-ce44-46e0-a53e-624e502f6a71"},"vehicle_type_id":"4","last_reported":1744236539,"current_range_meters":6800,"station_id":"ce4bgn12rcd13ifvqbt0","pricing_plan_id":"cebpf4jnsgd1na2vs0mg"},{"bike_id":"c40a2e2c-2a66-4aa2-81cf-c4ae98211b54","system_id":"levelo_inurba_marseille","lat":43.21751,"lon":5.34622,"is_reserved":false,"is_disabled":false,"rental_uris":{"android":"levelo://app?vid=c40a2e2c-2a66-4aa2-81cf-c4ae98211b54","ios":"levelo://app?vid=c40a2e2c-2a66-4aa2-81cf-c4ae98211b54"},"vehicle_type_id":"4","last_reported":1744236539,"current_range_meters":6800,"station_id":"st_cvj6r9ubvosntc0bgbag","pricing_plan_id":"cebpf4jnsgd1na2vs0mg"},{"bike_id":"de2b6aaf-ad2c-41c4-a3a5-fc286860c670","system_id":"levelo_inurba_marseille","lat":43.28354,"lon":5.38644,"is_reserved":false,"is_disabled":false,"rental_uris":{"android":"levelo://app?vid=de2b6aaf-ad2c-41c4-a3a5-fc286860c670","ios":"levelo://app?vid=de2b6aaf-ad2c-41c4-a3a5-fc286860c670"},"vehicle_type_id":"4","last_reported":1744236539,"current_range_meters":6800,"station_id":"ce4bh492rcd13ifvqdvg","pricing_plan_id":"cebpf4jnsgd1na2vs0mg"},{"bike_id":"f1000c02-2c76-48ed-b645-232b017fec1a","system_id":"levelo_inurba_marseille","lat":43.28695,"lon":5.37398,"is_reserved":false,"is_disabled":false,"rental_uris":{"android":"levelo://app?vid=f1000c02-2c76-48ed-b645-232b017fec1a","ios":"levelo://app?vid=f1000c02-2c76-48ed-b645-232b017fec1a"},"vehicle_type_id":"4","last_reported":1744236539,"current_range_meters":7200,"station_id":"ce4bh3p2rcd13ifvqdq0","pricing_plan_id":"cebpf4jnsgd1na2vs0mg"},{"bike_id":"929d0315-d114-4461-af41-f6bff04d3821","system_id":"levelo_inurba_marseille","lat":43.30814,"lon":5.38149,"is_reserved":false,"is_disabled":false,"rental_uris":{"android":"levelo://app?vid=929d0315-d114-4461-af41-f6bff04d3821","ios":"levelo://app?vid=929d0315-d114-4461-af41-f6bff04d3821"},"vehicle_type_id":"4","last_reported":1744236539,"current_range_meters":7200,"station_id":"ce4bgt12rcd13ifvqce0","pricing_plan_id":"cebpf4jnsgd1na2vs0mg"},{"bike_id":"cb4c20d8-81f8-4b24-be70-4540f41d4dbd","system_id":"levelo_inurba_marseille","lat":43.27913,"lon":5.39572,"is_reserved":false,"is_disabled":false,"rental_uris":{"android":"levelo://app?vid=cb4c20d8-81f8-4b24-be70-4540f41d4dbd","ios":"levelo://app?vid=cb4c20d8-81f8-4b24-be70-4540f41d4dbd"},"vehicle_type_id":"4","last_reported":1744236539,"current_range_meters":7200,"station_id":"ce4bhf92rcd13ifvqf40","pricing_plan_id":"cebpf4jnsgd1na2vs0mg"},{"bike_id":"7ac5e4e4-1c47-42cd-ac75-de36908cb4da","system_id":"levelo_inurba_marseille","lat":43.23153,"lon":5.4371,"is_reserved":false,"is_disabled":false,"rental_uris":{"android":"levelo://app?vid=7ac5e4e4-1c47-42cd-ac75-de36908cb4da","ios":"levelo://app?vid=7ac5e4e4-1c47-42cd-ac75-de36908cb4da"},"vehicle_type_id":"4","last_reported":1744236539,"current_range_meters":7200,"station_id":"ce4bhmp2rcd13ifvqgog","pricing_plan_id":"cebpf4jnsgd1na2vs0mg"},{"bike_id":"07cc1acb-30f9-4921-80a8-59527275e1ae","system_id":"levelo_inurba_marseille","lat":43.28104,"lon":5.37835,"is_reserved":false,"is_disabled":false,"rental_uris":{"android":"levelo://app?vid=07cc1acb-30f9-4921-80a8-59527275e1ae","ios":"levelo://app?vid=07cc1acb-30f9-4921-80a8-59527275e1ae"},"vehicle_type_id":"4","last_reported":1744236539,"current_range_meters":6800,"station_id":"ce4bha12rcd13ifvqee0","pricing_plan_id":"cebpf4jnsgd1na2vs0mg"},{"bike_id":"39b31432-a95f-4197-b7b1-d47fab348f93","system_id":"levelo_inurba_marseille","lat":43.25831,"lon":5.39456,"is_reserved":false,"is_disabled":false,"rental_uris":{"android":"levelo://app?vid=39b31432-a95f-4197-b7b1-d47fab348f93","ios":"levelo://app?vid=39b31432-a95f-4197-b7b1-d47fab348f93"},"vehicle_type_id":"4","last_reported":1744236539,"current_range_meters":7200,"station_id":"ce4bhip2rcd13ifvqft0","pricing_plan_id":"cebpf4jnsgd1na2vs0mg"},{"bike_id":"bf0c585e-5b41-4721-a51a-71274899cf15","system_id":"levelo_inurba_marseille","lat":43.29675,"lon":5.37814,"is_reserved":false,"is_disabled":false,"rental_uris":{"android":"levelo://app?vid=bf0c585e-5b41-4721-a51a-71274899cf15","ios":"levelo://app?vid=bf0c585e-5b41-4721-a51a-71274899cf15"},"vehicle_type_id":"4","last_reported":1744236539,"current_range_meters":7200,"station_id":"","pricing_plan_id":"cebpf4jnsgd1na2vs0mg"},{"bike_id":"951a075f-4063-499f-95ef-2ec50db6526c","system_id":"levelo_inurba_marseille","lat":43.22922,"lon":5.35407,"is_reserved":false,"is_disabled":false,"rental_uris":{"android":"levelo://app?vid=951a075f-4063-499f-95ef-2ec50db6526c","ios":"levelo://app?vid=951a075f-4063-499f-95ef-2ec50db6526c"},"vehicle_type_id":"4","last_reported":1744236539,"current_range_meters":7200,"station_id":"cpo3532slgdg3j2ikp40","pricing_plan_id":"cebpf4jnsgd1na2vs0mg"},{"bike_id":"98011710-961f-4b06-9ea5-2e20180ef4ff","system_id":"levelo_inurba_marseille","lat":43.28152,"lon":5.42648,"is_reserved":false,"is_disabled":false,"rental_uris":{"android":"levelo://app?vid=98011710-961f-4b06-9ea5-2e20180ef4ff","ios":"levelo://app?vid=98011710-961f-4b06-9ea5-2e20180ef4ff"},"vehicle_type_id":"4","last_reported":1744236539,"current_range_meters":7200,"station_id":"ce4bhnh2rcd13ifvqgug","pricing_plan_id":"cebpf4jnsgd1na2vs0mg"},{"bike_id":"806aabc5-a68c-49c9-9a9a-b9e74a1e0ea6","system_id":"levelo_inurba_marseille","lat":43.24815,"lon":5.37498,"is_reserved":false,"is_disabled":false,"rental_uris":{"android":"levelo://app?vid=806aabc5-a68c-49c9-9a9a-b9e74a1e0ea6","ios":"levelo://app?vid=806aabc5-a68c-49c9-9a9a-b9e74a1e0ea6"},"vehicle_type_id":"4","last_reported":1744236539,"current_range_meters":7200,"station_id":"","pricing_plan_id":"cebpf4jnsgd1na2vs0mg"},{"bike_id":"feca3d9e-12e9-4a3a-8f8a-211aa953b3fa","system_id":"levelo_inurba_marseille","lat":43.29324,"lon":5.41156,"is_reserved":false,"is_disabled":false,"rental_uris":{"android":"levelo://app?vid=feca3d9e-12e9-4a3a-8f8a-211aa953b3fa","ios":"levelo://app?vid=feca3d9e-12e9-4a3a-8f8a-211aa953b3fa"},"vehicle_type_id":"4","last_reported":1744236539,"current_range_meters":7200,"station_id":"","pricing_plan_id":"cebpf4jnsgd1na2vs0mg"},{"bike_id":"33d2ed2c-1909-4b18-8952-b5294741fea7","system_id":"levelo_inurba_marseille","lat":43.30788,"lon":5.37647,"is_reserved":false,"is_disabled":false,"rental_uris":{"android":"levelo://app?vid=33d2ed2c-1909-4b18-8952-b5294741fea7","ios":"levelo://app?vid=33d2ed2c-1909-4b18-8952-b5294741fea7"},"vehicle_type_id":"4","last_reported":1744236539,"current_range_meters":7200,"station_id":"ce4bgv92rcd13ifvqcq0","pricing_plan_id":"cebpf4jnsgd1na2vs0mg"},{"bike_id":"44efffaa-803b-4dd7-b2ec-6bfc01dac8ce","system_id":"levelo_inurba_marseille","lat":43.2737,"lon":5.36262,"is_reserved":false,"is_disabled":false,"rental_uris":{"android":"levelo://app?vid=44efffaa-803b-4dd7-b2ec-6bfc01dac8ce","ios":"levelo://app?vid=44efffaa-803b-4dd7-b2ec-6bfc01dac8ce"},"vehicle_type_id":"4","last_reported":1744236539,"current_range_meters":7200,"station_id":"ce4bhbh2rcd13ifvqeo0","pricing_plan_id":"cebpf4jnsgd1na2vs0mg"},{"bike_id":"1adcfecd-7da9-485c-b40f-e62ffc130e51","system_id":"levelo_inurba_marseille","lat":43.21757,"lon":5.34599,"is_reserved":false,"is_disabled":false,"rental_uris":{"android":"levelo://app?vid=1adcfecd-7da9-485c-b40f-e62ffc130e51","ios":"levelo://app?vid=1adcfecd-7da9-485c-b40f-e62ffc130e51"},"vehicle_type_id":"4","last_reported":1744236539,"current_range_meters":8000,"station_id":"st_cvj6r9ubvosntc0bgbag","pricing_plan_id":"cebpf4jnsgd1na2vs0mg"},{"bike_id":"a433a482-39ed-4069-9f0e-950c1bb88a2e","system_id":"levelo_inurba_marseille","lat":43.29981,"lon":5.3719,"is_reserved":false,"is_disabled":false,"rental_uris":{"android":"levelo://app?vid=a433a482-39ed-4069-9f0e-950c1bb88a2e","ios":"levelo://app?vid=a433a482-39ed-4069-9f0e-950c1bb88a2e"},"vehicle_type_id":"4","last_reported":1744236539,"current_range_meters":8000,"station_id":"ce4bgr92rcd13ifvqc7g","pricing_plan_id":"cebpf4jnsgd1na2vs0mg"},{"bike_id":"bc41586b-49ab-4384-a354-abae8767ef13","system_id":"levelo_inurba_marseille","lat":43.29584,"lon":5.37692,"is_reserved":false,"is_disabled":false,"rental_uris":{"android":"levelo://app?vid=bc41586b-49ab-4384-a354-abae8767ef13","ios":"levelo://app?vid=bc41586b-49ab-4384-a354-abae8767ef13"},"vehicle_type_id":"4","last_reported":1744236539,"current_range_meters":8000,"station_id":"","pricing_plan_id":"cebpf4jnsgd1na2vs0mg"},{"bike_id":"80663e12-6b64-446d-88c9-20255bde1a8a","system_id":"levelo_inurba_marseille","lat":43.3089,"lon":5.3963,"is_reserved":false,"is_disabled":true,"rental_uris":{"android":"levelo://app?vid=80663e12-6b64-446d-88c9-20255bde1a8a","ios":"levelo://app?vid=80663e12-6b64-446d-88c9-20255bde1a8a"},"vehicle_type_id":"4","last_reported":1744236539,"current_range_meters":8000,"station_id":"ce4bh012rcd13ifvqcv0","pricing_plan_id":"cebpf4jnsgd1na2vs0mg"},{"bike_id":"117be171-4e56-41e4-86e6-8fbe4c010556","system_id":"levelo_inurba_marseille","lat":43.27914,"lon":5.39578,"is_reserved":false,"is_disabled":false,"rental_uris":{"android":"levelo://app?vid=117be171-4e56-41e4-86e6-8fbe4c010556","ios":"levelo://app?vid=117be171-4e56-41e4-86e6-8fbe4c010556"},"vehicle_type_id":"4","last_reported":1744236539,"current_range_meters":8000,"station_id":"ce4bhf92rcd13ifvqf40","pricing_plan_id":"cebpf4jnsgd1na2vs0mg"},{"bike_id":"08f9c0c8-8b33-4578-8a03-20f44d582241","system_id":"levelo_inurba_marseille","lat":43.30522,"lon":5.36979,"is_reserved":false,"is_disabled":false,"rental_uris":{"android":"levelo://app?vid=08f9c0c8-8b33-4578-8a03-20f44d582241","ios":"levelo://app?vid=08f9c0c8-8b33-4578-8a03-20f44d582241"},"vehicle_type_id":"4","last_reported":1744236539,"current_range_meters":8000,"station_id":"","pricing_plan_id":"cebpf4jnsgd1na2vs0mg"},{"bike_id":"b397701f-0d3d-44bf-ab3e-3ccc7e74fb2e","system_id":"levelo_inurba_marseille","lat":43.26433,"lon":5.42259,"is_reserved":false,"is_disabled":false,"rental_uris":{"android":"levelo://app?vid=b397701f-0d3d-44bf-ab3e-3ccc7e74fb2e","ios":"levelo://app?vid=b397701f-0d3d-44bf-ab3e-3ccc7e74fb2e"},"vehicle_type_id":"4","last_reported":1744236539,"current_range_meters":8000,"station_id":"","pricing_plan_id":"cebpf4jnsgd1na2vs0mg"},{"bike_id":"cf249a5f-af00-42a3-891f-2a32c7072ed3","system_id":"levelo_inurba_marseille","lat":43.26233,"lon":5.40436,"is_reserved":false,"is_disabled":false,"rental_uris":{"android":"levelo://app?vid=cf249a5f-af00-42a3-891f-2a32c7072ed3","ios":"levelo://app?vid=cf249a5f-af00-42a3-891f-2a32c7072ed3"},"vehicle_type_id":"4","last_reported":1744236539,"current_range_meters":8400,"station_id":"ce4bhmh2rcd13ifvqgmg","pricing_plan_id":"cebpf4jnsgd1na2vs0mg"},{"bike_id":"10790b2b-c447-40cf-871b-6bee3f31059c","system_id":"levelo_inurba_marseille","lat":43.3171,"lon":5.43702,"is_reserved":false,"is_disabled":false,"rental_uris":{"android":"levelo://app?vid=10790b2b-c447-40cf-871b-6bee3f31059c","ios":"levelo://app?vid=10790b2b-c447-40cf-871b-6bee3f31059c"},"vehicle_type_id":"4","last_reported":1744236539,"current_range_meters":8400,"station_id":"ce4bhp92rcd13ifvqhcg","pricing_plan_id":"cebpf4jnsgd1na2vs0mg"},{"bike_id":"21263c65-45ad-4e71-916b-3a4ebc1a0504","system_id":"levelo_inurba_marseille","lat":43.2467,"lon":5.38159,"is_reserved":false,"is_disabled":false,"rental_uris":{"android":"levelo://app?vid=21263c65-45ad-4e71-916b-3a4ebc1a0504","ios":"levelo://app?vid=21263c65-45ad-4e71-916b-3a4ebc1a0504"},"vehicle_type_id":"4","last_reported":1744236539,"current_range_meters":8400,"station_id":"ce4bhih2rcd13ifvqfr0","pricing_plan_id":"cebpf4jnsgd1na2vs0mg"},{"bike_id":"7c41bab6-0404-4314-b218-f822072c5aba","system_id":"levelo_inurba_marseille","lat":43.24098,"lon":5.37789,"is_reserved":false,"is_disabled":false,"rental_uris":{"android":"levelo://app?vid=7c41bab6-0404-4314-b218-f822072c5aba","ios":"levelo://app?vid=7c41bab6-0404-4314-b218-f822072c5aba"},"vehicle_type_id":"4","last_reported":1744236539,"current_range_meters":8400,"station_id":"ce4bhnp2rcd13ifvqgvg","pricing_plan_id":"cebpf4jnsgd1na2vs0mg"},{"bike_id":"0f58884c-3ca8-4379-9ac9-5621a95cf9bd","system_id":"levelo_inurba_marseille","lat":43.26562,"lon":5.39026,"is_reserved":false,"is_disabled":false,"rental_uris":{"android":"levelo://app?vid=0f58884c-3ca8-4379-9ac9-5621a95cf9bd","ios":"levelo://app?vid=0f58884c-3ca8-4379-9ac9-5621a95cf9bd"},"vehicle_type_id":"4","last_reported":1744236539,"current_range_meters":8400,"station_id":"ce4bhe12rcd13ifvqf30","pricing_plan_id":"cebpf4jnsgd1na2vs0mg"},{"bike_id":"c2209f18-97a1-40e7-8cbf-36bb7ebb189d","system_id":"levelo_inurba_marseille","lat":43.28719,"lon":5.36087,"is_reserved":false,"is_disabled":false,"rental_uris":{"android":"levelo://app?vid=c2209f18-97a1-40e7-8cbf-36bb7ebb189d","ios":"levelo://app?vid=c2209f18-97a1-40e7-8cbf-36bb7ebb189d"},"vehicle_type_id":"4","last_reported":1744236539,"current_range_meters":8400,"station_id":"cki0cbj6b192h4jlfktg","pricing_plan_id":"cebpf4jnsgd1na2vs0mg"},{"bike_id":"4eb280b3-5923-4cd2-a122-21058a7d0c17","system_id":"levelo_inurba_marseille","lat":43.24173,"lon":5.39743,"is_reserved":false,"is_disabled":false,"rental_uris":{"android":"levelo://app?vid=4eb280b3-5923-4cd2-a122-21058a7d0c17","ios":"levelo://app?vid=4eb280b3-5923-4cd2-a122-21058a7d0c17"},"vehicle_type_id":"4","last_reported":1744236539,"current_range_meters":8400,"station_id":"ce4bhn12rcd13ifvqgpg","pricing_plan_id":"cebpf4jnsgd1na2vs0mg"},{"bike_id":"fc973399-e131-445b-9648-7b0ac8e69419","system_id":"levelo_inurba_marseille","lat":43.26563,"lon":5.37296,"is_reserved":false,"is_disabled":false,"rental_uris":{"android":"levelo://app?vid=fc973399-e131-445b-9648-7b0ac8e69419","ios":"levelo://app?vid=fc973399-e131-445b-9648-7b0ac8e69419"},"vehicle_type_id":"4","last_reported":1744236539,"current_range_meters":8400,"station_id":"ce4bhg12rcd13ifvqf70","pricing_plan_id":"cebpf4jnsgd1na2vs0mg"},{"bike_id":"841cc48f-644f-4c42-a397-236e943da4b4","system_id":"levelo_inurba_marseille","lat":43.27081,"lon":5.42303,"is_reserved":false,"is_disabled":false,"rental_uris":{"android":"levelo://app?vid=841cc48f-644f-4c42-a397-236e943da4b4","ios":"levelo://app?vid=841cc48f-644f-4c42-a397-236e943da4b4"},"vehicle_type_id":"4","last_reported":1744236539,"current_range_meters":8400,"station_id":"ce4bhk92rcd13ifvqgb0","pricing_plan_id":"cebpf4jnsgd1na2vs0mg"},{"bike_id":"2ea0e531-d908-4aba-86b9-16b6889b5ad9","system_id":"levelo_inurba_marseille","lat":43.28373,"lon":5.38619,"is_reserved":false,"is_disabled":false,"rental_uris":{"android":"levelo://app?vid=2ea0e531-d908-4aba-86b9-16b6889b5ad9","ios":"levelo://app?vid=2ea0e531-d908-4aba-86b9-16b6889b5ad9"},"vehicle_type_id":"4","last_reported":1744236539,"current_range_meters":8400,"station_id":"ce4bh492rcd13ifvqdvg","pricing_plan_id":"cebpf4jnsgd1na2vs0mg"},{"bike_id":"ee7193c5-0e4a-4b5c-aab9-2072d4aba82d","system_id":"levelo_inurba_marseille","lat":43.27972,"lon":5.38811,"is_reserved":false,"is_disabled":false,"rental_uris":{"android":"levelo://app?vid=ee7193c5-0e4a-4b5c-aab9-2072d4aba82d","ios":"levelo://app?vid=ee7193c5-0e4a-4b5c-aab9-2072d4aba82d"},"vehicle_type_id":"4","last_reported":1744236539,"current_range_meters":8400,"station_id":"","pricing_plan_id":"cebpf4jnsgd1na2vs0mg"},{"bike_id":"c6b6975e-7c57-426a-81aa-a263f3e5bca2","system_id":"levelo_inurba_marseille","lat":43.28844,"lon":5.35864,"is_reserved":false,"is_disabled":true,"rental_uris":{"android":"levelo://app?vid=c6b6975e-7c57-426a-81aa-a263f3e5bca2","ios":"levelo://app?vid=c6b6975e-7c57-426a-81aa-a263f3e5bca2"},"vehicle_type_id":"4","last_reported":1744236539,"current_range_meters":8400,"station_id":"ce4bhb12rcd13ifvqem0","pricing_plan_id":"cebpf4jnsgd1na2vs0mg"},{"bike_id":"cd3665be-6d42-4387-956d-e27c91a793a4","system_id":"levelo_inurba_marseille","lat":43.31224,"lon":5.36854,"is_reserved":false,"is_disabled":false,"rental_uris":{"android":"levelo://app?vid=cd3665be-6d42-4387-956d-e27c91a793a4","ios":"levelo://app?vid=cd3665be-6d42-4387-956d-e27c91a793a4"},"vehicle_type_id":"4","last_reported":1744236539,"current_range_meters":8800,"station_id":"ce4bgl92rcd13ifvqbq0","pricing_plan_id":"cebpf4jnsgd1na2vs0mg"},{"bike_id":"3dca274f-8786-400b-8788-5bb8532477e3","system_id":"levelo_inurba_marseille","lat":43.29165,"lon":5.37164,"is_reserved":false,"is_disabled":false,"rental_uris":{"android":"levelo://app?vid=3dca274f-8786-400b-8788-5bb8532477e3","ios":"levelo://app?vid=3dca274f-8786-400b-8788-5bb8532477e3"},"vehicle_type_id":"4","last_reported":1744236539,"current_range_meters":8400,"station_id":"ce4bha92rcd13ifvqeh0","pricing_plan_id":"cebpf4jnsgd1na2vs0mg"},{"bike_id":"ff731aec-71b8-46a4-8e6a-87f50d4c0728","system_id":"levelo_inurba_marseille","lat":43.28355,"lon":5.38111,"is_reserved":false,"is_disabled":false,"rental_uris":{"android":"levelo://app?vid=ff731aec-71b8-46a4-8e6a-87f50d4c0728","ios":"levelo://app?vid=ff731aec-71b8-46a4-8e6a-87f50d4c0728"},"vehicle_type_id":"4","last_reported":1744236539,"current_range_meters":8800,"station_id":"ce4bh412rcd13ifvqdr0","pricing_plan_id":"cebpf4jnsgd1na2vs0mg"},{"bike_id":"32a1094e-63c5-4d77-9096-08d716fcb2b9","system_id":"levelo_inurba_marseille","lat":43.30644,"lon":5.40093,"is_reserved":false,"is_disabled":false,"rental_uris":{"android":"levelo://app?vid=32a1094e-63c5-4d77-9096-08d716fcb2b9","ios":"levelo://app?vid=32a1094e-63c5-4d77-9096-08d716fcb2b9"},"vehicle_type_id":"4","last_reported":1744236539,"current_range_meters":8800,"station_id":"ce4bh112rcd13ifvqda0","pricing_plan_id":"cebpf4jnsgd1na2vs0mg"},{"bike_id":"d3e21a76-c23b-4995-851d-d1b8e438f8d5","system_id":"levelo_inurba_marseille","lat":43.24666,"lon":5.38157,"is_reserved":false,"is_disabled":false,"rental_uris":{"android":"levelo://app?vid=d3e21a76-c23b-4995-851d-d1b8e438f8d5","ios":"levelo://app?vid=d3e21a76-c23b-4995-851d-d1b8e438f8d5"},"vehicle_type_id":"4","last_reported":1744236539,"current_range_meters":8800,"station_id":"ce4bhih2rcd13ifvqfr0","pricing_plan_id":"cebpf4jnsgd1na2vs0mg"},{"bike_id":"3ff04e72-73e5-4ada-9baf-e5e1244be974","system_id":"levelo_inurba_marseille","lat":43.3132,"lon":5.3971,"is_reserved":false,"is_disabled":false,"rental_uris":{"android":"levelo://app?vid=3ff04e72-73e5-4ada-9baf-e5e1244be974","ios":"levelo://app?vid=3ff04e72-73e5-4ada-9baf-e5e1244be974"},"vehicle_type_id":"4","last_reported":1744236539,"current_range_meters":8800,"station_id":"ce4bgvp2rcd13ifvqcu0","pricing_plan_id":"cebpf4jnsgd1na2vs0mg"},{"bike_id":"f052460f-5279-40d6-a1e4-7f8b09722c1e","system_id":"levelo_inurba_marseille","lat":43.30151,"lon":5.38768,"is_reserved":false,"is_disabled":false,"rental_uris":{"android":"levelo://app?vid=f052460f-5279-40d6-a1e4-7f8b09722c1e","ios":"levelo://app?vid=f052460f-5279-40d6-a1e4-7f8b09722c1e"},"vehicle_type_id":"4","last_reported":1744236539,"current_range_meters":8800,"station_id":"ce4bghh2rcd13ifvqb60","pricing_plan_id":"cebpf4jnsgd1na2vs0mg"},{"bike_id":"0e7051ad-00f7-4897-9995-929c1987289a","system_id":"levelo_inurba_marseille","lat":43.34159,"lon":5.3702,"is_reserved":false,"is_disabled":false,"rental_uris":{"android":"levelo://app?vid=0e7051ad-00f7-4897-9995-929c1987289a","ios":"levelo://app?vid=0e7051ad-00f7-4897-9995-929c1987289a"},"vehicle_type_id":"4","last_reported":1744236539,"current_range_meters":8800,"station_id":"","pricing_plan_id":"cebpf4jnsgd1na2vs0mg"},{"bike_id":"88e8983a-2120-420c-be43-33969391d5c8","system_id":"levelo_inurba_marseille","lat":43.30146,"lon":5.38769,"is_reserved":false,"is_disabled":false,"rental_uris":{"android":"levelo://app?vid=88e8983a-2120-420c-be43-33969391d5c8","ios":"levelo://app?vid=88e8983a-2120-420c-be43-33969391d5c8"},"vehicle_type_id":"4","last_reported":1744236539,"current_range_meters":8800,"station_id":"ce4bghh2rcd13ifvqb60","pricing_plan_id":"cebpf4jnsgd1na2vs0mg"},{"bike_id":"85c6c1a7-1e02-4ae5-b680-67cbc15bed7f","system_id":"levelo_inurba_marseille","lat":43.27521,"lon":5.42426,"is_reserved":false,"is_disabled":false,"rental_uris":{"android":"levelo://app?vid=85c6c1a7-1e02-4ae5-b680-67cbc15bed7f","ios":"levelo://app?vid=85c6c1a7-1e02-4ae5-b680-67cbc15bed7f"},"vehicle_type_id":"4","last_reported":1744236539,"current_range_meters":9200,"station_id":"ce4bhn92rcd13ifvqgrg","pricing_plan_id":"cebpf4jnsgd1na2vs0mg"},{"bike_id":"1a8c3bfa-7658-4f5e-93b8-93807ec24b6f","system_id":"levelo_inurba_marseille","lat":43.2656,"lon":5.39037,"is_reserved":false,"is_disabled":true,"rental_uris":{"android":"levelo://app?vid=1a8c3bfa-7658-4f5e-93b8-93807ec24b6f","ios":"levelo://app?vid=1a8c3bfa-7658-4f5e-93b8-93807ec24b6f"},"vehicle_type_id":"4","last_reported":1744236539,"current_range_meters":9200,"station_id":"ce4bhe12rcd13ifvqf30","pricing_plan_id":"cebpf4jnsgd1na2vs0mg"},{"bike_id":"5a0fa541-6fc2-4ae1-99ec-a2e2ec69a941","system_id":"levelo_inurba_marseille","lat":43.33017,"lon":5.43852,"is_reserved":false,"is_disabled":false,"rental_uris":{"android":"levelo://app?vid=5a0fa541-6fc2-4ae1-99ec-a2e2ec69a941","ios":"levelo://app?vid=5a0fa541-6fc2-4ae1-99ec-a2e2ec69a941"},"vehicle_type_id":"4","last_reported":1744236539,"current_range_meters":9200,"station_id":"","pricing_plan_id":"cebpf4jnsgd1na2vs0mg"},{"bike_id":"08294fca-a3e2-4094-bdc6-31bcd02a29d1","system_id":"levelo_inurba_marseille","lat":43.28719,"lon":5.37943,"is_reserved":false,"is_disabled":false,"rental_uris":{"android":"levelo://app?vid=08294fca-a3e2-4094-bdc6-31bcd02a29d1","ios":"levelo://app?vid=08294fca-a3e2-4094-bdc6-31bcd02a29d1"},"vehicle_type_id":"4","last_reported":1744236539,"current_range_meters":9200,"station_id":"ce4bh9p2rcd13ifvqec0","pricing_plan_id":"cebpf4jnsgd1na2vs0mg"},{"bike_id":"aac5e7eb-6c98-470f-99b0-2e086ce3595a","system_id":"levelo_inurba_marseille","lat":43.27919,"lon":5.39574,"is_reserved":false,"is_disabled":false,"rental_uris":{"android":"levelo://app?vid=aac5e7eb-6c98-470f-99b0-2e086ce3595a","ios":"levelo://app?vid=aac5e7eb-6c98-470f-99b0-2e086ce3595a"},"vehicle_type_id":"4","last_reported":1744236539,"current_range_meters":9200,"station_id":"ce4bhf92rcd13ifvqf40","pricing_plan_id":"cebpf4jnsgd1na2vs0mg"},{"bike_id":"c9ddb500-892e-4cb5-b06b-9e3a3ad97d8f","system_id":"levelo_inurba_marseille","lat":43.27173,"lon":5.40991,"is_reserved":false,"is_disabled":false,"rental_uris":{"android":"levelo://app?vid=c9ddb500-892e-4cb5-b06b-9e3a3ad97d8f","ios":"levelo://app?vid=c9ddb500-892e-4cb5-b06b-9e3a3ad97d8f"},"vehicle_type_id":"4","last_reported":1744236539,"current_range_meters":9600,"station_id":"ce4bhl12rcd13ifvqgf0","pricing_plan_id":"cebpf4jnsgd1na2vs0mg"},{"bike_id":"8fa78f52-8834-4b2c-8a1d-e4f911c35cd4","system_id":"levelo_inurba_marseille","lat":43.2573,"lon":5.41109,"is_reserved":false,"is_disabled":true,"rental_uris":{"android":"levelo://app?vid=8fa78f52-8834-4b2c-8a1d-e4f911c35cd4","ios":"levelo://app?vid=8fa78f52-8834-4b2c-8a1d-e4f911c35cd4"},"vehicle_type_id":"4","last_reported":1744236539,"current_range_meters":9600,"station_id":"ce4bhkp2rcd13ifvqgd0","pricing_plan_id":"cebpf4jnsgd1na2vs0mg"},{"bike_id":"cf334e37-1932-42c6-b9e9-e5d0e849cd74","system_id":"levelo_inurba_marseille","lat":43.29539,"lon":5.39397,"is_reserved":false,"is_disabled":false,"rental_uris":{"android":"levelo://app?vid=cf334e37-1932-42c6-b9e9-e5d0e849cd74","ios":"levelo://app?vid=cf334e37-1932-42c6-b9e9-e5d0e849cd74"},"vehicle_type_id":"4","last_reported":1744236539,"current_range_meters":9600,"station_id":"ce4bh292rcd13ifvqdf0","pricing_plan_id":"cebpf4jnsgd1na2vs0mg"},{"bike_id":"758e8708-ecd2-494d-80c8-3ff8f0fbc44b","system_id":"levelo_inurba_marseille","lat":43.295727,"lon":5.39975,"is_reserved":false,"is_disabled":false,"rental_uris":{"android":"levelo://app?vid=758e8708-ecd2-494d-80c8-3ff8f0fbc44b","ios":"levelo://app?vid=758e8708-ecd2-494d-80c8-3ff8f0fbc44b"},"vehicle_type_id":"4","last_reported":1744236539,"current_range_meters":9600,"station_id":"ce4bhp12rcd13ifvqh9g","pricing_plan_id":"cebpf4jnsgd1na2vs0mg"},{"bike_id":"523f199e-c50d-4cd7-8cb0-ecd6da8f7fb1","system_id":"levelo_inurba_marseille","lat":43.31723,"lon":5.42395,"is_reserved":false,"is_disabled":false,"rental_uris":{"android":"levelo://app?vid=523f199e-c50d-4cd7-8cb0-ecd6da8f7fb1","ios":"levelo://app?vid=523f199e-c50d-4cd7-8cb0-ecd6da8f7fb1"},"vehicle_type_id":"4","last_reported":1744236539,"current_range_meters":9600,"station_id":"ce4bhp92rcd13ifvqhbg","pricing_plan_id":"cebpf4jnsgd1na2vs0mg"},{"bike_id":"60bc3fb2-7a9c-478d-bae3-531d94541e5b","system_id":"levelo_inurba_marseille","lat":43.27075,"lon":5.42329,"is_reserved":false,"is_disabled":false,"rental_uris":{"android":"levelo://app?vid=60bc3fb2-7a9c-478d-bae3-531d94541e5b","ios":"levelo://app?vid=60bc3fb2-7a9c-478d-bae3-531d94541e5b"},"vehicle_type_id":"4","last_reported":1744236539,"current_range_meters":9600,"station_id":"ce4bhk92rcd13ifvqgb0","pricing_plan_id":"cebpf4jnsgd1na2vs0mg"},{"bike_id":"a5f81979-db12-42e6-b86b-94d39f8f2d1c","system_id":"levelo_inurba_marseille","lat":43.31091,"lon":5.42431,"is_reserved":false,"is_disabled":false,"rental_uris":{"android":"levelo://app?vid=a5f81979-db12-42e6-b86b-94d39f8f2d1c","ios":"levelo://app?vid=a5f81979-db12-42e6-b86b-94d39f8f2d1c"},"vehicle_type_id":"4","last_reported":1744236539,"current_range_meters":9600,"station_id":"ce4bhp92rcd13ifvqhag","pricing_plan_id":"cebpf4jnsgd1na2vs0mg"},{"bike_id":"b5318a49-7e6f-4d30-a1fe-1a62aa3be9df","system_id":"levelo_inurba_marseille","lat":43.29968,"lon":5.38485,"is_reserved":false,"is_disabled":false,"rental_uris":{"android":"levelo://app?vid=b5318a49-7e6f-4d30-a1fe-1a62aa3be9df","ios":"levelo://app?vid=b5318a49-7e6f-4d30-a1fe-1a62aa3be9df"},"vehicle_type_id":"4","last_reported":1744236539,"current_range_meters":9600,"station_id":"ce4bgj92rcd13ifvqbd0","pricing_plan_id":"cebpf4jnsgd1na2vs0mg"},{"bike_id":"b0ee8110-12b9-4204-b103-76680f3e4afd","system_id":"levelo_inurba_marseille","lat":43.30631,"lon":5.4008,"is_reserved":false,"is_disabled":false,"rental_uris":{"android":"levelo://app?vid=b0ee8110-12b9-4204-b103-76680f3e4afd","ios":"levelo://app?vid=b0ee8110-12b9-4204-b103-76680f3e4afd"},"vehicle_type_id":"4","last_reported":1744236539,"current_range_meters":9600,"station_id":"ce4bh112rcd13ifvqda0","pricing_plan_id":"cebpf4jnsgd1na2vs0mg"},{"bike_id":"c1c84328-b412-42f6-bb08-d4273df8d987","system_id":"levelo_inurba_marseille","lat":43.30794,"lon":5.43522,"is_reserved":false,"is_disabled":false,"rental_uris":{"android":"levelo://app?vid=c1c84328-b412-42f6-bb08-d4273df8d987","ios":"levelo://app?vid=c1c84328-b412-42f6-bb08-d4273df8d987"},"vehicle_type_id":"4","last_reported":1744236539,"current_range_meters":10000,"station_id":"ce4bhph2rcd13ifvqheg","pricing_plan_id":"cebpf4jnsgd1na2vs0mg"},{"bike_id":"8982cd44-d331-4463-a648-1638e3f0f17f","system_id":"levelo_inurba_marseille","lat":43.30153,"lon":5.38772,"is_reserved":false,"is_disabled":false,"rental_uris":{"android":"levelo://app?vid=8982cd44-d331-4463-a648-1638e3f0f17f","ios":"levelo://app?vid=8982cd44-d331-4463-a648-1638e3f0f17f"},"vehicle_type_id":"4","last_reported":1744236539,"current_range_meters":10000,"station_id":"ce4bghh2rcd13ifvqb60","pricing_plan_id":"cebpf4jnsgd1na2vs0mg"},{"bike_id":"37ea3c39-5bcd-4a06-bd5c-b63bc9c94770","system_id":"levelo_inurba_marseille","lat":43.3117,"lon":5.38722,"is_reserved":false,"is_disabled":false,"rental_uris":{"android":"levelo://app?vid=37ea3c39-5bcd-4a06-bd5c-b63bc9c94770","ios":"levelo://app?vid=37ea3c39-5bcd-4a06-bd5c-b63bc9c94770"},"vehicle_type_id":"4","last_reported":1744236539,"current_range_meters":10000,"station_id":"ce4bgv12rcd13ifvqcp0","pricing_plan_id":"cebpf4jnsgd1na2vs0mg"},{"bike_id":"da89b175-f719-43fe-8eec-54e316ac9d8c","system_id":"levelo_inurba_marseille","lat":43.29577,"lon":5.39968,"is_reserved":false,"is_disabled":false,"rental_uris":{"android":"levelo://app?vid=da89b175-f719-43fe-8eec-54e316ac9d8c","ios":"levelo://app?vid=da89b175-f719-43fe-8eec-54e316ac9d8c"},"vehicle_type_id":"4","last_reported":1744236539,"current_range_meters":10000,"station_id":"ce4bh312rcd13ifvqdj0","pricing_plan_id":"cebpf4jnsgd1na2vs0mg"},{"bike_id":"ac105079-f16f-4d74-add7-4bf347a03872","system_id":"levelo_inurba_marseille","lat":43.257214,"lon":5.399869,"is_reserved":false,"is_disabled":false,"rental_uris":{"android":"levelo://app?vid=ac105079-f16f-4d74-add7-4bf347a03872","ios":"levelo://app?vid=ac105079-f16f-4d74-add7-4bf347a03872"},"vehicle_type_id":"4","last_reported":1744236539,"current_range_meters":10800,"station_id":"ce4bhlh2rcd13ifvqgig","pricing_plan_id":"cebpf4jnsgd1na2vs0mg"},{"bike_id":"8b1885c7-c990-486a-9363-3a428e6713c7","system_id":"levelo_inurba_marseille","lat":43.28452,"lon":5.35897,"is_reserved":false,"is_disabled":false,"rental_uris":{"android":"levelo://app?vid=8b1885c7-c990-486a-9363-3a428e6713c7","ios":"levelo://app?vid=8b1885c7-c990-486a-9363-3a428e6713c7"},"vehicle_type_id":"4","last_reported":1744236539,"current_range_meters":10800,"station_id":"ce4bhah2rcd13ifvqei0","pricing_plan_id":"cebpf4jnsgd1na2vs0mg"},{"bike_id":"a746c4bc-0206-4d3e-9c8a-a1b43dd780da","system_id":"levelo_inurba_marseille","lat":43.30657,"lon":5.40084,"is_reserved":false,"is_disabled":false,"rental_uris":{"android":"levelo://app?vid=a746c4bc-0206-4d3e-9c8a-a1b43dd780da","ios":"levelo://app?vid=a746c4bc-0206-4d3e-9c8a-a1b43dd780da"},"vehicle_type_id":"4","last_reported":1744236539,"current_range_meters":10800,"station_id":"ce4bh112rcd13ifvqda0","pricing_plan_id":"cebpf4jnsgd1na2vs0mg"},{"bike_id":"17f4902e-c861-4806-a819-8e218247cad7","system_id":"levelo_inurba_marseille","lat":43.24674,"lon":5.38145,"is_reserved":false,"is_disabled":false,"rental_uris":{"android":"levelo://app?vid=17f4902e-c861-4806-a819-8e218247cad7","ios":"levelo://app?vid=17f4902e-c861-4806-a819-8e218247cad7"},"vehicle_type_id":"4","last_reported":1744236539,"current_range_meters":10800,"station_id":"ce4bhih2rcd13ifvqfr0","pricing_plan_id":"cebpf4jnsgd1na2vs0mg"},{"bike_id":"01e31f15-bc9b-4d18-bebd-edf19bcedef2","system_id":"levelo_inurba_marseille","lat":43.28717,"lon":5.37951,"is_reserved":false,"is_disabled":true,"rental_uris":{"android":"levelo://app?vid=01e31f15-bc9b-4d18-bebd-edf19bcedef2","ios":"levelo://app?vid=01e31f15-bc9b-4d18-bebd-edf19bcedef2"},"vehicle_type_id":"4","last_reported":1744236539,"current_range_meters":10800,"station_id":"ce4bh9p2rcd13ifvqec0","pricing_plan_id":"cebpf4jnsgd1na2vs0mg"},{"bike_id":"b85221dc-73c2-4729-bd2d-bf033ae6c975","system_id":"levelo_inurba_marseille","lat":43.29881,"lon":5.39723,"is_reserved":false,"is_disabled":false,"rental_uris":{"android":"levelo://app?vid=b85221dc-73c2-4729-bd2d-bf033ae6c975","ios":"levelo://app?vid=b85221dc-73c2-4729-bd2d-bf033ae6c975"},"vehicle_type_id":"4","last_reported":1744236539,"current_range_meters":10800,"station_id":"ce4bh0h2rcd13ifvqd50","pricing_plan_id":"cebpf4jnsgd1na2vs0mg"},{"bike_id":"5f30a5a4-de9f-499e-b151-b811ebb3b43a","system_id":"levelo_inurba_marseille","lat":43.31078,"lon":5.38351,"is_reserved":false,"is_disabled":true,"rental_uris":{"android":"levelo://app?vid=5f30a5a4-de9f-499e-b151-b811ebb3b43a","ios":"levelo://app?vid=5f30a5a4-de9f-499e-b151-b811ebb3b43a"},"vehicle_type_id":"4","last_reported":1744236539,"current_range_meters":10800,"station_id":"ce4bgv92rcd13ifvqcr0","pricing_plan_id":"cebpf4jnsgd1na2vs0mg"},{"bike_id":"147f9b4c-1c73-4048-93a4-44a3ec726794","system_id":"levelo_inurba_marseille","lat":43.2958,"lon":5.375,"is_reserved":false,"is_disabled":true,"rental_uris":{"android":"levelo://app?vid=147f9b4c-1c73-4048-93a4-44a3ec726794","ios":"levelo://app?vid=147f9b4c-1c73-4048-93a4-44a3ec726794"},"vehicle_type_id":"4","last_reported":1744236539,"current_range_meters":10800,"station_id":"ce4bgh92rcd13ifvqb50","pricing_plan_id":"cebpf4jnsgd1na2vs0mg"},{"bike_id":"c6b6c9fe-f58e-4729-b8e2-8688928f31a2","system_id":"levelo_inurba_marseille","lat":43.28668,"lon":5.36338,"is_reserved":false,"is_disabled":false,"rental_uris":{"android":"levelo://app?vid=c6b6c9fe-f58e-4729-b8e2-8688928f31a2","ios":"levelo://app?vid=c6b6c9fe-f58e-4729-b8e2-8688928f31a2"},"vehicle_type_id":"4","last_reported":1744236539,"current_range_meters":10800,"station_id":"ce4bhah2rcd13ifvqej0","pricing_plan_id":"cebpf4jnsgd1na2vs0mg"},{"bike_id":"9f000f15-44e9-41e4-b51d-12e9a7f823c3","system_id":"levelo_inurba_marseille","lat":43.26211,"lon":5.37928,"is_reserved":false,"is_disabled":false,"rental_uris":{"android":"levelo://app?vid=9f000f15-44e9-41e4-b51d-12e9a7f823c3","ios":"levelo://app?vid=9f000f15-44e9-41e4-b51d-12e9a7f823c3"},"vehicle_type_id":"4","last_reported":1744236539,"current_range_meters":11200,"station_id":"ce4bhjp2rcd13ifvqg90","pricing_plan_id":"cebpf4jnsgd1na2vs0mg"},{"bike_id":"68bb489e-c4e2-4ece-ba38-7a818ae7ebb3","system_id":"levelo_inurba_marseille","lat":43.2783,"lon":5.39207,"is_reserved":false,"is_disabled":false,"rental_uris":{"android":"levelo://app?vid=68bb489e-c4e2-4ece-ba38-7a818ae7ebb3","ios":"levelo://app?vid=68bb489e-c4e2-4ece-ba38-7a818ae7ebb3"},"vehicle_type_id":"4","last_reported":1744236539,"current_range_meters":11200,"station_id":"ce4bhjp2rcd13ifvqga0","pricing_plan_id":"cebpf4jnsgd1na2vs0mg"},{"bike_id":"42ad74d9-2479-44b8-8b31-2f58dbbdf817","system_id":"levelo_inurba_marseille","lat":43.2959,"lon":5.405123,"is_reserved":false,"is_disabled":false,"rental_uris":{"android":"levelo://app?vid=42ad74d9-2479-44b8-8b31-2f58dbbdf817","ios":"levelo://app?vid=42ad74d9-2479-44b8-8b31-2f58dbbdf817"},"vehicle_type_id":"4","last_reported":1744236539,"current_range_meters":11200,"station_id":"ce4bh0h2rcd13ifvqd60","pricing_plan_id":"cebpf4jnsgd1na2vs0mg"},{"bike_id":"b96be04a-adcd-4816-8c18-ee76dccce0e8","system_id":"levelo_inurba_marseille","lat":43.24166,"lon":5.36405,"is_reserved":false,"is_disabled":false,"rental_uris":{"android":"levelo://app?vid=b96be04a-adcd-4816-8c18-ee76dccce0e8","ios":"levelo://app?vid=b96be04a-adcd-4816-8c18-ee76dccce0e8"},"vehicle_type_id":"4","last_reported":1744236539,"current_range_meters":11200,"station_id":"cpo36qri1sfpv3e86is0","pricing_plan_id":"cebpf4jnsgd1na2vs0mg"},{"bike_id":"2b057902-5353-4a42-8c4f-71b0e09d4c02","system_id":"levelo_inurba_marseille","lat":43.30727,"lon":5.42448,"is_reserved":false,"is_disabled":false,"rental_uris":{"android":"levelo://app?vid=2b057902-5353-4a42-8c4f-71b0e09d4c02","ios":"levelo://app?vid=2b057902-5353-4a42-8c4f-71b0e09d4c02"},"vehicle_type_id":"4","last_reported":1744236539,"current_range_meters":11200,"station_id":"st_cvj6ca6bvosntc0bfgr0","pricing_plan_id":"cebpf4jnsgd1na2vs0mg"},{"bike_id":"c243072f-6bd2-4d94-ba83-04162cf2a05c","system_id":"levelo_inurba_marseille","lat":43.27219,"lon":5.40096,"is_reserved":false,"is_disabled":false,"rental_uris":{"android":"levelo://app?vid=c243072f-6bd2-4d94-ba83-04162cf2a05c","ios":"levelo://app?vid=c243072f-6bd2-4d94-ba83-04162cf2a05c"},"vehicle_type_id":"4","last_reported":1744236539,"current_range_meters":11200,"station_id":"","pricing_plan_id":"cebpf4jnsgd1na2vs0mg"},{"bike_id":"57818e10-b1b6-487a-9fe7-b0971f108d0e","system_id":"levelo_inurba_marseille","lat":43.30787,"lon":5.37638,"is_reserved":false,"is_disabled":false,"rental_uris":{"android":"levelo://app?vid=57818e10-b1b6-487a-9fe7-b0971f108d0e","ios":"levelo://app?vid=57818e10-b1b6-487a-9fe7-b0971f108d0e"},"vehicle_type_id":"4","last_reported":1744236539,"current_range_meters":11600,"station_id":"ce4bgv92rcd13ifvqcq0","pricing_plan_id":"cebpf4jnsgd1na2vs0mg"},{"bike_id":"49ff83c9-b7ae-4714-8e73-f563a5b3bbce","system_id":"levelo_inurba_marseille","lat":43.28166,"lon":5.42623,"is_reserved":false,"is_disabled":false,"rental_uris":{"android":"levelo://app?vid=49ff83c9-b7ae-4714-8e73-f563a5b3bbce","ios":"levelo://app?vid=49ff83c9-b7ae-4714-8e73-f563a5b3bbce"},"vehicle_type_id":"4","last_reported":1744236539,"current_range_meters":11600,"station_id":"ce4bhnh2rcd13ifvqgug","pricing_plan_id":"cebpf4jnsgd1na2vs0mg"},{"bike_id":"04e02b97-9688-4e1e-9d57-2e3a2776ac54","system_id":"levelo_inurba_marseille","lat":43.30919,"lon":5.40145,"is_reserved":false,"is_disabled":false,"rental_uris":{"android":"levelo://app?vid=04e02b97-9688-4e1e-9d57-2e3a2776ac54","ios":"levelo://app?vid=04e02b97-9688-4e1e-9d57-2e3a2776ac54"},"vehicle_type_id":"4","last_reported":1744236539,"current_range_meters":11600,"station_id":"ce4bgvp2rcd13ifvqct0","pricing_plan_id":"cebpf4jnsgd1na2vs0mg"},{"bike_id":"9fce7fb9-26b6-4832-9f96-ea1b75c489f0","system_id":"levelo_inurba_marseille","lat":43.21174,"lon":5.35101,"is_reserved":false,"is_disabled":false,"rental_uris":{"android":"levelo://app?vid=9fce7fb9-26b6-4832-9f96-ea1b75c489f0","ios":"levelo://app?vid=9fce7fb9-26b6-4832-9f96-ea1b75c489f0"},"vehicle_type_id":"4","last_reported":1744236539,"current_range_meters":11600,"station_id":"st_cvj6sg6p6f1abm77japg","pricing_plan_id":"cebpf4jnsgd1na2vs0mg"},{"bike_id":"51220fd5-275f-44db-a81e-280c0ca810af","system_id":"levelo_inurba_marseille","lat":43.32264,"lon":5.38534,"is_reserved":false,"is_disabled":false,"rental_uris":{"android":"levelo://app?vid=51220fd5-275f-44db-a81e-280c0ca810af","ios":"levelo://app?vid=51220fd5-275f-44db-a81e-280c0ca810af"},"vehicle_type_id":"4","last_reported":1744236539,"current_range_meters":11600,"station_id":"","pricing_plan_id":"cebpf4jnsgd1na2vs0mg"},{"bike_id":"7be7baa9-3d80-4f05-b34c-d4dccffca30e","system_id":"levelo_inurba_marseille","lat":43.23971,"lon":5.36617,"is_reserved":false,"is_disabled":false,"rental_uris":{"android":"levelo://app?vid=7be7baa9-3d80-4f05-b34c-d4dccffca30e","ios":"levelo://app?vid=7be7baa9-3d80-4f05-b34c-d4dccffca30e"},"vehicle_type_id":"4","last_reported":1744236539,"current_range_meters":11600,"station_id":"ce4bhi12rcd13ifvqfp0","pricing_plan_id":"cebpf4jnsgd1na2vs0mg"},{"bike_id":"370c5ce7-3d00-4a67-b12b-0443c7b825ee","system_id":"levelo_inurba_marseille","lat":43.27616,"lon":5.36118,"is_reserved":false,"is_disabled":false,"rental_uris":{"android":"levelo://app?vid=370c5ce7-3d00-4a67-b12b-0443c7b825ee","ios":"levelo://app?vid=370c5ce7-3d00-4a67-b12b-0443c7b825ee"},"vehicle_type_id":"4","last_reported":1744236539,"current_range_meters":11600,"station_id":"ce4bgj92rcd13ifvqbe0","pricing_plan_id":"cebpf4jnsgd1na2vs0mg"},{"bike_id":"c6d08ce1-4ebf-4679-afaf-757664a7b608","system_id":"levelo_inurba_marseille","lat":43.28408,"lon":5.37516,"is_reserved":false,"is_disabled":false,"rental_uris":{"android":"levelo://app?vid=c6d08ce1-4ebf-4679-afaf-757664a7b608","ios":"levelo://app?vid=c6d08ce1-4ebf-4679-afaf-757664a7b608"},"vehicle_type_id":"4","last_reported":1744236539,"current_range_meters":11600,"station_id":"ce4bh412rcd13ifvqds0","pricing_plan_id":"cebpf4jnsgd1na2vs0mg"},{"bike_id":"aa2f78da-fdbd-43b8-a925-56430a4469e7","system_id":"levelo_inurba_marseille","lat":43.31359,"lon":5.38496,"is_reserved":false,"is_disabled":false,"rental_uris":{"android":"levelo://app?vid=aa2f78da-fdbd-43b8-a925-56430a4469e7","ios":"levelo://app?vid=aa2f78da-fdbd-43b8-a925-56430a4469e7"},"vehicle_type_id":"4","last_reported":1744236539,"current_range_meters":11600,"station_id":"ce4bgt92rcd13ifvqcf0","pricing_plan_id":"cebpf4jnsgd1na2vs0mg"},{"bike_id":"856ad958-667d-4fa3-b7e0-4b6761bd287f","system_id":"levelo_inurba_marseille","lat":43.30355,"lon":5.41879,"is_reserved":false,"is_disabled":false,"rental_uris":{"android":"levelo://app?vid=856ad958-667d-4fa3-b7e0-4b6761bd287f","ios":"levelo://app?vid=856ad958-667d-4fa3-b7e0-4b6761bd287f"},"vehicle_type_id":"4","last_reported":1744236539,"current_range_meters":12000,"station_id":"ce4bhop2rcd13ifvqh7g","pricing_plan_id":"cebpf4jnsgd1na2vs0mg"},{"bike_id":"b4b93a64-d083-4ab2-bbd0-53609c602fb5","system_id":"levelo_inurba_marseille","lat":43.30919,"lon":5.40158,"is_reserved":false,"is_disabled":true,"rental_uris":{"android":"levelo://app?vid=b4b93a64-d083-4ab2-bbd0-53609c602fb5","ios":"levelo://app?vid=b4b93a64-d083-4ab2-bbd0-53609c602fb5"},"vehicle_type_id":"4","last_reported":1744236539,"current_range_meters":12000,"station_id":"ce4bgvp2rcd13ifvqct0","pricing_plan_id":"cebpf4jnsgd1na2vs0mg"},{"bike_id":"3cfa414a-56ce-4678-b27b-88f21f1ddfeb","system_id":"levelo_inurba_marseille","lat":43.303,"lon":5.37701,"is_reserved":false,"is_disabled":false,"rental_uris":{"android":"levelo://app?vid=3cfa414a-56ce-4678-b27b-88f21f1ddfeb","ios":"levelo://app?vid=3cfa414a-56ce-4678-b27b-88f21f1ddfeb"},"vehicle_type_id":"4","last_reported":1744236539,"current_range_meters":12000,"station_id":"ce4bguh2rcd13ifvqcj0","pricing_plan_id":"cebpf4jnsgd1na2vs0mg"},{"bike_id":"f2ddeead-c55a-49b3-90e5-4eec0e251056","system_id":"levelo_inurba_marseille","lat":43.31714,"lon":5.43702,"is_reserved":false,"is_disabled":false,"rental_uris":{"android":"levelo://app?vid=f2ddeead-c55a-49b3-90e5-4eec0e251056","ios":"levelo://app?vid=f2ddeead-c55a-49b3-90e5-4eec0e251056"},"vehicle_type_id":"4","last_reported":1744236539,"current_range_meters":12000,"station_id":"ce4bhp92rcd13ifvqhcg","pricing_plan_id":"cebpf4jnsgd1na2vs0mg"},{"bike_id":"122cdde6-9512-4fc1-b3dd-8da01087c3ed","system_id":"levelo_inurba_marseille","lat":43.21193,"lon":5.35078,"is_reserved":false,"is_disabled":false,"rental_uris":{"android":"levelo://app?vid=122cdde6-9512-4fc1-b3dd-8da01087c3ed","ios":"levelo://app?vid=122cdde6-9512-4fc1-b3dd-8da01087c3ed"},"vehicle_type_id":"4","last_reported":1744236539,"current_range_meters":12000,"station_id":"","pricing_plan_id":"cebpf4jnsgd1na2vs0mg"},{"bike_id":"4c28f3d7-3228-4605-8a0a-01ab16fbb532","system_id":"levelo_inurba_marseille","lat":43.272065,"lon":5.391921,"is_reserved":false,"is_disabled":true,"rental_uris":{"android":"levelo://app?vid=4c28f3d7-3228-4605-8a0a-01ab16fbb532","ios":"levelo://app?vid=4c28f3d7-3228-4605-8a0a-01ab16fbb532"},"vehicle_type_id":"4","last_reported":1744236539,"current_range_meters":12000,"station_id":"ce4bhhp2rcd13ifvqfm0","pricing_plan_id":"cebpf4jnsgd1na2vs0mg"},{"bike_id":"5c889fcf-2d17-451a-80ef-75fc8b390887","system_id":"levelo_inurba_marseille","lat":43.31118,"lon":5.37765,"is_reserved":false,"is_disabled":false,"rental_uris":{"android":"levelo://app?vid=5c889fcf-2d17-451a-80ef-75fc8b390887","ios":"levelo://app?vid=5c889fcf-2d17-451a-80ef-75fc8b390887"},"vehicle_type_id":"4","last_reported":1744236539,"current_range_meters":12000,"station_id":"ce4bgt92rcd13ifvqcg0","pricing_plan_id":"cebpf4jnsgd1na2vs0mg"},{"bike_id":"a18ac900-59de-4b74-9131-b1a2764dbc18","system_id":"levelo_inurba_marseille","lat":43.28073,"lon":5.39647,"is_reserved":false,"is_disabled":false,"rental_uris":{"android":"levelo://app?vid=a18ac900-59de-4b74-9131-b1a2764dbc18","ios":"levelo://app?vid=a18ac900-59de-4b74-9131-b1a2764dbc18"},"vehicle_type_id":"4","last_reported":1744236539,"current_range_meters":12000,"station_id":"ce4bho12rcd13ifvqh2g","pricing_plan_id":"cebpf4jnsgd1na2vs0mg"},{"bike_id":"fe67a145-3fdd-4a12-a5d4-994b1bb239e7","system_id":"levelo_inurba_marseille","lat":43.27966,"lon":5.38715,"is_reserved":false,"is_disabled":false,"rental_uris":{"android":"levelo://app?vid=fe67a145-3fdd-4a12-a5d4-994b1bb239e7","ios":"levelo://app?vid=fe67a145-3fdd-4a12-a5d4-994b1bb239e7"},"vehicle_type_id":"4","last_reported":1744236539,"current_range_meters":12000,"station_id":"ce4bhg12rcd13ifvqf80","pricing_plan_id":"cebpf4jnsgd1na2vs0mg"},{"bike_id":"b2323607-30a0-4dcd-b86a-75bb6b4b1da9","system_id":"levelo_inurba_marseille","lat":43.30884,"lon":5.39627,"is_reserved":false,"is_disabled":false,"rental_uris":{"android":"levelo://app?vid=b2323607-30a0-4dcd-b86a-75bb6b4b1da9","ios":"levelo://app?vid=b2323607-30a0-4dcd-b86a-75bb6b4b1da9"},"vehicle_type_id":"4","last_reported":1744236539,"current_range_meters":12400,"station_id":"ce4bh012rcd13ifvqcv0","pricing_plan_id":"cebpf4jnsgd1na2vs0mg"},{"bike_id":"60e8e4b1-82cf-4403-9117-a8f4ee3a9f95","system_id":"levelo_inurba_marseille","lat":43.27812,"lon":5.4071,"is_reserved":false,"is_disabled":false,"rental_uris":{"android":"levelo://app?vid=60e8e4b1-82cf-4403-9117-a8f4ee3a9f95","ios":"levelo://app?vid=60e8e4b1-82cf-4403-9117-a8f4ee3a9f95"},"vehicle_type_id":"4","last_reported":1744236539,"current_range_meters":12400,"station_id":"ce4bhnh2rcd13ifvqgtg","pricing_plan_id":"cebpf4jnsgd1na2vs0mg"},{"bike_id":"31aa56c9-4c8d-493e-b503-862b1213d773","system_id":"levelo_inurba_marseille","lat":43.26566,"lon":5.39019,"is_reserved":false,"is_disabled":false,"rental_uris":{"android":"levelo://app?vid=31aa56c9-4c8d-493e-b503-862b1213d773","ios":"levelo://app?vid=31aa56c9-4c8d-493e-b503-862b1213d773"},"vehicle_type_id":"4","last_reported":1744236539,"current_range_meters":12400,"station_id":"ce4bhe12rcd13ifvqf30","pricing_plan_id":"cebpf4jnsgd1na2vs0mg"},{"bike_id":"d44ff2b9-417e-4368-bebb-1fc974db3122","system_id":"levelo_inurba_marseille","lat":43.336359,"lon":5.397511,"is_reserved":false,"is_disabled":false,"rental_uris":{"android":"levelo://app?vid=d44ff2b9-417e-4368-bebb-1fc974db3122","ios":"levelo://app?vid=d44ff2b9-417e-4368-bebb-1fc974db3122"},"vehicle_type_id":"4","last_reported":1744236539,"current_range_meters":12400,"station_id":"","pricing_plan_id":"cebpf4jnsgd1na2vs0mg"},{"bike_id":"aeb5d532-a5df-474f-a469-24b81f00135c","system_id":"levelo_inurba_marseille","lat":43.30361,"lon":5.41862,"is_reserved":false,"is_disabled":false,"rental_uris":{"android":"levelo://app?vid=aeb5d532-a5df-474f-a469-24b81f00135c","ios":"levelo://app?vid=aeb5d532-a5df-474f-a469-24b81f00135c"},"vehicle_type_id":"4","last_reported":1744236539,"current_range_meters":12800,"station_id":"ce4bhop2rcd13ifvqh7g","pricing_plan_id":"cebpf4jnsgd1na2vs0mg"},{"bike_id":"359554b7-9be0-4fad-af0c-7636833d5bf1","system_id":"levelo_inurba_marseille","lat":43.27616,"lon":5.36118,"is_reserved":false,"is_disabled":false,"rental_uris":{"android":"levelo://app?vid=359554b7-9be0-4fad-af0c-7636833d5bf1","ios":"levelo://app?vid=359554b7-9be0-4fad-af0c-7636833d5bf1"},"vehicle_type_id":"4","last_reported":1744236539,"current_range_meters":12800,"station_id":"ce4bgj92rcd13ifvqbe0","pricing_plan_id":"cebpf4jnsgd1na2vs0mg"},{"bike_id":"8ab6dcfc-9a38-4d9a-b92d-93ebc3289f5f","system_id":"levelo_inurba_marseille","lat":43.26067,"lon":5.39396,"is_reserved":false,"is_disabled":true,"rental_uris":{"android":"levelo://app?vid=8ab6dcfc-9a38-4d9a-b92d-93ebc3289f5f","ios":"levelo://app?vid=8ab6dcfc-9a38-4d9a-b92d-93ebc3289f5f"},"vehicle_type_id":"4","last_reported":1744236539,"current_range_meters":12800,"station_id":"ce4bhh92rcd13ifvqfj0","pricing_plan_id":"cebpf4jnsgd1na2vs0mg"},{"bike_id":"ae7f5023-ae11-420f-985c-1ea539511dfd","system_id":"levelo_inurba_marseille","lat":43.30349,"lon":5.41877,"is_reserved":false,"is_disabled":false,"rental_uris":{"android":"levelo://app?vid=ae7f5023-ae11-420f-985c-1ea539511dfd","ios":"levelo://app?vid=ae7f5023-ae11-420f-985c-1ea539511dfd"},"vehicle_type_id":"4","last_reported":1744236539,"current_range_meters":12800,"station_id":"ce4bhop2rcd13ifvqh7g","pricing_plan_id":"cebpf4jnsgd1na2vs0mg"},{"bike_id":"9a4ad9f3-6572-4bbd-bf10-fffb6380c165","system_id":"levelo_inurba_marseille","lat":43.2467,"lon":5.38165,"is_reserved":false,"is_disabled":false,"rental_uris":{"android":"levelo://app?vid=9a4ad9f3-6572-4bbd-bf10-fffb6380c165","ios":"levelo://app?vid=9a4ad9f3-6572-4bbd-bf10-fffb6380c165"},"vehicle_type_id":"4","last_reported":1744236539,"current_range_meters":12800,"station_id":"ce4bhih2rcd13ifvqfr0","pricing_plan_id":"cebpf4jnsgd1na2vs0mg"},{"bike_id":"9b9a53ff-a9c9-4d39-9a13-3ede3ffd5177","system_id":"levelo_inurba_marseille","lat":43.27919,"lon":5.39578,"is_reserved":false,"is_disabled":false,"rental_uris":{"android":"levelo://app?vid=9b9a53ff-a9c9-4d39-9a13-3ede3ffd5177","ios":"levelo://app?vid=9b9a53ff-a9c9-4d39-9a13-3ede3ffd5177"},"vehicle_type_id":"4","last_reported":1744236539,"current_range_meters":13600,"station_id":"ce4bhf92rcd13ifvqf40","pricing_plan_id":"cebpf4jnsgd1na2vs0mg"},{"bike_id":"cc29b15f-44c2-432a-b8c5-44e366421085","system_id":"levelo_inurba_marseille","lat":43.32297,"lon":5.38602,"is_reserved":false,"is_disabled":false,"rental_uris":{"android":"levelo://app?vid=cc29b15f-44c2-432a-b8c5-44e366421085","ios":"levelo://app?vid=cc29b15f-44c2-432a-b8c5-44e366421085"},"vehicle_type_id":"4","last_reported":1744236539,"current_range_meters":13600,"station_id":"","pricing_plan_id":"cebpf4jnsgd1na2vs0mg"},{"bike_id":"e6b27e51-7a6f-4c87-9cdb-e0dbaf392783","system_id":"levelo_inurba_marseille","lat":43.30976,"lon":5.39647,"is_reserved":false,"is_disabled":false,"rental_uris":{"android":"levelo://app?vid=e6b27e51-7a6f-4c87-9cdb-e0dbaf392783","ios":"levelo://app?vid=e6b27e51-7a6f-4c87-9cdb-e0dbaf392783"},"vehicle_type_id":"4","last_reported":1744236539,"current_range_meters":13600,"station_id":"","pricing_plan_id":"cebpf4jnsgd1na2vs0mg"},{"bike_id":"8d708f6d-df7e-4b8c-9703-c7e737ed86bd","system_id":"levelo_inurba_marseille","lat":43.29562,"lon":5.39968,"is_reserved":false,"is_disabled":false,"rental_uris":{"android":"levelo://app?vid=8d708f6d-df7e-4b8c-9703-c7e737ed86bd","ios":"levelo://app?vid=8d708f6d-df7e-4b8c-9703-c7e737ed86bd"},"vehicle_type_id":"4","last_reported":1744236539,"current_range_meters":13600,"station_id":"ce4bh312rcd13ifvqdj0","pricing_plan_id":"cebpf4jnsgd1na2vs0mg"},{"bike_id":"414ede67-eac2-425c-a4ce-c004dccc09ee","system_id":"levelo_inurba_marseille","lat":43.32327,"lon":5.40593,"is_reserved":false,"is_disabled":false,"rental_uris":{"android":"levelo://app?vid=414ede67-eac2-425c-a4ce-c004dccc09ee","ios":"levelo://app?vid=414ede67-eac2-425c-a4ce-c004dccc09ee"},"vehicle_type_id":"4","last_reported":1744236539,"current_range_meters":13600,"station_id":"ce4bhq92rcd13ifvqhjg","pricing_plan_id":"cebpf4jnsgd1na2vs0mg"},{"bike_id":"36b8f8d2-b677-4569-b292-4d4050722963","system_id":"levelo_inurba_marseille","lat":43.2573,"lon":5.41109,"is_reserved":false,"is_disabled":false,"rental_uris":{"android":"levelo://app?vid=36b8f8d2-b677-4569-b292-4d4050722963","ios":"levelo://app?vid=36b8f8d2-b677-4569-b292-4d4050722963"},"vehicle_type_id":"4","last_reported":1744236539,"current_range_meters":14000,"station_id":"ce4bhkp2rcd13ifvqgd0","pricing_plan_id":"cebpf4jnsgd1na2vs0mg"},{"bike_id":"af317acd-3cfd-4206-9137-9270a0ed68dc","system_id":"levelo_inurba_marseille","lat":43.25867,"lon":5.399,"is_reserved":false,"is_disabled":false,"rental_uris":{"android":"levelo://app?vid=af317acd-3cfd-4206-9137-9270a0ed68dc","ios":"levelo://app?vid=af317acd-3cfd-4206-9137-9270a0ed68dc"},"vehicle_type_id":"4","last_reported":1744236539,"current_range_meters":14000,"station_id":"ce4bhl92rcd13ifvqghg","pricing_plan_id":"cebpf4jnsgd1na2vs0mg"},{"bike_id":"4d2b5cd5-2c6c-4905-b4b8-8faa5aae631b","system_id":"levelo_inurba_marseille","lat":43.33122,"lon":5.39347,"is_reserved":false,"is_disabled":false,"rental_uris":{"android":"levelo://app?vid=4d2b5cd5-2c6c-4905-b4b8-8faa5aae631b","ios":"levelo://app?vid=4d2b5cd5-2c6c-4905-b4b8-8faa5aae631b"},"vehicle_type_id":"4","last_reported":1744236539,"current_range_meters":14000,"station_id":"","pricing_plan_id":"cebpf4jnsgd1na2vs0mg"},{"bike_id":"6ea13098-fa17-4d72-9a98-dc3e83f8f184","system_id":"levelo_inurba_marseille","lat":43.308909,"lon":5.396515,"is_reserved":false,"is_disabled":false,"rental_uris":{"android":"levelo://app?vid=6ea13098-fa17-4d72-9a98-dc3e83f8f184","ios":"levelo://app?vid=6ea13098-fa17-4d72-9a98-dc3e83f8f184"},"vehicle_type_id":"4","last_reported":1744236539,"current_range_meters":14000,"station_id":"ce4bh012rcd13ifvqcv0","pricing_plan_id":"cebpf4jnsgd1na2vs0mg"},{"bike_id":"3ce3d920-dde9-4fd8-b282-79c836620424","system_id":"levelo_inurba_marseille","lat":43.281596,"lon":5.426304,"is_reserved":false,"is_disabled":false,"rental_uris":{"android":"levelo://app?vid=3ce3d920-dde9-4fd8-b282-79c836620424","ios":"levelo://app?vid=3ce3d920-dde9-4fd8-b282-79c836620424"},"vehicle_type_id":"4","last_reported":1744236539,"current_range_meters":14000,"station_id":"ce4bhnh2rcd13ifvqgug","pricing_plan_id":"cebpf4jnsgd1na2vs0mg"},{"bike_id":"8e8f9f8d-7ff4-4330-a0c9-e83369a7deb3","system_id":"levelo_inurba_marseille","lat":43.292,"lon":5.39316,"is_reserved":false,"is_disabled":false,"rental_uris":{"android":"levelo://app?vid=8e8f9f8d-7ff4-4330-a0c9-e83369a7deb3","ios":"levelo://app?vid=8e8f9f8d-7ff4-4330-a0c9-e83369a7deb3"},"vehicle_type_id":"4","last_reported":1744236539,"current_range_meters":14000,"station_id":"ce4bh192rcd13ifvqdd0","pricing_plan_id":"cebpf4jnsgd1na2vs0mg"},{"bike_id":"f1bb8193-a5a3-4da3-89ee-ab0d4c0fed15","system_id":"levelo_inurba_marseille","lat":43.295398,"lon":5.422938,"is_reserved":false,"is_disabled":false,"rental_uris":{"android":"levelo://app?vid=f1bb8193-a5a3-4da3-89ee-ab0d4c0fed15","ios":"levelo://app?vid=f1bb8193-a5a3-4da3-89ee-ab0d4c0fed15"},"vehicle_type_id":"4","last_reported":1744236539,"current_range_meters":14000,"station_id":"ce4bgr92rcd13ifvqc7g","pricing_plan_id":"cebpf4jnsgd1na2vs0mg"},{"bike_id":"5829cd0d-c17e-4de3-b63f-9cd151926e69","system_id":"levelo_inurba_marseille","lat":43.29585,"lon":5.36769,"is_reserved":false,"is_disabled":true,"rental_uris":{"android":"levelo://app?vid=5829cd0d-c17e-4de3-b63f-9cd151926e69","ios":"levelo://app?vid=5829cd0d-c17e-4de3-b63f-9cd151926e69"},"vehicle_type_id":"4","last_reported":1744236539,"current_range_meters":14000,"station_id":"ce4bgph2rcd13ifvqc2g","pricing_plan_id":"cebpf4jnsgd1na2vs0mg"},{"bike_id":"12e9a811-6973-4c16-b3bc-e69c3717a772","system_id":"levelo_inurba_marseille","lat":43.28944,"lon":5.3641,"is_reserved":false,"is_disabled":false,"rental_uris":{"android":"levelo://app?vid=12e9a811-6973-4c16-b3bc-e69c3717a772","ios":"levelo://app?vid=12e9a811-6973-4c16-b3bc-e69c3717a772"},"vehicle_type_id":"4","last_reported":1744236539,"current_range_meters":14400,"station_id":"ce4bhc92rcd13ifvqetg","pricing_plan_id":"cebpf4jnsgd1na2vs0mg"},{"bike_id":"ba5b2267-01ae-4ff2-9af2-8f2cfd3174e7","system_id":"levelo_inurba_marseille","lat":43.28659,"lon":5.36366,"is_reserved":false,"is_disabled":false,"rental_uris":{"android":"levelo://app?vid=ba5b2267-01ae-4ff2-9af2-8f2cfd3174e7","ios":"levelo://app?vid=ba5b2267-01ae-4ff2-9af2-8f2cfd3174e7"},"vehicle_type_id":"4","last_reported":1744236539,"current_range_meters":14400,"station_id":"ce4bhah2rcd13ifvqej0","pricing_plan_id":"cebpf4jnsgd1na2vs0mg"},{"bike_id":"d87cc5c4-1c8e-421b-a351-02b810df9ea3","system_id":"levelo_inurba_marseille","lat":43.25826,"lon":5.39413,"is_reserved":false,"is_disabled":false,"rental_uris":{"android":"levelo://app?vid=d87cc5c4-1c8e-421b-a351-02b810df9ea3","ios":"levelo://app?vid=d87cc5c4-1c8e-421b-a351-02b810df9ea3"},"vehicle_type_id":"4","last_reported":1744236539,"current_range_meters":14800,"station_id":"ce4bhip2rcd13ifvqft0","pricing_plan_id":"cebpf4jnsgd1na2vs0mg"},{"bike_id":"42c1fdc6-38af-4ea1-a910-702e15d5a9b4","system_id":"levelo_inurba_marseille","lat":43.30943,"lon":5.40161,"is_reserved":false,"is_disabled":true,"rental_uris":{"android":"levelo://app?vid=42c1fdc6-38af-4ea1-a910-702e15d5a9b4","ios":"levelo://app?vid=42c1fdc6-38af-4ea1-a910-702e15d5a9b4"},"vehicle_type_id":"4","last_reported":1744236539,"current_range_meters":14800,"station_id":"ce4bgvp2rcd13ifvqct0","pricing_plan_id":"cebpf4jnsgd1na2vs0mg"},{"bike_id":"5fb7c417-bf5d-4451-874a-0354d5f8c51d","system_id":"levelo_inurba_marseille","lat":43.28445,"lon":5.39226,"is_reserved":false,"is_disabled":false,"rental_uris":{"android":"levelo://app?vid=5fb7c417-bf5d-4451-874a-0354d5f8c51d","ios":"levelo://app?vid=5fb7c417-bf5d-4451-874a-0354d5f8c51d"},"vehicle_type_id":"4","last_reported":1744236539,"current_range_meters":14800,"station_id":"ce4bhoh2rcd13ifvqh5g","pricing_plan_id":"cebpf4jnsgd1na2vs0mg"},{"bike_id":"b1ac9552-e84e-487f-9eef-f497249d95ad","system_id":"levelo_inurba_marseille","lat":43.31187,"lon":5.38723,"is_reserved":false,"is_disabled":false,"rental_uris":{"android":"levelo://app?vid=b1ac9552-e84e-487f-9eef-f497249d95ad","ios":"levelo://app?vid=b1ac9552-e84e-487f-9eef-f497249d95ad"},"vehicle_type_id":"4","last_reported":1744236539,"current_range_meters":14800,"station_id":"ce4bgv12rcd13ifvqcp0","pricing_plan_id":"cebpf4jnsgd1na2vs0mg"},{"bike_id":"5d14c852-7d39-4daa-9337-9b008497a52a","system_id":"levelo_inurba_marseille","lat":43.29421,"lon":5.38624,"is_reserved":false,"is_disabled":true,"rental_uris":{"android":"levelo://app?vid=5d14c852-7d39-4daa-9337-9b008497a52a","ios":"levelo://app?vid=5d14c852-7d39-4daa-9337-9b008497a52a"},"vehicle_type_id":"4","last_reported":1744236539,"current_range_meters":15200,"station_id":"ce4bh2h2rcd13ifvqdh0","pricing_plan_id":"cebpf4jnsgd1na2vs0mg"},{"bike_id":"5b330a5a-9ad5-4c84-bd4a-392268a14414","system_id":"levelo_inurba_marseille","lat":43.28946,"lon":5.36407,"is_reserved":false,"is_disabled":false,"rental_uris":{"android":"levelo://app?vid=5b330a5a-9ad5-4c84-bd4a-392268a14414","ios":"levelo://app?vid=5b330a5a-9ad5-4c84-bd4a-392268a14414"},"vehicle_type_id":"4","last_reported":1744236539,"current_range_meters":15200,"station_id":"ce4bhc92rcd13ifvqetg","pricing_plan_id":"cebpf4jnsgd1na2vs0mg"},{"bike_id":"8ef273ac-c689-4f24-a851-468efa4e0854","system_id":"levelo_inurba_marseille","lat":43.290262,"lon":5.368302,"is_reserved":false,"is_disabled":false,"rental_uris":{"android":"levelo://app?vid=8ef273ac-c689-4f24-a851-468efa4e0854","ios":"levelo://app?vid=8ef273ac-c689-4f24-a851-468efa4e0854"},"vehicle_type_id":"4","last_reported":1744236539,"current_range_meters":15200,"station_id":"","pricing_plan_id":"cebpf4jnsgd1na2vs0mg"},{"bike_id":"2136a231-95e3-4e96-b284-eb409c0041f1","system_id":"levelo_inurba_marseille","lat":43.30645,"lon":5.40085,"is_reserved":false,"is_disabled":false,"rental_uris":{"android":"levelo://app?vid=2136a231-95e3-4e96-b284-eb409c0041f1","ios":"levelo://app?vid=2136a231-95e3-4e96-b284-eb409c0041f1"},"vehicle_type_id":"4","last_reported":1744236539,"current_range_meters":16000,"station_id":"ce4bh112rcd13ifvqda0","pricing_plan_id":"cebpf4jnsgd1na2vs0mg"},{"bike_id":"5154dce8-1dfa-451e-b897-845edc6aea9b","system_id":"levelo_inurba_marseille","lat":43.29792,"lon":5.37097,"is_reserved":false,"is_disabled":false,"rental_uris":{"android":"levelo://app?vid=5154dce8-1dfa-451e-b897-845edc6aea9b","ios":"levelo://app?vid=5154dce8-1dfa-451e-b897-845edc6aea9b"},"vehicle_type_id":"4","last_reported":1744236539,"current_range_meters":16000,"station_id":"ce4bgop2rcd13ifvqc1g","pricing_plan_id":"cebpf4jnsgd1na2vs0mg"},{"bike_id":"3bb81e7b-bb00-435d-9310-d9e65d2802ae","system_id":"levelo_inurba_marseille","lat":43.2893,"lon":5.36643,"is_reserved":false,"is_disabled":false,"rental_uris":{"android":"levelo://app?vid=3bb81e7b-bb00-435d-9310-d9e65d2802ae","ios":"levelo://app?vid=3bb81e7b-bb00-435d-9310-d9e65d2802ae"},"vehicle_type_id":"4","last_reported":1744236539,"current_range_meters":16000,"station_id":"ce4bhap2rcd13ifvqek0","pricing_plan_id":"cebpf4jnsgd1na2vs0mg"},{"bike_id":"103b1015-c9ff-499e-a23b-e020b07fa2a3","system_id":"levelo_inurba_marseille","lat":43.29088,"lon":5.38146,"is_reserved":false,"is_disabled":false,"rental_uris":{"android":"levelo://app?vid=103b1015-c9ff-499e-a23b-e020b07fa2a3","ios":"levelo://app?vid=103b1015-c9ff-499e-a23b-e020b07fa2a3"},"vehicle_type_id":"4","last_reported":1744236539,"current_range_meters":16000,"station_id":"ce4bh512rcd13ifvqe2g","pricing_plan_id":"cebpf4jnsgd1na2vs0mg"},{"bike_id":"ae158248-d8c1-42a9-9466-b356e48cc0e3","system_id":"levelo_inurba_marseille","lat":43.30797,"lon":5.38157,"is_reserved":false,"is_disabled":false,"rental_uris":{"android":"levelo://app?vid=ae158248-d8c1-42a9-9466-b356e48cc0e3","ios":"levelo://app?vid=ae158248-d8c1-42a9-9466-b356e48cc0e3"},"vehicle_type_id":"4","last_reported":1744236539,"current_range_meters":16000,"station_id":"ce4bgt12rcd13ifvqce0","pricing_plan_id":"cebpf4jnsgd1na2vs0mg"},{"bike_id":"1a3cd0ab-ec77-41b3-982c-74e5093499a8","system_id":"levelo_inurba_marseille","lat":43.30441,"lon":5.38895,"is_reserved":false,"is_disabled":true,"rental_uris":{"android":"levelo://app?vid=1a3cd0ab-ec77-41b3-982c-74e5093499a8","ios":"levelo://app?vid=1a3cd0ab-ec77-41b3-982c-74e5093499a8"},"vehicle_type_id":"4","last_reported":1744236539,"current_range_meters":16000,"station_id":"ce4bgk12rcd13ifvqbi0","pricing_plan_id":"cebpf4jnsgd1na2vs0mg"},{"bike_id":"41450272-6e87-44ce-8831-dc714361d2ba","system_id":"levelo_inurba_marseille","lat":43.29907,"lon":5.38153,"is_reserved":false,"is_disabled":false,"rental_uris":{"android":"levelo://app?vid=41450272-6e87-44ce-8831-dc714361d2ba","ios":"levelo://app?vid=41450272-6e87-44ce-8831-dc714361d2ba"},"vehicle_type_id":"4","last_reported":1744236539,"current_range_meters":16000,"station_id":"ce4bgj12rcd13ifvqbc0","pricing_plan_id":"cebpf4jnsgd1na2vs0mg"},{"bike_id":"5047455d-c97a-4875-9440-a0dd56a0356d","system_id":"levelo_inurba_marseille","lat":43.32327,"lon":5.36576,"is_reserved":false,"is_disabled":false,"rental_uris":{"android":"levelo://app?vid=5047455d-c97a-4875-9440-a0dd56a0356d","ios":"levelo://app?vid=5047455d-c97a-4875-9440-a0dd56a0356d"},"vehicle_type_id":"4","last_reported":1744236539,"current_range_meters":16000,"station_id":"","pricing_plan_id":"cebpf4jnsgd1na2vs0mg"},{"bike_id":"f9fde33d-3e05-4f24-9670-2ad2d1cacdc1","system_id":"levelo_inurba_marseille","lat":43.288149,"lon":5.372681,"is_reserved":false,"is_disabled":false,"rental_uris":{"android":"levelo://app?vid=f9fde33d-3e05-4f24-9670-2ad2d1cacdc1","ios":"levelo://app?vid=f9fde33d-3e05-4f24-9670-2ad2d1cacdc1"},"vehicle_type_id":"4","last_reported":1744236539,"current_range_meters":16000,"station_id":"","pricing_plan_id":"cebpf4jnsgd1na2vs0mg"},{"bike_id":"07e370a6-4fb2-4567-9428-21fe2e13531b","system_id":"levelo_inurba_marseille","lat":43.28159,"lon":5.4264,"is_reserved":false,"is_disabled":false,"rental_uris":{"android":"levelo://app?vid=07e370a6-4fb2-4567-9428-21fe2e13531b","ios":"levelo://app?vid=07e370a6-4fb2-4567-9428-21fe2e13531b"},"vehicle_type_id":"4","last_reported":1744236539,"current_range_meters":16000,"station_id":"ce4bhnh2rcd13ifvqgug","pricing_plan_id":"cebpf4jnsgd1na2vs0mg"},{"bike_id":"066918e9-658d-41fb-94df-83bd20a02c25","system_id":"levelo_inurba_marseille","lat":43.23058,"lon":5.35512,"is_reserved":false,"is_disabled":true,"rental_uris":{"android":"levelo://app?vid=066918e9-658d-41fb-94df-83bd20a02c25","ios":"levelo://app?vid=066918e9-658d-41fb-94df-83bd20a02c25"},"vehicle_type_id":"4","last_reported":1744236539,"current_range_meters":16400,"station_id":"cpo3342slgdg3j2ifvpg","pricing_plan_id":"cebpf4jnsgd1na2vs0mg"},{"bike_id":"1b9db18e-11bd-4d3e-836a-3a44dbe4770b","system_id":"levelo_inurba_marseille","lat":43.3017,"lon":5.38083,"is_reserved":false,"is_disabled":false,"rental_uris":{"android":"levelo://app?vid=1b9db18e-11bd-4d3e-836a-3a44dbe4770b","ios":"levelo://app?vid=1b9db18e-11bd-4d3e-836a-3a44dbe4770b"},"vehicle_type_id":"4","last_reported":1744236539,"current_range_meters":16400,"station_id":"ce4bgjp2rcd13ifvqbh0","pricing_plan_id":"cebpf4jnsgd1na2vs0mg"},{"bike_id":"934d286e-1a7a-4e88-8688-5048b50c70aa","system_id":"levelo_inurba_marseille","lat":43.27841,"lon":5.39202,"is_reserved":false,"is_disabled":false,"rental_uris":{"android":"levelo://app?vid=934d286e-1a7a-4e88-8688-5048b50c70aa","ios":"levelo://app?vid=934d286e-1a7a-4e88-8688-5048b50c70aa"},"vehicle_type_id":"4","last_reported":1744236539,"current_range_meters":16400,"station_id":"ce4bhjp2rcd13ifvqga0","pricing_plan_id":"cebpf4jnsgd1na2vs0mg"},{"bike_id":"ff4cd8c5-7d31-4bae-b119-a2e597e684d5","system_id":"levelo_inurba_marseille","lat":43.29281,"lon":5.40121,"is_reserved":false,"is_disabled":true,"rental_uris":{"android":"levelo://app?vid=ff4cd8c5-7d31-4bae-b119-a2e597e684d5","ios":"levelo://app?vid=ff4cd8c5-7d31-4bae-b119-a2e597e684d5"},"vehicle_type_id":"4","last_reported":1744236539,"current_range_meters":16400,"station_id":"ce4bh312rcd13ifvqdk0","pricing_plan_id":"cebpf4jnsgd1na2vs0mg"},{"bike_id":"ef10cb23-57a0-4a05-86ee-62626a9812a9","system_id":"levelo_inurba_marseille","lat":43.2894,"lon":5.39627,"is_reserved":false,"is_disabled":false,"rental_uris":{"android":"levelo://app?vid=ef10cb23-57a0-4a05-86ee-62626a9812a9","ios":"levelo://app?vid=ef10cb23-57a0-4a05-86ee-62626a9812a9"},"vehicle_type_id":"4","last_reported":1744236539,"current_range_meters":16000,"station_id":"ce4bh3h2rcd13ifvqdn0","pricing_plan_id":"cebpf4jnsgd1na2vs0mg"},{"bike_id":"592bed2c-a4f8-4346-b2a9-f06bb14a3321","system_id":"levelo_inurba_marseille","lat":43.31339,"lon":5.39721,"is_reserved":false,"is_disabled":false,"rental_uris":{"android":"levelo://app?vid=592bed2c-a4f8-4346-b2a9-f06bb14a3321","ios":"levelo://app?vid=592bed2c-a4f8-4346-b2a9-f06bb14a3321"},"vehicle_type_id":"4","last_reported":1744236539,"current_range_meters":16400,"station_id":"ce4bgvp2rcd13ifvqcu0","pricing_plan_id":"cebpf4jnsgd1na2vs0mg"},{"bike_id":"47e374ae-a561-4737-901c-f41db5e10158","system_id":"levelo_inurba_marseille","lat":43.31538,"lon":5.38018,"is_reserved":false,"is_disabled":false,"rental_uris":{"android":"levelo://app?vid=47e374ae-a561-4737-901c-f41db5e10158","ios":"levelo://app?vid=47e374ae-a561-4737-901c-f41db5e10158"},"vehicle_type_id":"4","last_reported":1744236539,"current_range_meters":16400,"station_id":"ce4bhsp2rcd13ifvqi50","pricing_plan_id":"cebpf4jnsgd1na2vs0mg"},{"bike_id":"d5271ad9-da96-4b25-a877-fbc78197d97e","system_id":"levelo_inurba_marseille","lat":43.31181,"lon":5.38708,"is_reserved":false,"is_disabled":false,"rental_uris":{"android":"levelo://app?vid=d5271ad9-da96-4b25-a877-fbc78197d97e","ios":"levelo://app?vid=d5271ad9-da96-4b25-a877-fbc78197d97e"},"vehicle_type_id":"4","last_reported":1744236539,"current_range_meters":16400,"station_id":"ce4bgv12rcd13ifvqcp0","pricing_plan_id":"cebpf4jnsgd1na2vs0mg"},{"bike_id":"e3c3a051-8134-4ed3-913b-374aa217874c","system_id":"levelo_inurba_marseille","lat":43.2559,"lon":5.40455,"is_reserved":false,"is_disabled":false,"rental_uris":{"android":"levelo://app?vid=e3c3a051-8134-4ed3-913b-374aa217874c","ios":"levelo://app?vid=e3c3a051-8134-4ed3-913b-374aa217874c"},"vehicle_type_id":"4","last_reported":1744236539,"current_range_meters":16800,"station_id":"","pricing_plan_id":"cebpf4jnsgd1na2vs0mg"},{"bike_id":"94dd9459-42c8-4b57-a4ac-e309f448cd0c","system_id":"levelo_inurba_marseille","lat":43.28377,"lon":5.38618,"is_reserved":false,"is_disabled":false,"rental_uris":{"android":"levelo://app?vid=94dd9459-42c8-4b57-a4ac-e309f448cd0c","ios":"levelo://app?vid=94dd9459-42c8-4b57-a4ac-e309f448cd0c"},"vehicle_type_id":"4","last_reported":1744236539,"current_range_meters":16800,"station_id":"ce4bh492rcd13ifvqdvg","pricing_plan_id":"cebpf4jnsgd1na2vs0mg"},{"bike_id":"e305259c-6e8b-4c30-bb3e-d31643eeb2cc","system_id":"levelo_inurba_marseille","lat":43.29278,"lon":5.40121,"is_reserved":false,"is_disabled":false,"rental_uris":{"android":"levelo://app?vid=e305259c-6e8b-4c30-bb3e-d31643eeb2cc","ios":"levelo://app?vid=e305259c-6e8b-4c30-bb3e-d31643eeb2cc"},"vehicle_type_id":"4","last_reported":1744236539,"current_range_meters":16800,"station_id":"ce4bh312rcd13ifvqdk0","pricing_plan_id":"cebpf4jnsgd1na2vs0mg"},{"bike_id":"5d7db4b2-25bb-442b-b054-c3f9e9515910","system_id":"levelo_inurba_marseille","lat":43.30324,"lon":5.40443,"is_reserved":false,"is_disabled":false,"rental_uris":{"android":"levelo://app?vid=5d7db4b2-25bb-442b-b054-c3f9e9515910","ios":"levelo://app?vid=5d7db4b2-25bb-442b-b054-c3f9e9515910"},"vehicle_type_id":"4","last_reported":1744236539,"current_range_meters":16800,"station_id":"ce4bh012rcd13ifvqd10","pricing_plan_id":"cebpf4jnsgd1na2vs0mg"},{"bike_id":"192245d1-93e6-4270-b430-c855513cb15b","system_id":"levelo_inurba_marseille","lat":43.28364,"lon":5.38626,"is_reserved":false,"is_disabled":false,"rental_uris":{"android":"levelo://app?vid=192245d1-93e6-4270-b430-c855513cb15b","ios":"levelo://app?vid=192245d1-93e6-4270-b430-c855513cb15b"},"vehicle_type_id":"4","last_reported":1744236539,"current_range_meters":16800,"station_id":"ce4bh492rcd13ifvqdvg","pricing_plan_id":"cebpf4jnsgd1na2vs0mg"},{"bike_id":"878ca4bf-6e3c-4046-a2c9-3a2ba34ef415","system_id":"levelo_inurba_marseille","lat":43.29965,"lon":5.36538,"is_reserved":false,"is_disabled":false,"rental_uris":{"android":"levelo://app?vid=878ca4bf-6e3c-4046-a2c9-3a2ba34ef415","ios":"levelo://app?vid=878ca4bf-6e3c-4046-a2c9-3a2ba34ef415"},"vehicle_type_id":"4","last_reported":1744236539,"current_range_meters":16800,"station_id":"ce4bgm92rcd13ifvqbr0","pricing_plan_id":"cebpf4jnsgd1na2vs0mg"},{"bike_id":"eb4313c6-4467-4d11-9025-6692ea56b4e8","system_id":"levelo_inurba_marseille","lat":43.28611,"lon":5.37056,"is_reserved":false,"is_disabled":false,"rental_uris":{"android":"levelo://app?vid=eb4313c6-4467-4d11-9025-6692ea56b4e8","ios":"levelo://app?vid=eb4313c6-4467-4d11-9025-6692ea56b4e8"},"vehicle_type_id":"4","last_reported":1744236539,"current_range_meters":16800,"station_id":"ce4bht12rcd13ifvqi60","pricing_plan_id":"cebpf4jnsgd1na2vs0mg"},{"bike_id":"58a06d5c-23f8-466b-a88d-449307d0c901","system_id":"levelo_inurba_marseille","lat":43.3148,"lon":5.36892,"is_reserved":false,"is_disabled":false,"rental_uris":{"android":"levelo://app?vid=58a06d5c-23f8-466b-a88d-449307d0c901","ios":"levelo://app?vid=58a06d5c-23f8-466b-a88d-449307d0c901"},"vehicle_type_id":"4","last_reported":1744236539,"current_range_meters":16800,"station_id":"","pricing_plan_id":"cebpf4jnsgd1na2vs0mg"},{"bike_id":"d1f92f28-9609-4256-bd4a-880c7b09d4e8","system_id":"levelo_inurba_marseille","lat":43.29338,"lon":5.41151,"is_reserved":false,"is_disabled":false,"rental_uris":{"android":"levelo://app?vid=d1f92f28-9609-4256-bd4a-880c7b09d4e8","ios":"levelo://app?vid=d1f92f28-9609-4256-bd4a-880c7b09d4e8"},"vehicle_type_id":"4","last_reported":1744236539,"current_range_meters":16800,"station_id":"","pricing_plan_id":"cebpf4jnsgd1na2vs0mg"},{"bike_id":"897a51d2-1d57-43b6-a253-b59bc49c4100","system_id":"levelo_inurba_marseille","lat":43.25726,"lon":5.41111,"is_reserved":false,"is_disabled":false,"rental_uris":{"android":"levelo://app?vid=897a51d2-1d57-43b6-a253-b59bc49c4100","ios":"levelo://app?vid=897a51d2-1d57-43b6-a253-b59bc49c4100"},"vehicle_type_id":"4","last_reported":1744236539,"current_range_meters":17200,"station_id":"ce4bhkp2rcd13ifvqgd0","pricing_plan_id":"cebpf4jnsgd1na2vs0mg"},{"bike_id":"bddcf046-3c0e-4a5e-b527-8096b2ab72f1","system_id":"levelo_inurba_marseille","lat":43.29367,"lon":5.39771,"is_reserved":false,"is_disabled":false,"rental_uris":{"android":"levelo://app?vid=bddcf046-3c0e-4a5e-b527-8096b2ab72f1","ios":"levelo://app?vid=bddcf046-3c0e-4a5e-b527-8096b2ab72f1"},"vehicle_type_id":"4","last_reported":1744236539,"current_range_meters":17200,"station_id":"ce4bh0h2rcd13ifvqd50","pricing_plan_id":"cebpf4jnsgd1na2vs0mg"},{"bike_id":"640b6901-af87-4cbb-84ba-cf000e7c8d63","system_id":"levelo_inurba_marseille","lat":43.26494,"lon":5.3956,"is_reserved":false,"is_disabled":true,"rental_uris":{"android":"levelo://app?vid=640b6901-af87-4cbb-84ba-cf000e7c8d63","ios":"levelo://app?vid=640b6901-af87-4cbb-84ba-cf000e7c8d63"},"vehicle_type_id":"4","last_reported":1744236539,"current_range_meters":17200,"station_id":"ce4bhi12rcd13ifvqfq0","pricing_plan_id":"cebpf4jnsgd1na2vs0mg"},{"bike_id":"9baa879b-85ac-486d-88a5-95e7155d41aa","system_id":"levelo_inurba_marseille","lat":43.28706,"lon":5.39997,"is_reserved":false,"is_disabled":false,"rental_uris":{"android":"levelo://app?vid=9baa879b-85ac-486d-88a5-95e7155d41aa","ios":"levelo://app?vid=9baa879b-85ac-486d-88a5-95e7155d41aa"},"vehicle_type_id":"4","last_reported":1744236539,"current_range_meters":17200,"station_id":"ce4bho92rcd13ifvqh3g","pricing_plan_id":"cebpf4jnsgd1na2vs0mg"},{"bike_id":"19e57953-6d0c-43b9-ae97-3bf79908d670","system_id":"levelo_inurba_marseille","lat":43.27205,"lon":5.39193,"is_reserved":false,"is_disabled":true,"rental_uris":{"android":"levelo://app?vid=19e57953-6d0c-43b9-ae97-3bf79908d670","ios":"levelo://app?vid=19e57953-6d0c-43b9-ae97-3bf79908d670"},"vehicle_type_id":"4","last_reported":1744236539,"current_range_meters":17200,"station_id":"ce4bhhp2rcd13ifvqfm0","pricing_plan_id":"cebpf4jnsgd1na2vs0mg"},{"bike_id":"8fc75a06-b383-4356-9ce0-507c4c1bc08f","system_id":"levelo_inurba_marseille","lat":43.27075,"lon":5.42281,"is_reserved":false,"is_disabled":false,"rental_uris":{"android":"levelo://app?vid=8fc75a06-b383-4356-9ce0-507c4c1bc08f","ios":"levelo://app?vid=8fc75a06-b383-4356-9ce0-507c4c1bc08f"},"vehicle_type_id":"4","last_reported":1744236539,"current_range_meters":17200,"station_id":"ce4bhk92rcd13ifvqgb0","pricing_plan_id":"cebpf4jnsgd1na2vs0mg"},{"bike_id":"073955c6-6f8e-4d79-bdbc-3802d168fcc3","system_id":"levelo_inurba_marseille","lat":43.24157,"lon":5.36418,"is_reserved":false,"is_disabled":false,"rental_uris":{"android":"levelo://app?vid=073955c6-6f8e-4d79-bdbc-3802d168fcc3","ios":"levelo://app?vid=073955c6-6f8e-4d79-bdbc-3802d168fcc3"},"vehicle_type_id":"4","last_reported":1744236539,"current_range_meters":17200,"station_id":"cpo36qri1sfpv3e86is0","pricing_plan_id":"cebpf4jnsgd1na2vs0mg"},{"bike_id":"39d569f2-804d-4c1f-93cb-ffdd8bba0563","system_id":"levelo_inurba_marseille","lat":43.30543,"lon":5.3843,"is_reserved":false,"is_disabled":true,"rental_uris":{"android":"levelo://app?vid=39d569f2-804d-4c1f-93cb-ffdd8bba0563","ios":"levelo://app?vid=39d569f2-804d-4c1f-93cb-ffdd8bba0563"},"vehicle_type_id":"4","last_reported":1744236539,"current_range_meters":17600,"station_id":"ce4bgg92rcd13ifvqb30","pricing_plan_id":"cebpf4jnsgd1na2vs0mg"},{"bike_id":"dad1b0b5-9864-4d37-aead-4e0c633b2ef0","system_id":"levelo_inurba_marseille","lat":43.29791,"lon":5.3934,"is_reserved":false,"is_disabled":false,"rental_uris":{"android":"levelo://app?vid=dad1b0b5-9864-4d37-aead-4e0c633b2ef0","ios":"levelo://app?vid=dad1b0b5-9864-4d37-aead-4e0c633b2ef0"},"vehicle_type_id":"4","last_reported":1744236539,"current_range_meters":17600,"station_id":"chh1huq6cuj3fo74tm60","pricing_plan_id":"cebpf4jnsgd1na2vs0mg"},{"bike_id":"f78bf8a8-b506-43e9-9fc4-9ec4cb688e82","system_id":"levelo_inurba_marseille","lat":43.32125,"lon":5.36773,"is_reserved":false,"is_disabled":false,"rental_uris":{"android":"levelo://app?vid=f78bf8a8-b506-43e9-9fc4-9ec4cb688e82","ios":"levelo://app?vid=f78bf8a8-b506-43e9-9fc4-9ec4cb688e82"},"vehicle_type_id":"4","last_reported":1744236539,"current_range_meters":17600,"station_id":"ce4bhrh2rcd13ifvqhug","pricing_plan_id":"cebpf4jnsgd1na2vs0mg"},{"bike_id":"20135a28-cd15-4f4d-bbeb-9a39f64882d9","system_id":"levelo_inurba_marseille","lat":43.28415,"lon":5.37515,"is_reserved":false,"is_disabled":false,"rental_uris":{"android":"levelo://app?vid=20135a28-cd15-4f4d-bbeb-9a39f64882d9","ios":"levelo://app?vid=20135a28-cd15-4f4d-bbeb-9a39f64882d9"},"vehicle_type_id":"4","last_reported":1744236539,"current_range_meters":17600,"station_id":"ce4bh412rcd13ifvqds0","pricing_plan_id":"cebpf4jnsgd1na2vs0mg"},{"bike_id":"49f12fd7-4c87-4529-a7b9-de78fd0243f1","system_id":"levelo_inurba_marseille","lat":43.32461,"lon":5.36544,"is_reserved":false,"is_disabled":false,"rental_uris":{"android":"levelo://app?vid=49f12fd7-4c87-4529-a7b9-de78fd0243f1","ios":"levelo://app?vid=49f12fd7-4c87-4529-a7b9-de78fd0243f1"},"vehicle_type_id":"4","last_reported":1744236539,"current_range_meters":17600,"station_id":"ce4bhs12rcd13ifvqhvg","pricing_plan_id":"cebpf4jnsgd1na2vs0mg"},{"bike_id":"8ee9f686-4549-4aad-af30-9017baadcb23","system_id":"levelo_inurba_marseille","lat":43.31453,"lon":5.37575,"is_reserved":false,"is_disabled":false,"rental_uris":{"android":"levelo://app?vid=8ee9f686-4549-4aad-af30-9017baadcb23","ios":"levelo://app?vid=8ee9f686-4549-4aad-af30-9017baadcb23"},"vehicle_type_id":"4","last_reported":1744236539,"current_range_meters":17600,"station_id":"","pricing_plan_id":"cebpf4jnsgd1na2vs0mg"},{"bike_id":"ef291804-1477-432e-b153-82ea15725418","system_id":"levelo_inurba_marseille","lat":43.33776,"lon":5.37497,"is_reserved":false,"is_disabled":false,"rental_uris":{"android":"levelo://app?vid=ef291804-1477-432e-b153-82ea15725418","ios":"levelo://app?vid=ef291804-1477-432e-b153-82ea15725418"},"vehicle_type_id":"4","last_reported":1744236539,"current_range_meters":17600,"station_id":"","pricing_plan_id":"cebpf4jnsgd1na2vs0mg"},{"bike_id":"b4f043f2-f551-48f9-8196-6d8a60cd5432","system_id":"levelo_inurba_marseille","lat":43.243805,"lon":5.370722,"is_reserved":false,"is_disabled":false,"rental_uris":{"android":"levelo://app?vid=b4f043f2-f551-48f9-8196-6d8a60cd5432","ios":"levelo://app?vid=b4f043f2-f551-48f9-8196-6d8a60cd5432"},"vehicle_type_id":"4","last_reported":1744236539,"current_range_meters":17600,"station_id":"ce4bgjp2rcd13ifvqbh0","pricing_plan_id":"cebpf4jnsgd1na2vs0mg"},{"bike_id":"b72a1b52-33d4-4852-8e1b-ac62a6d7d170","system_id":"levelo_inurba_marseille","lat":43.32695,"lon":5.41004,"is_reserved":false,"is_disabled":false,"rental_uris":{"android":"levelo://app?vid=b72a1b52-33d4-4852-8e1b-ac62a6d7d170","ios":"levelo://app?vid=b72a1b52-33d4-4852-8e1b-ac62a6d7d170"},"vehicle_type_id":"4","last_reported":1744236539,"current_range_meters":17600,"station_id":"ce4bhpp2rcd13ifvqhgg","pricing_plan_id":"cebpf4jnsgd1na2vs0mg"},{"bike_id":"cc0b19bd-0040-40ba-8872-0047c3cc2158","system_id":"levelo_inurba_marseille","lat":43.27365,"lon":5.36252,"is_reserved":false,"is_disabled":false,"rental_uris":{"android":"levelo://app?vid=cc0b19bd-0040-40ba-8872-0047c3cc2158","ios":"levelo://app?vid=cc0b19bd-0040-40ba-8872-0047c3cc2158"},"vehicle_type_id":"4","last_reported":1744236539,"current_range_meters":17600,"station_id":"ce4bhbh2rcd13ifvqeo0","pricing_plan_id":"cebpf4jnsgd1na2vs0mg"},{"bike_id":"c5803cf2-eedb-4297-9474-679d200ec1ea","system_id":"levelo_inurba_marseille","lat":43.31488,"lon":5.3729,"is_reserved":false,"is_disabled":false,"rental_uris":{"android":"levelo://app?vid=c5803cf2-eedb-4297-9474-679d200ec1ea","ios":"levelo://app?vid=c5803cf2-eedb-4297-9474-679d200ec1ea"},"vehicle_type_id":"4","last_reported":1744236539,"current_range_meters":18000,"station_id":"ce4bgt12rcd13ifvqcd0","pricing_plan_id":"cebpf4jnsgd1na2vs0mg"},{"bike_id":"253d8f55-13d7-4b6e-9758-326c99ac425c","system_id":"levelo_inurba_marseille","lat":43.24663,"lon":5.38166,"is_reserved":false,"is_disabled":false,"rental_uris":{"android":"levelo://app?vid=253d8f55-13d7-4b6e-9758-326c99ac425c","ios":"levelo://app?vid=253d8f55-13d7-4b6e-9758-326c99ac425c"},"vehicle_type_id":"4","last_reported":1744236539,"current_range_meters":18000,"station_id":"ce4bhih2rcd13ifvqfr0","pricing_plan_id":"cebpf4jnsgd1na2vs0mg"},{"bike_id":"231aaa88-1e79-4a74-a543-651d8fd5a027","system_id":"levelo_inurba_marseille","lat":43.33084,"lon":5.40513,"is_reserved":false,"is_disabled":false,"rental_uris":{"android":"levelo://app?vid=231aaa88-1e79-4a74-a543-651d8fd5a027","ios":"levelo://app?vid=231aaa88-1e79-4a74-a543-651d8fd5a027"},"vehicle_type_id":"4","last_reported":1744236539,"current_range_meters":18000,"station_id":"","pricing_plan_id":"cebpf4jnsgd1na2vs0mg"},{"bike_id":"4f510143-d367-4bdb-be1d-1e4f7b307eb7","system_id":"levelo_inurba_marseille","lat":43.33605,"lon":5.41007,"is_reserved":false,"is_disabled":false,"rental_uris":{"android":"levelo://app?vid=4f510143-d367-4bdb-be1d-1e4f7b307eb7","ios":"levelo://app?vid=4f510143-d367-4bdb-be1d-1e4f7b307eb7"},"vehicle_type_id":"4","last_reported":1744236539,"current_range_meters":18000,"station_id":"ce4bhqh2rcd13ifvqhmg","pricing_plan_id":"cebpf4jnsgd1na2vs0mg"},{"bike_id":"2b54a496-5bb2-42c4-bb01-6f1e5c2215a7","system_id":"levelo_inurba_marseille","lat":43.3079,"lon":5.37698,"is_reserved":false,"is_disabled":true,"rental_uris":{"android":"levelo://app?vid=2b54a496-5bb2-42c4-bb01-6f1e5c2215a7","ios":"levelo://app?vid=2b54a496-5bb2-42c4-bb01-6f1e5c2215a7"},"vehicle_type_id":"4","last_reported":1744236539,"current_range_meters":18000,"station_id":"ce4bgv92rcd13ifvqcq0","pricing_plan_id":"cebpf4jnsgd1na2vs0mg"},{"bike_id":"08f82835-b995-4df7-ab9c-d25b83c6d19a","system_id":"levelo_inurba_marseille","lat":43.28847,"lon":5.39335,"is_reserved":false,"is_disabled":false,"rental_uris":{"android":"levelo://app?vid=08f82835-b995-4df7-ab9c-d25b83c6d19a","ios":"levelo://app?vid=08f82835-b995-4df7-ab9c-d25b83c6d19a"},"vehicle_type_id":"4","last_reported":1744236539,"current_range_meters":18000,"station_id":"ce4bh2p2rcd13ifvqdi0","pricing_plan_id":"cebpf4jnsgd1na2vs0mg"},{"bike_id":"e4c4571d-16b2-4eac-9eff-e8ab59a81972","system_id":"levelo_inurba_marseille","lat":43.29031,"lon":5.40001,"is_reserved":false,"is_disabled":false,"rental_uris":{"android":"levelo://app?vid=e4c4571d-16b2-4eac-9eff-e8ab59a81972","ios":"levelo://app?vid=e4c4571d-16b2-4eac-9eff-e8ab59a81972"},"vehicle_type_id":"4","last_reported":1744236539,"current_range_meters":18000,"station_id":"ce4bh392rcd13ifvqdm0","pricing_plan_id":"cebpf4jnsgd1na2vs0mg"},{"bike_id":"86c831ba-15d4-49e4-9ea1-51f53c0d1de1","system_id":"levelo_inurba_marseille","lat":43.30252,"lon":5.40062,"is_reserved":false,"is_disabled":false,"rental_uris":{"android":"levelo://app?vid=86c831ba-15d4-49e4-9ea1-51f53c0d1de1","ios":"levelo://app?vid=86c831ba-15d4-49e4-9ea1-51f53c0d1de1"},"vehicle_type_id":"4","last_reported":1744236539,"current_range_meters":18000,"station_id":"ce4bgvh2rcd13ifvqcs0","pricing_plan_id":"cebpf4jnsgd1na2vs0mg"},{"bike_id":"884e6334-b043-464c-8456-24ffa90768b5","system_id":"levelo_inurba_marseille","lat":43.30795,"lon":5.38152,"is_reserved":false,"is_disabled":false,"rental_uris":{"android":"levelo://app?vid=884e6334-b043-464c-8456-24ffa90768b5","ios":"levelo://app?vid=884e6334-b043-464c-8456-24ffa90768b5"},"vehicle_type_id":"4","last_reported":1744236539,"current_range_meters":18800,"station_id":"ce4bgt12rcd13ifvqce0","pricing_plan_id":"cebpf4jnsgd1na2vs0mg"},{"bike_id":"26f7a754-056d-4eec-b151-841ac0152c08","system_id":"levelo_inurba_marseille","lat":43.31994,"lon":5.38164,"is_reserved":false,"is_disabled":false,"rental_uris":{"android":"levelo://app?vid=26f7a754-056d-4eec-b151-841ac0152c08","ios":"levelo://app?vid=26f7a754-056d-4eec-b151-841ac0152c08"},"vehicle_type_id":"4","last_reported":1744236539,"current_range_meters":18800,"station_id":"ce4bhr12rcd13ifvqhpg","pricing_plan_id":"cebpf4jnsgd1na2vs0mg"},{"bike_id":"af7d8f45-7d00-4afb-81f2-848d88087492","system_id":"levelo_inurba_marseille","lat":43.30302,"lon":5.39213,"is_reserved":false,"is_disabled":false,"rental_uris":{"android":"levelo://app?vid=af7d8f45-7d00-4afb-81f2-848d88087492","ios":"levelo://app?vid=af7d8f45-7d00-4afb-81f2-848d88087492"},"vehicle_type_id":"4","last_reported":1744236539,"current_range_meters":18800,"station_id":"ce4bgkh2rcd13ifvqbk0","pricing_plan_id":"cebpf4jnsgd1na2vs0mg"},{"bike_id":"2db062fe-2ccd-450d-85dd-3c77819ba37a","system_id":"levelo_inurba_marseille","lat":43.28966,"lon":5.36672,"is_reserved":false,"is_disabled":true,"rental_uris":{"android":"levelo://app?vid=2db062fe-2ccd-450d-85dd-3c77819ba37a","ios":"levelo://app?vid=2db062fe-2ccd-450d-85dd-3c77819ba37a"},"vehicle_type_id":"4","last_reported":1744236539,"current_range_meters":18800,"station_id":"","pricing_plan_id":"cebpf4jnsgd1na2vs0mg"},{"bike_id":"61608a79-afc5-4575-8424-01a09cb9cfdd","system_id":"levelo_inurba_marseille","lat":43.28357,"lon":5.38104,"is_reserved":false,"is_disabled":false,"rental_uris":{"android":"levelo://app?vid=61608a79-afc5-4575-8424-01a09cb9cfdd","ios":"levelo://app?vid=61608a79-afc5-4575-8424-01a09cb9cfdd"},"vehicle_type_id":"4","last_reported":1744236539,"current_range_meters":18800,"station_id":"ce4bh412rcd13ifvqdr0","pricing_plan_id":"cebpf4jnsgd1na2vs0mg"},{"bike_id":"2648bfc7-c104-4917-b690-98196c8ef3ac","system_id":"levelo_inurba_marseille","lat":43.29866,"lon":5.39739,"is_reserved":false,"is_disabled":false,"rental_uris":{"android":"levelo://app?vid=2648bfc7-c104-4917-b690-98196c8ef3ac","ios":"levelo://app?vid=2648bfc7-c104-4917-b690-98196c8ef3ac"},"vehicle_type_id":"4","last_reported":1744236539,"current_range_meters":18800,"station_id":"ce4bh0h2rcd13ifvqd50","pricing_plan_id":"cebpf4jnsgd1na2vs0mg"},{"bike_id":"7ed33375-75c9-470f-ab7f-38c248977e18","system_id":"levelo_inurba_marseille","lat":43.28569,"lon":5.39496,"is_reserved":false,"is_disabled":false,"rental_uris":{"android":"levelo://app?vid=7ed33375-75c9-470f-ab7f-38c248977e18","ios":"levelo://app?vid=7ed33375-75c9-470f-ab7f-38c248977e18"},"vehicle_type_id":"4","last_reported":1744236539,"current_range_meters":18800,"station_id":"ce4bh292rcd13ifvqdg0","pricing_plan_id":"cebpf4jnsgd1na2vs0mg"},{"bike_id":"aaaa2fd4-0dd1-4114-8348-e20d4d1310de","system_id":"levelo_inurba_marseille","lat":43.3053,"lon":5.38439,"is_reserved":false,"is_disabled":false,"rental_uris":{"android":"levelo://app?vid=aaaa2fd4-0dd1-4114-8348-e20d4d1310de","ios":"levelo://app?vid=aaaa2fd4-0dd1-4114-8348-e20d4d1310de"},"vehicle_type_id":"4","last_reported":1744236539,"current_range_meters":19200,"station_id":"ce4bgg92rcd13ifvqb30","pricing_plan_id":"cebpf4jnsgd1na2vs0mg"},