{"last_updated":1701087211,"ttl":30,"version":"2.2","data":{"bikes":[{"bike_id":"5d884c0a-f441-4caa-800e-f8eec27a6b22","system_id":"levelo_inurba_marseille","lat":43.31327,"lon":5.36733,"is_reserved":false,"is_disabled":false,"rental_uris":{"android":"levelo://app?vid=5d884c0a-f441-4caa-800e-f8eec27a6b22","ios":"levelo://app?vid=5d884c0a-f441-4caa-800e-f8eec27a6b22"},"vehicle_type_id":"4","last_reported":1701087211,"current_range_meters":20000,"station_id":"ce4bgr92rcd13ifvqc6g","pricing_plan_id":"free"},{"bike_id":"7b0767c3-29e3-4916-81cd-c553e7750797","system_id":"levelo_inurba_marseille","lat":43.31341,"lon":5.367098,"is_reserved":false,"is_disabled":false,"rental_uris":{"android":"levelo://app?vid=7b0767c3-29e3-4916-81cd-c553e7750797","ios":"levelo://app?vid=7b0767c3-29e3-4916-81cd-c553e7750797"},"vehicle_type_id":"4","last_reported":1701087211,"current_range_meters":22000,"station_id":"ce4bgr92rcd13ifvqc6g","pricing_plan_id":"free"},{"bike_id":"dbd22c5b-f318-460a-95cd-c007a476a760","system_id":"levelo_inurba_marseille","lat":43.31341,"lon":5.367098,"is_reserved":false,"is_disabled":false,"rental_uris":{"android":"levelo://app?vid=dbd22c5b-f318-460a-95cd-c007a476a760","ios":"levelo://app?vid=dbd22c5b-f318-460a-95cd-c007a476a760"},"vehicle_type_id":"4","last_reported":1701087211,"current_range_meters":28400,"station_id":"ce4bgr92rcd13ifvqc6g","pricing_plan_id":"free"},{"bike_id":"1e80ff6f-214d-452e-a1df-88c480549762","system_id":"levelo_inurba_marseille","lat":43.313391,"lon":5.36706,"is_reserved":false,"is_disabled":false,"rental_uris":{"android":"levelo://app?vid=1e80ff6f-214d-452e-a1df-88c480549762","ios":"levelo://app?vid=1e80ff6f-214d-452e-a1df-88c480549762"},"vehicle_type_id":"4","last_reported":1701087211,"current_range_meters":31600,"station_id":"ce4bgr92rcd13ifvqc6g","pricing_plan_id":"free"},{"bike_id":"f79e56b7-07fc-4cbb-8c5f-1219abdbaaa0","system_id":"levelo_inurba_marseille","lat":43.31341,"lon":5.367098,"is_reserved":false,"is_disabled":false,"rental_uris":{"android":"levelo://app?vid=f79e56b7-07fc-4cbb-8c5f-1219abdbaaa0","ios":"levelo://app?vid=f79e56b7-07fc-4cbb-8c5f-1219abdbaaa0"},"vehicle_type_id":"4","last_reported":1701087211,"current_range_meters":14000,"station_id":"ce4bgr92rcd13ifvqc6g","pricing_plan_id":"free"},{"bike_id":"8d7fd8e2-e915-4a9b-ac22-a9a9c8c23e6d","system_id":"levelo_inurba_marseille","lat":43.31341,"lon":5.367098,"is_reserved":false,"is_disabled":false,"rental_uris":{"android":"levelo://app?vid=8d7fd8e2-e915-4a9b-ac22-a9a9c8c23e6d","ios":"levelo://app?vid=8d7fd8e2-e915-4a9b-ac22-a9a9c8c23e6d"},"vehicle_type_id":"4","last_reported":1701087211,"current_range_meters":26800,"station_id":"ce4bgr92rcd13ifvqc6g","pricing_plan_id":"free"},{"bike_id":"0e07f4dc-f05c-4a47-a7fc-9cf5a2bc7aff","system_id":"levelo_inurba_marseille","lat":43.31341,"lon":5.367098,"is_reserved":false,"is_disabled":false,"rental_uris":{"android":"levelo://app?vid=0e07f4dc-f05c-4a47-a7fc-9cf5a2bc7aff","ios":"levelo://app?vid=0e07f4dc-f05c-4a47-a7fc-9cf5a2bc7aff"},"vehicle_type_id":"4","last_reported":1701087211,"current_range_meters":31200,"station_id":"ce4bgr92rcd13ifvqc6g","pricing_plan_id":"free"},{"bike_id":"d91cb1a5-9e69-484c-aa49-7e1232aa7a8e","system_id":"levelo_inurba_marseille","lat":43.31341,"lon":5.367098,"is_reserved":false,"is_disabled":false,"rental_uris":{"android":"levelo://app?vid=d91cb1a5-9e69-484c-aa49-7e1232aa7a8e","ios":"levelo://app?vid=d91cb1a5-9e69-484c-aa49-7e1232aa7a8e"},"vehicle_type_id":"4","last_reported":1701087211,"current_range_meters":3600,"station_id":"ce4bgr92rcd13ifvqc6g","pricing_plan_id":"free"},{"bike_id":"6d6fe16b-8fcd-4dda-95b2-f6e72b00fabb","system_id":"levelo_inurba_marseille","lat":43.313391,"lon":5.36706,"is_reserved":false,"is_disabled":false,"rental_uris":{"android":"levelo://app?vid=6d6fe16b-8fcd-4dda-95b2-f6e72b00fabb","ios":"levelo://app?vid=6d6fe16b-8fcd-4dda-95b2-f6e72b00fabb"},"vehicle_type_id":"4","last_reported":1701087211,"current_range_meters":26800,"station_id":"ce4bgr92rcd13ifvqc6g","pricing_plan_id":"free"},{"bike_id":"196ffaf2-63f9-4e0e-beee-cd70322d6dc7","system_id":"levelo_inurba_marseille","lat":43.31341,"lon":5.367098,"is_reserved":false,"is_disabled":false,"rental_uris":{"android":"levelo://app?vid=196ffaf2-63f9-4e0e-beee-cd70322d6dc7","ios":"levelo://app?vid=196ffaf2-63f9-4e0e-beee-cd70322d6dc7"},"vehicle_type_id":"4","last_reported":1701087211,"current_range_meters":9200,"station_id":"ce4bgr92rcd13ifvqc6g","pricing_plan_id":"free"},{"bike_id":"df7f1710-213d-4be5-86a8-93f4a5b41e94","system_id":"levelo_inurba_marseille","lat":43.312239,"lon":5.368562,"is_reserved":false,"is_disabled":false,"rental_uris":{"android":"levelo://app?vid=df7f1710-213d-4be5-86a8-93f4a5b41e94","ios":"levelo://app?vid=df7f1710-213d-4be5-86a8-93f4a5b41e94"},"vehicle_type_id":"4","last_reported":1701087211,"current_range_meters":31200,"station_id":"ce4bgl92rcd13ifvqbq0","pricing_plan_id":"free"},{"bike_id":"e4021f08-78a1-4f0e-9e1e-43e289936551","system_id":"levelo_inurba_marseille","lat":43.312239,"lon":5.368562,"is_reserved":false,"is_disabled":false,"rental_uris":{"android":"levelo://app?vid=e4021f08-78a1-4f0e-9e1e-43e289936551","ios":"levelo://app?vid=e4021f08-78a1-4f0e-9e1e-43e289936551"},"vehicle_type_id":"4","last_reported":1701087211,"current_range_meters":7600,"station_id":"ce4bgl92rcd13ifvqbq0","pricing_plan_id":"free"},{"bike_id":"e627dfde-acbe-4c06-9bf7-27e07c1460dc","system_id":"levelo_inurba_marseille","lat":43.312239,"lon":5.368562,"is_reserved":false,"is_disabled":false,"rental_uris":{"android":"levelo://app?vid=e627dfde-acbe-4c06-9bf7-27e07c1460dc","ios":"levelo://app?vid=e627dfde-acbe-4c06-9bf7-27e07c1460dc"},"vehicle_type_id":"4","last_reported":1701087211,"current_range_meters":22800,"station_id":"ce4bgl92rcd13ifvqbq0","pricing_plan_id":"free"},{"bike_id":"12ba8f6d-2b00-46a4-b742-3c11d58ec4b2","system_id":"levelo_inurba_marseille","lat":43.312239,"lon":5.368562,"is_reserved":false,"is_disabled":false,"rental_uris":{"android":"levelo://app?vid=12ba8f6d-2b00-46a4-b742-3c11d58ec4b2","ios":"levelo://app?vid=12ba8f6d-2b00-46a4-b742-3c11d58ec4b2"},"vehicle_type_id":"4","last_reported":1701087211,"current_range_meters":28000,"station_id":"ce4bgl92rcd13ifvqbq0","pricing_plan_id":"free"},{"bike_id":"ab2b6362-992a-4bf3-82a1-9d4fb97a4f03","system_id":"levelo_inurba_marseille","lat":43.312239,"lon":5.368562,"is_reserved":false,"is_disabled":false,"rental_uris":{"android":"levelo://app?vid=ab2b6362-992a-4bf3-82a1-9d4fb97a4f03","ios":"levelo://app?vid=ab2b6362-992a-4bf3-82a1-9d4fb97a4f03"},"vehicle_type_id":"4","last_reported":1701087211,"current_range_meters":23200,"station_id":"ce4bgl92rcd13ifvqbq0","pricing_plan_id":"free"},{"bike_id":"c0bb7f49-ff87-427d-b841-623849910a14","system_id":"levelo_inurba_marseille","lat":43.309076,"lon":5.368465,"is_reserved":false,"is_disabled":false,"rental_uris":{"android":"levelo://app?vid=c0bb7f49-ff87-427d-b841-623849910a14","ios":"levelo://app?vid=c0bb7f49-ff87-427d-b841-623849910a14"},"vehicle_type_id":"4","last_reported":1701087211,"current_range_meters":26800,"station_id":"ce4bgn92rcd13ifvqbvg","pricing_plan_id":"free"},{"bike_id":"54ce28ec-2d07-4e52-bd8c-cf4d4d2a95ee","system_id":"levelo_inurba_marseille","lat":43.309039,"lon":5.371797,"is_reserved":false,"is_disabled":false,"rental_uris":{"android":"levelo://app?vid=54ce28ec-2d07-4e52-bd8c-cf4d4d2a95ee","ios":"levelo://app?vid=54ce28ec-2d07-4e52-bd8c-cf4d4d2a95ee"},"vehicle_type_id":"4","last_reported":1701087211,"current_range_meters":27600,"station_id":"ce4bguh2rcd13ifvqckg","pricing_plan_id":"free"},{"bike_id":"6292caee-ac3d-4301-be64-328d300728e3","system_id":"levelo_inurba_marseille","lat":43.309039,"lon":5.371797,"is_reserved":false,"is_disabled":false,"rental_uris":{"android":"levelo://app?vid=6292caee-ac3d-4301-be64-328d300728e3","ios":"levelo://app?vid=6292caee-ac3d-4301-be64-328d300728e3"},"vehicle_type_id":"4","last_reported":1701087211,"current_range_meters":30400,"station_id":"ce4bguh2rcd13ifvqckg","pricing_plan_id":"free"},{"bike_id":"fa4c08a8-f79b-4419-8791-02374ece74c7","system_id":"levelo_inurba_marseille","lat":43.316928,"lon":5.37271,"is_reserved":false,"is_disabled":false,"rental_uris":{"android":"levelo://app?vid=fa4c08a8-f79b-4419-8791-02374ece74c7","ios":"levelo://app?vid=fa4c08a8-f79b-4419-8791-02374ece74c7"},"vehicle_type_id":"4","last_reported":1701087211,"current_range_meters":6000,"station_id":"","pricing_plan_id":"free"},{"bike_id":"58fa7a2c-3aca-437c-bc95-2a2d30e62ebf","system_id":"levelo_inurba_marseille","lat":43.305982,"lon":5.365673,"is_reserved":false,"is_disabled":false,"rental_uris":{"android":"levelo://app?vid=58fa7a2c-3aca-437c-bc95-2a2d30e62ebf","ios":"levelo://app?vid=58fa7a2c-3aca-437c-bc95-2a2d30e62ebf"},"vehicle_type_id":"4","last_reported":1701087211,"current_range_meters":0,"station_id":"ce4bgs12rcd13ifvqcag","pricing_plan_id":"free"},{"bike_id":"6f6ddc25-881d-4c96-a9ee-08387d8994a1","system_id":"levelo_inurba_marseille","lat":43.305989,"lon":5.37225,"is_reserved":false,"is_disabled":false,"rental_uris":{"android":"levelo://app?vid=6f6ddc25-881d-4c96-a9ee-08387d8994a1","ios":"levelo://app?vid=6f6ddc25-881d-4c96-a9ee-08387d8994a1"},"vehicle_type_id":"4","last_reported":1701087211,"current_range_meters":9600,"station_id":"ce4bgqh2rcd13ifvqc4g","pricing_plan_id":"free"},{"bike_id":"ee142fe7-d5ca-40a1-96e7-58116bea4716","system_id":"levelo_inurba_marseille","lat":43.30537,"lon":5.367345,"is_reserved":false,"is_disabled":false,"rental_uris":{"android":"levelo://app?vid=ee142fe7-d5ca-40a1-96e7-58116bea4716","ios":"levelo://app?vid=ee142fe7-d5ca-40a1-96e7-58116bea4716"},"vehicle_type_id":"4","last_reported":1701087211,"current_range_meters":23200,"station_id":"ce4bgrp2rcd13ifvqc9g","pricing_plan_id":"free"},{"bike_id":"1c8b667d-3f74-4307-ad41-8e61e63a63f7","system_id":"levelo_inurba_marseille","lat":43.30542,"lon":5.36698,"is_reserved":false,"is_disabled":false,"rental_uris":{"android":"levelo://app?vid=1c8b667d-3f74-4307-ad41-8e61e63a63f7","ios":"levelo://app?vid=1c8b667d-3f74-4307-ad41-8e61e63a63f7"},"vehicle_type_id":"4","last_reported":1701087211,"current_range_meters":21200,"station_id":"ce4bgrp2rcd13ifvqc9g","pricing_plan_id":"free"},{"bike_id":"3cc04dc7-b0c4-4e0a-9ca2-57d56355ed10","system_id":"levelo_inurba_marseille","lat":43.305368,"lon":5.367343,"is_reserved":false,"is_disabled":false,"rental_uris":{"android":"levelo://app?vid=3cc04dc7-b0c4-4e0a-9ca2-57d56355ed10","ios":"levelo://app?vid=3cc04dc7-b0c4-4e0a-9ca2-57d56355ed10"},"vehicle_type_id":"4","last_reported":1701087211,"current_range_meters":12000,"station_id":"ce4bgrp2rcd13ifvqc9g","pricing_plan_id":"free"},{"bike_id":"a7e7b01c-cece-48de-97be-e5c04ce16e86","system_id":"levelo_inurba_marseille","lat":43.305338,"lon":5.365258,"is_reserved":false,"is_disabled":false,"rental_uris":{"android":"levelo://app?vid=a7e7b01c-cece-48de-97be-e5c04ce16e86","ios":"levelo://app?vid=a7e7b01c-cece-48de-97be-e5c04ce16e86"},"vehicle_type_id":"4","last_reported":1701087211,"current_range_meters":21200,"station_id":"ce4bgs12rcd13ifvqcag","pricing_plan_id":"free"},{"bike_id":"e986844b-901f-45bc-ad75-e081ca31eb3c","system_id":"levelo_inurba_marseille","lat":43.305714,"lon":5.365633,"is_reserved":false,"is_disabled":false,"rental_uris":{"android":"levelo://app?vid=e986844b-901f-45bc-ad75-e081ca31eb3c","ios":"levelo://app?vid=e986844b-901f-45bc-ad75-e081ca31eb3c"},"vehicle_type_id":"4","last_reported":1701087211,"current_range_meters":31200,"station_id":"ce4bgs12rcd13ifvqcag","pricing_plan_id":"free"},{"bike_id":"9d01288a-b778-4e24-9b58-220029914c9c","system_id":"levelo_inurba_marseille","lat":43.305706,"lon":5.365654,"is_reserved":false,"is_disabled":false,"rental_uris":{"android":"levelo://app?vid=9d01288a-b778-4e24-9b58-220029914c9c","ios":"levelo://app?vid=9d01288a-b778-4e24-9b58-220029914c9c"},"vehicle_type_id":"4","last_reported":1701087211,"current_range_meters":30800,"station_id":"ce4bgs12rcd13ifvqcag","pricing_plan_id":"free"},{"bike_id":"a178d0dc-f1a4-44e9-a3a5-7b90431c6dd4","system_id":"levelo_inurba_marseille","lat":43.306048,"lon":5.372199,"is_reserved":false,"is_disabled":false,"rental_uris":{"android":"levelo://app?vid=a178d0dc-f1a4-44e9-a3a5-7b90431c6dd4","ios":"levelo://app?vid=a178d0dc-f1a4-44e9-a3a5-7b90431c6dd4"},"vehicle_type_id":"4","last_reported":1701087211,"current_range_meters":0,"station_id":"ce4bgqh2rcd13ifvqc4g","pricing_plan_id":"free"},{"bike_id":"7dd913d5-247a-47a1-87a8-7d9f43c0b910","system_id":"levelo_inurba_marseille","lat":43.305989,"lon":5.37225,"is_reserved":false,"is_disabled":false,"rental_uris":{"android":"levelo://app?vid=7dd913d5-247a-47a1-87a8-7d9f43c0b910","ios":"levelo://app?vid=7dd913d5-247a-47a1-87a8-7d9f43c0b910"},"vehicle_type_id":"4","last_reported":1701087211,"current_range_meters":22000,"station_id":"ce4bgqh2rcd13ifvqc4g","pricing_plan_id":"free"},{"bike_id":"46ce9868-7283-4625-8e8c-243d89ef0708","system_id":"levelo_inurba_marseille","lat":43.305989,"lon":5.37225,"is_reserved":false,"is_disabled":false,"rental_uris":{"android":"levelo://app?vid=46ce9868-7283-4625-8e8c-243d89ef0708","ios":"levelo://app?vid=46ce9868-7283-4625-8e8c-243d89ef0708"},"vehicle_type_id":"4","last_reported":1701087211,"current_range_meters":11600,"station_id":"ce4bgqh2rcd13ifvqc4g","pricing_plan_id":"free"},{"bike_id":"d75f62b0-1199-4432-8560-f03106fd3b8e","system_id":"levelo_inurba_marseille","lat":43.31109,"lon":5.37773,"is_reserved":false,"is_disabled":false,"rental_uris":{"android":"levelo://app?vid=d75f62b0-1199-4432-8560-f03106fd3b8e","ios":"levelo://app?vid=d75f62b0-1199-4432-8560-f03106fd3b8e"},"vehicle_type_id":"4","last_reported":1701087211,"current_range_meters":4800,"station_id":"ce4bgt92rcd13ifvqcg0","pricing_plan_id":"free"},{"bike_id":"f427a2c3-6e4a-446b-ae2f-9be8aa7f4122","system_id":"levelo_inurba_marseille","lat":43.31719,"lon":5.376813,"is_reserved":false,"is_disabled":false,"rental_uris":{"android":"levelo://app?vid=f427a2c3-6e4a-446b-ae2f-9be8aa7f4122","ios":"levelo://app?vid=f427a2c3-6e4a-446b-ae2f-9be8aa7f4122"},"vehicle_type_id":"4","last_reported":1701087211,"current_range_meters":17200,"station_id":"ce4bgth2rcd13ifvqch0","pricing_plan_id":"free"},{"bike_id":"0525c228-cd5d-40c2-ac67-edd6915961b7","system_id":"levelo_inurba_marseille","lat":43.30808,"lon":5.376653,"is_reserved":false,"is_disabled":false,"rental_uris":{"android":"levelo://app?vid=0525c228-cd5d-40c2-ac67-edd6915961b7","ios":"levelo://app?vid=0525c228-cd5d-40c2-ac67-edd6915961b7"},"vehicle_type_id":"4","last_reported":1701087211,"current_range_meters":6000,"station_id":"ce4bgv92rcd13ifvqcq0","pricing_plan_id":"free"},{"bike_id":"e913f328-1e31-4c22-bd87-f809ea246de4","system_id":"levelo_inurba_marseille","lat":43.317168,"lon":5.376883,"is_reserved":false,"is_disabled":false,"rental_uris":{"android":"levelo://app?vid=e913f328-1e31-4c22-bd87-f809ea246de4","ios":"levelo://app?vid=e913f328-1e31-4c22-bd87-f809ea246de4"},"vehicle_type_id":"4","last_reported":1701087211,"current_range_meters":19600,"station_id":"ce4bgth2rcd13ifvqch0","pricing_plan_id":"free"},{"bike_id":"734eff54-6a9a-4785-af21-5acc276e05e5","system_id":"levelo_inurba_marseille","lat":43.307945,"lon":5.376487,"is_reserved":false,"is_disabled":false,"rental_uris":{"android":"levelo://app?vid=734eff54-6a9a-4785-af21-5acc276e05e5","ios":"levelo://app?vid=734eff54-6a9a-4785-af21-5acc276e05e5"},"vehicle_type_id":"4","last_reported":1701087211,"current_range_meters":15600,"station_id":"ce4bgv92rcd13ifvqcq0","pricing_plan_id":"free"},{"bike_id":"4960cd84-5f51-4fcb-bf4f-043f77c0faa0","system_id":"levelo_inurba_marseille","lat":43.3124,"lon":5.37873,"is_reserved":false,"is_disabled":false,"rental_uris":{"android":"levelo://app?vid=4960cd84-5f51-4fcb-bf4f-043f77c0faa0","ios":"levelo://app?vid=4960cd84-5f51-4fcb-bf4f-043f77c0faa0"},"vehicle_type_id":"4","last_reported":1701087211,"current_range_meters":13600,"station_id":"","pricing_plan_id":"free"},{"bike_id":"74c3a056-4130-43a4-99aa-9d247578a852","system_id":"levelo_inurba_marseille","lat":43.317075,"lon":5.377367,"is_reserved":false,"is_disabled":false,"rental_uris":{"android":"levelo://app?vid=74c3a056-4130-43a4-99aa-9d247578a852","ios":"levelo://app?vid=74c3a056-4130-43a4-99aa-9d247578a852"},"vehicle_type_id":"4","last_reported":1701087211,"current_range_meters":23600,"station_id":"ce4bgth2rcd13ifvqch0","pricing_plan_id":"free"},{"bike_id":"c0bacf34-d3f8-482d-b85b-8ae42bd81fd7","system_id":"levelo_inurba_marseille","lat":43.303046,"lon":5.368981,"is_reserved":false,"is_disabled":false,"rental_uris":{"android":"levelo://app?vid=c0bacf34-d3f8-482d-b85b-8ae42bd81fd7","ios":"levelo://app?vid=c0bacf34-d3f8-482d-b85b-8ae42bd81fd7"},"vehicle_type_id":"4","last_reported":1701087211,"current_range_meters":20800,"station_id":"ce4bgqh2rcd13ifvqc5g","pricing_plan_id":"free"},{"bike_id":"e10169b2-c9ac-4a64-8f5a-e5b9f660dd10","system_id":"levelo_inurba_marseille","lat":43.301939,"lon":5.366286,"is_reserved":false,"is_disabled":false,"rental_uris":{"android":"levelo://app?vid=e10169b2-c9ac-4a64-8f5a-e5b9f660dd10","ios":"levelo://app?vid=e10169b2-c9ac-4a64-8f5a-e5b9f660dd10"},"vehicle_type_id":"4","last_reported":1701087211,"current_range_meters":25600,"station_id":"ce4bgrh2rcd13ifvqc8g","pricing_plan_id":"free"},{"bike_id":"3ddee3f0-4247-4ce3-9b6e-c595b5568efd","system_id":"levelo_inurba_marseille","lat":43.301939,"lon":5.366286,"is_reserved":false,"is_disabled":false,"rental_uris":{"android":"levelo://app?vid=3ddee3f0-4247-4ce3-9b6e-c595b5568efd","ios":"levelo://app?vid=3ddee3f0-4247-4ce3-9b6e-c595b5568efd"},"vehicle_type_id":"4","last_reported":1701087211,"current_range_meters":24400,"station_id":"ce4bgrh2rcd13ifvqc8g","pricing_plan_id":"free"},{"bike_id":"a2640757-3556-4823-b544-ee70793987d8","system_id":"levelo_inurba_marseille","lat":43.308012,"lon":5.381511,"is_reserved":false,"is_disabled":false,"rental_uris":{"android":"levelo://app?vid=a2640757-3556-4823-b544-ee70793987d8","ios":"levelo://app?vid=a2640757-3556-4823-b544-ee70793987d8"},"vehicle_type_id":"4","last_reported":1701087211,"current_range_meters":1600,"station_id":"ce4bgt12rcd13ifvqce0","pricing_plan_id":"free"},{"bike_id":"d28484af-5868-41aa-aa46-47f690daf5ca","system_id":"levelo_inurba_marseille","lat":43.304606,"lon":5.379026,"is_reserved":false,"is_disabled":false,"rental_uris":{"android":"levelo://app?vid=d28484af-5868-41aa-aa46-47f690daf5ca","ios":"levelo://app?vid=d28484af-5868-41aa-aa46-47f690daf5ca"},"vehicle_type_id":"4","last_reported":1701087211,"current_range_meters":21200,"station_id":"ce4bgup2rcd13ifvqcn0","pricing_plan_id":"free"},{"bike_id":"f0becc37-9fae-4db9-a39b-8a61d342abf6","system_id":"levelo_inurba_marseille","lat":43.304606,"lon":5.379026,"is_reserved":false,"is_disabled":false,"rental_uris":{"android":"levelo://app?vid=f0becc37-9fae-4db9-a39b-8a61d342abf6","ios":"levelo://app?vid=f0becc37-9fae-4db9-a39b-8a61d342abf6"},"vehicle_type_id":"4","last_reported":1701087211,"current_range_meters":23200,"station_id":"ce4bgup2rcd13ifvqcn0","pricing_plan_id":"free"},{"bike_id":"83c01ea3-1a20-4a6f-944b-833be987b804","system_id":"levelo_inurba_marseille","lat":43.30553,"lon":5.38078,"is_reserved":false,"is_disabled":false,"rental_uris":{"android":"levelo://app?vid=83c01ea3-1a20-4a6f-944b-833be987b804","ios":"levelo://app?vid=83c01ea3-1a20-4a6f-944b-833be987b804"},"vehicle_type_id":"4","last_reported":1701087211,"current_range_meters":0,"station_id":"","pricing_plan_id":"free"},{"bike_id":"d14dee97-42b8-4310-99e2-0b702cd1ca64","system_id":"levelo_inurba_marseille","lat":43.302784,"lon":5.377158,"is_reserved":false,"is_disabled":false,"rental_uris":{"android":"levelo://app?vid=d14dee97-42b8-4310-99e2-0b702cd1ca64","ios":"levelo://app?vid=d14dee97-42b8-4310-99e2-0b702cd1ca64"},"vehicle_type_id":"4","last_reported":1701087211,"current_range_meters":14000,"station_id":"ce4bguh2rcd13ifvqcj0","pricing_plan_id":"free"},{"bike_id":"eb502bdf-2709-427a-96f9-0ee4c3f2fb9e","system_id":"levelo_inurba_marseille","lat":43.319935,"lon":5.381699,"is_reserved":false,"is_disabled":false,"rental_uris":{"android":"levelo://app?vid=eb502bdf-2709-427a-96f9-0ee4c3f2fb9e","ios":"levelo://app?vid=eb502bdf-2709-427a-96f9-0ee4c3f2fb9e"},"vehicle_type_id":"4","last_reported":1701087211,"current_range_meters":10000,"station_id":"ce4bhr12rcd13ifvqhpg","pricing_plan_id":"free"},{"bike_id":"2816042e-4bb5-4a37-a09b-6c9a8754e7ec","system_id":"levelo_inurba_marseille","lat":43.305364,"lon":5.384119,"is_reserved":false,"is_disabled":false,"rental_uris":{"android":"levelo://app?vid=2816042e-4bb5-4a37-a09b-6c9a8754e7ec","ios":"levelo://app?vid=2816042e-4bb5-4a37-a09b-6c9a8754e7ec"},"vehicle_type_id":"4","last_reported":1701087211,"current_range_meters":24000,"station_id":"ce4bgg92rcd13ifvqb30","pricing_plan_id":"free"},{"bike_id":"203f5ba8-0e89-4784-aa27-b78132f1046a","system_id":"levelo_inurba_marseille","lat":43.298433,"lon":5.362774,"is_reserved":false,"is_disabled":false,"rental_uris":{"android":"levelo://app?vid=203f5ba8-0e89-4784-aa27-b78132f1046a","ios":"levelo://app?vid=203f5ba8-0e89-4784-aa27-b78132f1046a"},"vehicle_type_id":"4","last_reported":1701087211,"current_range_meters":29200,"station_id":"ce4bgpp2rcd13ifvqc3g","pricing_plan_id":"free"},{"bike_id":"f5a04daa-ddbf-40c5-9ac8-c8febd7e3518","system_id":"levelo_inurba_marseille","lat":43.29847,"lon":5.36276,"is_reserved":false,"is_disabled":false,"rental_uris":{"android":"levelo://app?vid=f5a04daa-ddbf-40c5-9ac8-c8febd7e3518","ios":"levelo://app?vid=f5a04daa-ddbf-40c5-9ac8-c8febd7e3518"},"vehicle_type_id":"4","last_reported":1701087211,"current_range_meters":20400,"station_id":"ce4bgpp2rcd13ifvqc3g","pricing_plan_id":"free"},{"bike_id":"984489f8-4f60-44ae-bd10-3b0ce30541c9","system_id":"levelo_inurba_marseille","lat":43.29846,"lon":5.36278,"is_reserved":false,"is_disabled":false,"rental_uris":{"android":"levelo://app?vid=984489f8-4f60-44ae-bd10-3b0ce30541c9","ios":"levelo://app?vid=984489f8-4f60-44ae-bd10-3b0ce30541c9"},"vehicle_type_id":"4","last_reported":1701087211,"current_range_meters":0,"station_id":"ce4bgpp2rcd13ifvqc3g","pricing_plan_id":"free"},{"bike_id":"590c398e-801c-4bf1-b43a-0987e9147a3f","system_id":"levelo_inurba_marseille","lat":43.29846,"lon":5.36273,"is_reserved":false,"is_disabled":false,"rental_uris":{"android":"levelo://app?vid=590c398e-801c-4bf1-b43a-0987e9147a3f","ios":"levelo://app?vid=590c398e-801c-4bf1-b43a-0987e9147a3f"},"vehicle_type_id":"4","last_reported":1701087211,"current_range_meters":8800,"station_id":"ce4bgpp2rcd13ifvqc3g","pricing_plan_id":"free"},{"bike_id":"981224f2-722a-45e4-bb38-22ae7ba6910b","system_id":"levelo_inurba_marseille","lat":43.298433,"lon":5.362774,"is_reserved":false,"is_disabled":false,"rental_uris":{"android":"levelo://app?vid=981224f2-722a-45e4-bb38-22ae7ba6910b","ios":"levelo://app?vid=981224f2-722a-45e4-bb38-22ae7ba6910b"},"vehicle_type_id":"4","last_reported":1701087211,"current_range_meters":27600,"station_id":"ce4bgpp2rcd13ifvqc3g","pricing_plan_id":"free"},{"bike_id":"7bcfdb9c-3465-4e79-bea3-5650b1b4f198","system_id":"levelo_inurba_marseille","lat":43.298433,"lon":5.362774,"is_reserved":false,"is_disabled":false,"rental_uris":{"android":"levelo://app?vid=7bcfdb9c-3465-4e79-bea3-5650b1b4f198","ios":"levelo://app?vid=7bcfdb9c-3465-4e79-bea3-5650b1b4f198"},"vehicle_type_id":"4","last_reported":1701087211,"current_range_meters":18000,"station_id":"ce4bgpp2rcd13ifvqc3g","pricing_plan_id":"free"},{"bike_id":"84852f32-25ce-4e6a-bd50-f3562b4b9c9f","system_id":"levelo_inurba_marseille","lat":43.299243,"lon":5.374807,"is_reserved":false,"is_disabled":false,"rental_uris":{"android":"levelo://app?vid=84852f32-25ce-4e6a-bd50-f3562b4b9c9f","ios":"levelo://app?vid=84852f32-25ce-4e6a-bd50-f3562b4b9c9f"},"vehicle_type_id":"4","last_reported":1701087211,"current_range_meters":22400,"station_id":"ce4bgjh2rcd13ifvqbg0","pricing_plan_id":"free"},{"bike_id":"955629bb-4710-4dce-b858-072f9f3acdfa","system_id":"levelo_inurba_marseille","lat":43.2984,"lon":5.36273,"is_reserved":false,"is_disabled":false,"rental_uris":{"android":"levelo://app?vid=955629bb-4710-4dce-b858-072f9f3acdfa","ios":"levelo://app?vid=955629bb-4710-4dce-b858-072f9f3acdfa"},"vehicle_type_id":"4","last_reported":1701087211,"current_range_meters":22000,"station_id":"ce4bgpp2rcd13ifvqc3g","pricing_plan_id":"free"},{"bike_id":"21040ccf-6ae8-42e8-b396-89664140b738","system_id":"levelo_inurba_marseille","lat":43.299243,"lon":5.37481,"is_reserved":false,"is_disabled":false,"rental_uris":{"android":"levelo://app?vid=21040ccf-6ae8-42e8-b396-89664140b738","ios":"levelo://app?vid=21040ccf-6ae8-42e8-b396-89664140b738"},"vehicle_type_id":"4","last_reported":1701087211,"current_range_meters":24800,"station_id":"ce4bgjh2rcd13ifvqbg0","pricing_plan_id":"free"},{"bike_id":"5ab8f1e6-418f-4eec-bc10-30131324bee1","system_id":"levelo_inurba_marseille","lat":43.299052,"lon":5.374657,"is_reserved":false,"is_disabled":false,"rental_uris":{"android":"levelo://app?vid=5ab8f1e6-418f-4eec-bc10-30131324bee1","ios":"levelo://app?vid=5ab8f1e6-418f-4eec-bc10-30131324bee1"},"vehicle_type_id":"4","last_reported":1701087211,"current_range_meters":14000,"station_id":"ce4bgjh2rcd13ifvqbg0","pricing_plan_id":"free"},{"bike_id":"9dfc1be4-40e0-479e-8a23-39504815e756","system_id":"levelo_inurba_marseille","lat":43.322872,"lon":5.382756,"is_reserved":false,"is_disabled":false,"rental_uris":{"android":"levelo://app?vid=9dfc1be4-40e0-479e-8a23-39504815e756","ios":"levelo://app?vid=9dfc1be4-40e0-479e-8a23-39504815e756"},"vehicle_type_id":"4","last_reported":1701087211,"current_range_meters":22000,"station_id":"ce4bhr12rcd13ifvqhqg","pricing_plan_id":"free"},{"bike_id":"9f185ae0-fa90-49d0-9048-ad22764e9346","system_id":"levelo_inurba_marseille","lat":43.297163,"lon":5.365866,"is_reserved":false,"is_disabled":false,"rental_uris":{"android":"levelo://app?vid=9f185ae0-fa90-49d0-9048-ad22764e9346","ios":"levelo://app?vid=9f185ae0-fa90-49d0-9048-ad22764e9346"},"vehicle_type_id":"4","last_reported":1701087211,"current_range_meters":27600,"station_id":"ce4bgn12rcd13ifvqbt0","pricing_plan_id":"free"},{"bike_id":"b8d4f93b-18a6-463c-8a68-9979e47bee93","system_id":"levelo_inurba_marseille","lat":43.297163,"lon":5.365866,"is_reserved":false,"is_disabled":false,"rental_uris":{"android":"levelo://app?vid=b8d4f93b-18a6-463c-8a68-9979e47bee93","ios":"levelo://app?vid=b8d4f93b-18a6-463c-8a68-9979e47bee93"},"vehicle_type_id":"4","last_reported":1701087211,"current_range_meters":22400,"station_id":"ce4bgn12rcd13ifvqbt0","pricing_plan_id":"free"},{"bike_id":"01b710cc-5bf1-48d9-86c0-0c6e8ecdce75","system_id":"levelo_inurba_marseille","lat":43.29573,"lon":5.367355,"is_reserved":false,"is_disabled":false,"rental_uris":{"android":"levelo://app?vid=01b710cc-5bf1-48d9-86c0-0c6e8ecdce75","ios":"levelo://app?vid=01b710cc-5bf1-48d9-86c0-0c6e8ecdce75"},"vehicle_type_id":"4","last_reported":1701087211,"current_range_meters":27200,"station_id":"ce4bgph2rcd13ifvqc2g","pricing_plan_id":"free"},{"bike_id":"92c7f13c-a2c5-47a7-bf14-0ca4c7639102","system_id":"levelo_inurba_marseille","lat":43.29573,"lon":5.367355,"is_reserved":false,"is_disabled":false,"rental_uris":{"android":"levelo://app?vid=92c7f13c-a2c5-47a7-bf14-0ca4c7639102","ios":"levelo://app?vid=92c7f13c-a2c5-47a7-bf14-0ca4c7639102"},"vehicle_type_id":"4","last_reported":1701087211,"current_range_meters":26400,"station_id":"ce4bgph2rcd13ifvqc2g","pricing_plan_id":"free"},{"bike_id":"a29d23ed-12e6-450d-9f69-561e9b3ee45f","system_id":"levelo_inurba_marseille","lat":43.29573,"lon":5.367355,"is_reserved":false,"is_disabled":false,"rental_uris":{"android":"levelo://app?vid=a29d23ed-12e6-450d-9f69-561e9b3ee45f","ios":"levelo://app?vid=a29d23ed-12e6-450d-9f69-561e9b3ee45f"},"vehicle_type_id":"4","last_reported":1701087211,"current_range_meters":26400,"station_id":"ce4bgph2rcd13ifvqc2g","pricing_plan_id":"free"},{"bike_id":"5dc19534-c5a5-41c7-b02a-be74f25867c0","system_id":"levelo_inurba_marseille","lat":43.317557,"lon":5.390173,"is_reserved":false,"is_disabled":false,"rental_uris":{"android":"levelo://app?vid=5dc19534-c5a5-41c7-b02a-be74f25867c0","ios":"levelo://app?vid=5dc19534-c5a5-41c7-b02a-be74f25867c0"},"vehicle_type_id":"4","last_reported":1701087211,"current_range_meters":12800,"station_id":"ce4bhqp2rcd13ifvqhng","pricing_plan_id":"free"},{"bike_id":"a41fa8bc-211f-43e8-a4ec-85c5c4018c87","system_id":"levelo_inurba_marseille","lat":43.29575,"lon":5.375163,"is_reserved":false,"is_disabled":false,"rental_uris":{"android":"levelo://app?vid=a41fa8bc-211f-43e8-a4ec-85c5c4018c87","ios":"levelo://app?vid=a41fa8bc-211f-43e8-a4ec-85c5c4018c87"},"vehicle_type_id":"4","last_reported":1701087211,"current_range_meters":0,"station_id":"ce4bgh92rcd13ifvqb50","pricing_plan_id":"free"},{"bike_id":"7a560919-fd0d-4903-959c-18069134e149","system_id":"levelo_inurba_marseille","lat":43.304274,"lon":5.388873,"is_reserved":false,"is_disabled":false,"rental_uris":{"android":"levelo://app?vid=7a560919-fd0d-4903-959c-18069134e149","ios":"levelo://app?vid=7a560919-fd0d-4903-959c-18069134e149"},"vehicle_type_id":"4","last_reported":1701087211,"current_range_meters":25600,"station_id":"ce4bgk12rcd13ifvqbi0","pricing_plan_id":"free"},{"bike_id":"6b621983-5e9e-42f7-990d-ad5a093820d2","system_id":"levelo_inurba_marseille","lat":43.293801,"lon":5.363066,"is_reserved":false,"is_disabled":false,"rental_uris":{"android":"levelo://app?vid=6b621983-5e9e-42f7-990d-ad5a093820d2","ios":"levelo://app?vid=6b621983-5e9e-42f7-990d-ad5a093820d2"},"vehicle_type_id":"4","last_reported":1701087211,"current_range_meters":0,"station_id":"","pricing_plan_id":"free"},{"bike_id":"2d5910ed-2662-4d43-aeb7-f5ab5bcd6964","system_id":"levelo_inurba_marseille","lat":43.29601,"lon":5.381084,"is_reserved":false,"is_disabled":false,"rental_uris":{"android":"levelo://app?vid=2d5910ed-2662-4d43-aeb7-f5ab5bcd6964","ios":"levelo://app?vid=2d5910ed-2662-4d43-aeb7-f5ab5bcd6964"},"vehicle_type_id":"4","last_reported":1701087211,"current_range_meters":26800,"station_id":"ce4bgl12rcd13ifvqbo0","pricing_plan_id":"free"},{"bike_id":"ddd61bce-03d4-4f1e-8020-8ef45188a057","system_id":"levelo_inurba_marseille","lat":43.299913,"lon":5.387953,"is_reserved":false,"is_disabled":false,"rental_uris":{"android":"levelo://app?vid=ddd61bce-03d4-4f1e-8020-8ef45188a057","ios":"levelo://app?vid=ddd61bce-03d4-4f1e-8020-8ef45188a057"},"vehicle_type_id":"4","last_reported":1701087211,"current_range_meters":15600,"station_id":"","pricing_plan_id":"free"},{"bike_id":"5e3e68c3-be6f-417b-b9e3-12e3a2d2cadb","system_id":"levelo_inurba_marseille","lat":43.305994,"lon":5.393687,"is_reserved":false,"is_disabled":false,"rental_uris":{"android":"levelo://app?vid=5e3e68c3-be6f-417b-b9e3-12e3a2d2cadb","ios":"levelo://app?vid=5e3e68c3-be6f-417b-b9e3-12e3a2d2cadb"},"vehicle_type_id":"4","last_reported":1701087211,"current_range_meters":13200,"station_id":"ce4bh0p2rcd13ifvqd80","pricing_plan_id":"free"},{"bike_id":"c0cd04b2-106b-49f7-86e6-73ef45a90ed1","system_id":"levelo_inurba_marseille","lat":43.305994,"lon":5.393687,"is_reserved":false,"is_disabled":false,"rental_uris":{"android":"levelo://app?vid=c0cd04b2-106b-49f7-86e6-73ef45a90ed1","ios":"levelo://app?vid=c0cd04b2-106b-49f7-86e6-73ef45a90ed1"},"vehicle_type_id":"4","last_reported":1701087211,"current_range_meters":23600,"station_id":"ce4bh0p2rcd13ifvqd80","pricing_plan_id":"free"},{"bike_id":"58498dc5-831f-4790-bbcb-a0cbc30ddc07","system_id":"levelo_inurba_marseille","lat":43.305994,"lon":5.393687,"is_reserved":false,"is_disabled":false,"rental_uris":{"android":"levelo://app?vid=58498dc5-831f-4790-bbcb-a0cbc30ddc07","ios":"levelo://app?vid=58498dc5-831f-4790-bbcb-a0cbc30ddc07"},"vehicle_type_id":"4","last_reported":1701087211,"current_range_meters":25200,"station_id":"ce4bh0p2rcd13ifvqd80","pricing_plan_id":"free"},{"bike_id":"55a2f2a6-0e93-49fc-b804-e53bc480ddd0","system_id":"levelo_inurba_marseille","lat":43.305994,"lon":5.393687,"is_reserved":false,"is_disabled":false,"rental_uris":{"android":"levelo://app?vid=55a2f2a6-0e93-49fc-b804-e53bc480ddd0","ios":"levelo://app?vid=55a2f2a6-0e93-49fc-b804-e53bc480ddd0"},"vehicle_type_id":"4","last_reported":1701087211,"current_range_meters":18000,"station_id":"ce4bh0p2rcd13ifvqd80","pricing_plan_id":"free"},{"bike_id":"8ab56fd9-daf4-426d-9c71-775600ec9d77","system_id":"levelo_inurba_marseille","lat":43.305994,"lon":5.393687,"is_reserved":false,"is_disabled":false,"rental_uris":{"android":"levelo://app?vid=8ab56fd9-daf4-426d-9c71-775600ec9d77","ios":"levelo://app?vid=8ab56fd9-daf4-426d-9c71-775600ec9d77"},"vehicle_type_id":"4","last_reported":1701087211,"current_range_meters":17600,"station_id":"ce4bh0p2rcd13ifvqd80","pricing_plan_id":"free"},{"bike_id":"0fbbc184-78cc-4520-bfed-1dd46f553102","system_id":"levelo_inurba_marseille","lat":43.305994,"lon":5.393687,"is_reserved":false,"is_disabled":false,"rental_uris":{"android":"levelo://app?vid=0fbbc184-78cc-4520-bfed-1dd46f553102","ios":"levelo://app?vid=0fbbc184-78cc-4520-bfed-1dd46f553102"},"vehicle_type_id":"4","last_reported":1701087211,"current_range_meters":12800,"station_id":"ce4bh0p2rcd13ifvqd80","pricing_plan_id":"free"},{"bike_id":"27b0b038-4f43-431d-b1b9-2ab404668c05","system_id":"levelo_inurba_marseille","lat":43.30299,"lon":5.392133,"is_reserved":false,"is_disabled":false,"rental_uris":{"android":"levelo://app?vid=27b0b038-4f43-431d-b1b9-2ab404668c05","ios":"levelo://app?vid=27b0b038-4f43-431d-b1b9-2ab404668c05"},"vehicle_type_id":"4","last_reported":1701087211,"current_range_meters":10000,"station_id":"ce4bgkh2rcd13ifvqbk0","pricing_plan_id":"free"},{"bike_id":"ba92f79d-1c16-438b-b42a-e7a5940d9ada","system_id":"levelo_inurba_marseille","lat":43.2936,"lon":5.37835,"is_reserved":false,"is_disabled":false,"rental_uris":{"android":"levelo://app?vid=ba92f79d-1c16-438b-b42a-e7a5940d9ada","ios":"levelo://app?vid=ba92f79d-1c16-438b-b42a-e7a5940d9ada"},"vehicle_type_id":"4","last_reported":1701087211,"current_range_meters":4800,"station_id":"ce4bgjh2rcd13ifvqbf0","pricing_plan_id":"free"},{"bike_id":"eadeb52a-940c-4fd0-8294-58a2e430d793","system_id":"levelo_inurba_marseille","lat":43.292311,"lon":5.360731,"is_reserved":false,"is_disabled":false,"rental_uris":{"android":"levelo://app?vid=eadeb52a-940c-4fd0-8294-58a2e430d793","ios":"levelo://app?vid=eadeb52a-940c-4fd0-8294-58a2e430d793"},"vehicle_type_id":"4","last_reported":1701087211,"current_range_meters":26400,"station_id":"ce4bhbh2rcd13ifvqeqg","pricing_plan_id":"free"},{"bike_id":"a5f94b71-fb4f-4610-8942-579d3b662cd7","system_id":"levelo_inurba_marseille","lat":43.29872,"lon":5.38904,"is_reserved":false,"is_disabled":false,"rental_uris":{"android":"levelo://app?vid=a5f94b71-fb4f-4610-8942-579d3b662cd7","ios":"levelo://app?vid=a5f94b71-fb4f-4610-8942-579d3b662cd7"},"vehicle_type_id":"4","last_reported":1701087211,"current_range_meters":13600,"station_id":"ce4bh392rcd13ifvqdl0","pricing_plan_id":"free"},{"bike_id":"fcb88794-d241-418a-bcf5-ad83a8f68995","system_id":"levelo_inurba_marseille","lat":43.308901,"lon":5.396436,"is_reserved":false,"is_disabled":false,"rental_uris":{"android":"levelo://app?vid=fcb88794-d241-418a-bcf5-ad83a8f68995","ios":"levelo://app?vid=fcb88794-d241-418a-bcf5-ad83a8f68995"},"vehicle_type_id":"4","last_reported":1701087211,"current_range_meters":14400,"station_id":"ce4bh012rcd13ifvqcv0","pricing_plan_id":"free"},{"bike_id":"de199e16-449e-4ff8-8a51-952a0e560ba8","system_id":"levelo_inurba_marseille","lat":43.31331,"lon":5.39693,"is_reserved":false,"is_disabled":false,"rental_uris":{"android":"levelo://app?vid=de199e16-449e-4ff8-8a51-952a0e560ba8","ios":"levelo://app?vid=de199e16-449e-4ff8-8a51-952a0e560ba8"},"vehicle_type_id":"4","last_reported":1701087211,"current_range_meters":23600,"station_id":"ce4bgvp2rcd13ifvqcu0","pricing_plan_id":"free"},{"bike_id":"af593931-cc6c-43c2-97c7-5b216682e72e","system_id":"levelo_inurba_marseille","lat":43.31328,"lon":5.39695,"is_reserved":false,"is_disabled":false,"rental_uris":{"android":"levelo://app?vid=af593931-cc6c-43c2-97c7-5b216682e72e","ios":"levelo://app?vid=af593931-cc6c-43c2-97c7-5b216682e72e"},"vehicle_type_id":"4","last_reported":1701087211,"current_range_meters":24400,"station_id":"ce4bgvp2rcd13ifvqcu0","pricing_plan_id":"free"},{"bike_id":"4bd7dc38-06e7-4dac-9d75-e6664204b34f","system_id":"levelo_inurba_marseille","lat":43.31324,"lon":5.397,"is_reserved":false,"is_disabled":false,"rental_uris":{"android":"levelo://app?vid=4bd7dc38-06e7-4dac-9d75-e6664204b34f","ios":"levelo://app?vid=4bd7dc38-06e7-4dac-9d75-e6664204b34f"},"vehicle_type_id":"4","last_reported":1701087211,"current_range_meters":29600,"station_id":"ce4bgvp2rcd13ifvqcu0","pricing_plan_id":"free"},{"bike_id":"cd405d16-794d-420f-9e42-6065059c433a","system_id":"levelo_inurba_marseille","lat":43.29529,"lon":5.385581,"is_reserved":false,"is_disabled":false,"rental_uris":{"android":"levelo://app?vid=cd405d16-794d-420f-9e42-6065059c433a","ios":"levelo://app?vid=cd405d16-794d-420f-9e42-6065059c433a"},"vehicle_type_id":"4","last_reported":1701087211,"current_range_meters":22400,"station_id":"ce4bgih2rcd13ifvqba0","pricing_plan_id":"free"},{"bike_id":"c21a8bbc-43ac-46a9-914e-0b35fe90d166","system_id":"levelo_inurba_marseille","lat":43.313291,"lon":5.396838,"is_reserved":false,"is_disabled":false,"rental_uris":{"android":"levelo://app?vid=c21a8bbc-43ac-46a9-914e-0b35fe90d166","ios":"levelo://app?vid=c21a8bbc-43ac-46a9-914e-0b35fe90d166"},"vehicle_type_id":"4","last_reported":1701087211,"current_range_meters":29200,"station_id":"ce4bgvp2rcd13ifvqcu0","pricing_plan_id":"free"},{"bike_id":"1bc2ba99-c6a9-4d83-ab83-76cf50698b10","system_id":"levelo_inurba_marseille","lat":43.290327,"lon":5.375711,"is_reserved":false,"is_disabled":false,"rental_uris":{"android":"levelo://app?vid=1bc2ba99-c6a9-4d83-ab83-76cf50698b10","ios":"levelo://app?vid=1bc2ba99-c6a9-4d83-ab83-76cf50698b10"},"vehicle_type_id":"4","last_reported":1701087211,"current_range_meters":24400,"station_id":"ce4bh692rcd13ifvqe90","pricing_plan_id":"free"},{"bike_id":"42dc2ce2-ba16-48ab-8da5-73bacc727838","system_id":"levelo_inurba_marseille","lat":43.294162,"lon":5.386292,"is_reserved":false,"is_disabled":false,"rental_uris":{"android":"levelo://app?vid=42dc2ce2-ba16-48ab-8da5-73bacc727838","ios":"levelo://app?vid=42dc2ce2-ba16-48ab-8da5-73bacc727838"},"vehicle_type_id":"4","last_reported":1701087211,"current_range_meters":26000,"station_id":"ce4bh2h2rcd13ifvqdh0","pricing_plan_id":"free"},{"bike_id":"6474b2da-0a06-4138-8f84-08e3cb1891cf","system_id":"levelo_inurba_marseille","lat":43.289184,"lon":5.366408,"is_reserved":false,"is_disabled":false,"rental_uris":{"android":"levelo://app?vid=6474b2da-0a06-4138-8f84-08e3cb1891cf","ios":"levelo://app?vid=6474b2da-0a06-4138-8f84-08e3cb1891cf"},"vehicle_type_id":"4","last_reported":1701087211,"current_range_meters":13200,"station_id":"ce4bhap2rcd13ifvqek0","pricing_plan_id":"free"},{"bike_id":"9c4895d8-1303-4826-9aec-7f6458c6bbdc","system_id":"levelo_inurba_marseille","lat":43.289327,"lon":5.363967,"is_reserved":false,"is_disabled":false,"rental_uris":{"android":"levelo://app?vid=9c4895d8-1303-4826-9aec-7f6458c6bbdc","ios":"levelo://app?vid=9c4895d8-1303-4826-9aec-7f6458c6bbdc"},"vehicle_type_id":"4","last_reported":1701087211,"current_range_meters":7600,"station_id":"ce4bhc92rcd13ifvqetg","pricing_plan_id":"free"},{"bike_id":"e6ca6a9b-89b3-4fb1-88ae-6bf0f89a2124","system_id":"levelo_inurba_marseille","lat":43.292644,"lon":5.384257,"is_reserved":false,"is_disabled":false,"rental_uris":{"android":"levelo://app?vid=e6ca6a9b-89b3-4fb1-88ae-6bf0f89a2124","ios":"levelo://app?vid=e6ca6a9b-89b3-4fb1-88ae-6bf0f89a2124"},"vehicle_type_id":"4","last_reported":1701087211,"current_range_meters":26000,"station_id":"ce4bh692rcd13ifvqea0","pricing_plan_id":"free"},{"bike_id":"bdcc7cc1-42d6-49e9-87ff-df99a3cc71c6","system_id":"levelo_inurba_marseille","lat":43.330442,"lon":5.389148,"is_reserved":false,"is_disabled":false,"rental_uris":{"android":"levelo://app?vid=bdcc7cc1-42d6-49e9-87ff-df99a3cc71c6","ios":"levelo://app?vid=bdcc7cc1-42d6-49e9-87ff-df99a3cc71c6"},"vehicle_type_id":"4","last_reported":1701087211,"current_range_meters":22400,"station_id":"ce4bhr92rcd13ifvqhrg","pricing_plan_id":"free"},{"bike_id":"7f29f1ce-ffa4-4c61-9135-215ba876d3f4","system_id":"levelo_inurba_marseille","lat":43.330442,"lon":5.389148,"is_reserved":false,"is_disabled":false,"rental_uris":{"android":"levelo://app?vid=7f29f1ce-ffa4-4c61-9135-215ba876d3f4","ios":"levelo://app?vid=7f29f1ce-ffa4-4c61-9135-215ba876d3f4"},"vehicle_type_id":"4","last_reported":1701087211,"current_range_meters":14000,"station_id":"ce4bhr92rcd13ifvqhrg","pricing_plan_id":"free"},{"bike_id":"864508ec-690d-41fe-87ea-141df8d9fe94","system_id":"levelo_inurba_marseille","lat":43.28856,"lon":5.358371,"is_reserved":false,"is_disabled":false,"rental_uris":{"android":"levelo://app?vid=864508ec-690d-41fe-87ea-141df8d9fe94","ios":"levelo://app?vid=864508ec-690d-41fe-87ea-141df8d9fe94"},"vehicle_type_id":"4","last_reported":1701087211,"current_range_meters":20400,"station_id":"ce4bhb12rcd13ifvqem0","pricing_plan_id":"free"},{"bike_id":"2640916a-533b-47af-9b67-b667cea064b9","system_id":"levelo_inurba_marseille","lat":43.295196,"lon":5.39397,"is_reserved":false,"is_disabled":false,"rental_uris":{"android":"levelo://app?vid=2640916a-533b-47af-9b67-b667cea064b9","ios":"levelo://app?vid=2640916a-533b-47af-9b67-b667cea064b9"},"vehicle_type_id":"4","last_reported":1701087211,"current_range_meters":27200,"station_id":"ce4bh292rcd13ifvqdf0","pricing_plan_id":"free"},{"bike_id":"a109c1a3-d987-4b6f-8fc0-12f44e6da227","system_id":"levelo_inurba_marseille","lat":43.2902,"lon":5.38636,"is_reserved":false,"is_disabled":false,"rental_uris":{"android":"levelo://app?vid=a109c1a3-d987-4b6f-8fc0-12f44e6da227","ios":"levelo://app?vid=a109c1a3-d987-4b6f-8fc0-12f44e6da227"},"vehicle_type_id":"4","last_reported":1701087211,"current_range_meters":0,"station_id":"","pricing_plan_id":"free"},{"bike_id":"cc091d81-9fa4-4d66-a044-8a18bb6a8307","system_id":"levelo_inurba_marseille","lat":43.302587,"lon":5.40082,"is_reserved":false,"is_disabled":false,"rental_uris":{"android":"levelo://app?vid=cc091d81-9fa4-4d66-a044-8a18bb6a8307","ios":"levelo://app?vid=cc091d81-9fa4-4d66-a044-8a18bb6a8307"},"vehicle_type_id":"4","last_reported":1701087211,"current_range_meters":12000,"station_id":"ce4bgvh2rcd13ifvqcs0","pricing_plan_id":"free"},{"bike_id":"42089b03-6411-4d4e-af8b-0bf22e5ae6ee","system_id":"levelo_inurba_marseille","lat":43.286068,"lon":5.370698,"is_reserved":false,"is_disabled":false,"rental_uris":{"android":"levelo://app?vid=42089b03-6411-4d4e-af8b-0bf22e5ae6ee","ios":"levelo://app?vid=42089b03-6411-4d4e-af8b-0bf22e5ae6ee"},"vehicle_type_id":"4","last_reported":1701087211,"current_range_meters":20800,"station_id":"ce4bht12rcd13ifvqi60","pricing_plan_id":"free"},{"bike_id":"3d60847f-0308-47d5-9f62-0063158c0e5b","system_id":"levelo_inurba_marseille","lat":43.2936,"lon":5.37835,"is_reserved":false,"is_disabled":false,"rental_uris":{"android":"levelo://app?vid=3d60847f-0308-47d5-9f62-0063158c0e5b","ios":"levelo://app?vid=3d60847f-0308-47d5-9f62-0063158c0e5b"},"vehicle_type_id":"4","last_reported":1701087211,"current_range_meters":14800,"station_id":"ce4bgjh2rcd13ifvqbf0","pricing_plan_id":"free"},{"bike_id":"6a5a913d-4923-45ec-bedb-1eaa8806d811","system_id":"levelo_inurba_marseille","lat":43.284534,"lon":5.358662,"is_reserved":false,"is_disabled":false,"rental_uris":{"android":"levelo://app?vid=6a5a913d-4923-45ec-bedb-1eaa8806d811","ios":"levelo://app?vid=6a5a913d-4923-45ec-bedb-1eaa8806d811"},"vehicle_type_id":"4","last_reported":1701087211,"current_range_meters":12400,"station_id":"ce4bhah2rcd13ifvqei0","pricing_plan_id":"free"},{"bike_id":"6f29c184-11bb-4fa8-8033-00e096e9a8ef","system_id":"levelo_inurba_marseille","lat":43.295713,"lon":5.399639,"is_reserved":false,"is_disabled":false,"rental_uris":{"android":"levelo://app?vid=6f29c184-11bb-4fa8-8033-00e096e9a8ef","ios":"levelo://app?vid=6f29c184-11bb-4fa8-8033-00e096e9a8ef"},"vehicle_type_id":"4","last_reported":1701087211,"current_range_meters":26400,"station_id":"ce4bh312rcd13ifvqdj0","pricing_plan_id":"free"},{"bike_id":"639349a2-8325-47ed-bee8-cd44fe6175b3","system_id":"levelo_inurba_marseille","lat":43.295713,"lon":5.399639,"is_reserved":false,"is_disabled":false,"rental_uris":{"android":"levelo://app?vid=639349a2-8325-47ed-bee8-cd44fe6175b3","ios":"levelo://app?vid=639349a2-8325-47ed-bee8-cd44fe6175b3"},"vehicle_type_id":"4","last_reported":1701087211,"current_range_meters":0,"station_id":"ce4bh312rcd13ifvqdj0","pricing_plan_id":"free"},{"bike_id":"40c7831b-2592-461f-8cf3-18418bdb390a","system_id":"levelo_inurba_marseille","lat":43.295713,"lon":5.399639,"is_reserved":false,"is_disabled":false,"rental_uris":{"android":"levelo://app?vid=40c7831b-2592-461f-8cf3-18418bdb390a","ios":"levelo://app?vid=40c7831b-2592-461f-8cf3-18418bdb390a"},"vehicle_type_id":"4","last_reported":1701087211,"current_range_meters":26000,"station_id":"ce4bh312rcd13ifvqdj0","pricing_plan_id":"free"},{"bike_id":"7248dc39-9c3b-434e-96d6-866f90779000","system_id":"levelo_inurba_marseille","lat":43.286595,"lon":5.386795,"is_reserved":false,"is_disabled":false,"rental_uris":{"android":"levelo://app?vid=7248dc39-9c3b-434e-96d6-866f90779000","ios":"levelo://app?vid=7248dc39-9c3b-434e-96d6-866f90779000"},"vehicle_type_id":"4","last_reported":1701087211,"current_range_meters":30400,"station_id":"ce4bh492rcd13ifvqdug","pricing_plan_id":"free"},{"bike_id":"425196bc-b335-4dc1-9f76-e1234a284c99","system_id":"levelo_inurba_marseille","lat":43.286646,"lon":5.386706,"is_reserved":false,"is_disabled":false,"rental_uris":{"android":"levelo://app?vid=425196bc-b335-4dc1-9f76-e1234a284c99","ios":"levelo://app?vid=425196bc-b335-4dc1-9f76-e1234a284c99"},"vehicle_type_id":"4","last_reported":1701087211,"current_range_meters":7200,"station_id":"ce4bh492rcd13ifvqdug","pricing_plan_id":"free"},{"bike_id":"8c9e9cd8-5f57-4ab0-b667-722229239e81","system_id":"levelo_inurba_marseille","lat":43.319179,"lon":5.407725,"is_reserved":false,"is_disabled":false,"rental_uris":{"android":"levelo://app?vid=8c9e9cd8-5f57-4ab0-b667-722229239e81","ios":"levelo://app?vid=8c9e9cd8-5f57-4ab0-b667-722229239e81"},"vehicle_type_id":"4","last_reported":1701087211,"current_range_meters":22000,"station_id":"ce4bhq12rcd13ifvqhig","pricing_plan_id":"free"},{"bike_id":"689409e5-b59b-4de1-9a57-a4665aa7280b","system_id":"levelo_inurba_marseille","lat":43.319179,"lon":5.407725,"is_reserved":false,"is_disabled":false,"rental_uris":{"android":"levelo://app?vid=689409e5-b59b-4de1-9a57-a4665aa7280b","ios":"levelo://app?vid=689409e5-b59b-4de1-9a57-a4665aa7280b"},"vehicle_type_id":"4","last_reported":1701087211,"current_range_meters":18800,"station_id":"ce4bhq12rcd13ifvqhig","pricing_plan_id":"free"},{"bike_id":"37ec9518-8ad3-4273-a336-b15e1f976997","system_id":"levelo_inurba_marseille","lat":43.319179,"lon":5.407725,"is_reserved":false,"is_disabled":false,"rental_uris":{"android":"levelo://app?vid=37ec9518-8ad3-4273-a336-b15e1f976997","ios":"levelo://app?vid=37ec9518-8ad3-4273-a336-b15e1f976997"},"vehicle_type_id":"4","last_reported":1701087211,"current_range_meters":30000,"station_id":"ce4bhq12rcd13ifvqhig","pricing_plan_id":"free"},{"bike_id":"046b7a57-d5c8-4513-8038-799f881a3bbd","system_id":"levelo_inurba_marseille","lat":43.337168,"lon":5.391825,"is_reserved":false,"is_disabled":false,"rental_uris":{"android":"levelo://app?vid=046b7a57-d5c8-4513-8038-799f881a3bbd","ios":"levelo://app?vid=046b7a57-d5c8-4513-8038-799f881a3bbd"},"vehicle_type_id":"4","last_reported":1701087211,"current_range_meters":28400,"station_id":"ce4bhr92rcd13ifvqhsg","pricing_plan_id":"free"},{"bike_id":"146ed583-8d5c-43bd-a404-11de956cf5ae","system_id":"levelo_inurba_marseille","lat":43.284787,"lon":5.384116,"is_reserved":false,"is_disabled":false,"rental_uris":{"android":"levelo://app?vid=146ed583-8d5c-43bd-a404-11de956cf5ae","ios":"levelo://app?vid=146ed583-8d5c-43bd-a404-11de956cf5ae"},"vehicle_type_id":"4","last_reported":1701087211,"current_range_meters":18000,"station_id":"ce4bh512rcd13ifvqe3g","pricing_plan_id":"free"},{"bike_id":"06a65098-304a-41ed-9cde-d41b017929a9","system_id":"levelo_inurba_marseille","lat":43.288501,"lon":5.393087,"is_reserved":false,"is_disabled":false,"rental_uris":{"android":"levelo://app?vid=06a65098-304a-41ed-9cde-d41b017929a9","ios":"levelo://app?vid=06a65098-304a-41ed-9cde-d41b017929a9"},"vehicle_type_id":"4","last_reported":1701087211,"current_range_meters":25600,"station_id":"ce4bh2p2rcd13ifvqdi0","pricing_plan_id":"free"},{"bike_id":"de9d50c0-649f-44e8-9962-f6d329dd7f2e","system_id":"levelo_inurba_marseille","lat":43.283498,"lon":5.380948,"is_reserved":false,"is_disabled":false,"rental_uris":{"android":"levelo://app?vid=de9d50c0-649f-44e8-9962-f6d329dd7f2e","ios":"levelo://app?vid=de9d50c0-649f-44e8-9962-f6d329dd7f2e"},"vehicle_type_id":"4","last_reported":1701087211,"current_range_meters":18800,"station_id":"ce4bh412rcd13ifvqdr0","pricing_plan_id":"free"},{"bike_id":"e2284003-4e46-4e0a-93e7-73d05c3666d9","system_id":"levelo_inurba_marseille","lat":43.33508,"lon":5.397755,"is_reserved":false,"is_disabled":false,"rental_uris":{"android":"levelo://app?vid=e2284003-4e46-4e0a-93e7-73d05c3666d9","ios":"levelo://app?vid=e2284003-4e46-4e0a-93e7-73d05c3666d9"},"vehicle_type_id":"4","last_reported":1701087211,"current_range_meters":14800,"station_id":"","pricing_plan_id":"free"},{"bike_id":"1641ac15-2a17-439d-9c40-391a89c0040d","system_id":"levelo_inurba_marseille","lat":43.289363,"lon":5.396322,"is_reserved":false,"is_disabled":false,"rental_uris":{"android":"levelo://app?vid=1641ac15-2a17-439d-9c40-391a89c0040d","ios":"levelo://app?vid=1641ac15-2a17-439d-9c40-391a89c0040d"},"vehicle_type_id":"4","last_reported":1701087211,"current_range_meters":18800,"station_id":"ce4bh3h2rcd13ifvqdn0","pricing_plan_id":"free"},{"bike_id":"b56d7949-27f8-46c6-8eb0-fb8043ad5358","system_id":"levelo_inurba_marseille","lat":43.289363,"lon":5.396322,"is_reserved":false,"is_disabled":false,"rental_uris":{"android":"levelo://app?vid=b56d7949-27f8-46c6-8eb0-fb8043ad5358","ios":"levelo://app?vid=b56d7949-27f8-46c6-8eb0-fb8043ad5358"},"vehicle_type_id":"4","last_reported":1701087211,"current_range_meters":23600,"station_id":"ce4bh3h2rcd13ifvqdn0","pricing_plan_id":"free"},{"bike_id":"4b706109-7ed1-42ba-ab35-b60c24e7594b","system_id":"levelo_inurba_marseille","lat":43.292724,"lon":5.401131,"is_reserved":false,"is_disabled":false,"rental_uris":{"android":"levelo://app?vid=4b706109-7ed1-42ba-ab35-b60c24e7594b","ios":"levelo://app?vid=4b706109-7ed1-42ba-ab35-b60c24e7594b"},"vehicle_type_id":"4","last_reported":1701087211,"current_range_meters":10400,"station_id":"ce4bh312rcd13ifvqdk0","pricing_plan_id":"free"},{"bike_id":"16a97055-dbd6-44c0-9a19-9feee5927bfe","system_id":"levelo_inurba_marseille","lat":43.2827,"lon":5.350642,"is_reserved":false,"is_disabled":false,"rental_uris":{"android":"levelo://app?vid=16a97055-dbd6-44c0-9a19-9feee5927bfe","ios":"levelo://app?vid=16a97055-dbd6-44c0-9a19-9feee5927bfe"},"vehicle_type_id":"4","last_reported":1701087211,"current_range_meters":19600,"station_id":"ce4bhbp2rcd13ifvqerg","pricing_plan_id":"free"},{"bike_id":"af3d1fa2-84d1-4aa0-bd13-9ace1cbc8cd5","system_id":"levelo_inurba_marseille","lat":43.283502,"lon":5.386471,"is_reserved":false,"is_disabled":false,"rental_uris":{"android":"levelo://app?vid=af3d1fa2-84d1-4aa0-bd13-9ace1cbc8cd5","ios":"levelo://app?vid=af3d1fa2-84d1-4aa0-bd13-9ace1cbc8cd5"},"vehicle_type_id":"4","last_reported":1701087211,"current_range_meters":2800,"station_id":"ce4bh492rcd13ifvqdvg","pricing_plan_id":"free"},{"bike_id":"b79cde64-04b8-4c73-aec9-34f17f441899","system_id":"levelo_inurba_marseille","lat":43.283502,"lon":5.386471,"is_reserved":false,"is_disabled":false,"rental_uris":{"android":"levelo://app?vid=b79cde64-04b8-4c73-aec9-34f17f441899","ios":"levelo://app?vid=b79cde64-04b8-4c73-aec9-34f17f441899"},"vehicle_type_id":"4","last_reported":1701087211,"current_range_meters":31200,"station_id":"ce4bh492rcd13ifvqdvg","pricing_plan_id":"free"},{"bike_id":"1dddd1de-c9d7-48be-bc4b-00a7e0f57fee","system_id":"levelo_inurba_marseille","lat":43.280382,"lon":5.369291,"is_reserved":false,"is_disabled":false,"rental_uris":{"android":"levelo://app?vid=1dddd1de-c9d7-48be-bc4b-00a7e0f57fee","ios":"levelo://app?vid=1dddd1de-c9d7-48be-bc4b-00a7e0f57fee"},"vehicle_type_id":"4","last_reported":1701087211,"current_range_meters":13600,"station_id":"ce4bha12rcd13ifvqef0","pricing_plan_id":"free"},{"bike_id":"afaa3978-337d-42bd-ac29-778f821e7594","system_id":"levelo_inurba_marseille","lat":43.29037,"lon":5.399755,"is_reserved":false,"is_disabled":false,"rental_uris":{"android":"levelo://app?vid=afaa3978-337d-42bd-ac29-778f821e7594","ios":"levelo://app?vid=afaa3978-337d-42bd-ac29-778f821e7594"},"vehicle_type_id":"4","last_reported":1701087211,"current_range_meters":0,"station_id":"ce4bh392rcd13ifvqdm0","pricing_plan_id":"free"},{"bike_id":"ca1fdd0a-b1cb-4d74-b5eb-2947e2baaec3","system_id":"levelo_inurba_marseille","lat":43.281044,"lon":5.378308,"is_reserved":false,"is_disabled":false,"rental_uris":{"android":"levelo://app?vid=ca1fdd0a-b1cb-4d74-b5eb-2947e2baaec3","ios":"levelo://app?vid=ca1fdd0a-b1cb-4d74-b5eb-2947e2baaec3"},"vehicle_type_id":"4","last_reported":1701087211,"current_range_meters":29600,"station_id":"ce4bha12rcd13ifvqee0","pricing_plan_id":"free"},{"bike_id":"524e975b-6e03-46b8-a0eb-7453576a0d03","system_id":"levelo_inurba_marseille","lat":43.296263,"lon":5.40601,"is_reserved":false,"is_disabled":false,"rental_uris":{"android":"levelo://app?vid=524e975b-6e03-46b8-a0eb-7453576a0d03","ios":"levelo://app?vid=524e975b-6e03-46b8-a0eb-7453576a0d03"},"vehicle_type_id":"4","last_reported":1701087211,"current_range_meters":25200,"station_id":"ce4bh0h2rcd13ifvqd60","pricing_plan_id":"free"},{"bike_id":"07b75f45-da51-41ce-a302-aa3efbe045f9","system_id":"levelo_inurba_marseille","lat":43.29627,"lon":5.40591,"is_reserved":false,"is_disabled":false,"rental_uris":{"android":"levelo://app?vid=07b75f45-da51-41ce-a302-aa3efbe045f9","ios":"levelo://app?vid=07b75f45-da51-41ce-a302-aa3efbe045f9"},"vehicle_type_id":"4","last_reported":1701087211,"current_range_meters":25600,"station_id":"ce4bh0h2rcd13ifvqd60","pricing_plan_id":"free"},{"bike_id":"bd82c366-1ee6-45fd-b7ec-43158d42e9b2","system_id":"levelo_inurba_marseille","lat":43.296306,"lon":5.405944,"is_reserved":false,"is_disabled":false,"rental_uris":{"android":"levelo://app?vid=bd82c366-1ee6-45fd-b7ec-43158d42e9b2","ios":"levelo://app?vid=bd82c366-1ee6-45fd-b7ec-43158d42e9b2"},"vehicle_type_id":"4","last_reported":1701087211,"current_range_meters":24800,"station_id":"ce4bh0h2rcd13ifvqd60","pricing_plan_id":"free"},{"bike_id":"333d320e-8e6b-48fc-b7ee-5ce9789dcc21","system_id":"levelo_inurba_marseille","lat":43.29625,"lon":5.40594,"is_reserved":false,"is_disabled":false,"rental_uris":{"android":"levelo://app?vid=333d320e-8e6b-48fc-b7ee-5ce9789dcc21","ios":"levelo://app?vid=333d320e-8e6b-48fc-b7ee-5ce9789dcc21"},"vehicle_type_id":"4","last_reported":1701087211,"current_range_meters":17200,"station_id":"ce4bh0h2rcd13ifvqd60","pricing_plan_id":"free"},{"bike_id":"94e73569-4e69-446a-ba7e-b7a2f6b93602","system_id":"levelo_inurba_marseille","lat":43.284462,"lon":5.392121,"is_reserved":false,"is_disabled":false,"rental_uris":{"android":"levelo://app?vid=94e73569-4e69-446a-ba7e-b7a2f6b93602","ios":"levelo://app?vid=94e73569-4e69-446a-ba7e-b7a2f6b93602"},"vehicle_type_id":"4","last_reported":1701087211,"current_range_meters":28000,"station_id":"ce4bhoh2rcd13ifvqh5g","pricing_plan_id":"free"},{"bike_id":"1f600adf-d593-4121-b846-39d42d238d98","system_id":"levelo_inurba_marseille","lat":43.284462,"lon":5.392121,"is_reserved":false,"is_disabled":false,"rental_uris":{"android":"levelo://app?vid=1f600adf-d593-4121-b846-39d42d238d98","ios":"levelo://app?vid=1f600adf-d593-4121-b846-39d42d238d98"},"vehicle_type_id":"4","last_reported":1701087211,"current_range_meters":12800,"station_id":"ce4bhoh2rcd13ifvqh5g","pricing_plan_id":"free"},{"bike_id":"a0831dfa-7767-4554-95f8-56d5d3183c31","system_id":"levelo_inurba_marseille","lat":43.326605,"lon":5.409903,"is_reserved":false,"is_disabled":false,"rental_uris":{"android":"levelo://app?vid=a0831dfa-7767-4554-95f8-56d5d3183c31","ios":"levelo://app?vid=a0831dfa-7767-4554-95f8-56d5d3183c31"},"vehicle_type_id":"4","last_reported":1701087211,"current_range_meters":30000,"station_id":"ce4bhpp2rcd13ifvqhgg","pricing_plan_id":"free"},{"bike_id":"09eae8cb-51e8-4677-9c28-bfff4dce6bf5","system_id":"levelo_inurba_marseille","lat":43.279803,"lon":5.38726,"is_reserved":false,"is_disabled":false,"rental_uris":{"android":"levelo://app?vid=09eae8cb-51e8-4677-9c28-bfff4dce6bf5","ios":"levelo://app?vid=09eae8cb-51e8-4677-9c28-bfff4dce6bf5"},"vehicle_type_id":"4","last_reported":1701087211,"current_range_meters":29200,"station_id":"ce4bhg12rcd13ifvqf80","pricing_plan_id":"free"},{"bike_id":"aa110e0f-0f25-4aca-b102-bb037d138492","system_id":"levelo_inurba_marseille","lat":43.320045,"lon":5.415048,"is_reserved":false,"is_disabled":false,"rental_uris":{"android":"levelo://app?vid=aa110e0f-0f25-4aca-b102-bb037d138492","ios":"levelo://app?vid=aa110e0f-0f25-4aca-b102-bb037d138492"},"vehicle_type_id":"4","last_reported":1701087211,"current_range_meters":31200,"station_id":"ce4bhq92rcd13ifvqhkg","pricing_plan_id":"free"},{"bike_id":"c103b530-9c6d-4ac7-adf6-4ae019cb5aa9","system_id":"levelo_inurba_marseille","lat":43.299579,"lon":5.413255,"is_reserved":false,"is_disabled":false,"rental_uris":{"android":"levelo://app?vid=c103b530-9c6d-4ac7-adf6-4ae019cb5aa9","ios":"levelo://app?vid=c103b530-9c6d-4ac7-adf6-4ae019cb5aa9"},"vehicle_type_id":"4","last_reported":1701087211,"current_range_meters":30000,"station_id":"ce4bhp12rcd13ifvqh9g","pricing_plan_id":"free"},{"bike_id":"c94b5170-10b1-40ed-8a33-63b9bf245846","system_id":"levelo_inurba_marseille","lat":43.299579,"lon":5.413255,"is_reserved":false,"is_disabled":false,"rental_uris":{"android":"levelo://app?vid=c94b5170-10b1-40ed-8a33-63b9bf245846","ios":"levelo://app?vid=c94b5170-10b1-40ed-8a33-63b9bf245846"},"vehicle_type_id":"4","last_reported":1701087211,"current_range_meters":27600,"station_id":"ce4bhp12rcd13ifvqh9g","pricing_plan_id":"free"},{"bike_id":"3c48d7b0-a5a0-4e52-abbe-76ef0472423a","system_id":"levelo_inurba_marseille","lat":43.279742,"lon":5.38744,"is_reserved":false,"is_disabled":false,"rental_uris":{"android":"levelo://app?vid=3c48d7b0-a5a0-4e52-abbe-76ef0472423a","ios":"levelo://app?vid=3c48d7b0-a5a0-4e52-abbe-76ef0472423a"},"vehicle_type_id":"4","last_reported":1701087211,"current_range_meters":21600,"station_id":"ce4bhg12rcd13ifvqf80","pricing_plan_id":"free"},{"bike_id":"6526cad1-2f4b-4db1-8d6b-ce04bc407b31","system_id":"levelo_inurba_marseille","lat":43.34883,"lon":5.37501,"is_reserved":false,"is_disabled":false,"rental_uris":{"android":"levelo://app?vid=6526cad1-2f4b-4db1-8d6b-ce04bc407b31","ios":"levelo://app?vid=6526cad1-2f4b-4db1-8d6b-ce04bc407b31"},"vehicle_type_id":"4","last_reported":1701087211,"current_range_meters":0,"station_id":"","pricing_plan_id":"free"},{"bike_id":"7ac576c2-6762-44f9-8aea-212b877dadfd","system_id":"levelo_inurba_marseille","lat":43.325233,"lon":5.414318,"is_reserved":false,"is_disabled":false,"rental_uris":{"android":"levelo://app?vid=7ac576c2-6762-44f9-8aea-212b877dadfd","ios":"levelo://app?vid=7ac576c2-6762-44f9-8aea-212b877dadfd"},"vehicle_type_id":"4","last_reported":1701087211,"current_range_meters":29600,"station_id":"ce4bhq12rcd13ifvqhhg","pricing_plan_id":"free"},{"bike_id":"2d9837b0-5d32-4ca5-a087-4ace2e81e82b","system_id":"levelo_inurba_marseille","lat":43.292571,"lon":5.409107,"is_reserved":false,"is_disabled":false,"rental_uris":{"android":"levelo://app?vid=2d9837b0-5d32-4ca5-a087-4ace2e81e82b","ios":"levelo://app?vid=2d9837b0-5d32-4ca5-a087-4ace2e81e82b"},"vehicle_type_id":"4","last_reported":1701087211,"current_range_meters":16000,"station_id":"ce4bh192rcd13ifvqdc0","pricing_plan_id":"free"},{"bike_id":"8ea7012e-3132-4769-b4ce-fdfe8cd10282","system_id":"levelo_inurba_marseille","lat":43.27842,"lon":5.38804,"is_reserved":false,"is_disabled":false,"rental_uris":{"android":"levelo://app?vid=8ea7012e-3132-4769-b4ce-fdfe8cd10282","ios":"levelo://app?vid=8ea7012e-3132-4769-b4ce-fdfe8cd10282"},"vehicle_type_id":"4","last_reported":1701087211,"current_range_meters":4800,"station_id":"","pricing_plan_id":"free"},{"bike_id":"be9690c5-c7a1-4c76-a31f-e0ecc29f7955","system_id":"levelo_inurba_marseille","lat":43.28081,"lon":5.39662,"is_reserved":false,"is_disabled":false,"rental_uris":{"android":"levelo://app?vid=be9690c5-c7a1-4c76-a31f-e0ecc29f7955","ios":"levelo://app?vid=be9690c5-c7a1-4c76-a31f-e0ecc29f7955"},"vehicle_type_id":"4","last_reported":1701087211,"current_range_meters":14000,"station_id":"ce4bho12rcd13ifvqh2g","pricing_plan_id":"free"},{"bike_id":"ac32fc0f-d205-4da6-8807-b13056824241","system_id":"levelo_inurba_marseille","lat":43.30353,"lon":5.418615,"is_reserved":false,"is_disabled":false,"rental_uris":{"android":"levelo://app?vid=ac32fc0f-d205-4da6-8807-b13056824241","ios":"levelo://app?vid=ac32fc0f-d205-4da6-8807-b13056824241"},"vehicle_type_id":"4","last_reported":1701087211,"current_range_meters":14400,"station_id":"","pricing_plan_id":"free"},{"bike_id":"e4c9ccea-0b5b-4aae-aebe-e1fbb120f3ee","system_id":"levelo_inurba_marseille","lat":43.303837,"lon":5.418724,"is_reserved":false,"is_disabled":false,"rental_uris":{"android":"levelo://app?vid=e4c9ccea-0b5b-4aae-aebe-e1fbb120f3ee","ios":"levelo://app?vid=e4c9ccea-0b5b-4aae-aebe-e1fbb120f3ee"},"vehicle_type_id":"4","last_reported":1701087211,"current_range_meters":2800,"station_id":"ce4bhop2rcd13ifvqh7g","pricing_plan_id":"free"},{"bike_id":"e8c5e820-8807-4563-b67f-96934be52191","system_id":"levelo_inurba_marseille","lat":43.278399,"lon":5.392139,"is_reserved":false,"is_disabled":false,"rental_uris":{"android":"levelo://app?vid=e8c5e820-8807-4563-b67f-96934be52191","ios":"levelo://app?vid=e8c5e820-8807-4563-b67f-96934be52191"},"vehicle_type_id":"4","last_reported":1701087211,"current_range_meters":24400,"station_id":"ce4bhjp2rcd13ifvqga0","pricing_plan_id":"free"},{"bike_id":"5ba66b46-4867-42dd-bce7-f0eac50656ee","system_id":"levelo_inurba_marseille","lat":43.278401,"lon":5.392152,"is_reserved":false,"is_disabled":false,"rental_uris":{"android":"levelo://app?vid=5ba66b46-4867-42dd-bce7-f0eac50656ee","ios":"levelo://app?vid=5ba66b46-4867-42dd-bce7-f0eac50656ee"},"vehicle_type_id":"4","last_reported":1701087211,"current_range_meters":12000,"station_id":"ce4bhjp2rcd13ifvqga0","pricing_plan_id":"free"},{"bike_id":"c52bc606-e473-41e0-b019-eee382315cd7","system_id":"levelo_inurba_marseille","lat":43.278401,"lon":5.392152,"is_reserved":false,"is_disabled":false,"rental_uris":{"android":"levelo://app?vid=c52bc606-e473-41e0-b019-eee382315cd7","ios":"levelo://app?vid=c52bc606-e473-41e0-b019-eee382315cd7"},"vehicle_type_id":"4","last_reported":1701087211,"current_range_meters":30000,"station_id":"ce4bhjp2rcd13ifvqga0","pricing_plan_id":"free"},{"bike_id":"d8b231e9-1845-4d36-9659-91d64f7b267a","system_id":"levelo_inurba_marseille","lat":43.27378,"lon":5.36252,"is_reserved":false,"is_disabled":false,"rental_uris":{"android":"levelo://app?vid=d8b231e9-1845-4d36-9659-91d64f7b267a","ios":"levelo://app?vid=d8b231e9-1845-4d36-9659-91d64f7b267a"},"vehicle_type_id":"4","last_reported":1701087211,"current_range_meters":2000,"station_id":"ce4bhbh2rcd13ifvqeo0","pricing_plan_id":"free"},{"bike_id":"eb48a088-3d97-42c9-afe8-18f657310e96","system_id":"levelo_inurba_marseille","lat":43.33612,"lon":5.410321,"is_reserved":false,"is_disabled":false,"rental_uris":{"android":"levelo://app?vid=eb48a088-3d97-42c9-afe8-18f657310e96","ios":"levelo://app?vid=eb48a088-3d97-42c9-afe8-18f657310e96"},"vehicle_type_id":"4","last_reported":1701087211,"current_range_meters":26000,"station_id":"ce4bhqh2rcd13ifvqhmg","pricing_plan_id":"free"},{"bike_id":"5e4dd1ba-0dc9-4649-b814-2845b724eaa8","system_id":"levelo_inurba_marseille","lat":43.273613,"lon":5.362705,"is_reserved":false,"is_disabled":false,"rental_uris":{"android":"levelo://app?vid=5e4dd1ba-0dc9-4649-b814-2845b724eaa8","ios":"levelo://app?vid=5e4dd1ba-0dc9-4649-b814-2845b724eaa8"},"vehicle_type_id":"4","last_reported":1701087211,"current_range_meters":22400,"station_id":"ce4bhbh2rcd13ifvqeo0","pricing_plan_id":"free"},{"bike_id":"529e1873-c67a-49df-a3f5-37d727adbcee","system_id":"levelo_inurba_marseille","lat":43.273613,"lon":5.362705,"is_reserved":false,"is_disabled":false,"rental_uris":{"android":"levelo://app?vid=529e1873-c67a-49df-a3f5-37d727adbcee","ios":"levelo://app?vid=529e1873-c67a-49df-a3f5-37d727adbcee"},"vehicle_type_id":"4","last_reported":1701087211,"current_range_meters":21200,"station_id":"ce4bhbh2rcd13ifvqeo0","pricing_plan_id":"free"},{"bike_id":"43a0b753-fb47-4881-91d9-d29a0815f06e","system_id":"levelo_inurba_marseille","lat":43.273609,"lon":5.362708,"is_reserved":false,"is_disabled":false,"rental_uris":{"android":"levelo://app?vid=43a0b753-fb47-4881-91d9-d29a0815f06e","ios":"levelo://app?vid=43a0b753-fb47-4881-91d9-d29a0815f06e"},"vehicle_type_id":"4","last_reported":1701087211,"current_range_meters":30400,"station_id":"ce4bhbh2rcd13ifvqeo0","pricing_plan_id":"free"},{"bike_id":"0eeae51c-7855-4686-ba49-5a63463d5444","system_id":"levelo_inurba_marseille","lat":43.33612,"lon":5.410321,"is_reserved":false,"is_disabled":false,"rental_uris":{"android":"levelo://app?vid=0eeae51c-7855-4686-ba49-5a63463d5444","ios":"levelo://app?vid=0eeae51c-7855-4686-ba49-5a63463d5444"},"vehicle_type_id":"4","last_reported":1701087211,"current_range_meters":31600,"station_id":"ce4bhqh2rcd13ifvqhmg","pricing_plan_id":"free"},{"bike_id":"9ec3d4f3-6e9b-4ff9-b111-0f124f902544","system_id":"levelo_inurba_marseille","lat":43.276769,"lon":5.388787,"is_reserved":false,"is_disabled":false,"rental_uris":{"android":"levelo://app?vid=9ec3d4f3-6e9b-4ff9-b111-0f124f902544","ios":"levelo://app?vid=9ec3d4f3-6e9b-4ff9-b111-0f124f902544"},"vehicle_type_id":"4","last_reported":1701087211,"current_range_meters":10800,"station_id":"ce4bhi12rcd13ifvqfo0","pricing_plan_id":"free"},{"bike_id":"40b9c29e-5ef4-444a-9b4d-b106aea86cad","system_id":"levelo_inurba_marseille","lat":43.276769,"lon":5.388787,"is_reserved":false,"is_disabled":false,"rental_uris":{"android":"levelo://app?vid=40b9c29e-5ef4-444a-9b4d-b106aea86cad","ios":"levelo://app?vid=40b9c29e-5ef4-444a-9b4d-b106aea86cad"},"vehicle_type_id":"4","last_reported":1701087211,"current_range_meters":21600,"station_id":"ce4bhi12rcd13ifvqfo0","pricing_plan_id":"free"},{"bike_id":"5815f790-c729-4d1e-8ca7-8ce2e8dc2fb2","system_id":"levelo_inurba_marseille","lat":43.276769,"lon":5.388787,"is_reserved":false,"is_disabled":false,"rental_uris":{"android":"levelo://app?vid=5815f790-c729-4d1e-8ca7-8ce2e8dc2fb2","ios":"levelo://app?vid=5815f790-c729-4d1e-8ca7-8ce2e8dc2fb2"},"vehicle_type_id":"4","last_reported":1701087211,"current_range_meters":30000,"station_id":"ce4bhi12rcd13ifvqfo0","pricing_plan_id":"free"},{"bike_id":"7328163c-88d4-4a83-b0f2-5441f4e02a38","system_id":"levelo_inurba_marseille","lat":43.279952,"lon":5.400085,"is_reserved":false,"is_disabled":false,"rental_uris":{"android":"levelo://app?vid=7328163c-88d4-4a83-b0f2-5441f4e02a38","ios":"levelo://app?vid=7328163c-88d4-4a83-b0f2-5441f4e02a38"},"vehicle_type_id":"4","last_reported":1701087211,"current_range_meters":22400,"station_id":"ce4bho92rcd13ifvqh4g","pricing_plan_id":"free"},{"bike_id":"b1bad00d-4ba7-4218-829f-4bd2c4df8453","system_id":"levelo_inurba_marseille","lat":43.310785,"lon":5.424305,"is_reserved":false,"is_disabled":false,"rental_uris":{"android":"levelo://app?vid=b1bad00d-4ba7-4218-829f-4bd2c4df8453","ios":"levelo://app?vid=b1bad00d-4ba7-4218-829f-4bd2c4df8453"},"vehicle_type_id":"4","last_reported":1701087211,"current_range_meters":22800,"station_id":"ce4bhp92rcd13ifvqhag","pricing_plan_id":"free"},{"bike_id":"ecd9b44b-6159-47b0-b6a7-0204f7aabbf8","system_id":"levelo_inurba_marseille","lat":43.340804,"lon":5.410219,"is_reserved":false,"is_disabled":false,"rental_uris":{"android":"levelo://app?vid=ecd9b44b-6159-47b0-b6a7-0204f7aabbf8","ios":"levelo://app?vid=ecd9b44b-6159-47b0-b6a7-0204f7aabbf8"},"vehicle_type_id":"4","last_reported":1701087211,"current_range_meters":13600,"station_id":"ce4bhqh2rcd13ifvqhlg","pricing_plan_id":"free"},{"bike_id":"82b5bb96-6569-4927-a4d2-f1faee99f1b8","system_id":"levelo_inurba_marseille","lat":43.340804,"lon":5.410219,"is_reserved":false,"is_disabled":false,"rental_uris":{"android":"levelo://app?vid=82b5bb96-6569-4927-a4d2-f1faee99f1b8","ios":"levelo://app?vid=82b5bb96-6569-4927-a4d2-f1faee99f1b8"},"vehicle_type_id":"4","last_reported":1701087211,"current_range_meters":28000,"station_id":"ce4bhqh2rcd13ifvqhlg","pricing_plan_id":"free"},{"bike_id":"ac9698ef-92bb-4a75-920e-2cf16fe6c883","system_id":"levelo_inurba_marseille","lat":43.340804,"lon":5.410219,"is_reserved":false,"is_disabled":false,"rental_uris":{"android":"levelo://app?vid=ac9698ef-92bb-4a75-920e-2cf16fe6c883","ios":"levelo://app?vid=ac9698ef-92bb-4a75-920e-2cf16fe6c883"},"vehicle_type_id":"4","last_reported":1701087211,"current_range_meters":25200,"station_id":"ce4bhqh2rcd13ifvqhlg","pricing_plan_id":"free"},{"bike_id":"373c1c9a-df30-4f3c-9e30-8990214f11fa","system_id":"levelo_inurba_marseille","lat":43.311301,"lon":5.425013,"is_reserved":false,"is_disabled":false,"rental_uris":{"android":"levelo://app?vid=373c1c9a-df30-4f3c-9e30-8990214f11fa","ios":"levelo://app?vid=373c1c9a-df30-4f3c-9e30-8990214f11fa"},"vehicle_type_id":"4","last_reported":1701087211,"current_range_meters":28000,"station_id":"","pricing_plan_id":"free"},{"bike_id":"8e3f86f1-1a89-4963-8ab3-649d6d1a4e3e","system_id":"levelo_inurba_marseille","lat":43.274103,"lon":5.394016,"is_reserved":false,"is_disabled":false,"rental_uris":{"android":"levelo://app?vid=8e3f86f1-1a89-4963-8ab3-649d6d1a4e3e","ios":"levelo://app?vid=8e3f86f1-1a89-4963-8ab3-649d6d1a4e3e"},"vehicle_type_id":"4","last_reported":1701087211,"current_range_meters":31600,"station_id":"ce4bhdp2rcd13ifvqf20","pricing_plan_id":"free"},{"bike_id":"44349d3b-24df-4893-b7c0-251b6ad4852f","system_id":"levelo_inurba_marseille","lat":43.274103,"lon":5.394016,"is_reserved":false,"is_disabled":false,"rental_uris":{"android":"levelo://app?vid=44349d3b-24df-4893-b7c0-251b6ad4852f","ios":"levelo://app?vid=44349d3b-24df-4893-b7c0-251b6ad4852f"},"vehicle_type_id":"4","last_reported":1701087211,"current_range_meters":10000,"station_id":"ce4bhdp2rcd13ifvqf20","pricing_plan_id":"free"},{"bike_id":"ea3c6ea1-e819-420b-b5dc-5dcaf1e4b19b","system_id":"levelo_inurba_marseille","lat":43.274099,"lon":5.394019,"is_reserved":false,"is_disabled":false,"rental_uris":{"android":"levelo://app?vid=ea3c6ea1-e819-420b-b5dc-5dcaf1e4b19b","ios":"levelo://app?vid=ea3c6ea1-e819-420b-b5dc-5dcaf1e4b19b"},"vehicle_type_id":"4","last_reported":1701087211,"current_range_meters":26400,"station_id":"ce4bhdp2rcd13ifvqf20","pricing_plan_id":"free"},{"bike_id":"71f98f54-efe6-4f0d-96a9-19eb98b06e7f","system_id":"levelo_inurba_marseille","lat":43.295443,"lon":5.422753,"is_reserved":false,"is_disabled":false,"rental_uris":{"android":"levelo://app?vid=71f98f54-efe6-4f0d-96a9-19eb98b06e7f","ios":"levelo://app?vid=71f98f54-efe6-4f0d-96a9-19eb98b06e7f"},"vehicle_type_id":"4","last_reported":1701087211,"current_range_meters":28000,"station_id":"ce4bhph2rcd13ifvqhdg","pricing_plan_id":"free"},{"bike_id":"38605ce9-a0d7-4561-a428-2969313090c5","system_id":"levelo_inurba_marseille","lat":43.295525,"lon":5.42282,"is_reserved":false,"is_disabled":false,"rental_uris":{"android":"levelo://app?vid=38605ce9-a0d7-4561-a428-2969313090c5","ios":"levelo://app?vid=38605ce9-a0d7-4561-a428-2969313090c5"},"vehicle_type_id":"4","last_reported":1701087211,"current_range_meters":30800,"station_id":"ce4bhph2rcd13ifvqhdg","pricing_plan_id":"free"},{"bike_id":"487e8935-2222-4e65-8507-6d483307a42a","system_id":"levelo_inurba_marseille","lat":43.295511,"lon":5.422926,"is_reserved":false,"is_disabled":false,"rental_uris":{"android":"levelo://app?vid=487e8935-2222-4e65-8507-6d483307a42a","ios":"levelo://app?vid=487e8935-2222-4e65-8507-6d483307a42a"},"vehicle_type_id":"4","last_reported":1701087211,"current_range_meters":31200,"station_id":"ce4bhph2rcd13ifvqhdg","pricing_plan_id":"free"},{"bike_id":"ef9d4fc2-15fc-4d36-bbad-730b3d424927","system_id":"levelo_inurba_marseille","lat":43.295505,"lon":5.42284,"is_reserved":false,"is_disabled":false,"rental_uris":{"android":"levelo://app?vid=ef9d4fc2-15fc-4d36-bbad-730b3d424927","ios":"levelo://app?vid=ef9d4fc2-15fc-4d36-bbad-730b3d424927"},"vehicle_type_id":"4","last_reported":1701087211,"current_range_meters":16800,"station_id":"ce4bhph2rcd13ifvqhdg","pricing_plan_id":"free"},{"bike_id":"46787825-cd50-42ab-99c3-6c3a26ac265a","system_id":"levelo_inurba_marseille","lat":43.29548,"lon":5.42283,"is_reserved":false,"is_disabled":false,"rental_uris":{"android":"levelo://app?vid=46787825-cd50-42ab-99c3-6c3a26ac265a","ios":"levelo://app?vid=46787825-cd50-42ab-99c3-6c3a26ac265a"},"vehicle_type_id":"4","last_reported":1701087211,"current_range_meters":27200,"station_id":"ce4bhph2rcd13ifvqhdg","pricing_plan_id":"free"},{"bike_id":"08fe44e4-201e-4497-b2af-1597ca570ac3","system_id":"levelo_inurba_marseille","lat":43.295511,"lon":5.422926,"is_reserved":false,"is_disabled":false,"rental_uris":{"android":"levelo://app?vid=08fe44e4-201e-4497-b2af-1597ca570ac3","ios":"levelo://app?vid=08fe44e4-201e-4497-b2af-1597ca570ac3"},"vehicle_type_id":"4","last_reported":1701087211,"current_range_meters":23600,"station_id":"ce4bhph2rcd13ifvqhdg","pricing_plan_id":"free"},{"bike_id":"b1b78d16-7343-4dce-aa27-1d5ee41950af","system_id":"levelo_inurba_marseille","lat":43.29544,"lon":5.42287,"is_reserved":false,"is_disabled":false,"rental_uris":{"android":"levelo://app?vid=b1b78d16-7343-4dce-aa27-1d5ee41950af","ios":"levelo://app?vid=b1b78d16-7343-4dce-aa27-1d5ee41950af"},"vehicle_type_id":"4","last_reported":1701087211,"current_range_meters":24000,"station_id":"ce4bhph2rcd13ifvqhdg","pricing_plan_id":"free"},{"bike_id":"fe1a0da7-ac78-4623-9b9d-9ec231e567e0","system_id":"levelo_inurba_marseille","lat":43.295485,"lon":5.42291,"is_reserved":false,"is_disabled":false,"rental_uris":{"android":"levelo://app?vid=fe1a0da7-ac78-4623-9b9d-9ec231e567e0","ios":"levelo://app?vid=fe1a0da7-ac78-4623-9b9d-9ec231e567e0"},"vehicle_type_id":"4","last_reported":1701087211,"current_range_meters":26400,"station_id":"ce4bhph2rcd13ifvqhdg","pricing_plan_id":"free"},{"bike_id":"2afe8278-72ae-4433-86e3-46ef15a65e53","system_id":"levelo_inurba_marseille","lat":43.29552,"lon":5.42295,"is_reserved":false,"is_disabled":false,"rental_uris":{"android":"levelo://app?vid=2afe8278-72ae-4433-86e3-46ef15a65e53","ios":"levelo://app?vid=2afe8278-72ae-4433-86e3-46ef15a65e53"},"vehicle_type_id":"4","last_reported":1701087211,"current_range_meters":29200,"station_id":"ce4bhph2rcd13ifvqhdg","pricing_plan_id":"free"},{"bike_id":"5c8cb611-c43d-4e9c-a034-e32f1c176c35","system_id":"levelo_inurba_marseille","lat":43.272124,"lon":5.391768,"is_reserved":false,"is_disabled":false,"rental_uris":{"android":"levelo://app?vid=5c8cb611-c43d-4e9c-a034-e32f1c176c35","ios":"levelo://app?vid=5c8cb611-c43d-4e9c-a034-e32f1c176c35"},"vehicle_type_id":"4","last_reported":1701087211,"current_range_meters":28400,"station_id":"ce4bhhp2rcd13ifvqfm0","pricing_plan_id":"free"},{"bike_id":"7461af23-680b-4704-b4d5-9c9e46c32537","system_id":"levelo_inurba_marseille","lat":43.272124,"lon":5.391768,"is_reserved":false,"is_disabled":false,"rental_uris":{"android":"levelo://app?vid=7461af23-680b-4704-b4d5-9c9e46c32537","ios":"levelo://app?vid=7461af23-680b-4704-b4d5-9c9e46c32537"},"vehicle_type_id":"4","last_reported":1701087211,"current_range_meters":2800,"station_id":"ce4bhhp2rcd13ifvqfm0","pricing_plan_id":"free"},{"bike_id":"ce31c57f-7845-4bbc-80f1-370420afe6f4","system_id":"levelo_inurba_marseille","lat":43.27194,"lon":5.39201,"is_reserved":false,"is_disabled":false,"rental_uris":{"android":"levelo://app?vid=ce31c57f-7845-4bbc-80f1-370420afe6f4","ios":"levelo://app?vid=ce31c57f-7845-4bbc-80f1-370420afe6f4"},"vehicle_type_id":"4","last_reported":1701087211,"current_range_meters":0,"station_id":"ce4bhhp2rcd13ifvqfm0","pricing_plan_id":"free"},{"bike_id":"9efe761d-4b17-4e3f-a49f-4e76c8ea96ba","system_id":"levelo_inurba_marseille","lat":43.27207,"lon":5.39248,"is_reserved":false,"is_disabled":false,"rental_uris":{"android":"levelo://app?vid=9efe761d-4b17-4e3f-a49f-4e76c8ea96ba","ios":"levelo://app?vid=9efe761d-4b17-4e3f-a49f-4e76c8ea96ba"},"vehicle_type_id":"4","last_reported":1701087211,"current_range_meters":22000,"station_id":"","pricing_plan_id":"free"},{"bike_id":"3e8b487c-5cac-497b-b83a-951accc6f17d","system_id":"levelo_inurba_marseille","lat":43.278128,"lon":5.407195,"is_reserved":false,"is_disabled":false,"rental_uris":{"android":"levelo://app?vid=3e8b487c-5cac-497b-b83a-951accc6f17d","ios":"levelo://app?vid=3e8b487c-5cac-497b-b83a-951accc6f17d"},"vehicle_type_id":"4","last_reported":1701087211,"current_range_meters":27600,"station_id":"ce4bhnh2rcd13ifvqgtg","pricing_plan_id":"free"},{"bike_id":"99b2cbca-99c8-43cf-aa64-7083dbdfbcc4","system_id":"levelo_inurba_marseille","lat":43.278128,"lon":5.407195,"is_reserved":false,"is_disabled":false,"rental_uris":{"android":"levelo://app?vid=99b2cbca-99c8-43cf-aa64-7083dbdfbcc4","ios":"levelo://app?vid=99b2cbca-99c8-43cf-aa64-7083dbdfbcc4"},"vehicle_type_id":"4","last_reported":1701087211,"current_range_meters":16000,"station_id":"ce4bhnh2rcd13ifvqgtg","pricing_plan_id":"free"},{"bike_id":"928b9a33-86bd-4e47-8ca8-52cef51b7206","system_id":"levelo_inurba_marseille","lat":43.269467,"lon":5.386439,"is_reserved":false,"is_disabled":false,"rental_uris":{"android":"levelo://app?vid=928b9a33-86bd-4e47-8ca8-52cef51b7206","ios":"levelo://app?vid=928b9a33-86bd-4e47-8ca8-52cef51b7206"},"vehicle_type_id":"4","last_reported":1701087211,"current_range_meters":26400,"station_id":"ce4bhh92rcd13ifvqfh0","pricing_plan_id":"free"},{"bike_id":"11c530ef-3a1e-4341-9786-f43509d01bc1","system_id":"levelo_inurba_marseille","lat":43.29794,"lon":5.42658,"is_reserved":false,"is_disabled":false,"rental_uris":{"android":"levelo://app?vid=11c530ef-3a1e-4341-9786-f43509d01bc1","ios":"levelo://app?vid=11c530ef-3a1e-4341-9786-f43509d01bc1"},"vehicle_type_id":"4","last_reported":1701087211,"current_range_meters":0,"station_id":"","pricing_plan_id":"free"},{"bike_id":"b13a942b-5b83-431b-96ed-c53ee14198c7","system_id":"levelo_inurba_marseille","lat":43.26681,"lon":5.382694,"is_reserved":false,"is_disabled":false,"rental_uris":{"android":"levelo://app?vid=b13a942b-5b83-431b-96ed-c53ee14198c7","ios":"levelo://app?vid=b13a942b-5b83-431b-96ed-c53ee14198c7"},"vehicle_type_id":"4","last_reported":1701087211,"current_range_meters":31200,"station_id":"ce4bhg92rcd13ifvqf90","pricing_plan_id":"free"},{"bike_id":"85e14555-81ae-4c2b-bb64-c7d65db3d5a9","system_id":"levelo_inurba_marseille","lat":43.26681,"lon":5.382694,"is_reserved":false,"is_disabled":false,"rental_uris":{"android":"levelo://app?vid=85e14555-81ae-4c2b-bb64-c7d65db3d5a9","ios":"levelo://app?vid=85e14555-81ae-4c2b-bb64-c7d65db3d5a9"},"vehicle_type_id":"4","last_reported":1701087211,"current_range_meters":30000,"station_id":"ce4bhg92rcd13ifvqf90","pricing_plan_id":"free"},{"bike_id":"3f118269-40dc-4f43-80d2-9f0573bdf414","system_id":"levelo_inurba_marseille","lat":43.26681,"lon":5.382694,"is_reserved":false,"is_disabled":false,"rental_uris":{"android":"levelo://app?vid=3f118269-40dc-4f43-80d2-9f0573bdf414","ios":"levelo://app?vid=3f118269-40dc-4f43-80d2-9f0573bdf414"},"vehicle_type_id":"4","last_reported":1701087211,"current_range_meters":25600,"station_id":"ce4bhg92rcd13ifvqf90","pricing_plan_id":"free"},{"bike_id":"045c779a-0de3-4f1a-9ff9-44572f00cc3e","system_id":"levelo_inurba_marseille","lat":43.26681,"lon":5.382694,"is_reserved":false,"is_disabled":false,"rental_uris":{"android":"levelo://app?vid=045c779a-0de3-4f1a-9ff9-44572f00cc3e","ios":"levelo://app?vid=045c779a-0de3-4f1a-9ff9-44572f00cc3e"},"vehicle_type_id":"4","last_reported":1701087211,"current_range_meters":31600,"station_id":"ce4bhg92rcd13ifvqf90","pricing_plan_id":"free"},{"bike_id":"e4b68f4a-2ca1-49c2-936e-c6a93135be9a","system_id":"levelo_inurba_marseille","lat":43.26681,"lon":5.382694,"is_reserved":false,"is_disabled":false,"rental_uris":{"android":"levelo://app?vid=e4b68f4a-2ca1-49c2-936e-c6a93135be9a","ios":"levelo://app?vid=e4b68f4a-2ca1-49c2-936e-c6a93135be9a"},"vehicle_type_id":"4","last_reported":1701087211,"current_range_meters":31600,"station_id":"ce4bhg92rcd13ifvqf90","pricing_plan_id":"free"},{"bike_id":"4e935c36-90c4-402d-8a48-9c806e8c7f2f","system_id":"levelo_inurba_marseille","lat":43.26681,"lon":5.382694,"is_reserved":false,"is_disabled":false,"rental_uris":{"android":"levelo://app?vid=4e935c36-90c4-402d-8a48-9c806e8c7f2f","ios":"levelo://app?vid=4e935c36-90c4-402d-8a48-9c806e8c7f2f"},"vehicle_type_id":"4","last_reported":1701087211,"current_range_meters":31600,"station_id":"ce4bhg92rcd13ifvqf90","pricing_plan_id":"free"},{"bike_id":"f23d8119-b478-4639-98c5-6883279f9f84","system_id":"levelo_inurba_marseille","lat":43.32592,"lon":5.43067,"is_reserved":false,"is_disabled":false,"rental_uris":{"android":"levelo://app?vid=f23d8119-b478-4639-98c5-6883279f9f84","ios":"levelo://app?vid=f23d8119-b478-4639-98c5-6883279f9f84"},"vehicle_type_id":"4","last_reported":1701087211,"current_range_meters":19200,"station_id":"","pricing_plan_id":"free"},{"bike_id":"ed30d6a1-b23a-49e5-9c83-5546be72a734","system_id":"levelo_inurba_marseille","lat":43.3259,"lon":5.43075,"is_reserved":false,"is_disabled":false,"rental_uris":{"android":"levelo://app?vid=ed30d6a1-b23a-49e5-9c83-5546be72a734","ios":"levelo://app?vid=ed30d6a1-b23a-49e5-9c83-5546be72a734"},"vehicle_type_id":"4","last_reported":1701087211,"current_range_meters":14000,"station_id":"","pricing_plan_id":"free"},{"bike_id":"d67469ee-5362-4610-a163-fe05ae3cf4f7","system_id":"levelo_inurba_marseille","lat":43.32604,"lon":5.430817,"is_reserved":false,"is_disabled":false,"rental_uris":{"android":"levelo://app?vid=d67469ee-5362-4610-a163-fe05ae3cf4f7","ios":"levelo://app?vid=d67469ee-5362-4610-a163-fe05ae3cf4f7"},"vehicle_type_id":"4","last_reported":1701087211,"current_range_meters":2400,"station_id":"","pricing_plan_id":"free"},{"bike_id":"5986dab0-7b77-4674-8135-17288066df9b","system_id":"levelo_inurba_marseille","lat":43.275319,"lon":5.409421,"is_reserved":false,"is_disabled":false,"rental_uris":{"android":"levelo://app?vid=5986dab0-7b77-4674-8135-17288066df9b","ios":"levelo://app?vid=5986dab0-7b77-4674-8135-17288066df9b"},"vehicle_type_id":"4","last_reported":1701087211,"current_range_meters":18400,"station_id":"","pricing_plan_id":"free"},{"bike_id":"f131c4aa-5f4c-4894-b7bf-cc59f84a52f2","system_id":"levelo_inurba_marseille","lat":43.265714,"lon":5.372891,"is_reserved":false,"is_disabled":false,"rental_uris":{"android":"levelo://app?vid=f131c4aa-5f4c-4894-b7bf-cc59f84a52f2","ios":"levelo://app?vid=f131c4aa-5f4c-4894-b7bf-cc59f84a52f2"},"vehicle_type_id":"4","last_reported":1701087211,"current_range_meters":2000,"station_id":"ce4bhg12rcd13ifvqf70","pricing_plan_id":"free"},{"bike_id":"3dc7c2aa-e6ab-453b-aa9f-12d128b83b2b","system_id":"levelo_inurba_marseille","lat":43.267966,"lon":5.393976,"is_reserved":false,"is_disabled":false,"rental_uris":{"android":"levelo://app?vid=3dc7c2aa-e6ab-453b-aa9f-12d128b83b2b","ios":"levelo://app?vid=3dc7c2aa-e6ab-453b-aa9f-12d128b83b2b"},"vehicle_type_id":"4","last_reported":1701087211,"current_range_meters":25600,"station_id":"ce4bhh12rcd13ifvqfg0","pricing_plan_id":"free"},{"bike_id":"8eb81be6-84be-47cb-b6f9-462d5d9d058b","system_id":"levelo_inurba_marseille","lat":43.267966,"lon":5.393976,"is_reserved":false,"is_disabled":false,"rental_uris":{"android":"levelo://app?vid=8eb81be6-84be-47cb-b6f9-462d5d9d058b","ios":"levelo://app?vid=8eb81be6-84be-47cb-b6f9-462d5d9d058b"},"vehicle_type_id":"4","last_reported":1701087211,"current_range_meters":18000,"station_id":"ce4bhh12rcd13ifvqfg0","pricing_plan_id":"free"},{"bike_id":"791b00c5-2e5a-477f-860f-ce8be00c8748","system_id":"levelo_inurba_marseille","lat":43.26949,"lon":5.40262,"is_reserved":false,"is_disabled":false,"rental_uris":{"android":"levelo://app?vid=791b00c5-2e5a-477f-860f-ce8be00c8748","ios":"levelo://app?vid=791b00c5-2e5a-477f-860f-ce8be00c8748"},"vehicle_type_id":"4","last_reported":1701087211,"current_range_meters":4400,"station_id":"cjm6bp8fraef2m0cb0m0","pricing_plan_id":"free"},{"bike_id":"0702b027-d92c-4ecd-97a5-310236d5c197","system_id":"levelo_inurba_marseille","lat":43.283494,"lon":5.380945,"is_reserved":false,"is_disabled":false,"rental_uris":{"android":"levelo://app?vid=0702b027-d92c-4ecd-97a5-310236d5c197","ios":"levelo://app?vid=0702b027-d92c-4ecd-97a5-310236d5c197"},"vehicle_type_id":"4","last_reported":1701087211,"current_range_meters":20400,"station_id":"ce4bh412rcd13ifvqdr0","pricing_plan_id":"free"},{"bike_id":"0a4f731c-3eb7-4528-bc5f-67f098acc892","system_id":"levelo_inurba_marseille","lat":43.26937,"lon":5.40265,"is_reserved":false,"is_disabled":false,"rental_uris":{"android":"levelo://app?vid=0a4f731c-3eb7-4528-bc5f-67f098acc892","ios":"levelo://app?vid=0a4f731c-3eb7-4528-bc5f-67f098acc892"},"vehicle_type_id":"4","last_reported":1701087211,"current_range_meters":13600,"station_id":"cjm6bp8fraef2m0cb0m0","pricing_plan_id":"free"},{"bike_id":"9278f4e2-4379-43b0-aa4c-7afd415fee32","system_id":"levelo_inurba_marseille","lat":43.26199,"lon":5.3792,"is_reserved":false,"is_disabled":false,"rental_uris":{"android":"levelo://app?vid=9278f4e2-4379-43b0-aa4c-7afd415fee32","ios":"levelo://app?vid=9278f4e2-4379-43b0-aa4c-7afd415fee32"},"vehicle_type_id":"4","last_reported":1701087211,"current_range_meters":30400,"station_id":"ce4bhjp2rcd13ifvqg90","pricing_plan_id":"free"},{"bike_id":"d0510501-6244-4a65-90f0-44980fe6afd0","system_id":"levelo_inurba_marseille","lat":43.262012,"lon":5.379307,"is_reserved":false,"is_disabled":false,"rental_uris":{"android":"levelo://app?vid=d0510501-6244-4a65-90f0-44980fe6afd0","ios":"levelo://app?vid=d0510501-6244-4a65-90f0-44980fe6afd0"},"vehicle_type_id":"4","last_reported":1701087211,"current_range_meters":24400,"station_id":"ce4bhjp2rcd13ifvqg90","pricing_plan_id":"free"},{"bike_id":"7c5a83ac-336c-4b91-a5ea-82b3c6d6127d","system_id":"levelo_inurba_marseille","lat":43.298768,"lon":5.43643,"is_reserved":false,"is_disabled":false,"rental_uris":{"android":"levelo://app?vid=7c5a83ac-336c-4b91-a5ea-82b3c6d6127d","ios":"levelo://app?vid=7c5a83ac-336c-4b91-a5ea-82b3c6d6127d"},"vehicle_type_id":"4","last_reported":1701087211,"current_range_meters":31200,"station_id":"ce4bhpp2rcd13ifvqhfg","pricing_plan_id":"free"},{"bike_id":"f4f2e1d5-dafa-412d-9b3a-3611814786ce","system_id":"levelo_inurba_marseille","lat":43.298768,"lon":5.43643,"is_reserved":false,"is_disabled":false,"rental_uris":{"android":"levelo://app?vid=f4f2e1d5-dafa-412d-9b3a-3611814786ce","ios":"levelo://app?vid=f4f2e1d5-dafa-412d-9b3a-3611814786ce"},"vehicle_type_id":"4","last_reported":1701087211,"current_range_meters":31200,"station_id":"ce4bhpp2rcd13ifvqhfg","pricing_plan_id":"free"},{"bike_id":"9713bde9-c9a7-4d76-bb95-dac32047e32a","system_id":"levelo_inurba_marseille","lat":43.298768,"lon":5.43643,"is_reserved":false,"is_disabled":false,"rental_uris":{"android":"levelo://app?vid=9713bde9-c9a7-4d76-bb95-dac32047e32a","ios":"levelo://app?vid=9713bde9-c9a7-4d76-bb95-dac32047e32a"},"vehicle_type_id":"4","last_reported":1701087211,"current_range_meters":26800,"station_id":"ce4bhpp2rcd13ifvqhfg","pricing_plan_id":"free"},{"bike_id":"df86183c-2087-436f-9bdd-29ed82a32076","system_id":"levelo_inurba_marseille","lat":43.298768,"lon":5.43643,"is_reserved":false,"is_disabled":false,"rental_uris":{"android":"levelo://app?vid=df86183c-2087-436f-9bdd-29ed82a32076","ios":"levelo://app?vid=df86183c-2087-436f-9bdd-29ed82a32076"},"vehicle_type_id":"4","last_reported":1701087211,"current_range_meters":24400,"station_id":"ce4bhpp2rcd13ifvqhfg","pricing_plan_id":"free"},{"bike_id":"ac468d0d-cd6b-40fe-b3b0-ba36ca82188e","system_id":"levelo_inurba_marseille","lat":43.260225,"lon":5.375455,"is_reserved":false,"is_disabled":false,"rental_uris":{"android":"levelo://app?vid=ac468d0d-cd6b-40fe-b3b0-ba36ca82188e","ios":"levelo://app?vid=ac468d0d-cd6b-40fe-b3b0-ba36ca82188e"},"vehicle_type_id":"4","last_reported":1701087211,"current_range_meters":7200,"station_id":"ce4bhgh2rcd13ifvqfa0","pricing_plan_id":"free"},{"bike_id":"e23b723f-548a-48e5-96f6-5b49167940a2","system_id":"levelo_inurba_marseille","lat":43.281548,"lon":5.42643,"is_reserved":false,"is_disabled":false,"rental_uris":{"android":"levelo://app?vid=e23b723f-548a-48e5-96f6-5b49167940a2","ios":"levelo://app?vid=e23b723f-548a-48e5-96f6-5b49167940a2"},"vehicle_type_id":"4","last_reported":1701087211,"current_range_meters":27200,"station_id":"ce4bhnh2rcd13ifvqgug","pricing_plan_id":"free"},{"bike_id":"f5487371-dbab-4ae8-8b48-a46fcfb6789c","system_id":"levelo_inurba_marseille","lat":43.281548,"lon":5.42643,"is_reserved":false,"is_disabled":false,"rental_uris":{"android":"levelo://app?vid=f5487371-dbab-4ae8-8b48-a46fcfb6789c","ios":"levelo://app?vid=f5487371-dbab-4ae8-8b48-a46fcfb6789c"},"vehicle_type_id":"4","last_reported":1701087211,"current_range_meters":22800,"station_id":"ce4bhnh2rcd13ifvqgug","pricing_plan_id":"free"},{"bike_id":"663e2856-97eb-4b81-94eb-bf862fd80921","system_id":"levelo_inurba_marseille","lat":43.2607,"lon":5.393983,"is_reserved":false,"is_disabled":false,"rental_uris":{"android":"levelo://app?vid=663e2856-97eb-4b81-94eb-bf862fd80921","ios":"levelo://app?vid=663e2856-97eb-4b81-94eb-bf862fd80921"},"vehicle_type_id":"4","last_reported":1701087211,"current_range_meters":21200,"station_id":"ce4bhh92rcd13ifvqfj0","pricing_plan_id":"free"},{"bike_id":"a64a4b70-e7e1-4535-a46a-64b992c0b24e","system_id":"levelo_inurba_marseille","lat":43.2607,"lon":5.393983,"is_reserved":false,"is_disabled":false,"rental_uris":{"android":"levelo://app?vid=a64a4b70-e7e1-4535-a46a-64b992c0b24e","ios":"levelo://app?vid=a64a4b70-e7e1-4535-a46a-64b992c0b24e"},"vehicle_type_id":"4","last_reported":1701087211,"current_range_meters":26400,"station_id":"ce4bhh92rcd13ifvqfj0","pricing_plan_id":"free"},{"bike_id":"81dd8d55-76ce-4385-8abb-043e706ef176","system_id":"levelo_inurba_marseille","lat":43.2607,"lon":5.393983,"is_reserved":false,"is_disabled":false,"rental_uris":{"android":"levelo://app?vid=81dd8d55-76ce-4385-8abb-043e706ef176","ios":"levelo://app?vid=81dd8d55-76ce-4385-8abb-043e706ef176"},"vehicle_type_id":"4","last_reported":1701087211,"current_range_meters":20800,"station_id":"ce4bhh92rcd13ifvqfj0","pricing_plan_id":"free"},{"bike_id":"155eb1f4-e4ff-4151-870f-9f53e6430e9c","system_id":"levelo_inurba_marseille","lat":43.275028,"lon":5.424534,"is_reserved":false,"is_disabled":false,"rental_uris":{"android":"levelo://app?vid=155eb1f4-e4ff-4151-870f-9f53e6430e9c","ios":"levelo://app?vid=155eb1f4-e4ff-4151-870f-9f53e6430e9c"},"vehicle_type_id":"4","last_reported":1701087211,"current_range_meters":31600,"station_id":"ce4bhn92rcd13ifvqgrg","pricing_plan_id":"free"},{"bike_id":"af2159a7-533c-44b2-9f91-55ad689fd878","system_id":"levelo_inurba_marseille","lat":43.275028,"lon":5.424534,"is_reserved":false,"is_disabled":false,"rental_uris":{"android":"levelo://app?vid=af2159a7-533c-44b2-9f91-55ad689fd878","ios":"levelo://app?vid=af2159a7-533c-44b2-9f91-55ad689fd878"},"vehicle_type_id":"4","last_reported":1701087211,"current_range_meters":25200,"station_id":"ce4bhn92rcd13ifvqgrg","pricing_plan_id":"free"},{"bike_id":"a546cec7-c461-4563-8f9d-9c8f6cf81155","system_id":"levelo_inurba_marseille","lat":43.275028,"lon":5.424534,"is_reserved":false,"is_disabled":false,"rental_uris":{"android":"levelo://app?vid=a546cec7-c461-4563-8f9d-9c8f6cf81155","ios":"levelo://app?vid=a546cec7-c461-4563-8f9d-9c8f6cf81155"},"vehicle_type_id":"4","last_reported":1701087211,"current_range_meters":20800,"station_id":"ce4bhn92rcd13ifvqgrg","pricing_plan_id":"free"},{"bike_id":"1dad8be2-a25a-4d6a-8d77-523cccd2cf17","system_id":"levelo_inurba_marseille","lat":43.275028,"lon":5.424534,"is_reserved":false,"is_disabled":false,"rental_uris":{"android":"levelo://app?vid=1dad8be2-a25a-4d6a-8d77-523cccd2cf17","ios":"levelo://app?vid=1dad8be2-a25a-4d6a-8d77-523cccd2cf17"},"vehicle_type_id":"4","last_reported":1701087211,"current_range_meters":12800,"station_id":"ce4bhn92rcd13ifvqgrg","pricing_plan_id":"free"},{"bike_id":"c85f7616-3a9e-47a4-ae16-28a03e51ab4f","system_id":"levelo_inurba_marseille","lat":43.28929,"lon":5.438754,"is_reserved":false,"is_disabled":false,"rental_uris":{"android":"levelo://app?vid=c85f7616-3a9e-47a4-ae16-28a03e51ab4f","ios":"levelo://app?vid=c85f7616-3a9e-47a4-ae16-28a03e51ab4f"},"vehicle_type_id":"4","last_reported":1701087211,"current_range_meters":7600,"station_id":"","pricing_plan_id":"free"},{"bike_id":"90b92ef4-41f7-422c-81d7-0e758e35d98c","system_id":"levelo_inurba_marseille","lat":43.25824,"lon":5.39428,"is_reserved":false,"is_disabled":false,"rental_uris":{"android":"levelo://app?vid=90b92ef4-41f7-422c-81d7-0e758e35d98c","ios":"levelo://app?vid=90b92ef4-41f7-422c-81d7-0e758e35d98c"},"vehicle_type_id":"4","last_reported":1701087211,"current_range_meters":25200,"station_id":"ce4bhip2rcd13ifvqft0","pricing_plan_id":"free"},{"bike_id":"fa94e1b3-924d-484c-aa3a-070aacbdbbfd","system_id":"levelo_inurba_marseille","lat":43.270699,"lon":5.422771,"is_reserved":false,"is_disabled":false,"rental_uris":{"android":"levelo://app?vid=fa94e1b3-924d-484c-aa3a-070aacbdbbfd","ios":"levelo://app?vid=fa94e1b3-924d-484c-aa3a-070aacbdbbfd"},"vehicle_type_id":"4","last_reported":1701087211,"current_range_meters":24800,"station_id":"ce4bhk92rcd13ifvqgb0","pricing_plan_id":"free"},{"bike_id":"c6403408-c03d-4a33-8066-445b4460a28e","system_id":"levelo_inurba_marseille","lat":43.270721,"lon":5.422764,"is_reserved":false,"is_disabled":false,"rental_uris":{"android":"levelo://app?vid=c6403408-c03d-4a33-8066-445b4460a28e","ios":"levelo://app?vid=c6403408-c03d-4a33-8066-445b4460a28e"},"vehicle_type_id":"4","last_reported":1701087211,"current_range_meters":26000,"station_id":"ce4bhk92rcd13ifvqgb0","pricing_plan_id":"free"},{"bike_id":"8996178d-25f0-40d2-947b-1feb5661f950","system_id":"levelo_inurba_marseille","lat":43.259009,"lon":5.40929,"is_reserved":false,"is_disabled":false,"rental_uris":{"android":"levelo://app?vid=8996178d-25f0-40d2-947b-1feb5661f950","ios":"levelo://app?vid=8996178d-25f0-40d2-947b-1feb5661f950"},"vehicle_type_id":"4","last_reported":1701087211,"current_range_meters":16000,"station_id":"ce4bhm92rcd13ifvqglg","pricing_plan_id":"free"},{"bike_id":"d80cffa5-e43b-41ec-9e44-46353fc74d12","system_id":"levelo_inurba_marseille","lat":43.2593,"lon":5.40911,"is_reserved":false,"is_disabled":false,"rental_uris":{"android":"levelo://app?vid=d80cffa5-e43b-41ec-9e44-46353fc74d12","ios":"levelo://app?vid=d80cffa5-e43b-41ec-9e44-46353fc74d12"},"vehicle_type_id":"4","last_reported":1701087211,"current_range_meters":4400,"station_id":"ce4bhm92rcd13ifvqglg","pricing_plan_id":"free"},{"bike_id":"e700eeaa-c69f-4344-9393-dd49f5b54086","system_id":"levelo_inurba_marseille","lat":43.2479,"lon":5.374457,"is_reserved":false,"is_disabled":false,"rental_uris":{"android":"levelo://app?vid=e700eeaa-c69f-4344-9393-dd49f5b54086","ios":"levelo://app?vid=e700eeaa-c69f-4344-9393-dd49f5b54086"},"vehicle_type_id":"4","last_reported":1701087211,"current_range_meters":28800,"station_id":"ce4bhgh2rcd13ifvqfb0","pricing_plan_id":"free"},{"bike_id":"8713247c-636e-415c-9b44-9f9fb4ef6fb8","system_id":"levelo_inurba_marseille","lat":43.2479,"lon":5.374457,"is_reserved":false,"is_disabled":false,"rental_uris":{"android":"levelo://app?vid=8713247c-636e-415c-9b44-9f9fb4ef6fb8","ios":"levelo://app?vid=8713247c-636e-415c-9b44-9f9fb4ef6fb8"},"vehicle_type_id":"4","last_reported":1701087211,"current_range_meters":27200,"station_id":"ce4bhgh2rcd13ifvqfb0","pricing_plan_id":"free"},{"bike_id":"4c0c3118-7eaa-4ebd-8d87-d449bea3e021","system_id":"levelo_inurba_marseille","lat":43.250897,"lon":5.395161,"is_reserved":false,"is_disabled":false,"rental_uris":{"android":"levelo://app?vid=4c0c3118-7eaa-4ebd-8d87-d449bea3e021","ios":"levelo://app?vid=4c0c3118-7eaa-4ebd-8d87-d449bea3e021"},"vehicle_type_id":"4","last_reported":1701087211,"current_range_meters":20400,"station_id":"ce4bhm12rcd13ifvqgkg","pricing_plan_id":"free"},{"bike_id":"9b0039ff-2801-4403-8a0d-1f1525f73053","system_id":"levelo_inurba_marseille","lat":43.246677,"lon":5.381613,"is_reserved":false,"is_disabled":false,"rental_uris":{"android":"levelo://app?vid=9b0039ff-2801-4403-8a0d-1f1525f73053","ios":"levelo://app?vid=9b0039ff-2801-4403-8a0d-1f1525f73053"},"vehicle_type_id":"4","last_reported":1701087211,"current_range_meters":22000,"station_id":"","pricing_plan_id":"free"},{"bike_id":"e3543b69-7540-44c7-b9c8-6ae053bf2c52","system_id":"levelo_inurba_marseille","lat":43.24693,"lon":5.382096,"is_reserved":false,"is_disabled":false,"rental_uris":{"android":"levelo://app?vid=e3543b69-7540-44c7-b9c8-6ae053bf2c52","ios":"levelo://app?vid=e3543b69-7540-44c7-b9c8-6ae053bf2c52"},"vehicle_type_id":"4","last_reported":1701087211,"current_range_meters":28000,"station_id":"ce4bhih2rcd13ifvqfr0","pricing_plan_id":"free"},{"bike_id":"445c32b3-a1e0-479b-bc65-17209db05551","system_id":"levelo_inurba_marseille","lat":43.25102,"lon":5.403214,"is_reserved":false,"is_disabled":false,"rental_uris":{"android":"levelo://app?vid=445c32b3-a1e0-479b-bc65-17209db05551","ios":"levelo://app?vid=445c32b3-a1e0-479b-bc65-17209db05551"},"vehicle_type_id":"4","last_reported":1701087211,"current_range_meters":31600,"station_id":"ce4bhlh2rcd13ifvqgig","pricing_plan_id":"free"},{"bike_id":"c8425701-3529-4cf3-a923-e776d96cff65","system_id":"levelo_inurba_marseille","lat":43.25102,"lon":5.403214,"is_reserved":false,"is_disabled":false,"rental_uris":{"android":"levelo://app?vid=c8425701-3529-4cf3-a923-e776d96cff65","ios":"levelo://app?vid=c8425701-3529-4cf3-a923-e776d96cff65"},"vehicle_type_id":"4","last_reported":1701087211,"current_range_meters":24000,"station_id":"ce4bhlh2rcd13ifvqgig","pricing_plan_id":"free"},{"bike_id":"de3354de-4426-4e2f-a428-7be60e2af2c3","system_id":"levelo_inurba_marseille","lat":43.25102,"lon":5.403214,"is_reserved":false,"is_disabled":false,"rental_uris":{"android":"levelo://app?vid=de3354de-4426-4e2f-a428-7be60e2af2c3","ios":"levelo://app?vid=de3354de-4426-4e2f-a428-7be60e2af2c3"},"vehicle_type_id":"4","last_reported":1701087211,"current_range_meters":3600,"station_id":"ce4bhlh2rcd13ifvqgig","pricing_plan_id":"free"},{"bike_id":"4bd988c7-a8cd-4957-9b89-67885582f9a5","system_id":"levelo_inurba_marseille","lat":43.25102,"lon":5.403214,"is_reserved":false,"is_disabled":false,"rental_uris":{"android":"levelo://app?vid=4bd988c7-a8cd-4957-9b89-67885582f9a5","ios":"levelo://app?vid=4bd988c7-a8cd-4957-9b89-67885582f9a5"},"vehicle_type_id":"4","last_reported":1701087211,"current_range_meters":10400,"station_id":"ce4bhlh2rcd13ifvqgig","pricing_plan_id":"free"},{"bike_id":"11a527de-e444-4570-a012-19d63dcf8a1c","system_id":"levelo_inurba_marseille","lat":43.246461,"lon":5.389014,"is_reserved":false,"is_disabled":false,"rental_uris":{"android":"levelo://app?vid=11a527de-e444-4570-a012-19d63dcf8a1c","ios":"levelo://app?vid=11a527de-e444-4570-a012-19d63dcf8a1c"},"vehicle_type_id":"4","last_reported":1701087211,"current_range_meters":17600,"station_id":"ce4bhg12rcd13ifvqf60","pricing_plan_id":"free"},{"bike_id":"167cc4ae-0169-4548-9900-04f24459e9ac","system_id":"levelo_inurba_marseille","lat":43.243884,"lon":5.370737,"is_reserved":false,"is_disabled":false,"rental_uris":{"android":"levelo://app?vid=167cc4ae-0169-4548-9900-04f24459e9ac","ios":"levelo://app?vid=167cc4ae-0169-4548-9900-04f24459e9ac"},