{"last_updated":1738844277,"ttl":60,"version":"2.2","data":{"bikes":[{"bike_id":"9b310c92-efeb-4765-8a96-172429f0f07e","system_id":"levelo_inurba_marseille","lat":43.28849,"lon":5.35843,"is_reserved":false,"is_disabled":false,"rental_uris":{"android":"levelo://app?vid=9b310c92-efeb-4765-8a96-172429f0f07e","ios":"levelo://app?vid=9b310c92-efeb-4765-8a96-172429f0f07e"},"vehicle_type_id":"4","last_reported":1738844277,"current_range_meters":30400,"station_id":"ce4bhb12rcd13ifvqem0","pricing_plan_id":"cebpf4jnsgd1na2vs0mg"},{"bike_id":"c88a5332-299f-4c55-b376-657578c07d3a","system_id":"levelo_inurba_marseille","lat":43.2582,"lon":5.3943,"is_reserved":false,"is_disabled":false,"rental_uris":{"android":"levelo://app?vid=c88a5332-299f-4c55-b376-657578c07d3a","ios":"levelo://app?vid=c88a5332-299f-4c55-b376-657578c07d3a"},"vehicle_type_id":"4","last_reported":1738844277,"current_range_meters":32000,"station_id":"ce4bhip2rcd13ifvqft0","pricing_plan_id":"cebpf4jnsgd1na2vs0mg"},{"bike_id":"e17502d7-8877-4521-b731-05b889981ec2","system_id":"levelo_inurba_marseille","lat":43.34143,"lon":5.40902,"is_reserved":false,"is_disabled":false,"rental_uris":{"android":"levelo://app?vid=e17502d7-8877-4521-b731-05b889981ec2","ios":"levelo://app?vid=e17502d7-8877-4521-b731-05b889981ec2"},"vehicle_type_id":"4","last_reported":1738844277,"current_range_meters":38400,"station_id":"ce4bhqh2rcd13ifvqhlg","pricing_plan_id":"cebpf4jnsgd1na2vs0mg"},{"bike_id":"26ba1934-c8ef-48a9-980c-d71ca1604721","system_id":"levelo_inurba_marseille","lat":43.24648,"lon":5.38897,"is_reserved":false,"is_disabled":false,"rental_uris":{"android":"levelo://app?vid=26ba1934-c8ef-48a9-980c-d71ca1604721","ios":"levelo://app?vid=26ba1934-c8ef-48a9-980c-d71ca1604721"},"vehicle_type_id":"4","last_reported":1738844277,"current_range_meters":38800,"station_id":"ce4bhg12rcd13ifvqf60","pricing_plan_id":"cebpf4jnsgd1na2vs0mg"},{"bike_id":"47b344f5-c17a-4bae-a1b4-65eed4921112","system_id":"levelo_inurba_marseille","lat":43.29524,"lon":5.37499,"is_reserved":false,"is_disabled":false,"rental_uris":{"android":"levelo://app?vid=47b344f5-c17a-4bae-a1b4-65eed4921112","ios":"levelo://app?vid=47b344f5-c17a-4bae-a1b4-65eed4921112"},"vehicle_type_id":"4","last_reported":1738844277,"current_range_meters":39200,"station_id":"ce4bgkp2rcd13ifvqbmg","pricing_plan_id":"cebpf4jnsgd1na2vs0mg"},{"bike_id":"2f1cf415-09de-41aa-895a-9eee8998baaf","system_id":"levelo_inurba_marseille","lat":43.29564,"lon":5.42289,"is_reserved":false,"is_disabled":false,"rental_uris":{"android":"levelo://app?vid=2f1cf415-09de-41aa-895a-9eee8998baaf","ios":"levelo://app?vid=2f1cf415-09de-41aa-895a-9eee8998baaf"},"vehicle_type_id":"4","last_reported":1738844277,"current_range_meters":39200,"station_id":"ce4bhph2rcd13ifvqhdg","pricing_plan_id":"cebpf4jnsgd1na2vs0mg"},{"bike_id":"c9ae6ad8-e3c1-4860-8a33-494b8d965147","system_id":"levelo_inurba_marseille","lat":43.29594,"lon":5.38104,"is_reserved":false,"is_disabled":false,"rental_uris":{"android":"levelo://app?vid=c9ae6ad8-e3c1-4860-8a33-494b8d965147","ios":"levelo://app?vid=c9ae6ad8-e3c1-4860-8a33-494b8d965147"},"vehicle_type_id":"4","last_reported":1738844277,"current_range_meters":24000,"station_id":"ce4bgl12rcd13ifvqbo0","pricing_plan_id":"cebpf4jnsgd1na2vs0mg"},{"bike_id":"7146e150-d5bb-43cd-bbc0-c1187114fda6","system_id":"levelo_inurba_marseille","lat":43.29296,"lon":5.37449,"is_reserved":false,"is_disabled":false,"rental_uris":{"android":"levelo://app?vid=7146e150-d5bb-43cd-bbc0-c1187114fda6","ios":"levelo://app?vid=7146e150-d5bb-43cd-bbc0-c1187114fda6"},"vehicle_type_id":"4","last_reported":1738844277,"current_range_meters":19200,"station_id":"ce4bgi12rcd13ifvqb70","pricing_plan_id":"cebpf4jnsgd1na2vs0mg"},{"bike_id":"60efba71-1f79-4331-8e03-d1cbb62a05fd","system_id":"levelo_inurba_marseille","lat":43.231881,"lon":5.399902,"is_reserved":false,"is_disabled":false,"rental_uris":{"android":"levelo://app?vid=60efba71-1f79-4331-8e03-d1cbb62a05fd","ios":"levelo://app?vid=60efba71-1f79-4331-8e03-d1cbb62a05fd"},"vehicle_type_id":"4","last_reported":1738844277,"current_range_meters":17200,"station_id":"ce4bhn12rcd13ifvqgqg","pricing_plan_id":"cebpf4jnsgd1na2vs0mg"},{"bike_id":"6350e5ba-d728-406c-8b80-9dc67f89098b","system_id":"levelo_inurba_marseille","lat":43.3043,"lon":5.38888,"is_reserved":false,"is_disabled":false,"rental_uris":{"android":"levelo://app?vid=6350e5ba-d728-406c-8b80-9dc67f89098b","ios":"levelo://app?vid=6350e5ba-d728-406c-8b80-9dc67f89098b"},"vehicle_type_id":"4","last_reported":1738844277,"current_range_meters":32800,"station_id":"ce4bgk12rcd13ifvqbi0","pricing_plan_id":"cebpf4jnsgd1na2vs0mg"},{"bike_id":"a1c39c36-f7f2-4e37-a46d-219706cbbd65","system_id":"levelo_inurba_marseille","lat":43.25627,"lon":5.38255,"is_reserved":false,"is_disabled":false,"rental_uris":{"android":"levelo://app?vid=a1c39c36-f7f2-4e37-a46d-219706cbbd65","ios":"levelo://app?vid=a1c39c36-f7f2-4e37-a46d-219706cbbd65"},"vehicle_type_id":"4","last_reported":1738844277,"current_range_meters":30000,"station_id":"ce4bhih2rcd13ifvqfs0","pricing_plan_id":"cebpf4jnsgd1na2vs0mg"},{"bike_id":"0121d835-7074-4b48-995f-784505b960c4","system_id":"levelo_inurba_marseille","lat":43.25503,"lon":5.3765,"is_reserved":false,"is_disabled":false,"rental_uris":{"android":"levelo://app?vid=0121d835-7074-4b48-995f-784505b960c4","ios":"levelo://app?vid=0121d835-7074-4b48-995f-784505b960c4"},"vehicle_type_id":"4","last_reported":1738844277,"current_range_meters":32000,"station_id":"ce4bhh12rcd13ifvqff0","pricing_plan_id":"cebpf4jnsgd1na2vs0mg"},{"bike_id":"508b46c9-9077-4749-adfb-5561f504de56","system_id":"levelo_inurba_marseille","lat":43.27816,"lon":5.40716,"is_reserved":false,"is_disabled":false,"rental_uris":{"android":"levelo://app?vid=508b46c9-9077-4749-adfb-5561f504de56","ios":"levelo://app?vid=508b46c9-9077-4749-adfb-5561f504de56"},"vehicle_type_id":"4","last_reported":1738844277,"current_range_meters":28400,"station_id":"ce4bhnh2rcd13ifvqgtg","pricing_plan_id":"cebpf4jnsgd1na2vs0mg"},{"bike_id":"48387a09-94e7-4db4-8a78-34cf00f146fa","system_id":"levelo_inurba_marseille","lat":43.29563,"lon":5.4229,"is_reserved":false,"is_disabled":false,"rental_uris":{"android":"levelo://app?vid=48387a09-94e7-4db4-8a78-34cf00f146fa","ios":"levelo://app?vid=48387a09-94e7-4db4-8a78-34cf00f146fa"},"vehicle_type_id":"4","last_reported":1738844277,"current_range_meters":22000,"station_id":"ce4bhph2rcd13ifvqhdg","pricing_plan_id":"cebpf4jnsgd1na2vs0mg"},{"bike_id":"2e2103ea-1862-4a7c-aebb-70a8bcb44f35","system_id":"levelo_inurba_marseille","lat":43.30563,"lon":5.36728,"is_reserved":false,"is_disabled":false,"rental_uris":{"android":"levelo://app?vid=2e2103ea-1862-4a7c-aebb-70a8bcb44f35","ios":"levelo://app?vid=2e2103ea-1862-4a7c-aebb-70a8bcb44f35"},"vehicle_type_id":"4","last_reported":1738844277,"current_range_meters":38000,"station_id":"ce4bgrp2rcd13ifvqc9g","pricing_plan_id":"cebpf4jnsgd1na2vs0mg"},{"bike_id":"93436f32-c9ca-48fd-adf7-e627183ce3b5","system_id":"levelo_inurba_marseille","lat":43.28704,"lon":5.37946,"is_reserved":false,"is_disabled":true,"rental_uris":{"android":"levelo://app?vid=93436f32-c9ca-48fd-adf7-e627183ce3b5","ios":"levelo://app?vid=93436f32-c9ca-48fd-adf7-e627183ce3b5"},"vehicle_type_id":"4","last_reported":1738844277,"current_range_meters":36000,"station_id":"ce4bh9p2rcd13ifvqec0","pricing_plan_id":"cebpf4jnsgd1na2vs0mg"},{"bike_id":"3bf0b438-56c0-41f5-b811-b240349868d1","system_id":"levelo_inurba_marseille","lat":43.25017,"lon":5.38941,"is_reserved":false,"is_disabled":false,"rental_uris":{"android":"levelo://app?vid=3bf0b438-56c0-41f5-b811-b240349868d1","ios":"levelo://app?vid=3bf0b438-56c0-41f5-b811-b240349868d1"},"vehicle_type_id":"4","last_reported":1738844277,"current_range_meters":36400,"station_id":"ce4bhgp2rcd13ifvqfd0","pricing_plan_id":"cebpf4jnsgd1na2vs0mg"},{"bike_id":"fa041172-745c-49ed-942f-eb70fbb1f908","system_id":"levelo_inurba_marseille","lat":43.25825,"lon":5.39434,"is_reserved":false,"is_disabled":false,"rental_uris":{"android":"levelo://app?vid=fa041172-745c-49ed-942f-eb70fbb1f908","ios":"levelo://app?vid=fa041172-745c-49ed-942f-eb70fbb1f908"},"vehicle_type_id":"4","last_reported":1738844277,"current_range_meters":11200,"station_id":"ce4bhip2rcd13ifvqft0","pricing_plan_id":"cebpf4jnsgd1na2vs0mg"},{"bike_id":"1880b3ef-88c3-46be-9750-3ae5d9e6d234","system_id":"levelo_inurba_marseille","lat":43.32529,"lon":5.41455,"is_reserved":false,"is_disabled":false,"rental_uris":{"android":"levelo://app?vid=1880b3ef-88c3-46be-9750-3ae5d9e6d234","ios":"levelo://app?vid=1880b3ef-88c3-46be-9750-3ae5d9e6d234"},"vehicle_type_id":"4","last_reported":1738844277,"current_range_meters":38400,"station_id":"ce4bhq12rcd13ifvqhhg","pricing_plan_id":"cebpf4jnsgd1na2vs0mg"},{"bike_id":"81880421-05f7-4c00-92d1-6da33a38aae6","system_id":"levelo_inurba_marseille","lat":43.30532,"lon":5.36716,"is_reserved":false,"is_disabled":false,"rental_uris":{"android":"levelo://app?vid=81880421-05f7-4c00-92d1-6da33a38aae6","ios":"levelo://app?vid=81880421-05f7-4c00-92d1-6da33a38aae6"},"vehicle_type_id":"4","last_reported":1738844277,"current_range_meters":21600,"station_id":"ce4bgrp2rcd13ifvqc9g","pricing_plan_id":"cebpf4jnsgd1na2vs0mg"},{"bike_id":"a6ba758f-cde2-4122-9be6-249b2d0eb2b5","system_id":"levelo_inurba_marseille","lat":43.262217,"lon":5.37444,"is_reserved":false,"is_disabled":false,"rental_uris":{"android":"levelo://app?vid=a6ba758f-cde2-4122-9be6-249b2d0eb2b5","ios":"levelo://app?vid=a6ba758f-cde2-4122-9be6-249b2d0eb2b5"},"vehicle_type_id":"4","last_reported":1738844277,"current_range_meters":38800,"station_id":"ce4bhgp2rcd13ifvqfc0","pricing_plan_id":"cebpf4jnsgd1na2vs0mg"},{"bike_id":"d57c2d03-ac19-4315-ba46-a2663b705955","system_id":"levelo_inurba_marseille","lat":43.295746,"lon":5.375151,"is_reserved":false,"is_disabled":false,"rental_uris":{"android":"levelo://app?vid=d57c2d03-ac19-4315-ba46-a2663b705955","ios":"levelo://app?vid=d57c2d03-ac19-4315-ba46-a2663b705955"},"vehicle_type_id":"4","last_reported":1738844277,"current_range_meters":17600,"station_id":"ce4bgh92rcd13ifvqb50","pricing_plan_id":"cebpf4jnsgd1na2vs0mg"},{"bike_id":"b85d0f36-4ceb-47ae-b932-72d8372ef081","system_id":"levelo_inurba_marseille","lat":43.23187,"lon":5.39988,"is_reserved":false,"is_disabled":false,"rental_uris":{"android":"levelo://app?vid=b85d0f36-4ceb-47ae-b932-72d8372ef081","ios":"levelo://app?vid=b85d0f36-4ceb-47ae-b932-72d8372ef081"},"vehicle_type_id":"4","last_reported":1738844277,"current_range_meters":37600,"station_id":"ce4bhn12rcd13ifvqgqg","pricing_plan_id":"cebpf4jnsgd1na2vs0mg"},{"bike_id":"c4e55077-4eb0-47e2-a96e-7f002bcfe838","system_id":"levelo_inurba_marseille","lat":43.32482,"lon":5.36567,"is_reserved":false,"is_disabled":false,"rental_uris":{"android":"levelo://app?vid=c4e55077-4eb0-47e2-a96e-7f002bcfe838","ios":"levelo://app?vid=c4e55077-4eb0-47e2-a96e-7f002bcfe838"},"vehicle_type_id":"4","last_reported":1738844277,"current_range_meters":32000,"station_id":"ce4bhs12rcd13ifvqhvg","pricing_plan_id":"cebpf4jnsgd1na2vs0mg"},{"bike_id":"577d649f-af1d-4b9a-83d6-9a252b86f050","system_id":"levelo_inurba_marseille","lat":43.2621,"lon":5.37915,"is_reserved":false,"is_disabled":false,"rental_uris":{"android":"levelo://app?vid=577d649f-af1d-4b9a-83d6-9a252b86f050","ios":"levelo://app?vid=577d649f-af1d-4b9a-83d6-9a252b86f050"},"vehicle_type_id":"4","last_reported":1738844277,"current_range_meters":22800,"station_id":"ce4bhjp2rcd13ifvqg90","pricing_plan_id":"cebpf4jnsgd1na2vs0mg"},{"bike_id":"bf30465c-5d09-47ab-ba56-6e7954972992","system_id":"levelo_inurba_marseille","lat":43.29033,"lon":5.35928,"is_reserved":false,"is_disabled":false,"rental_uris":{"android":"levelo://app?vid=bf30465c-5d09-47ab-ba56-6e7954972992","ios":"levelo://app?vid=bf30465c-5d09-47ab-ba56-6e7954972992"},"vehicle_type_id":"4","last_reported":1738844277,"current_range_meters":39200,"station_id":"ce4bha92rcd13ifvqeg0","pricing_plan_id":"cebpf4jnsgd1na2vs0mg"},{"bike_id":"fe947b53-19fc-45b8-9d79-a68f980dbade","system_id":"levelo_inurba_marseille","lat":43.30778,"lon":5.37083,"is_reserved":false,"is_disabled":false,"rental_uris":{"android":"levelo://app?vid=fe947b53-19fc-45b8-9d79-a68f980dbade","ios":"levelo://app?vid=fe947b53-19fc-45b8-9d79-a68f980dbade"},"vehicle_type_id":"4","last_reported":1738844277,"current_range_meters":38800,"station_id":"","pricing_plan_id":"cebpf4jnsgd1na2vs0mg"},{"bike_id":"deade925-9525-40ac-9347-10d1ea98148d","system_id":"levelo_inurba_marseille","lat":43.2984,"lon":5.36269,"is_reserved":false,"is_disabled":false,"rental_uris":{"android":"levelo://app?vid=deade925-9525-40ac-9347-10d1ea98148d","ios":"levelo://app?vid=deade925-9525-40ac-9347-10d1ea98148d"},"vehicle_type_id":"4","last_reported":1738844277,"current_range_meters":38400,"station_id":"ce4bgpp2rcd13ifvqc3g","pricing_plan_id":"cebpf4jnsgd1na2vs0mg"},{"bike_id":"3fc75c66-84e2-47d5-ab13-37951aa41574","system_id":"levelo_inurba_marseille","lat":43.29767,"lon":5.37111,"is_reserved":false,"is_disabled":false,"rental_uris":{"android":"levelo://app?vid=3fc75c66-84e2-47d5-ab13-37951aa41574","ios":"levelo://app?vid=3fc75c66-84e2-47d5-ab13-37951aa41574"},"vehicle_type_id":"4","last_reported":1738844277,"current_range_meters":5600,"station_id":"ce4bgop2rcd13ifvqc1g","pricing_plan_id":"cebpf4jnsgd1na2vs0mg"},{"bike_id":"a6ba5ef6-5b99-47d9-acea-ad62a4cd0a59","system_id":"levelo_inurba_marseille","lat":43.33189,"lon":5.39624,"is_reserved":false,"is_disabled":false,"rental_uris":{"android":"levelo://app?vid=a6ba5ef6-5b99-47d9-acea-ad62a4cd0a59","ios":"levelo://app?vid=a6ba5ef6-5b99-47d9-acea-ad62a4cd0a59"},"vehicle_type_id":"4","last_reported":1738844277,"current_range_meters":35200,"station_id":"","pricing_plan_id":"cebpf4jnsgd1na2vs0mg"},{"bike_id":"a1a7079b-68b5-45ca-9af8-b6bc9f7cd559","system_id":"levelo_inurba_marseille","lat":43.22937,"lon":5.3538,"is_reserved":false,"is_disabled":false,"rental_uris":{"android":"levelo://app?vid=a1a7079b-68b5-45ca-9af8-b6bc9f7cd559","ios":"levelo://app?vid=a1a7079b-68b5-45ca-9af8-b6bc9f7cd559"},"vehicle_type_id":"4","last_reported":1738844277,"current_range_meters":38800,"station_id":"cpo3532slgdg3j2ikp40","pricing_plan_id":"cebpf4jnsgd1na2vs0mg"},{"bike_id":"39bc6462-931f-4371-8e4a-9d73ccefae8d","system_id":"levelo_inurba_marseille","lat":43.29309,"lon":5.37175,"is_reserved":false,"is_disabled":false,"rental_uris":{"android":"levelo://app?vid=39bc6462-931f-4371-8e4a-9d73ccefae8d","ios":"levelo://app?vid=39bc6462-931f-4371-8e4a-9d73ccefae8d"},"vehicle_type_id":"4","last_reported":1738844277,"current_range_meters":28000,"station_id":"ce4bgh92rcd13ifvqb40","pricing_plan_id":"cebpf4jnsgd1na2vs0mg"},{"bike_id":"286b8180-be51-4933-b8c1-dffba00f048b","system_id":"levelo_inurba_marseille","lat":43.25831,"lon":5.39446,"is_reserved":false,"is_disabled":false,"rental_uris":{"android":"levelo://app?vid=286b8180-be51-4933-b8c1-dffba00f048b","ios":"levelo://app?vid=286b8180-be51-4933-b8c1-dffba00f048b"},"vehicle_type_id":"4","last_reported":1738844277,"current_range_meters":38800,"station_id":"ce4bhip2rcd13ifvqft0","pricing_plan_id":"cebpf4jnsgd1na2vs0mg"},{"bike_id":"94b64038-3ad8-4c49-9eb9-248f10ca76ac","system_id":"levelo_inurba_marseille","lat":43.31291,"lon":5.37326,"is_reserved":false,"is_disabled":false,"rental_uris":{"android":"levelo://app?vid=94b64038-3ad8-4c49-9eb9-248f10ca76ac","ios":"levelo://app?vid=94b64038-3ad8-4c49-9eb9-248f10ca76ac"},"vehicle_type_id":"4","last_reported":1738844277,"current_range_meters":37600,"station_id":"","pricing_plan_id":"cebpf4jnsgd1na2vs0mg"},{"bike_id":"92a3a02e-652d-41fb-9674-3a2cf80bd30b","system_id":"levelo_inurba_marseille","lat":43.29553,"lon":5.42279,"is_reserved":false,"is_disabled":false,"rental_uris":{"android":"levelo://app?vid=92a3a02e-652d-41fb-9674-3a2cf80bd30b","ios":"levelo://app?vid=92a3a02e-652d-41fb-9674-3a2cf80bd30b"},"vehicle_type_id":"4","last_reported":1738844277,"current_range_meters":30000,"station_id":"ce4bhph2rcd13ifvqhdg","pricing_plan_id":"cebpf4jnsgd1na2vs0mg"},{"bike_id":"08e42cd3-6257-4ea4-839f-08272f21e059","system_id":"levelo_inurba_marseille","lat":43.29037,"lon":5.37584,"is_reserved":false,"is_disabled":false,"rental_uris":{"android":"levelo://app?vid=08e42cd3-6257-4ea4-839f-08272f21e059","ios":"levelo://app?vid=08e42cd3-6257-4ea4-839f-08272f21e059"},"vehicle_type_id":"4","last_reported":1738844277,"current_range_meters":38800,"station_id":"ce4bh692rcd13ifvqe90","pricing_plan_id":"cebpf4jnsgd1na2vs0mg"},{"bike_id":"b0b70dbd-bdde-4326-96ee-f00c6aa1d2d8","system_id":"levelo_inurba_marseille","lat":43.33606,"lon":5.41029,"is_reserved":false,"is_disabled":false,"rental_uris":{"android":"levelo://app?vid=b0b70dbd-bdde-4326-96ee-f00c6aa1d2d8","ios":"levelo://app?vid=b0b70dbd-bdde-4326-96ee-f00c6aa1d2d8"},"vehicle_type_id":"4","last_reported":1738844277,"current_range_meters":24800,"station_id":"ce4bhqh2rcd13ifvqhmg","pricing_plan_id":"cebpf4jnsgd1na2vs0mg"},{"bike_id":"f01de237-bf70-4d73-8633-ec8ae86b779c","system_id":"levelo_inurba_marseille","lat":43.28694,"lon":5.37926,"is_reserved":false,"is_disabled":false,"rental_uris":{"android":"levelo://app?vid=f01de237-bf70-4d73-8633-ec8ae86b779c","ios":"levelo://app?vid=f01de237-bf70-4d73-8633-ec8ae86b779c"},"vehicle_type_id":"4","last_reported":1738844277,"current_range_meters":34000,"station_id":"ce4bh9p2rcd13ifvqec0","pricing_plan_id":"cebpf4jnsgd1na2vs0mg"},{"bike_id":"0d3c87b7-5fde-46f1-b0f7-da2081e4f761","system_id":"levelo_inurba_marseille","lat":43.29896,"lon":5.43672,"is_reserved":false,"is_disabled":false,"rental_uris":{"android":"levelo://app?vid=0d3c87b7-5fde-46f1-b0f7-da2081e4f761","ios":"levelo://app?vid=0d3c87b7-5fde-46f1-b0f7-da2081e4f761"},"vehicle_type_id":"4","last_reported":1738844277,"current_range_meters":36000,"station_id":"ce4bhpp2rcd13ifvqhfg","pricing_plan_id":"cebpf4jnsgd1na2vs0mg"},{"bike_id":"78433e7b-8e3e-4dcc-9204-985380e49e4b","system_id":"levelo_inurba_marseille","lat":43.26498,"lon":5.39548,"is_reserved":false,"is_disabled":false,"rental_uris":{"android":"levelo://app?vid=78433e7b-8e3e-4dcc-9204-985380e49e4b","ios":"levelo://app?vid=78433e7b-8e3e-4dcc-9204-985380e49e4b"},"vehicle_type_id":"4","last_reported":1738844277,"current_range_meters":22800,"station_id":"ce4bhi12rcd13ifvqfq0","pricing_plan_id":"cebpf4jnsgd1na2vs0mg"},{"bike_id":"0ff383dd-17ba-403c-8b38-64f30b07586d","system_id":"levelo_inurba_marseille","lat":43.27905,"lon":5.37997,"is_reserved":false,"is_disabled":false,"rental_uris":{"android":"levelo://app?vid=0ff383dd-17ba-403c-8b38-64f30b07586d","ios":"levelo://app?vid=0ff383dd-17ba-403c-8b38-64f30b07586d"},"vehicle_type_id":"4","last_reported":1738844277,"current_range_meters":31200,"station_id":"ce4bhf92rcd13ifvqf50","pricing_plan_id":"cebpf4jnsgd1na2vs0mg"},{"bike_id":"03fa3b22-d8cb-4f5a-98a2-61fc9938a61e","system_id":"levelo_inurba_marseille","lat":43.24549,"lon":5.39525,"is_reserved":false,"is_disabled":false,"rental_uris":{"android":"levelo://app?vid=03fa3b22-d8cb-4f5a-98a2-61fc9938a61e","ios":"levelo://app?vid=03fa3b22-d8cb-4f5a-98a2-61fc9938a61e"},"vehicle_type_id":"4","last_reported":1738844277,"current_range_meters":38400,"station_id":"ce4bhlp2rcd13ifvqgjg","pricing_plan_id":"cebpf4jnsgd1na2vs0mg"},{"bike_id":"72854be5-5ce6-416a-a959-2a83f92c56b2","system_id":"levelo_inurba_marseille","lat":43.23183,"lon":5.39986,"is_reserved":false,"is_disabled":false,"rental_uris":{"android":"levelo://app?vid=72854be5-5ce6-416a-a959-2a83f92c56b2","ios":"levelo://app?vid=72854be5-5ce6-416a-a959-2a83f92c56b2"},"vehicle_type_id":"4","last_reported":1738844277,"current_range_meters":36400,"station_id":"ce4bhn12rcd13ifvqgqg","pricing_plan_id":"cebpf4jnsgd1na2vs0mg"},{"bike_id":"6bba36c7-75a6-4b1b-96cb-c03d219a6faa","system_id":"levelo_inurba_marseille","lat":43.33017,"lon":5.39057,"is_reserved":false,"is_disabled":false,"rental_uris":{"android":"levelo://app?vid=6bba36c7-75a6-4b1b-96cb-c03d219a6faa","ios":"levelo://app?vid=6bba36c7-75a6-4b1b-96cb-c03d219a6faa"},"vehicle_type_id":"4","last_reported":1738844277,"current_range_meters":33600,"station_id":"ce4bhr92rcd13ifvqhrg","pricing_plan_id":"cebpf4jnsgd1na2vs0mg"},{"bike_id":"46055e3a-e8f4-4382-8c29-7984f2bd0756","system_id":"levelo_inurba_marseille","lat":43.29033,"lon":5.38123,"is_reserved":false,"is_disabled":false,"rental_uris":{"android":"levelo://app?vid=46055e3a-e8f4-4382-8c29-7984f2bd0756","ios":"levelo://app?vid=46055e3a-e8f4-4382-8c29-7984f2bd0756"},"vehicle_type_id":"4","last_reported":1738844277,"current_range_meters":30000,"station_id":"ce4bh4p2rcd13ifvqe1g","pricing_plan_id":"cebpf4jnsgd1na2vs0mg"},{"bike_id":"7a0f0760-25b1-43d7-bc51-857515fe6106","system_id":"levelo_inurba_marseille","lat":43.26067,"lon":5.39399,"is_reserved":false,"is_disabled":false,"rental_uris":{"android":"levelo://app?vid=7a0f0760-25b1-43d7-bc51-857515fe6106","ios":"levelo://app?vid=7a0f0760-25b1-43d7-bc51-857515fe6106"},"vehicle_type_id":"4","last_reported":1738844277,"current_range_meters":8400,"station_id":"ce4bhh92rcd13ifvqfj0","pricing_plan_id":"cebpf4jnsgd1na2vs0mg"},{"bike_id":"5786637f-7aa3-4c94-860d-27f2b053d260","system_id":"levelo_inurba_marseille","lat":43.27665,"lon":5.38937,"is_reserved":false,"is_disabled":false,"rental_uris":{"android":"levelo://app?vid=5786637f-7aa3-4c94-860d-27f2b053d260","ios":"levelo://app?vid=5786637f-7aa3-4c94-860d-27f2b053d260"},"vehicle_type_id":"4","last_reported":1738844277,"current_range_meters":30000,"station_id":"ce4bhi12rcd13ifvqfo0","pricing_plan_id":"cebpf4jnsgd1na2vs0mg"},{"bike_id":"10dae362-e090-466a-be31-ddeac0f0184e","system_id":"levelo_inurba_marseille","lat":43.27378,"lon":5.36271,"is_reserved":false,"is_disabled":false,"rental_uris":{"android":"levelo://app?vid=10dae362-e090-466a-be31-ddeac0f0184e","ios":"levelo://app?vid=10dae362-e090-466a-be31-ddeac0f0184e"},"vehicle_type_id":"4","last_reported":1738844277,"current_range_meters":32800,"station_id":"ce4bhbh2rcd13ifvqeo0","pricing_plan_id":"cebpf4jnsgd1na2vs0mg"},{"bike_id":"2e8e8620-e82e-4444-a8cb-51177d5eef4b","system_id":"levelo_inurba_marseille","lat":43.33018,"lon":5.39029,"is_reserved":false,"is_disabled":false,"rental_uris":{"android":"levelo://app?vid=2e8e8620-e82e-4444-a8cb-51177d5eef4b","ios":"levelo://app?vid=2e8e8620-e82e-4444-a8cb-51177d5eef4b"},"vehicle_type_id":"4","last_reported":1738844277,"current_range_meters":27600,"station_id":"ce4bhr92rcd13ifvqhrg","pricing_plan_id":"cebpf4jnsgd1na2vs0mg"},{"bike_id":"e927fca8-a885-4942-b164-ff6d958844a4","system_id":"levelo_inurba_marseille","lat":43.2604,"lon":5.41733,"is_reserved":false,"is_disabled":false,"rental_uris":{"android":"levelo://app?vid=e927fca8-a885-4942-b164-ff6d958844a4","ios":"levelo://app?vid=e927fca8-a885-4942-b164-ff6d958844a4"},"vehicle_type_id":"4","last_reported":1738844277,"current_range_meters":15200,"station_id":"","pricing_plan_id":"cebpf4jnsgd1na2vs0mg"},{"bike_id":"7f657d43-65c7-468d-ad0e-f606466b52ae","system_id":"levelo_inurba_marseille","lat":43.3247,"lon":5.36592,"is_reserved":false,"is_disabled":false,"rental_uris":{"android":"levelo://app?vid=7f657d43-65c7-468d-ad0e-f606466b52ae","ios":"levelo://app?vid=7f657d43-65c7-468d-ad0e-f606466b52ae"},"vehicle_type_id":"4","last_reported":1738844277,"current_range_meters":14000,"station_id":"ce4bhs12rcd13ifvqhvg","pricing_plan_id":"cebpf4jnsgd1na2vs0mg"},{"bike_id":"21593118-7964-431f-a445-68c1014dea98","system_id":"levelo_inurba_marseille","lat":43.26506,"lon":5.39537,"is_reserved":false,"is_disabled":true,"rental_uris":{"android":"levelo://app?vid=21593118-7964-431f-a445-68c1014dea98","ios":"levelo://app?vid=21593118-7964-431f-a445-68c1014dea98"},"vehicle_type_id":"4","last_reported":1738844277,"current_range_meters":1200,"station_id":"ce4bhi12rcd13ifvqfq0","pricing_plan_id":"cebpf4jnsgd1na2vs0mg"},{"bike_id":"44e60623-99fa-48f6-99ee-84052a7f47d1","system_id":"levelo_inurba_marseille","lat":43.28161,"lon":5.42636,"is_reserved":false,"is_disabled":false,"rental_uris":{"android":"levelo://app?vid=44e60623-99fa-48f6-99ee-84052a7f47d1","ios":"levelo://app?vid=44e60623-99fa-48f6-99ee-84052a7f47d1"},"vehicle_type_id":"4","last_reported":1738844277,"current_range_meters":25200,"station_id":"ce4bhnh2rcd13ifvqgug","pricing_plan_id":"cebpf4jnsgd1na2vs0mg"},{"bike_id":"f3666873-19b3-428d-bfdb-e3a692380b33","system_id":"levelo_inurba_marseille","lat":43.29788,"lon":5.371,"is_reserved":false,"is_disabled":false,"rental_uris":{"android":"levelo://app?vid=f3666873-19b3-428d-bfdb-e3a692380b33","ios":"levelo://app?vid=f3666873-19b3-428d-bfdb-e3a692380b33"},"vehicle_type_id":"4","last_reported":1738844277,"current_range_meters":23200,"station_id":"ce4bgop2rcd13ifvqc1g","pricing_plan_id":"cebpf4jnsgd1na2vs0mg"},{"bike_id":"096037dc-64a2-4011-8217-5874bb697c8d","system_id":"levelo_inurba_marseille","lat":43.29231,"lon":5.36072,"is_reserved":false,"is_disabled":false,"rental_uris":{"android":"levelo://app?vid=096037dc-64a2-4011-8217-5874bb697c8d","ios":"levelo://app?vid=096037dc-64a2-4011-8217-5874bb697c8d"},"vehicle_type_id":"4","last_reported":1738844277,"current_range_meters":30400,"station_id":"ce4bhbh2rcd13ifvqeqg","pricing_plan_id":"cebpf4jnsgd1na2vs0mg"},{"bike_id":"593d1fe9-39a1-488a-b808-5a20cdd7b7be","system_id":"levelo_inurba_marseille","lat":43.26553,"lon":5.37288,"is_reserved":false,"is_disabled":false,"rental_uris":{"android":"levelo://app?vid=593d1fe9-39a1-488a-b808-5a20cdd7b7be","ios":"levelo://app?vid=593d1fe9-39a1-488a-b808-5a20cdd7b7be"},"vehicle_type_id":"4","last_reported":1738844277,"current_range_meters":36400,"station_id":"ce4bhg12rcd13ifvqf70","pricing_plan_id":"cebpf4jnsgd1na2vs0mg"},{"bike_id":"c493b469-8240-4482-a221-3fe3a7a498ce","system_id":"levelo_inurba_marseille","lat":43.25104,"lon":5.40324,"is_reserved":false,"is_disabled":false,"rental_uris":{"android":"levelo://app?vid=c493b469-8240-4482-a221-3fe3a7a498ce","ios":"levelo://app?vid=c493b469-8240-4482-a221-3fe3a7a498ce"},"vehicle_type_id":"4","last_reported":1738844277,"current_range_meters":39200,"station_id":"ce4bhlh2rcd13ifvqgig","pricing_plan_id":"cebpf4jnsgd1na2vs0mg"},{"bike_id":"6712f04b-f35d-4e3a-a70d-c89aec85d9b2","system_id":"levelo_inurba_marseille","lat":43.22939,"lon":5.35378,"is_reserved":false,"is_disabled":false,"rental_uris":{"android":"levelo://app?vid=6712f04b-f35d-4e3a-a70d-c89aec85d9b2","ios":"levelo://app?vid=6712f04b-f35d-4e3a-a70d-c89aec85d9b2"},"vehicle_type_id":"4","last_reported":1738844277,"current_range_meters":38000,"station_id":"cpo3532slgdg3j2ikp40","pricing_plan_id":"cebpf4jnsgd1na2vs0mg"},{"bike_id":"97bdffce-0140-4134-bb87-3ca82f1f410e","system_id":"levelo_inurba_marseille","lat":43.31362,"lon":5.38496,"is_reserved":false,"is_disabled":false,"rental_uris":{"android":"levelo://app?vid=97bdffce-0140-4134-bb87-3ca82f1f410e","ios":"levelo://app?vid=97bdffce-0140-4134-bb87-3ca82f1f410e"},"vehicle_type_id":"4","last_reported":1738844277,"current_range_meters":28400,"station_id":"ce4bgt92rcd13ifvqcf0","pricing_plan_id":"cebpf4jnsgd1na2vs0mg"},{"bike_id":"3c960873-09f3-4e6e-9166-31318d022dd0","system_id":"levelo_inurba_marseille","lat":43.27843,"lon":5.42534,"is_reserved":false,"is_disabled":false,"rental_uris":{"android":"levelo://app?vid=3c960873-09f3-4e6e-9166-31318d022dd0","ios":"levelo://app?vid=3c960873-09f3-4e6e-9166-31318d022dd0"},"vehicle_type_id":"4","last_reported":1738844277,"current_range_meters":4800,"station_id":"","pricing_plan_id":"cebpf4jnsgd1na2vs0mg"},{"bike_id":"5169f958-fc07-489b-b19b-5b31b5506996","system_id":"levelo_inurba_marseille","lat":43.3015,"lon":5.38087,"is_reserved":false,"is_disabled":false,"rental_uris":{"android":"levelo://app?vid=5169f958-fc07-489b-b19b-5b31b5506996","ios":"levelo://app?vid=5169f958-fc07-489b-b19b-5b31b5506996"},"vehicle_type_id":"4","last_reported":1738844277,"current_range_meters":24800,"station_id":"ce4bgjp2rcd13ifvqbh0","pricing_plan_id":"cebpf4jnsgd1na2vs0mg"},{"bike_id":"1631835e-eb64-4097-b39f-638a3f74b000","system_id":"levelo_inurba_marseille","lat":43.30284,"lon":5.3771,"is_reserved":false,"is_disabled":false,"rental_uris":{"android":"levelo://app?vid=1631835e-eb64-4097-b39f-638a3f74b000","ios":"levelo://app?vid=1631835e-eb64-4097-b39f-638a3f74b000"},"vehicle_type_id":"4","last_reported":1738844277,"current_range_meters":38800,"station_id":"ce4bguh2rcd13ifvqcj0","pricing_plan_id":"cebpf4jnsgd1na2vs0mg"},{"bike_id":"c6fc8d9f-2772-4798-8496-a8e0aeb6ab64","system_id":"levelo_inurba_marseille","lat":43.25819,"lon":5.39429,"is_reserved":false,"is_disabled":false,"rental_uris":{"android":"levelo://app?vid=c6fc8d9f-2772-4798-8496-a8e0aeb6ab64","ios":"levelo://app?vid=c6fc8d9f-2772-4798-8496-a8e0aeb6ab64"},"vehicle_type_id":"4","last_reported":1738844277,"current_range_meters":33600,"station_id":"ce4bhip2rcd13ifvqft0","pricing_plan_id":"cebpf4jnsgd1na2vs0mg"},{"bike_id":"69e03564-17f5-44a1-8879-5030df3f7e46","system_id":"levelo_inurba_marseille","lat":43.30192,"lon":5.37359,"is_reserved":false,"is_disabled":false,"rental_uris":{"android":"levelo://app?vid=69e03564-17f5-44a1-8879-5030df3f7e46","ios":"levelo://app?vid=69e03564-17f5-44a1-8879-5030df3f7e46"},"vehicle_type_id":"4","last_reported":1738844277,"current_range_meters":38800,"station_id":"ce4bgs92rcd13ifvqcc0","pricing_plan_id":"cebpf4jnsgd1na2vs0mg"},{"bike_id":"73008acc-cc9b-4ba6-9800-de8707bb1e2a","system_id":"levelo_inurba_marseille","lat":43.27812,"lon":5.40714,"is_reserved":false,"is_disabled":false,"rental_uris":{"android":"levelo://app?vid=73008acc-cc9b-4ba6-9800-de8707bb1e2a","ios":"levelo://app?vid=73008acc-cc9b-4ba6-9800-de8707bb1e2a"},"vehicle_type_id":"4","last_reported":1738844277,"current_range_meters":37600,"station_id":"ce4bhnh2rcd13ifvqgtg","pricing_plan_id":"cebpf4jnsgd1na2vs0mg"},{"bike_id":"c1c75084-6fe2-45e8-8aa7-83f2021a6f51","system_id":"levelo_inurba_marseille","lat":43.27979,"lon":5.38711,"is_reserved":false,"is_disabled":false,"rental_uris":{"android":"levelo://app?vid=c1c75084-6fe2-45e8-8aa7-83f2021a6f51","ios":"levelo://app?vid=c1c75084-6fe2-45e8-8aa7-83f2021a6f51"},"vehicle_type_id":"4","last_reported":1738844277,"current_range_meters":38800,"station_id":"ce4bhg12rcd13ifvqf80","pricing_plan_id":"cebpf4jnsgd1na2vs0mg"},{"bike_id":"25659fa6-7f8a-4039-a312-8f7176f52022","system_id":"levelo_inurba_marseille","lat":43.29575,"lon":5.36737,"is_reserved":false,"is_disabled":false,"rental_uris":{"android":"levelo://app?vid=25659fa6-7f8a-4039-a312-8f7176f52022","ios":"levelo://app?vid=25659fa6-7f8a-4039-a312-8f7176f52022"},"vehicle_type_id":"4","last_reported":1738844277,"current_range_meters":38800,"station_id":"ce4bgph2rcd13ifvqc2g","pricing_plan_id":"cebpf4jnsgd1na2vs0mg"},{"bike_id":"12be4a65-e7b3-4220-9442-37e04da9989a","system_id":"levelo_inurba_marseille","lat":43.27199,"lon":5.40987,"is_reserved":false,"is_disabled":false,"rental_uris":{"android":"levelo://app?vid=12be4a65-e7b3-4220-9442-37e04da9989a","ios":"levelo://app?vid=12be4a65-e7b3-4220-9442-37e04da9989a"},"vehicle_type_id":"4","last_reported":1738844277,"current_range_meters":38800,"station_id":"ce4bhl12rcd13ifvqgf0","pricing_plan_id":"cebpf4jnsgd1na2vs0mg"},{"bike_id":"8604271a-1856-49cc-98e1-13f33c6adfc2","system_id":"levelo_inurba_marseille","lat":43.31348,"lon":5.36723,"is_reserved":false,"is_disabled":false,"rental_uris":{"android":"levelo://app?vid=8604271a-1856-49cc-98e1-13f33c6adfc2","ios":"levelo://app?vid=8604271a-1856-49cc-98e1-13f33c6adfc2"},"vehicle_type_id":"4","last_reported":1738844277,"current_range_meters":38800,"station_id":"ce4bgr92rcd13ifvqc6g","pricing_plan_id":"cebpf4jnsgd1na2vs0mg"},{"bike_id":"e000c203-200b-4db0-bfb1-be7d0b9f6143","system_id":"levelo_inurba_marseille","lat":43.30283,"lon":5.37705,"is_reserved":false,"is_disabled":false,"rental_uris":{"android":"levelo://app?vid=e000c203-200b-4db0-bfb1-be7d0b9f6143","ios":"levelo://app?vid=e000c203-200b-4db0-bfb1-be7d0b9f6143"},"vehicle_type_id":"4","last_reported":1738844277,"current_range_meters":35600,"station_id":"ce4bguh2rcd13ifvqcj0","pricing_plan_id":"cebpf4jnsgd1na2vs0mg"},{"bike_id":"22a6975d-6b2a-4170-b26b-622de08d21d6","system_id":"levelo_inurba_marseille","lat":43.30146,"lon":5.38099,"is_reserved":false,"is_disabled":false,"rental_uris":{"android":"levelo://app?vid=22a6975d-6b2a-4170-b26b-622de08d21d6","ios":"levelo://app?vid=22a6975d-6b2a-4170-b26b-622de08d21d6"},"vehicle_type_id":"4","last_reported":1738844277,"current_range_meters":10000,"station_id":"ce4bgjp2rcd13ifvqbh0","pricing_plan_id":"cebpf4jnsgd1na2vs0mg"},{"bike_id":"bb59bbf9-a773-4050-b666-ab885ddc31a5","system_id":"levelo_inurba_marseille","lat":43.24077,"lon":5.37754,"is_reserved":false,"is_disabled":false,"rental_uris":{"android":"levelo://app?vid=bb59bbf9-a773-4050-b666-ab885ddc31a5","ios":"levelo://app?vid=bb59bbf9-a773-4050-b666-ab885ddc31a5"},"vehicle_type_id":"4","last_reported":1738844277,"current_range_meters":20800,"station_id":"ce4bhnp2rcd13ifvqgvg","pricing_plan_id":"cebpf4jnsgd1na2vs0mg"},{"bike_id":"24763a2b-8929-48f9-818e-ee0d3d0024f2","system_id":"levelo_inurba_marseille","lat":43.28468,"lon":5.38416,"is_reserved":false,"is_disabled":false,"rental_uris":{"android":"levelo://app?vid=24763a2b-8929-48f9-818e-ee0d3d0024f2","ios":"levelo://app?vid=24763a2b-8929-48f9-818e-ee0d3d0024f2"},"vehicle_type_id":"4","last_reported":1738844277,"current_range_meters":39200,"station_id":"ce4bh512rcd13ifvqe3g","pricing_plan_id":"cebpf4jnsgd1na2vs0mg"},{"bike_id":"c85a26e1-f53e-4ec1-b1ea-8b32d23f1f4d","system_id":"levelo_inurba_marseille","lat":43.23068,"lon":5.35486,"is_reserved":false,"is_disabled":false,"rental_uris":{"android":"levelo://app?vid=c85a26e1-f53e-4ec1-b1ea-8b32d23f1f4d","ios":"levelo://app?vid=c85a26e1-f53e-4ec1-b1ea-8b32d23f1f4d"},"vehicle_type_id":"4","last_reported":1738844277,"current_range_meters":17600,"station_id":"cpo3342slgdg3j2ifvpg","pricing_plan_id":"cebpf4jnsgd1na2vs0mg"},{"bike_id":"679274d3-e500-4dd7-ace3-877f33c86066","system_id":"levelo_inurba_marseille","lat":43.27042,"lon":5.40279,"is_reserved":false,"is_disabled":false,"rental_uris":{"android":"levelo://app?vid=679274d3-e500-4dd7-ace3-877f33c86066","ios":"levelo://app?vid=679274d3-e500-4dd7-ace3-877f33c86066"},"vehicle_type_id":"4","last_reported":1738844277,"current_range_meters":30000,"station_id":"ce4bhk92rcd13ifvqgc0","pricing_plan_id":"cebpf4jnsgd1na2vs0mg"},{"bike_id":"f910fbc4-cc24-4789-8ec3-384f5436b7f0","system_id":"levelo_inurba_marseille","lat":43.31718,"lon":5.42406,"is_reserved":false,"is_disabled":true,"rental_uris":{"android":"levelo://app?vid=f910fbc4-cc24-4789-8ec3-384f5436b7f0","ios":"levelo://app?vid=f910fbc4-cc24-4789-8ec3-384f5436b7f0"},"vehicle_type_id":"4","last_reported":1738844277,"current_range_meters":0,"station_id":"ce4bhp92rcd13ifvqhbg","pricing_plan_id":"cebpf4jnsgd1na2vs0mg"},{"bike_id":"3bf91f25-05fb-4d09-a436-800b293f026e","system_id":"levelo_inurba_marseille","lat":43.310665,"lon":5.383615,"is_reserved":false,"is_disabled":true,"rental_uris":{"android":"levelo://app?vid=3bf91f25-05fb-4d09-a436-800b293f026e","ios":"levelo://app?vid=3bf91f25-05fb-4d09-a436-800b293f026e"},"vehicle_type_id":"4","last_reported":1738844277,"current_range_meters":0,"station_id":"ce4bgv92rcd13ifvqcr0","pricing_plan_id":"cebpf4jnsgd1na2vs0mg"},{"bike_id":"a866a81d-73d3-494d-b324-e7c41d4563a6","system_id":"levelo_inurba_marseille","lat":43.28275,"lon":5.35067,"is_reserved":false,"is_disabled":false,"rental_uris":{"android":"levelo://app?vid=a866a81d-73d3-494d-b324-e7c41d4563a6","ios":"levelo://app?vid=a866a81d-73d3-494d-b324-e7c41d4563a6"},"vehicle_type_id":"4","last_reported":1738844277,"current_range_meters":8000,"station_id":"ce4bhbp2rcd13ifvqerg","pricing_plan_id":"cebpf4jnsgd1na2vs0mg"},{"bike_id":"ad3006cf-972a-427c-a8eb-d49936c14325","system_id":"levelo_inurba_marseille","lat":43.33299,"lon":5.38335,"is_reserved":false,"is_disabled":true,"rental_uris":{"android":"levelo://app?vid=ad3006cf-972a-427c-a8eb-d49936c14325","ios":"levelo://app?vid=ad3006cf-972a-427c-a8eb-d49936c14325"},"vehicle_type_id":"4","last_reported":1738844277,"current_range_meters":0,"station_id":"","pricing_plan_id":"cebpf4jnsgd1na2vs0mg"},{"bike_id":"41fd7471-eede-4211-ae52-cabbf54f6615","system_id":"levelo_inurba_marseille","lat":43.298401,"lon":5.362617,"is_reserved":false,"is_disabled":false,"rental_uris":{"android":"levelo://app?vid=41fd7471-eede-4211-ae52-cabbf54f6615","ios":"levelo://app?vid=41fd7471-eede-4211-ae52-cabbf54f6615"},"vehicle_type_id":"4","last_reported":1738844277,"current_range_meters":30800,"station_id":"ce4bgpp2rcd13ifvqc3g","pricing_plan_id":"cebpf4jnsgd1na2vs0mg"},{"bike_id":"f6abcce2-0993-4345-8889-2e5c8bb1bf44","system_id":"levelo_inurba_marseille","lat":43.23168,"lon":5.43732,"is_reserved":false,"is_disabled":false,"rental_uris":{"android":"levelo://app?vid=f6abcce2-0993-4345-8889-2e5c8bb1bf44","ios":"levelo://app?vid=f6abcce2-0993-4345-8889-2e5c8bb1bf44"},"vehicle_type_id":"4","last_reported":1738844277,"current_range_meters":17200,"station_id":"ce4bhmp2rcd13ifvqgog","pricing_plan_id":"cebpf4jnsgd1na2vs0mg"},{"bike_id":"017c3247-6847-4a18-aea2-0e806d0dec2a","system_id":"levelo_inurba_marseille","lat":43.33615,"lon":5.40986,"is_reserved":false,"is_disabled":false,"rental_uris":{"android":"levelo://app?vid=017c3247-6847-4a18-aea2-0e806d0dec2a","ios":"levelo://app?vid=017c3247-6847-4a18-aea2-0e806d0dec2a"},"vehicle_type_id":"4","last_reported":1738844277,"current_range_meters":17600,"station_id":"ce4bhqh2rcd13ifvqhmg","pricing_plan_id":"cebpf4jnsgd1na2vs0mg"},{"bike_id":"788d15bb-3205-4bc1-972c-8e84123c0307","system_id":"levelo_inurba_marseille","lat":43.29006,"lon":5.35619,"is_reserved":false,"is_disabled":false,"rental_uris":{"android":"levelo://app?vid=788d15bb-3205-4bc1-972c-8e84123c0307","ios":"levelo://app?vid=788d15bb-3205-4bc1-972c-8e84123c0307"},"vehicle_type_id":"4","last_reported":1738844277,"current_range_meters":26800,"station_id":"ce4bhb92rcd13ifvqen0","pricing_plan_id":"cebpf4jnsgd1na2vs0mg"},{"bike_id":"adcd4863-6772-410e-a1ce-2e1bc6612724","system_id":"levelo_inurba_marseille","lat":43.29202,"lon":5.35804,"is_reserved":false,"is_disabled":false,"rental_uris":{"android":"levelo://app?vid=adcd4863-6772-410e-a1ce-2e1bc6612724","ios":"levelo://app?vid=adcd4863-6772-410e-a1ce-2e1bc6612724"},"vehicle_type_id":"4","last_reported":1738844277,"current_range_meters":38400,"station_id":"ce4bhb12rcd13ifvqel0","pricing_plan_id":"cebpf4jnsgd1na2vs0mg"},{"bike_id":"6a3f47a3-8f7a-4dd2-a856-450fdd8291f6","system_id":"levelo_inurba_marseille","lat":43.30548,"lon":5.36705,"is_reserved":false,"is_disabled":false,"rental_uris":{"android":"levelo://app?vid=6a3f47a3-8f7a-4dd2-a856-450fdd8291f6","ios":"levelo://app?vid=6a3f47a3-8f7a-4dd2-a856-450fdd8291f6"},"vehicle_type_id":"4","last_reported":1738844277,"current_range_meters":30000,"station_id":"ce4bgrp2rcd13ifvqc9g","pricing_plan_id":"cebpf4jnsgd1na2vs0mg"},{"bike_id":"1f60af65-67e4-4506-92ce-b099d71368bc","system_id":"levelo_inurba_marseille","lat":43.27375,"lon":5.36269,"is_reserved":false,"is_disabled":false,"rental_uris":{"android":"levelo://app?vid=1f60af65-67e4-4506-92ce-b099d71368bc","ios":"levelo://app?vid=1f60af65-67e4-4506-92ce-b099d71368bc"},"vehicle_type_id":"4","last_reported":1738844277,"current_range_meters":38800,"station_id":"ce4bhbh2rcd13ifvqeo0","pricing_plan_id":"cebpf4jnsgd1na2vs0mg"},{"bike_id":"8d1a27f6-6aea-4b23-ab78-248d5409d976","system_id":"levelo_inurba_marseille","lat":43.29007,"lon":5.35599,"is_reserved":false,"is_disabled":false,"rental_uris":{"android":"levelo://app?vid=8d1a27f6-6aea-4b23-ab78-248d5409d976","ios":"levelo://app?vid=8d1a27f6-6aea-4b23-ab78-248d5409d976"},"vehicle_type_id":"4","last_reported":1738844277,"current_range_meters":39200,"station_id":"ce4bhb92rcd13ifvqen0","pricing_plan_id":"cebpf4jnsgd1na2vs0mg"},{"bike_id":"5e941323-f07c-4c4c-9a17-8e02bce1b363","system_id":"levelo_inurba_marseille","lat":43.27964,"lon":5.38729,"is_reserved":false,"is_disabled":false,"rental_uris":{"android":"levelo://app?vid=5e941323-f07c-4c4c-9a17-8e02bce1b363","ios":"levelo://app?vid=5e941323-f07c-4c4c-9a17-8e02bce1b363"},"vehicle_type_id":"4","last_reported":1738844277,"current_range_meters":24400,"station_id":"ce4bhg12rcd13ifvqf80","pricing_plan_id":"cebpf4jnsgd1na2vs0mg"},{"bike_id":"a08c3f50-2972-4fb5-8d9c-2be5365819fb","system_id":"levelo_inurba_marseille","lat":43.31765,"lon":5.39017,"is_reserved":false,"is_disabled":false,"rental_uris":{"android":"levelo://app?vid=a08c3f50-2972-4fb5-8d9c-2be5365819fb","ios":"levelo://app?vid=a08c3f50-2972-4fb5-8d9c-2be5365819fb"},"vehicle_type_id":"4","last_reported":1738844277,"current_range_meters":38800,"station_id":"ce4bhqp2rcd13ifvqhng","pricing_plan_id":"cebpf4jnsgd1na2vs0mg"},{"bike_id":"9193840a-a4d3-45d8-a9f7-dfd661a76b64","system_id":"levelo_inurba_marseille","lat":43.31316,"lon":5.36741,"is_reserved":false,"is_disabled":false,"rental_uris":{"android":"levelo://app?vid=9193840a-a4d3-45d8-a9f7-dfd661a76b64","ios":"levelo://app?vid=9193840a-a4d3-45d8-a9f7-dfd661a76b64"},"vehicle_type_id":"4","last_reported":1738844277,"current_range_meters":39200,"station_id":"ce4bgr92rcd13ifvqc6g","pricing_plan_id":"cebpf4jnsgd1na2vs0mg"},{"bike_id":"40352605-1710-4941-a7d7-2acacd219e1c","system_id":"levelo_inurba_marseille","lat":43.28706,"lon":5.39981,"is_reserved":false,"is_disabled":false,"rental_uris":{"android":"levelo://app?vid=40352605-1710-4941-a7d7-2acacd219e1c","ios":"levelo://app?vid=40352605-1710-4941-a7d7-2acacd219e1c"},"vehicle_type_id":"4","last_reported":1738844277,"current_range_meters":8400,"station_id":"ce4bho92rcd13ifvqh3g","pricing_plan_id":"cebpf4jnsgd1na2vs0mg"},{"bike_id":"88ce7e1b-d6f8-4620-beef-be982f304f3e","system_id":"levelo_inurba_marseille","lat":43.32125,"lon":5.36762,"is_reserved":false,"is_disabled":false,"rental_uris":{"android":"levelo://app?vid=88ce7e1b-d6f8-4620-beef-be982f304f3e","ios":"levelo://app?vid=88ce7e1b-d6f8-4620-beef-be982f304f3e"},"vehicle_type_id":"4","last_reported":1738844277,"current_range_meters":37600,"station_id":"ce4bhrh2rcd13ifvqhug","pricing_plan_id":"cebpf4jnsgd1na2vs0mg"},{"bike_id":"344d1955-5263-40eb-a201-ab603aa02c10","system_id":"levelo_inurba_marseille","lat":43.23963,"lon":5.36632,"is_reserved":false,"is_disabled":false,"rental_uris":{"android":"levelo://app?vid=344d1955-5263-40eb-a201-ab603aa02c10","ios":"levelo://app?vid=344d1955-5263-40eb-a201-ab603aa02c10"},"vehicle_type_id":"4","last_reported":1738844277,"current_range_meters":38000,"station_id":"ce4bhi12rcd13ifvqfp0","pricing_plan_id":"cebpf4jnsgd1na2vs0mg"},{"bike_id":"0083c554-f72b-4dec-a9ea-993a6d3d9431","system_id":"levelo_inurba_marseille","lat":43.27056,"lon":5.40262,"is_reserved":false,"is_disabled":false,"rental_uris":{"android":"levelo://app?vid=0083c554-f72b-4dec-a9ea-993a6d3d9431","ios":"levelo://app?vid=0083c554-f72b-4dec-a9ea-993a6d3d9431"},"vehicle_type_id":"4","last_reported":1738844277,"current_range_meters":6400,"station_id":"ce4bhk92rcd13ifvqgc0","pricing_plan_id":"cebpf4jnsgd1na2vs0mg"},{"bike_id":"748c34c0-9f45-44aa-b2b2-993770cb972c","system_id":"levelo_inurba_marseille","lat":43.28275,"lon":5.35058,"is_reserved":false,"is_disabled":false,"rental_uris":{"android":"levelo://app?vid=748c34c0-9f45-44aa-b2b2-993770cb972c","ios":"levelo://app?vid=748c34c0-9f45-44aa-b2b2-993770cb972c"},"vehicle_type_id":"4","last_reported":1738844277,"current_range_meters":15200,"station_id":"ce4bhbp2rcd13ifvqerg","pricing_plan_id":"cebpf4jnsgd1na2vs0mg"},{"bike_id":"786af5a6-7181-4746-8e7c-5055a97f6274","system_id":"levelo_inurba_marseille","lat":43.28151,"lon":5.42633,"is_reserved":false,"is_disabled":true,"rental_uris":{"android":"levelo://app?vid=786af5a6-7181-4746-8e7c-5055a97f6274","ios":"levelo://app?vid=786af5a6-7181-4746-8e7c-5055a97f6274"},"vehicle_type_id":"4","last_reported":1738844277,"current_range_meters":28400,"station_id":"ce4bhnh2rcd13ifvqgug","pricing_plan_id":"cebpf4jnsgd1na2vs0mg"},{"bike_id":"e15065a6-8250-416b-8039-693e48ff6eed","system_id":"levelo_inurba_marseille","lat":43.2417,"lon":5.39731,"is_reserved":false,"is_disabled":false,"rental_uris":{"android":"levelo://app?vid=e15065a6-8250-416b-8039-693e48ff6eed","ios":"levelo://app?vid=e15065a6-8250-416b-8039-693e48ff6eed"},"vehicle_type_id":"4","last_reported":1738844277,"current_range_meters":38400,"station_id":"ce4bhn12rcd13ifvqgpg","pricing_plan_id":"cebpf4jnsgd1na2vs0mg"},{"bike_id":"e7b14fd5-0f2c-49c8-ba73-f39689b54839","system_id":"levelo_inurba_marseille","lat":43.28997,"lon":5.35612,"is_reserved":false,"is_disabled":false,"rental_uris":{"android":"levelo://app?vid=e7b14fd5-0f2c-49c8-ba73-f39689b54839","ios":"levelo://app?vid=e7b14fd5-0f2c-49c8-ba73-f39689b54839"},"vehicle_type_id":"4","last_reported":1738844277,"current_range_meters":35600,"station_id":"ce4bhb92rcd13ifvqen0","pricing_plan_id":"cebpf4jnsgd1na2vs0mg"},{"bike_id":"dea3caf3-4372-452d-a8b7-101a967d7129","system_id":"levelo_inurba_marseille","lat":43.24178,"lon":5.39732,"is_reserved":false,"is_disabled":false,"rental_uris":{"android":"levelo://app?vid=dea3caf3-4372-452d-a8b7-101a967d7129","ios":"levelo://app?vid=dea3caf3-4372-452d-a8b7-101a967d7129"},"vehicle_type_id":"4","last_reported":1738844277,"current_range_meters":16800,"station_id":"ce4bhn12rcd13ifvqgpg","pricing_plan_id":"cebpf4jnsgd1na2vs0mg"},{"bike_id":"9b7355dc-7165-40f0-8cd2-81f22484ab5d","system_id":"levelo_inurba_marseille","lat":43.23955,"lon":5.36653,"is_reserved":false,"is_disabled":false,"rental_uris":{"android":"levelo://app?vid=9b7355dc-7165-40f0-8cd2-81f22484ab5d","ios":"levelo://app?vid=9b7355dc-7165-40f0-8cd2-81f22484ab5d"},"vehicle_type_id":"4","last_reported":1738844277,"current_range_meters":32400,"station_id":"ce4bhi12rcd13ifvqfp0","pricing_plan_id":"cebpf4jnsgd1na2vs0mg"},{"bike_id":"90535df1-0ce1-4ee3-9be0-17f57a11fd91","system_id":"levelo_inurba_marseille","lat":43.27372,"lon":5.36261,"is_reserved":false,"is_disabled":false,"rental_uris":{"android":"levelo://app?vid=90535df1-0ce1-4ee3-9be0-17f57a11fd91","ios":"levelo://app?vid=90535df1-0ce1-4ee3-9be0-17f57a11fd91"},"vehicle_type_id":"4","last_reported":1738844277,"current_range_meters":27600,"station_id":"ce4bhbh2rcd13ifvqeo0","pricing_plan_id":"cebpf4jnsgd1na2vs0mg"},{"bike_id":"1a4ce9d9-0df0-436f-9557-26a2bb40d43e","system_id":"levelo_inurba_marseille","lat":43.30904,"lon":5.36846,"is_reserved":false,"is_disabled":false,"rental_uris":{"android":"levelo://app?vid=1a4ce9d9-0df0-436f-9557-26a2bb40d43e","ios":"levelo://app?vid=1a4ce9d9-0df0-436f-9557-26a2bb40d43e"},"vehicle_type_id":"4","last_reported":1738844277,"current_range_meters":18000,"station_id":"ce4bgn92rcd13ifvqbvg","pricing_plan_id":"cebpf4jnsgd1na2vs0mg"},{"bike_id":"5faf1ae7-8dab-473f-a1d4-d668766e2b45","system_id":"levelo_inurba_marseille","lat":43.26684,"lon":5.38261,"is_reserved":false,"is_disabled":false,"rental_uris":{"android":"levelo://app?vid=5faf1ae7-8dab-473f-a1d4-d668766e2b45","ios":"levelo://app?vid=5faf1ae7-8dab-473f-a1d4-d668766e2b45"},"vehicle_type_id":"4","last_reported":1738844277,"current_range_meters":27600,"station_id":"ce4bhg92rcd13ifvqf90","pricing_plan_id":"cebpf4jnsgd1na2vs0mg"},{"bike_id":"931c3b97-cce1-4ebe-a291-6c50a6f2810e","system_id":"levelo_inurba_marseille","lat":43.31817,"lon":5.37413,"is_reserved":false,"is_disabled":true,"rental_uris":{"android":"levelo://app?vid=931c3b97-cce1-4ebe-a291-6c50a6f2810e","ios":"levelo://app?vid=931c3b97-cce1-4ebe-a291-6c50a6f2810e"},"vehicle_type_id":"4","last_reported":1738844277,"current_range_meters":1200,"station_id":"","pricing_plan_id":"cebpf4jnsgd1na2vs0mg"},{"bike_id":"b9452b32-8f5d-4c98-bc11-fee58cf523e3","system_id":"levelo_inurba_marseille","lat":43.29908,"lon":5.43648,"is_reserved":false,"is_disabled":false,"rental_uris":{"android":"levelo://app?vid=b9452b32-8f5d-4c98-bc11-fee58cf523e3","ios":"levelo://app?vid=b9452b32-8f5d-4c98-bc11-fee58cf523e3"},"vehicle_type_id":"4","last_reported":1738844277,"current_range_meters":20000,"station_id":"ce4bhpp2rcd13ifvqhfg","pricing_plan_id":"cebpf4jnsgd1na2vs0mg"},{"bike_id":"b553fb90-bc31-4d0d-b0ad-01b7ba79c22e","system_id":"levelo_inurba_marseille","lat":43.24993,"lon":5.38939,"is_reserved":false,"is_disabled":false,"rental_uris":{"android":"levelo://app?vid=b553fb90-bc31-4d0d-b0ad-01b7ba79c22e","ios":"levelo://app?vid=b553fb90-bc31-4d0d-b0ad-01b7ba79c22e"},"vehicle_type_id":"4","last_reported":1738844277,"current_range_meters":18800,"station_id":"ce4bhgp2rcd13ifvqfd0","pricing_plan_id":"cebpf4jnsgd1na2vs0mg"},{"bike_id":"60bd43fc-1502-42f4-89a3-1f42b0003495","system_id":"levelo_inurba_marseille","lat":43.28103,"lon":5.37847,"is_reserved":false,"is_disabled":false,"rental_uris":{"android":"levelo://app?vid=60bd43fc-1502-42f4-89a3-1f42b0003495","ios":"levelo://app?vid=60bd43fc-1502-42f4-89a3-1f42b0003495"},"vehicle_type_id":"4","last_reported":1738844277,"current_range_meters":28000,"station_id":"ce4bha12rcd13ifvqee0","pricing_plan_id":"cebpf4jnsgd1na2vs0mg"},{"bike_id":"874de4a1-e3bc-4b6a-b89b-f2d4ac15bc74","system_id":"levelo_inurba_marseille","lat":43.33025,"lon":5.39045,"is_reserved":false,"is_disabled":false,"rental_uris":{"android":"levelo://app?vid=874de4a1-e3bc-4b6a-b89b-f2d4ac15bc74","ios":"levelo://app?vid=874de4a1-e3bc-4b6a-b89b-f2d4ac15bc74"},"vehicle_type_id":"4","last_reported":1738844277,"current_range_meters":30800,"station_id":"ce4bhr92rcd13ifvqhrg","pricing_plan_id":"cebpf4jnsgd1na2vs0mg"},{"bike_id":"2ee485e7-391d-4274-b465-e8d84d88ae2c","system_id":"levelo_inurba_marseille","lat":43.26954,"lon":5.38637,"is_reserved":false,"is_disabled":false,"rental_uris":{"android":"levelo://app?vid=2ee485e7-391d-4274-b465-e8d84d88ae2c","ios":"levelo://app?vid=2ee485e7-391d-4274-b465-e8d84d88ae2c"},"vehicle_type_id":"4","last_reported":1738844277,"current_range_meters":4000,"station_id":"ce4bhh92rcd13ifvqfh0","pricing_plan_id":"cebpf4jnsgd1na2vs0mg"},{"bike_id":"6100990f-c4b7-4419-ab12-3d9c2a9f7c81","system_id":"levelo_inurba_marseille","lat":43.28277,"lon":5.3507,"is_reserved":false,"is_disabled":false,"rental_uris":{"android":"levelo://app?vid=6100990f-c4b7-4419-ab12-3d9c2a9f7c81","ios":"levelo://app?vid=6100990f-c4b7-4419-ab12-3d9c2a9f7c81"},"vehicle_type_id":"4","last_reported":1738844277,"current_range_meters":34800,"station_id":"ce4bhbp2rcd13ifvqerg","pricing_plan_id":"cebpf4jnsgd1na2vs0mg"},{"bike_id":"b02d2502-96c0-451a-b0da-66d6c16aac57","system_id":"levelo_inurba_marseille","lat":43.32658,"lon":5.40992,"is_reserved":false,"is_disabled":false,"rental_uris":{"android":"levelo://app?vid=b02d2502-96c0-451a-b0da-66d6c16aac57","ios":"levelo://app?vid=b02d2502-96c0-451a-b0da-66d6c16aac57"},"vehicle_type_id":"4","last_reported":1738844277,"current_range_meters":38800,"station_id":"ce4bhpp2rcd13ifvqhgg","pricing_plan_id":"cebpf4jnsgd1na2vs0mg"},{"bike_id":"51d3b594-052e-422a-94af-562e82d59664","system_id":"levelo_inurba_marseille","lat":43.30923,"lon":5.40147,"is_reserved":false,"is_disabled":false,"rental_uris":{"android":"levelo://app?vid=51d3b594-052e-422a-94af-562e82d59664","ios":"levelo://app?vid=51d3b594-052e-422a-94af-562e82d59664"},"vehicle_type_id":"4","last_reported":1738844277,"current_range_meters":38800,"station_id":"ce4bgvp2rcd13ifvqct0","pricing_plan_id":"cebpf4jnsgd1na2vs0mg"},{"bike_id":"bed7d77b-60b3-4c7e-9167-7d7790e6d3a7","system_id":"levelo_inurba_marseille","lat":43.29255,"lon":5.38436,"is_reserved":false,"is_disabled":false,"rental_uris":{"android":"levelo://app?vid=bed7d77b-60b3-4c7e-9167-7d7790e6d3a7","ios":"levelo://app?vid=bed7d77b-60b3-4c7e-9167-7d7790e6d3a7"},"vehicle_type_id":"4","last_reported":1738844277,"current_range_meters":28400,"station_id":"ce4bh692rcd13ifvqea0","pricing_plan_id":"cebpf4jnsgd1na2vs0mg"},{"bike_id":"396fbaaa-d9c7-43a0-8fff-b0ac6ee79637","system_id":"levelo_inurba_marseille","lat":43.30462,"lon":5.37904,"is_reserved":false,"is_disabled":false,"rental_uris":{"android":"levelo://app?vid=396fbaaa-d9c7-43a0-8fff-b0ac6ee79637","ios":"levelo://app?vid=396fbaaa-d9c7-43a0-8fff-b0ac6ee79637"},"vehicle_type_id":"4","last_reported":1738844277,"current_range_meters":38400,"station_id":"ce4bgup2rcd13ifvqcn0","pricing_plan_id":"cebpf4jnsgd1na2vs0mg"},{"bike_id":"6b83d9ce-233a-4f30-ace0-346760f46ac4","system_id":"levelo_inurba_marseille","lat":43.23179,"lon":5.39994,"is_reserved":false,"is_disabled":false,"rental_uris":{"android":"levelo://app?vid=6b83d9ce-233a-4f30-ace0-346760f46ac4","ios":"levelo://app?vid=6b83d9ce-233a-4f30-ace0-346760f46ac4"},"vehicle_type_id":"4","last_reported":1738844277,"current_range_meters":27200,"station_id":"ce4bhn12rcd13ifvqgqg","pricing_plan_id":"cebpf4jnsgd1na2vs0mg"},{"bike_id":"b237d431-1a16-43f9-bb79-73ce475f0d27","system_id":"levelo_inurba_marseille","lat":43.30463,"lon":5.38889,"is_reserved":false,"is_disabled":false,"rental_uris":{"android":"levelo://app?vid=b237d431-1a16-43f9-bb79-73ce475f0d27","ios":"levelo://app?vid=b237d431-1a16-43f9-bb79-73ce475f0d27"},"vehicle_type_id":"4","last_reported":1738844277,"current_range_meters":39200,"station_id":"ce4bgk12rcd13ifvqbi0","pricing_plan_id":"cebpf4jnsgd1na2vs0mg"},{"bike_id":"495b1f1b-1397-43fa-bc0e-ccf15ec834a9","system_id":"levelo_inurba_marseille","lat":43.29876,"lon":5.38899,"is_reserved":false,"is_disabled":false,"rental_uris":{"android":"levelo://app?vid=495b1f1b-1397-43fa-bc0e-ccf15ec834a9","ios":"levelo://app?vid=495b1f1b-1397-43fa-bc0e-ccf15ec834a9"},"vehicle_type_id":"4","last_reported":1738844277,"current_range_meters":3600,"station_id":"ce4bh392rcd13ifvqdl0","pricing_plan_id":"cebpf4jnsgd1na2vs0mg"},{"bike_id":"07982568-ca07-4705-a760-3af791b61525","system_id":"levelo_inurba_marseille","lat":43.30805,"lon":5.38122,"is_reserved":false,"is_disabled":false,"rental_uris":{"android":"levelo://app?vid=07982568-ca07-4705-a760-3af791b61525","ios":"levelo://app?vid=07982568-ca07-4705-a760-3af791b61525"},"vehicle_type_id":"4","last_reported":1738844277,"current_range_meters":28000,"station_id":"ce4bgt12rcd13ifvqce0","pricing_plan_id":"cebpf4jnsgd1na2vs0mg"},{"bike_id":"b1b41edb-379c-4e75-86aa-3988587bb257","system_id":"levelo_inurba_marseille","lat":43.305354,"lon":5.38425,"is_reserved":false,"is_disabled":false,"rental_uris":{"android":"levelo://app?vid=b1b41edb-379c-4e75-86aa-3988587bb257","ios":"levelo://app?vid=b1b41edb-379c-4e75-86aa-3988587bb257"},"vehicle_type_id":"4","last_reported":1738844277,"current_range_meters":38000,"station_id":"ce4bgg92rcd13ifvqb30","pricing_plan_id":"cebpf4jnsgd1na2vs0mg"},{"bike_id":"866b058b-6db2-4a40-88fc-42f7f957abb9","system_id":"levelo_inurba_marseille","lat":43.27375,"lon":5.36257,"is_reserved":false,"is_disabled":false,"rental_uris":{"android":"levelo://app?vid=866b058b-6db2-4a40-88fc-42f7f957abb9","ios":"levelo://app?vid=866b058b-6db2-4a40-88fc-42f7f957abb9"},"vehicle_type_id":"4","last_reported":1738844277,"current_range_meters":24800,"station_id":"ce4bhbh2rcd13ifvqeo0","pricing_plan_id":"cebpf4jnsgd1na2vs0mg"},{"bike_id":"5a3dc70e-cca6-4850-8b0a-be39d9bb82df","system_id":"levelo_inurba_marseille","lat":43.25716,"lon":5.41113,"is_reserved":false,"is_disabled":false,"rental_uris":{"android":"levelo://app?vid=5a3dc70e-cca6-4850-8b0a-be39d9bb82df","ios":"levelo://app?vid=5a3dc70e-cca6-4850-8b0a-be39d9bb82df"},"vehicle_type_id":"4","last_reported":1738844277,"current_range_meters":39200,"station_id":"ce4bhkp2rcd13ifvqgd0","pricing_plan_id":"cebpf4jnsgd1na2vs0mg"},{"bike_id":"bc4186b3-1073-492b-ab95-0326a7b12d0e","system_id":"levelo_inurba_marseille","lat":43.28438,"lon":5.35,"is_reserved":false,"is_disabled":false,"rental_uris":{"android":"levelo://app?vid=bc4186b3-1073-492b-ab95-0326a7b12d0e","ios":"levelo://app?vid=bc4186b3-1073-492b-ab95-0326a7b12d0e"},"vehicle_type_id":"4","last_reported":1738844277,"current_range_meters":32000,"station_id":"ce4bhbh2rcd13ifvqepg","pricing_plan_id":"cebpf4jnsgd1na2vs0mg"},{"bike_id":"2502a83f-59c8-4e6c-a522-fa56238bf57b","system_id":"levelo_inurba_marseille","lat":43.24543,"lon":5.3953,"is_reserved":false,"is_disabled":false,"rental_uris":{"android":"levelo://app?vid=2502a83f-59c8-4e6c-a522-fa56238bf57b","ios":"levelo://app?vid=2502a83f-59c8-4e6c-a522-fa56238bf57b"},"vehicle_type_id":"4","last_reported":1738844277,"current_range_meters":38400,"station_id":"ce4bhlp2rcd13ifvqgjg","pricing_plan_id":"cebpf4jnsgd1na2vs0mg"},{"bike_id":"434166d5-5641-4cb0-8226-50315c2bc2ea","system_id":"levelo_inurba_marseille","lat":43.25112,"lon":5.40325,"is_reserved":false,"is_disabled":false,"rental_uris":{"android":"levelo://app?vid=434166d5-5641-4cb0-8226-50315c2bc2ea","ios":"levelo://app?vid=434166d5-5641-4cb0-8226-50315c2bc2ea"},"vehicle_type_id":"4","last_reported":1738844277,"current_range_meters":22000,"station_id":"ce4bhlh2rcd13ifvqgig","pricing_plan_id":"cebpf4jnsgd1na2vs0mg"},{"bike_id":"f2f5faee-8807-4570-acdb-9ab56ad43b0b","system_id":"levelo_inurba_marseille","lat":43.31332,"lon":5.36717,"is_reserved":false,"is_disabled":false,"rental_uris":{"android":"levelo://app?vid=f2f5faee-8807-4570-acdb-9ab56ad43b0b","ios":"levelo://app?vid=f2f5faee-8807-4570-acdb-9ab56ad43b0b"},"vehicle_type_id":"4","last_reported":1738844277,"current_range_meters":27200,"station_id":"ce4bgr92rcd13ifvqc6g","pricing_plan_id":"cebpf4jnsgd1na2vs0mg"},{"bike_id":"2b52254f-933d-4903-ac07-21eb27a1e798","system_id":"levelo_inurba_marseille","lat":43.27195,"lon":5.40987,"is_reserved":false,"is_disabled":false,"rental_uris":{"android":"levelo://app?vid=2b52254f-933d-4903-ac07-21eb27a1e798","ios":"levelo://app?vid=2b52254f-933d-4903-ac07-21eb27a1e798"},"vehicle_type_id":"4","last_reported":1738844277,"current_range_meters":36800,"station_id":"ce4bhl12rcd13ifvqgf0","pricing_plan_id":"cebpf4jnsgd1na2vs0mg"},{"bike_id":"599cece5-0d29-4e11-b46b-81ed71253738","system_id":"levelo_inurba_marseille","lat":43.27992,"lon":5.41653,"is_reserved":false,"is_disabled":false,"rental_uris":{"android":"levelo://app?vid=599cece5-0d29-4e11-b46b-81ed71253738","ios":"levelo://app?vid=599cece5-0d29-4e11-b46b-81ed71253738"},"vehicle_type_id":"4","last_reported":1738844277,"current_range_meters":39200,"station_id":"ce4bho12rcd13ifvqh1g","pricing_plan_id":"cebpf4jnsgd1na2vs0mg"},{"bike_id":"c3ec81c5-55a3-441b-a441-84365219d5ea","system_id":"levelo_inurba_marseille","lat":43.27799,"lon":5.43442,"is_reserved":false,"is_disabled":false,"rental_uris":{"android":"levelo://app?vid=c3ec81c5-55a3-441b-a441-84365219d5ea","ios":"levelo://app?vid=c3ec81c5-55a3-441b-a441-84365219d5ea"},"vehicle_type_id":"4","last_reported":1738844277,"current_range_meters":4000,"station_id":"","pricing_plan_id":"cebpf4jnsgd1na2vs0mg"},{"bike_id":"42e57357-ff2d-4118-9390-0ef57bb2af1b","system_id":"levelo_inurba_marseille","lat":43.28269,"lon":5.35071,"is_reserved":false,"is_disabled":false,"rental_uris":{"android":"levelo://app?vid=42e57357-ff2d-4118-9390-0ef57bb2af1b","ios":"levelo://app?vid=42e57357-ff2d-4118-9390-0ef57bb2af1b"},"vehicle_type_id":"4","last_reported":1738844277,"current_range_meters":33600,"station_id":"ce4bhbp2rcd13ifvqerg","pricing_plan_id":"cebpf4jnsgd1na2vs0mg"},{"bike_id":"ea28dc42-ae87-4462-a2dd-573b1a6eebda","system_id":"levelo_inurba_marseille","lat":43.2603,"lon":5.37549,"is_reserved":false,"is_disabled":false,"rental_uris":{"android":"levelo://app?vid=ea28dc42-ae87-4462-a2dd-573b1a6eebda","ios":"levelo://app?vid=ea28dc42-ae87-4462-a2dd-573b1a6eebda"},"vehicle_type_id":"4","last_reported":1738844277,"current_range_meters":4000,"station_id":"ce4bhgh2rcd13ifvqfa0","pricing_plan_id":"cebpf4jnsgd1na2vs0mg"},{"bike_id":"0cd05763-606a-4efb-bd5d-c296b9cec394","system_id":"levelo_inurba_marseille","lat":43.24075,"lon":5.37759,"is_reserved":false,"is_disabled":false,"rental_uris":{"android":"levelo://app?vid=0cd05763-606a-4efb-bd5d-c296b9cec394","ios":"levelo://app?vid=0cd05763-606a-4efb-bd5d-c296b9cec394"},"vehicle_type_id":"4","last_reported":1738844277,"current_range_meters":28400,"station_id":"ce4bhnp2rcd13ifvqgvg","pricing_plan_id":"cebpf4jnsgd1na2vs0mg"},{"bike_id":"2e06cead-7f65-4ae9-abd5-86c6a93c1cf2","system_id":"levelo_inurba_marseille","lat":43.29261,"lon":5.40904,"is_reserved":false,"is_disabled":false,"rental_uris":{"android":"levelo://app?vid=2e06cead-7f65-4ae9-abd5-86c6a93c1cf2","ios":"levelo://app?vid=2e06cead-7f65-4ae9-abd5-86c6a93c1cf2"},"vehicle_type_id":"4","last_reported":1738844277,"current_range_meters":32400,"station_id":"ce4bh192rcd13ifvqdc0","pricing_plan_id":"cebpf4jnsgd1na2vs0mg"},{"bike_id":"84ac770d-ee0b-4ab2-8aed-b7682ef22ad0","system_id":"levelo_inurba_marseille","lat":43.30577,"lon":5.39315,"is_reserved":false,"is_disabled":false,"rental_uris":{"android":"levelo://app?vid=84ac770d-ee0b-4ab2-8aed-b7682ef22ad0","ios":"levelo://app?vid=84ac770d-ee0b-4ab2-8aed-b7682ef22ad0"},"vehicle_type_id":"4","last_reported":1738844277,"current_range_meters":36000,"station_id":"","pricing_plan_id":"cebpf4jnsgd1na2vs0mg"},{"bike_id":"d8efbcd9-835a-4eeb-a01a-3017cb8037d5","system_id":"levelo_inurba_marseille","lat":43.29574,"lon":5.37489,"is_reserved":false,"is_disabled":true,"rental_uris":{"android":"levelo://app?vid=d8efbcd9-835a-4eeb-a01a-3017cb8037d5","ios":"levelo://app?vid=d8efbcd9-835a-4eeb-a01a-3017cb8037d5"},"vehicle_type_id":"4","last_reported":1738844277,"current_range_meters":0,"station_id":"ce4bgh92rcd13ifvqb50","pricing_plan_id":"cebpf4jnsgd1na2vs0mg"},{"bike_id":"9eb01c18-d575-49b0-b335-bff70127852a","system_id":"levelo_inurba_marseille","lat":43.292626,"lon":5.384296,"is_reserved":false,"is_disabled":true,"rental_uris":{"android":"levelo://app?vid=9eb01c18-d575-49b0-b335-bff70127852a","ios":"levelo://app?vid=9eb01c18-d575-49b0-b335-bff70127852a"},"vehicle_type_id":"4","last_reported":1738844277,"current_range_meters":38400,"station_id":"ce4bh692rcd13ifvqea0","pricing_plan_id":"cebpf4jnsgd1na2vs0mg"},{"bike_id":"0a8c6cc1-5149-4ec4-b8a5-47e378c1cf2b","system_id":"levelo_inurba_marseille","lat":43.26557,"lon":5.3729,"is_reserved":false,"is_disabled":false,"rental_uris":{"android":"levelo://app?vid=0a8c6cc1-5149-4ec4-b8a5-47e378c1cf2b","ios":"levelo://app?vid=0a8c6cc1-5149-4ec4-b8a5-47e378c1cf2b"},"vehicle_type_id":"4","last_reported":1738844277,"current_range_meters":32400,"station_id":"ce4bhg12rcd13ifvqf70","pricing_plan_id":"cebpf4jnsgd1na2vs0mg"},{"bike_id":"09963baf-f270-43fd-8845-1d0fc8b80973","system_id":"levelo_inurba_marseille","lat":43.29096,"lon":5.38179,"is_reserved":false,"is_disabled":true,"rental_uris":{"android":"levelo://app?vid=09963baf-f270-43fd-8845-1d0fc8b80973","ios":"levelo://app?vid=09963baf-f270-43fd-8845-1d0fc8b80973"},"vehicle_type_id":"4","last_reported":1738844277,"current_range_meters":0,"station_id":"ce4bh512rcd13ifvqe2g","pricing_plan_id":"cebpf4jnsgd1na2vs0mg"},{"bike_id":"4646af66-0dd4-47cf-83cb-4f3f70a6c2f5","system_id":"levelo_inurba_marseille","lat":43.26668,"lon":5.38281,"is_reserved":false,"is_disabled":false,"rental_uris":{"android":"levelo://app?vid=4646af66-0dd4-47cf-83cb-4f3f70a6c2f5","ios":"levelo://app?vid=4646af66-0dd4-47cf-83cb-4f3f70a6c2f5"},"vehicle_type_id":"4","last_reported":1738844277,"current_range_meters":39200,"station_id":"ce4bhg92rcd13ifvqf90","pricing_plan_id":"cebpf4jnsgd1na2vs0mg"},{"bike_id":"2c310423-76b6-48f4-b2ac-2e94c730b007","system_id":"levelo_inurba_marseille","lat":43.28103,"lon":5.37845,"is_reserved":false,"is_disabled":false,"rental_uris":{"android":"levelo://app?vid=2c310423-76b6-48f4-b2ac-2e94c730b007","ios":"levelo://app?vid=2c310423-76b6-48f4-b2ac-2e94c730b007"},"vehicle_type_id":"4","last_reported":1738844277,"current_range_meters":36400,"station_id":"ce4bha12rcd13ifvqee0","pricing_plan_id":"cebpf4jnsgd1na2vs0mg"},{"bike_id":"be9f4333-5473-4694-b66e-aa68202e2103","system_id":"levelo_inurba_marseille","lat":43.28349,"lon":5.38098,"is_reserved":false,"is_disabled":false,"rental_uris":{"android":"levelo://app?vid=be9f4333-5473-4694-b66e-aa68202e2103","ios":"levelo://app?vid=be9f4333-5473-4694-b66e-aa68202e2103"},"vehicle_type_id":"4","last_reported":1738844277,"current_range_meters":28000,"station_id":"ce4bh412rcd13ifvqdr0","pricing_plan_id":"cebpf4jnsgd1na2vs0mg"},{"bike_id":"fab9910f-f448-49b1-be37-4c6c5ae3862a","system_id":"levelo_inurba_marseille","lat":43.27817,"lon":5.40725,"is_reserved":false,"is_disabled":false,"rental_uris":{"android":"levelo://app?vid=fab9910f-f448-49b1-be37-4c6c5ae3862a","ios":"levelo://app?vid=fab9910f-f448-49b1-be37-4c6c5ae3862a"},"vehicle_type_id":"4","last_reported":1738844277,"current_range_meters":38800,"station_id":"ce4bhnh2rcd13ifvqgtg","pricing_plan_id":"cebpf4jnsgd1na2vs0mg"},{"bike_id":"6293896a-658c-47b9-b858-b62c3cf3f2f8","system_id":"levelo_inurba_marseille","lat":43.24071,"lon":5.37763,"is_reserved":false,"is_disabled":false,"rental_uris":{"android":"levelo://app?vid=6293896a-658c-47b9-b858-b62c3cf3f2f8","ios":"levelo://app?vid=6293896a-658c-47b9-b858-b62c3cf3f2f8"},"vehicle_type_id":"4","last_reported":1738844277,"current_range_meters":4400,"station_id":"ce4bhnp2rcd13ifvqgvg","pricing_plan_id":"cebpf4jnsgd1na2vs0mg"},{"bike_id":"e6a687bd-ff0b-4555-a7b5-6731758b41c6","system_id":"levelo_inurba_marseille","lat":43.28081,"lon":5.39651,"is_reserved":false,"is_disabled":false,"rental_uris":{"android":"levelo://app?vid=e6a687bd-ff0b-4555-a7b5-6731758b41c6","ios":"levelo://app?vid=e6a687bd-ff0b-4555-a7b5-6731758b41c6"},"vehicle_type_id":"4","last_reported":1738844277,"current_range_meters":16800,"station_id":"ce4bho12rcd13ifvqh2g","pricing_plan_id":"cebpf4jnsgd1na2vs0mg"},{"bike_id":"66c91f0e-d404-4399-99c9-77276ceb134d","system_id":"levelo_inurba_marseille","lat":43.30539,"lon":5.36541,"is_reserved":false,"is_disabled":false,"rental_uris":{"android":"levelo://app?vid=66c91f0e-d404-4399-99c9-77276ceb134d","ios":"levelo://app?vid=66c91f0e-d404-4399-99c9-77276ceb134d"},"vehicle_type_id":"4","last_reported":1738844277,"current_range_meters":34800,"station_id":"ce4bgs12rcd13ifvqcag","pricing_plan_id":"cebpf4jnsgd1na2vs0mg"},{"bike_id":"0fe75a77-59c8-4e9b-a9c0-5d484c957c5c","system_id":"levelo_inurba_marseille","lat":43.28719,"lon":5.379,"is_reserved":false,"is_disabled":true,"rental_uris":{"android":"levelo://app?vid=0fe75a77-59c8-4e9b-a9c0-5d484c957c5c","ios":"levelo://app?vid=0fe75a77-59c8-4e9b-a9c0-5d484c957c5c"},"vehicle_type_id":"4","last_reported":1738844277,"current_range_meters":30000,"station_id":"ce4bh9p2rcd13ifvqec0","pricing_plan_id":"cebpf4jnsgd1na2vs0mg"},{"bike_id":"bab07d03-5352-4a1b-80e4-e1f9df8edacd","system_id":"levelo_inurba_marseille","lat":43.23189,"lon":5.35559,"is_reserved":false,"is_disabled":false,"rental_uris":{"android":"levelo://app?vid=bab07d03-5352-4a1b-80e4-e1f9df8edacd","ios":"levelo://app?vid=bab07d03-5352-4a1b-80e4-e1f9df8edacd"},"vehicle_type_id":"4","last_reported":1738844277,"current_range_meters":33600,"station_id":"ce4bhu92rcd13ifvqi70","pricing_plan_id":"cebpf4jnsgd1na2vs0mg"},{"bike_id":"6c2be9fc-f887-49b2-9d6b-5b5d9444cf0b","system_id":"levelo_inurba_marseille","lat":43.32648,"lon":5.40961,"is_reserved":false,"is_disabled":false,"rental_uris":{"android":"levelo://app?vid=6c2be9fc-f887-49b2-9d6b-5b5d9444cf0b","ios":"levelo://app?vid=6c2be9fc-f887-49b2-9d6b-5b5d9444cf0b"},"vehicle_type_id":"4","last_reported":1738844277,"current_range_meters":25600,"station_id":"ce4bhpp2rcd13ifvqhgg","pricing_plan_id":"cebpf4jnsgd1na2vs0mg"},{"bike_id":"f364ec4e-77a4-4264-a1e7-cc094d8dec9d","system_id":"levelo_inurba_marseille","lat":43.25576,"lon":5.38237,"is_reserved":false,"is_disabled":false,"rental_uris":{"android":"levelo://app?vid=f364ec4e-77a4-4264-a1e7-cc094d8dec9d","ios":"levelo://app?vid=f364ec4e-77a4-4264-a1e7-cc094d8dec9d"},"vehicle_type_id":"4","last_reported":1738844277,"current_range_meters":39200,"station_id":"ce4bhih2rcd13ifvqfs0","pricing_plan_id":"cebpf4jnsgd1na2vs0mg"},{"bike_id":"5cf97d94-022b-4d61-b384-2f21715c0760","system_id":"levelo_inurba_marseille","lat":43.24087,"lon":5.37761,"is_reserved":false,"is_disabled":false,"rental_uris":{"android":"levelo://app?vid=5cf97d94-022b-4d61-b384-2f21715c0760","ios":"levelo://app?vid=5cf97d94-022b-4d61-b384-2f21715c0760"},"vehicle_type_id":"4","last_reported":1738844277,"current_range_meters":20400,"station_id":"ce4bhnp2rcd13ifvqgvg","pricing_plan_id":"cebpf4jnsgd1na2vs0mg"},{"bike_id":"15ae9215-f51b-4554-80b8-c11ca72ed0d7","system_id":"levelo_inurba_marseille","lat":43.30808,"lon":5.43521,"is_reserved":false,"is_disabled":false,"rental_uris":{"android":"levelo://app?vid=15ae9215-f51b-4554-80b8-c11ca72ed0d7","ios":"levelo://app?vid=15ae9215-f51b-4554-80b8-c11ca72ed0d7"},"vehicle_type_id":"4","last_reported":1738844277,"current_range_meters":19600,"station_id":"ce4bhph2rcd13ifvqheg","pricing_plan_id":"cebpf4jnsgd1na2vs0mg"},{"bike_id":"5ac0c598-3f1d-4248-8ea4-f785651e19bf","system_id":"levelo_inurba_marseille","lat":43.32533,"lon":5.41472,"is_reserved":false,"is_disabled":false,"rental_uris":{"android":"levelo://app?vid=5ac0c598-3f1d-4248-8ea4-f785651e19bf","ios":"levelo://app?vid=5ac0c598-3f1d-4248-8ea4-f785651e19bf"},"vehicle_type_id":"4","last_reported":1738844277,"current_range_meters":38800,"station_id":"ce4bhq12rcd13ifvqhhg","pricing_plan_id":"cebpf4jnsgd1na2vs0mg"},{"bike_id":"595588ff-42cd-4170-8c75-046e92bfb34d","system_id":"levelo_inurba_marseille","lat":43.30475,"lon":5.37904,"is_reserved":false,"is_disabled":true,"rental_uris":{"android":"levelo://app?vid=595588ff-42cd-4170-8c75-046e92bfb34d","ios":"levelo://app?vid=595588ff-42cd-4170-8c75-046e92bfb34d"},"vehicle_type_id":"4","last_reported":1738844277,"current_range_meters":14000,"station_id":"ce4bho92rcd13ifvqh3g","pricing_plan_id":"cebpf4jnsgd1na2vs0mg"},{"bike_id":"1dcde2e1-5489-4093-9ecc-a660cf941714","system_id":"levelo_inurba_marseille","lat":43.26212,"lon":5.37442,"is_reserved":false,"is_disabled":false,"rental_uris":{"android":"levelo://app?vid=1dcde2e1-5489-4093-9ecc-a660cf941714","ios":"levelo://app?vid=1dcde2e1-5489-4093-9ecc-a660cf941714"},"vehicle_type_id":"4","last_reported":1738844277,"current_range_meters":24000,"station_id":"ce4bhgp2rcd13ifvqfc0","pricing_plan_id":"cebpf4jnsgd1na2vs0mg"},{"bike_id":"934710cf-9010-4a78-81b6-34b30dbe6d5c","system_id":"levelo_inurba_marseille","lat":43.26194,"lon":5.37941,"is_reserved":false,"is_disabled":false,"rental_uris":{"android":"levelo://app?vid=934710cf-9010-4a78-81b6-34b30dbe6d5c","ios":"levelo://app?vid=934710cf-9010-4a78-81b6-34b30dbe6d5c"},"vehicle_type_id":"4","last_reported":1738844277,"current_range_meters":38800,"station_id":"ce4bhjp2rcd13ifvqg90","pricing_plan_id":"cebpf4jnsgd1na2vs0mg"},{"bike_id":"ccbc292f-c370-4f3f-821e-eaf3a0a6e9d5","system_id":"levelo_inurba_marseille","lat":43.25718,"lon":5.41114,"is_reserved":false,"is_disabled":false,"rental_uris":{"android":"levelo://app?vid=ccbc292f-c370-4f3f-821e-eaf3a0a6e9d5","ios":"levelo://app?vid=ccbc292f-c370-4f3f-821e-eaf3a0a6e9d5"},"vehicle_type_id":"4","last_reported":1738844277,"current_range_meters":21600,"station_id":"ce4bhkp2rcd13ifvqgd0","pricing_plan_id":"cebpf4jnsgd1na2vs0mg"},{"bike_id":"1581d598-5307-4e55-905b-001a70f200f9","system_id":"levelo_inurba_marseille","lat":43.2572,"lon":5.41111,"is_reserved":false,"is_disabled":false,"rental_uris":{"android":"levelo://app?vid=1581d598-5307-4e55-905b-001a70f200f9","ios":"levelo://app?vid=1581d598-5307-4e55-905b-001a70f200f9"},"vehicle_type_id":"4","last_reported":1738844277,"current_range_meters":39200,"station_id":"ce4bhkp2rcd13ifvqgd0","pricing_plan_id":"cebpf4jnsgd1na2vs0mg"},{"bike_id":"3ae9d3e4-5a85-48c5-9359-37dec08fc4f7","system_id":"levelo_inurba_marseille","lat":43.31275,"lon":5.40167,"is_reserved":false,"is_disabled":false,"rental_uris":{"android":"levelo://app?vid=3ae9d3e4-5a85-48c5-9359-37dec08fc4f7","ios":"levelo://app?vid=3ae9d3e4-5a85-48c5-9359-37dec08fc4f7"},"vehicle_type_id":"4","last_reported":1738844277,"current_range_meters":36800,"station_id":"ce4bh092rcd13ifvqd30","pricing_plan_id":"cebpf4jnsgd1na2vs0mg"},{"bike_id":"31ec5be3-7358-4d1c-b4d5-721b7ab887a0","system_id":"levelo_inurba_marseille","lat":43.29,"lon":5.35616,"is_reserved":false,"is_disabled":false,"rental_uris":{"android":"levelo://app?vid=31ec5be3-7358-4d1c-b4d5-721b7ab887a0","ios":"levelo://app?vid=31ec5be3-7358-4d1c-b4d5-721b7ab887a0"},"vehicle_type_id":"4","last_reported":1738844277,"current_range_meters":18000,"station_id":"ce4bhb92rcd13ifvqen0","pricing_plan_id":"cebpf4jnsgd1na2vs0mg"},{"bike_id":"87ea7a2e-3367-4617-b793-d6e97e762c1f","system_id":"levelo_inurba_marseille","lat":43.27397,"lon":5.39405,"is_reserved":false,"is_disabled":false,"rental_uris":{"android":"levelo://app?vid=87ea7a2e-3367-4617-b793-d6e97e762c1f","ios":"levelo://app?vid=87ea7a2e-3367-4617-b793-d6e97e762c1f"},"vehicle_type_id":"4","last_reported":1738844277,"current_range_meters":38800,"station_id":"ce4bhdp2rcd13ifvqf20","pricing_plan_id":"cebpf4jnsgd1na2vs0mg"},{"bike_id":"6522239a-3688-4f94-bb02-adaf4a055ea5","system_id":"levelo_inurba_marseille","lat":43.23188,"lon":5.35556,"is_reserved":false,"is_disabled":false,"rental_uris":{"android":"levelo://app?vid=6522239a-3688-4f94-bb02-adaf4a055ea5","ios":"levelo://app?vid=6522239a-3688-4f94-bb02-adaf4a055ea5"},"vehicle_type_id":"4","last_reported":1738844277,"current_range_meters":38800,"station_id":"ce4bhu92rcd13ifvqi70","pricing_plan_id":"cebpf4jnsgd1na2vs0mg"},{"bike_id":"bef1122d-062a-49cf-aee7-09ecdd1a9425","system_id":"levelo_inurba_marseille","lat":43.24075,"lon":5.37766,"is_reserved":false,"is_disabled":false,"rental_uris":{"android":"levelo://app?vid=bef1122d-062a-49cf-aee7-09ecdd1a9425","ios":"levelo://app?vid=bef1122d-062a-49cf-aee7-09ecdd1a9425"},"vehicle_type_id":"4","last_reported":1738844277,"current_range_meters":9600,"station_id":"ce4bhnp2rcd13ifvqgvg","pricing_plan_id":"cebpf4jnsgd1na2vs0mg"},{"bike_id":"6fd0c732-3a1a-4c3f-8237-1cac68335031","system_id":"levelo_inurba_marseille","lat":43.27506,"lon":5.42441,"is_reserved":false,"is_disabled":true,"rental_uris":{"android":"levelo://app?vid=6fd0c732-3a1a-4c3f-8237-1cac68335031","ios":"levelo://app?vid=6fd0c732-3a1a-4c3f-8237-1cac68335031"},"vehicle_type_id":"4","last_reported":1738844277,"current_range_meters":17600,"station_id":"ce4bhn92rcd13ifvqgrg","pricing_plan_id":"cebpf4jnsgd1na2vs0mg"},{"bike_id":"2067b896-33e2-45f5-86d8-d65552e3842f","system_id":"levelo_inurba_marseille","lat":43.30159,"lon":5.37394,"is_reserved":false,"is_disabled":false,"rental_uris":{"android":"levelo://app?vid=2067b896-33e2-45f5-86d8-d65552e3842f","ios":"levelo://app?vid=2067b896-33e2-45f5-86d8-d65552e3842f"},"vehicle_type_id":"4","last_reported":1738844277,"current_range_meters":38800,"station_id":"ce4bgs92rcd13ifvqcc0","pricing_plan_id":"cebpf4jnsgd1na2vs0mg"},{"bike_id":"cd07e062-2af1-406e-bcb9-5f1ec4730937","system_id":"levelo_inurba_marseille","lat":43.23067,"lon":5.35496,"is_reserved":false,"is_disabled":false,"rental_uris":{"android":"levelo://app?vid=cd07e062-2af1-406e-bcb9-5f1ec4730937","ios":"levelo://app?vid=cd07e062-2af1-406e-bcb9-5f1ec4730937"},"vehicle_type_id":"4","last_reported":1738844277,"current_range_meters":36400,"station_id":"cpo3342slgdg3j2ifvpg","pricing_plan_id":"cebpf4jnsgd1na2vs0mg"},{"bike_id":"c3644d12-8427-4602-9945-9ef42c46feca","system_id":"levelo_inurba_marseille","lat":43.24167,"lon":5.36403,"is_reserved":false,"is_disabled":false,"rental_uris":{"android":"levelo://app?vid=c3644d12-8427-4602-9945-9ef42c46feca","ios":"levelo://app?vid=c3644d12-8427-4602-9945-9ef42c46feca"},"vehicle_type_id":"4","last_reported":1738844277,"current_range_meters":36400,"station_id":"cpo36qri1sfpv3e86is0","pricing_plan_id":"cebpf4jnsgd1na2vs0mg"},{"bike_id":"ef3b24d9-d008-46b8-970d-aed443f66788","system_id":"levelo_inurba_marseille","lat":43.29031,"lon":5.399613,"is_reserved":false,"is_disabled":false,"rental_uris":{"android":"levelo://app?vid=ef3b24d9-d008-46b8-970d-aed443f66788","ios":"levelo://app?vid=ef3b24d9-d008-46b8-970d-aed443f66788"},"vehicle_type_id":"4","last_reported":1738844277,"current_range_meters":27600,"station_id":"ce4bh392rcd13ifvqdm0","pricing_plan_id":"cebpf4jnsgd1na2vs0mg"},{"bike_id":"20815bf0-f955-435e-a63e-482bd619f1c6","system_id":"levelo_inurba_marseille","lat":43.241721,"lon":5.397462,"is_reserved":false,"is_disabled":false,"rental_uris":{"android":"levelo://app?vid=20815bf0-f955-435e-a63e-482bd619f1c6","ios":"levelo://app?vid=20815bf0-f955-435e-a63e-482bd619f1c6"},"vehicle_type_id":"4","last_reported":1738844277,"current_range_meters":36400,"station_id":"ce4bhn12rcd13ifvqgpg","pricing_plan_id":"cebpf4jnsgd1na2vs0mg"},{"bike_id":"1e7bde43-ab8f-4755-b59a-acd0a53ae759","system_id":"levelo_inurba_marseille","lat":43.31711,"lon":5.42408,"is_reserved":false,"is_disabled":true,"rental_uris":{"android":"levelo://app?vid=1e7bde43-ab8f-4755-b59a-acd0a53ae759","ios":"levelo://app?vid=1e7bde43-ab8f-4755-b59a-acd0a53ae759"},"vehicle_type_id":"4","last_reported":1738844277,"current_range_meters":0,"station_id":"ce4bhp92rcd13ifvqhbg","pricing_plan_id":"cebpf4jnsgd1na2vs0mg"},{"bike_id":"47abf23c-08f7-4ebb-bd37-64f4482fe8ac","system_id":"levelo_inurba_marseille","lat":43.279747,"lon":5.387481,"is_reserved":false,"is_disabled":false,"rental_uris":{"android":"levelo://app?vid=47abf23c-08f7-4ebb-bd37-64f4482fe8ac","ios":"levelo://app?vid=47abf23c-08f7-4ebb-bd37-64f4482fe8ac"},"vehicle_type_id":"4","last_reported":1738844277,"current_range_meters":15200,"station_id":"ce4bhg12rcd13ifvqf80","pricing_plan_id":"cebpf4jnsgd1na2vs0mg"},{"bike_id":"bd944b22-bdc4-45a8-9a31-0c38734abd7e","system_id":"levelo_inurba_marseille","lat":43.28932,"lon":5.36393,"is_reserved":false,"is_disabled":true,"rental_uris":{"android":"levelo://app?vid=bd944b22-bdc4-45a8-9a31-0c38734abd7e","ios":"levelo://app?vid=bd944b22-bdc4-45a8-9a31-0c38734abd7e"},"vehicle_type_id":"4","last_reported":1738844277,"current_range_meters":400,"station_id":"ce4bhc92rcd13ifvqetg","pricing_plan_id":"cebpf4jnsgd1na2vs0mg"},{"bike_id":"54e3d1a7-8a48-4b24-baff-16a6ec423f29","system_id":"levelo_inurba_marseille","lat":43.28166,"lon":5.42639,"is_reserved":false,"is_disabled":false,"rental_uris":{"android":"levelo://app?vid=54e3d1a7-8a48-4b24-baff-16a6ec423f29","ios":"levelo://app?vid=54e3d1a7-8a48-4b24-baff-16a6ec423f29"},"vehicle_type_id":"4","last_reported":1738844277,"current_range_meters":38800,"station_id":"ce4bhnh2rcd13ifvqgug","pricing_plan_id":"cebpf4jnsgd1na2vs0mg"},{"bike_id":"2ee7c118-49ff-47fe-a9e4-7a60ef2b2763","system_id":"levelo_inurba_marseille","lat":43.32366,"lon":5.38888,"is_reserved":false,"is_disabled":false,"rental_uris":{"android":"levelo://app?vid=2ee7c118-49ff-47fe-a9e4-7a60ef2b2763","ios":"levelo://app?vid=2ee7c118-49ff-47fe-a9e4-7a60ef2b2763"},"vehicle_type_id":"4","last_reported":1738844277,"current_range_meters":30400,"station_id":"ce4bhqp2rcd13ifvqhog","pricing_plan_id":"cebpf4jnsgd1na2vs0mg"},{"bike_id":"45a7daa2-2a2e-4454-90c3-1009aaecc5bd","system_id":"levelo_inurba_marseille","lat":43.23203,"lon":5.35536,"is_reserved":false,"is_disabled":false,"rental_uris":{"android":"levelo://app?vid=45a7daa2-2a2e-4454-90c3-1009aaecc5bd","ios":"levelo://app?vid=45a7daa2-2a2e-4454-90c3-1009aaecc5bd"},"vehicle_type_id":"4","last_reported":1738844277,"current_range_meters":38800,"station_id":"ce4bhu92rcd13ifvqi70","pricing_plan_id":"cebpf4jnsgd1na2vs0mg"},{"bike_id":"250fa2c3-3f8d-4dc7-a040-174d559a6441","system_id":"levelo_inurba_marseille","lat":43.30532,"lon":5.38427,"is_reserved":false,"is_disabled":false,"rental_uris":{"android":"levelo://app?vid=250fa2c3-3f8d-4dc7-a040-174d559a6441","ios":"levelo://app?vid=250fa2c3-3f8d-4dc7-a040-174d559a6441"},"vehicle_type_id":"4","last_reported":1738844277,"current_range_meters":33600,"station_id":"ce4bgg92rcd13ifvqb30","pricing_plan_id":"cebpf4jnsgd1na2vs0mg"},{"bike_id":"aece1634-918f-4f68-8bc7-9a7b7abafc1f","system_id":"levelo_inurba_marseille","lat":43.28153,"lon":5.42646,"is_reserved":false,"is_disabled":true,"rental_uris":{"android":"levelo://app?vid=aece1634-918f-4f68-8bc7-9a7b7abafc1f","ios":"levelo://app?vid=aece1634-918f-4f68-8bc7-9a7b7abafc1f"},"vehicle_type_id":"4","last_reported":1738844277,"current_range_meters":26800,"station_id":"ce4bhnh2rcd13ifvqgug","pricing_plan_id":"cebpf4jnsgd1na2vs0mg"},{"bike_id":"3b1d5f28-8e2f-4cd2-84ee-32e60c8bc1d4","system_id":"levelo_inurba_marseille","lat":43.27881,"lon":5.38742,"is_reserved":false,"is_disabled":false,"rental_uris":{"android":"levelo://app?vid=3b1d5f28-8e2f-4cd2-84ee-32e60c8bc1d4","ios":"levelo://app?vid=3b1d5f28-8e2f-4cd2-84ee-32e60c8bc1d4"},"vehicle_type_id":"4","last_reported":1738844277,"current_range_meters":38000,"station_id":"","pricing_plan_id":"cebpf4jnsgd1na2vs0mg"},{"bike_id":"66e475f0-1f94-4f0d-9bb7-45c45668a15f","system_id":"levelo_inurba_marseille","lat":43.264943,"lon":5.395443,"is_reserved":false,"is_disabled":false,"rental_uris":{"android":"levelo://app?vid=66e475f0-1f94-4f0d-9bb7-45c45668a15f","ios":"levelo://app?vid=66e475f0-1f94-4f0d-9bb7-45c45668a15f"},"vehicle_type_id":"4","last_reported":1738844277,"current_range_meters":38800,"station_id":"ce4bhi12rcd13ifvqfq0","pricing_plan_id":"cebpf4jnsgd1na2vs0mg"},{"bike_id":"ba20f2a2-9af3-4d6e-bbcc-5dc14354e595","system_id":"levelo_inurba_marseille","lat":43.27951,"lon":5.41047,"is_reserved":false,"is_disabled":false,"rental_uris":{"android":"levelo://app?vid=ba20f2a2-9af3-4d6e-bbcc-5dc14354e595","ios":"levelo://app?vid=ba20f2a2-9af3-4d6e-bbcc-5dc14354e595"},"vehicle_type_id":"4","last_reported":1738844277,"current_range_meters":34800,"station_id":"ce4bhnp2rcd13ifvqh0g","pricing_plan_id":"cebpf4jnsgd1na2vs0mg"},{"bike_id":"a17b902b-bafc-49d0-9389-2ce74253b3a1","system_id":"levelo_inurba_marseille","lat":43.27189,"lon":5.40988,"is_reserved":false,"is_disabled":false,"rental_uris":{"android":"levelo://app?vid=a17b902b-bafc-49d0-9389-2ce74253b3a1","ios":"levelo://app?vid=a17b902b-bafc-49d0-9389-2ce74253b3a1"},"vehicle_type_id":"4","last_reported":1738844277,"current_range_meters":38800,"station_id":"ce4bhl12rcd13ifvqgf0","pricing_plan_id":"cebpf4jnsgd1na2vs0mg"},{"bike_id":"82928581-7cae-4db3-9a68-a5b9ec34a9ee","system_id":"levelo_inurba_marseille","lat":43.31882,"lon":5.43377,"is_reserved":false,"is_disabled":true,"rental_uris":{"android":"levelo://app?vid=82928581-7cae-4db3-9a68-a5b9ec34a9ee","ios":"levelo://app?vid=82928581-7cae-4db3-9a68-a5b9ec34a9ee"},"vehicle_type_id":"4","last_reported":1738844277,"current_range_meters":0,"station_id":"","pricing_plan_id":"cebpf4jnsgd1na2vs0mg"},{"bike_id":"9570fd30-4823-4c4c-9c30-a0698b1ec018","system_id":"levelo_inurba_marseille","lat":43.26553,"lon":5.37289,"is_reserved":false,"is_disabled":false,"rental_uris":{"android":"levelo://app?vid=9570fd30-4823-4c4c-9c30-a0698b1ec018","ios":"levelo://app?vid=9570fd30-4823-4c4c-9c30-a0698b1ec018"},"vehicle_type_id":"4","last_reported":1738844277,"current_range_meters":38800,"station_id":"ce4bhg12rcd13ifvqf70","pricing_plan_id":"cebpf4jnsgd1na2vs0mg"},{"bike_id":"ccf07887-7bd0-4c0b-a062-aa3d191ff145","system_id":"levelo_inurba_marseille","lat":43.25104,"lon":5.40321,"is_reserved":false,"is_disabled":false,"rental_uris":{"android":"levelo://app?vid=ccf07887-7bd0-4c0b-a062-aa3d191ff145","ios":"levelo://app?vid=ccf07887-7bd0-4c0b-a062-aa3d191ff145"},"vehicle_type_id":"4","last_reported":1738844277,"current_range_meters":21600,"station_id":"ce4bhlh2rcd13ifvqgig","pricing_plan_id":"cebpf4jnsgd1na2vs0mg"},{"bike_id":"ecae73d1-2c66-4113-a621-fef7465426a7","system_id":"levelo_inurba_marseille","lat":43.23197,"lon":5.35561,"is_reserved":false,"is_disabled":false,"rental_uris":{"android":"levelo://app?vid=ecae73d1-2c66-4113-a621-fef7465426a7","ios":"levelo://app?vid=ecae73d1-2c66-4113-a621-fef7465426a7"},"vehicle_type_id":"4","last_reported":1738844277,"current_range_meters":24000,"station_id":"ce4bhu92rcd13ifvqi70","pricing_plan_id":"cebpf4jnsgd1na2vs0mg"},{"bike_id":"282c8ffb-e6b0-44f9-a4ae-1d2f27f1e8ea","system_id":"levelo_inurba_marseille","lat":43.249396,"lon":5.388747,"is_reserved":false,"is_disabled":false,"rental_uris":{"android":"levelo://app?vid=282c8ffb-e6b0-44f9-a4ae-1d2f27f1e8ea","ios":"levelo://app?vid=282c8ffb-e6b0-44f9-a4ae-1d2f27f1e8ea"},"vehicle_type_id":"4","last_reported":1738844277,"current_range_meters":19600,"station_id":"ce4bhgp2rcd13ifvqfd0","pricing_plan_id":"cebpf4jnsgd1na2vs0mg"},{"bike_id":"8d76a1b0-9c78-4a72-a276-b6944e535f97","system_id":"levelo_inurba_marseille","lat":43.3059,"lon":5.39338,"is_reserved":false,"is_disabled":false,"rental_uris":{"android":"levelo://app?vid=8d76a1b0-9c78-4a72-a276-b6944e535f97","ios":"levelo://app?vid=8d76a1b0-9c78-4a72-a276-b6944e535f97"},"vehicle_type_id":"4","last_reported":1738844277,"current_range_meters":34000,"station_id":"ce4bh0p2rcd13ifvqd80","pricing_plan_id":"cebpf4jnsgd1na2vs0mg"},{"bike_id":"2c572b16-cdce-4769-ba0d-eb513bbce049","system_id":"levelo_inurba_marseille","lat":43.25729,"lon":5.41105,"is_reserved":false,"is_disabled":false,"rental_uris":{"android":"levelo://app?vid=2c572b16-cdce-4769-ba0d-eb513bbce049","ios":"levelo://app?vid=2c572b16-cdce-4769-ba0d-eb513bbce049"},"vehicle_type_id":"4","last_reported":1738844277,"current_range_meters":19600,"station_id":"ce4bhkp2rcd13ifvqgd0","pricing_plan_id":"cebpf4jnsgd1na2vs0mg"},{"bike_id":"99a02234-2546-4be9-bc8a-d85d06ea25c6","system_id":"levelo_inurba_marseille","lat":43.29718,"lon":5.36617,"is_reserved":false,"is_disabled":false,"rental_uris":{"android":"levelo://app?vid=99a02234-2546-4be9-bc8a-d85d06ea25c6","ios":"levelo://app?vid=99a02234-2546-4be9-bc8a-d85d06ea25c6"},"vehicle_type_id":"4","last_reported":1738844277,"current_range_meters":16000,"station_id":"ce4bgn12rcd13ifvqbt0","pricing_plan_id":"cebpf4jnsgd1na2vs0mg"},{"bike_id":"25573098-4690-4e6f-82a5-b43599622b37","system_id":"levelo_inurba_marseille","lat":43.29628,"lon":5.37169,"is_reserved":false,"is_disabled":false,"rental_uris":{"android":"levelo://app?vid=25573098-4690-4e6f-82a5-b43599622b37","ios":"levelo://app?vid=25573098-4690-4e6f-82a5-b43599622b37"},"vehicle_type_id":"4","last_reported":1738844277,"current_range_meters":39200,"station_id":"ce4bgnh2rcd13ifvqc0g","pricing_plan_id":"cebpf4jnsgd1na2vs0mg"},{"bike_id":"0a1d80a5-8567-473e-862c-e2d2e710157a","system_id":"levelo_inurba_marseille","lat":43.28426,"lon":5.34986,"is_reserved":false,"is_disabled":false,"rental_uris":{"android":"levelo://app?vid=0a1d80a5-8567-473e-862c-e2d2e710157a","ios":"levelo://app?vid=0a1d80a5-8567-473e-862c-e2d2e710157a"},"vehicle_type_id":"4","last_reported":1738844277,"current_range_meters":29600,"station_id":"ce4bhbh2rcd13ifvqepg","pricing_plan_id":"cebpf4jnsgd1na2vs0mg"},{"bike_id":"5aba4bbf-e847-48a2-993c-bd9146ebada4","system_id":"levelo_inurba_marseille","lat":43.27304,"lon":5.39104,"is_reserved":false,"is_disabled":false,"rental_uris":{"android":"levelo://app?vid=5aba4bbf-e847-48a2-993c-bd9146ebada4","ios":"levelo://app?vid=5aba4bbf-e847-48a2-993c-bd9146ebada4"},"vehicle_type_id":"4","last_reported":1738844277,"current_range_meters":36000,"station_id":"ce4bhgp2rcd13ifvqfe0","pricing_plan_id":"cebpf4jnsgd1na2vs0mg"},{"bike_id":"ef15b174-9029-4622-95b2-4e5f874342a6","system_id":"levelo_inurba_marseille","lat":43.24075,"lon":5.37706,"is_reserved":false,"is_disabled":false,"rental_uris":{"android":"levelo://app?vid=ef15b174-9029-4622-95b2-4e5f874342a6","ios":"levelo://app?vid=ef15b174-9029-4622-95b2-4e5f874342a6"},"vehicle_type_id":"4","last_reported":1738844277,"current_range_meters":38800,"station_id":"ce4bhnp2rcd13ifvqgvg","pricing_plan_id":"cebpf4jnsgd1na2vs0mg"},{"bike_id":"efc75f68-c0e7-4c38-a126-0f2ae1afe39d","system_id":"levelo_inurba_marseille","lat":43.27212,"lon":5.40978,"is_reserved":false,"is_disabled":false,"rental_uris":{"android":"levelo://app?vid=efc75f68-c0e7-4c38-a126-0f2ae1afe39d","ios":"levelo://app?vid=efc75f68-c0e7-4c38-a126-0f2ae1afe39d"},"vehicle_type_id":"4","last_reported":1738844277,"current_range_meters":38800,"station_id":"ce4bhl12rcd13ifvqgf0","pricing_plan_id":"cebpf4jnsgd1na2vs0mg"},{"bike_id":"c8867084-73b3-4ef6-939b-90719c3af5d4","system_id":"levelo_inurba_marseille","lat":43.24169,"lon":5.36397,"is_reserved":false,"is_disabled":false,"rental_uris":{"android":"levelo://app?vid=c8867084-73b3-4ef6-939b-90719c3af5d4","ios":"levelo://app?vid=c8867084-73b3-4ef6-939b-90719c3af5d4"},"vehicle_type_id":"4","last_reported":1738844277,"current_range_meters":38800,"station_id":"cpo36qri1sfpv3e86is0","pricing_plan_id":"cebpf4jnsgd1na2vs0mg"},{"bike_id":"0dc28690-d1fc-4c68-886e-a1e203ae5896","system_id":"levelo_inurba_marseille","lat":43.31343,"lon":5.367,"is_reserved":false,"is_disabled":false,"rental_uris":{"android":"levelo://app?vid=0dc28690-d1fc-4c68-886e-a1e203ae5896","ios":"levelo://app?vid=0dc28690-d1fc-4c68-886e-a1e203ae5896"},"vehicle_type_id":"4","last_reported":1738844277,"current_range_meters":38800,"station_id":"ce4bgr92rcd13ifvqc6g","pricing_plan_id":"cebpf4jnsgd1na2vs0mg"},{"bike_id":"aa16a0f0-f75a-444e-a590-729c050ae236","system_id":"levelo_inurba_marseille","lat":43.23189,"lon":5.39977,"is_reserved":false,"is_disabled":false,"rental_uris":{"android":"levelo://app?vid=aa16a0f0-f75a-444e-a590-729c050ae236","ios":"levelo://app?vid=aa16a0f0-f75a-444e-a590-729c050ae236"},"vehicle_type_id":"4","last_reported":1738844277,"current_range_meters":20000,"station_id":"ce4bhn12rcd13ifvqgqg","pricing_plan_id":"cebpf4jnsgd1na2vs0mg"},{"bike_id":"c6a64351-9db3-4bb5-be12-a507bb068d20","system_id":"levelo_inurba_marseille","lat":43.30291,"lon":5.37699,"is_reserved":false,"is_disabled":false,"rental_uris":{"android":"levelo://app?vid=c6a64351-9db3-4bb5-be12-a507bb068d20","ios":"levelo://app?vid=c6a64351-9db3-4bb5-be12-a507bb068d20"},"vehicle_type_id":"4","last_reported":1738844277,"current_range_meters":32400,"station_id":"ce4bguh2rcd13ifvqcj0","pricing_plan_id":"cebpf4jnsgd1na2vs0mg"},{"bike_id":"3aa0747a-6735-4adf-9b91-af44df78d93a","system_id":"levelo_inurba_marseille","lat":43.28949,"lon":5.36398,"is_reserved":false,"is_disabled":false,"rental_uris":{"android":"levelo://app?vid=3aa0747a-6735-4adf-9b91-af44df78d93a","ios":"levelo://app?vid=3aa0747a-6735-4adf-9b91-af44df78d93a"},"vehicle_type_id":"4","last_reported":1738844277,"current_range_meters":18800,"station_id":"ce4bhc92rcd13ifvqetg","pricing_plan_id":"cebpf4jnsgd1na2vs0mg"},{"bike_id":"97e3f16d-c680-499c-b7df-c4ab9d43861c","system_id":"levelo_inurba_marseille","lat":43.2319,"lon":5.39986,"is_reserved":false,"is_disabled":false,"rental_uris":{"android":"levelo://app?vid=97e3f16d-c680-499c-b7df-c4ab9d43861c","ios":"levelo://app?vid=97e3f16d-c680-499c-b7df-c4ab9d43861c"},"vehicle_type_id":"4","last_reported":1738844277,"current_range_meters":18800,"station_id":"ce4bhn12rcd13ifvqgqg","pricing_plan_id":"cebpf4jnsgd1na2vs0mg"},{"bike_id":"1d39db26-f63e-47ca-96af-759972ec17a4","system_id":"levelo_inurba_marseille","lat":43.2738,"lon":5.36246,"is_reserved":false,"is_disabled":false,"rental_uris":{"android":"levelo://app?vid=1d39db26-f63e-47ca-96af-759972ec17a4","ios":"levelo://app?vid=1d39db26-f63e-47ca-96af-759972ec17a4"},"vehicle_type_id":"4","last_reported":1738844277,"current_range_meters":39200,"station_id":"ce4bhbh2rcd13ifvqeo0","pricing_plan_id":"cebpf4jnsgd1na2vs0mg"},{"bike_id":"b5feb98a-aa95-435c-a137-55733d6ba143","system_id":"levelo_inurba_marseille","lat":43.2827,"lon":5.3506,"is_reserved":false,"is_disabled":false,"rental_uris":{"android":"levelo://app?vid=b5feb98a-aa95-435c-a137-55733d6ba143","ios":"levelo://app?vid=b5feb98a-aa95-435c-a137-55733d6ba143"},"vehicle_type_id":"4","last_reported":1738844277,"current_range_meters":27600,"station_id":"ce4bhbp2rcd13ifvqerg","pricing_plan_id":"cebpf4jnsgd1na2vs0mg"},{"bike_id":"57ca15d8-dead-4344-9a71-0856e1cdf78a","system_id":"levelo_inurba_marseille","lat":43.30553,"lon":5.36729,"is_reserved":false,"is_disabled":false,"rental_uris":{"android":"levelo://app?vid=57ca15d8-dead-4344-9a71-0856e1cdf78a","ios":"levelo://app?vid=57ca15d8-dead-4344-9a71-0856e1cdf78a"},"vehicle_type_id":"4","last_reported":1738844277,"current_range_meters":20000,"station_id":"ce4bgrp2rcd13ifvqc9g","pricing_plan_id":"cebpf4jnsgd1na2vs0mg"},{"bike_id":"d3528ceb-2f27-446b-9c32-1180811e75e9","system_id":"levelo_inurba_marseille","lat":43.3047,"lon":5.37914,"is_reserved":false,"is_disabled":false,"rental_uris":{"android":"levelo://app?vid=d3528ceb-2f27-446b-9c32-1180811e75e9","ios":"levelo://app?vid=d3528ceb-2f27-446b-9c32-1180811e75e9"},"vehicle_type_id":"4","last_reported":1738844277,"current_range_meters":29600,"station_id":"ce4bgup2rcd13ifvqcn0","pricing_plan_id":"cebpf4jnsgd1na2vs0mg"},{"bike_id":"acef8862-784a-40f6-b007-43fe063e95f1","system_id":"levelo_inurba_marseille","lat":43.28561,"lon":5.39519,"is_reserved":false,"is_disabled":false,"rental_uris":{"android":"levelo://app?vid=acef8862-784a-40f6-b007-43fe063e95f1","ios":"levelo://app?vid=acef8862-784a-40f6-b007-43fe063e95f1"},"vehicle_type_id":"4","last_reported":1738844277,"current_range_meters":27600,"station_id":"ce4bh292rcd13ifvqdg0","pricing_plan_id":"cebpf4jnsgd1na2vs0mg"},{"bike_id":"e2ef0b36-237d-4ced-997a-acd5cec66d9f","system_id":"levelo_inurba_marseille","lat":43.311708,"lon":5.387142,"is_reserved":false,"is_disabled":false,"rental_uris":{"android":"levelo://app?vid=e2ef0b36-237d-4ced-997a-acd5cec66d9f","ios":"levelo://app?vid=e2ef0b36-237d-4ced-997a-acd5cec66d9f"},"vehicle_type_id":"4","last_reported":1738844277,"current_range_meters":38400,"station_id":"ce4bgv12rcd13ifvqcp0","pricing_plan_id":"cebpf4jnsgd1na2vs0mg"},{"bike_id":"c1a7392a-6352-4155-88f1-a5abd14b178d","system_id":"levelo_inurba_marseille","lat":43.276721,"lon":5.388918,"is_reserved":false,"is_disabled":false,"rental_uris":{"android":"levelo://app?vid=c1a7392a-6352-4155-88f1-a5abd14b178d","ios":"levelo://app?vid=c1a7392a-6352-4155-88f1-a5abd14b178d"},"vehicle_type_id":"4","last_reported":1738844277,"current_range_meters":11600,"station_id":"ce4bhi12rcd13ifvqfo0","pricing_plan_id":"cebpf4jnsgd1na2vs0mg"},{"bike_id":"a9320ca6-29cf-425f-8fb7-e45ebe2da7e8","system_id":"levelo_inurba_marseille","lat":43.29714,"lon":5.37703,"is_reserved":false,"is_disabled":false,"rental_uris":{"android":"levelo://app?vid=a9320ca6-29cf-425f-8fb7-e45ebe2da7e8","ios":"levelo://app?vid=a9320ca6-29cf-425f-8fb7-e45ebe2da7e8"},"vehicle_type_id":"4","last_reported":1738844277,"current_range_meters":24800,"station_id":"ce4bgkh2rcd13ifvqbl0","pricing_plan_id":"cebpf4jnsgd1na2vs0mg"},{"bike_id":"e3c98cdf-d041-4497-aed2-daf7ca6a23de","system_id":"levelo_inurba_marseille","lat":43.27192,"lon":5.39199,"is_reserved":false,"is_disabled":true,"rental_uris":{"android":"levelo://app?vid=e3c98cdf-d041-4497-aed2-daf7ca6a23de","ios":"levelo://app?vid=e3c98cdf-d041-4497-aed2-daf7ca6a23de"},"vehicle_type_id":"4","last_reported":1738844277,"current_range_meters":38800,"station_id":"ce4bhhp2rcd13ifvqfm0","pricing_plan_id":"cebpf4jnsgd1na2vs0mg"},{"bike_id":"d5d9a3e9-b6b9-4496-97c0-0d638a64e82b","system_id":"levelo_inurba_marseille","lat":43.25825,"lon":5.39437,"is_reserved":false,"is_disabled":false,"rental_uris":{"android":"levelo://app?vid=d5d9a3e9-b6b9-4496-97c0-0d638a64e82b","ios":"levelo://app?vid=d5d9a3e9-b6b9-4496-97c0-0d638a64e82b"},"vehicle_type_id":"4","last_reported":1738844277,"current_range_meters":36400,"station_id":"ce4bhip2rcd13ifvqft0","pricing_plan_id":"cebpf4jnsgd1na2vs0mg"},{"bike_id":"e84347d6-b757-47bb-b6b4-f9b15347469e","system_id":"levelo_inurba_marseille","lat":43.30143,"lon":5.38784,"is_reserved":false,"is_disabled":false,"rental_uris":{"android":"levelo://app?vid=e84347d6-b757-47bb-b6b4-f9b15347469e","ios":"levelo://app?vid=e84347d6-b757-47bb-b6b4-f9b15347469e"},"vehicle_type_id":"4","last_reported":1738844277,"current_range_meters":32800,"station_id":"ce4bghh2rcd13ifvqb60","pricing_plan_id":"cebpf4jnsgd1na2vs0mg"},{"bike_id":"8e29c9e1-a150-4da7-8fa7-cf9baa4f8475","system_id":"levelo_inurba_marseille","lat":43.28098,"lon":5.37836,"is_reserved":false,"is_disabled":false,"rental_uris":{"android":"levelo://app?vid=8e29c9e1-a150-4da7-8fa7-cf9baa4f8475","ios":"levelo://app?vid=8e29c9e1-a150-4da7-8fa7-cf9baa4f8475"},"vehicle_type_id":"4","last_reported":1738844277,"current_range_meters":38800,"station_id":"ce4bha12rcd13ifvqee0","pricing_plan_id":"cebpf4jnsgd1na2vs0mg"},{"bike_id":"2bb5b233-2d35-432a-84a1-04d4497101d7","system_id":"levelo_inurba_marseille","lat":43.30358,"lon":5.41881,"is_reserved":false,"is_disabled":false,"rental_uris":{"android":"levelo://app?vid=2bb5b233-2d35-432a-84a1-04d4497101d7","ios":"levelo://app?vid=2bb5b233-2d35-432a-84a1-04d4497101d7"},"vehicle_type_id":"4","last_reported":1738844277,"current_range_meters":19200,"station_id":"ce4bhop2rcd13ifvqh7g","pricing_plan_id":"cebpf4jnsgd1na2vs0mg"},{"bike_id":"eb6107a0-42f3-4f68-ad7b-fcb0117c564f","system_id":"levelo_inurba_marseille","lat":43.30148,"lon":5.38084,"is_reserved":false,"is_disabled":false,"rental_uris":{"android":"levelo://app?vid=eb6107a0-42f3-4f68-ad7b-fcb0117c564f","ios":"levelo://app?vid=eb6107a0-42f3-4f68-ad7b-fcb0117c564f"},"vehicle_type_id":"4","last_reported":1738844277,"current_range_meters":34000,"station_id":"ce4bgjp2rcd13ifvqbh0","pricing_plan_id":"cebpf4jnsgd1na2vs0mg"},{"bike_id":"ec58a886-eddf-413c-9588-048d119536b0","system_id":"levelo_inurba_marseille","lat":43.28014,"lon":5.39993,"is_reserved":false,"is_disabled":true,"rental_uris":{"android":"levelo://app?vid=ec58a886-eddf-413c-9588-048d119536b0","ios":"levelo://app?vid=ec58a886-eddf-413c-9588-048d119536b0"},"vehicle_type_id":"4","last_reported":1738844277,"current_range_meters":8800,"station_id":"ce4bho92rcd13ifvqh4g","pricing_plan_id":"cebpf4jnsgd1na2vs0mg"},{"bike_id":"1a8c15af-d014-482c-aa2e-694167c361ec","system_id":"levelo_inurba_marseille","lat":43.30535,"lon":5.36541,"is_reserved":false,"is_disabled":false,"rental_uris":{"android":"levelo://app?vid=1a8c15af-d014-482c-aa2e-694167c361ec","ios":"levelo://app?vid=1a8c15af-d014-482c-aa2e-694167c361ec"},"vehicle_type_id":"4","last_reported":1738844277,"current_range_meters":33200,"station_id":"ce4bgs12rcd13ifvqcag","pricing_plan_id":"cebpf4jnsgd1na2vs0mg"},{"bike_id":"639211bf-cef8-408a-8e08-e9cdbfd6a254","system_id":"levelo_inurba_marseille","lat":43.29552,"lon":5.42293,"is_reserved":false,"is_disabled":true,"rental_uris":{"android":"levelo://app?vid=639211bf-cef8-408a-8e08-e9cdbfd6a254","ios":"levelo://app?vid=639211bf-cef8-408a-8e08-e9cdbfd6a254"},"vehicle_type_id":"4","last_reported":1738844277,"current_range_meters":0,"station_id":"ce4bhph2rcd13ifvqhdg","pricing_plan_id":"cebpf4jnsgd1na2vs0mg"},{"bike_id":"75e92bb5-7c2d-4846-a2fe-913999ac9d04","system_id":"levelo_inurba_marseille","lat":43.30907,"lon":5.36857,"is_reserved":false,"is_disabled":false,"rental_uris":{"android":"levelo://app?vid=75e92bb5-7c2d-4846-a2fe-913999ac9d04","ios":"levelo://app?vid=75e92bb5-7c2d-4846-a2fe-913999ac9d04"},"vehicle_type_id":"4","last_reported":1738844277,"current_range_meters":35600,"station_id":"ce4bgn92rcd13ifvqbvg","pricing_plan_id":"cebpf4jnsgd1na2vs0mg"},{"bike_id":"8cfbb62d-d410-4066-920b-f8f1a69e859a","system_id":"levelo_inurba_marseille","lat":43.260275,"lon":5.37551,"is_reserved":false,"is_disabled":true,"rental_uris":{"android":"levelo://app?vid=8cfbb62d-d410-4066-920b-f8f1a69e859a","ios":"levelo://app?vid=8cfbb62d-d410-4066-920b-f8f1a69e859a"},"vehicle_type_id":"4","last_reported":1738844277,"current_range_meters":8800,"station_id":"","pricing_plan_id":"cebpf4jnsgd1na2vs0mg"},{"bike_id":"9596cacb-8f48-4b08-8219-0a76cb2ddb16","system_id":"levelo_inurba_marseille","lat":43.25838,"lon":5.3945,"is_reserved":false,"is_disabled":false,"rental_uris":{"android":"levelo://app?vid=9596cacb-8f48-4b08-8219-0a76cb2ddb16","ios":"levelo://app?vid=9596cacb-8f48-4b08-8219-0a76cb2ddb16"},"vehicle_type_id":"4","last_reported":1738844277,"current_range_meters":36400,"station_id":"ce4bhip2rcd13ifvqft0","pricing_plan_id":"cebpf4jnsgd1na2vs0mg"},{"bike_id":"6d541e51-9bb4-44a9-b56e-7869e06e062b","system_id":"levelo_inurba_marseille","lat":43.31315,"lon":5.36716,"is_reserved":false,"is_disabled":false,"rental_uris":{"android":"levelo://app?vid=6d541e51-9bb4-44a9-b56e-7869e06e062b","ios":"levelo://app?vid=6d541e51-9bb4-44a9-b56e-7869e06e062b"},"vehicle_type_id":"4","last_reported":1738844277,"current_range_meters":22000,"station_id":"ce4bgr92rcd13ifvqc6g","pricing_plan_id":"cebpf4jnsgd1na2vs0mg"},