{"last_updated":1729699894,"ttl":60,"version":"2.2","data":{"bikes":[{"bike_id":"1ba4fac4-2099-4987-b572-7bda99a09ac0","system_id":"levelo_inurba_marseille","lat":43.2761,"lon":5.36124,"is_reserved":false,"is_disabled":false,"rental_uris":{"android":"levelo://app?vid=1ba4fac4-2099-4987-b572-7bda99a09ac0","ios":"levelo://app?vid=1ba4fac4-2099-4987-b572-7bda99a09ac0"},"vehicle_type_id":"4","last_reported":1729699894,"current_range_meters":8000,"station_id":"ce4bgj92rcd13ifvqbe0","pricing_plan_id":"cebpf4jnsgd1na2vs0mg"},{"bike_id":"9afe5cbd-81e8-4c2c-8e6c-895ad57da118","system_id":"levelo_inurba_marseille","lat":43.29234,"lon":5.385583,"is_reserved":false,"is_disabled":false,"rental_uris":{"android":"levelo://app?vid=9afe5cbd-81e8-4c2c-8e6c-895ad57da118","ios":"levelo://app?vid=9afe5cbd-81e8-4c2c-8e6c-895ad57da118"},"vehicle_type_id":"4","last_reported":1729699894,"current_range_meters":13600,"station_id":"ce4bh192rcd13ifvqdd0","pricing_plan_id":"cebpf4jnsgd1na2vs0mg"},{"bike_id":"9c841582-1b4a-4f92-b1d8-04977f5b940a","system_id":"levelo_inurba_marseille","lat":43.31325,"lon":5.39702,"is_reserved":false,"is_disabled":false,"rental_uris":{"android":"levelo://app?vid=9c841582-1b4a-4f92-b1d8-04977f5b940a","ios":"levelo://app?vid=9c841582-1b4a-4f92-b1d8-04977f5b940a"},"vehicle_type_id":"4","last_reported":1729699894,"current_range_meters":38400,"station_id":"ce4bgvp2rcd13ifvqcu0","pricing_plan_id":"cebpf4jnsgd1na2vs0mg"},{"bike_id":"94505a83-b206-4db0-aff0-8f5678e8c521","system_id":"levelo_inurba_marseille","lat":43.24074,"lon":5.37755,"is_reserved":false,"is_disabled":false,"rental_uris":{"android":"levelo://app?vid=94505a83-b206-4db0-aff0-8f5678e8c521","ios":"levelo://app?vid=94505a83-b206-4db0-aff0-8f5678e8c521"},"vehicle_type_id":"4","last_reported":1729699894,"current_range_meters":16400,"station_id":"ce4bhnp2rcd13ifvqgvg","pricing_plan_id":"cebpf4jnsgd1na2vs0mg"},{"bike_id":"d10bb37f-1997-42c8-822f-808c460f80fd","system_id":"levelo_inurba_marseille","lat":43.25501,"lon":5.37652,"is_reserved":false,"is_disabled":false,"rental_uris":{"android":"levelo://app?vid=d10bb37f-1997-42c8-822f-808c460f80fd","ios":"levelo://app?vid=d10bb37f-1997-42c8-822f-808c460f80fd"},"vehicle_type_id":"4","last_reported":1729699894,"current_range_meters":15200,"station_id":"ce4bhh12rcd13ifvqff0","pricing_plan_id":"cebpf4jnsgd1na2vs0mg"},{"bike_id":"f81155be-6787-44a1-8bcf-c4b273b7314e","system_id":"levelo_inurba_marseille","lat":43.24072,"lon":5.37765,"is_reserved":false,"is_disabled":false,"rental_uris":{"android":"levelo://app?vid=f81155be-6787-44a1-8bcf-c4b273b7314e","ios":"levelo://app?vid=f81155be-6787-44a1-8bcf-c4b273b7314e"},"vehicle_type_id":"4","last_reported":1729699894,"current_range_meters":38000,"station_id":"ce4bhnp2rcd13ifvqgvg","pricing_plan_id":"cebpf4jnsgd1na2vs0mg"},{"bike_id":"07d28060-1afc-4c0d-9e70-96960798f893","system_id":"levelo_inurba_marseille","lat":43.30328,"lon":5.40358,"is_reserved":false,"is_disabled":false,"rental_uris":{"android":"levelo://app?vid=07d28060-1afc-4c0d-9e70-96960798f893","ios":"levelo://app?vid=07d28060-1afc-4c0d-9e70-96960798f893"},"vehicle_type_id":"4","last_reported":1729699894,"current_range_meters":9200,"station_id":"","pricing_plan_id":"cebpf4jnsgd1na2vs0mg"},{"bike_id":"da2545c0-1aa1-4252-83b4-6c3657ee2a36","system_id":"levelo_inurba_marseille","lat":43.29552,"lon":5.42286,"is_reserved":false,"is_disabled":false,"rental_uris":{"android":"levelo://app?vid=da2545c0-1aa1-4252-83b4-6c3657ee2a36","ios":"levelo://app?vid=da2545c0-1aa1-4252-83b4-6c3657ee2a36"},"vehicle_type_id":"4","last_reported":1729699894,"current_range_meters":27200,"station_id":"ce4bhph2rcd13ifvqhdg","pricing_plan_id":"cebpf4jnsgd1na2vs0mg"},{"bike_id":"878cd3bf-3a83-492a-b7c1-f0733854d6fe","system_id":"levelo_inurba_marseille","lat":43.31071,"lon":5.38344,"is_reserved":false,"is_disabled":false,"rental_uris":{"android":"levelo://app?vid=878cd3bf-3a83-492a-b7c1-f0733854d6fe","ios":"levelo://app?vid=878cd3bf-3a83-492a-b7c1-f0733854d6fe"},"vehicle_type_id":"4","last_reported":1729699894,"current_range_meters":38800,"station_id":"ce4bgv92rcd13ifvqcr0","pricing_plan_id":"cebpf4jnsgd1na2vs0mg"},{"bike_id":"72d66fb8-f7a7-4fe3-a522-bd2bf6abb98f","system_id":"levelo_inurba_marseille","lat":43.29862,"lon":5.39758,"is_reserved":false,"is_disabled":false,"rental_uris":{"android":"levelo://app?vid=72d66fb8-f7a7-4fe3-a522-bd2bf6abb98f","ios":"levelo://app?vid=72d66fb8-f7a7-4fe3-a522-bd2bf6abb98f"},"vehicle_type_id":"4","last_reported":1729699894,"current_range_meters":39200,"station_id":"ce4bh0h2rcd13ifvqd50","pricing_plan_id":"cebpf4jnsgd1na2vs0mg"},{"bike_id":"59cd0b37-8de2-4e0f-831d-89c994dffae5","system_id":"levelo_inurba_marseille","lat":43.28662,"lon":5.36358,"is_reserved":false,"is_disabled":false,"rental_uris":{"android":"levelo://app?vid=59cd0b37-8de2-4e0f-831d-89c994dffae5","ios":"levelo://app?vid=59cd0b37-8de2-4e0f-831d-89c994dffae5"},"vehicle_type_id":"4","last_reported":1729699894,"current_range_meters":2800,"station_id":"ce4bhah2rcd13ifvqej0","pricing_plan_id":"cebpf4jnsgd1na2vs0mg"},{"bike_id":"9ab5f6d3-1255-4b1f-a9a0-29d8049ab685","system_id":"levelo_inurba_marseille","lat":43.2408,"lon":5.3776,"is_reserved":false,"is_disabled":false,"rental_uris":{"android":"levelo://app?vid=9ab5f6d3-1255-4b1f-a9a0-29d8049ab685","ios":"levelo://app?vid=9ab5f6d3-1255-4b1f-a9a0-29d8049ab685"},"vehicle_type_id":"4","last_reported":1729699894,"current_range_meters":35600,"station_id":"ce4bhnp2rcd13ifvqgvg","pricing_plan_id":"cebpf4jnsgd1na2vs0mg"},{"bike_id":"bc5570b0-116e-480f-9df3-7a8dff091c99","system_id":"levelo_inurba_marseille","lat":43.24072,"lon":5.37759,"is_reserved":false,"is_disabled":false,"rental_uris":{"android":"levelo://app?vid=bc5570b0-116e-480f-9df3-7a8dff091c99","ios":"levelo://app?vid=bc5570b0-116e-480f-9df3-7a8dff091c99"},"vehicle_type_id":"4","last_reported":1729699894,"current_range_meters":38800,"station_id":"ce4bhnp2rcd13ifvqgvg","pricing_plan_id":"cebpf4jnsgd1na2vs0mg"},{"bike_id":"cbc7a0be-87b8-4979-b7f4-20c75ec670af","system_id":"levelo_inurba_marseille","lat":43.29267,"lon":5.3844,"is_reserved":false,"is_disabled":false,"rental_uris":{"android":"levelo://app?vid=cbc7a0be-87b8-4979-b7f4-20c75ec670af","ios":"levelo://app?vid=cbc7a0be-87b8-4979-b7f4-20c75ec670af"},"vehicle_type_id":"4","last_reported":1729699894,"current_range_meters":24000,"station_id":"ce4bh692rcd13ifvqea0","pricing_plan_id":"cebpf4jnsgd1na2vs0mg"},{"bike_id":"fbc36042-bbf4-4e74-8e05-f9ab35a79860","system_id":"levelo_inurba_marseille","lat":43.29981,"lon":5.38482,"is_reserved":false,"is_disabled":false,"rental_uris":{"android":"levelo://app?vid=fbc36042-bbf4-4e74-8e05-f9ab35a79860","ios":"levelo://app?vid=fbc36042-bbf4-4e74-8e05-f9ab35a79860"},"vehicle_type_id":"4","last_reported":1729699894,"current_range_meters":25600,"station_id":"ce4bgj92rcd13ifvqbd0","pricing_plan_id":"cebpf4jnsgd1na2vs0mg"},{"bike_id":"b920e593-ddf9-4872-b9ab-07f7a7e3cc8c","system_id":"levelo_inurba_marseille","lat":43.27173,"lon":5.40994,"is_reserved":false,"is_disabled":false,"rental_uris":{"android":"levelo://app?vid=b920e593-ddf9-4872-b9ab-07f7a7e3cc8c","ios":"levelo://app?vid=b920e593-ddf9-4872-b9ab-07f7a7e3cc8c"},"vehicle_type_id":"4","last_reported":1729699894,"current_range_meters":18800,"station_id":"ce4bhl12rcd13ifvqgf0","pricing_plan_id":"cebpf4jnsgd1na2vs0mg"},{"bike_id":"3720f457-fa6e-4143-b138-192618817dc2","system_id":"levelo_inurba_marseille","lat":43.30543,"lon":5.38423,"is_reserved":false,"is_disabled":false,"rental_uris":{"android":"levelo://app?vid=3720f457-fa6e-4143-b138-192618817dc2","ios":"levelo://app?vid=3720f457-fa6e-4143-b138-192618817dc2"},"vehicle_type_id":"4","last_reported":1729699894,"current_range_meters":21600,"station_id":"ce4bgg92rcd13ifvqb30","pricing_plan_id":"cebpf4jnsgd1na2vs0mg"},{"bike_id":"5c449356-4ac4-4d08-a405-c433fbe21a80","system_id":"levelo_inurba_marseille","lat":43.33737,"lon":5.37458,"is_reserved":false,"is_disabled":false,"rental_uris":{"android":"levelo://app?vid=5c449356-4ac4-4d08-a405-c433fbe21a80","ios":"levelo://app?vid=5c449356-4ac4-4d08-a405-c433fbe21a80"},"vehicle_type_id":"4","last_reported":1729699894,"current_range_meters":28800,"station_id":"","pricing_plan_id":"cebpf4jnsgd1na2vs0mg"},{"bike_id":"afb96cc9-4a51-4f88-8b44-3abfa9732ff7","system_id":"levelo_inurba_marseille","lat":43.30142,"lon":5.3809,"is_reserved":false,"is_disabled":false,"rental_uris":{"android":"levelo://app?vid=afb96cc9-4a51-4f88-8b44-3abfa9732ff7","ios":"levelo://app?vid=afb96cc9-4a51-4f88-8b44-3abfa9732ff7"},"vehicle_type_id":"4","last_reported":1729699894,"current_range_meters":28400,"station_id":"ce4bgjp2rcd13ifvqbh0","pricing_plan_id":"cebpf4jnsgd1na2vs0mg"},{"bike_id":"e110e46b-1147-414f-9d9c-ecc14c8ff966","system_id":"levelo_inurba_marseille","lat":43.31712,"lon":5.4371,"is_reserved":false,"is_disabled":false,"rental_uris":{"android":"levelo://app?vid=e110e46b-1147-414f-9d9c-ecc14c8ff966","ios":"levelo://app?vid=e110e46b-1147-414f-9d9c-ecc14c8ff966"},"vehicle_type_id":"4","last_reported":1729699894,"current_range_meters":38000,"station_id":"ce4bhp92rcd13ifvqhcg","pricing_plan_id":"cebpf4jnsgd1na2vs0mg"},{"bike_id":"bed13fa6-6988-4f0c-ae07-230992a7d985","system_id":"levelo_inurba_marseille","lat":43.230408,"lon":5.354758,"is_reserved":false,"is_disabled":false,"rental_uris":{"android":"levelo://app?vid=bed13fa6-6988-4f0c-ae07-230992a7d985","ios":"levelo://app?vid=bed13fa6-6988-4f0c-ae07-230992a7d985"},"vehicle_type_id":"4","last_reported":1729699894,"current_range_meters":38800,"station_id":"cpo3342slgdg3j2ifvpg","pricing_plan_id":"cebpf4jnsgd1na2vs0mg"},{"bike_id":"91cea01b-96f5-4efc-b47f-beda906c9ea5","system_id":"levelo_inurba_marseille","lat":43.258972,"lon":5.398792,"is_reserved":false,"is_disabled":false,"rental_uris":{"android":"levelo://app?vid=91cea01b-96f5-4efc-b47f-beda906c9ea5","ios":"levelo://app?vid=91cea01b-96f5-4efc-b47f-beda906c9ea5"},"vehicle_type_id":"4","last_reported":1729699894,"current_range_meters":11200,"station_id":"ce4bhl92rcd13ifvqghg","pricing_plan_id":"cebpf4jnsgd1na2vs0mg"},{"bike_id":"388ba884-8c27-452b-b1da-1d442926c1ce","system_id":"levelo_inurba_marseille","lat":43.29871,"lon":5.39728,"is_reserved":false,"is_disabled":false,"rental_uris":{"android":"levelo://app?vid=388ba884-8c27-452b-b1da-1d442926c1ce","ios":"levelo://app?vid=388ba884-8c27-452b-b1da-1d442926c1ce"},"vehicle_type_id":"4","last_reported":1729699894,"current_range_meters":24800,"station_id":"ce4bh0h2rcd13ifvqd50","pricing_plan_id":"cebpf4jnsgd1na2vs0mg"},{"bike_id":"c769be1b-4262-45e1-ae17-91133a0a1d6c","system_id":"levelo_inurba_marseille","lat":43.3053,"lon":5.36659,"is_reserved":false,"is_disabled":false,"rental_uris":{"android":"levelo://app?vid=c769be1b-4262-45e1-ae17-91133a0a1d6c","ios":"levelo://app?vid=c769be1b-4262-45e1-ae17-91133a0a1d6c"},"vehicle_type_id":"4","last_reported":1729699894,"current_range_meters":11200,"station_id":"","pricing_plan_id":"cebpf4jnsgd1na2vs0mg"},{"bike_id":"4882a116-5452-4f97-bdbd-13df4cccb9d6","system_id":"levelo_inurba_marseille","lat":43.30591,"lon":5.37248,"is_reserved":false,"is_disabled":false,"rental_uris":{"android":"levelo://app?vid=4882a116-5452-4f97-bdbd-13df4cccb9d6","ios":"levelo://app?vid=4882a116-5452-4f97-bdbd-13df4cccb9d6"},"vehicle_type_id":"4","last_reported":1729699894,"current_range_meters":28800,"station_id":"ce4bgqh2rcd13ifvqc4g","pricing_plan_id":"cebpf4jnsgd1na2vs0mg"},{"bike_id":"18ce83fc-5c2b-496f-b362-d31a4ee54cbf","system_id":"levelo_inurba_marseille","lat":43.29791,"lon":5.39343,"is_reserved":false,"is_disabled":false,"rental_uris":{"android":"levelo://app?vid=18ce83fc-5c2b-496f-b362-d31a4ee54cbf","ios":"levelo://app?vid=18ce83fc-5c2b-496f-b362-d31a4ee54cbf"},"vehicle_type_id":"4","last_reported":1729699894,"current_range_meters":38800,"station_id":"chh1huq6cuj3fo74tm60","pricing_plan_id":"cebpf4jnsgd1na2vs0mg"},{"bike_id":"e50fdab3-2bc6-4ee5-a551-16af03d637a2","system_id":"levelo_inurba_marseille","lat":43.25115,"lon":5.40322,"is_reserved":false,"is_disabled":false,"rental_uris":{"android":"levelo://app?vid=e50fdab3-2bc6-4ee5-a551-16af03d637a2","ios":"levelo://app?vid=e50fdab3-2bc6-4ee5-a551-16af03d637a2"},"vehicle_type_id":"4","last_reported":1729699894,"current_range_meters":37600,"station_id":"ce4bhlh2rcd13ifvqgig","pricing_plan_id":"cebpf4jnsgd1na2vs0mg"},{"bike_id":"5d83a2ee-a8e8-48c5-b0c5-9cddf703c427","system_id":"levelo_inurba_marseille","lat":43.30544,"lon":5.3654,"is_reserved":false,"is_disabled":false,"rental_uris":{"android":"levelo://app?vid=5d83a2ee-a8e8-48c5-b0c5-9cddf703c427","ios":"levelo://app?vid=5d83a2ee-a8e8-48c5-b0c5-9cddf703c427"},"vehicle_type_id":"4","last_reported":1729699894,"current_range_meters":37600,"station_id":"ce4bgs12rcd13ifvqcag","pricing_plan_id":"cebpf4jnsgd1na2vs0mg"},{"bike_id":"bd44871b-7381-4577-8c63-5cacbd813afe","system_id":"levelo_inurba_marseille","lat":43.29196,"lon":5.35795,"is_reserved":false,"is_disabled":false,"rental_uris":{"android":"levelo://app?vid=bd44871b-7381-4577-8c63-5cacbd813afe","ios":"levelo://app?vid=bd44871b-7381-4577-8c63-5cacbd813afe"},"vehicle_type_id":"4","last_reported":1729699894,"current_range_meters":12000,"station_id":"ce4bhb12rcd13ifvqel0","pricing_plan_id":"cebpf4jnsgd1na2vs0mg"},{"bike_id":"05456401-28f8-49fe-b5f2-d739c72e7c72","system_id":"levelo_inurba_marseille","lat":43.28672,"lon":5.36355,"is_reserved":false,"is_disabled":false,"rental_uris":{"android":"levelo://app?vid=05456401-28f8-49fe-b5f2-d739c72e7c72","ios":"levelo://app?vid=05456401-28f8-49fe-b5f2-d739c72e7c72"},"vehicle_type_id":"4","last_reported":1729699894,"current_range_meters":6000,"station_id":"ce4bhah2rcd13ifvqej0","pricing_plan_id":"cebpf4jnsgd1na2vs0mg"},{"bike_id":"ff2082e7-99a7-41c7-9ff1-0d6516d9b8f7","system_id":"levelo_inurba_marseille","lat":43.25582,"lon":5.38238,"is_reserved":false,"is_disabled":false,"rental_uris":{"android":"levelo://app?vid=ff2082e7-99a7-41c7-9ff1-0d6516d9b8f7","ios":"levelo://app?vid=ff2082e7-99a7-41c7-9ff1-0d6516d9b8f7"},"vehicle_type_id":"4","last_reported":1729699894,"current_range_meters":27600,"station_id":"ce4bhih2rcd13ifvqfs0","pricing_plan_id":"cebpf4jnsgd1na2vs0mg"},{"bike_id":"b980240f-ea6e-4478-8df7-814443fb7646","system_id":"levelo_inurba_marseille","lat":43.28698,"lon":5.39986,"is_reserved":false,"is_disabled":false,"rental_uris":{"android":"levelo://app?vid=b980240f-ea6e-4478-8df7-814443fb7646","ios":"levelo://app?vid=b980240f-ea6e-4478-8df7-814443fb7646"},"vehicle_type_id":"4","last_reported":1729699894,"current_range_meters":36800,"station_id":"ce4bho92rcd13ifvqh3g","pricing_plan_id":"cebpf4jnsgd1na2vs0mg"},{"bike_id":"ccf6fef4-f752-4fab-85e0-54b62ec7f0bb","system_id":"levelo_inurba_marseille","lat":43.32504,"lon":5.36596,"is_reserved":false,"is_disabled":false,"rental_uris":{"android":"levelo://app?vid=ccf6fef4-f752-4fab-85e0-54b62ec7f0bb","ios":"levelo://app?vid=ccf6fef4-f752-4fab-85e0-54b62ec7f0bb"},"vehicle_type_id":"4","last_reported":1729699894,"current_range_meters":24000,"station_id":"ce4bhs12rcd13ifvqhvg","pricing_plan_id":"cebpf4jnsgd1na2vs0mg"},{"bike_id":"1ac86525-af1a-4b1e-b545-ac083fdea7ae","system_id":"levelo_inurba_marseille","lat":43.29006,"lon":5.35613,"is_reserved":false,"is_disabled":false,"rental_uris":{"android":"levelo://app?vid=1ac86525-af1a-4b1e-b545-ac083fdea7ae","ios":"levelo://app?vid=1ac86525-af1a-4b1e-b545-ac083fdea7ae"},"vehicle_type_id":"4","last_reported":1729699894,"current_range_meters":38800,"station_id":"ce4bhb92rcd13ifvqen0","pricing_plan_id":"cebpf4jnsgd1na2vs0mg"},{"bike_id":"92db86b2-c324-4bda-a984-f7bc024a59af","system_id":"levelo_inurba_marseille","lat":43.27902,"lon":5.38015,"is_reserved":false,"is_disabled":false,"rental_uris":{"android":"levelo://app?vid=92db86b2-c324-4bda-a984-f7bc024a59af","ios":"levelo://app?vid=92db86b2-c324-4bda-a984-f7bc024a59af"},"vehicle_type_id":"4","last_reported":1729699894,"current_range_meters":36400,"station_id":"ce4bhf92rcd13ifvqf50","pricing_plan_id":"cebpf4jnsgd1na2vs0mg"},{"bike_id":"0b144a21-bc1d-440f-8437-0794928899e6","system_id":"levelo_inurba_marseille","lat":43.33023,"lon":5.3904,"is_reserved":false,"is_disabled":false,"rental_uris":{"android":"levelo://app?vid=0b144a21-bc1d-440f-8437-0794928899e6","ios":"levelo://app?vid=0b144a21-bc1d-440f-8437-0794928899e6"},"vehicle_type_id":"4","last_reported":1729699894,"current_range_meters":38800,"station_id":"ce4bhr92rcd13ifvqhrg","pricing_plan_id":"cebpf4jnsgd1na2vs0mg"},{"bike_id":"16cba1ac-76ba-43e7-9275-96b07452a46b","system_id":"levelo_inurba_marseille","lat":43.279053,"lon":5.382946,"is_reserved":false,"is_disabled":false,"rental_uris":{"android":"levelo://app?vid=16cba1ac-76ba-43e7-9275-96b07452a46b","ios":"levelo://app?vid=16cba1ac-76ba-43e7-9275-96b07452a46b"},"vehicle_type_id":"4","last_reported":1729699894,"current_range_meters":18000,"station_id":"ce4bhap2rcd13ifvqek0","pricing_plan_id":"cebpf4jnsgd1na2vs0mg"},{"bike_id":"1b22b684-78cd-4f60-bee2-e3bf8f67a5d8","system_id":"levelo_inurba_marseille","lat":43.28694,"lon":5.37398,"is_reserved":false,"is_disabled":false,"rental_uris":{"android":"levelo://app?vid=1b22b684-78cd-4f60-bee2-e3bf8f67a5d8","ios":"levelo://app?vid=1b22b684-78cd-4f60-bee2-e3bf8f67a5d8"},"vehicle_type_id":"4","last_reported":1729699894,"current_range_meters":33600,"station_id":"ce4bh3p2rcd13ifvqdq0","pricing_plan_id":"cebpf4jnsgd1na2vs0mg"},{"bike_id":"6ec17c3e-cfaa-48de-919a-0b072f1a8e23","system_id":"levelo_inurba_marseille","lat":43.29915,"lon":5.38152,"is_reserved":false,"is_disabled":false,"rental_uris":{"android":"levelo://app?vid=6ec17c3e-cfaa-48de-919a-0b072f1a8e23","ios":"levelo://app?vid=6ec17c3e-cfaa-48de-919a-0b072f1a8e23"},"vehicle_type_id":"4","last_reported":1729699894,"current_range_meters":19600,"station_id":"ce4bgj12rcd13ifvqbc0","pricing_plan_id":"cebpf4jnsgd1na2vs0mg"},{"bike_id":"04514445-4fe5-4c40-9195-db6f8f153d56","system_id":"levelo_inurba_marseille","lat":43.27491,"lon":5.42454,"is_reserved":false,"is_disabled":false,"rental_uris":{"android":"levelo://app?vid=04514445-4fe5-4c40-9195-db6f8f153d56","ios":"levelo://app?vid=04514445-4fe5-4c40-9195-db6f8f153d56"},"vehicle_type_id":"4","last_reported":1729699894,"current_range_meters":36400,"station_id":"ce4bhn92rcd13ifvqgrg","pricing_plan_id":"cebpf4jnsgd1na2vs0mg"},{"bike_id":"3e41417e-0b0c-4908-8670-c6d49ee292be","system_id":"levelo_inurba_marseille","lat":43.33763,"lon":5.37437,"is_reserved":false,"is_disabled":false,"rental_uris":{"android":"levelo://app?vid=3e41417e-0b0c-4908-8670-c6d49ee292be","ios":"levelo://app?vid=3e41417e-0b0c-4908-8670-c6d49ee292be"},"vehicle_type_id":"4","last_reported":1729699894,"current_range_meters":35200,"station_id":"","pricing_plan_id":"cebpf4jnsgd1na2vs0mg"},{"bike_id":"8a1443da-9850-4977-a59b-6e28dd567733","system_id":"levelo_inurba_marseille","lat":43.29025,"lon":5.38647,"is_reserved":false,"is_disabled":false,"rental_uris":{"android":"levelo://app?vid=8a1443da-9850-4977-a59b-6e28dd567733","ios":"levelo://app?vid=8a1443da-9850-4977-a59b-6e28dd567733"},"vehicle_type_id":"4","last_reported":1729699894,"current_range_meters":30400,"station_id":"ce4bh4p2rcd13ifvqe0g","pricing_plan_id":"cebpf4jnsgd1na2vs0mg"},{"bike_id":"e4880f91-a768-4cba-9014-896bec67b661","system_id":"levelo_inurba_marseille","lat":43.28255,"lon":5.35083,"is_reserved":false,"is_disabled":false,"rental_uris":{"android":"levelo://app?vid=e4880f91-a768-4cba-9014-896bec67b661","ios":"levelo://app?vid=e4880f91-a768-4cba-9014-896bec67b661"},"vehicle_type_id":"4","last_reported":1729699894,"current_range_meters":30800,"station_id":"ce4bhbp2rcd13ifvqerg","pricing_plan_id":"cebpf4jnsgd1na2vs0mg"},{"bike_id":"5163a10a-ab0d-4290-a728-048330f69281","system_id":"levelo_inurba_marseille","lat":43.31325,"lon":5.39693,"is_reserved":false,"is_disabled":false,"rental_uris":{"android":"levelo://app?vid=5163a10a-ab0d-4290-a728-048330f69281","ios":"levelo://app?vid=5163a10a-ab0d-4290-a728-048330f69281"},"vehicle_type_id":"4","last_reported":1729699894,"current_range_meters":35600,"station_id":"ce4bgvp2rcd13ifvqcu0","pricing_plan_id":"cebpf4jnsgd1na2vs0mg"},{"bike_id":"f8ec34b2-07bb-4132-bb5d-24fd28e532bd","system_id":"levelo_inurba_marseille","lat":43.29593,"lon":5.38102,"is_reserved":false,"is_disabled":false,"rental_uris":{"android":"levelo://app?vid=f8ec34b2-07bb-4132-bb5d-24fd28e532bd","ios":"levelo://app?vid=f8ec34b2-07bb-4132-bb5d-24fd28e532bd"},"vehicle_type_id":"4","last_reported":1729699894,"current_range_meters":12800,"station_id":"ce4bgl12rcd13ifvqbo0","pricing_plan_id":"cebpf4jnsgd1na2vs0mg"},{"bike_id":"69fe22c2-b552-4ae3-8a09-b6cd0fb1ee2b","system_id":"levelo_inurba_marseille","lat":43.23963,"lon":5.36637,"is_reserved":false,"is_disabled":false,"rental_uris":{"android":"levelo://app?vid=69fe22c2-b552-4ae3-8a09-b6cd0fb1ee2b","ios":"levelo://app?vid=69fe22c2-b552-4ae3-8a09-b6cd0fb1ee2b"},"vehicle_type_id":"4","last_reported":1729699894,"current_range_meters":2800,"station_id":"ce4bhi12rcd13ifvqfp0","pricing_plan_id":"cebpf4jnsgd1na2vs0mg"},{"bike_id":"e4c01e63-57c9-42fd-abc8-1eaf29405462","system_id":"levelo_inurba_marseille","lat":43.28705,"lon":5.37388,"is_reserved":false,"is_disabled":false,"rental_uris":{"android":"levelo://app?vid=e4c01e63-57c9-42fd-abc8-1eaf29405462","ios":"levelo://app?vid=e4c01e63-57c9-42fd-abc8-1eaf29405462"},"vehicle_type_id":"4","last_reported":1729699894,"current_range_meters":36000,"station_id":"ce4bh3p2rcd13ifvqdq0","pricing_plan_id":"cebpf4jnsgd1na2vs0mg"},{"bike_id":"70542317-4574-41f8-b7c1-ea1f08a4ad41","system_id":"levelo_inurba_marseille","lat":43.31469,"lon":5.40387,"is_reserved":false,"is_disabled":false,"rental_uris":{"android":"levelo://app?vid=70542317-4574-41f8-b7c1-ea1f08a4ad41","ios":"levelo://app?vid=70542317-4574-41f8-b7c1-ea1f08a4ad41"},"vehicle_type_id":"4","last_reported":1729699894,"current_range_meters":26800,"station_id":"","pricing_plan_id":"cebpf4jnsgd1na2vs0mg"},{"bike_id":"39efde93-906e-430d-8ba5-6a589f0c23c6","system_id":"levelo_inurba_marseille","lat":43.33095,"lon":5.43148,"is_reserved":false,"is_disabled":false,"rental_uris":{"android":"levelo://app?vid=39efde93-906e-430d-8ba5-6a589f0c23c6","ios":"levelo://app?vid=39efde93-906e-430d-8ba5-6a589f0c23c6"},"vehicle_type_id":"4","last_reported":1729699894,"current_range_meters":36000,"station_id":"","pricing_plan_id":"cebpf4jnsgd1na2vs0mg"},{"bike_id":"fb8e7adb-fa74-413f-9559-c01058ba7d89","system_id":"levelo_inurba_marseille","lat":43.309937,"lon":5.400689,"is_reserved":false,"is_disabled":false,"rental_uris":{"android":"levelo://app?vid=fb8e7adb-fa74-413f-9559-c01058ba7d89","ios":"levelo://app?vid=fb8e7adb-fa74-413f-9559-c01058ba7d89"},"vehicle_type_id":"4","last_reported":1729699894,"current_range_meters":21600,"station_id":"ce4bgvp2rcd13ifvqct0","pricing_plan_id":"cebpf4jnsgd1na2vs0mg"},{"bike_id":"41aa587f-47e7-4734-a2b9-346b6c434a69","system_id":"levelo_inurba_marseille","lat":43.321106,"lon":5.367757,"is_reserved":false,"is_disabled":false,"rental_uris":{"android":"levelo://app?vid=41aa587f-47e7-4734-a2b9-346b6c434a69","ios":"levelo://app?vid=41aa587f-47e7-4734-a2b9-346b6c434a69"},"vehicle_type_id":"4","last_reported":1729699894,"current_range_meters":12000,"station_id":"ce4bhrh2rcd13ifvqhug","pricing_plan_id":"cebpf4jnsgd1na2vs0mg"},{"bike_id":"0dc91a59-74a5-4986-b39a-fc32e73c69db","system_id":"levelo_inurba_marseille","lat":43.318835,"lon":5.407445,"is_reserved":false,"is_disabled":false,"rental_uris":{"android":"levelo://app?vid=0dc91a59-74a5-4986-b39a-fc32e73c69db","ios":"levelo://app?vid=0dc91a59-74a5-4986-b39a-fc32e73c69db"},"vehicle_type_id":"4","last_reported":1729699894,"current_range_meters":31200,"station_id":"ce4bhq12rcd13ifvqhig","pricing_plan_id":"cebpf4jnsgd1na2vs0mg"},{"bike_id":"be9773f2-0210-449f-bdb9-515efac7263f","system_id":"levelo_inurba_marseille","lat":43.31326,"lon":5.39695,"is_reserved":false,"is_disabled":false,"rental_uris":{"android":"levelo://app?vid=be9773f2-0210-449f-bdb9-515efac7263f","ios":"levelo://app?vid=be9773f2-0210-449f-bdb9-515efac7263f"},"vehicle_type_id":"4","last_reported":1729699894,"current_range_meters":38800,"station_id":"ce4bgvp2rcd13ifvqcu0","pricing_plan_id":"cebpf4jnsgd1na2vs0mg"},{"bike_id":"60dfaf8f-dbcf-4549-b9f7-2eca46646229","system_id":"levelo_inurba_marseille","lat":43.28405,"lon":5.37517,"is_reserved":false,"is_disabled":false,"rental_uris":{"android":"levelo://app?vid=60dfaf8f-dbcf-4549-b9f7-2eca46646229","ios":"levelo://app?vid=60dfaf8f-dbcf-4549-b9f7-2eca46646229"},"vehicle_type_id":"4","last_reported":1729699894,"current_range_meters":19200,"station_id":"ce4bh412rcd13ifvqds0","pricing_plan_id":"cebpf4jnsgd1na2vs0mg"},{"bike_id":"df48e9be-3ddf-4ff2-934f-bbd84a0b109a","system_id":"levelo_inurba_marseille","lat":43.32542,"lon":5.41447,"is_reserved":false,"is_disabled":false,"rental_uris":{"android":"levelo://app?vid=df48e9be-3ddf-4ff2-934f-bbd84a0b109a","ios":"levelo://app?vid=df48e9be-3ddf-4ff2-934f-bbd84a0b109a"},"vehicle_type_id":"4","last_reported":1729699894,"current_range_meters":26000,"station_id":"ce4bhq12rcd13ifvqhhg","pricing_plan_id":"cebpf4jnsgd1na2vs0mg"},{"bike_id":"9639bebd-201e-4b55-9187-2633b106e19c","system_id":"levelo_inurba_marseille","lat":43.3302,"lon":5.39034,"is_reserved":false,"is_disabled":false,"rental_uris":{"android":"levelo://app?vid=9639bebd-201e-4b55-9187-2633b106e19c","ios":"levelo://app?vid=9639bebd-201e-4b55-9187-2633b106e19c"},"vehicle_type_id":"4","last_reported":1729699894,"current_range_meters":38800,"station_id":"ce4bhr92rcd13ifvqhrg","pricing_plan_id":"cebpf4jnsgd1na2vs0mg"},{"bike_id":"7426e95e-a84d-4ed6-b0af-16ffbd89be33","system_id":"levelo_inurba_marseille","lat":43.2808,"lon":5.3966,"is_reserved":false,"is_disabled":false,"rental_uris":{"android":"levelo://app?vid=7426e95e-a84d-4ed6-b0af-16ffbd89be33","ios":"levelo://app?vid=7426e95e-a84d-4ed6-b0af-16ffbd89be33"},"vehicle_type_id":"4","last_reported":1729699894,"current_range_meters":20000,"station_id":"ce4bho12rcd13ifvqh2g","pricing_plan_id":"cebpf4jnsgd1na2vs0mg"},{"bike_id":"18838cb4-8403-47c3-a296-5ce5399c6ba1","system_id":"levelo_inurba_marseille","lat":43.28614,"lon":5.37057,"is_reserved":false,"is_disabled":false,"rental_uris":{"android":"levelo://app?vid=18838cb4-8403-47c3-a296-5ce5399c6ba1","ios":"levelo://app?vid=18838cb4-8403-47c3-a296-5ce5399c6ba1"},"vehicle_type_id":"4","last_reported":1729699894,"current_range_meters":16000,"station_id":"ce4bht12rcd13ifvqi60","pricing_plan_id":"cebpf4jnsgd1na2vs0mg"},{"bike_id":"ae2ce2d4-fc19-4d51-989f-983c86c83842","system_id":"levelo_inurba_marseille","lat":43.3302,"lon":5.39041,"is_reserved":false,"is_disabled":false,"rental_uris":{"android":"levelo://app?vid=ae2ce2d4-fc19-4d51-989f-983c86c83842","ios":"levelo://app?vid=ae2ce2d4-fc19-4d51-989f-983c86c83842"},"vehicle_type_id":"4","last_reported":1729699894,"current_range_meters":38800,"station_id":"ce4bhr92rcd13ifvqhrg","pricing_plan_id":"cebpf4jnsgd1na2vs0mg"},{"bike_id":"26544c47-13ba-40a0-affa-6c9daa374698","system_id":"levelo_inurba_marseille","lat":43.3146,"lon":5.37381,"is_reserved":false,"is_disabled":false,"rental_uris":{"android":"levelo://app?vid=26544c47-13ba-40a0-affa-6c9daa374698","ios":"levelo://app?vid=26544c47-13ba-40a0-affa-6c9daa374698"},"vehicle_type_id":"4","last_reported":1729699894,"current_range_meters":36800,"station_id":"","pricing_plan_id":"cebpf4jnsgd1na2vs0mg"},{"bike_id":"c444b209-11ef-47ff-bcf0-60ddee8f6883","system_id":"levelo_inurba_marseille","lat":43.28571,"lon":5.39501,"is_reserved":false,"is_disabled":false,"rental_uris":{"android":"levelo://app?vid=c444b209-11ef-47ff-bcf0-60ddee8f6883","ios":"levelo://app?vid=c444b209-11ef-47ff-bcf0-60ddee8f6883"},"vehicle_type_id":"4","last_reported":1729699894,"current_range_meters":23200,"station_id":"ce4bh292rcd13ifvqdg0","pricing_plan_id":"cebpf4jnsgd1na2vs0mg"},{"bike_id":"fcaca456-3b1b-47e9-a4c6-4d0227fff4cb","system_id":"levelo_inurba_marseille","lat":43.29258,"lon":5.40922,"is_reserved":false,"is_disabled":false,"rental_uris":{"android":"levelo://app?vid=fcaca456-3b1b-47e9-a4c6-4d0227fff4cb","ios":"levelo://app?vid=fcaca456-3b1b-47e9-a4c6-4d0227fff4cb"},"vehicle_type_id":"4","last_reported":1729699894,"current_range_meters":22800,"station_id":"ce4bh192rcd13ifvqdc0","pricing_plan_id":"cebpf4jnsgd1na2vs0mg"},{"bike_id":"c2e79817-2083-400a-8352-8c5c28f75e9a","system_id":"levelo_inurba_marseille","lat":43.29975,"lon":5.38483,"is_reserved":false,"is_disabled":false,"rental_uris":{"android":"levelo://app?vid=c2e79817-2083-400a-8352-8c5c28f75e9a","ios":"levelo://app?vid=c2e79817-2083-400a-8352-8c5c28f75e9a"},"vehicle_type_id":"4","last_reported":1729699894,"current_range_meters":29600,"station_id":"ce4bgj92rcd13ifvqbd0","pricing_plan_id":"cebpf4jnsgd1na2vs0mg"},{"bike_id":"a8e36694-19be-41d4-b17b-fe30f5e552ff","system_id":"levelo_inurba_marseille","lat":43.30787,"lon":5.37645,"is_reserved":false,"is_disabled":false,"rental_uris":{"android":"levelo://app?vid=a8e36694-19be-41d4-b17b-fe30f5e552ff","ios":"levelo://app?vid=a8e36694-19be-41d4-b17b-fe30f5e552ff"},"vehicle_type_id":"4","last_reported":1729699894,"current_range_meters":4400,"station_id":"ce4bgv92rcd13ifvqcq0","pricing_plan_id":"cebpf4jnsgd1na2vs0mg"},{"bike_id":"128f28a2-2c90-451a-a773-f3975769b709","system_id":"levelo_inurba_marseille","lat":43.28438,"lon":5.39205,"is_reserved":false,"is_disabled":false,"rental_uris":{"android":"levelo://app?vid=128f28a2-2c90-451a-a773-f3975769b709","ios":"levelo://app?vid=128f28a2-2c90-451a-a773-f3975769b709"},"vehicle_type_id":"4","last_reported":1729699894,"current_range_meters":4400,"station_id":"ce4bhoh2rcd13ifvqh5g","pricing_plan_id":"cebpf4jnsgd1na2vs0mg"},{"bike_id":"69334edd-1d5f-4acf-b718-3ac179b7d5e4","system_id":"levelo_inurba_marseille","lat":43.3054,"lon":5.36549,"is_reserved":false,"is_disabled":false,"rental_uris":{"android":"levelo://app?vid=69334edd-1d5f-4acf-b718-3ac179b7d5e4","ios":"levelo://app?vid=69334edd-1d5f-4acf-b718-3ac179b7d5e4"},"vehicle_type_id":"4","last_reported":1729699894,"current_range_meters":38800,"station_id":"ce4bgs12rcd13ifvqcag","pricing_plan_id":"cebpf4jnsgd1na2vs0mg"},{"bike_id":"2e8c3829-5f67-436a-963d-e4d3045ea30e","system_id":"levelo_inurba_marseille","lat":43.254608,"lon":5.377658,"is_reserved":false,"is_disabled":false,"rental_uris":{"android":"levelo://app?vid=2e8c3829-5f67-436a-963d-e4d3045ea30e","ios":"levelo://app?vid=2e8c3829-5f67-436a-963d-e4d3045ea30e"},"vehicle_type_id":"4","last_reported":1729699894,"current_range_meters":37600,"station_id":"ce4bhh12rcd13ifvqff0","pricing_plan_id":"cebpf4jnsgd1na2vs0mg"},{"bike_id":"39c8b112-9a49-4084-8901-d901b56d2fee","system_id":"levelo_inurba_marseille","lat":43.30648,"lon":5.38179,"is_reserved":false,"is_disabled":false,"rental_uris":{"android":"levelo://app?vid=39c8b112-9a49-4084-8901-d901b56d2fee","ios":"levelo://app?vid=39c8b112-9a49-4084-8901-d901b56d2fee"},"vehicle_type_id":"4","last_reported":1729699894,"current_range_meters":32800,"station_id":"","pricing_plan_id":"cebpf4jnsgd1na2vs0mg"},{"bike_id":"9d132b23-1b0d-4fd5-8b0d-4ba6d17f538d","system_id":"levelo_inurba_marseille","lat":43.24078,"lon":5.3776,"is_reserved":false,"is_disabled":false,"rental_uris":{"android":"levelo://app?vid=9d132b23-1b0d-4fd5-8b0d-4ba6d17f538d","ios":"levelo://app?vid=9d132b23-1b0d-4fd5-8b0d-4ba6d17f538d"},"vehicle_type_id":"4","last_reported":1729699894,"current_range_meters":7200,"station_id":"ce4bhnp2rcd13ifvqgvg","pricing_plan_id":"cebpf4jnsgd1na2vs0mg"},{"bike_id":"184b0eb9-d9a4-42d2-bdec-6087e7423df5","system_id":"levelo_inurba_marseille","lat":43.29255,"lon":5.40912,"is_reserved":false,"is_disabled":false,"rental_uris":{"android":"levelo://app?vid=184b0eb9-d9a4-42d2-bdec-6087e7423df5","ios":"levelo://app?vid=184b0eb9-d9a4-42d2-bdec-6087e7423df5"},"vehicle_type_id":"4","last_reported":1729699894,"current_range_meters":38800,"station_id":"ce4bh192rcd13ifvqdc0","pricing_plan_id":"cebpf4jnsgd1na2vs0mg"},{"bike_id":"cade1b32-1a61-4699-96da-6ffd9827a90b","system_id":"levelo_inurba_marseille","lat":43.29417,"lon":5.38626,"is_reserved":false,"is_disabled":false,"rental_uris":{"android":"levelo://app?vid=cade1b32-1a61-4699-96da-6ffd9827a90b","ios":"levelo://app?vid=cade1b32-1a61-4699-96da-6ffd9827a90b"},"vehicle_type_id":"4","last_reported":1729699894,"current_range_meters":6400,"station_id":"ce4bh2h2rcd13ifvqdh0","pricing_plan_id":"cebpf4jnsgd1na2vs0mg"},{"bike_id":"4fd8f4d5-c1c6-441e-8ec0-e5f1a2ae3eab","system_id":"levelo_inurba_marseille","lat":43.26061,"lon":5.39401,"is_reserved":false,"is_disabled":false,"rental_uris":{"android":"levelo://app?vid=4fd8f4d5-c1c6-441e-8ec0-e5f1a2ae3eab","ios":"levelo://app?vid=4fd8f4d5-c1c6-441e-8ec0-e5f1a2ae3eab"},"vehicle_type_id":"4","last_reported":1729699894,"current_range_meters":16000,"station_id":"ce4bhh92rcd13ifvqfj0","pricing_plan_id":"cebpf4jnsgd1na2vs0mg"},{"bike_id":"0878f0be-ee74-4e14-b961-a99e2658adc0","system_id":"levelo_inurba_marseille","lat":43.27074,"lon":5.4228,"is_reserved":false,"is_disabled":false,"rental_uris":{"android":"levelo://app?vid=0878f0be-ee74-4e14-b961-a99e2658adc0","ios":"levelo://app?vid=0878f0be-ee74-4e14-b961-a99e2658adc0"},"vehicle_type_id":"4","last_reported":1729699894,"current_range_meters":30800,"station_id":"ce4bhk92rcd13ifvqgb0","pricing_plan_id":"cebpf4jnsgd1na2vs0mg"},{"bike_id":"7d9bae66-75c0-414c-b6e5-1dae4af5c1cb","system_id":"levelo_inurba_marseille","lat":43.22929,"lon":5.35377,"is_reserved":false,"is_disabled":false,"rental_uris":{"android":"levelo://app?vid=7d9bae66-75c0-414c-b6e5-1dae4af5c1cb","ios":"levelo://app?vid=7d9bae66-75c0-414c-b6e5-1dae4af5c1cb"},"vehicle_type_id":"4","last_reported":1729699894,"current_range_meters":36400,"station_id":"cpo3532slgdg3j2ikp40","pricing_plan_id":"cebpf4jnsgd1na2vs0mg"},{"bike_id":"7a3d07d2-b953-4c27-8eeb-d813e8769b37","system_id":"levelo_inurba_marseille","lat":43.29636,"lon":5.40597,"is_reserved":false,"is_disabled":false,"rental_uris":{"android":"levelo://app?vid=7a3d07d2-b953-4c27-8eeb-d813e8769b37","ios":"levelo://app?vid=7a3d07d2-b953-4c27-8eeb-d813e8769b37"},"vehicle_type_id":"4","last_reported":1729699894,"current_range_meters":38400,"station_id":"ce4bh0h2rcd13ifvqd60","pricing_plan_id":"cebpf4jnsgd1na2vs0mg"},{"bike_id":"9eaf8f71-27d3-485c-b193-cd47377e1677","system_id":"levelo_inurba_marseille","lat":43.31352,"lon":5.38503,"is_reserved":false,"is_disabled":false,"rental_uris":{"android":"levelo://app?vid=9eaf8f71-27d3-485c-b193-cd47377e1677","ios":"levelo://app?vid=9eaf8f71-27d3-485c-b193-cd47377e1677"},"vehicle_type_id":"4","last_reported":1729699894,"current_range_meters":8000,"station_id":"ce4bgt92rcd13ifvqcf0","pricing_plan_id":"cebpf4jnsgd1na2vs0mg"},{"bike_id":"10acd08e-2c97-4dd2-8024-94bf5f911bfa","system_id":"levelo_inurba_marseille","lat":43.29259,"lon":5.38446,"is_reserved":false,"is_disabled":false,"rental_uris":{"android":"levelo://app?vid=10acd08e-2c97-4dd2-8024-94bf5f911bfa","ios":"levelo://app?vid=10acd08e-2c97-4dd2-8024-94bf5f911bfa"},"vehicle_type_id":"4","last_reported":1729699894,"current_range_meters":30400,"station_id":"ce4bh692rcd13ifvqea0","pricing_plan_id":"cebpf4jnsgd1na2vs0mg"},{"bike_id":"417f9555-0d98-431e-9ab0-0699d629cf81","system_id":"levelo_inurba_marseille","lat":43.29968,"lon":5.38499,"is_reserved":false,"is_disabled":false,"rental_uris":{"android":"levelo://app?vid=417f9555-0d98-431e-9ab0-0699d629cf81","ios":"levelo://app?vid=417f9555-0d98-431e-9ab0-0699d629cf81"},"vehicle_type_id":"4","last_reported":1729699894,"current_range_meters":16400,"station_id":"ce4bgj92rcd13ifvqbd0","pricing_plan_id":"cebpf4jnsgd1na2vs0mg"},{"bike_id":"6afcaa1d-e7ea-4857-b6b7-702d82974a7a","system_id":"levelo_inurba_marseille","lat":43.29876,"lon":5.39728,"is_reserved":false,"is_disabled":false,"rental_uris":{"android":"levelo://app?vid=6afcaa1d-e7ea-4857-b6b7-702d82974a7a","ios":"levelo://app?vid=6afcaa1d-e7ea-4857-b6b7-702d82974a7a"},"vehicle_type_id":"4","last_reported":1729699894,"current_range_meters":36400,"station_id":"ce4bh0h2rcd13ifvqd50","pricing_plan_id":"cebpf4jnsgd1na2vs0mg"},{"bike_id":"5721cc6a-fb38-46eb-b7cd-324f9eb735c1","system_id":"levelo_inurba_marseille","lat":43.28611,"lon":5.35107,"is_reserved":false,"is_disabled":false,"rental_uris":{"android":"levelo://app?vid=5721cc6a-fb38-46eb-b7cd-324f9eb735c1","ios":"levelo://app?vid=5721cc6a-fb38-46eb-b7cd-324f9eb735c1"},"vehicle_type_id":"4","last_reported":1729699894,"current_range_meters":22400,"station_id":"ce4bhch2rcd13ifvqeug","pricing_plan_id":"cebpf4jnsgd1na2vs0mg"},{"bike_id":"303d3869-e7b2-4343-8be9-180286d6d3d8","system_id":"levelo_inurba_marseille","lat":43.26206,"lon":5.37929,"is_reserved":false,"is_disabled":false,"rental_uris":{"android":"levelo://app?vid=303d3869-e7b2-4343-8be9-180286d6d3d8","ios":"levelo://app?vid=303d3869-e7b2-4343-8be9-180286d6d3d8"},"vehicle_type_id":"4","last_reported":1729699894,"current_range_meters":28400,"station_id":"ce4bhjp2rcd13ifvqg90","pricing_plan_id":"cebpf4jnsgd1na2vs0mg"},{"bike_id":"8a2dd17a-483c-452c-ab34-1ed74942d8d5","system_id":"levelo_inurba_marseille","lat":43.28155,"lon":5.42651,"is_reserved":false,"is_disabled":false,"rental_uris":{"android":"levelo://app?vid=8a2dd17a-483c-452c-ab34-1ed74942d8d5","ios":"levelo://app?vid=8a2dd17a-483c-452c-ab34-1ed74942d8d5"},"vehicle_type_id":"4","last_reported":1729699894,"current_range_meters":38800,"station_id":"ce4bhnh2rcd13ifvqgug","pricing_plan_id":"cebpf4jnsgd1na2vs0mg"},{"bike_id":"c927fff3-611a-4162-bc24-956dbd411ca8","system_id":"levelo_inurba_marseille","lat":43.28438,"lon":5.39196,"is_reserved":false,"is_disabled":false,"rental_uris":{"android":"levelo://app?vid=c927fff3-611a-4162-bc24-956dbd411ca8","ios":"levelo://app?vid=c927fff3-611a-4162-bc24-956dbd411ca8"},"vehicle_type_id":"4","last_reported":1729699894,"current_range_meters":38800,"station_id":"ce4bhoh2rcd13ifvqh5g","pricing_plan_id":"cebpf4jnsgd1na2vs0mg"},{"bike_id":"a23487a5-5ae1-42e3-b696-e8f7e56b1f2a","system_id":"levelo_inurba_marseille","lat":43.29265,"lon":5.38444,"is_reserved":false,"is_disabled":false,"rental_uris":{"android":"levelo://app?vid=a23487a5-5ae1-42e3-b696-e8f7e56b1f2a","ios":"levelo://app?vid=a23487a5-5ae1-42e3-b696-e8f7e56b1f2a"},"vehicle_type_id":"4","last_reported":1729699894,"current_range_meters":34000,"station_id":"ce4bh692rcd13ifvqea0","pricing_plan_id":"cebpf4jnsgd1na2vs0mg"},{"bike_id":"6dcb1b45-d198-48ea-be8a-e40e42f0d8d0","system_id":"levelo_inurba_marseille","lat":43.248044,"lon":5.374533,"is_reserved":false,"is_disabled":false,"rental_uris":{"android":"levelo://app?vid=6dcb1b45-d198-48ea-be8a-e40e42f0d8d0","ios":"levelo://app?vid=6dcb1b45-d198-48ea-be8a-e40e42f0d8d0"},"vehicle_type_id":"4","last_reported":1729699894,"current_range_meters":24400,"station_id":"ce4bhgh2rcd13ifvqfb0","pricing_plan_id":"cebpf4jnsgd1na2vs0mg"},{"bike_id":"4b2a888b-8a31-496e-9e22-62c552d5509d","system_id":"levelo_inurba_marseille","lat":43.24169,"lon":5.36399,"is_reserved":false,"is_disabled":false,"rental_uris":{"android":"levelo://app?vid=4b2a888b-8a31-496e-9e22-62c552d5509d","ios":"levelo://app?vid=4b2a888b-8a31-496e-9e22-62c552d5509d"},"vehicle_type_id":"4","last_reported":1729699894,"current_range_meters":7200,"station_id":"cpo36qri1sfpv3e86is0","pricing_plan_id":"cebpf4jnsgd1na2vs0mg"},{"bike_id":"eef5ae0e-ce08-4e42-96fe-f47743034538","system_id":"levelo_inurba_marseille","lat":43.256287,"lon":5.382631,"is_reserved":false,"is_disabled":false,"rental_uris":{"android":"levelo://app?vid=eef5ae0e-ce08-4e42-96fe-f47743034538","ios":"levelo://app?vid=eef5ae0e-ce08-4e42-96fe-f47743034538"},"vehicle_type_id":"4","last_reported":1729699894,"current_range_meters":4400,"station_id":"","pricing_plan_id":"cebpf4jnsgd1na2vs0mg"},{"bike_id":"b9a3efb4-4399-4a14-82d3-bc5c615e0a8b","system_id":"levelo_inurba_marseille","lat":43.30126,"lon":5.3986,"is_reserved":false,"is_disabled":false,"rental_uris":{"android":"levelo://app?vid=b9a3efb4-4399-4a14-82d3-bc5c615e0a8b","ios":"levelo://app?vid=b9a3efb4-4399-4a14-82d3-bc5c615e0a8b"},"vehicle_type_id":"4","last_reported":1729699894,"current_range_meters":39200,"station_id":"ce4bh0h2rcd13ifvqd40","pricing_plan_id":"cebpf4jnsgd1na2vs0mg"},{"bike_id":"3bce3aa9-8615-432a-9998-394845fd6c76","system_id":"levelo_inurba_marseille","lat":43.30927,"lon":5.40144,"is_reserved":false,"is_disabled":false,"rental_uris":{"android":"levelo://app?vid=3bce3aa9-8615-432a-9998-394845fd6c76","ios":"levelo://app?vid=3bce3aa9-8615-432a-9998-394845fd6c76"},"vehicle_type_id":"4","last_reported":1729699894,"current_range_meters":38000,"station_id":"ce4bgvp2rcd13ifvqct0","pricing_plan_id":"cebpf4jnsgd1na2vs0mg"},{"bike_id":"bdb5f1e3-126d-499e-a835-1843a92a834a","system_id":"levelo_inurba_marseille","lat":43.27363,"lon":5.36257,"is_reserved":false,"is_disabled":false,"rental_uris":{"android":"levelo://app?vid=bdb5f1e3-126d-499e-a835-1843a92a834a","ios":"levelo://app?vid=bdb5f1e3-126d-499e-a835-1843a92a834a"},"vehicle_type_id":"4","last_reported":1729699894,"current_range_meters":24400,"station_id":"ce4bhbh2rcd13ifvqeo0","pricing_plan_id":"cebpf4jnsgd1na2vs0mg"},{"bike_id":"dd408a1b-ebf8-4821-97ae-2380768db906","system_id":"levelo_inurba_marseille","lat":43.29527,"lon":5.38541,"is_reserved":false,"is_disabled":false,"rental_uris":{"android":"levelo://app?vid=dd408a1b-ebf8-4821-97ae-2380768db906","ios":"levelo://app?vid=dd408a1b-ebf8-4821-97ae-2380768db906"},"vehicle_type_id":"4","last_reported":1729699894,"current_range_meters":38400,"station_id":"ce4bgih2rcd13ifvqba0","pricing_plan_id":"cebpf4jnsgd1na2vs0mg"},{"bike_id":"186f7ba7-f451-4a21-8654-db8076265848","system_id":"levelo_inurba_marseille","lat":43.28262,"lon":5.35079,"is_reserved":false,"is_disabled":false,"rental_uris":{"android":"levelo://app?vid=186f7ba7-f451-4a21-8654-db8076265848","ios":"levelo://app?vid=186f7ba7-f451-4a21-8654-db8076265848"},"vehicle_type_id":"4","last_reported":1729699894,"current_range_meters":11200,"station_id":"ce4bhbp2rcd13ifvqerg","pricing_plan_id":"cebpf4jnsgd1na2vs0mg"},{"bike_id":"1799daef-05f3-419e-bbe3-51a6b4575a5c","system_id":"levelo_inurba_marseille","lat":43.28291,"lon":5.40854,"is_reserved":false,"is_disabled":false,"rental_uris":{"android":"levelo://app?vid=1799daef-05f3-419e-bbe3-51a6b4575a5c","ios":"levelo://app?vid=1799daef-05f3-419e-bbe3-51a6b4575a5c"},"vehicle_type_id":"4","last_reported":1729699894,"current_range_meters":11600,"station_id":"","pricing_plan_id":"cebpf4jnsgd1na2vs0mg"},{"bike_id":"2565f549-1514-4594-91dc-a253fb81a619","system_id":"levelo_inurba_marseille","lat":43.26955,"lon":5.38626,"is_reserved":false,"is_disabled":false,"rental_uris":{"android":"levelo://app?vid=2565f549-1514-4594-91dc-a253fb81a619","ios":"levelo://app?vid=2565f549-1514-4594-91dc-a253fb81a619"},"vehicle_type_id":"4","last_reported":1729699894,"current_range_meters":34000,"station_id":"ce4bhh92rcd13ifvqfh0","pricing_plan_id":"cebpf4jnsgd1na2vs0mg"},{"bike_id":"0dc5fd65-6c08-45fc-b9d0-c856107da224","system_id":"levelo_inurba_marseille","lat":43.29579,"lon":5.36742,"is_reserved":false,"is_disabled":false,"rental_uris":{"android":"levelo://app?vid=0dc5fd65-6c08-45fc-b9d0-c856107da224","ios":"levelo://app?vid=0dc5fd65-6c08-45fc-b9d0-c856107da224"},"vehicle_type_id":"4","last_reported":1729699894,"current_range_meters":38800,"station_id":"ce4bgph2rcd13ifvqc2g","pricing_plan_id":"cebpf4jnsgd1na2vs0mg"},{"bike_id":"6eb3a0bb-d2a3-49b8-a9bc-f12220a22dd0","system_id":"levelo_inurba_marseille","lat":43.29531,"lon":5.38538,"is_reserved":false,"is_disabled":false,"rental_uris":{"android":"levelo://app?vid=6eb3a0bb-d2a3-49b8-a9bc-f12220a22dd0","ios":"levelo://app?vid=6eb3a0bb-d2a3-49b8-a9bc-f12220a22dd0"},"vehicle_type_id":"4","last_reported":1729699894,"current_range_meters":25600,"station_id":"ce4bgih2rcd13ifvqba0","pricing_plan_id":"cebpf4jnsgd1na2vs0mg"},{"bike_id":"c3969c76-c484-480f-b0d7-5ac7166aeb01","system_id":"levelo_inurba_marseille","lat":43.29531,"lon":5.38537,"is_reserved":false,"is_disabled":false,"rental_uris":{"android":"levelo://app?vid=c3969c76-c484-480f-b0d7-5ac7166aeb01","ios":"levelo://app?vid=c3969c76-c484-480f-b0d7-5ac7166aeb01"},"vehicle_type_id":"4","last_reported":1729699894,"current_range_meters":20400,"station_id":"ce4bgih2rcd13ifvqba0","pricing_plan_id":"cebpf4jnsgd1na2vs0mg"},{"bike_id":"f54ec824-4a1a-4907-9eb9-6f7e89a75319","system_id":"levelo_inurba_marseille","lat":43.29531,"lon":5.3855,"is_reserved":false,"is_disabled":false,"rental_uris":{"android":"levelo://app?vid=f54ec824-4a1a-4907-9eb9-6f7e89a75319","ios":"levelo://app?vid=f54ec824-4a1a-4907-9eb9-6f7e89a75319"},"vehicle_type_id":"4","last_reported":1729699894,"current_range_meters":24000,"station_id":"ce4bgih2rcd13ifvqba0","pricing_plan_id":"cebpf4jnsgd1na2vs0mg"},{"bike_id":"70c0db28-8045-42ba-a534-2532b86d3455","system_id":"levelo_inurba_marseille","lat":43.22932,"lon":5.35376,"is_reserved":false,"is_disabled":false,"rental_uris":{"android":"levelo://app?vid=70c0db28-8045-42ba-a534-2532b86d3455","ios":"levelo://app?vid=70c0db28-8045-42ba-a534-2532b86d3455"},"vehicle_type_id":"4","last_reported":1729699894,"current_range_meters":16800,"station_id":"cpo3532slgdg3j2ikp40","pricing_plan_id":"cebpf4jnsgd1na2vs0mg"},{"bike_id":"aaef2d09-85f1-4711-93ea-ffc9a1eddbab","system_id":"levelo_inurba_marseille","lat":43.28002,"lon":5.39995,"is_reserved":false,"is_disabled":false,"rental_uris":{"android":"levelo://app?vid=aaef2d09-85f1-4711-93ea-ffc9a1eddbab","ios":"levelo://app?vid=aaef2d09-85f1-4711-93ea-ffc9a1eddbab"},"vehicle_type_id":"4","last_reported":1729699894,"current_range_meters":4400,"station_id":"ce4bho92rcd13ifvqh4g","pricing_plan_id":"cebpf4jnsgd1na2vs0mg"},{"bike_id":"eed0bb1c-d317-4f8d-8a83-9e4d3967120b","system_id":"levelo_inurba_marseille","lat":43.33715,"lon":5.39191,"is_reserved":false,"is_disabled":false,"rental_uris":{"android":"levelo://app?vid=eed0bb1c-d317-4f8d-8a83-9e4d3967120b","ios":"levelo://app?vid=eed0bb1c-d317-4f8d-8a83-9e4d3967120b"},"vehicle_type_id":"4","last_reported":1729699894,"current_range_meters":37600,"station_id":"ce4bhr92rcd13ifvqhsg","pricing_plan_id":"cebpf4jnsgd1na2vs0mg"},{"bike_id":"6ce9344b-2a35-4b68-83a1-33981f2e1634","system_id":"levelo_inurba_marseille","lat":43.28491,"lon":5.38431,"is_reserved":false,"is_disabled":false,"rental_uris":{"android":"levelo://app?vid=6ce9344b-2a35-4b68-83a1-33981f2e1634","ios":"levelo://app?vid=6ce9344b-2a35-4b68-83a1-33981f2e1634"},"vehicle_type_id":"4","last_reported":1729699894,"current_range_meters":30400,"station_id":"ce4bh512rcd13ifvqe3g","pricing_plan_id":"cebpf4jnsgd1na2vs0mg"},{"bike_id":"db9b4e5c-78b8-497a-ac84-f53a08ca0821","system_id":"levelo_inurba_marseille","lat":43.28982,"lon":5.37838,"is_reserved":false,"is_disabled":false,"rental_uris":{"android":"levelo://app?vid=db9b4e5c-78b8-497a-ac84-f53a08ca0821","ios":"levelo://app?vid=db9b4e5c-78b8-497a-ac84-f53a08ca0821"},"vehicle_type_id":"4","last_reported":1729699894,"current_range_meters":5600,"station_id":"ce4bh9p2rcd13ifvqed0","pricing_plan_id":"cebpf4jnsgd1na2vs0mg"},{"bike_id":"e61f83e6-7b6c-46cd-a3ed-4571e1937882","system_id":"levelo_inurba_marseille","lat":43.3055,"lon":5.36546,"is_reserved":false,"is_disabled":false,"rental_uris":{"android":"levelo://app?vid=e61f83e6-7b6c-46cd-a3ed-4571e1937882","ios":"levelo://app?vid=e61f83e6-7b6c-46cd-a3ed-4571e1937882"},"vehicle_type_id":"4","last_reported":1729699894,"current_range_meters":40000,"station_id":"ce4bgs12rcd13ifvqcag","pricing_plan_id":"cebpf4jnsgd1na2vs0mg"},{"bike_id":"dd2ef361-2ccf-4d04-9a4c-fb716455394c","system_id":"levelo_inurba_marseille","lat":43.29418,"lon":5.38627,"is_reserved":false,"is_disabled":false,"rental_uris":{"android":"levelo://app?vid=dd2ef361-2ccf-4d04-9a4c-fb716455394c","ios":"levelo://app?vid=dd2ef361-2ccf-4d04-9a4c-fb716455394c"},"vehicle_type_id":"4","last_reported":1729699894,"current_range_meters":7200,"station_id":"ce4bh2h2rcd13ifvqdh0","pricing_plan_id":"cebpf4jnsgd1na2vs0mg"},{"bike_id":"3f1da859-574b-47bd-8a5e-3e68012e9a67","system_id":"levelo_inurba_marseille","lat":43.30252,"lon":5.40085,"is_reserved":false,"is_disabled":false,"rental_uris":{"android":"levelo://app?vid=3f1da859-574b-47bd-8a5e-3e68012e9a67","ios":"levelo://app?vid=3f1da859-574b-47bd-8a5e-3e68012e9a67"},"vehicle_type_id":"4","last_reported":1729699894,"current_range_meters":38800,"station_id":"ce4bgvh2rcd13ifvqcs0","pricing_plan_id":"cebpf4jnsgd1na2vs0mg"},{"bike_id":"4d9677e1-8059-4ee9-82ec-309e9c9e1531","system_id":"levelo_inurba_marseille","lat":43.29417,"lon":5.38627,"is_reserved":false,"is_disabled":false,"rental_uris":{"android":"levelo://app?vid=4d9677e1-8059-4ee9-82ec-309e9c9e1531","ios":"levelo://app?vid=4d9677e1-8059-4ee9-82ec-309e9c9e1531"},"vehicle_type_id":"4","last_reported":1729699894,"current_range_meters":36800,"station_id":"ce4bh2h2rcd13ifvqdh0","pricing_plan_id":"cebpf4jnsgd1na2vs0mg"},{"bike_id":"bdcc7930-0758-4fea-8eaf-38c99b0741d6","system_id":"levelo_inurba_marseille","lat":43.27421,"lon":5.39414,"is_reserved":false,"is_disabled":false,"rental_uris":{"android":"levelo://app?vid=bdcc7930-0758-4fea-8eaf-38c99b0741d6","ios":"levelo://app?vid=bdcc7930-0758-4fea-8eaf-38c99b0741d6"},"vehicle_type_id":"4","last_reported":1729699894,"current_range_meters":8400,"station_id":"ce4bhdp2rcd13ifvqf20","pricing_plan_id":"cebpf4jnsgd1na2vs0mg"},{"bike_id":"e49ef59c-c6f6-4695-96ae-01a40266ab7a","system_id":"levelo_inurba_marseille","lat":43.25577,"lon":5.38236,"is_reserved":false,"is_disabled":false,"rental_uris":{"android":"levelo://app?vid=e49ef59c-c6f6-4695-96ae-01a40266ab7a","ios":"levelo://app?vid=e49ef59c-c6f6-4695-96ae-01a40266ab7a"},"vehicle_type_id":"4","last_reported":1729699894,"current_range_meters":14800,"station_id":"ce4bhih2rcd13ifvqfs0","pricing_plan_id":"cebpf4jnsgd1na2vs0mg"},{"bike_id":"fb1cdef2-7c1d-431c-8138-3cdce5d548df","system_id":"levelo_inurba_marseille","lat":43.23962,"lon":5.3663,"is_reserved":false,"is_disabled":false,"rental_uris":{"android":"levelo://app?vid=fb1cdef2-7c1d-431c-8138-3cdce5d548df","ios":"levelo://app?vid=fb1cdef2-7c1d-431c-8138-3cdce5d548df"},"vehicle_type_id":"4","last_reported":1729699894,"current_range_meters":6000,"station_id":"ce4bhi12rcd13ifvqfp0","pricing_plan_id":"cebpf4jnsgd1na2vs0mg"},{"bike_id":"26ebd71f-7bc7-4bad-bbb2-6d15881ecc4c","system_id":"levelo_inurba_marseille","lat":43.30656,"lon":5.39487,"is_reserved":false,"is_disabled":false,"rental_uris":{"android":"levelo://app?vid=26ebd71f-7bc7-4bad-bbb2-6d15881ecc4c","ios":"levelo://app?vid=26ebd71f-7bc7-4bad-bbb2-6d15881ecc4c"},"vehicle_type_id":"4","last_reported":1729699894,"current_range_meters":26000,"station_id":"","pricing_plan_id":"cebpf4jnsgd1na2vs0mg"},{"bike_id":"6ff7dfb9-d8af-461e-9639-4f36babf1919","system_id":"levelo_inurba_marseille","lat":43.27904,"lon":5.38011,"is_reserved":false,"is_disabled":false,"rental_uris":{"android":"levelo://app?vid=6ff7dfb9-d8af-461e-9639-4f36babf1919","ios":"levelo://app?vid=6ff7dfb9-d8af-461e-9639-4f36babf1919"},"vehicle_type_id":"4","last_reported":1729699894,"current_range_meters":36800,"station_id":"ce4bhf92rcd13ifvqf50","pricing_plan_id":"cebpf4jnsgd1na2vs0mg"},{"bike_id":"109cbb9d-75a1-45d8-9dcf-caa69cb61e69","system_id":"levelo_inurba_marseille","lat":43.29093,"lon":5.38152,"is_reserved":false,"is_disabled":false,"rental_uris":{"android":"levelo://app?vid=109cbb9d-75a1-45d8-9dcf-caa69cb61e69","ios":"levelo://app?vid=109cbb9d-75a1-45d8-9dcf-caa69cb61e69"},"vehicle_type_id":"4","last_reported":1729699894,"current_range_meters":20800,"station_id":"ce4bh512rcd13ifvqe2g","pricing_plan_id":"cebpf4jnsgd1na2vs0mg"},{"bike_id":"c3945b60-e38d-4106-8f18-92c7f436cc4f","system_id":"levelo_inurba_marseille","lat":43.33759,"lon":5.37455,"is_reserved":false,"is_disabled":false,"rental_uris":{"android":"levelo://app?vid=c3945b60-e38d-4106-8f18-92c7f436cc4f","ios":"levelo://app?vid=c3945b60-e38d-4106-8f18-92c7f436cc4f"},"vehicle_type_id":"4","last_reported":1729699894,"current_range_meters":26800,"station_id":"","pricing_plan_id":"cebpf4jnsgd1na2vs0mg"},{"bike_id":"311cad1d-f407-4a56-9ee5-bd50e96223f9","system_id":"levelo_inurba_marseille","lat":43.28353,"lon":5.38105,"is_reserved":false,"is_disabled":false,"rental_uris":{"android":"levelo://app?vid=311cad1d-f407-4a56-9ee5-bd50e96223f9","ios":"levelo://app?vid=311cad1d-f407-4a56-9ee5-bd50e96223f9"},"vehicle_type_id":"4","last_reported":1729699894,"current_range_meters":22400,"station_id":"ce4bh412rcd13ifvqdr0","pricing_plan_id":"cebpf4jnsgd1na2vs0mg"},{"bike_id":"78018770-86ea-4404-8452-ce018255cd17","system_id":"levelo_inurba_marseille","lat":43.22936,"lon":5.3538,"is_reserved":false,"is_disabled":false,"rental_uris":{"android":"levelo://app?vid=78018770-86ea-4404-8452-ce018255cd17","ios":"levelo://app?vid=78018770-86ea-4404-8452-ce018255cd17"},"vehicle_type_id":"4","last_reported":1729699894,"current_range_meters":21600,"station_id":"cpo3532slgdg3j2ikp40","pricing_plan_id":"cebpf4jnsgd1na2vs0mg"},{"bike_id":"8ac12cfc-e1fb-4778-9451-a46342042592","system_id":"levelo_inurba_marseille","lat":43.30908,"lon":5.36842,"is_reserved":false,"is_disabled":false,"rental_uris":{"android":"levelo://app?vid=8ac12cfc-e1fb-4778-9451-a46342042592","ios":"levelo://app?vid=8ac12cfc-e1fb-4778-9451-a46342042592"},"vehicle_type_id":"4","last_reported":1729699894,"current_range_meters":35200,"station_id":"ce4bgn92rcd13ifvqbvg","pricing_plan_id":"cebpf4jnsgd1na2vs0mg"},{"bike_id":"a56ee122-b310-4c49-8222-d43f2817940f","system_id":"levelo_inurba_marseille","lat":43.28263,"lon":5.35071,"is_reserved":false,"is_disabled":false,"rental_uris":{"android":"levelo://app?vid=a56ee122-b310-4c49-8222-d43f2817940f","ios":"levelo://app?vid=a56ee122-b310-4c49-8222-d43f2817940f"},"vehicle_type_id":"4","last_reported":1729699894,"current_range_meters":28000,"station_id":"ce4bhbp2rcd13ifvqerg","pricing_plan_id":"cebpf4jnsgd1na2vs0mg"},{"bike_id":"dc673454-0548-4c5b-ac94-6f55cf1396c4","system_id":"levelo_inurba_marseille","lat":43.28412,"lon":5.37517,"is_reserved":false,"is_disabled":false,"rental_uris":{"android":"levelo://app?vid=dc673454-0548-4c5b-ac94-6f55cf1396c4","ios":"levelo://app?vid=dc673454-0548-4c5b-ac94-6f55cf1396c4"},"vehicle_type_id":"4","last_reported":1729699894,"current_range_meters":8000,"station_id":"ce4bh412rcd13ifvqds0","pricing_plan_id":"cebpf4jnsgd1na2vs0mg"},{"bike_id":"5d8cf98c-aaec-4e54-86fe-c0e9ded0f1ea","system_id":"levelo_inurba_marseille","lat":43.30231,"lon":5.40063,"is_reserved":false,"is_disabled":false,"rental_uris":{"android":"levelo://app?vid=5d8cf98c-aaec-4e54-86fe-c0e9ded0f1ea","ios":"levelo://app?vid=5d8cf98c-aaec-4e54-86fe-c0e9ded0f1ea"},"vehicle_type_id":"4","last_reported":1729699894,"current_range_meters":24400,"station_id":"ce4bgvh2rcd13ifvqcs0","pricing_plan_id":"cebpf4jnsgd1na2vs0mg"},{"bike_id":"247c1539-097b-46dd-8c24-05380c7705d5","system_id":"levelo_inurba_marseille","lat":43.29588,"lon":5.36749,"is_reserved":false,"is_disabled":false,"rental_uris":{"android":"levelo://app?vid=247c1539-097b-46dd-8c24-05380c7705d5","ios":"levelo://app?vid=247c1539-097b-46dd-8c24-05380c7705d5"},"vehicle_type_id":"4","last_reported":1729699894,"current_range_meters":40000,"station_id":"ce4bgph2rcd13ifvqc2g","pricing_plan_id":"cebpf4jnsgd1na2vs0mg"},{"bike_id":"cd4c3bbe-d2b7-402d-8f00-84732ca3ae6a","system_id":"levelo_inurba_marseille","lat":43.29257,"lon":5.38433,"is_reserved":false,"is_disabled":false,"rental_uris":{"android":"levelo://app?vid=cd4c3bbe-d2b7-402d-8f00-84732ca3ae6a","ios":"levelo://app?vid=cd4c3bbe-d2b7-402d-8f00-84732ca3ae6a"},"vehicle_type_id":"4","last_reported":1729699894,"current_range_meters":37600,"station_id":"ce4bh692rcd13ifvqea0","pricing_plan_id":"cebpf4jnsgd1na2vs0mg"},{"bike_id":"e0f591a5-4a49-47dc-9aa6-eb75178c5760","system_id":"levelo_inurba_marseille","lat":43.22937,"lon":5.35381,"is_reserved":false,"is_disabled":false,"rental_uris":{"android":"levelo://app?vid=e0f591a5-4a49-47dc-9aa6-eb75178c5760","ios":"levelo://app?vid=e0f591a5-4a49-47dc-9aa6-eb75178c5760"},"vehicle_type_id":"4","last_reported":1729699894,"current_range_meters":36400,"station_id":"cpo3532slgdg3j2ikp40","pricing_plan_id":"cebpf4jnsgd1na2vs0mg"},{"bike_id":"f51d55f1-dd67-474f-aff7-8c7f8911e14a","system_id":"levelo_inurba_marseille","lat":43.29439,"lon":5.3976,"is_reserved":false,"is_disabled":false,"rental_uris":{"android":"levelo://app?vid=f51d55f1-dd67-474f-aff7-8c7f8911e14a","ios":"levelo://app?vid=f51d55f1-dd67-474f-aff7-8c7f8911e14a"},"vehicle_type_id":"4","last_reported":1729699894,"current_range_meters":35600,"station_id":"ce4bh3h2rcd13ifvqdo0","pricing_plan_id":"cebpf4jnsgd1na2vs0mg"},{"bike_id":"3758e8e1-6774-4a6d-8d44-4f39d30cb7cf","system_id":"levelo_inurba_marseille","lat":43.22926,"lon":5.35382,"is_reserved":false,"is_disabled":false,"rental_uris":{"android":"levelo://app?vid=3758e8e1-6774-4a6d-8d44-4f39d30cb7cf","ios":"levelo://app?vid=3758e8e1-6774-4a6d-8d44-4f39d30cb7cf"},"vehicle_type_id":"4","last_reported":1729699894,"current_range_meters":36400,"station_id":"cpo3532slgdg3j2ikp40","pricing_plan_id":"cebpf4jnsgd1na2vs0mg"},{"bike_id":"dfd8c432-d6ea-40d4-b489-0c03121c6d6f","system_id":"levelo_inurba_marseille","lat":43.28037,"lon":5.36947,"is_reserved":false,"is_disabled":false,"rental_uris":{"android":"levelo://app?vid=dfd8c432-d6ea-40d4-b489-0c03121c6d6f","ios":"levelo://app?vid=dfd8c432-d6ea-40d4-b489-0c03121c6d6f"},"vehicle_type_id":"4","last_reported":1729699894,"current_range_meters":28000,"station_id":"ce4bha12rcd13ifvqef0","pricing_plan_id":"cebpf4jnsgd1na2vs0mg"},{"bike_id":"8436819c-915c-4fc9-8685-bdc0649c7600","system_id":"levelo_inurba_marseille","lat":43.29614,"lon":5.37716,"is_reserved":false,"is_disabled":false,"rental_uris":{"android":"levelo://app?vid=8436819c-915c-4fc9-8685-bdc0649c7600","ios":"levelo://app?vid=8436819c-915c-4fc9-8685-bdc0649c7600"},"vehicle_type_id":"4","last_reported":1729699894,"current_range_meters":38800,"station_id":"ce4bgi92rcd13ifvqb90","pricing_plan_id":"cebpf4jnsgd1na2vs0mg"},{"bike_id":"1163c2ce-becf-41aa-b931-c0b03f4fe8d1","system_id":"levelo_inurba_marseille","lat":43.28662,"lon":5.36358,"is_reserved":false,"is_disabled":false,"rental_uris":{"android":"levelo://app?vid=1163c2ce-becf-41aa-b931-c0b03f4fe8d1","ios":"levelo://app?vid=1163c2ce-becf-41aa-b931-c0b03f4fe8d1"},"vehicle_type_id":"4","last_reported":1729699894,"current_range_meters":9200,"station_id":"ce4bhah2rcd13ifvqej0","pricing_plan_id":"cebpf4jnsgd1na2vs0mg"},{"bike_id":"30874172-f8b0-47de-b0d4-6ebffa113c84","system_id":"levelo_inurba_marseille","lat":43.23201,"lon":5.35547,"is_reserved":false,"is_disabled":false,"rental_uris":{"android":"levelo://app?vid=30874172-f8b0-47de-b0d4-6ebffa113c84","ios":"levelo://app?vid=30874172-f8b0-47de-b0d4-6ebffa113c84"},"vehicle_type_id":"4","last_reported":1729699894,"current_range_meters":37600,"station_id":"ce4bhu92rcd13ifvqi70","pricing_plan_id":"cebpf4jnsgd1na2vs0mg"},{"bike_id":"d0c2e1d9-4180-438a-bc94-bc0f0a1c62ca","system_id":"levelo_inurba_marseille","lat":43.28043,"lon":5.3695,"is_reserved":false,"is_disabled":false,"rental_uris":{"android":"levelo://app?vid=d0c2e1d9-4180-438a-bc94-bc0f0a1c62ca","ios":"levelo://app?vid=d0c2e1d9-4180-438a-bc94-bc0f0a1c62ca"},"vehicle_type_id":"4","last_reported":1729699894,"current_range_meters":23200,"station_id":"ce4bha12rcd13ifvqef0","pricing_plan_id":"cebpf4jnsgd1na2vs0mg"},{"bike_id":"b55ea397-7284-4350-9e1c-6726519c5849","system_id":"levelo_inurba_marseille","lat":43.26758,"lon":5.3929,"is_reserved":false,"is_disabled":false,"rental_uris":{"android":"levelo://app?vid=b55ea397-7284-4350-9e1c-6726519c5849","ios":"levelo://app?vid=b55ea397-7284-4350-9e1c-6726519c5849"},"vehicle_type_id":"4","last_reported":1729699894,"current_range_meters":6800,"station_id":"","pricing_plan_id":"cebpf4jnsgd1na2vs0mg"},{"bike_id":"625479c5-90dc-4585-acf4-a9bb2c75fffa","system_id":"levelo_inurba_marseille","lat":43.31321,"lon":5.39692,"is_reserved":false,"is_disabled":false,"rental_uris":{"android":"levelo://app?vid=625479c5-90dc-4585-acf4-a9bb2c75fffa","ios":"levelo://app?vid=625479c5-90dc-4585-acf4-a9bb2c75fffa"},"vehicle_type_id":"4","last_reported":1729699894,"current_range_meters":37600,"station_id":"ce4bgvp2rcd13ifvqcu0","pricing_plan_id":"cebpf4jnsgd1na2vs0mg"},{"bike_id":"0dde08c2-327e-4c04-afb0-27f16e8979fb","system_id":"levelo_inurba_marseille","lat":43.29961,"lon":5.37175,"is_reserved":false,"is_disabled":false,"rental_uris":{"android":"levelo://app?vid=0dde08c2-327e-4c04-afb0-27f16e8979fb","ios":"levelo://app?vid=0dde08c2-327e-4c04-afb0-27f16e8979fb"},"vehicle_type_id":"4","last_reported":1729699894,"current_range_meters":29600,"station_id":"ce4bgr92rcd13ifvqc7g","pricing_plan_id":"cebpf4jnsgd1na2vs0mg"},{"bike_id":"8bd8b76f-a26c-4a52-8ec9-cd8c3c81cb56","system_id":"levelo_inurba_marseille","lat":43.2966,"lon":5.37699,"is_reserved":false,"is_disabled":false,"rental_uris":{"android":"levelo://app?vid=8bd8b76f-a26c-4a52-8ec9-cd8c3c81cb56","ios":"levelo://app?vid=8bd8b76f-a26c-4a52-8ec9-cd8c3c81cb56"},"vehicle_type_id":"4","last_reported":1729699894,"current_range_meters":18000,"station_id":"ce4bgi92rcd13ifvqb90","pricing_plan_id":"cebpf4jnsgd1na2vs0mg"},{"bike_id":"70e82507-cae7-43cc-90e4-a6aef293f0e0","system_id":"levelo_inurba_marseille","lat":43.26552,"lon":5.39011,"is_reserved":false,"is_disabled":false,"rental_uris":{"android":"levelo://app?vid=70e82507-cae7-43cc-90e4-a6aef293f0e0","ios":"levelo://app?vid=70e82507-cae7-43cc-90e4-a6aef293f0e0"},"vehicle_type_id":"4","last_reported":1729699894,"current_range_meters":22400,"station_id":"ce4bhe12rcd13ifvqf30","pricing_plan_id":"cebpf4jnsgd1na2vs0mg"},{"bike_id":"fed29e3d-ded9-4536-b5e9-762e6c2a1343","system_id":"levelo_inurba_marseille","lat":43.29959,"lon":5.39191,"is_reserved":false,"is_disabled":false,"rental_uris":{"android":"levelo://app?vid=fed29e3d-ded9-4536-b5e9-762e6c2a1343","ios":"levelo://app?vid=fed29e3d-ded9-4536-b5e9-762e6c2a1343"},"vehicle_type_id":"4","last_reported":1729699894,"current_range_meters":11600,"station_id":"ce4bghh2rcd13ifvqb60","pricing_plan_id":"cebpf4jnsgd1na2vs0mg"},{"bike_id":"4d934c20-af0a-4134-af24-ca947af692a7","system_id":"levelo_inurba_marseille","lat":43.31075,"lon":5.38344,"is_reserved":false,"is_disabled":false,"rental_uris":{"android":"levelo://app?vid=4d934c20-af0a-4134-af24-ca947af692a7","ios":"levelo://app?vid=4d934c20-af0a-4134-af24-ca947af692a7"},"vehicle_type_id":"4","last_reported":1729699894,"current_range_meters":30000,"station_id":"ce4bgv92rcd13ifvqcr0","pricing_plan_id":"cebpf4jnsgd1na2vs0mg"},{"bike_id":"409c7d05-8bd8-48e6-a031-312baafe8037","system_id":"levelo_inurba_marseille","lat":43.2293,"lon":5.35377,"is_reserved":false,"is_disabled":false,"rental_uris":{"android":"levelo://app?vid=409c7d05-8bd8-48e6-a031-312baafe8037","ios":"levelo://app?vid=409c7d05-8bd8-48e6-a031-312baafe8037"},"vehicle_type_id":"4","last_reported":1729699894,"current_range_meters":8000,"station_id":"cpo3532slgdg3j2ikp40","pricing_plan_id":"cebpf4jnsgd1na2vs0mg"},{"bike_id":"75785403-c74a-4e7f-93be-ce09638be4c9","system_id":"levelo_inurba_marseille","lat":43.29261,"lon":5.40919,"is_reserved":false,"is_disabled":false,"rental_uris":{"android":"levelo://app?vid=75785403-c74a-4e7f-93be-ce09638be4c9","ios":"levelo://app?vid=75785403-c74a-4e7f-93be-ce09638be4c9"},"vehicle_type_id":"4","last_reported":1729699894,"current_range_meters":38800,"station_id":"ce4bh192rcd13ifvqdc0","pricing_plan_id":"cebpf4jnsgd1na2vs0mg"},{"bike_id":"87f3e177-d3b7-4811-af40-3ac63b0b7f65","system_id":"levelo_inurba_marseille","lat":43.25574,"lon":5.38247,"is_reserved":false,"is_disabled":false,"rental_uris":{"android":"levelo://app?vid=87f3e177-d3b7-4811-af40-3ac63b0b7f65","ios":"levelo://app?vid=87f3e177-d3b7-4811-af40-3ac63b0b7f65"},"vehicle_type_id":"4","last_reported":1729699894,"current_range_meters":24000,"station_id":"ce4bhih2rcd13ifvqfs0","pricing_plan_id":"cebpf4jnsgd1na2vs0mg"},{"bike_id":"61808643-9571-4471-8f8a-eac48365dceb","system_id":"levelo_inurba_marseille","lat":43.23966,"lon":5.36633,"is_reserved":false,"is_disabled":false,"rental_uris":{"android":"levelo://app?vid=61808643-9571-4471-8f8a-eac48365dceb","ios":"levelo://app?vid=61808643-9571-4471-8f8a-eac48365dceb"},"vehicle_type_id":"4","last_reported":1729699894,"current_range_meters":4000,"station_id":"ce4bhi12rcd13ifvqfp0","pricing_plan_id":"cebpf4jnsgd1na2vs0mg"},{"bike_id":"1c6af9a1-9199-46a9-b711-1f1899c3ea50","system_id":"levelo_inurba_marseille","lat":43.2987,"lon":5.39731,"is_reserved":false,"is_disabled":false,"rental_uris":{"android":"levelo://app?vid=1c6af9a1-9199-46a9-b711-1f1899c3ea50","ios":"levelo://app?vid=1c6af9a1-9199-46a9-b711-1f1899c3ea50"},"vehicle_type_id":"4","last_reported":1729699894,"current_range_meters":14800,"station_id":"ce4bh0h2rcd13ifvqd50","pricing_plan_id":"cebpf4jnsgd1na2vs0mg"},{"bike_id":"c55304c6-2525-40f2-a3a8-bafb98a92289","system_id":"levelo_inurba_marseille","lat":43.29002,"lon":5.35611,"is_reserved":false,"is_disabled":false,"rental_uris":{"android":"levelo://app?vid=c55304c6-2525-40f2-a3a8-bafb98a92289","ios":"levelo://app?vid=c55304c6-2525-40f2-a3a8-bafb98a92289"},"vehicle_type_id":"4","last_reported":1729699894,"current_range_meters":38800,"station_id":"ce4bhb92rcd13ifvqen0","pricing_plan_id":"cebpf4jnsgd1na2vs0mg"},{"bike_id":"ddd6c60c-8814-4473-bdd9-036b05306720","system_id":"levelo_inurba_marseille","lat":43.281,"lon":5.37841,"is_reserved":false,"is_disabled":false,"rental_uris":{"android":"levelo://app?vid=ddd6c60c-8814-4473-bdd9-036b05306720","ios":"levelo://app?vid=ddd6c60c-8814-4473-bdd9-036b05306720"},"vehicle_type_id":"4","last_reported":1729699894,"current_range_meters":12400,"station_id":"ce4bha12rcd13ifvqee0","pricing_plan_id":"cebpf4jnsgd1na2vs0mg"},{"bike_id":"9fa1636a-0404-4b19-997d-8aaa7b0feb03","system_id":"levelo_inurba_marseille","lat":43.310242,"lon":5.375721,"is_reserved":false,"is_disabled":false,"rental_uris":{"android":"levelo://app?vid=9fa1636a-0404-4b19-997d-8aaa7b0feb03","ios":"levelo://app?vid=9fa1636a-0404-4b19-997d-8aaa7b0feb03"},"vehicle_type_id":"4","last_reported":1729699894,"current_range_meters":24800,"station_id":"ce4bguh2rcd13ifvqckg","pricing_plan_id":"cebpf4jnsgd1na2vs0mg"},{"bike_id":"5a73c92d-fea0-4340-907a-2b9093a3010a","system_id":"levelo_inurba_marseille","lat":43.31083,"lon":5.42431,"is_reserved":false,"is_disabled":false,"rental_uris":{"android":"levelo://app?vid=5a73c92d-fea0-4340-907a-2b9093a3010a","ios":"levelo://app?vid=5a73c92d-fea0-4340-907a-2b9093a3010a"},"vehicle_type_id":"4","last_reported":1729699894,"current_range_meters":4400,"station_id":"ce4bhp92rcd13ifvqhag","pricing_plan_id":"cebpf4jnsgd1na2vs0mg"},{"bike_id":"4ff8928f-f9c3-4616-86ad-fec1cc892029","system_id":"levelo_inurba_marseille","lat":43.26057,"lon":5.39397,"is_reserved":false,"is_disabled":false,"rental_uris":{"android":"levelo://app?vid=4ff8928f-f9c3-4616-86ad-fec1cc892029","ios":"levelo://app?vid=4ff8928f-f9c3-4616-86ad-fec1cc892029"},"vehicle_type_id":"4","last_reported":1729699894,"current_range_meters":38800,"station_id":"ce4bhh92rcd13ifvqfj0","pricing_plan_id":"cebpf4jnsgd1na2vs0mg"},{"bike_id":"e73937bb-21a5-4478-8188-70661859122c","system_id":"levelo_inurba_marseille","lat":43.28723,"lon":5.36109,"is_reserved":false,"is_disabled":false,"rental_uris":{"android":"levelo://app?vid=e73937bb-21a5-4478-8188-70661859122c","ios":"levelo://app?vid=e73937bb-21a5-4478-8188-70661859122c"},"vehicle_type_id":"4","last_reported":1729699894,"current_range_meters":24400,"station_id":"cki0cbj6b192h4jlfktg","pricing_plan_id":"cebpf4jnsgd1na2vs0mg"},{"bike_id":"815dd284-1bd2-4bb9-992a-b2116e2485bc","system_id":"levelo_inurba_marseille","lat":43.31355,"lon":5.36797,"is_reserved":false,"is_disabled":false,"rental_uris":{"android":"levelo://app?vid=815dd284-1bd2-4bb9-992a-b2116e2485bc","ios":"levelo://app?vid=815dd284-1bd2-4bb9-992a-b2116e2485bc"},"vehicle_type_id":"4","last_reported":1729699894,"current_range_meters":28400,"station_id":"","pricing_plan_id":"cebpf4jnsgd1na2vs0mg"},{"bike_id":"52da5630-6267-45fa-b773-9c285b9c5f14","system_id":"levelo_inurba_marseille","lat":43.295834,"lon":5.367478,"is_reserved":false,"is_disabled":false,"rental_uris":{"android":"levelo://app?vid=52da5630-6267-45fa-b773-9c285b9c5f14","ios":"levelo://app?vid=52da5630-6267-45fa-b773-9c285b9c5f14"},"vehicle_type_id":"4","last_reported":1729699894,"current_range_meters":38800,"station_id":"ce4bgph2rcd13ifvqc2g","pricing_plan_id":"cebpf4jnsgd1na2vs0mg"},{"bike_id":"d7ec6a0c-0d2c-44a0-94d5-dfbc8e7eb7d8","system_id":"levelo_inurba_marseille","lat":43.27808,"lon":5.40722,"is_reserved":false,"is_disabled":false,"rental_uris":{"android":"levelo://app?vid=d7ec6a0c-0d2c-44a0-94d5-dfbc8e7eb7d8","ios":"levelo://app?vid=d7ec6a0c-0d2c-44a0-94d5-dfbc8e7eb7d8"},"vehicle_type_id":"4","last_reported":1729699894,"current_range_meters":35200,"station_id":"ce4bhnh2rcd13ifvqgtg","pricing_plan_id":"cebpf4jnsgd1na2vs0mg"},{"bike_id":"d55cb384-a40c-47ef-8484-d482606c2483","system_id":"levelo_inurba_marseille","lat":43.2953,"lon":5.38545,"is_reserved":false,"is_disabled":false,"rental_uris":{"android":"levelo://app?vid=d55cb384-a40c-47ef-8484-d482606c2483","ios":"levelo://app?vid=d55cb384-a40c-47ef-8484-d482606c2483"},"vehicle_type_id":"4","last_reported":1729699894,"current_range_meters":8800,"station_id":"ce4bgih2rcd13ifvqba0","pricing_plan_id":"cebpf4jnsgd1na2vs0mg"},{"bike_id":"97e5c3ec-a0a1-4ed3-8393-a5cfe0cf2d13","system_id":"levelo_inurba_marseille","lat":43.3064,"lon":5.36794,"is_reserved":false,"is_disabled":false,"rental_uris":{"android":"levelo://app?vid=97e5c3ec-a0a1-4ed3-8393-a5cfe0cf2d13","ios":"levelo://app?vid=97e5c3ec-a0a1-4ed3-8393-a5cfe0cf2d13"},"vehicle_type_id":"4","last_reported":1729699894,"current_range_meters":16000,"station_id":"ce4bgqh2rcd13ifvqc5g","pricing_plan_id":"cebpf4jnsgd1na2vs0mg"},{"bike_id":"dd6acc0e-bd79-4f8d-bfeb-3beb9044870f","system_id":"levelo_inurba_marseille","lat":43.29799,"lon":5.38098,"is_reserved":false,"is_disabled":false,"rental_uris":{"android":"levelo://app?vid=dd6acc0e-bd79-4f8d-bfeb-3beb9044870f","ios":"levelo://app?vid=dd6acc0e-bd79-4f8d-bfeb-3beb9044870f"},"vehicle_type_id":"4","last_reported":1729699894,"current_range_meters":39200,"station_id":"ce4bgip2rcd13ifvqbb0","pricing_plan_id":"cebpf4jnsgd1na2vs0mg"},{"bike_id":"995dedfc-6623-4e07-92b7-58785cc57a73","system_id":"levelo_inurba_marseille","lat":43.28665,"lon":5.36349,"is_reserved":false,"is_disabled":false,"rental_uris":{"android":"levelo://app?vid=995dedfc-6623-4e07-92b7-58785cc57a73","ios":"levelo://app?vid=995dedfc-6623-4e07-92b7-58785cc57a73"},"vehicle_type_id":"4","last_reported":1729699894,"current_range_meters":32000,"station_id":"ce4bhah2rcd13ifvqej0","pricing_plan_id":"cebpf4jnsgd1na2vs0mg"},{"bike_id":"df10868e-90ef-48b9-bd0c-8259eb55e871","system_id":"levelo_inurba_marseille","lat":43.27369,"lon":5.36261,"is_reserved":false,"is_disabled":false,"rental_uris":{"android":"levelo://app?vid=df10868e-90ef-48b9-bd0c-8259eb55e871","ios":"levelo://app?vid=df10868e-90ef-48b9-bd0c-8259eb55e871"},"vehicle_type_id":"4","last_reported":1729699894,"current_range_meters":3200,"station_id":"ce4bhbh2rcd13ifvqeo0","pricing_plan_id":"cebpf4jnsgd1na2vs0mg"},{"bike_id":"0ab8d515-e616-4567-b15a-66fab3ca3306","system_id":"levelo_inurba_marseille","lat":43.294586,"lon":5.395925,"is_reserved":false,"is_disabled":false,"rental_uris":{"android":"levelo://app?vid=0ab8d515-e616-4567-b15a-66fab3ca3306","ios":"levelo://app?vid=0ab8d515-e616-4567-b15a-66fab3ca3306"},"vehicle_type_id":"4","last_reported":1729699894,"current_range_meters":11200,"station_id":"ce4bh292rcd13ifvqdf0","pricing_plan_id":"cebpf4jnsgd1na2vs0mg"},{"bike_id":"c5fc17b9-71be-4397-9e7a-2b70c63c9eab","system_id":"levelo_inurba_marseille","lat":43.28589,"lon":5.37061,"is_reserved":false,"is_disabled":false,"rental_uris":{"android":"levelo://app?vid=c5fc17b9-71be-4397-9e7a-2b70c63c9eab","ios":"levelo://app?vid=c5fc17b9-71be-4397-9e7a-2b70c63c9eab"},"vehicle_type_id":"4","last_reported":1729699894,"current_range_meters":37600,"station_id":"ce4bht12rcd13ifvqi60","pricing_plan_id":"cebpf4jnsgd1na2vs0mg"},{"bike_id":"0ed1cd0c-195f-4f4c-a2d7-2b662b9b3173","system_id":"levelo_inurba_marseille","lat":43.308909,"lon":5.396451,"is_reserved":false,"is_disabled":false,"rental_uris":{"android":"levelo://app?vid=0ed1cd0c-195f-4f4c-a2d7-2b662b9b3173","ios":"levelo://app?vid=0ed1cd0c-195f-4f4c-a2d7-2b662b9b3173"},"vehicle_type_id":"4","last_reported":1729699894,"current_range_meters":38800,"station_id":"ce4bh012rcd13ifvqcv0","pricing_plan_id":"cebpf4jnsgd1na2vs0mg"},{"bike_id":"4ccbcdf4-3636-4db2-a5a2-c282e51046d6","system_id":"levelo_inurba_marseille","lat":43.28926,"lon":5.36647,"is_reserved":false,"is_disabled":false,"rental_uris":{"android":"levelo://app?vid=4ccbcdf4-3636-4db2-a5a2-c282e51046d6","ios":"levelo://app?vid=4ccbcdf4-3636-4db2-a5a2-c282e51046d6"},"vehicle_type_id":"4","last_reported":1729699894,"current_range_meters":36800,"station_id":"ce4bhap2rcd13ifvqek0","pricing_plan_id":"cebpf4jnsgd1na2vs0mg"},{"bike_id":"0158fc7a-58e8-4b56-a7b9-0b5dafa10eb0","system_id":"levelo_inurba_marseille","lat":43.295881,"lon":5.399918,"is_reserved":false,"is_disabled":false,"rental_uris":{"android":"levelo://app?vid=0158fc7a-58e8-4b56-a7b9-0b5dafa10eb0","ios":"levelo://app?vid=0158fc7a-58e8-4b56-a7b9-0b5dafa10eb0"},"vehicle_type_id":"4","last_reported":1729699894,"current_range_meters":20000,"station_id":"ce4bh312rcd13ifvqdj0","pricing_plan_id":"cebpf4jnsgd1na2vs0mg"},{"bike_id":"09b99a85-9e27-4ec7-b9aa-54449b17bbe8","system_id":"levelo_inurba_marseille","lat":43.26195,"lon":5.3745,"is_reserved":false,"is_disabled":false,"rental_uris":{"android":"levelo://app?vid=09b99a85-9e27-4ec7-b9aa-54449b17bbe8","ios":"levelo://app?vid=09b99a85-9e27-4ec7-b9aa-54449b17bbe8"},"vehicle_type_id":"4","last_reported":1729699894,"current_range_meters":38800,"station_id":"ce4bhgp2rcd13ifvqfc0","pricing_plan_id":"cebpf4jnsgd1na2vs0mg"},{"bike_id":"db90455b-0d54-40e0-9937-252bddf30ea9","system_id":"levelo_inurba_marseille","lat":43.29258,"lon":5.38452,"is_reserved":false,"is_disabled":false,"rental_uris":{"android":"levelo://app?vid=db90455b-0d54-40e0-9937-252bddf30ea9","ios":"levelo://app?vid=db90455b-0d54-40e0-9937-252bddf30ea9"},"vehicle_type_id":"4","last_reported":1729699894,"current_range_meters":3200,"station_id":"ce4bh692rcd13ifvqea0","pricing_plan_id":"cebpf4jnsgd1na2vs0mg"},{"bike_id":"16837e62-d569-46b6-8ebd-f9627d9b15c1","system_id":"levelo_inurba_marseille","lat":43.29253,"lon":5.40903,"is_reserved":false,"is_disabled":false,"rental_uris":{"android":"levelo://app?vid=16837e62-d569-46b6-8ebd-f9627d9b15c1","ios":"levelo://app?vid=16837e62-d569-46b6-8ebd-f9627d9b15c1"},"vehicle_type_id":"4","last_reported":1729699894,"current_range_meters":20400,"station_id":"ce4bh192rcd13ifvqdc0","pricing_plan_id":"cebpf4jnsgd1na2vs0mg"},{"bike_id":"6a8500c7-d68f-415a-a5c7-8b2b318272ea","system_id":"levelo_inurba_marseille","lat":43.30431,"lon":5.38885,"is_reserved":false,"is_disabled":false,"rental_uris":{"android":"levelo://app?vid=6a8500c7-d68f-415a-a5c7-8b2b318272ea","ios":"levelo://app?vid=6a8500c7-d68f-415a-a5c7-8b2b318272ea"},"vehicle_type_id":"4","last_reported":1729699894,"current_range_meters":4400,"station_id":"ce4bgk12rcd13ifvqbi0","pricing_plan_id":"cebpf4jnsgd1na2vs0mg"},{"bike_id":"1cf94153-0634-4822-b9df-c5392fc7b9bc","system_id":"levelo_inurba_marseille","lat":43.29801,"lon":5.38105,"is_reserved":false,"is_disabled":false,"rental_uris":{"android":"levelo://app?vid=1cf94153-0634-4822-b9df-c5392fc7b9bc","ios":"levelo://app?vid=1cf94153-0634-4822-b9df-c5392fc7b9bc"},"vehicle_type_id":"4","last_reported":1729699894,"current_range_meters":38800,"station_id":"ce4bgip2rcd13ifvqbb0","pricing_plan_id":"cebpf4jnsgd1na2vs0mg"},{"bike_id":"e0616f23-ce3e-413f-902e-efb2b0f00a3a","system_id":"levelo_inurba_marseille","lat":43.337444,"lon":5.374475,"is_reserved":false,"is_disabled":false,"rental_uris":{"android":"levelo://app?vid=e0616f23-ce3e-413f-902e-efb2b0f00a3a","ios":"levelo://app?vid=e0616f23-ce3e-413f-902e-efb2b0f00a3a"},"vehicle_type_id":"4","last_reported":1729699894,"current_range_meters":17200,"station_id":"","pricing_plan_id":"cebpf4jnsgd1na2vs0mg"},{"bike_id":"0323a3dd-72fb-4f73-82c9-622daefa68a1","system_id":"levelo_inurba_marseille","lat":43.28344,"lon":5.38105,"is_reserved":false,"is_disabled":false,"rental_uris":{"android":"levelo://app?vid=0323a3dd-72fb-4f73-82c9-622daefa68a1","ios":"levelo://app?vid=0323a3dd-72fb-4f73-82c9-622daefa68a1"},"vehicle_type_id":"4","last_reported":1729699894,"current_range_meters":8400,"station_id":"ce4bh412rcd13ifvqdr0","pricing_plan_id":"cebpf4jnsgd1na2vs0mg"},{"bike_id":"14e8a1f0-2071-44e0-9b31-4380a284594f","system_id":"levelo_inurba_marseille","lat":43.26203,"lon":5.3792,"is_reserved":false,"is_disabled":false,"rental_uris":{"android":"levelo://app?vid=14e8a1f0-2071-44e0-9b31-4380a284594f","ios":"levelo://app?vid=14e8a1f0-2071-44e0-9b31-4380a284594f"},"vehicle_type_id":"4","last_reported":1729699894,"current_range_meters":5600,"station_id":"ce4bhjp2rcd13ifvqg90","pricing_plan_id":"cebpf4jnsgd1na2vs0mg"},{"bike_id":"42592e71-2fa9-40e2-8612-206be9ff2eaf","system_id":"levelo_inurba_marseille","lat":43.298615,"lon":5.397263,"is_reserved":false,"is_disabled":false,"rental_uris":{"android":"levelo://app?vid=42592e71-2fa9-40e2-8612-206be9ff2eaf","ios":"levelo://app?vid=42592e71-2fa9-40e2-8612-206be9ff2eaf"},"vehicle_type_id":"4","last_reported":1729699894,"current_range_meters":12400,"station_id":"ce4bh0h2rcd13ifvqd50","pricing_plan_id":"cebpf4jnsgd1na2vs0mg"},{"bike_id":"a0374b60-68e0-4f7c-b821-2cbdb02f123f","system_id":"levelo_inurba_marseille","lat":43.26063,"lon":5.39394,"is_reserved":false,"is_disabled":false,"rental_uris":{"android":"levelo://app?vid=a0374b60-68e0-4f7c-b821-2cbdb02f123f","ios":"levelo://app?vid=a0374b60-68e0-4f7c-b821-2cbdb02f123f"},"vehicle_type_id":"4","last_reported":1729699894,"current_range_meters":39200,"station_id":"ce4bhh92rcd13ifvqfj0","pricing_plan_id":"cebpf4jnsgd1na2vs0mg"},{"bike_id":"0bb73a9d-8aa0-4f04-90ca-6f6ef4398fb7","system_id":"levelo_inurba_marseille","lat":43.307861,"lon":5.376446,"is_reserved":false,"is_disabled":false,"rental_uris":{"android":"levelo://app?vid=0bb73a9d-8aa0-4f04-90ca-6f6ef4398fb7","ios":"levelo://app?vid=0bb73a9d-8aa0-4f04-90ca-6f6ef4398fb7"},"vehicle_type_id":"4","last_reported":1729699894,"current_range_meters":25600,"station_id":"ce4bgv92rcd13ifvqcq0","pricing_plan_id":"cebpf4jnsgd1na2vs0mg"},{"bike_id":"46373f51-5e49-4a54-9792-16b8a8c321a4","system_id":"levelo_inurba_marseille","lat":43.2987,"lon":5.39731,"is_reserved":false,"is_disabled":false,"rental_uris":{"android":"levelo://app?vid=46373f51-5e49-4a54-9792-16b8a8c321a4","ios":"levelo://app?vid=46373f51-5e49-4a54-9792-16b8a8c321a4"},"vehicle_type_id":"4","last_reported":1729699894,"current_range_meters":24400,"station_id":"ce4bh0h2rcd13ifvqd50","pricing_plan_id":"cebpf4jnsgd1na2vs0mg"},{"bike_id":"d92c4ee6-1f1b-4213-a8d7-e1229e9b1b68","system_id":"levelo_inurba_marseille","lat":43.29858,"lon":5.44149,"is_reserved":false,"is_disabled":false,"rental_uris":{"android":"levelo://app?vid=d92c4ee6-1f1b-4213-a8d7-e1229e9b1b68","ios":"levelo://app?vid=d92c4ee6-1f1b-4213-a8d7-e1229e9b1b68"},"vehicle_type_id":"4","last_reported":1729699894,"current_range_meters":4400,"station_id":"","pricing_plan_id":"cebpf4jnsgd1na2vs0mg"},{"bike_id":"be2103dd-8646-4732-a978-ecdaea234417","system_id":"levelo_inurba_marseille","lat":43.27906,"lon":5.38012,"is_reserved":false,"is_disabled":false,"rental_uris":{"android":"levelo://app?vid=be2103dd-8646-4732-a978-ecdaea234417","ios":"levelo://app?vid=be2103dd-8646-4732-a978-ecdaea234417"},"vehicle_type_id":"4","last_reported":1729699894,"current_range_meters":16800,"station_id":"ce4bhf92rcd13ifvqf50","pricing_plan_id":"cebpf4jnsgd1na2vs0mg"},{"bike_id":"c26b7724-29b5-4546-aeec-3ee179135caf","system_id":"levelo_inurba_marseille","lat":43.28725,"lon":5.36085,"is_reserved":false,"is_disabled":false,"rental_uris":{"android":"levelo://app?vid=c26b7724-29b5-4546-aeec-3ee179135caf","ios":"levelo://app?vid=c26b7724-29b5-4546-aeec-3ee179135caf"},"vehicle_type_id":"4","last_reported":1729699894,"current_range_meters":38800,"station_id":"cki0cbj6b192h4jlfktg","pricing_plan_id":"cebpf4jnsgd1na2vs0mg"},{"bike_id":"22f5c5dd-3fdc-4b6f-b148-f94f88d7804b","system_id":"levelo_inurba_marseille","lat":43.29583,"lon":5.3674,"is_reserved":false,"is_disabled":false,"rental_uris":{"android":"levelo://app?vid=22f5c5dd-3fdc-4b6f-b148-f94f88d7804b","ios":"levelo://app?vid=22f5c5dd-3fdc-4b6f-b148-f94f88d7804b"},"vehicle_type_id":"4","last_reported":1729699894,"current_range_meters":38000,"station_id":"ce4bgph2rcd13ifvqc2g","pricing_plan_id":"cebpf4jnsgd1na2vs0mg"},{"bike_id":"6a79ecb5-8956-4da9-ba7a-69326f6fa15a","system_id":"levelo_inurba_marseille","lat":43.26815,"lon":5.41118,"is_reserved":false,"is_disabled":false,"rental_uris":{"android":"levelo://app?vid=6a79ecb5-8956-4da9-ba7a-69326f6fa15a","ios":"levelo://app?vid=6a79ecb5-8956-4da9-ba7a-69326f6fa15a"},"vehicle_type_id":"4","last_reported":1729699894,"current_range_meters":28000,"station_id":"","pricing_plan_id":"cebpf4jnsgd1na2vs0mg"},{"bike_id":"3ab36ff9-a6c8-43b3-a5db-9fabfdfe177d","system_id":"levelo_inurba_marseille","lat":43.29788,"lon":5.39344,"is_reserved":false,"is_disabled":false,"rental_uris":{"android":"levelo://app?vid=3ab36ff9-a6c8-43b3-a5db-9fabfdfe177d","ios":"levelo://app?vid=3ab36ff9-a6c8-43b3-a5db-9fabfdfe177d"},"vehicle_type_id":"4","last_reported":1729699894,"current_range_meters":38800,"station_id":"chh1huq6cuj3fo74tm60","pricing_plan_id":"cebpf4jnsgd1na2vs0mg"},{"bike_id":"37756e87-889e-4e58-a95e-3bddaee4640a","system_id":"levelo_inurba_marseille","lat":43.286964,"lon":5.373908,"is_reserved":false,"is_disabled":false,"rental_uris":{"android":"levelo://app?vid=37756e87-889e-4e58-a95e-3bddaee4640a","ios":"levelo://app?vid=37756e87-889e-4e58-a95e-3bddaee4640a"},"vehicle_type_id":"4","last_reported":1729699894,"current_range_meters":39200,"station_id":"ce4bh3p2rcd13ifvqdq0","pricing_plan_id":"cebpf4jnsgd1na2vs0mg"},{"bike_id":"a6abc163-ead0-4db5-ad14-7a81ba1fc062","system_id":"levelo_inurba_marseille","lat":43.2958,"lon":5.36744,"is_reserved":false,"is_disabled":false,"rental_uris":{"android":"levelo://app?vid=a6abc163-ead0-4db5-ad14-7a81ba1fc062","ios":"levelo://app?vid=a6abc163-ead0-4db5-ad14-7a81ba1fc062"},"vehicle_type_id":"4","last_reported":1729699894,"current_range_meters":39200,"station_id":"ce4bgph2rcd13ifvqc2g","pricing_plan_id":"cebpf4jnsgd1na2vs0mg"},{"bike_id":"53f1bfc7-2258-4236-9496-d8bb8563c443","system_id":"levelo_inurba_marseille","lat":43.27049,"lon":5.40265,"is_reserved":false,"is_disabled":false,"rental_uris":{"android":"levelo://app?vid=53f1bfc7-2258-4236-9496-d8bb8563c443","ios":"levelo://app?vid=53f1bfc7-2258-4236-9496-d8bb8563c443"},"vehicle_type_id":"4","last_reported":1729699894,"current_range_meters":27600,"station_id":"ce4bhk92rcd13ifvqgc0","pricing_plan_id":"cebpf4jnsgd1na2vs0mg"},{"bike_id":"01d08235-a4e4-434f-8493-03de70774cab","system_id":"levelo_inurba_marseille","lat":43.32115,"lon":5.36779,"is_reserved":false,"is_disabled":false,"rental_uris":{"android":"levelo://app?vid=01d08235-a4e4-434f-8493-03de70774cab","ios":"levelo://app?vid=01d08235-a4e4-434f-8493-03de70774cab"},"vehicle_type_id":"4","last_reported":1729699894,"current_range_meters":37600,"station_id":"ce4bhrh2rcd13ifvqhug","pricing_plan_id":"cebpf4jnsgd1na2vs0mg"},{"bike_id":"3b3dc248-ead1-4e29-9f2d-1b309d908471","system_id":"levelo_inurba_marseille","lat":43.30775,"lon":5.37661,"is_reserved":false,"is_disabled":false,"rental_uris":{"android":"levelo://app?vid=3b3dc248-ead1-4e29-9f2d-1b309d908471","ios":"levelo://app?vid=3b3dc248-ead1-4e29-9f2d-1b309d908471"},"vehicle_type_id":"4","last_reported":1729699894,"current_range_meters":37600,"station_id":"ce4bgv92rcd13ifvqcq0","pricing_plan_id":"cebpf4jnsgd1na2vs0mg"},{"bike_id":"4ef72ef5-61a4-4c4f-9595-d6f29ddb5a65","system_id":"levelo_inurba_marseille","lat":43.29792,"lon":5.37103,"is_reserved":false,"is_disabled":false,"rental_uris":{"android":"levelo://app?vid=4ef72ef5-61a4-4c4f-9595-d6f29ddb5a65","ios":"levelo://app?vid=4ef72ef5-61a4-4c4f-9595-d6f29ddb5a65"},"vehicle_type_id":"4","last_reported":1729699894,"current_range_meters":38800,"station_id":"ce4bgop2rcd13ifvqc1g","pricing_plan_id":"cebpf4jnsgd1na2vs0mg"},{"bike_id":"93a4a277-4d33-49bf-bfe0-099c0e9419c2","system_id":"levelo_inurba_marseille","lat":43.30057,"lon":5.38693,"is_reserved":false,"is_disabled":false,"rental_uris":{"android":"levelo://app?vid=93a4a277-4d33-49bf-bfe0-099c0e9419c2","ios":"levelo://app?vid=93a4a277-4d33-49bf-bfe0-099c0e9419c2"},"vehicle_type_id":"4","last_reported":1729699894,"current_range_meters":4400,"station_id":"","pricing_plan_id":"cebpf4jnsgd1na2vs0mg"},{"bike_id":"14acd2f6-b577-4cae-a4f3-dd39254740e7","system_id":"levelo_inurba_marseille","lat":43.26194,"lon":5.37449,"is_reserved":false,"is_disabled":false,"rental_uris":{"android":"levelo://app?vid=14acd2f6-b577-4cae-a4f3-dd39254740e7","ios":"levelo://app?vid=14acd2f6-b577-4cae-a4f3-dd39254740e7"},"vehicle_type_id":"4","last_reported":1729699894,"current_range_meters":22400,"station_id":"ce4bhgp2rcd13ifvqfc0","pricing_plan_id":"cebpf4jnsgd1na2vs0mg"},{"bike_id":"b5ea669b-1e6c-457e-9390-82fc51ed9656","system_id":"levelo_inurba_marseille","lat":43.28105,"lon":5.37833,"is_reserved":false,"is_disabled":false,"rental_uris":{"android":"levelo://app?vid=b5ea669b-1e6c-457e-9390-82fc51ed9656","ios":"levelo://app?vid=b5ea669b-1e6c-457e-9390-82fc51ed9656"},"vehicle_type_id":"4","last_reported":1729699894,"current_range_meters":38800,"station_id":"ce4bha12rcd13ifvqee0","pricing_plan_id":"cebpf4jnsgd1na2vs0mg"},{"bike_id":"916b4fbd-ebc6-4fae-b990-a2e2a60d1e55","system_id":"levelo_inurba_marseille","lat":43.26946,"lon":5.38635,"is_reserved":false,"is_disabled":false,"rental_uris":{"android":"levelo://app?vid=916b4fbd-ebc6-4fae-b990-a2e2a60d1e55","ios":"levelo://app?vid=916b4fbd-ebc6-4fae-b990-a2e2a60d1e55"},"vehicle_type_id":"4","last_reported":1729699894,"current_range_meters":38800,"station_id":"ce4bhh92rcd13ifvqfh0","pricing_plan_id":"cebpf4jnsgd1na2vs0mg"},{"bike_id":"517ecd69-925a-40c6-a887-d6451e845ef8","system_id":"levelo_inurba_marseille","lat":43.28152,"lon":5.42634,"is_reserved":false,"is_disabled":false,"rental_uris":{"android":"levelo://app?vid=517ecd69-925a-40c6-a887-d6451e845ef8","ios":"levelo://app?vid=517ecd69-925a-40c6-a887-d6451e845ef8"},"vehicle_type_id":"4","last_reported":1729699894,"current_range_meters":38000,"station_id":"ce4bhnh2rcd13ifvqgug","pricing_plan_id":"cebpf4jnsgd1na2vs0mg"},{"bike_id":"840ffb30-c4ad-4784-a157-ab5671a438b3","system_id":"levelo_inurba_marseille","lat":43.2942,"lon":5.38637,"is_reserved":false,"is_disabled":false,"rental_uris":{"android":"levelo://app?vid=840ffb30-c4ad-4784-a157-ab5671a438b3","ios":"levelo://app?vid=840ffb30-c4ad-4784-a157-ab5671a438b3"},"vehicle_type_id":"4","last_reported":1729699894,"current_range_meters":22800,"station_id":"ce4bh2h2rcd13ifvqdh0","pricing_plan_id":"cebpf4jnsgd1na2vs0mg"},{"bike_id":"871dc51e-9a01-432f-a13f-95f6f091c2bf","system_id":"levelo_inurba_marseille","lat":43.2679,"lon":5.39413,"is_reserved":false,"is_disabled":false,"rental_uris":{"android":"levelo://app?vid=871dc51e-9a01-432f-a13f-95f6f091c2bf","ios":"levelo://app?vid=871dc51e-9a01-432f-a13f-95f6f091c2bf"},"vehicle_type_id":"4","last_reported":1729699894,"current_range_meters":16000,"station_id":"ce4bhh12rcd13ifvqfg0","pricing_plan_id":"cebpf4jnsgd1na2vs0mg"},{"bike_id":"bde3350f-ffb9-4d00-a4b2-05fd3ad65a66","system_id":"levelo_inurba_marseille","lat":43.2587,"lon":5.39914,"is_reserved":false,"is_disabled":false,"rental_uris":{"android":"levelo://app?vid=bde3350f-ffb9-4d00-a4b2-05fd3ad65a66","ios":"levelo://app?vid=bde3350f-ffb9-4d00-a4b2-05fd3ad65a66"},"vehicle_type_id":"4","last_reported":1729699894,"current_range_meters":25200,"station_id":"ce4bhl92rcd13ifvqghg","pricing_plan_id":"cebpf4jnsgd1na2vs0mg"},{"bike_id":"52712485-335e-496f-8993-243ef7c55ddf","system_id":"levelo_inurba_marseille","lat":43.28034,"lon":5.36954,"is_reserved":false,"is_disabled":false,"rental_uris":{"android":"levelo://app?vid=52712485-335e-496f-8993-243ef7c55ddf","ios":"levelo://app?vid=52712485-335e-496f-8993-243ef7c55ddf"},"vehicle_type_id":"4","last_reported":1729699894,"current_range_meters":38800,"station_id":"ce4bha12rcd13ifvqef0","pricing_plan_id":"cebpf4jnsgd1na2vs0mg"},{"bike_id":"f9b59784-da12-439d-9aa2-9f8418915ee9","system_id":"levelo_inurba_marseille","lat":43.27902,"lon":5.38018,"is_reserved":false,"is_disabled":false,"rental_uris":{"android":"levelo://app?vid=f9b59784-da12-439d-9aa2-9f8418915ee9","ios":"levelo://app?vid=f9b59784-da12-439d-9aa2-9f8418915ee9"},"vehicle_type_id":"4","last_reported":1729699894,"current_range_meters":38000,"station_id":"ce4bhf92rcd13ifvqf50","pricing_plan_id":"cebpf4jnsgd1na2vs0mg"},{"bike_id":"c2632a56-eb49-4576-89f2-24ffcb35cebd","system_id":"levelo_inurba_marseille","lat":43.26993,"lon":5.36568,"is_reserved":false,"is_disabled":false,"rental_uris":{"android":"levelo://app?vid=c2632a56-eb49-4576-89f2-24ffcb35cebd","ios":"levelo://app?vid=c2632a56-eb49-4576-89f2-24ffcb35cebd"},"vehicle_type_id":"4","last_reported":1729699894,"current_range_meters":23200,"station_id":"","pricing_plan_id":"cebpf4jnsgd1na2vs0mg"},{"bike_id":"106fd02d-b6d9-430b-9607-9235cab8a52a","system_id":"levelo_inurba_marseille","lat":43.28614,"lon":5.37068,"is_reserved":false,"is_disabled":false,"rental_uris":{"android":"levelo://app?vid=106fd02d-b6d9-430b-9607-9235cab8a52a","ios":"levelo://app?vid=106fd02d-b6d9-430b-9607-9235cab8a52a"},"vehicle_type_id":"4","last_reported":1729699894,"current_range_meters":6800,"station_id":"ce4bht12rcd13ifvqi60","pricing_plan_id":"cebpf4jnsgd1na2vs0mg"},{"bike_id":"d034e85d-ef9e-43d6-84d9-1bd7c05c866e","system_id":"levelo_inurba_marseille","lat":43.29529,"lon":5.3854,"is_reserved":false,"is_disabled":false,"rental_uris":{"android":"levelo://app?vid=d034e85d-ef9e-43d6-84d9-1bd7c05c866e","ios":"levelo://app?vid=d034e85d-ef9e-43d6-84d9-1bd7c05c866e"},"vehicle_type_id":"4","last_reported":1729699894,"current_range_meters":38800,"station_id":"ce4bgih2rcd13ifvqba0","pricing_plan_id":"cebpf4jnsgd1na2vs0mg"},{"bike_id":"7509b0a8-42e9-48a1-ba20-5c987b5742c5","system_id":"levelo_inurba_marseille","lat":43.29001,"lon":5.35615,"is_reserved":false,"is_disabled":false,"rental_uris":{"android":"levelo://app?vid=7509b0a8-42e9-48a1-ba20-5c987b5742c5","ios":"levelo://app?vid=7509b0a8-42e9-48a1-ba20-5c987b5742c5"},"vehicle_type_id":"4","last_reported":1729699894,"current_range_meters":20000,"station_id":"ce4bhb92rcd13ifvqen0","pricing_plan_id":"cebpf4jnsgd1na2vs0mg"},{"bike_id":"aa3471da-7bd1-429c-a698-625965acd396","system_id":"levelo_inurba_marseille","lat":43.28154,"lon":5.42645,"is_reserved":false,"is_disabled":false,"rental_uris":{"android":"levelo://app?vid=aa3471da-7bd1-429c-a698-625965acd396","ios":"levelo://app?vid=aa3471da-7bd1-429c-a698-625965acd396"},"vehicle_type_id":"4","last_reported":1729699894,"current_range_meters":20400,"station_id":"ce4bhnh2rcd13ifvqgug","pricing_plan_id":"cebpf4jnsgd1na2vs0mg"},{"bike_id":"eab42ee7-18a0-41bc-9a99-4a22fb3c4079","system_id":"levelo_inurba_marseille","lat":43.27948,"lon":5.41052,"is_reserved":false,"is_disabled":false,"rental_uris":{"android":"levelo://app?vid=eab42ee7-18a0-41bc-9a99-4a22fb3c4079","ios":"levelo://app?vid=eab42ee7-18a0-41bc-9a99-4a22fb3c4079"},"vehicle_type_id":"4","last_reported":1729699894,"current_range_meters":24800,"station_id":"ce4bhnp2rcd13ifvqh0g","pricing_plan_id":"cebpf4jnsgd1na2vs0mg"},{"bike_id":"a0b72556-b8a7-46fd-92d1-04c2a8567f0f","system_id":"levelo_inurba_marseille","lat":43.28934,"lon":5.36397,"is_reserved":false,"is_disabled":false,"rental_uris":{"android":"levelo://app?vid=a0b72556-b8a7-46fd-92d1-04c2a8567f0f","ios":"levelo://app?vid=a0b72556-b8a7-46fd-92d1-04c2a8567f0f"},"vehicle_type_id":"4","last_reported":1729699894,"current_range_meters":11600,"station_id":"ce4bhc92rcd13ifvqetg","pricing_plan_id":"cebpf4jnsgd1na2vs0mg"},{"bike_id":"fef0f77d-c431-44aa-b4d6-d4a905a06386","system_id":"levelo_inurba_marseille","lat":43.31686,"lon":5.40475,"is_reserved":false,"is_disabled":false,"rental_uris":{"android":"levelo://app?vid=fef0f77d-c431-44aa-b4d6-d4a905a06386","ios":"levelo://app?vid=fef0f77d-c431-44aa-b4d6-d4a905a06386"},"vehicle_type_id":"4","last_reported":1729699894,"current_range_meters":20800,"station_id":"ce4bh012rcd13ifvqd00","pricing_plan_id":"cebpf4jnsgd1na2vs0mg"},{"bike_id":"655e2135-934a-446f-a525-e22ee15481a2","system_id":"levelo_inurba_marseille","lat":43.29004,"lon":5.35618,"is_reserved":false,"is_disabled":false,"rental_uris":{"android":"levelo://app?vid=655e2135-934a-446f-a525-e22ee15481a2","ios":"levelo://app?vid=655e2135-934a-446f-a525-e22ee15481a2"},"vehicle_type_id":"4","last_reported":1729699894,"current_range_meters":36800,"station_id":"ce4bhb92rcd13ifvqen0","pricing_plan_id":"cebpf4jnsgd1na2vs0mg"},{"bike_id":"57d6cbb0-fed5-4cb1-b5e1-d4714f39e216","system_id":"levelo_inurba_marseille","lat":43.28367,"lon":5.38631,"is_reserved":false,"is_disabled":false,"rental_uris":{"android":"levelo://app?vid=57d6cbb0-fed5-4cb1-b5e1-d4714f39e216","ios":"levelo://app?vid=57d6cbb0-fed5-4cb1-b5e1-d4714f39e216"},"vehicle_type_id":"4","last_reported":1729699894,"current_range_meters":17600,"station_id":"ce4bh492rcd13ifvqdvg","pricing_plan_id":"cebpf4jnsgd1na2vs0mg"},{"bike_id":"206a80a8-9658-4fe4-b9e3-d676606d4be1","system_id":"levelo_inurba_marseille","lat":43.25503,"lon":5.37651,"is_reserved":false,"is_disabled":false,"rental_uris":{"android":"levelo://app?vid=206a80a8-9658-4fe4-b9e3-d676606d4be1","ios":"levelo://app?vid=206a80a8-9658-4fe4-b9e3-d676606d4be1"},"vehicle_type_id":"4","last_reported":1729699894,"current_range_meters":37600,"station_id":"ce4bhh12rcd13ifvqff0","pricing_plan_id":"cebpf4jnsgd1na2vs0mg"},{"bike_id":"5c5f630f-27a2-4cb1-96d8-b98bc77031bf","system_id":"levelo_inurba_marseille","lat":43.29044,"lon":5.39966,"is_reserved":false,"is_disabled":false,"rental_uris":{"android":"levelo://app?vid=5c5f630f-27a2-4cb1-96d8-b98bc77031bf","ios":"levelo://app?vid=5c5f630f-27a2-4cb1-96d8-b98bc77031bf"},"vehicle_type_id":"4","last_reported":1729699894,"current_range_meters":38400,"station_id":"ce4bh392rcd13ifvqdm0","pricing_plan_id":"cebpf4jnsgd1na2vs0mg"},{"bike_id":"97b12993-3daf-46aa-a448-2f73604b41c9","system_id":"levelo_inurba_marseille","lat":43.27175,"lon":5.40996,"is_reserved":false,"is_disabled":false,"rental_uris":{"android":"levelo://app?vid=97b12993-3daf-46aa-a448-2f73604b41c9","ios":"levelo://app?vid=97b12993-3daf-46aa-a448-2f73604b41c9"},"vehicle_type_id":"4","last_reported":1729699894,"current_range_meters":20400,"station_id":"ce4bhl12rcd13ifvqgf0","pricing_plan_id":"cebpf4jnsgd1na2vs0mg"},{"bike_id":"3bd25104-ed79-4ba2-b10b-33c8467db8ad","system_id":"levelo_inurba_marseille","lat":43.27954,"lon":5.38722,"is_reserved":false,"is_disabled":false,"rental_uris":{"android":"levelo://app?vid=3bd25104-ed79-4ba2-b10b-33c8467db8ad","ios":"levelo://app?vid=3bd25104-ed79-4ba2-b10b-33c8467db8ad"},"vehicle_type_id":"4","last_reported":1729699894,"current_range_meters":34000,"station_id":"ce4bhg12rcd13ifvqf80","pricing_plan_id":"cebpf4jnsgd1na2vs0mg"},{"bike_id":"d75c65d4-c40e-4f16-9d2a-d4f457ba650d","system_id":"levelo_inurba_marseille","lat":43.28343,"lon":5.38111,"is_reserved":false,"is_disabled":false,"rental_uris":{"android":"levelo://app?vid=d75c65d4-c40e-4f16-9d2a-d4f457ba650d","ios":"levelo://app?vid=d75c65d4-c40e-4f16-9d2a-d4f457ba650d"},"vehicle_type_id":"4","last_reported":1729699894,"current_range_meters":23200,"station_id":"ce4bh412rcd13ifvqdr0","pricing_plan_id":"cebpf4jnsgd1na2vs0mg"},{"bike_id":"2b664cb2-114e-4557-a831-58dee8ab2966","system_id":"levelo_inurba_marseille","lat":43.29203,"lon":5.35799,"is_reserved":false,"is_disabled":false,"rental_uris":{"android":"levelo://app?vid=2b664cb2-114e-4557-a831-58dee8ab2966","ios":"levelo://app?vid=2b664cb2-114e-4557-a831-58dee8ab2966"},"vehicle_type_id":"4","last_reported":1729699894,"current_range_meters":38800,"station_id":"ce4bhb12rcd13ifvqel0","pricing_plan_id":"cebpf4jnsgd1na2vs0mg"},{"bike_id":"695a170b-da5a-429c-8a9b-8cde75cf0017","system_id":"levelo_inurba_marseille","lat":43.24088,"lon":5.37745,"is_reserved":false,"is_disabled":false,"rental_uris":{"android":"levelo://app?vid=695a170b-da5a-429c-8a9b-8cde75cf0017","ios":"levelo://app?vid=695a170b-da5a-429c-8a9b-8cde75cf0017"},"vehicle_type_id":"4","last_reported":1729699894,"current_range_meters":19200,"station_id":"ce4bhnp2rcd13ifvqgvg","pricing_plan_id":"cebpf4jnsgd1na2vs0mg"},{"bike_id":"660cf255-45c2-4c6c-9c87-018dab77b45b","system_id":"levelo_inurba_marseille","lat":43.29869,"lon":5.39729,"is_reserved":false,"is_disabled":false,"rental_uris":{"android":"levelo://app?vid=660cf255-45c2-4c6c-9c87-018dab77b45b","ios":"levelo://app?vid=660cf255-45c2-4c6c-9c87-018dab77b45b"},"vehicle_type_id":"4","last_reported":1729699894,"current_range_meters":29600,"station_id":"ce4bh0h2rcd13ifvqd50","pricing_plan_id":"cebpf4jnsgd1na2vs0mg"},{"bike_id":"92005beb-3efd-47c1-9592-7325af565ffc","system_id":"levelo_inurba_marseille","lat":43.26206,"lon":5.3745,"is_reserved":false,"is_disabled":false,"rental_uris":{"android":"levelo://app?vid=92005beb-3efd-47c1-9592-7325af565ffc","ios":"levelo://app?vid=92005beb-3efd-47c1-9592-7325af565ffc"},"vehicle_type_id":"4","last_reported":1729699894,"current_range_meters":8000,"station_id":"ce4bhgp2rcd13ifvqfc0","pricing_plan_id":"cebpf4jnsgd1na2vs0mg"},{"bike_id":"b2fa8e38-5a30-4180-8257-6f297db1d331","system_id":"levelo_inurba_marseille","lat":43.26067,"lon":5.39394,"is_reserved":false,"is_disabled":false,"rental_uris":{"android":"levelo://app?vid=b2fa8e38-5a30-4180-8257-6f297db1d331","ios":"levelo://app?vid=b2fa8e38-5a30-4180-8257-6f297db1d331"},"vehicle_type_id":"4","last_reported":1729699894,"current_range_meters":30000,"station_id":"ce4bhh92rcd13ifvqfj0","pricing_plan_id":"cebpf4jnsgd1na2vs0mg"},{"bike_id":"02a5301d-b19a-444c-a0e2-1bcb6333aa95","system_id":"levelo_inurba_marseille","lat":43.28611,"lon":5.35107,"is_reserved":false,"is_disabled":false,"rental_uris":{"android":"levelo://app?vid=02a5301d-b19a-444c-a0e2-1bcb6333aa95","ios":"levelo://app?vid=02a5301d-b19a-444c-a0e2-1bcb6333aa95"},"vehicle_type_id":"4","last_reported":1729699894,"current_range_meters":31200,"station_id":"ce4bhch2rcd13ifvqeug","pricing_plan_id":"cebpf4jnsgd1na2vs0mg"},{"bike_id":"252b77b0-ae53-4c40-80e6-c82601a1ccbf","system_id":"levelo_inurba_marseille","lat":43.26948,"lon":5.38632,"is_reserved":false,"is_disabled":false,"rental_uris":{"android":"levelo://app?vid=252b77b0-ae53-4c40-80e6-c82601a1ccbf","ios":"levelo://app?vid=252b77b0-ae53-4c40-80e6-c82601a1ccbf"},"vehicle_type_id":"4","last_reported":1729699894,"current_range_meters":33200,"station_id":"ce4bhh92rcd13ifvqfh0","pricing_plan_id":"cebpf4jnsgd1na2vs0mg"},{"bike_id":"cf620e75-a4a5-4d24-80ca-0ca5faf2d441","system_id":"levelo_inurba_marseille","lat":43.28402,"lon":5.37513,"is_reserved":false,"is_disabled":false,"rental_uris":{"android":"levelo://app?vid=cf620e75-a4a5-4d24-80ca-0ca5faf2d441","ios":"levelo://app?vid=cf620e75-a4a5-4d24-80ca-0ca5faf2d441"},"vehicle_type_id":"4","last_reported":1729699894,"current_range_meters":39200,"station_id":"ce4bh412rcd13ifvqds0","pricing_plan_id":"cebpf4jnsgd1na2vs0mg"},{"bike_id":"70b84f39-399b-4542-99d5-131666876c7a","system_id":"levelo_inurba_marseille","lat":43.24072,"lon":5.37761,"is_reserved":false,"is_disabled":false,"rental_uris":{"android":"levelo://app?vid=70b84f39-399b-4542-99d5-131666876c7a","ios":"levelo://app?vid=70b84f39-399b-4542-99d5-131666876c7a"},"vehicle_type_id":"4","last_reported":1729699894,"current_range_meters":26800,"station_id":"ce4bhnp2rcd13ifvqgvg","pricing_plan_id":"cebpf4jnsgd1na2vs0mg"},