{"last_updated":1706544476,"ttl":30,"version":"2.2","data":{"bikes":[{"bike_id":"04843903-5845-43dd-b958-42304e0fa498","system_id":"levelo_inurba_marseille","lat":43.313554,"lon":5.367083,"is_reserved":false,"is_disabled":false,"rental_uris":{"android":"levelo://app?vid=04843903-5845-43dd-b958-42304e0fa498","ios":"levelo://app?vid=04843903-5845-43dd-b958-42304e0fa498"},"vehicle_type_id":"4","last_reported":1706544476,"current_range_meters":21600,"station_id":"ce4bgr92rcd13ifvqc6g","pricing_plan_id":"free"},{"bike_id":"931c7040-277f-4891-9f12-82ddc566ca5c","system_id":"levelo_inurba_marseille","lat":43.31363,"lon":5.36689,"is_reserved":false,"is_disabled":false,"rental_uris":{"android":"levelo://app?vid=931c7040-277f-4891-9f12-82ddc566ca5c","ios":"levelo://app?vid=931c7040-277f-4891-9f12-82ddc566ca5c"},"vehicle_type_id":"4","last_reported":1706544476,"current_range_meters":11600,"station_id":"ce4bgr92rcd13ifvqc6g","pricing_plan_id":"free"},{"bike_id":"f4cbe335-ec37-4b23-8c27-51a208444da4","system_id":"levelo_inurba_marseille","lat":43.312239,"lon":5.368562,"is_reserved":false,"is_disabled":false,"rental_uris":{"android":"levelo://app?vid=f4cbe335-ec37-4b23-8c27-51a208444da4","ios":"levelo://app?vid=f4cbe335-ec37-4b23-8c27-51a208444da4"},"vehicle_type_id":"4","last_reported":1706544476,"current_range_meters":29600,"station_id":"ce4bgl92rcd13ifvqbq0","pricing_plan_id":"free"},{"bike_id":"6a841c15-3b37-4099-b431-4740e3616aa2","system_id":"levelo_inurba_marseille","lat":43.312239,"lon":5.368562,"is_reserved":false,"is_disabled":false,"rental_uris":{"android":"levelo://app?vid=6a841c15-3b37-4099-b431-4740e3616aa2","ios":"levelo://app?vid=6a841c15-3b37-4099-b431-4740e3616aa2"},"vehicle_type_id":"4","last_reported":1706544476,"current_range_meters":26800,"station_id":"ce4bgl92rcd13ifvqbq0","pricing_plan_id":"free"},{"bike_id":"5f87f888-f1ce-4424-9d4a-5ef06bc1189a","system_id":"levelo_inurba_marseille","lat":43.312239,"lon":5.368562,"is_reserved":false,"is_disabled":false,"rental_uris":{"android":"levelo://app?vid=5f87f888-f1ce-4424-9d4a-5ef06bc1189a","ios":"levelo://app?vid=5f87f888-f1ce-4424-9d4a-5ef06bc1189a"},"vehicle_type_id":"4","last_reported":1706544476,"current_range_meters":6000,"station_id":"ce4bgl92rcd13ifvqbq0","pricing_plan_id":"free"},{"bike_id":"80df1059-8b80-421d-9910-81c4969ac55d","system_id":"levelo_inurba_marseille","lat":43.312259,"lon":5.368551,"is_reserved":false,"is_disabled":false,"rental_uris":{"android":"levelo://app?vid=80df1059-8b80-421d-9910-81c4969ac55d","ios":"levelo://app?vid=80df1059-8b80-421d-9910-81c4969ac55d"},"vehicle_type_id":"4","last_reported":1706544476,"current_range_meters":0,"station_id":"ce4bgl92rcd13ifvqbq0","pricing_plan_id":"free"},{"bike_id":"546a901e-e632-485e-ad73-2c308ae901d2","system_id":"levelo_inurba_marseille","lat":43.312239,"lon":5.368562,"is_reserved":false,"is_disabled":false,"rental_uris":{"android":"levelo://app?vid=546a901e-e632-485e-ad73-2c308ae901d2","ios":"levelo://app?vid=546a901e-e632-485e-ad73-2c308ae901d2"},"vehicle_type_id":"4","last_reported":1706544476,"current_range_meters":24400,"station_id":"ce4bgl92rcd13ifvqbq0","pricing_plan_id":"free"},{"bike_id":"e9584643-5861-4959-97cd-2318edab6c63","system_id":"levelo_inurba_marseille","lat":43.31223,"lon":5.36871,"is_reserved":false,"is_disabled":false,"rental_uris":{"android":"levelo://app?vid=e9584643-5861-4959-97cd-2318edab6c63","ios":"levelo://app?vid=e9584643-5861-4959-97cd-2318edab6c63"},"vehicle_type_id":"4","last_reported":1706544476,"current_range_meters":15200,"station_id":"","pricing_plan_id":"free"},{"bike_id":"d73472bd-51d1-4880-b1d4-cd93eae2a8bc","system_id":"levelo_inurba_marseille","lat":43.312239,"lon":5.368562,"is_reserved":false,"is_disabled":false,"rental_uris":{"android":"levelo://app?vid=d73472bd-51d1-4880-b1d4-cd93eae2a8bc","ios":"levelo://app?vid=d73472bd-51d1-4880-b1d4-cd93eae2a8bc"},"vehicle_type_id":"4","last_reported":1706544476,"current_range_meters":12000,"station_id":"ce4bgl92rcd13ifvqbq0","pricing_plan_id":"free"},{"bike_id":"ec72c98c-1991-447c-bf92-a8a15881d3fc","system_id":"levelo_inurba_marseille","lat":43.312239,"lon":5.368562,"is_reserved":false,"is_disabled":false,"rental_uris":{"android":"levelo://app?vid=ec72c98c-1991-447c-bf92-a8a15881d3fc","ios":"levelo://app?vid=ec72c98c-1991-447c-bf92-a8a15881d3fc"},"vehicle_type_id":"4","last_reported":1706544476,"current_range_meters":2400,"station_id":"ce4bgl92rcd13ifvqbq0","pricing_plan_id":"free"},{"bike_id":"d4e9e673-982e-4930-b2f9-0d2171c30cab","system_id":"levelo_inurba_marseille","lat":43.309076,"lon":5.368465,"is_reserved":false,"is_disabled":false,"rental_uris":{"android":"levelo://app?vid=d4e9e673-982e-4930-b2f9-0d2171c30cab","ios":"levelo://app?vid=d4e9e673-982e-4930-b2f9-0d2171c30cab"},"vehicle_type_id":"4","last_reported":1706544476,"current_range_meters":24800,"station_id":"ce4bgn92rcd13ifvqbvg","pricing_plan_id":"free"},{"bike_id":"6a2ebd47-7c9f-4c07-b77d-f86011e11a00","system_id":"levelo_inurba_marseille","lat":43.309076,"lon":5.368465,"is_reserved":false,"is_disabled":false,"rental_uris":{"android":"levelo://app?vid=6a2ebd47-7c9f-4c07-b77d-f86011e11a00","ios":"levelo://app?vid=6a2ebd47-7c9f-4c07-b77d-f86011e11a00"},"vehicle_type_id":"4","last_reported":1706544476,"current_range_meters":29200,"station_id":"ce4bgn92rcd13ifvqbvg","pricing_plan_id":"free"},{"bike_id":"341f2a42-2986-488d-8eef-bf47df82e9d5","system_id":"levelo_inurba_marseille","lat":43.309076,"lon":5.368465,"is_reserved":false,"is_disabled":false,"rental_uris":{"android":"levelo://app?vid=341f2a42-2986-488d-8eef-bf47df82e9d5","ios":"levelo://app?vid=341f2a42-2986-488d-8eef-bf47df82e9d5"},"vehicle_type_id":"4","last_reported":1706544476,"current_range_meters":28000,"station_id":"ce4bgn92rcd13ifvqbvg","pricing_plan_id":"free"},{"bike_id":"a4b94032-32c9-4daf-8a19-6dd9c17de77b","system_id":"levelo_inurba_marseille","lat":43.309076,"lon":5.368465,"is_reserved":false,"is_disabled":false,"rental_uris":{"android":"levelo://app?vid=a4b94032-32c9-4daf-8a19-6dd9c17de77b","ios":"levelo://app?vid=a4b94032-32c9-4daf-8a19-6dd9c17de77b"},"vehicle_type_id":"4","last_reported":1706544476,"current_range_meters":28800,"station_id":"ce4bgn92rcd13ifvqbvg","pricing_plan_id":"free"},{"bike_id":"4dd26e8b-6747-43bf-b462-39f88ef6fcf3","system_id":"levelo_inurba_marseille","lat":43.309076,"lon":5.368465,"is_reserved":false,"is_disabled":false,"rental_uris":{"android":"levelo://app?vid=4dd26e8b-6747-43bf-b462-39f88ef6fcf3","ios":"levelo://app?vid=4dd26e8b-6747-43bf-b462-39f88ef6fcf3"},"vehicle_type_id":"4","last_reported":1706544476,"current_range_meters":26800,"station_id":"ce4bgn92rcd13ifvqbvg","pricing_plan_id":"free"},{"bike_id":"f3006d6d-d3ea-4d15-9e5a-23da6d9ef3a6","system_id":"levelo_inurba_marseille","lat":43.309076,"lon":5.368465,"is_reserved":false,"is_disabled":false,"rental_uris":{"android":"levelo://app?vid=f3006d6d-d3ea-4d15-9e5a-23da6d9ef3a6","ios":"levelo://app?vid=f3006d6d-d3ea-4d15-9e5a-23da6d9ef3a6"},"vehicle_type_id":"4","last_reported":1706544476,"current_range_meters":5600,"station_id":"ce4bgn92rcd13ifvqbvg","pricing_plan_id":"free"},{"bike_id":"188e8514-c3b1-4c4d-b701-a2ae24697539","system_id":"levelo_inurba_marseille","lat":43.309076,"lon":5.368465,"is_reserved":false,"is_disabled":false,"rental_uris":{"android":"levelo://app?vid=188e8514-c3b1-4c4d-b701-a2ae24697539","ios":"levelo://app?vid=188e8514-c3b1-4c4d-b701-a2ae24697539"},"vehicle_type_id":"4","last_reported":1706544476,"current_range_meters":22800,"station_id":"ce4bgn92rcd13ifvqbvg","pricing_plan_id":"free"},{"bike_id":"7dbd1896-ec74-4621-a001-02eeacb0bbed","system_id":"levelo_inurba_marseille","lat":43.314811,"lon":5.373104,"is_reserved":false,"is_disabled":false,"rental_uris":{"android":"levelo://app?vid=7dbd1896-ec74-4621-a001-02eeacb0bbed","ios":"levelo://app?vid=7dbd1896-ec74-4621-a001-02eeacb0bbed"},"vehicle_type_id":"4","last_reported":1706544476,"current_range_meters":13200,"station_id":"ce4bgt12rcd13ifvqcd0","pricing_plan_id":"free"},{"bike_id":"8ff15db4-6981-4e48-b95d-39b033497b35","system_id":"levelo_inurba_marseille","lat":43.314811,"lon":5.373104,"is_reserved":false,"is_disabled":false,"rental_uris":{"android":"levelo://app?vid=8ff15db4-6981-4e48-b95d-39b033497b35","ios":"levelo://app?vid=8ff15db4-6981-4e48-b95d-39b033497b35"},"vehicle_type_id":"4","last_reported":1706544476,"current_range_meters":7600,"station_id":"ce4bgt12rcd13ifvqcd0","pricing_plan_id":"free"},{"bike_id":"5f73586c-7e3d-47e5-8209-006fa003b0a7","system_id":"levelo_inurba_marseille","lat":43.314811,"lon":5.373104,"is_reserved":false,"is_disabled":false,"rental_uris":{"android":"levelo://app?vid=5f73586c-7e3d-47e5-8209-006fa003b0a7","ios":"levelo://app?vid=5f73586c-7e3d-47e5-8209-006fa003b0a7"},"vehicle_type_id":"4","last_reported":1706544476,"current_range_meters":25200,"station_id":"ce4bgt12rcd13ifvqcd0","pricing_plan_id":"free"},{"bike_id":"3ea0e5a5-f29a-416a-b68d-3dd815f14e8f","system_id":"levelo_inurba_marseille","lat":43.314811,"lon":5.373103,"is_reserved":false,"is_disabled":false,"rental_uris":{"android":"levelo://app?vid=3ea0e5a5-f29a-416a-b68d-3dd815f14e8f","ios":"levelo://app?vid=3ea0e5a5-f29a-416a-b68d-3dd815f14e8f"},"vehicle_type_id":"4","last_reported":1706544476,"current_range_meters":6400,"station_id":"ce4bgt12rcd13ifvqcd0","pricing_plan_id":"free"},{"bike_id":"648845a9-df6f-4e05-8841-0f92dac36dbf","system_id":"levelo_inurba_marseille","lat":43.308012,"lon":5.381511,"is_reserved":false,"is_disabled":false,"rental_uris":{"android":"levelo://app?vid=648845a9-df6f-4e05-8841-0f92dac36dbf","ios":"levelo://app?vid=648845a9-df6f-4e05-8841-0f92dac36dbf"},"vehicle_type_id":"4","last_reported":1706544476,"current_range_meters":6800,"station_id":"ce4bgt12rcd13ifvqce0","pricing_plan_id":"free"},{"bike_id":"de5a65f3-32ef-4357-84ac-a7b355bce129","system_id":"levelo_inurba_marseille","lat":43.309039,"lon":5.371797,"is_reserved":false,"is_disabled":false,"rental_uris":{"android":"levelo://app?vid=de5a65f3-32ef-4357-84ac-a7b355bce129","ios":"levelo://app?vid=de5a65f3-32ef-4357-84ac-a7b355bce129"},"vehicle_type_id":"4","last_reported":1706544476,"current_range_meters":25200,"station_id":"ce4bguh2rcd13ifvqckg","pricing_plan_id":"free"},{"bike_id":"1c95ad1d-fb4d-4838-a474-15d071f466cb","system_id":"levelo_inurba_marseille","lat":43.309039,"lon":5.371797,"is_reserved":false,"is_disabled":false,"rental_uris":{"android":"levelo://app?vid=1c95ad1d-fb4d-4838-a474-15d071f466cb","ios":"levelo://app?vid=1c95ad1d-fb4d-4838-a474-15d071f466cb"},"vehicle_type_id":"4","last_reported":1706544476,"current_range_meters":14800,"station_id":"ce4bguh2rcd13ifvqckg","pricing_plan_id":"free"},{"bike_id":"cbd70952-1313-4d03-8026-5b654aad9f8a","system_id":"levelo_inurba_marseille","lat":43.309039,"lon":5.371797,"is_reserved":false,"is_disabled":false,"rental_uris":{"android":"levelo://app?vid=cbd70952-1313-4d03-8026-5b654aad9f8a","ios":"levelo://app?vid=cbd70952-1313-4d03-8026-5b654aad9f8a"},"vehicle_type_id":"4","last_reported":1706544476,"current_range_meters":17600,"station_id":"ce4bguh2rcd13ifvqckg","pricing_plan_id":"free"},{"bike_id":"7bafc538-726b-4860-a947-d43a20c720c1","system_id":"levelo_inurba_marseille","lat":43.309039,"lon":5.371797,"is_reserved":false,"is_disabled":false,"rental_uris":{"android":"levelo://app?vid=7bafc538-726b-4860-a947-d43a20c720c1","ios":"levelo://app?vid=7bafc538-726b-4860-a947-d43a20c720c1"},"vehicle_type_id":"4","last_reported":1706544476,"current_range_meters":14800,"station_id":"ce4bguh2rcd13ifvqckg","pricing_plan_id":"free"},{"bike_id":"4cad58e6-7139-4e48-946a-857217e2c726","system_id":"levelo_inurba_marseille","lat":43.305714,"lon":5.365633,"is_reserved":false,"is_disabled":false,"rental_uris":{"android":"levelo://app?vid=4cad58e6-7139-4e48-946a-857217e2c726","ios":"levelo://app?vid=4cad58e6-7139-4e48-946a-857217e2c726"},"vehicle_type_id":"4","last_reported":1706544476,"current_range_meters":24400,"station_id":"ce4bgs12rcd13ifvqcag","pricing_plan_id":"free"},{"bike_id":"5729b710-3045-4c25-bf05-27ce6f7fcedb","system_id":"levelo_inurba_marseille","lat":43.305714,"lon":5.365633,"is_reserved":false,"is_disabled":false,"rental_uris":{"android":"levelo://app?vid=5729b710-3045-4c25-bf05-27ce6f7fcedb","ios":"levelo://app?vid=5729b710-3045-4c25-bf05-27ce6f7fcedb"},"vehicle_type_id":"4","last_reported":1706544476,"current_range_meters":15200,"station_id":"ce4bgs12rcd13ifvqcag","pricing_plan_id":"free"},{"bike_id":"36ebfd77-e256-480a-a3d3-3f2b7db138cc","system_id":"levelo_inurba_marseille","lat":43.305714,"lon":5.365633,"is_reserved":false,"is_disabled":false,"rental_uris":{"android":"levelo://app?vid=36ebfd77-e256-480a-a3d3-3f2b7db138cc","ios":"levelo://app?vid=36ebfd77-e256-480a-a3d3-3f2b7db138cc"},"vehicle_type_id":"4","last_reported":1706544476,"current_range_meters":0,"station_id":"ce4bgs12rcd13ifvqcag","pricing_plan_id":"free"},{"bike_id":"c6ba9283-b51f-4ff9-a93b-1467e21eef5c","system_id":"levelo_inurba_marseille","lat":43.305714,"lon":5.365633,"is_reserved":false,"is_disabled":false,"rental_uris":{"android":"levelo://app?vid=c6ba9283-b51f-4ff9-a93b-1467e21eef5c","ios":"levelo://app?vid=c6ba9283-b51f-4ff9-a93b-1467e21eef5c"},"vehicle_type_id":"4","last_reported":1706544476,"current_range_meters":5600,"station_id":"ce4bgs12rcd13ifvqcag","pricing_plan_id":"free"},{"bike_id":"b7c68b00-8098-4955-b7c0-69bc79eafdaf","system_id":"levelo_inurba_marseille","lat":43.305989,"lon":5.37225,"is_reserved":false,"is_disabled":false,"rental_uris":{"android":"levelo://app?vid=b7c68b00-8098-4955-b7c0-69bc79eafdaf","ios":"levelo://app?vid=b7c68b00-8098-4955-b7c0-69bc79eafdaf"},"vehicle_type_id":"4","last_reported":1706544476,"current_range_meters":8400,"station_id":"ce4bgqh2rcd13ifvqc4g","pricing_plan_id":"free"},{"bike_id":"97807fe8-66d7-4795-ae9e-56808d441591","system_id":"levelo_inurba_marseille","lat":43.311125,"lon":5.377624,"is_reserved":false,"is_disabled":false,"rental_uris":{"android":"levelo://app?vid=97807fe8-66d7-4795-ae9e-56808d441591","ios":"levelo://app?vid=97807fe8-66d7-4795-ae9e-56808d441591"},"vehicle_type_id":"4","last_reported":1706544476,"current_range_meters":10800,"station_id":"ce4bgt92rcd13ifvqcg0","pricing_plan_id":"free"},{"bike_id":"3675c48b-aef4-41a9-b64c-e208a1e8b5eb","system_id":"levelo_inurba_marseille","lat":43.311125,"lon":5.377624,"is_reserved":false,"is_disabled":false,"rental_uris":{"android":"levelo://app?vid=3675c48b-aef4-41a9-b64c-e208a1e8b5eb","ios":"levelo://app?vid=3675c48b-aef4-41a9-b64c-e208a1e8b5eb"},"vehicle_type_id":"4","last_reported":1706544476,"current_range_meters":13600,"station_id":"ce4bgt92rcd13ifvqcg0","pricing_plan_id":"free"},{"bike_id":"0a16828c-533c-44f1-9669-ddd707722ef2","system_id":"levelo_inurba_marseille","lat":43.30304,"lon":5.36867,"is_reserved":false,"is_disabled":false,"rental_uris":{"android":"levelo://app?vid=0a16828c-533c-44f1-9669-ddd707722ef2","ios":"levelo://app?vid=0a16828c-533c-44f1-9669-ddd707722ef2"},"vehicle_type_id":"4","last_reported":1706544476,"current_range_meters":26000,"station_id":"","pricing_plan_id":"free"},{"bike_id":"b83daeb9-a39c-4884-86e2-16a37c651f7f","system_id":"levelo_inurba_marseille","lat":43.32007,"lon":5.3762,"is_reserved":false,"is_disabled":false,"rental_uris":{"android":"levelo://app?vid=b83daeb9-a39c-4884-86e2-16a37c651f7f","ios":"levelo://app?vid=b83daeb9-a39c-4884-86e2-16a37c651f7f"},"vehicle_type_id":"4","last_reported":1706544476,"current_range_meters":800,"station_id":"","pricing_plan_id":"free"},{"bike_id":"1da19099-0f63-49c6-b35b-07b92c78caf7","system_id":"levelo_inurba_marseille","lat":43.308012,"lon":5.381511,"is_reserved":false,"is_disabled":false,"rental_uris":{"android":"levelo://app?vid=1da19099-0f63-49c6-b35b-07b92c78caf7","ios":"levelo://app?vid=1da19099-0f63-49c6-b35b-07b92c78caf7"},"vehicle_type_id":"4","last_reported":1706544476,"current_range_meters":0,"station_id":"ce4bgt12rcd13ifvqce0","pricing_plan_id":"free"},{"bike_id":"cd4f3f17-1a33-49e1-9ba2-3a2c3adb6f08","system_id":"levelo_inurba_marseille","lat":43.308012,"lon":5.381511,"is_reserved":false,"is_disabled":false,"rental_uris":{"android":"levelo://app?vid=cd4f3f17-1a33-49e1-9ba2-3a2c3adb6f08","ios":"levelo://app?vid=cd4f3f17-1a33-49e1-9ba2-3a2c3adb6f08"},"vehicle_type_id":"4","last_reported":1706544476,"current_range_meters":2400,"station_id":"ce4bgt12rcd13ifvqce0","pricing_plan_id":"free"},{"bike_id":"145405e6-cd9b-4631-bfc1-bba3bcf828e2","system_id":"levelo_inurba_marseille","lat":43.308012,"lon":5.381511,"is_reserved":false,"is_disabled":false,"rental_uris":{"android":"levelo://app?vid=145405e6-cd9b-4631-bfc1-bba3bcf828e2","ios":"levelo://app?vid=145405e6-cd9b-4631-bfc1-bba3bcf828e2"},"vehicle_type_id":"4","last_reported":1706544476,"current_range_meters":14800,"station_id":"ce4bgt12rcd13ifvqce0","pricing_plan_id":"free"},{"bike_id":"5c87b9e3-8fe3-4a9b-834f-19c28b4ac60d","system_id":"levelo_inurba_marseille","lat":43.308012,"lon":5.381511,"is_reserved":false,"is_disabled":false,"rental_uris":{"android":"levelo://app?vid=5c87b9e3-8fe3-4a9b-834f-19c28b4ac60d","ios":"levelo://app?vid=5c87b9e3-8fe3-4a9b-834f-19c28b4ac60d"},"vehicle_type_id":"4","last_reported":1706544476,"current_range_meters":8400,"station_id":"ce4bgt12rcd13ifvqce0","pricing_plan_id":"free"},{"bike_id":"ba48ffd0-9b54-4b66-8888-ec0e2f4253e3","system_id":"levelo_inurba_marseille","lat":43.30466,"lon":5.37912,"is_reserved":false,"is_disabled":false,"rental_uris":{"android":"levelo://app?vid=ba48ffd0-9b54-4b66-8888-ec0e2f4253e3","ios":"levelo://app?vid=ba48ffd0-9b54-4b66-8888-ec0e2f4253e3"},"vehicle_type_id":"4","last_reported":1706544476,"current_range_meters":0,"station_id":"ce4bgup2rcd13ifvqcn0","pricing_plan_id":"free"},{"bike_id":"2d40c143-6cb5-4df6-a200-396289dcd0f5","system_id":"levelo_inurba_marseille","lat":43.324771,"lon":5.36557,"is_reserved":false,"is_disabled":false,"rental_uris":{"android":"levelo://app?vid=2d40c143-6cb5-4df6-a200-396289dcd0f5","ios":"levelo://app?vid=2d40c143-6cb5-4df6-a200-396289dcd0f5"},"vehicle_type_id":"4","last_reported":1706544476,"current_range_meters":4000,"station_id":"ce4bhs12rcd13ifvqhvg","pricing_plan_id":"free"},{"bike_id":"dc00bdf8-dc57-4b02-8d44-8ea4906debe3","system_id":"levelo_inurba_marseille","lat":43.324771,"lon":5.36557,"is_reserved":false,"is_disabled":false,"rental_uris":{"android":"levelo://app?vid=dc00bdf8-dc57-4b02-8d44-8ea4906debe3","ios":"levelo://app?vid=dc00bdf8-dc57-4b02-8d44-8ea4906debe3"},"vehicle_type_id":"4","last_reported":1706544476,"current_range_meters":12800,"station_id":"ce4bhs12rcd13ifvqhvg","pricing_plan_id":"free"},{"bike_id":"4c1d912b-8425-4b28-bcd4-0691a1724560","system_id":"levelo_inurba_marseille","lat":43.324793,"lon":5.365729,"is_reserved":false,"is_disabled":false,"rental_uris":{"android":"levelo://app?vid=4c1d912b-8425-4b28-bcd4-0691a1724560","ios":"levelo://app?vid=4c1d912b-8425-4b28-bcd4-0691a1724560"},"vehicle_type_id":"4","last_reported":1706544476,"current_range_meters":28400,"station_id":"ce4bhs12rcd13ifvqhvg","pricing_plan_id":"free"},{"bike_id":"13bd44b9-8ecb-46da-981f-fe222ffce708","system_id":"levelo_inurba_marseille","lat":43.324771,"lon":5.36557,"is_reserved":false,"is_disabled":false,"rental_uris":{"android":"levelo://app?vid=13bd44b9-8ecb-46da-981f-fe222ffce708","ios":"levelo://app?vid=13bd44b9-8ecb-46da-981f-fe222ffce708"},"vehicle_type_id":"4","last_reported":1706544476,"current_range_meters":13200,"station_id":"ce4bhs12rcd13ifvqhvg","pricing_plan_id":"free"},{"bike_id":"96bada0b-1fa9-4706-87e9-8f67e261e440","system_id":"levelo_inurba_marseille","lat":43.324771,"lon":5.36557,"is_reserved":false,"is_disabled":false,"rental_uris":{"android":"levelo://app?vid=96bada0b-1fa9-4706-87e9-8f67e261e440","ios":"levelo://app?vid=96bada0b-1fa9-4706-87e9-8f67e261e440"},"vehicle_type_id":"4","last_reported":1706544476,"current_range_meters":24400,"station_id":"ce4bhs12rcd13ifvqhvg","pricing_plan_id":"free"},{"bike_id":"73a4dd7e-3535-4a58-88e5-7190a34a9585","system_id":"levelo_inurba_marseille","lat":43.302884,"lon":5.376954,"is_reserved":false,"is_disabled":false,"rental_uris":{"android":"levelo://app?vid=73a4dd7e-3535-4a58-88e5-7190a34a9585","ios":"levelo://app?vid=73a4dd7e-3535-4a58-88e5-7190a34a9585"},"vehicle_type_id":"4","last_reported":1706544476,"current_range_meters":10800,"station_id":"ce4bguh2rcd13ifvqcj0","pricing_plan_id":"free"},{"bike_id":"5ed2df3d-5f5c-4bf3-9add-a195549f07a7","system_id":"levelo_inurba_marseille","lat":43.302879,"lon":5.376959,"is_reserved":false,"is_disabled":false,"rental_uris":{"android":"levelo://app?vid=5ed2df3d-5f5c-4bf3-9add-a195549f07a7","ios":"levelo://app?vid=5ed2df3d-5f5c-4bf3-9add-a195549f07a7"},"vehicle_type_id":"4","last_reported":1706544476,"current_range_meters":1200,"station_id":"ce4bguh2rcd13ifvqcj0","pricing_plan_id":"free"},{"bike_id":"bd1100ff-daf6-4b30-b59b-f57c1367d06a","system_id":"levelo_inurba_marseille","lat":43.30287,"lon":5.37695,"is_reserved":false,"is_disabled":false,"rental_uris":{"android":"levelo://app?vid=bd1100ff-daf6-4b30-b59b-f57c1367d06a","ios":"levelo://app?vid=bd1100ff-daf6-4b30-b59b-f57c1367d06a"},"vehicle_type_id":"4","last_reported":1706544476,"current_range_meters":11600,"station_id":"ce4bguh2rcd13ifvqcj0","pricing_plan_id":"free"},{"bike_id":"41472b67-fce3-4a2b-a379-8688238cfc48","system_id":"levelo_inurba_marseille","lat":43.30143,"lon":5.37413,"is_reserved":false,"is_disabled":false,"rental_uris":{"android":"levelo://app?vid=41472b67-fce3-4a2b-a379-8688238cfc48","ios":"levelo://app?vid=41472b67-fce3-4a2b-a379-8688238cfc48"},"vehicle_type_id":"4","last_reported":1706544476,"current_range_meters":18000,"station_id":"ce4bgs92rcd13ifvqcc0","pricing_plan_id":"free"},{"bike_id":"640444d4-3e7a-40f2-914a-ff698f841566","system_id":"levelo_inurba_marseille","lat":43.30143,"lon":5.37413,"is_reserved":false,"is_disabled":false,"rental_uris":{"android":"levelo://app?vid=640444d4-3e7a-40f2-914a-ff698f841566","ios":"levelo://app?vid=640444d4-3e7a-40f2-914a-ff698f841566"},"vehicle_type_id":"4","last_reported":1706544476,"current_range_meters":30800,"station_id":"ce4bgs92rcd13ifvqcc0","pricing_plan_id":"free"},{"bike_id":"0ca84510-6630-47d1-867a-145dbc99d2a1","system_id":"levelo_inurba_marseille","lat":43.319935,"lon":5.381699,"is_reserved":false,"is_disabled":false,"rental_uris":{"android":"levelo://app?vid=0ca84510-6630-47d1-867a-145dbc99d2a1","ios":"levelo://app?vid=0ca84510-6630-47d1-867a-145dbc99d2a1"},"vehicle_type_id":"4","last_reported":1706544476,"current_range_meters":21600,"station_id":"ce4bhr12rcd13ifvqhpg","pricing_plan_id":"free"},{"bike_id":"dd6b7008-c30f-4316-8921-b5028f9d3f38","system_id":"levelo_inurba_marseille","lat":43.319935,"lon":5.381699,"is_reserved":false,"is_disabled":false,"rental_uris":{"android":"levelo://app?vid=dd6b7008-c30f-4316-8921-b5028f9d3f38","ios":"levelo://app?vid=dd6b7008-c30f-4316-8921-b5028f9d3f38"},"vehicle_type_id":"4","last_reported":1706544476,"current_range_meters":21600,"station_id":"ce4bhr12rcd13ifvqhpg","pricing_plan_id":"free"},{"bike_id":"3eb8bae8-3728-4e69-9514-fcfe11f73458","system_id":"levelo_inurba_marseille","lat":43.313571,"lon":5.384829,"is_reserved":false,"is_disabled":false,"rental_uris":{"android":"levelo://app?vid=3eb8bae8-3728-4e69-9514-fcfe11f73458","ios":"levelo://app?vid=3eb8bae8-3728-4e69-9514-fcfe11f73458"},"vehicle_type_id":"4","last_reported":1706544476,"current_range_meters":12000,"station_id":"ce4bgt92rcd13ifvqcf0","pricing_plan_id":"free"},{"bike_id":"cd30b5a5-782c-4eab-93e0-5189b5d36bf3","system_id":"levelo_inurba_marseille","lat":43.313612,"lon":5.384925,"is_reserved":false,"is_disabled":false,"rental_uris":{"android":"levelo://app?vid=cd30b5a5-782c-4eab-93e0-5189b5d36bf3","ios":"levelo://app?vid=cd30b5a5-782c-4eab-93e0-5189b5d36bf3"},"vehicle_type_id":"4","last_reported":1706544476,"current_range_meters":6400,"station_id":"ce4bgt92rcd13ifvqcf0","pricing_plan_id":"free"},{"bike_id":"652b8d16-5bd7-4de8-bf81-facfa640661c","system_id":"levelo_inurba_marseille","lat":43.31358,"lon":5.38496,"is_reserved":false,"is_disabled":false,"rental_uris":{"android":"levelo://app?vid=652b8d16-5bd7-4de8-bf81-facfa640661c","ios":"levelo://app?vid=652b8d16-5bd7-4de8-bf81-facfa640661c"},"vehicle_type_id":"4","last_reported":1706544476,"current_range_meters":4000,"station_id":"ce4bgt92rcd13ifvqcf0","pricing_plan_id":"free"},{"bike_id":"0dbe5ce8-dd34-43a5-bd28-391f1086762f","system_id":"levelo_inurba_marseille","lat":43.31366,"lon":5.38501,"is_reserved":false,"is_disabled":false,"rental_uris":{"android":"levelo://app?vid=0dbe5ce8-dd34-43a5-bd28-391f1086762f","ios":"levelo://app?vid=0dbe5ce8-dd34-43a5-bd28-391f1086762f"},"vehicle_type_id":"4","last_reported":1706544476,"current_range_meters":9200,"station_id":"ce4bgt92rcd13ifvqcf0","pricing_plan_id":"free"},{"bike_id":"0259dced-62f5-476e-aee1-f6531bc7aba2","system_id":"levelo_inurba_marseille","lat":43.29856,"lon":5.36287,"is_reserved":false,"is_disabled":false,"rental_uris":{"android":"levelo://app?vid=0259dced-62f5-476e-aee1-f6531bc7aba2","ios":"levelo://app?vid=0259dced-62f5-476e-aee1-f6531bc7aba2"},"vehicle_type_id":"4","last_reported":1706544476,"current_range_meters":20000,"station_id":"ce4bgpp2rcd13ifvqc3g","pricing_plan_id":"free"},{"bike_id":"88167a8b-cc53-48b1-883b-4c086330f74e","system_id":"levelo_inurba_marseille","lat":43.298433,"lon":5.362774,"is_reserved":false,"is_disabled":false,"rental_uris":{"android":"levelo://app?vid=88167a8b-cc53-48b1-883b-4c086330f74e","ios":"levelo://app?vid=88167a8b-cc53-48b1-883b-4c086330f74e"},"vehicle_type_id":"4","last_reported":1706544476,"current_range_meters":27200,"station_id":"ce4bgpp2rcd13ifvqc3g","pricing_plan_id":"free"},{"bike_id":"6ec94acd-8e42-467d-b63a-a54102d67760","system_id":"levelo_inurba_marseille","lat":43.298433,"lon":5.362774,"is_reserved":false,"is_disabled":false,"rental_uris":{"android":"levelo://app?vid=6ec94acd-8e42-467d-b63a-a54102d67760","ios":"levelo://app?vid=6ec94acd-8e42-467d-b63a-a54102d67760"},"vehicle_type_id":"4","last_reported":1706544476,"current_range_meters":29200,"station_id":"ce4bgpp2rcd13ifvqc3g","pricing_plan_id":"free"},{"bike_id":"6fba19b3-644d-4409-b0d0-485499170717","system_id":"levelo_inurba_marseille","lat":43.298433,"lon":5.362774,"is_reserved":false,"is_disabled":false,"rental_uris":{"android":"levelo://app?vid=6fba19b3-644d-4409-b0d0-485499170717","ios":"levelo://app?vid=6fba19b3-644d-4409-b0d0-485499170717"},"vehicle_type_id":"4","last_reported":1706544476,"current_range_meters":20800,"station_id":"ce4bgpp2rcd13ifvqc3g","pricing_plan_id":"free"},{"bike_id":"bda5d657-b7cb-40b2-bbdc-0dedd4cc3f68","system_id":"levelo_inurba_marseille","lat":43.298433,"lon":5.362774,"is_reserved":false,"is_disabled":false,"rental_uris":{"android":"levelo://app?vid=bda5d657-b7cb-40b2-bbdc-0dedd4cc3f68","ios":"levelo://app?vid=bda5d657-b7cb-40b2-bbdc-0dedd4cc3f68"},"vehicle_type_id":"4","last_reported":1706544476,"current_range_meters":31600,"station_id":"ce4bgpp2rcd13ifvqc3g","pricing_plan_id":"free"},{"bike_id":"892c741b-1f2a-4682-bccc-d86340ce7a45","system_id":"levelo_inurba_marseille","lat":43.311722,"lon":5.387247,"is_reserved":false,"is_disabled":false,"rental_uris":{"android":"levelo://app?vid=892c741b-1f2a-4682-bccc-d86340ce7a45","ios":"levelo://app?vid=892c741b-1f2a-4682-bccc-d86340ce7a45"},"vehicle_type_id":"4","last_reported":1706544476,"current_range_meters":15600,"station_id":"ce4bgv12rcd13ifvqcp0","pricing_plan_id":"free"},{"bike_id":"5876cef5-cec1-4b07-9011-5242055275c1","system_id":"levelo_inurba_marseille","lat":43.299243,"lon":5.374807,"is_reserved":false,"is_disabled":false,"rental_uris":{"android":"levelo://app?vid=5876cef5-cec1-4b07-9011-5242055275c1","ios":"levelo://app?vid=5876cef5-cec1-4b07-9011-5242055275c1"},"vehicle_type_id":"4","last_reported":1706544476,"current_range_meters":22000,"station_id":"ce4bgjh2rcd13ifvqbg0","pricing_plan_id":"free"},{"bike_id":"57655d1a-9b56-47a0-800c-1c2e3f9fef6d","system_id":"levelo_inurba_marseille","lat":43.299243,"lon":5.374807,"is_reserved":false,"is_disabled":false,"rental_uris":{"android":"levelo://app?vid=57655d1a-9b56-47a0-800c-1c2e3f9fef6d","ios":"levelo://app?vid=57655d1a-9b56-47a0-800c-1c2e3f9fef6d"},"vehicle_type_id":"4","last_reported":1706544476,"current_range_meters":14400,"station_id":"ce4bgjh2rcd13ifvqbg0","pricing_plan_id":"free"},{"bike_id":"6dc3a08d-e5ee-4d82-8aa0-6f7d8f98290c","system_id":"levelo_inurba_marseille","lat":43.29909,"lon":5.37469,"is_reserved":false,"is_disabled":false,"rental_uris":{"android":"levelo://app?vid=6dc3a08d-e5ee-4d82-8aa0-6f7d8f98290c","ios":"levelo://app?vid=6dc3a08d-e5ee-4d82-8aa0-6f7d8f98290c"},"vehicle_type_id":"4","last_reported":1706544476,"current_range_meters":9600,"station_id":"ce4bgjh2rcd13ifvqbg0","pricing_plan_id":"free"},{"bike_id":"1ea964bb-c93e-4b11-b10c-60edd3dc53bf","system_id":"levelo_inurba_marseille","lat":43.299114,"lon":5.37484,"is_reserved":false,"is_disabled":false,"rental_uris":{"android":"levelo://app?vid=1ea964bb-c93e-4b11-b10c-60edd3dc53bf","ios":"levelo://app?vid=1ea964bb-c93e-4b11-b10c-60edd3dc53bf"},"vehicle_type_id":"4","last_reported":1706544476,"current_range_meters":12800,"station_id":"ce4bgjh2rcd13ifvqbg0","pricing_plan_id":"free"},{"bike_id":"f219cbcb-8702-4a28-baf4-99495d68514f","system_id":"levelo_inurba_marseille","lat":43.297794,"lon":5.370888,"is_reserved":false,"is_disabled":false,"rental_uris":{"android":"levelo://app?vid=f219cbcb-8702-4a28-baf4-99495d68514f","ios":"levelo://app?vid=f219cbcb-8702-4a28-baf4-99495d68514f"},"vehicle_type_id":"4","last_reported":1706544476,"current_range_meters":0,"station_id":"ce4bgop2rcd13ifvqc1g","pricing_plan_id":"free"},{"bike_id":"369fab7d-3aef-489c-a0f6-c627dacda0a8","system_id":"levelo_inurba_marseille","lat":43.29794,"lon":5.371138,"is_reserved":false,"is_disabled":false,"rental_uris":{"android":"levelo://app?vid=369fab7d-3aef-489c-a0f6-c627dacda0a8","ios":"levelo://app?vid=369fab7d-3aef-489c-a0f6-c627dacda0a8"},"vehicle_type_id":"4","last_reported":1706544476,"current_range_meters":23600,"station_id":"ce4bgop2rcd13ifvqc1g","pricing_plan_id":"free"},{"bike_id":"0c5f3176-72ec-47b0-af92-24ac906eb193","system_id":"levelo_inurba_marseille","lat":43.297794,"lon":5.370888,"is_reserved":false,"is_disabled":false,"rental_uris":{"android":"levelo://app?vid=0c5f3176-72ec-47b0-af92-24ac906eb193","ios":"levelo://app?vid=0c5f3176-72ec-47b0-af92-24ac906eb193"},"vehicle_type_id":"4","last_reported":1706544476,"current_range_meters":25600,"station_id":"ce4bgop2rcd13ifvqc1g","pricing_plan_id":"free"},{"bike_id":"a0ca7013-684a-4fc1-8e12-cfc9a3619d75","system_id":"levelo_inurba_marseille","lat":43.297794,"lon":5.370888,"is_reserved":false,"is_disabled":false,"rental_uris":{"android":"levelo://app?vid=a0ca7013-684a-4fc1-8e12-cfc9a3619d75","ios":"levelo://app?vid=a0ca7013-684a-4fc1-8e12-cfc9a3619d75"},"vehicle_type_id":"4","last_reported":1706544476,"current_range_meters":15200,"station_id":"ce4bgop2rcd13ifvqc1g","pricing_plan_id":"free"},{"bike_id":"e1539f0d-02e3-46ca-8fd2-b115fd55a782","system_id":"levelo_inurba_marseille","lat":43.322872,"lon":5.382756,"is_reserved":false,"is_disabled":false,"rental_uris":{"android":"levelo://app?vid=e1539f0d-02e3-46ca-8fd2-b115fd55a782","ios":"levelo://app?vid=e1539f0d-02e3-46ca-8fd2-b115fd55a782"},"vehicle_type_id":"4","last_reported":1706544476,"current_range_meters":19600,"station_id":"ce4bhr12rcd13ifvqhqg","pricing_plan_id":"free"},{"bike_id":"da669c02-ed5d-4764-a763-a0425441c3dd","system_id":"levelo_inurba_marseille","lat":43.328371,"lon":5.366909,"is_reserved":false,"is_disabled":false,"rental_uris":{"android":"levelo://app?vid=da669c02-ed5d-4764-a763-a0425441c3dd","ios":"levelo://app?vid=da669c02-ed5d-4764-a763-a0425441c3dd"},"vehicle_type_id":"4","last_reported":1706544476,"current_range_meters":22000,"station_id":"ce4bhs92rcd13ifvqi0g","pricing_plan_id":"free"},{"bike_id":"130b58fa-a932-43c4-81d1-5e51cdae3712","system_id":"levelo_inurba_marseille","lat":43.32831,"lon":5.36666,"is_reserved":false,"is_disabled":false,"rental_uris":{"android":"levelo://app?vid=130b58fa-a932-43c4-81d1-5e51cdae3712","ios":"levelo://app?vid=130b58fa-a932-43c4-81d1-5e51cdae3712"},"vehicle_type_id":"4","last_reported":1706544476,"current_range_meters":16000,"station_id":"ce4bhs92rcd13ifvqi0g","pricing_plan_id":"free"},{"bike_id":"d57909cb-3e98-4c2d-823f-aaa0142a4d84","system_id":"levelo_inurba_marseille","lat":43.297163,"lon":5.365866,"is_reserved":false,"is_disabled":false,"rental_uris":{"android":"levelo://app?vid=d57909cb-3e98-4c2d-823f-aaa0142a4d84","ios":"levelo://app?vid=d57909cb-3e98-4c2d-823f-aaa0142a4d84"},"vehicle_type_id":"4","last_reported":1706544476,"current_range_meters":14800,"station_id":"ce4bgn12rcd13ifvqbt0","pricing_plan_id":"free"},{"bike_id":"1c9d37d0-9c22-419e-afa7-1697cb75aab3","system_id":"levelo_inurba_marseille","lat":43.328371,"lon":5.366909,"is_reserved":false,"is_disabled":false,"rental_uris":{"android":"levelo://app?vid=1c9d37d0-9c22-419e-afa7-1697cb75aab3","ios":"levelo://app?vid=1c9d37d0-9c22-419e-afa7-1697cb75aab3"},"vehicle_type_id":"4","last_reported":1706544476,"current_range_meters":18000,"station_id":"ce4bhs92rcd13ifvqi0g","pricing_plan_id":"free"},{"bike_id":"cb79e3ef-946f-4592-b416-b80effca0f4a","system_id":"levelo_inurba_marseille","lat":43.328371,"lon":5.366909,"is_reserved":false,"is_disabled":false,"rental_uris":{"android":"levelo://app?vid=cb79e3ef-946f-4592-b416-b80effca0f4a","ios":"levelo://app?vid=cb79e3ef-946f-4592-b416-b80effca0f4a"},"vehicle_type_id":"4","last_reported":1706544476,"current_range_meters":22000,"station_id":"ce4bhs92rcd13ifvqi0g","pricing_plan_id":"free"},{"bike_id":"62a39899-82cd-4c3b-b049-30fd1b5fe314","system_id":"levelo_inurba_marseille","lat":43.297163,"lon":5.365866,"is_reserved":false,"is_disabled":false,"rental_uris":{"android":"levelo://app?vid=62a39899-82cd-4c3b-b049-30fd1b5fe314","ios":"levelo://app?vid=62a39899-82cd-4c3b-b049-30fd1b5fe314"},"vehicle_type_id":"4","last_reported":1706544476,"current_range_meters":26800,"station_id":"ce4bgn12rcd13ifvqbt0","pricing_plan_id":"free"},{"bike_id":"144e9723-2d2e-4e41-a08b-5a32ffd367ab","system_id":"levelo_inurba_marseille","lat":43.297163,"lon":5.365866,"is_reserved":false,"is_disabled":false,"rental_uris":{"android":"levelo://app?vid=144e9723-2d2e-4e41-a08b-5a32ffd367ab","ios":"levelo://app?vid=144e9723-2d2e-4e41-a08b-5a32ffd367ab"},"vehicle_type_id":"4","last_reported":1706544476,"current_range_meters":2000,"station_id":"ce4bgn12rcd13ifvqbt0","pricing_plan_id":"free"},{"bike_id":"12d7300c-7281-4d65-b928-1f4a31310a0c","system_id":"levelo_inurba_marseille","lat":43.328371,"lon":5.366909,"is_reserved":false,"is_disabled":false,"rental_uris":{"android":"levelo://app?vid=12d7300c-7281-4d65-b928-1f4a31310a0c","ios":"levelo://app?vid=12d7300c-7281-4d65-b928-1f4a31310a0c"},"vehicle_type_id":"4","last_reported":1706544476,"current_range_meters":20400,"station_id":"ce4bhs92rcd13ifvqi0g","pricing_plan_id":"free"},{"bike_id":"9cc30769-75e2-40a7-b116-b561ec6b360f","system_id":"levelo_inurba_marseille","lat":43.32838,"lon":5.36673,"is_reserved":false,"is_disabled":false,"rental_uris":{"android":"levelo://app?vid=9cc30769-75e2-40a7-b116-b561ec6b360f","ios":"levelo://app?vid=9cc30769-75e2-40a7-b116-b561ec6b360f"},"vehicle_type_id":"4","last_reported":1706544476,"current_range_meters":2800,"station_id":"ce4bhs92rcd13ifvqi0g","pricing_plan_id":"free"},{"bike_id":"ee35c80c-ea86-47db-8121-b923f6040d40","system_id":"levelo_inurba_marseille","lat":43.2968,"lon":5.37291,"is_reserved":false,"is_disabled":false,"rental_uris":{"android":"levelo://app?vid=ee35c80c-ea86-47db-8121-b923f6040d40","ios":"levelo://app?vid=ee35c80c-ea86-47db-8121-b923f6040d40"},"vehicle_type_id":"4","last_reported":1706544476,"current_range_meters":25600,"station_id":"ce4bgk12rcd13ifvqbj0","pricing_plan_id":"free"},{"bike_id":"e892e710-274f-47ba-ad95-fc494f99ff98","system_id":"levelo_inurba_marseille","lat":43.290631,"lon":5.359244,"is_reserved":false,"is_disabled":false,"rental_uris":{"android":"levelo://app?vid=e892e710-274f-47ba-ad95-fc494f99ff98","ios":"levelo://app?vid=e892e710-274f-47ba-ad95-fc494f99ff98"},"vehicle_type_id":"4","last_reported":1706544476,"current_range_meters":26000,"station_id":"ce4bha92rcd13ifvqeg0","pricing_plan_id":"free"},{"bike_id":"8fcae272-4c23-4b86-8895-37f3debf2faa","system_id":"levelo_inurba_marseille","lat":43.29573,"lon":5.367355,"is_reserved":false,"is_disabled":false,"rental_uris":{"android":"levelo://app?vid=8fcae272-4c23-4b86-8895-37f3debf2faa","ios":"levelo://app?vid=8fcae272-4c23-4b86-8895-37f3debf2faa"},"vehicle_type_id":"4","last_reported":1706544476,"current_range_meters":26000,"station_id":"ce4bgph2rcd13ifvqc2g","pricing_plan_id":"free"},{"bike_id":"876515e9-f788-402a-8dbd-63373e523578","system_id":"levelo_inurba_marseille","lat":43.29617,"lon":5.37148,"is_reserved":false,"is_disabled":false,"rental_uris":{"android":"levelo://app?vid=876515e9-f788-402a-8dbd-63373e523578","ios":"levelo://app?vid=876515e9-f788-402a-8dbd-63373e523578"},"vehicle_type_id":"4","last_reported":1706544476,"current_range_meters":0,"station_id":"ce4bgnh2rcd13ifvqc0g","pricing_plan_id":"free"},{"bike_id":"5b6639f7-a9d5-4a43-a667-8c2dd4f7b83c","system_id":"levelo_inurba_marseille","lat":43.29573,"lon":5.367355,"is_reserved":false,"is_disabled":false,"rental_uris":{"android":"levelo://app?vid=5b6639f7-a9d5-4a43-a667-8c2dd4f7b83c","ios":"levelo://app?vid=5b6639f7-a9d5-4a43-a667-8c2dd4f7b83c"},"vehicle_type_id":"4","last_reported":1706544476,"current_range_meters":3600,"station_id":"ce4bgph2rcd13ifvqc2g","pricing_plan_id":"free"},{"bike_id":"472597d8-ff34-42ef-8539-ef2875478983","system_id":"levelo_inurba_marseille","lat":43.296921,"lon":5.376579,"is_reserved":false,"is_disabled":false,"rental_uris":{"android":"levelo://app?vid=472597d8-ff34-42ef-8539-ef2875478983","ios":"levelo://app?vid=472597d8-ff34-42ef-8539-ef2875478983"},"vehicle_type_id":"4","last_reported":1706544476,"current_range_meters":16000,"station_id":"ce4bgkh2rcd13ifvqbl0","pricing_plan_id":"free"},{"bike_id":"0cb6197a-1a94-4335-80f6-d73333f368d2","system_id":"levelo_inurba_marseille","lat":43.3176,"lon":5.39007,"is_reserved":false,"is_disabled":false,"rental_uris":{"android":"levelo://app?vid=0cb6197a-1a94-4335-80f6-d73333f368d2","ios":"levelo://app?vid=0cb6197a-1a94-4335-80f6-d73333f368d2"},"vehicle_type_id":"4","last_reported":1706544476,"current_range_meters":21600,"station_id":"ce4bhqp2rcd13ifvqhng","pricing_plan_id":"free"},{"bike_id":"967bb5df-d3c0-404c-9005-c5d9aa8d91c0","system_id":"levelo_inurba_marseille","lat":43.317557,"lon":5.390173,"is_reserved":false,"is_disabled":false,"rental_uris":{"android":"levelo://app?vid=967bb5df-d3c0-404c-9005-c5d9aa8d91c0","ios":"levelo://app?vid=967bb5df-d3c0-404c-9005-c5d9aa8d91c0"},"vehicle_type_id":"4","last_reported":1706544476,"current_range_meters":20800,"station_id":"ce4bhqp2rcd13ifvqhng","pricing_plan_id":"free"},{"bike_id":"4cec4bde-649c-49a4-876a-22eebf63ac40","system_id":"levelo_inurba_marseille","lat":43.298037,"lon":5.381066,"is_reserved":false,"is_disabled":false,"rental_uris":{"android":"levelo://app?vid=4cec4bde-649c-49a4-876a-22eebf63ac40","ios":"levelo://app?vid=4cec4bde-649c-49a4-876a-22eebf63ac40"},"vehicle_type_id":"4","last_reported":1706544476,"current_range_meters":12800,"station_id":"ce4bgip2rcd13ifvqbb0","pricing_plan_id":"free"},{"bike_id":"ad27608d-752e-40c0-b311-ec8fdf9beaf1","system_id":"levelo_inurba_marseille","lat":43.295748,"lon":5.37522,"is_reserved":false,"is_disabled":false,"rental_uris":{"android":"levelo://app?vid=ad27608d-752e-40c0-b311-ec8fdf9beaf1","ios":"levelo://app?vid=ad27608d-752e-40c0-b311-ec8fdf9beaf1"},"vehicle_type_id":"4","last_reported":1706544476,"current_range_meters":27600,"station_id":"ce4bgh92rcd13ifvqb50","pricing_plan_id":"free"},{"bike_id":"95cab6dd-2913-40fb-bc9d-910f202f15b3","system_id":"levelo_inurba_marseille","lat":43.298037,"lon":5.381066,"is_reserved":false,"is_disabled":false,"rental_uris":{"android":"levelo://app?vid=95cab6dd-2913-40fb-bc9d-910f202f15b3","ios":"levelo://app?vid=95cab6dd-2913-40fb-bc9d-910f202f15b3"},"vehicle_type_id":"4","last_reported":1706544476,"current_range_meters":27200,"station_id":"ce4bgip2rcd13ifvqbb0","pricing_plan_id":"free"},{"bike_id":"bf74e604-5cc0-4b00-ac60-4ab635a026e3","system_id":"levelo_inurba_marseille","lat":43.295748,"lon":5.37522,"is_reserved":false,"is_disabled":false,"rental_uris":{"android":"levelo://app?vid=bf74e604-5cc0-4b00-ac60-4ab635a026e3","ios":"levelo://app?vid=bf74e604-5cc0-4b00-ac60-4ab635a026e3"},"vehicle_type_id":"4","last_reported":1706544476,"current_range_meters":3600,"station_id":"ce4bgh92rcd13ifvqb50","pricing_plan_id":"free"},{"bike_id":"7fbb844e-4ff6-49e3-b9f6-2d9338a5d01e","system_id":"levelo_inurba_marseille","lat":43.29783,"lon":5.3809,"is_reserved":false,"is_disabled":false,"rental_uris":{"android":"levelo://app?vid=7fbb844e-4ff6-49e3-b9f6-2d9338a5d01e","ios":"levelo://app?vid=7fbb844e-4ff6-49e3-b9f6-2d9338a5d01e"},"vehicle_type_id":"4","last_reported":1706544476,"current_range_meters":0,"station_id":"ce4bgip2rcd13ifvqbb0","pricing_plan_id":"free"},{"bike_id":"fa891e45-7b1c-4ebe-99aa-cd03add1fb82","system_id":"levelo_inurba_marseille","lat":43.295748,"lon":5.37522,"is_reserved":false,"is_disabled":false,"rental_uris":{"android":"levelo://app?vid=fa891e45-7b1c-4ebe-99aa-cd03add1fb82","ios":"levelo://app?vid=fa891e45-7b1c-4ebe-99aa-cd03add1fb82"},"vehicle_type_id":"4","last_reported":1706544476,"current_range_meters":4400,"station_id":"ce4bgh92rcd13ifvqb50","pricing_plan_id":"free"},{"bike_id":"7f8c1b6a-e327-4957-ba7c-0802e693be2c","system_id":"levelo_inurba_marseille","lat":43.30433,"lon":5.38891,"is_reserved":false,"is_disabled":false,"rental_uris":{"android":"levelo://app?vid=7f8c1b6a-e327-4957-ba7c-0802e693be2c","ios":"levelo://app?vid=7f8c1b6a-e327-4957-ba7c-0802e693be2c"},"vehicle_type_id":"4","last_reported":1706544476,"current_range_meters":2000,"station_id":"ce4bgk12rcd13ifvqbi0","pricing_plan_id":"free"},{"bike_id":"6c04310f-c31a-4b7a-90c4-43e54d6ab995","system_id":"levelo_inurba_marseille","lat":43.296277,"lon":5.377108,"is_reserved":false,"is_disabled":false,"rental_uris":{"android":"levelo://app?vid=6c04310f-c31a-4b7a-90c4-43e54d6ab995","ios":"levelo://app?vid=6c04310f-c31a-4b7a-90c4-43e54d6ab995"},"vehicle_type_id":"4","last_reported":1706544476,"current_range_meters":16800,"station_id":"ce4bgi92rcd13ifvqb90","pricing_plan_id":"free"},{"bike_id":"5e52d4ef-954e-466a-b4d9-7bbb8fb42b09","system_id":"levelo_inurba_marseille","lat":43.299707,"lon":5.384859,"is_reserved":false,"is_disabled":false,"rental_uris":{"android":"levelo://app?vid=5e52d4ef-954e-466a-b4d9-7bbb8fb42b09","ios":"levelo://app?vid=5e52d4ef-954e-466a-b4d9-7bbb8fb42b09"},"vehicle_type_id":"4","last_reported":1706544476,"current_range_meters":26400,"station_id":"ce4bgj92rcd13ifvqbd0","pricing_plan_id":"free"},{"bike_id":"779d1b08-2fef-43ea-b124-d6cb0a50e097","system_id":"levelo_inurba_marseille","lat":43.299707,"lon":5.384859,"is_reserved":false,"is_disabled":false,"rental_uris":{"android":"levelo://app?vid=779d1b08-2fef-43ea-b124-d6cb0a50e097","ios":"levelo://app?vid=779d1b08-2fef-43ea-b124-d6cb0a50e097"},"vehicle_type_id":"4","last_reported":1706544476,"current_range_meters":17200,"station_id":"ce4bgj92rcd13ifvqbd0","pricing_plan_id":"free"},{"bike_id":"777469dd-50e9-4c15-b74a-88ea73a560a7","system_id":"levelo_inurba_marseille","lat":43.299707,"lon":5.384859,"is_reserved":false,"is_disabled":false,"rental_uris":{"android":"levelo://app?vid=777469dd-50e9-4c15-b74a-88ea73a560a7","ios":"levelo://app?vid=777469dd-50e9-4c15-b74a-88ea73a560a7"},"vehicle_type_id":"4","last_reported":1706544476,"current_range_meters":28000,"station_id":"ce4bgj92rcd13ifvqbd0","pricing_plan_id":"free"},{"bike_id":"55076ce2-02c2-41e7-90e1-8b69ff1cffa7","system_id":"levelo_inurba_marseille","lat":43.299707,"lon":5.384859,"is_reserved":false,"is_disabled":false,"rental_uris":{"android":"levelo://app?vid=55076ce2-02c2-41e7-90e1-8b69ff1cffa7","ios":"levelo://app?vid=55076ce2-02c2-41e7-90e1-8b69ff1cffa7"},"vehicle_type_id":"4","last_reported":1706544476,"current_range_meters":21200,"station_id":"ce4bgj92rcd13ifvqbd0","pricing_plan_id":"free"},{"bike_id":"abe97440-eb69-48c0-b27d-18b1f3efa131","system_id":"levelo_inurba_marseille","lat":43.299724,"lon":5.384848,"is_reserved":false,"is_disabled":false,"rental_uris":{"android":"levelo://app?vid=abe97440-eb69-48c0-b27d-18b1f3efa131","ios":"levelo://app?vid=abe97440-eb69-48c0-b27d-18b1f3efa131"},"vehicle_type_id":"4","last_reported":1706544476,"current_range_meters":2000,"station_id":"ce4bgj92rcd13ifvqbd0","pricing_plan_id":"free"},{"bike_id":"dd60481b-da70-49ee-95e8-3a92194f8ba0","system_id":"levelo_inurba_marseille","lat":43.299717,"lon":5.384845,"is_reserved":false,"is_disabled":false,"rental_uris":{"android":"levelo://app?vid=dd60481b-da70-49ee-95e8-3a92194f8ba0","ios":"levelo://app?vid=dd60481b-da70-49ee-95e8-3a92194f8ba0"},"vehicle_type_id":"4","last_reported":1706544476,"current_range_meters":1200,"station_id":"ce4bgj92rcd13ifvqbd0","pricing_plan_id":"free"},{"bike_id":"51f67c3c-1ec1-4faf-a21f-7c02ba3f35d7","system_id":"levelo_inurba_marseille","lat":43.295279,"lon":5.375048,"is_reserved":false,"is_disabled":false,"rental_uris":{"android":"levelo://app?vid=51f67c3c-1ec1-4faf-a21f-7c02ba3f35d7","ios":"levelo://app?vid=51f67c3c-1ec1-4faf-a21f-7c02ba3f35d7"},"vehicle_type_id":"4","last_reported":1706544476,"current_range_meters":31200,"station_id":"ce4bgkp2rcd13ifvqbmg","pricing_plan_id":"free"},{"bike_id":"de25d637-84ec-4203-b892-3e1c2d7c4ddb","system_id":"levelo_inurba_marseille","lat":43.33168,"lon":5.36432,"is_reserved":false,"is_disabled":false,"rental_uris":{"android":"levelo://app?vid=de25d637-84ec-4203-b892-3e1c2d7c4ddb","ios":"levelo://app?vid=de25d637-84ec-4203-b892-3e1c2d7c4ddb"},"vehicle_type_id":"4","last_reported":1706544476,"current_range_meters":16400,"station_id":"","pricing_plan_id":"free"},{"bike_id":"91217fc8-e71d-4619-a70c-e5c8149c9754","system_id":"levelo_inurba_marseille","lat":43.29601,"lon":5.381084,"is_reserved":false,"is_disabled":false,"rental_uris":{"android":"levelo://app?vid=91217fc8-e71d-4619-a70c-e5c8149c9754","ios":"levelo://app?vid=91217fc8-e71d-4619-a70c-e5c8149c9754"},"vehicle_type_id":"4","last_reported":1706544476,"current_range_meters":18400,"station_id":"ce4bgl12rcd13ifvqbo0","pricing_plan_id":"free"},{"bike_id":"7217c10a-0294-4260-8b90-5022740744f7","system_id":"levelo_inurba_marseille","lat":43.29602,"lon":5.381084,"is_reserved":false,"is_disabled":false,"rental_uris":{"android":"levelo://app?vid=7217c10a-0294-4260-8b90-5022740744f7","ios":"levelo://app?vid=7217c10a-0294-4260-8b90-5022740744f7"},"vehicle_type_id":"4","last_reported":1706544476,"current_range_meters":18800,"station_id":"ce4bgl12rcd13ifvqbo0","pricing_plan_id":"free"},{"bike_id":"a34f8ad2-0cbd-40ef-b249-c28da86c2d3e","system_id":"levelo_inurba_marseille","lat":43.29602,"lon":5.381084,"is_reserved":false,"is_disabled":false,"rental_uris":{"android":"levelo://app?vid=a34f8ad2-0cbd-40ef-b249-c28da86c2d3e","ios":"levelo://app?vid=a34f8ad2-0cbd-40ef-b249-c28da86c2d3e"},"vehicle_type_id":"4","last_reported":1706544476,"current_range_meters":20000,"station_id":"ce4bgl12rcd13ifvqbo0","pricing_plan_id":"free"},{"bike_id":"c4e7921d-681c-483a-908b-0ae75b83adef","system_id":"levelo_inurba_marseille","lat":43.293259,"lon":5.371586,"is_reserved":false,"is_disabled":false,"rental_uris":{"android":"levelo://app?vid=c4e7921d-681c-483a-908b-0ae75b83adef","ios":"levelo://app?vid=c4e7921d-681c-483a-908b-0ae75b83adef"},"vehicle_type_id":"4","last_reported":1706544476,"current_range_meters":22400,"station_id":"ce4bgh92rcd13ifvqb40","pricing_plan_id":"free"},{"bike_id":"ce4d80de-681f-4aa0-8b0d-f5206b34fc7d","system_id":"levelo_inurba_marseille","lat":43.293259,"lon":5.371586,"is_reserved":false,"is_disabled":false,"rental_uris":{"android":"levelo://app?vid=ce4d80de-681f-4aa0-8b0d-f5206b34fc7d","ios":"levelo://app?vid=ce4d80de-681f-4aa0-8b0d-f5206b34fc7d"},"vehicle_type_id":"4","last_reported":1706544476,"current_range_meters":25600,"station_id":"ce4bgh92rcd13ifvqb40","pricing_plan_id":"free"},{"bike_id":"a8ca249e-9452-40de-a75f-aff8103d99f1","system_id":"levelo_inurba_marseille","lat":43.302991,"lon":5.392118,"is_reserved":false,"is_disabled":false,"rental_uris":{"android":"levelo://app?vid=a8ca249e-9452-40de-a75f-aff8103d99f1","ios":"levelo://app?vid=a8ca249e-9452-40de-a75f-aff8103d99f1"},"vehicle_type_id":"4","last_reported":1706544476,"current_range_meters":31200,"station_id":"ce4bgkh2rcd13ifvqbk0","pricing_plan_id":"free"},{"bike_id":"269a6f58-2f96-4dda-bf61-eba820005ae9","system_id":"levelo_inurba_marseille","lat":43.29366,"lon":5.37843,"is_reserved":false,"is_disabled":false,"rental_uris":{"android":"levelo://app?vid=269a6f58-2f96-4dda-bf61-eba820005ae9","ios":"levelo://app?vid=269a6f58-2f96-4dda-bf61-eba820005ae9"},"vehicle_type_id":"4","last_reported":1706544476,"current_range_meters":8400,"station_id":"","pricing_plan_id":"free"},{"bike_id":"c3f20985-eb1c-4cc1-a744-c85a1625b8c1","system_id":"levelo_inurba_marseille","lat":43.292311,"lon":5.360731,"is_reserved":false,"is_disabled":false,"rental_uris":{"android":"levelo://app?vid=c3f20985-eb1c-4cc1-a744-c85a1625b8c1","ios":"levelo://app?vid=c3f20985-eb1c-4cc1-a744-c85a1625b8c1"},"vehicle_type_id":"4","last_reported":1706544476,"current_range_meters":14000,"station_id":"ce4bhbh2rcd13ifvqeqg","pricing_plan_id":"free"},{"bike_id":"f51589b4-968e-4d6a-9442-f45c84ffe20f","system_id":"levelo_inurba_marseille","lat":43.292311,"lon":5.360731,"is_reserved":false,"is_disabled":false,"rental_uris":{"android":"levelo://app?vid=f51589b4-968e-4d6a-9442-f45c84ffe20f","ios":"levelo://app?vid=f51589b4-968e-4d6a-9442-f45c84ffe20f"},"vehicle_type_id":"4","last_reported":1706544476,"current_range_meters":17200,"station_id":"ce4bhbh2rcd13ifvqeqg","pricing_plan_id":"free"},{"bike_id":"a4658754-026e-422e-b6d7-a67fe2d4fc4a","system_id":"levelo_inurba_marseille","lat":43.300852,"lon":5.390859,"is_reserved":false,"is_disabled":false,"rental_uris":{"android":"levelo://app?vid=a4658754-026e-422e-b6d7-a67fe2d4fc4a","ios":"levelo://app?vid=a4658754-026e-422e-b6d7-a67fe2d4fc4a"},"vehicle_type_id":"4","last_reported":1706544476,"current_range_meters":12800,"station_id":"ce4bh192rcd13ifvqdb0","pricing_plan_id":"free"},{"bike_id":"2eed385f-170c-4672-864f-712e3e29524b","system_id":"levelo_inurba_marseille","lat":43.29459,"lon":5.38206,"is_reserved":false,"is_disabled":false,"rental_uris":{"android":"levelo://app?vid=2eed385f-170c-4672-864f-712e3e29524b","ios":"levelo://app?vid=2eed385f-170c-4672-864f-712e3e29524b"},"vehicle_type_id":"4","last_reported":1706544476,"current_range_meters":14400,"station_id":"","pricing_plan_id":"free"},{"bike_id":"46b5986d-87c8-409e-9ae8-8d8febd6b367","system_id":"levelo_inurba_marseille","lat":43.291675,"lon":5.371583,"is_reserved":false,"is_disabled":false,"rental_uris":{"android":"levelo://app?vid=46b5986d-87c8-409e-9ae8-8d8febd6b367","ios":"levelo://app?vid=46b5986d-87c8-409e-9ae8-8d8febd6b367"},"vehicle_type_id":"4","last_reported":1706544476,"current_range_meters":18400,"station_id":"ce4bha92rcd13ifvqeh0","pricing_plan_id":"free"},{"bike_id":"4f863718-ef4f-4398-9b70-2e3ee2d14549","system_id":"levelo_inurba_marseille","lat":43.291675,"lon":5.371583,"is_reserved":false,"is_disabled":false,"rental_uris":{"android":"levelo://app?vid=4f863718-ef4f-4398-9b70-2e3ee2d14549","ios":"levelo://app?vid=4f863718-ef4f-4398-9b70-2e3ee2d14549"},"vehicle_type_id":"4","last_reported":1706544476,"current_range_meters":0,"station_id":"ce4bha92rcd13ifvqeh0","pricing_plan_id":"free"},{"bike_id":"1b95a4ec-da8a-4a5e-b387-63b88432d3be","system_id":"levelo_inurba_marseille","lat":43.291994,"lon":5.357886,"is_reserved":false,"is_disabled":false,"rental_uris":{"android":"levelo://app?vid=1b95a4ec-da8a-4a5e-b387-63b88432d3be","ios":"levelo://app?vid=1b95a4ec-da8a-4a5e-b387-63b88432d3be"},"vehicle_type_id":"4","last_reported":1706544476,"current_range_meters":10800,"station_id":"ce4bhb12rcd13ifvqel0","pricing_plan_id":"free"},{"bike_id":"58abfaf0-9b00-4fb3-8037-d937dc0d9d18","system_id":"levelo_inurba_marseille","lat":43.309038,"lon":5.396546,"is_reserved":false,"is_disabled":false,"rental_uris":{"android":"levelo://app?vid=58abfaf0-9b00-4fb3-8037-d937dc0d9d18","ios":"levelo://app?vid=58abfaf0-9b00-4fb3-8037-d937dc0d9d18"},"vehicle_type_id":"4","last_reported":1706544476,"current_range_meters":31200,"station_id":"ce4bh012rcd13ifvqcv0","pricing_plan_id":"free"},{"bike_id":"f3a01e4c-1943-47ce-9cf6-390519327942","system_id":"levelo_inurba_marseille","lat":43.291994,"lon":5.357886,"is_reserved":false,"is_disabled":false,"rental_uris":{"android":"levelo://app?vid=f3a01e4c-1943-47ce-9cf6-390519327942","ios":"levelo://app?vid=f3a01e4c-1943-47ce-9cf6-390519327942"},"vehicle_type_id":"4","last_reported":1706544476,"current_range_meters":0,"station_id":"ce4bhb12rcd13ifvqel0","pricing_plan_id":"free"},{"bike_id":"82f2c399-a208-45bc-b375-a702cb5ba329","system_id":"levelo_inurba_marseille","lat":43.309047,"lon":5.396551,"is_reserved":false,"is_disabled":false,"rental_uris":{"android":"levelo://app?vid=82f2c399-a208-45bc-b375-a702cb5ba329","ios":"levelo://app?vid=82f2c399-a208-45bc-b375-a702cb5ba329"},"vehicle_type_id":"4","last_reported":1706544476,"current_range_meters":28000,"station_id":"ce4bh012rcd13ifvqcv0","pricing_plan_id":"free"},{"bike_id":"868afa1a-5391-4cc0-b7b3-3ecbcaf158c0","system_id":"levelo_inurba_marseille","lat":43.291994,"lon":5.357886,"is_reserved":false,"is_disabled":false,"rental_uris":{"android":"levelo://app?vid=868afa1a-5391-4cc0-b7b3-3ecbcaf158c0","ios":"levelo://app?vid=868afa1a-5391-4cc0-b7b3-3ecbcaf158c0"},"vehicle_type_id":"4","last_reported":1706544476,"current_range_meters":9200,"station_id":"ce4bhb12rcd13ifvqel0","pricing_plan_id":"free"},{"bike_id":"c07daf04-e21b-4f24-a83e-49b9ec655b9c","system_id":"levelo_inurba_marseille","lat":43.309038,"lon":5.396546,"is_reserved":false,"is_disabled":false,"rental_uris":{"android":"levelo://app?vid=c07daf04-e21b-4f24-a83e-49b9ec655b9c","ios":"levelo://app?vid=c07daf04-e21b-4f24-a83e-49b9ec655b9c"},"vehicle_type_id":"4","last_reported":1706544476,"current_range_meters":31200,"station_id":"ce4bh012rcd13ifvqcv0","pricing_plan_id":"free"},{"bike_id":"5e43a6a0-2aa8-497d-bdf5-45b534b94713","system_id":"levelo_inurba_marseille","lat":43.31332,"lon":5.39691,"is_reserved":false,"is_disabled":false,"rental_uris":{"android":"levelo://app?vid=5e43a6a0-2aa8-497d-bdf5-45b534b94713","ios":"levelo://app?vid=5e43a6a0-2aa8-497d-bdf5-45b534b94713"},"vehicle_type_id":"4","last_reported":1706544476,"current_range_meters":18400,"station_id":"ce4bgvp2rcd13ifvqcu0","pricing_plan_id":"free"},{"bike_id":"009adb09-dd44-4669-9886-413daa5da7c2","system_id":"levelo_inurba_marseille","lat":43.309038,"lon":5.396546,"is_reserved":false,"is_disabled":false,"rental_uris":{"android":"levelo://app?vid=009adb09-dd44-4669-9886-413daa5da7c2","ios":"levelo://app?vid=009adb09-dd44-4669-9886-413daa5da7c2"},"vehicle_type_id":"4","last_reported":1706544476,"current_range_meters":12000,"station_id":"ce4bh012rcd13ifvqcv0","pricing_plan_id":"free"},{"bike_id":"d4e486e6-f872-4965-b2ba-b110acb6bfb7","system_id":"levelo_inurba_marseille","lat":43.291994,"lon":5.357886,"is_reserved":false,"is_disabled":false,"rental_uris":{"android":"levelo://app?vid=d4e486e6-f872-4965-b2ba-b110acb6bfb7","ios":"levelo://app?vid=d4e486e6-f872-4965-b2ba-b110acb6bfb7"},"vehicle_type_id":"4","last_reported":1706544476,"current_range_meters":16800,"station_id":"ce4bhb12rcd13ifvqel0","pricing_plan_id":"free"},{"bike_id":"b36fd92c-f2dc-4b9f-b79f-68b10cd4ccd8","system_id":"levelo_inurba_marseille","lat":43.31325,"lon":5.39694,"is_reserved":false,"is_disabled":false,"rental_uris":{"android":"levelo://app?vid=b36fd92c-f2dc-4b9f-b79f-68b10cd4ccd8","ios":"levelo://app?vid=b36fd92c-f2dc-4b9f-b79f-68b10cd4ccd8"},"vehicle_type_id":"4","last_reported":1706544476,"current_range_meters":15600,"station_id":"ce4bgvp2rcd13ifvqcu0","pricing_plan_id":"free"},{"bike_id":"f53485f9-f98f-46e0-b0ca-bab93f000b79","system_id":"levelo_inurba_marseille","lat":43.313293,"lon":5.396958,"is_reserved":false,"is_disabled":false,"rental_uris":{"android":"levelo://app?vid=f53485f9-f98f-46e0-b0ca-bab93f000b79","ios":"levelo://app?vid=f53485f9-f98f-46e0-b0ca-bab93f000b79"},"vehicle_type_id":"4","last_reported":1706544476,"current_range_meters":22000,"station_id":"ce4bgvp2rcd13ifvqcu0","pricing_plan_id":"free"},{"bike_id":"f5e7ae9a-d3e2-40d7-b6a6-13962af8917f","system_id":"levelo_inurba_marseille","lat":43.313257,"lon":5.39696,"is_reserved":false,"is_disabled":false,"rental_uris":{"android":"levelo://app?vid=f5e7ae9a-d3e2-40d7-b6a6-13962af8917f","ios":"levelo://app?vid=f5e7ae9a-d3e2-40d7-b6a6-13962af8917f"},"vehicle_type_id":"4","last_reported":1706544476,"current_range_meters":28000,"station_id":"ce4bgvp2rcd13ifvqcu0","pricing_plan_id":"free"},{"bike_id":"4d1c8330-89fd-4544-ab2b-525b04a703f8","system_id":"levelo_inurba_marseille","lat":43.309038,"lon":5.396546,"is_reserved":false,"is_disabled":false,"rental_uris":{"android":"levelo://app?vid=4d1c8330-89fd-4544-ab2b-525b04a703f8","ios":"levelo://app?vid=4d1c8330-89fd-4544-ab2b-525b04a703f8"},"vehicle_type_id":"4","last_reported":1706544476,"current_range_meters":14800,"station_id":"ce4bh012rcd13ifvqcv0","pricing_plan_id":"free"},{"bike_id":"05342dcd-fa39-4a3d-8efe-7144b2b91637","system_id":"levelo_inurba_marseille","lat":43.313291,"lon":5.396838,"is_reserved":false,"is_disabled":false,"rental_uris":{"android":"levelo://app?vid=05342dcd-fa39-4a3d-8efe-7144b2b91637","ios":"levelo://app?vid=05342dcd-fa39-4a3d-8efe-7144b2b91637"},"vehicle_type_id":"4","last_reported":1706544476,"current_range_meters":31200,"station_id":"ce4bgvp2rcd13ifvqcu0","pricing_plan_id":"free"},{"bike_id":"e7554c5b-fa89-4574-9646-cd6bd355756b","system_id":"levelo_inurba_marseille","lat":43.309047,"lon":5.396551,"is_reserved":false,"is_disabled":false,"rental_uris":{"android":"levelo://app?vid=e7554c5b-fa89-4574-9646-cd6bd355756b","ios":"levelo://app?vid=e7554c5b-fa89-4574-9646-cd6bd355756b"},"vehicle_type_id":"4","last_reported":1706544476,"current_range_meters":6800,"station_id":"ce4bh012rcd13ifvqcv0","pricing_plan_id":"free"},{"bike_id":"090af009-8c06-493e-b644-b1e2df8f940b","system_id":"levelo_inurba_marseille","lat":43.29529,"lon":5.385581,"is_reserved":false,"is_disabled":false,"rental_uris":{"android":"levelo://app?vid=090af009-8c06-493e-b644-b1e2df8f940b","ios":"levelo://app?vid=090af009-8c06-493e-b644-b1e2df8f940b"},"vehicle_type_id":"4","last_reported":1706544476,"current_range_meters":0,"station_id":"ce4bgih2rcd13ifvqba0","pricing_plan_id":"free"},{"bike_id":"6dd0bdad-9510-4975-8542-fdd6928cfe9b","system_id":"levelo_inurba_marseille","lat":43.29529,"lon":5.385581,"is_reserved":false,"is_disabled":false,"rental_uris":{"android":"levelo://app?vid=6dd0bdad-9510-4975-8542-fdd6928cfe9b","ios":"levelo://app?vid=6dd0bdad-9510-4975-8542-fdd6928cfe9b"},"vehicle_type_id":"4","last_reported":1706544476,"current_range_meters":17200,"station_id":"ce4bgih2rcd13ifvqba0","pricing_plan_id":"free"},{"bike_id":"63edcaf3-ca1a-4996-b4ee-dec961bdc289","system_id":"levelo_inurba_marseille","lat":43.29529,"lon":5.385581,"is_reserved":false,"is_disabled":false,"rental_uris":{"android":"levelo://app?vid=63edcaf3-ca1a-4996-b4ee-dec961bdc289","ios":"levelo://app?vid=63edcaf3-ca1a-4996-b4ee-dec961bdc289"},"vehicle_type_id":"4","last_reported":1706544476,"current_range_meters":26800,"station_id":"ce4bgih2rcd13ifvqba0","pricing_plan_id":"free"},{"bike_id":"85405155-f7d0-4c27-8d4b-ec0c19358070","system_id":"levelo_inurba_marseille","lat":43.290779,"lon":5.371482,"is_reserved":false,"is_disabled":false,"rental_uris":{"android":"levelo://app?vid=85405155-f7d0-4c27-8d4b-ec0c19358070","ios":"levelo://app?vid=85405155-f7d0-4c27-8d4b-ec0c19358070"},"vehicle_type_id":"4","last_reported":1706544476,"current_range_meters":11200,"station_id":"ce4bh5p2rcd13ifvqe4g","pricing_plan_id":"free"},{"bike_id":"f65e5295-7414-4f3a-b9b5-f12f5f5d727b","system_id":"levelo_inurba_marseille","lat":43.29529,"lon":5.385581,"is_reserved":false,"is_disabled":false,"rental_uris":{"android":"levelo://app?vid=f65e5295-7414-4f3a-b9b5-f12f5f5d727b","ios":"levelo://app?vid=f65e5295-7414-4f3a-b9b5-f12f5f5d727b"},"vehicle_type_id":"4","last_reported":1706544476,"current_range_meters":24000,"station_id":"ce4bgih2rcd13ifvqba0","pricing_plan_id":"free"},{"bike_id":"a9bb26ec-32a3-410f-a760-ec2a5f952f18","system_id":"levelo_inurba_marseille","lat":43.290779,"lon":5.371482,"is_reserved":false,"is_disabled":false,"rental_uris":{"android":"levelo://app?vid=a9bb26ec-32a3-410f-a760-ec2a5f952f18","ios":"levelo://app?vid=a9bb26ec-32a3-410f-a760-ec2a5f952f18"},"vehicle_type_id":"4","last_reported":1706544476,"current_range_meters":6400,"station_id":"ce4bh5p2rcd13ifvqe4g","pricing_plan_id":"free"},{"bike_id":"4101e878-11d6-4acc-81b1-e18221550992","system_id":"levelo_inurba_marseille","lat":43.290624,"lon":5.359245,"is_reserved":false,"is_disabled":false,"rental_uris":{"android":"levelo://app?vid=4101e878-11d6-4acc-81b1-e18221550992","ios":"levelo://app?vid=4101e878-11d6-4acc-81b1-e18221550992"},"vehicle_type_id":"4","last_reported":1706544476,"current_range_meters":24000,"station_id":"ce4bha92rcd13ifvqeg0","pricing_plan_id":"free"},{"bike_id":"2c1e47ad-3478-424c-8c66-23a600b1f0dc","system_id":"levelo_inurba_marseille","lat":43.290441,"lon":5.359123,"is_reserved":false,"is_disabled":false,"rental_uris":{"android":"levelo://app?vid=2c1e47ad-3478-424c-8c66-23a600b1f0dc","ios":"levelo://app?vid=2c1e47ad-3478-424c-8c66-23a600b1f0dc"},"vehicle_type_id":"4","last_reported":1706544476,"current_range_meters":21200,"station_id":"","pricing_plan_id":"free"},{"bike_id":"51167a48-d03d-4451-90f0-2349da7c39bf","system_id":"levelo_inurba_marseille","lat":43.290631,"lon":5.359244,"is_reserved":false,"is_disabled":false,"rental_uris":{"android":"levelo://app?vid=51167a48-d03d-4451-90f0-2349da7c39bf","ios":"levelo://app?vid=51167a48-d03d-4451-90f0-2349da7c39bf"},"vehicle_type_id":"4","last_reported":1706544476,"current_range_meters":8400,"station_id":"ce4bha92rcd13ifvqeg0","pricing_plan_id":"free"},{"bike_id":"b1007edb-6664-4339-a54e-b66fa403bfa6","system_id":"levelo_inurba_marseille","lat":43.29416,"lon":5.38622,"is_reserved":false,"is_disabled":false,"rental_uris":{"android":"levelo://app?vid=b1007edb-6664-4339-a54e-b66fa403bfa6","ios":"levelo://app?vid=b1007edb-6664-4339-a54e-b66fa403bfa6"},"vehicle_type_id":"4","last_reported":1706544476,"current_range_meters":9600,"station_id":"ce4bh2h2rcd13ifvqdh0","pricing_plan_id":"free"},{"bike_id":"e6840437-bbdc-4ab0-a9ba-575988c37a73","system_id":"levelo_inurba_marseille","lat":43.29033,"lon":5.37566,"is_reserved":false,"is_disabled":false,"rental_uris":{"android":"levelo://app?vid=e6840437-bbdc-4ab0-a9ba-575988c37a73","ios":"levelo://app?vid=e6840437-bbdc-4ab0-a9ba-575988c37a73"},"vehicle_type_id":"4","last_reported":1706544476,"current_range_meters":8800,"station_id":"ce4bh692rcd13ifvqe90","pricing_plan_id":"free"},{"bike_id":"f8f88d14-6dd8-453f-8330-e6346036b66f","system_id":"levelo_inurba_marseille","lat":43.29413,"lon":5.38624,"is_reserved":false,"is_disabled":false,"rental_uris":{"android":"levelo://app?vid=f8f88d14-6dd8-453f-8330-e6346036b66f","ios":"levelo://app?vid=f8f88d14-6dd8-453f-8330-e6346036b66f"},"vehicle_type_id":"4","last_reported":1706544476,"current_range_meters":11600,"station_id":"ce4bh2h2rcd13ifvqdh0","pricing_plan_id":"free"},{"bike_id":"1d88bdb2-3362-402f-9d16-892af04d07c7","system_id":"levelo_inurba_marseille","lat":43.294153,"lon":5.386305,"is_reserved":false,"is_disabled":false,"rental_uris":{"android":"levelo://app?vid=1d88bdb2-3362-402f-9d16-892af04d07c7","ios":"levelo://app?vid=1d88bdb2-3362-402f-9d16-892af04d07c7"},"vehicle_type_id":"4","last_reported":1706544476,"current_range_meters":20000,"station_id":"ce4bh2h2rcd13ifvqdh0","pricing_plan_id":"free"},{"bike_id":"eb7f97cd-f651-437b-8595-4a6fe4a18634","system_id":"levelo_inurba_marseille","lat":43.289184,"lon":5.366408,"is_reserved":false,"is_disabled":false,"rental_uris":{"android":"levelo://app?vid=eb7f97cd-f651-437b-8595-4a6fe4a18634","ios":"levelo://app?vid=eb7f97cd-f651-437b-8595-4a6fe4a18634"},"vehicle_type_id":"4","last_reported":1706544476,"current_range_meters":11200,"station_id":"ce4bhap2rcd13ifvqek0","pricing_plan_id":"free"},{"bike_id":"fea5e5aa-a0e1-4e20-88a2-e22993bd7a96","system_id":"levelo_inurba_marseille","lat":43.304296,"lon":5.397513,"is_reserved":false,"is_disabled":false,"rental_uris":{"android":"levelo://app?vid=fea5e5aa-a0e1-4e20-88a2-e22993bd7a96","ios":"levelo://app?vid=fea5e5aa-a0e1-4e20-88a2-e22993bd7a96"},"vehicle_type_id":"4","last_reported":1706544476,"current_range_meters":4800,"station_id":"ce4bh092rcd13ifvqd20","pricing_plan_id":"free"},{"bike_id":"078bdd27-3c18-4083-b632-6d539a462ee2","system_id":"levelo_inurba_marseille","lat":43.292644,"lon":5.384257,"is_reserved":false,"is_disabled":false,"rental_uris":{"android":"levelo://app?vid=078bdd27-3c18-4083-b632-6d539a462ee2","ios":"levelo://app?vid=078bdd27-3c18-4083-b632-6d539a462ee2"},"vehicle_type_id":"4","last_reported":1706544476,"current_range_meters":0,"station_id":"ce4bh692rcd13ifvqea0","pricing_plan_id":"free"},{"bike_id":"0448344d-34b0-430a-8af0-26d8929fc5de","system_id":"levelo_inurba_marseille","lat":43.304296,"lon":5.397513,"is_reserved":false,"is_disabled":false,"rental_uris":{"android":"levelo://app?vid=0448344d-34b0-430a-8af0-26d8929fc5de","ios":"levelo://app?vid=0448344d-34b0-430a-8af0-26d8929fc5de"},"vehicle_type_id":"4","last_reported":1706544476,"current_range_meters":10000,"station_id":"ce4bh092rcd13ifvqd20","pricing_plan_id":"free"},{"bike_id":"41a7fad1-189c-44be-9925-2f0e517df3e9","system_id":"levelo_inurba_marseille","lat":43.29269,"lon":5.38448,"is_reserved":false,"is_disabled":false,"rental_uris":{"android":"levelo://app?vid=41a7fad1-189c-44be-9925-2f0e517df3e9","ios":"levelo://app?vid=41a7fad1-189c-44be-9925-2f0e517df3e9"},"vehicle_type_id":"4","last_reported":1706544476,"current_range_meters":0,"station_id":"ce4bh692rcd13ifvqea0","pricing_plan_id":"free"},{"bike_id":"0eb02fbb-1149-41e0-9d2d-8e51413e4b40","system_id":"levelo_inurba_marseille","lat":43.292644,"lon":5.384257,"is_reserved":false,"is_disabled":false,"rental_uris":{"android":"levelo://app?vid=0eb02fbb-1149-41e0-9d2d-8e51413e4b40","ios":"levelo://app?vid=0eb02fbb-1149-41e0-9d2d-8e51413e4b40"},"vehicle_type_id":"4","last_reported":1706544476,"current_range_meters":24800,"station_id":"ce4bh692rcd13ifvqea0","pricing_plan_id":"free"},{"bike_id":"a2ecba34-80e7-49a0-82fb-03cbf6d0f38b","system_id":"levelo_inurba_marseille","lat":43.23141,"lon":5.43734,"is_reserved":false,"is_disabled":false,"rental_uris":{"android":"levelo://app?vid=a2ecba34-80e7-49a0-82fb-03cbf6d0f38b","ios":"levelo://app?vid=a2ecba34-80e7-49a0-82fb-03cbf6d0f38b"},"vehicle_type_id":"4","last_reported":1706544476,"current_range_meters":31200,"station_id":"ce4bhmp2rcd13ifvqgog","pricing_plan_id":"free"},{"bike_id":"ca2af4af-beb9-40c5-978e-68431ced1e5e","system_id":"levelo_inurba_marseille","lat":43.29004,"lon":5.35609,"is_reserved":false,"is_disabled":false,"rental_uris":{"android":"levelo://app?vid=ca2af4af-beb9-40c5-978e-68431ced1e5e","ios":"levelo://app?vid=ca2af4af-beb9-40c5-978e-68431ced1e5e"},"vehicle_type_id":"4","last_reported":1706544476,"current_range_meters":11600,"station_id":"","pricing_plan_id":"free"},{"bike_id":"337820e6-2116-4400-8ab5-229045f4d1fc","system_id":"levelo_inurba_marseille","lat":43.290104,"lon":5.356111,"is_reserved":false,"is_disabled":false,"rental_uris":{"android":"levelo://app?vid=337820e6-2116-4400-8ab5-229045f4d1fc","ios":"levelo://app?vid=337820e6-2116-4400-8ab5-229045f4d1fc"},"vehicle_type_id":"4","last_reported":1706544476,"current_range_meters":9600,"station_id":"ce4bhb92rcd13ifvqen0","pricing_plan_id":"free"},{"bike_id":"dc4077d2-b938-4e03-a626-024170a152a0","system_id":"levelo_inurba_marseille","lat":43.290104,"lon":5.356111,"is_reserved":false,"is_disabled":false,"rental_uris":{"android":"levelo://app?vid=dc4077d2-b938-4e03-a626-024170a152a0","ios":"levelo://app?vid=dc4077d2-b938-4e03-a626-024170a152a0"},"vehicle_type_id":"4","last_reported":1706544476,"current_range_meters":0,"station_id":"ce4bhb92rcd13ifvqen0","pricing_plan_id":"free"},{"bike_id":"c55c296a-f73d-4c2f-9eb0-5da25b38ee23","system_id":"levelo_inurba_marseille","lat":43.290104,"lon":5.356111,"is_reserved":false,"is_disabled":false,"rental_uris":{"android":"levelo://app?vid=c55c296a-f73d-4c2f-9eb0-5da25b38ee23","ios":"levelo://app?vid=c55c296a-f73d-4c2f-9eb0-5da25b38ee23"},"vehicle_type_id":"4","last_reported":1706544476,"current_range_meters":18800,"station_id":"ce4bhb92rcd13ifvqen0","pricing_plan_id":"free"},{"bike_id":"c5f2231b-fa4c-439f-ae5d-5a320e0b5d05","system_id":"levelo_inurba_marseille","lat":43.290104,"lon":5.356111,"is_reserved":false,"is_disabled":false,"rental_uris":{"android":"levelo://app?vid=c5f2231b-fa4c-439f-ae5d-5a320e0b5d05","ios":"levelo://app?vid=c5f2231b-fa4c-439f-ae5d-5a320e0b5d05"},"vehicle_type_id":"4","last_reported":1706544476,"current_range_meters":0,"station_id":"ce4bhb92rcd13ifvqen0","pricing_plan_id":"free"},{"bike_id":"8c631076-e3e7-49eb-a5d0-57a3c688e4aa","system_id":"levelo_inurba_marseille","lat":43.295169,"lon":5.390426,"is_reserved":false,"is_disabled":false,"rental_uris":{"android":"levelo://app?vid=8c631076-e3e7-49eb-a5d0-57a3c688e4aa","ios":"levelo://app?vid=8c631076-e3e7-49eb-a5d0-57a3c688e4aa"},"vehicle_type_id":"4","last_reported":1706544476,"current_range_meters":10800,"station_id":"ce4bh3p2rcd13ifvqdp0","pricing_plan_id":"free"},{"bike_id":"bb3cb0c3-7853-469e-ac09-86d0b7c73e07","system_id":"levelo_inurba_marseille","lat":43.289743,"lon":5.378304,"is_reserved":false,"is_disabled":false,"rental_uris":{"android":"levelo://app?vid=bb3cb0c3-7853-469e-ac09-86d0b7c73e07","ios":"levelo://app?vid=bb3cb0c3-7853-469e-ac09-86d0b7c73e07"},"vehicle_type_id":"4","last_reported":1706544476,"current_range_meters":24800,"station_id":"ce4bh9p2rcd13ifvqed0","pricing_plan_id":"free"},{"bike_id":"b7e9febd-67eb-4972-9aa9-ea8a8f06e051","system_id":"levelo_inurba_marseille","lat":43.330442,"lon":5.389148,"is_reserved":false,"is_disabled":false,"rental_uris":{"android":"levelo://app?vid=b7e9febd-67eb-4972-9aa9-ea8a8f06e051","ios":"levelo://app?vid=b7e9febd-67eb-4972-9aa9-ea8a8f06e051"},"vehicle_type_id":"4","last_reported":1706544476,"current_range_meters":18400,"station_id":"ce4bhr92rcd13ifvqhrg","pricing_plan_id":"free"},{"bike_id":"55b66a6e-0dae-45de-9436-c660a18a1687","system_id":"levelo_inurba_marseille","lat":43.295169,"lon":5.390426,"is_reserved":false,"is_disabled":false,"rental_uris":{"android":"levelo://app?vid=55b66a6e-0dae-45de-9436-c660a18a1687","ios":"levelo://app?vid=55b66a6e-0dae-45de-9436-c660a18a1687"},"vehicle_type_id":"4","last_reported":1706544476,"current_range_meters":2000,"station_id":"ce4bh3p2rcd13ifvqdp0","pricing_plan_id":"free"},{"bike_id":"ef46feef-2c13-40a6-ad72-9bce5b10110d","system_id":"levelo_inurba_marseille","lat":43.28856,"lon":5.358371,"is_reserved":false,"is_disabled":false,"rental_uris":{"android":"levelo://app?vid=ef46feef-2c13-40a6-ad72-9bce5b10110d","ios":"levelo://app?vid=ef46feef-2c13-40a6-ad72-9bce5b10110d"},"vehicle_type_id":"4","last_reported":1706544476,"current_range_meters":24800,"station_id":"ce4bhb12rcd13ifvqem0","pricing_plan_id":"free"},{"bike_id":"0e795900-0193-4adb-85f2-a7d2a7d080d1","system_id":"levelo_inurba_marseille","lat":43.28856,"lon":5.358371,"is_reserved":false,"is_disabled":false,"rental_uris":{"android":"levelo://app?vid=0e795900-0193-4adb-85f2-a7d2a7d080d1","ios":"levelo://app?vid=0e795900-0193-4adb-85f2-a7d2a7d080d1"},"vehicle_type_id":"4","last_reported":1706544476,"current_range_meters":18800,"station_id":"ce4bhb12rcd13ifvqem0","pricing_plan_id":"free"},{"bike_id":"975d1af5-9cff-498f-a54e-9c5886950dab","system_id":"levelo_inurba_marseille","lat":43.28856,"lon":5.358371,"is_reserved":false,"is_disabled":false,"rental_uris":{"android":"levelo://app?vid=975d1af5-9cff-498f-a54e-9c5886950dab","ios":"levelo://app?vid=975d1af5-9cff-498f-a54e-9c5886950dab"},"vehicle_type_id":"4","last_reported":1706544476,"current_range_meters":26400,"station_id":"ce4bhb12rcd13ifvqem0","pricing_plan_id":"free"},{"bike_id":"2b1cce9c-4aba-42c4-8b76-71adf98db80b","system_id":"levelo_inurba_marseille","lat":43.28856,"lon":5.358371,"is_reserved":false,"is_disabled":false,"rental_uris":{"android":"levelo://app?vid=2b1cce9c-4aba-42c4-8b76-71adf98db80b","ios":"levelo://app?vid=2b1cce9c-4aba-42c4-8b76-71adf98db80b"},"vehicle_type_id":"4","last_reported":1706544476,"current_range_meters":8800,"station_id":"ce4bhb12rcd13ifvqem0","pricing_plan_id":"free"},{"bike_id":"422682b0-b648-4b9e-86f0-f718cc6dccb0","system_id":"levelo_inurba_marseille","lat":43.3127,"lon":5.40165,"is_reserved":false,"is_disabled":false,"rental_uris":{"android":"levelo://app?vid=422682b0-b648-4b9e-86f0-f718cc6dccb0","ios":"levelo://app?vid=422682b0-b648-4b9e-86f0-f718cc6dccb0"},"vehicle_type_id":"4","last_reported":1706544476,"current_range_meters":18800,"station_id":"ce4bh092rcd13ifvqd30","pricing_plan_id":"free"},{"bike_id":"f3837dd7-445f-49b5-8c8a-88aab50e7c68","system_id":"levelo_inurba_marseille","lat":43.309371,"lon":5.401449,"is_reserved":false,"is_disabled":false,"rental_uris":{"android":"levelo://app?vid=f3837dd7-445f-49b5-8c8a-88aab50e7c68","ios":"levelo://app?vid=f3837dd7-445f-49b5-8c8a-88aab50e7c68"},"vehicle_type_id":"4","last_reported":1706544476,"current_range_meters":1200,"station_id":"ce4bgvp2rcd13ifvqct0","pricing_plan_id":"free"},{"bike_id":"a563cdbf-78b8-441c-8dce-8da1c3325b92","system_id":"levelo_inurba_marseille","lat":43.337502,"lon":5.374518,"is_reserved":false,"is_disabled":false,"rental_uris":{"android":"levelo://app?vid=a563cdbf-78b8-441c-8dce-8da1c3325b92","ios":"levelo://app?vid=a563cdbf-78b8-441c-8dce-8da1c3325b92"},"vehicle_type_id":"4","last_reported":1706544476,"current_range_meters":20400,"station_id":"","pricing_plan_id":"free"},{"bike_id":"b7f12eab-e0a6-499e-87ec-2b4381c4602a","system_id":"levelo_inurba_marseille","lat":43.337544,"lon":5.374554,"is_reserved":false,"is_disabled":false,"rental_uris":{"android":"levelo://app?vid=b7f12eab-e0a6-499e-87ec-2b4381c4602a","ios":"levelo://app?vid=b7f12eab-e0a6-499e-87ec-2b4381c4602a"},"vehicle_type_id":"4","last_reported":1706544476,"current_range_meters":22000,"station_id":"","pricing_plan_id":"free"},{"bike_id":"3c082ef8-998e-4b68-a29d-6b97c12f9805","system_id":"levelo_inurba_marseille","lat":43.306478,"lon":5.400795,"is_reserved":false,"is_disabled":false,"rental_uris":{"android":"levelo://app?vid=3c082ef8-998e-4b68-a29d-6b97c12f9805","ios":"levelo://app?vid=3c082ef8-998e-4b68-a29d-6b97c12f9805"},"vehicle_type_id":"4","last_reported":1706544476,"current_range_meters":25200,"station_id":"ce4bh112rcd13ifvqda0","pricing_plan_id":"free"},{"bike_id":"2fe24097-b1c2-4583-ba1f-cf8501171a4c","system_id":"levelo_inurba_marseille","lat":43.33752,"lon":5.37489,"is_reserved":false,"is_disabled":false,"rental_uris":{"android":"levelo://app?vid=2fe24097-b1c2-4583-ba1f-cf8501171a4c","ios":"levelo://app?vid=2fe24097-b1c2-4583-ba1f-cf8501171a4c"},"vehicle_type_id":"4","last_reported":1706544476,"current_range_meters":6400,"station_id":"","pricing_plan_id":"free"},{"bike_id":"663b4048-76fd-43f1-8346-64e09c2c7288","system_id":"levelo_inurba_marseille","lat":43.337579,"lon":5.374576,"is_reserved":false,"is_disabled":false,"rental_uris":{"android":"levelo://app?vid=663b4048-76fd-43f1-8346-64e09c2c7288","ios":"levelo://app?vid=663b4048-76fd-43f1-8346-64e09c2c7288"},"vehicle_type_id":"4","last_reported":1706544476,"current_range_meters":18400,"station_id":"","pricing_plan_id":"free"},{"bike_id":"8cfe4568-4bf5-48be-9493-2333da69820e","system_id":"levelo_inurba_marseille","lat":43.30642,"lon":5.401031,"is_reserved":false,"is_disabled":false,"rental_uris":{"android":"levelo://app?vid=8cfe4568-4bf5-48be-9493-2333da69820e","ios":"levelo://app?vid=8cfe4568-4bf5-48be-9493-2333da69820e"},"vehicle_type_id":"4","last_reported":1706544476,"current_range_meters":21600,"station_id":"ce4bh112rcd13ifvqda0","pricing_plan_id":"free"},{"bike_id":"b7d3b81d-d85a-44b5-a0c7-8f9c9f74639e","system_id":"levelo_inurba_marseille","lat":43.337652,"lon":5.374317,"is_reserved":false,"is_disabled":false,"rental_uris":{"android":"levelo://app?vid=b7d3b81d-d85a-44b5-a0c7-8f9c9f74639e","ios":"levelo://app?vid=b7d3b81d-d85a-44b5-a0c7-8f9c9f74639e"},"vehicle_type_id":"4","last_reported":1706544476,"current_range_meters":26000,"station_id":"","pricing_plan_id":"free"},{"bike_id":"91b6ff85-6ee5-4dda-afcf-7e77437e0e9c","system_id":"levelo_inurba_marseille","lat":43.337725,"lon":5.374178,"is_reserved":false,"is_disabled":false,"rental_uris":{"android":"levelo://app?vid=91b6ff85-6ee5-4dda-afcf-7e77437e0e9c","ios":"levelo://app?vid=91b6ff85-6ee5-4dda-afcf-7e77437e0e9c"},"vehicle_type_id":"4","last_reported":1706544476,"current_range_meters":22400,"station_id":"","pricing_plan_id":"free"},{"bike_id":"12568932-a9a7-4d52-8b2c-668683b75358","system_id":"levelo_inurba_marseille","lat":43.337641,"lon":5.374852,"is_reserved":false,"is_disabled":false,"rental_uris":{"android":"levelo://app?vid=12568932-a9a7-4d52-8b2c-668683b75358","ios":"levelo://app?vid=12568932-a9a7-4d52-8b2c-668683b75358"},"vehicle_type_id":"4","last_reported":1706544476,"current_range_meters":18400,"station_id":"","pricing_plan_id":"free"},{"bike_id":"de7679dd-0319-4dea-b526-9b28612355f8","system_id":"levelo_inurba_marseille","lat":43.306412,"lon":5.401035,"is_reserved":false,"is_disabled":false,"rental_uris":{"android":"levelo://app?vid=de7679dd-0319-4dea-b526-9b28612355f8","ios":"levelo://app?vid=de7679dd-0319-4dea-b526-9b28612355f8"},"vehicle_type_id":"4","last_reported":1706544476,"current_range_meters":6000,"station_id":"ce4bh112rcd13ifvqda0","pricing_plan_id":"free"},{"bike_id":"1facbbf3-baac-42f8-85eb-cb1e36f3e4b9","system_id":"levelo_inurba_marseille","lat":43.33764,"lon":5.374932,"is_reserved":false,"is_disabled":false,"rental_uris":{"android":"levelo://app?vid=1facbbf3-baac-42f8-85eb-cb1e36f3e4b9","ios":"levelo://app?vid=1facbbf3-baac-42f8-85eb-cb1e36f3e4b9"},"vehicle_type_id":"4","last_reported":1706544476,"current_range_meters":8800,"station_id":"","pricing_plan_id":"free"},{"bike_id":"3a388bae-6ede-4ada-9f8f-57e7d434a3a8","system_id":"levelo_inurba_marseille","lat":43.28727,"lon":5.36078,"is_reserved":false,"is_disabled":false,"rental_uris":{"android":"levelo://app?vid=3a388bae-6ede-4ada-9f8f-57e7d434a3a8","ios":"levelo://app?vid=3a388bae-6ede-4ada-9f8f-57e7d434a3a8"},"vehicle_type_id":"4","last_reported":1706544476,"current_range_meters":14800,"station_id":"cki0cbj6b192h4jlfktg","pricing_plan_id":"free"},{"bike_id":"8dbd7384-d542-4014-808e-f5590ef760b6","system_id":"levelo_inurba_marseille","lat":43.28727,"lon":5.36078,"is_reserved":false,"is_disabled":false,"rental_uris":{"android":"levelo://app?vid=8dbd7384-d542-4014-808e-f5590ef760b6","ios":"levelo://app?vid=8dbd7384-d542-4014-808e-f5590ef760b6"},"vehicle_type_id":"4","last_reported":1706544476,"current_range_meters":4800,"station_id":"cki0cbj6b192h4jlfktg","pricing_plan_id":"free"},{"bike_id":"67fbb007-3b92-41ef-bf81-f965837812ad","system_id":"levelo_inurba_marseille","lat":43.286961,"lon":5.373785,"is_reserved":false,"is_disabled":false,"rental_uris":{"android":"levelo://app?vid=67fbb007-3b92-41ef-bf81-f965837812ad","ios":"levelo://app?vid=67fbb007-3b92-41ef-bf81-f965837812ad"},"vehicle_type_id":"4","last_reported":1706544476,"current_range_meters":16800,"station_id":"ce4bh3p2rcd13ifvqdq0","pricing_plan_id":"free"},{"bike_id":"1b0fd8ea-eae1-4e21-a35c-7f95f6ca1802","system_id":"levelo_inurba_marseille","lat":43.286961,"lon":5.373785,"is_reserved":false,"is_disabled":false,"rental_uris":{"android":"levelo://app?vid=1b0fd8ea-eae1-4e21-a35c-7f95f6ca1802","ios":"levelo://app?vid=1b0fd8ea-eae1-4e21-a35c-7f95f6ca1802"},"vehicle_type_id":"4","last_reported":1706544476,"current_range_meters":16400,"station_id":"ce4bh3p2rcd13ifvqdq0","pricing_plan_id":"free"},{"bike_id":"7cfdf564-ce77-40ab-9b6c-61a250413243","system_id":"levelo_inurba_marseille","lat":43.28665,"lon":5.36358,"is_reserved":false,"is_disabled":false,"rental_uris":{"android":"levelo://app?vid=7cfdf564-ce77-40ab-9b6c-61a250413243","ios":"levelo://app?vid=7cfdf564-ce77-40ab-9b6c-61a250413243"},"vehicle_type_id":"4","last_reported":1706544476,"current_range_meters":18800,"station_id":"ce4bhah2rcd13ifvqej0","pricing_plan_id":"free"},{"bike_id":"f6680ba6-2f42-44eb-993d-ea6a35a6edc5","system_id":"levelo_inurba_marseille","lat":43.286961,"lon":5.373785,"is_reserved":false,"is_disabled":false,"rental_uris":{"android":"levelo://app?vid=f6680ba6-2f42-44eb-993d-ea6a35a6edc5","ios":"levelo://app?vid=f6680ba6-2f42-44eb-993d-ea6a35a6edc5"},"vehicle_type_id":"4","last_reported":1706544476,"current_range_meters":5200,"station_id":"ce4bh3p2rcd13ifvqdq0","pricing_plan_id":"free"},{"bike_id":"4ffe2e3d-5015-4370-8769-aadfe1ccf1f1","system_id":"levelo_inurba_marseille","lat":43.298681,"lon":5.397225,"is_reserved":false,"is_disabled":false,"rental_uris":{"android":"levelo://app?vid=4ffe2e3d-5015-4370-8769-aadfe1ccf1f1","ios":"levelo://app?vid=4ffe2e3d-5015-4370-8769-aadfe1ccf1f1"},"vehicle_type_id":"4","last_reported":1706544476,"current_range_meters":8800,"station_id":"ce4bh0h2rcd13ifvqd50","pricing_plan_id":"free"},{"bike_id":"c351efce-8967-44f3-9ef5-3e49404d50b1","system_id":"levelo_inurba_marseille","lat":43.286961,"lon":5.373785,"is_reserved":false,"is_disabled":false,"rental_uris":{"android":"levelo://app?vid=c351efce-8967-44f3-9ef5-3e49404d50b1","ios":"levelo://app?vid=c351efce-8967-44f3-9ef5-3e49404d50b1"},"vehicle_type_id":"4","last_reported":1706544476,"current_range_meters":23200,"station_id":"ce4bh3p2rcd13ifvqdq0","pricing_plan_id":"free"},{"bike_id":"95567290-975f-4510-9942-aed2a79896ce","system_id":"levelo_inurba_marseille","lat":43.284219,"lon":5.3497,"is_reserved":false,"is_disabled":false,"rental_uris":{"android":"levelo://app?vid=95567290-975f-4510-9942-aed2a79896ce","ios":"levelo://app?vid=95567290-975f-4510-9942-aed2a79896ce"},"vehicle_type_id":"4","last_reported":1706544476,"current_range_meters":4800,"station_id":"ce4bhbh2rcd13ifvqepg","pricing_plan_id":"free"},{"bike_id":"24abb9b3-76ae-40f1-a84a-4281315fbeb1","system_id":"levelo_inurba_marseille","lat":43.30412,"lon":5.40109,"is_reserved":false,"is_disabled":false,"rental_uris":{"android":"levelo://app?vid=24abb9b3-76ae-40f1-a84a-4281315fbeb1","ios":"levelo://app?vid=24abb9b3-76ae-40f1-a84a-4281315fbeb1"},"vehicle_type_id":"4","last_reported":1706544476,"current_range_meters":0,"station_id":"","pricing_plan_id":"free"},{"bike_id":"88e6fb79-5e7c-48a2-b930-f1f0cc6ef817","system_id":"levelo_inurba_marseille","lat":43.295196,"lon":5.39397,"is_reserved":false,"is_disabled":false,"rental_uris":{"android":"levelo://app?vid=88e6fb79-5e7c-48a2-b930-f1f0cc6ef817","ios":"levelo://app?vid=88e6fb79-5e7c-48a2-b930-f1f0cc6ef817"},"vehicle_type_id":"4","last_reported":1706544476,"current_range_meters":23600,"station_id":"ce4bh292rcd13ifvqdf0","pricing_plan_id":"free"},{"bike_id":"2791ec99-048e-47f7-b4bb-b07c85592790","system_id":"levelo_inurba_marseille","lat":43.289307,"lon":5.38406,"is_reserved":false,"is_disabled":false,"rental_uris":{"android":"levelo://app?vid=2791ec99-048e-47f7-b4bb-b07c85592790","ios":"levelo://app?vid=2791ec99-048e-47f7-b4bb-b07c85592790"},"vehicle_type_id":"4","last_reported":1706544476,"current_range_meters":22000,"station_id":"ce4bh612rcd13ifvqe6g","pricing_plan_id":"free"},{"bike_id":"75d347a4-ed6f-4246-bc01-18dd4dce3648","system_id":"levelo_inurba_marseille","lat":43.289307,"lon":5.38406,"is_reserved":false,"is_disabled":false,"rental_uris":{"android":"levelo://app?vid=75d347a4-ed6f-4246-bc01-18dd4dce3648","ios":"levelo://app?vid=75d347a4-ed6f-4246-bc01-18dd4dce3648"},"vehicle_type_id":"4","last_reported":1706544476,"current_range_meters":9200,"station_id":"ce4bh612rcd13ifvqe6g","pricing_plan_id":"free"},{"bike_id":"b0a81108-6938-414d-abd4-0220f16756ca","system_id":"levelo_inurba_marseille","lat":43.286039,"lon":5.370681,"is_reserved":false,"is_disabled":false,"rental_uris":{"android":"levelo://app?vid=b0a81108-6938-414d-abd4-0220f16756ca","ios":"levelo://app?vid=b0a81108-6938-414d-abd4-0220f16756ca"},"vehicle_type_id":"4","last_reported":1706544476,"current_range_meters":5600,"station_id":"ce4bht12rcd13ifvqi60","pricing_plan_id":"free"},{"bike_id":"807665df-a4a0-4d1f-93e9-1a9c1f652134","system_id":"levelo_inurba_marseille","lat":43.286039,"lon":5.370681,"is_reserved":false,"is_disabled":false,"rental_uris":{"android":"levelo://app?vid=807665df-a4a0-4d1f-93e9-1a9c1f652134","ios":"levelo://app?vid=807665df-a4a0-4d1f-93e9-1a9c1f652134"},"vehicle_type_id":"4","last_reported":1706544476,"current_range_meters":3600,"station_id":"ce4bht12rcd13ifvqi60","pricing_plan_id":"free"},{"bike_id":"70bf7d3d-95de-4820-9154-8dd149808bc4","system_id":"levelo_inurba_marseille","lat":43.286039,"lon":5.370681,"is_reserved":false,"is_disabled":false,"rental_uris":{"android":"levelo://app?vid=70bf7d3d-95de-4820-9154-8dd149808bc4","ios":"levelo://app?vid=70bf7d3d-95de-4820-9154-8dd149808bc4"},"vehicle_type_id":"4","last_reported":1706544476,"current_range_meters":25200,"station_id":"ce4bht12rcd13ifvqi60","pricing_plan_id":"free"},{"bike_id":"90582d8a-a12f-4b8c-9c20-3133f75db733","system_id":"levelo_inurba_marseille","lat":43.286039,"lon":5.370681,"is_reserved":false,"is_disabled":false,"rental_uris":{"android":"levelo://app?vid=90582d8a-a12f-4b8c-9c20-3133f75db733","ios":"levelo://app?vid=90582d8a-a12f-4b8c-9c20-3133f75db733"},"vehicle_type_id":"4","last_reported":1706544476,"current_range_meters":14400,"station_id":"ce4bht12rcd13ifvqi60","pricing_plan_id":"free"},{"bike_id":"25de4f05-d353-48ae-8364-0f623db640c3","system_id":"levelo_inurba_marseille","lat":43.286039,"lon":5.370681,"is_reserved":false,"is_disabled":false,"rental_uris":{"android":"levelo://app?vid=25de4f05-d353-48ae-8364-0f623db640c3","ios":"levelo://app?vid=25de4f05-d353-48ae-8364-0f623db640c3"},"vehicle_type_id":"4","last_reported":1706544476,"current_range_meters":20800,"station_id":"ce4bht12rcd13ifvqi60","pricing_plan_id":"free"},{"bike_id":"3b3f2d83-7436-4477-80d8-614ffb2a9743","system_id":"levelo_inurba_marseille","lat":43.287184,"lon":5.37937,"is_reserved":false,"is_disabled":false,"rental_uris":{"android":"levelo://app?vid=3b3f2d83-7436-4477-80d8-614ffb2a9743","ios":"levelo://app?vid=3b3f2d83-7436-4477-80d8-614ffb2a9743"},"vehicle_type_id":"4","last_reported":1706544476,"current_range_meters":6400,"station_id":"ce4bh9p2rcd13ifvqec0","pricing_plan_id":"free"},{"bike_id":"c5e427bb-1b36-41cc-b3f5-7398b026260a","system_id":"levelo_inurba_marseille","lat":43.287185,"lon":5.379373,"is_reserved":false,"is_disabled":false,"rental_uris":{"android":"levelo://app?vid=c5e427bb-1b36-41cc-b3f5-7398b026260a","ios":"levelo://app?vid=c5e427bb-1b36-41cc-b3f5-7398b026260a"},"vehicle_type_id":"4","last_reported":1706544476,"current_range_meters":13200,"station_id":"ce4bh9p2rcd13ifvqec0","pricing_plan_id":"free"},{"bike_id":"c9d59c6c-4df4-422d-b5fc-1638ee55b8d2","system_id":"levelo_inurba_marseille","lat":43.287184,"lon":5.37937,"is_reserved":false,"is_disabled":false,"rental_uris":{"android":"levelo://app?vid=c9d59c6c-4df4-422d-b5fc-1638ee55b8d2","ios":"levelo://app?vid=c9d59c6c-4df4-422d-b5fc-1638ee55b8d2"},"vehicle_type_id":"4","last_reported":1706544476,"current_range_meters":22800,"station_id":"ce4bh9p2rcd13ifvqec0","pricing_plan_id":"free"},{"bike_id":"059519d9-27d7-4485-814d-67b5cb192188","system_id":"levelo_inurba_marseille","lat":43.287185,"lon":5.379373,"is_reserved":false,"is_disabled":false,"rental_uris":{"android":"levelo://app?vid=059519d9-27d7-4485-814d-67b5cb192188","ios":"levelo://app?vid=059519d9-27d7-4485-814d-67b5cb192188"},"vehicle_type_id":"4","last_reported":1706544476,"current_range_meters":22000,"station_id":"ce4bh9p2rcd13ifvqec0","pricing_plan_id":"free"},{"bike_id":"97b0bde0-bd3d-4e18-b61d-44a138bde320","system_id":"levelo_inurba_marseille","lat":43.29995,"lon":5.40057,"is_reserved":false,"is_disabled":false,"rental_uris":{"android":"levelo://app?vid=97b0bde0-bd3d-4e18-b61d-44a138bde320","ios":"levelo://app?vid=97b0bde0-bd3d-4e18-b61d-44a138bde320"},"vehicle_type_id":"4","last_reported":1706544476,"current_range_meters":28000,"station_id":"","pricing_plan_id":"free"},{"bike_id":"0fd4f1f2-a077-4926-9321-abbdeeab4921","system_id":"levelo_inurba_marseille","lat":43.316828,"lon":5.404723,"is_reserved":false,"is_disabled":false,"rental_uris":{"android":"levelo://app?vid=0fd4f1f2-a077-4926-9321-abbdeeab4921","ios":"levelo://app?vid=0fd4f1f2-a077-4926-9321-abbdeeab4921"},"vehicle_type_id":"4","last_reported":1706544476,"current_range_meters":2400,"station_id":"ce4bh012rcd13ifvqd00","pricing_plan_id":"free"},{"bike_id":"b8cbb686-83bc-4e93-a09b-37c28e1b4bed","system_id":"levelo_inurba_marseille","lat":43.31692,"lon":5.4047,"is_reserved":false,"is_disabled":false,"rental_uris":{"android":"levelo://app?vid=b8cbb686-83bc-4e93-a09b-37c28e1b4bed","ios":"levelo://app?vid=b8cbb686-83bc-4e93-a09b-37c28e1b4bed"},"vehicle_type_id":"4","last_reported":1706544476,"current_range_meters":4400,"station_id":"ce4bh012rcd13ifvqd00","pricing_plan_id":"free"},{"bike_id":"8d095e96-a3bb-47f4-a88a-45094f8eaa58","system_id":"levelo_inurba_marseille","lat":43.31683,"lon":5.40474,"is_reserved":false,"is_disabled":false,"rental_uris":{"android":"levelo://app?vid=8d095e96-a3bb-47f4-a88a-45094f8eaa58","ios":"levelo://app?vid=8d095e96-a3bb-47f4-a88a-45094f8eaa58"},"vehicle_type_id":"4","last_reported":1706544476,"current_range_meters":2000,"station_id":"ce4bh012rcd13ifvqd00","pricing_plan_id":"free"},{"bike_id":"1d73b404-b1c2-4b1c-884e-2145c5747c01","system_id":"levelo_inurba_marseille","lat":43.291994,"lon":5.392907,"is_reserved":false,"is_disabled":false,"rental_uris":{"android":"levelo://app?vid=1d73b404-b1c2-4b1c-884e-2145c5747c01","ios":"levelo://app?vid=1d73b404-b1c2-4b1c-884e-2145c5747c01"},"vehicle_type_id":"4","last_reported":1706544476,"current_range_meters":26400,"station_id":"ce4bh192rcd13ifvqdd0","pricing_plan_id":"free"},{"bike_id":"c465d2b2-2efb-456e-bf3e-0b62c79969ab","system_id":"levelo_inurba_marseille","lat":43.284538,"lon":5.358657,"is_reserved":false,"is_disabled":false,"rental_uris":{"android":"levelo://app?vid=c465d2b2-2efb-456e-bf3e-0b62c79969ab","ios":"levelo://app?vid=c465d2b2-2efb-456e-bf3e-0b62c79969ab"},"vehicle_type_id":"4","last_reported":1706544476,"current_range_meters":23600,"station_id":"ce4bhah2rcd13ifvqei0","pricing_plan_id":"free"},{"bike_id":"0294b6fa-72a8-49b5-a0ac-b842259d027a","system_id":"levelo_inurba_marseille","lat":43.284538,"lon":5.358657,"is_reserved":false,"is_disabled":false,"rental_uris":{"android":"levelo://app?vid=0294b6fa-72a8-49b5-a0ac-b842259d027a","ios":"levelo://app?vid=0294b6fa-72a8-49b5-a0ac-b842259d027a"},"vehicle_type_id":"4","last_reported":1706544476,"current_range_meters":11600,"station_id":"ce4bhah2rcd13ifvqei0","pricing_plan_id":"free"},{"bike_id":"1b26fa92-f73d-4447-831f-45e3ea7a2284","system_id":"levelo_inurba_marseille","lat":43.284534,"lon":5.358662,"is_reserved":false,"is_disabled":false,"rental_uris":{"android":"levelo://app?vid=1b26fa92-f73d-4447-831f-45e3ea7a2284","ios":"levelo://app?vid=1b26fa92-f73d-4447-831f-45e3ea7a2284"},"vehicle_type_id":"4","last_reported":1706544476,"current_range_meters":18800,"station_id":"ce4bhah2rcd13ifvqei0","pricing_plan_id":"free"},{"bike_id":"5d4c6712-3a10-4a98-ab86-5479278b31f4","system_id":"levelo_inurba_marseille","lat":43.294314,"lon":5.397498,"is_reserved":false,"is_disabled":false,"rental_uris":{"android":"levelo://app?vid=5d4c6712-3a10-4a98-ab86-5479278b31f4","ios":"levelo://app?vid=5d4c6712-3a10-4a98-ab86-5479278b31f4"},"vehicle_type_id":"4","last_reported":1706544476,"current_range_meters":6000,"station_id":"ce4bh3h2rcd13ifvqdo0","pricing_plan_id":"free"},{"bike_id":"39880b74-010f-4acd-a032-9cd59e1453b4","system_id":"levelo_inurba_marseille","lat":43.285856,"lon":5.350771,"is_reserved":false,"is_disabled":false,"rental_uris":{"android":"levelo://app?vid=39880b74-010f-4acd-a032-9cd59e1453b4","ios":"levelo://app?vid=39880b74-010f-4acd-a032-9cd59e1453b4"},"vehicle_type_id":"4","last_reported":1706544476,"current_range_meters":12800,"station_id":"ce4bhch2rcd13ifvqeug","pricing_plan_id":"free"},{"bike_id":"6cf97723-8415-4046-a07c-848eec0a230a","system_id":"levelo_inurba_marseille","lat":43.285856,"lon":5.350771,"is_reserved":false,"is_disabled":false,"rental_uris":{"android":"levelo://app?vid=6cf97723-8415-4046-a07c-848eec0a230a","ios":"levelo://app?vid=6cf97723-8415-4046-a07c-848eec0a230a"},"vehicle_type_id":"4","last_reported":1706544476,"current_range_meters":17200,"station_id":"ce4bhch2rcd13ifvqeug","pricing_plan_id":"free"},{"bike_id":"95f69aec-5059-414c-8195-03f04b8b25ea","system_id":"levelo_inurba_marseille","lat":43.286595,"lon":5.386795,"is_reserved":false,"is_disabled":false,"rental_uris":{"android":"levelo://app?vid=95f69aec-5059-414c-8195-03f04b8b25ea","ios":"levelo://app?vid=95f69aec-5059-414c-8195-03f04b8b25ea"},"vehicle_type_id":"4","last_reported":1706544476,"current_range_meters":20800,"station_id":"ce4bh492rcd13ifvqdug","pricing_plan_id":"free"},{"bike_id":"386adaef-aa7b-48a4-83e9-b1e25c213c50","system_id":"levelo_inurba_marseille","lat":43.319179,"lon":5.407725,"is_reserved":false,"is_disabled":false,"rental_uris":{"android":"levelo://app?vid=386adaef-aa7b-48a4-83e9-b1e25c213c50","ios":"levelo://app?vid=386adaef-aa7b-48a4-83e9-b1e25c213c50"},"vehicle_type_id":"4","last_reported":1706544476,"current_range_meters":24400,"station_id":"ce4bhq12rcd13ifvqhig","pricing_plan_id":"free"},{"bike_id":"14bf21c6-3163-4149-aca7-c17990cd0f4d","system_id":"levelo_inurba_marseille","lat":43.337168,"lon":5.391825,"is_reserved":false,"is_disabled":false,"rental_uris":{"android":"levelo://app?vid=14bf21c6-3163-4149-aca7-c17990cd0f4d","ios":"levelo://app?vid=14bf21c6-3163-4149-aca7-c17990cd0f4d"},"vehicle_type_id":"4","last_reported":1706544476,"current_range_meters":22800,"station_id":"ce4bhr92rcd13ifvqhsg","pricing_plan_id":"free"},{"bike_id":"081de126-e96e-4002-9db9-acad9467e9b6","system_id":"levelo_inurba_marseille","lat":43.337168,"lon":5.391825,"is_reserved":false,"is_disabled":false,"rental_uris":{"android":"levelo://app?vid=081de126-e96e-4002-9db9-acad9467e9b6","ios":"levelo://app?vid=081de126-e96e-4002-9db9-acad9467e9b6"},"vehicle_type_id":"4","last_reported":1706544476,"current_range_meters":26800,"station_id":"ce4bhr92rcd13ifvqhsg","pricing_plan_id":"free"},{"bike_id":"04e89ddc-be59-4b9e-8767-d72d776472c8","system_id":"levelo_inurba_marseille","lat":43.323464,"lon":5.406297,"is_reserved":false,"is_disabled":false,"rental_uris":{"android":"levelo://app?vid=04e89ddc-be59-4b9e-8767-d72d776472c8","ios":"levelo://app?vid=04e89ddc-be59-4b9e-8767-d72d776472c8"},"vehicle_type_id":"4","last_reported":1706544476,"current_range_meters":20400,"station_id":"ce4bhq92rcd13ifvqhjg","pricing_plan_id":"free"},{"bike_id":"a417b7ba-91a8-4ad1-bd29-81863fda736b","system_id":"levelo_inurba_marseille","lat":43.32344,"lon":5.40626,"is_reserved":false,"is_disabled":false,"rental_uris":{"android":"levelo://app?vid=a417b7ba-91a8-4ad1-bd29-81863fda736b","ios":"levelo://app?vid=a417b7ba-91a8-4ad1-bd29-81863fda736b"},"vehicle_type_id":"4","last_reported":1706544476,"current_range_meters":20800,"station_id":"ce4bhq92rcd13ifvqhjg","pricing_plan_id":"free"},{"bike_id":"c9e0a9e0-8db7-4a68-9dc9-dd558f498d5e","system_id":"levelo_inurba_marseille","lat":43.284793,"lon":5.384119,"is_reserved":false,"is_disabled":false,"rental_uris":{"android":"levelo://app?vid=c9e0a9e0-8db7-4a68-9dc9-dd558f498d5e","ios":"levelo://app?vid=c9e0a9e0-8db7-4a68-9dc9-dd558f498d5e"},"vehicle_type_id":"4","last_reported":1706544476,"current_range_meters":10800,"station_id":"ce4bh512rcd13ifvqe3g","pricing_plan_id":"free"},{"bike_id":"ff96d377-2623-4f75-9964-7016e12bb6c1","system_id":"levelo_inurba_marseille","lat":43.284793,"lon":5.384119,"is_reserved":false,"is_disabled":false,"rental_uris":{"android":"levelo://app?vid=ff96d377-2623-4f75-9964-7016e12bb6c1","ios":"levelo://app?vid=ff96d377-2623-4f75-9964-7016e12bb6c1"},"vehicle_type_id":"4","last_reported":1706544476,"current_range_meters":19600,"station_id":"ce4bh512rcd13ifvqe3g","pricing_plan_id":"free"},{"bike_id":"2d5d15f5-798c-401c-b575-c1a6966a7696","system_id":"levelo_inurba_marseille","lat":43.29795,"lon":5.404086,"is_reserved":false,"is_disabled":false,"rental_uris":{"android":"levelo://app?vid=2d5d15f5-798c-401c-b575-c1a6966a7696","ios":"levelo://app?vid=2d5d15f5-798c-401c-b575-c1a6966a7696"},"vehicle_type_id":"4","last_reported":1706544476,"current_range_meters":29200,"station_id":"ce4bh112rcd13ifvqd90","pricing_plan_id":"free"},{"bike_id":"f2e57e73-0638-41d3-bb89-c677e9f729d6","system_id":"levelo_inurba_marseille","lat":43.283494,"lon":5.380945,"is_reserved":false,"is_disabled":false,"rental_uris":{"android":"levelo://app?vid=f2e57e73-0638-41d3-bb89-c677e9f729d6","ios":"levelo://app?vid=f2e57e73-0638-41d3-bb89-c677e9f729d6"},"vehicle_type_id":"4","last_reported":1706544476,"current_range_meters":3200,"station_id":"ce4bh412rcd13ifvqdr0","pricing_plan_id":"free"},{"bike_id":"d0a87dbe-4f8c-4853-8925-0664b99ac9fc","system_id":"levelo_inurba_marseille","lat":43.283494,"lon":5.380945,"is_reserved":false,"is_disabled":false,"rental_uris":{"android":"levelo://app?vid=d0a87dbe-4f8c-4853-8925-0664b99ac9fc","ios":"levelo://app?vid=d0a87dbe-4f8c-4853-8925-0664b99ac9fc"},"vehicle_type_id":"4","last_reported":1706544476,"current_range_meters":25200,"station_id":"ce4bh412rcd13ifvqdr0","pricing_plan_id":"free"},{"bike_id":"cabb7e98-91e7-40b3-95e0-d4cb6fd93edf","system_id":"levelo_inurba_marseille","lat":43.293731,"lon":5.400602,"is_reserved":false,"is_disabled":false,"rental_uris":{"android":"levelo://app?vid=cabb7e98-91e7-40b3-95e0-d4cb6fd93edf","ios":"levelo://app?vid=cabb7e98-91e7-40b3-95e0-d4cb6fd93edf"},"vehicle_type_id":"4","last_reported":1706544476,"current_range_meters":8400,"station_id":"","pricing_plan_id":"free"},{"bike_id":"35f8c441-f18e-446c-8221-64aa8ad57a9a","system_id":"levelo_inurba_marseille","lat":43.283498,"lon":5.380948,"is_reserved":false,"is_disabled":false,"rental_uris":{"android":"levelo://app?vid=35f8c441-f18e-446c-8221-64aa8ad57a9a","ios":"levelo://app?vid=35f8c441-f18e-446c-8221-64aa8ad57a9a"},"vehicle_type_id":"4","last_reported":1706544476,"current_range_meters":0,"station_id":"ce4bh412rcd13ifvqdr0","pricing_plan_id":"free"},{"bike_id":"e8c73ce5-a025-473d-8716-2b92438f3011","system_id":"levelo_inurba_marseille","lat":43.284217,"lon":5.349697,"is_reserved":false,"is_disabled":false,"rental_uris":{"android":"levelo://app?vid=e8c73ce5-a025-473d-8716-2b92438f3011","ios":"levelo://app?vid=e8c73ce5-a025-473d-8716-2b92438f3011"},"vehicle_type_id":"4","last_reported":1706544476,"current_range_meters":26400,"station_id":"ce4bhbh2rcd13ifvqepg","pricing_plan_id":"free"},{"bike_id":"275bdada-6c56-4312-ab32-8288863325ef","system_id":"levelo_inurba_marseille","lat":43.284219,"lon":5.3497,"is_reserved":false,"is_disabled":false,"rental_uris":{"android":"levelo://app?vid=275bdada-6c56-4312-ab32-8288863325ef","ios":"levelo://app?vid=275bdada-6c56-4312-ab32-8288863325ef"},"vehicle_type_id":"4","last_reported":1706544476,"current_range_meters":13600,"station_id":"ce4bhbh2rcd13ifvqepg","pricing_plan_id":"free"},{"bike_id":"15c009be-3711-46cc-8977-da04c23e2568","system_id":"levelo_inurba_marseille","lat":43.284219,"lon":5.3497,"is_reserved":false,"is_disabled":false,"rental_uris":{"android":"levelo://app?vid=15c009be-3711-46cc-8977-da04c23e2568","ios":"levelo://app?vid=15c009be-3711-46cc-8977-da04c23e2568"},