{"last_updated":1739580302,"ttl":60,"version":"2.2","data":{"bikes":[{"bike_id":"19dd933c-fb71-44cd-9995-68f284739ca8","system_id":"levelo_inurba_marseille","lat":43.30578,"lon":5.37238,"is_reserved":false,"is_disabled":false,"rental_uris":{"android":"levelo://app?vid=19dd933c-fb71-44cd-9995-68f284739ca8","ios":"levelo://app?vid=19dd933c-fb71-44cd-9995-68f284739ca8"},"vehicle_type_id":"4","last_reported":1739580302,"current_range_meters":36800,"station_id":"ce4bgqh2rcd13ifvqc4g","pricing_plan_id":"cebpf4jnsgd1na2vs0mg"},{"bike_id":"8f8fcc2b-6a80-49a2-bcdc-2ba2085e83ae","system_id":"levelo_inurba_marseille","lat":43.31167,"lon":5.387,"is_reserved":false,"is_disabled":false,"rental_uris":{"android":"levelo://app?vid=8f8fcc2b-6a80-49a2-bcdc-2ba2085e83ae","ios":"levelo://app?vid=8f8fcc2b-6a80-49a2-bcdc-2ba2085e83ae"},"vehicle_type_id":"4","last_reported":1739580302,"current_range_meters":38800,"station_id":"ce4bgv12rcd13ifvqcp0","pricing_plan_id":"cebpf4jnsgd1na2vs0mg"},{"bike_id":"6dcbb753-f253-4208-bbc8-c1537d9fc62c","system_id":"levelo_inurba_marseille","lat":43.29027,"lon":5.38623,"is_reserved":false,"is_disabled":false,"rental_uris":{"android":"levelo://app?vid=6dcbb753-f253-4208-bbc8-c1537d9fc62c","ios":"levelo://app?vid=6dcbb753-f253-4208-bbc8-c1537d9fc62c"},"vehicle_type_id":"4","last_reported":1739580302,"current_range_meters":36800,"station_id":"ce4bh4p2rcd13ifvqe0g","pricing_plan_id":"cebpf4jnsgd1na2vs0mg"},{"bike_id":"ffcf2742-7296-4ef7-a267-d32b55d57a3e","system_id":"levelo_inurba_marseille","lat":43.3117,"lon":5.38724,"is_reserved":false,"is_disabled":false,"rental_uris":{"android":"levelo://app?vid=ffcf2742-7296-4ef7-a267-d32b55d57a3e","ios":"levelo://app?vid=ffcf2742-7296-4ef7-a267-d32b55d57a3e"},"vehicle_type_id":"4","last_reported":1739580302,"current_range_meters":32400,"station_id":"ce4bgv12rcd13ifvqcp0","pricing_plan_id":"cebpf4jnsgd1na2vs0mg"},{"bike_id":"719a875a-0651-4af4-9cdb-36248ea3b24a","system_id":"levelo_inurba_marseille","lat":43.28346,"lon":5.38957,"is_reserved":false,"is_disabled":false,"rental_uris":{"android":"levelo://app?vid=719a875a-0651-4af4-9cdb-36248ea3b24a","ios":"levelo://app?vid=719a875a-0651-4af4-9cdb-36248ea3b24a"},"vehicle_type_id":"4","last_reported":1739580302,"current_range_meters":14000,"station_id":"","pricing_plan_id":"cebpf4jnsgd1na2vs0mg"},{"bike_id":"647dc012-5826-4d55-83c6-5c1184d01b44","system_id":"levelo_inurba_marseille","lat":43.30803,"lon":5.38167,"is_reserved":false,"is_disabled":false,"rental_uris":{"android":"levelo://app?vid=647dc012-5826-4d55-83c6-5c1184d01b44","ios":"levelo://app?vid=647dc012-5826-4d55-83c6-5c1184d01b44"},"vehicle_type_id":"4","last_reported":1739580302,"current_range_meters":38000,"station_id":"ce4bgt12rcd13ifvqce0","pricing_plan_id":"cebpf4jnsgd1na2vs0mg"},{"bike_id":"492c92e4-cc2e-4095-843a-e98163a264fd","system_id":"levelo_inurba_marseille","lat":43.31314,"lon":5.39701,"is_reserved":false,"is_disabled":false,"rental_uris":{"android":"levelo://app?vid=492c92e4-cc2e-4095-843a-e98163a264fd","ios":"levelo://app?vid=492c92e4-cc2e-4095-843a-e98163a264fd"},"vehicle_type_id":"4","last_reported":1739580302,"current_range_meters":16400,"station_id":"ce4bgvp2rcd13ifvqcu0","pricing_plan_id":"cebpf4jnsgd1na2vs0mg"},{"bike_id":"aeeb603c-9e21-471f-a3b4-471a46d5c228","system_id":"levelo_inurba_marseille","lat":43.2417,"lon":5.36404,"is_reserved":false,"is_disabled":false,"rental_uris":{"android":"levelo://app?vid=aeeb603c-9e21-471f-a3b4-471a46d5c228","ios":"levelo://app?vid=aeeb603c-9e21-471f-a3b4-471a46d5c228"},"vehicle_type_id":"4","last_reported":1739580302,"current_range_meters":19200,"station_id":"cpo36qri1sfpv3e86is0","pricing_plan_id":"cebpf4jnsgd1na2vs0mg"},{"bike_id":"1d4165b9-e8af-42e7-8e88-54a0f84b4f26","system_id":"levelo_inurba_marseille","lat":43.23201,"lon":5.39967,"is_reserved":false,"is_disabled":false,"rental_uris":{"android":"levelo://app?vid=1d4165b9-e8af-42e7-8e88-54a0f84b4f26","ios":"levelo://app?vid=1d4165b9-e8af-42e7-8e88-54a0f84b4f26"},"vehicle_type_id":"4","last_reported":1739580302,"current_range_meters":27600,"station_id":"ce4bhn12rcd13ifvqgqg","pricing_plan_id":"cebpf4jnsgd1na2vs0mg"},{"bike_id":"c1e76274-801b-4893-b793-e635178d8b86","system_id":"levelo_inurba_marseille","lat":43.23961,"lon":5.36628,"is_reserved":false,"is_disabled":false,"rental_uris":{"android":"levelo://app?vid=c1e76274-801b-4893-b793-e635178d8b86","ios":"levelo://app?vid=c1e76274-801b-4893-b793-e635178d8b86"},"vehicle_type_id":"4","last_reported":1739580302,"current_range_meters":38800,"station_id":"ce4bhi12rcd13ifvqfp0","pricing_plan_id":"cebpf4jnsgd1na2vs0mg"},{"bike_id":"5b9a3d8e-a95a-4753-8943-71cffeb68638","system_id":"levelo_inurba_marseille","lat":43.301329,"lon":5.387916,"is_reserved":false,"is_disabled":true,"rental_uris":{"android":"levelo://app?vid=5b9a3d8e-a95a-4753-8943-71cffeb68638","ios":"levelo://app?vid=5b9a3d8e-a95a-4753-8943-71cffeb68638"},"vehicle_type_id":"4","last_reported":1739580302,"current_range_meters":27200,"station_id":"ce4bghh2rcd13ifvqb60","pricing_plan_id":"cebpf4jnsgd1na2vs0mg"},{"bike_id":"3d55dfbc-79dc-4a16-8c46-cf49fec8982e","system_id":"levelo_inurba_marseille","lat":43.24394,"lon":5.37047,"is_reserved":false,"is_disabled":false,"rental_uris":{"android":"levelo://app?vid=3d55dfbc-79dc-4a16-8c46-cf49fec8982e","ios":"levelo://app?vid=3d55dfbc-79dc-4a16-8c46-cf49fec8982e"},"vehicle_type_id":"4","last_reported":1739580302,"current_range_meters":38800,"station_id":"ce4bhhh2rcd13ifvqfk0","pricing_plan_id":"cebpf4jnsgd1na2vs0mg"},{"bike_id":"6e2f7af5-aff0-4075-a390-577bcab4146b","system_id":"levelo_inurba_marseille","lat":43.30915,"lon":5.3959,"is_reserved":false,"is_disabled":false,"rental_uris":{"android":"levelo://app?vid=6e2f7af5-aff0-4075-a390-577bcab4146b","ios":"levelo://app?vid=6e2f7af5-aff0-4075-a390-577bcab4146b"},"vehicle_type_id":"4","last_reported":1739580302,"current_range_meters":24000,"station_id":"ce4bh012rcd13ifvqcv0","pricing_plan_id":"cebpf4jnsgd1na2vs0mg"},{"bike_id":"f6014903-cf53-49ed-8bb6-9c2c5f5a492d","system_id":"levelo_inurba_marseille","lat":43.25086,"lon":5.3953,"is_reserved":false,"is_disabled":false,"rental_uris":{"android":"levelo://app?vid=f6014903-cf53-49ed-8bb6-9c2c5f5a492d","ios":"levelo://app?vid=f6014903-cf53-49ed-8bb6-9c2c5f5a492d"},"vehicle_type_id":"4","last_reported":1739580302,"current_range_meters":17600,"station_id":"ce4bhm12rcd13ifvqgkg","pricing_plan_id":"cebpf4jnsgd1na2vs0mg"},{"bike_id":"c74f8124-73dc-4bd8-a98e-9fa42c510bc4","system_id":"levelo_inurba_marseille","lat":43.23171,"lon":5.40004,"is_reserved":false,"is_disabled":false,"rental_uris":{"android":"levelo://app?vid=c74f8124-73dc-4bd8-a98e-9fa42c510bc4","ios":"levelo://app?vid=c74f8124-73dc-4bd8-a98e-9fa42c510bc4"},"vehicle_type_id":"4","last_reported":1739580302,"current_range_meters":27200,"station_id":"ce4bhn12rcd13ifvqgqg","pricing_plan_id":"cebpf4jnsgd1na2vs0mg"},{"bike_id":"eace11fc-366d-49db-ab9f-2f957d528477","system_id":"levelo_inurba_marseille","lat":43.25502,"lon":5.37661,"is_reserved":false,"is_disabled":false,"rental_uris":{"android":"levelo://app?vid=eace11fc-366d-49db-ab9f-2f957d528477","ios":"levelo://app?vid=eace11fc-366d-49db-ab9f-2f957d528477"},"vehicle_type_id":"4","last_reported":1739580302,"current_range_meters":38800,"station_id":"ce4bhh12rcd13ifvqff0","pricing_plan_id":"cebpf4jnsgd1na2vs0mg"},{"bike_id":"b4e5370f-26e8-4cca-8f05-a70c7b16fd74","system_id":"levelo_inurba_marseille","lat":43.31361,"lon":5.38497,"is_reserved":false,"is_disabled":false,"rental_uris":{"android":"levelo://app?vid=b4e5370f-26e8-4cca-8f05-a70c7b16fd74","ios":"levelo://app?vid=b4e5370f-26e8-4cca-8f05-a70c7b16fd74"},"vehicle_type_id":"4","last_reported":1739580302,"current_range_meters":32000,"station_id":"ce4bgt92rcd13ifvqcf0","pricing_plan_id":"cebpf4jnsgd1na2vs0mg"},{"bike_id":"5d2484e8-d08f-4bba-ae77-36cb31e97e9b","system_id":"levelo_inurba_marseille","lat":43.29552,"lon":5.42293,"is_reserved":false,"is_disabled":false,"rental_uris":{"android":"levelo://app?vid=5d2484e8-d08f-4bba-ae77-36cb31e97e9b","ios":"levelo://app?vid=5d2484e8-d08f-4bba-ae77-36cb31e97e9b"},"vehicle_type_id":"4","last_reported":1739580302,"current_range_meters":38800,"station_id":"ce4bhph2rcd13ifvqhdg","pricing_plan_id":"cebpf4jnsgd1na2vs0mg"},{"bike_id":"6b42f4f1-2360-420a-81a5-fa8f868ac30d","system_id":"levelo_inurba_marseille","lat":43.27185,"lon":5.39033,"is_reserved":false,"is_disabled":false,"rental_uris":{"android":"levelo://app?vid=6b42f4f1-2360-420a-81a5-fa8f868ac30d","ios":"levelo://app?vid=6b42f4f1-2360-420a-81a5-fa8f868ac30d"},"vehicle_type_id":"4","last_reported":1739580302,"current_range_meters":36000,"station_id":"","pricing_plan_id":"cebpf4jnsgd1na2vs0mg"},{"bike_id":"6c1b6b10-8577-4033-a0bd-22750b5ae345","system_id":"levelo_inurba_marseille","lat":43.31221,"lon":5.36863,"is_reserved":false,"is_disabled":false,"rental_uris":{"android":"levelo://app?vid=6c1b6b10-8577-4033-a0bd-22750b5ae345","ios":"levelo://app?vid=6c1b6b10-8577-4033-a0bd-22750b5ae345"},"vehicle_type_id":"4","last_reported":1739580302,"current_range_meters":27200,"station_id":"ce4bgl92rcd13ifvqbq0","pricing_plan_id":"cebpf4jnsgd1na2vs0mg"},{"bike_id":"e21d2e14-c5e2-4570-8b09-76ad61a62300","system_id":"levelo_inurba_marseille","lat":43.29782,"lon":5.37099,"is_reserved":false,"is_disabled":false,"rental_uris":{"android":"levelo://app?vid=e21d2e14-c5e2-4570-8b09-76ad61a62300","ios":"levelo://app?vid=e21d2e14-c5e2-4570-8b09-76ad61a62300"},"vehicle_type_id":"4","last_reported":1739580302,"current_range_meters":38400,"station_id":"ce4bgop2rcd13ifvqc1g","pricing_plan_id":"cebpf4jnsgd1na2vs0mg"},{"bike_id":"4374c5bd-03ee-4dfd-bc9c-a82047612d94","system_id":"levelo_inurba_marseille","lat":43.31992,"lon":5.38141,"is_reserved":false,"is_disabled":false,"rental_uris":{"android":"levelo://app?vid=4374c5bd-03ee-4dfd-bc9c-a82047612d94","ios":"levelo://app?vid=4374c5bd-03ee-4dfd-bc9c-a82047612d94"},"vehicle_type_id":"4","last_reported":1739580302,"current_range_meters":10000,"station_id":"ce4bhr12rcd13ifvqhpg","pricing_plan_id":"cebpf4jnsgd1na2vs0mg"},{"bike_id":"b34c6303-752a-46a1-93ad-ddbc991e20b6","system_id":"levelo_inurba_marseille","lat":43.23068,"lon":5.35497,"is_reserved":false,"is_disabled":false,"rental_uris":{"android":"levelo://app?vid=b34c6303-752a-46a1-93ad-ddbc991e20b6","ios":"levelo://app?vid=b34c6303-752a-46a1-93ad-ddbc991e20b6"},"vehicle_type_id":"4","last_reported":1739580302,"current_range_meters":38400,"station_id":"cpo3342slgdg3j2ifvpg","pricing_plan_id":"cebpf4jnsgd1na2vs0mg"},{"bike_id":"5557cf88-c9b4-477c-9a10-d8d0753e4d48","system_id":"levelo_inurba_marseille","lat":43.280004,"lon":5.400126,"is_reserved":false,"is_disabled":false,"rental_uris":{"android":"levelo://app?vid=5557cf88-c9b4-477c-9a10-d8d0753e4d48","ios":"levelo://app?vid=5557cf88-c9b4-477c-9a10-d8d0753e4d48"},"vehicle_type_id":"4","last_reported":1739580302,"current_range_meters":28800,"station_id":"ce4bho92rcd13ifvqh4g","pricing_plan_id":"cebpf4jnsgd1na2vs0mg"},{"bike_id":"78d173ae-b715-496b-84c7-0dad149a44f3","system_id":"levelo_inurba_marseille","lat":43.29262,"lon":5.40908,"is_reserved":false,"is_disabled":false,"rental_uris":{"android":"levelo://app?vid=78d173ae-b715-496b-84c7-0dad149a44f3","ios":"levelo://app?vid=78d173ae-b715-496b-84c7-0dad149a44f3"},"vehicle_type_id":"4","last_reported":1739580302,"current_range_meters":36800,"station_id":"ce4bh192rcd13ifvqdc0","pricing_plan_id":"cebpf4jnsgd1na2vs0mg"},{"bike_id":"22517571-8907-45bc-abb0-b0f4259e23bd","system_id":"levelo_inurba_marseille","lat":43.311155,"lon":5.377529,"is_reserved":false,"is_disabled":false,"rental_uris":{"android":"levelo://app?vid=22517571-8907-45bc-abb0-b0f4259e23bd","ios":"levelo://app?vid=22517571-8907-45bc-abb0-b0f4259e23bd"},"vehicle_type_id":"4","last_reported":1739580302,"current_range_meters":32400,"station_id":"ce4bgt92rcd13ifvqcg0","pricing_plan_id":"cebpf4jnsgd1na2vs0mg"},{"bike_id":"1300f95a-15ad-4299-a221-177495e93e42","system_id":"levelo_inurba_marseille","lat":43.32657,"lon":5.4102,"is_reserved":false,"is_disabled":false,"rental_uris":{"android":"levelo://app?vid=1300f95a-15ad-4299-a221-177495e93e42","ios":"levelo://app?vid=1300f95a-15ad-4299-a221-177495e93e42"},"vehicle_type_id":"4","last_reported":1739580302,"current_range_meters":24800,"station_id":"ce4bhpp2rcd13ifvqhgg","pricing_plan_id":"cebpf4jnsgd1na2vs0mg"},{"bike_id":"10755ee9-ff7b-4235-afae-2e0c4542077d","system_id":"levelo_inurba_marseille","lat":43.30779,"lon":5.37636,"is_reserved":false,"is_disabled":false,"rental_uris":{"android":"levelo://app?vid=10755ee9-ff7b-4235-afae-2e0c4542077d","ios":"levelo://app?vid=10755ee9-ff7b-4235-afae-2e0c4542077d"},"vehicle_type_id":"4","last_reported":1739580302,"current_range_meters":22800,"station_id":"ce4bgv92rcd13ifvqcq0","pricing_plan_id":"cebpf4jnsgd1na2vs0mg"},{"bike_id":"db0c59a5-e36c-460d-a199-b553cfb8a418","system_id":"levelo_inurba_marseille","lat":43.28359,"lon":5.42969,"is_reserved":false,"is_disabled":false,"rental_uris":{"android":"levelo://app?vid=db0c59a5-e36c-460d-a199-b553cfb8a418","ios":"levelo://app?vid=db0c59a5-e36c-460d-a199-b553cfb8a418"},"vehicle_type_id":"4","last_reported":1739580302,"current_range_meters":24000,"station_id":"","pricing_plan_id":"cebpf4jnsgd1na2vs0mg"},{"bike_id":"ab5a4876-a304-42c5-b5c2-54299646e2f8","system_id":"levelo_inurba_marseille","lat":43.30685,"lon":5.40508,"is_reserved":false,"is_disabled":false,"rental_uris":{"android":"levelo://app?vid=ab5a4876-a304-42c5-b5c2-54299646e2f8","ios":"levelo://app?vid=ab5a4876-a304-42c5-b5c2-54299646e2f8"},"vehicle_type_id":"4","last_reported":1739580302,"current_range_meters":18800,"station_id":"","pricing_plan_id":"cebpf4jnsgd1na2vs0mg"},{"bike_id":"13475279-2ac4-4a8e-ba61-f31e11838811","system_id":"levelo_inurba_marseille","lat":43.30244,"lon":5.40081,"is_reserved":false,"is_disabled":false,"rental_uris":{"android":"levelo://app?vid=13475279-2ac4-4a8e-ba61-f31e11838811","ios":"levelo://app?vid=13475279-2ac4-4a8e-ba61-f31e11838811"},"vehicle_type_id":"4","last_reported":1739580302,"current_range_meters":32000,"station_id":"ce4bgvh2rcd13ifvqcs0","pricing_plan_id":"cebpf4jnsgd1na2vs0mg"},{"bike_id":"7d8530f2-44ab-44c8-bb4a-721879476948","system_id":"levelo_inurba_marseille","lat":43.31487,"lon":5.3731,"is_reserved":false,"is_disabled":false,"rental_uris":{"android":"levelo://app?vid=7d8530f2-44ab-44c8-bb4a-721879476948","ios":"levelo://app?vid=7d8530f2-44ab-44c8-bb4a-721879476948"},"vehicle_type_id":"4","last_reported":1739580302,"current_range_meters":37600,"station_id":"ce4bgt12rcd13ifvqcd0","pricing_plan_id":"cebpf4jnsgd1na2vs0mg"},{"bike_id":"d430bbf5-dcb4-4006-8220-7af0587abbc5","system_id":"levelo_inurba_marseille","lat":43.25078,"lon":5.39504,"is_reserved":false,"is_disabled":false,"rental_uris":{"android":"levelo://app?vid=d430bbf5-dcb4-4006-8220-7af0587abbc5","ios":"levelo://app?vid=d430bbf5-dcb4-4006-8220-7af0587abbc5"},"vehicle_type_id":"4","last_reported":1739580302,"current_range_meters":39200,"station_id":"ce4bhm12rcd13ifvqgkg","pricing_plan_id":"cebpf4jnsgd1na2vs0mg"},{"bike_id":"f1c49cdb-c423-415c-badc-8e4cfb5c6b43","system_id":"levelo_inurba_marseille","lat":43.30611,"lon":5.37228,"is_reserved":false,"is_disabled":false,"rental_uris":{"android":"levelo://app?vid=f1c49cdb-c423-415c-badc-8e4cfb5c6b43","ios":"levelo://app?vid=f1c49cdb-c423-415c-badc-8e4cfb5c6b43"},"vehicle_type_id":"4","last_reported":1739580302,"current_range_meters":38800,"station_id":"ce4bgqh2rcd13ifvqc4g","pricing_plan_id":"cebpf4jnsgd1na2vs0mg"},{"bike_id":"5ac1b3e9-6624-4bab-a598-45ab544a1b2f","system_id":"levelo_inurba_marseille","lat":43.26687,"lon":5.38327,"is_reserved":false,"is_disabled":false,"rental_uris":{"android":"levelo://app?vid=5ac1b3e9-6624-4bab-a598-45ab544a1b2f","ios":"levelo://app?vid=5ac1b3e9-6624-4bab-a598-45ab544a1b2f"},"vehicle_type_id":"4","last_reported":1739580302,"current_range_meters":7200,"station_id":"ce4bhg92rcd13ifvqf90","pricing_plan_id":"cebpf4jnsgd1na2vs0mg"},{"bike_id":"a2b8b535-68ab-48b4-8f05-9e1a3fd245cc","system_id":"levelo_inurba_marseille","lat":43.317565,"lon":5.390189,"is_reserved":false,"is_disabled":false,"rental_uris":{"android":"levelo://app?vid=a2b8b535-68ab-48b4-8f05-9e1a3fd245cc","ios":"levelo://app?vid=a2b8b535-68ab-48b4-8f05-9e1a3fd245cc"},"vehicle_type_id":"4","last_reported":1739580302,"current_range_meters":34800,"station_id":"ce4bhqp2rcd13ifvqhng","pricing_plan_id":"cebpf4jnsgd1na2vs0mg"},{"bike_id":"6efd9de7-fb29-4972-be54-1e784b49d1b0","system_id":"levelo_inurba_marseille","lat":43.24818,"lon":5.37481,"is_reserved":false,"is_disabled":false,"rental_uris":{"android":"levelo://app?vid=6efd9de7-fb29-4972-be54-1e784b49d1b0","ios":"levelo://app?vid=6efd9de7-fb29-4972-be54-1e784b49d1b0"},"vehicle_type_id":"4","last_reported":1739580302,"current_range_meters":35600,"station_id":"ce4bhgh2rcd13ifvqfb0","pricing_plan_id":"cebpf4jnsgd1na2vs0mg"},{"bike_id":"1f0657bb-7196-41de-84fc-c834bbf90b28","system_id":"levelo_inurba_marseille","lat":43.28075,"lon":5.39656,"is_reserved":false,"is_disabled":false,"rental_uris":{"android":"levelo://app?vid=1f0657bb-7196-41de-84fc-c834bbf90b28","ios":"levelo://app?vid=1f0657bb-7196-41de-84fc-c834bbf90b28"},"vehicle_type_id":"4","last_reported":1739580302,"current_range_meters":37600,"station_id":"ce4bho12rcd13ifvqh2g","pricing_plan_id":"cebpf4jnsgd1na2vs0mg"},{"bike_id":"2de3d260-2417-4bc8-86ce-3bc3b1a20af3","system_id":"levelo_inurba_marseille","lat":43.2549,"lon":5.37646,"is_reserved":false,"is_disabled":false,"rental_uris":{"android":"levelo://app?vid=2de3d260-2417-4bc8-86ce-3bc3b1a20af3","ios":"levelo://app?vid=2de3d260-2417-4bc8-86ce-3bc3b1a20af3"},"vehicle_type_id":"4","last_reported":1739580302,"current_range_meters":39200,"station_id":"ce4bhh12rcd13ifvqff0","pricing_plan_id":"cebpf4jnsgd1na2vs0mg"},{"bike_id":"cc52dec1-67b6-4c07-b07c-19c77250a425","system_id":"levelo_inurba_marseille","lat":43.31346,"lon":5.39658,"is_reserved":false,"is_disabled":false,"rental_uris":{"android":"levelo://app?vid=cc52dec1-67b6-4c07-b07c-19c77250a425","ios":"levelo://app?vid=cc52dec1-67b6-4c07-b07c-19c77250a425"},"vehicle_type_id":"4","last_reported":1739580302,"current_range_meters":39200,"station_id":"ce4bgvp2rcd13ifvqcu0","pricing_plan_id":"cebpf4jnsgd1na2vs0mg"},{"bike_id":"04826741-9203-41a1-85e6-32051bcfd227","system_id":"levelo_inurba_marseille","lat":43.24809,"lon":5.37463,"is_reserved":false,"is_disabled":false,"rental_uris":{"android":"levelo://app?vid=04826741-9203-41a1-85e6-32051bcfd227","ios":"levelo://app?vid=04826741-9203-41a1-85e6-32051bcfd227"},"vehicle_type_id":"4","last_reported":1739580302,"current_range_meters":3200,"station_id":"ce4bhgh2rcd13ifvqfb0","pricing_plan_id":"cebpf4jnsgd1na2vs0mg"},{"bike_id":"179c65d4-e637-43fd-ba13-7b8d408dfcda","system_id":"levelo_inurba_marseille","lat":43.29553,"lon":5.42294,"is_reserved":false,"is_disabled":false,"rental_uris":{"android":"levelo://app?vid=179c65d4-e637-43fd-ba13-7b8d408dfcda","ios":"levelo://app?vid=179c65d4-e637-43fd-ba13-7b8d408dfcda"},"vehicle_type_id":"4","last_reported":1739580302,"current_range_meters":20000,"station_id":"ce4bhph2rcd13ifvqhdg","pricing_plan_id":"cebpf4jnsgd1na2vs0mg"},{"bike_id":"d9d039e9-95b6-4e20-817d-1c241a2e3b8a","system_id":"levelo_inurba_marseille","lat":43.34711,"lon":5.3733,"is_reserved":false,"is_disabled":false,"rental_uris":{"android":"levelo://app?vid=d9d039e9-95b6-4e20-817d-1c241a2e3b8a","ios":"levelo://app?vid=d9d039e9-95b6-4e20-817d-1c241a2e3b8a"},"vehicle_type_id":"4","last_reported":1739580302,"current_range_meters":28400,"station_id":"","pricing_plan_id":"cebpf4jnsgd1na2vs0mg"},{"bike_id":"6df96076-3145-4766-a6be-737ca63ee8d2","system_id":"levelo_inurba_marseille","lat":43.292728,"lon":5.3684,"is_reserved":false,"is_disabled":false,"rental_uris":{"android":"levelo://app?vid=6df96076-3145-4766-a6be-737ca63ee8d2","ios":"levelo://app?vid=6df96076-3145-4766-a6be-737ca63ee8d2"},"vehicle_type_id":"4","last_reported":1739580302,"current_range_meters":38800,"station_id":"ce4bhbp2rcd13ifvqesg","pricing_plan_id":"cebpf4jnsgd1na2vs0mg"},{"bike_id":"97708c38-52e6-4f5f-9662-cb7bef18df90","system_id":"levelo_inurba_marseille","lat":43.30657,"lon":5.40072,"is_reserved":false,"is_disabled":false,"rental_uris":{"android":"levelo://app?vid=97708c38-52e6-4f5f-9662-cb7bef18df90","ios":"levelo://app?vid=97708c38-52e6-4f5f-9662-cb7bef18df90"},"vehicle_type_id":"4","last_reported":1739580302,"current_range_meters":35200,"station_id":"ce4bh112rcd13ifvqda0","pricing_plan_id":"cebpf4jnsgd1na2vs0mg"},{"bike_id":"88a39b30-e0df-48d2-a44d-b6c548488ca9","system_id":"levelo_inurba_marseille","lat":43.30803,"lon":5.38151,"is_reserved":false,"is_disabled":false,"rental_uris":{"android":"levelo://app?vid=88a39b30-e0df-48d2-a44d-b6c548488ca9","ios":"levelo://app?vid=88a39b30-e0df-48d2-a44d-b6c548488ca9"},"vehicle_type_id":"4","last_reported":1739580302,"current_range_meters":8400,"station_id":"ce4bgt12rcd13ifvqce0","pricing_plan_id":"cebpf4jnsgd1na2vs0mg"},{"bike_id":"ce50de91-d2b1-46f5-b3a9-a90deec7008f","system_id":"levelo_inurba_marseille","lat":43.28937,"lon":5.39649,"is_reserved":false,"is_disabled":true,"rental_uris":{"android":"levelo://app?vid=ce50de91-d2b1-46f5-b3a9-a90deec7008f","ios":"levelo://app?vid=ce50de91-d2b1-46f5-b3a9-a90deec7008f"},"vehicle_type_id":"4","last_reported":1739580302,"current_range_meters":18000,"station_id":"ce4bh3h2rcd13ifvqdn0","pricing_plan_id":"cebpf4jnsgd1na2vs0mg"},{"bike_id":"f92e748a-9f9b-4e54-8084-07e33515f3d5","system_id":"levelo_inurba_marseille","lat":43.27072,"lon":5.39325,"is_reserved":false,"is_disabled":true,"rental_uris":{"android":"levelo://app?vid=f92e748a-9f9b-4e54-8084-07e33515f3d5","ios":"levelo://app?vid=f92e748a-9f9b-4e54-8084-07e33515f3d5"},"vehicle_type_id":"4","last_reported":1739580302,"current_range_meters":0,"station_id":"","pricing_plan_id":"cebpf4jnsgd1na2vs0mg"},{"bike_id":"704ec19d-e7c0-4858-a423-dcfa560220a5","system_id":"levelo_inurba_marseille","lat":43.23189,"lon":5.399836,"is_reserved":false,"is_disabled":false,"rental_uris":{"android":"levelo://app?vid=704ec19d-e7c0-4858-a423-dcfa560220a5","ios":"levelo://app?vid=704ec19d-e7c0-4858-a423-dcfa560220a5"},"vehicle_type_id":"4","last_reported":1739580302,"current_range_meters":31200,"station_id":"ce4bhn12rcd13ifvqgqg","pricing_plan_id":"cebpf4jnsgd1na2vs0mg"},{"bike_id":"2e0d4b9a-173f-48bf-aeee-cdbbe6dbe006","system_id":"levelo_inurba_marseille","lat":43.28457,"lon":5.35884,"is_reserved":false,"is_disabled":false,"rental_uris":{"android":"levelo://app?vid=2e0d4b9a-173f-48bf-aeee-cdbbe6dbe006","ios":"levelo://app?vid=2e0d4b9a-173f-48bf-aeee-cdbbe6dbe006"},"vehicle_type_id":"4","last_reported":1739580302,"current_range_meters":25600,"station_id":"ce4bhah2rcd13ifvqei0","pricing_plan_id":"cebpf4jnsgd1na2vs0mg"},{"bike_id":"79a14fa8-8499-49b2-b9e0-deefae5f7105","system_id":"levelo_inurba_marseille","lat":43.29079,"lon":5.37183,"is_reserved":false,"is_disabled":false,"rental_uris":{"android":"levelo://app?vid=79a14fa8-8499-49b2-b9e0-deefae5f7105","ios":"levelo://app?vid=79a14fa8-8499-49b2-b9e0-deefae5f7105"},"vehicle_type_id":"4","last_reported":1739580302,"current_range_meters":38000,"station_id":"ce4bh5p2rcd13ifvqe4g","pricing_plan_id":"cebpf4jnsgd1na2vs0mg"},{"bike_id":"87ba58c2-e5ae-4e89-93b9-7d837886ab41","system_id":"levelo_inurba_marseille","lat":43.28393,"lon":5.37524,"is_reserved":false,"is_disabled":false,"rental_uris":{"android":"levelo://app?vid=87ba58c2-e5ae-4e89-93b9-7d837886ab41","ios":"levelo://app?vid=87ba58c2-e5ae-4e89-93b9-7d837886ab41"},"vehicle_type_id":"4","last_reported":1739580302,"current_range_meters":31200,"station_id":"ce4bh412rcd13ifvqds0","pricing_plan_id":"cebpf4jnsgd1na2vs0mg"},{"bike_id":"9cf8e6d9-67b8-441b-8ab4-08ef8560d2b0","system_id":"levelo_inurba_marseille","lat":43.33514,"lon":5.35585,"is_reserved":false,"is_disabled":true,"rental_uris":{"android":"levelo://app?vid=9cf8e6d9-67b8-441b-8ab4-08ef8560d2b0","ios":"levelo://app?vid=9cf8e6d9-67b8-441b-8ab4-08ef8560d2b0"},"vehicle_type_id":"4","last_reported":1739580302,"current_range_meters":0,"station_id":"","pricing_plan_id":"cebpf4jnsgd1na2vs0mg"},{"bike_id":"e8383a41-ab98-41de-8229-dcb769519e9e","system_id":"levelo_inurba_marseille","lat":43.27917,"lon":5.39581,"is_reserved":false,"is_disabled":false,"rental_uris":{"android":"levelo://app?vid=e8383a41-ab98-41de-8229-dcb769519e9e","ios":"levelo://app?vid=e8383a41-ab98-41de-8229-dcb769519e9e"},"vehicle_type_id":"4","last_reported":1739580302,"current_range_meters":17200,"station_id":"ce4bhf92rcd13ifvqf40","pricing_plan_id":"cebpf4jnsgd1na2vs0mg"},{"bike_id":"6279f888-1d4b-4ebb-b3f2-c7248902b00f","system_id":"levelo_inurba_marseille","lat":43.25471,"lon":5.37609,"is_reserved":false,"is_disabled":false,"rental_uris":{"android":"levelo://app?vid=6279f888-1d4b-4ebb-b3f2-c7248902b00f","ios":"levelo://app?vid=6279f888-1d4b-4ebb-b3f2-c7248902b00f"},"vehicle_type_id":"4","last_reported":1739580302,"current_range_meters":14800,"station_id":"ce4bhh12rcd13ifvqff0","pricing_plan_id":"cebpf4jnsgd1na2vs0mg"},{"bike_id":"f9bcb86f-a6a3-429a-aba1-be70725b70c3","system_id":"levelo_inurba_marseille","lat":43.30421,"lon":5.41285,"is_reserved":false,"is_disabled":false,"rental_uris":{"android":"levelo://app?vid=f9bcb86f-a6a3-429a-aba1-be70725b70c3","ios":"levelo://app?vid=f9bcb86f-a6a3-429a-aba1-be70725b70c3"},"vehicle_type_id":"4","last_reported":1739580302,"current_range_meters":13600,"station_id":"ce4bhop2rcd13ifvqh8g","pricing_plan_id":"cebpf4jnsgd1na2vs0mg"},{"bike_id":"811b63d6-9c3c-4b06-849e-3b400f65e795","system_id":"levelo_inurba_marseille","lat":43.24654,"lon":5.38882,"is_reserved":false,"is_disabled":false,"rental_uris":{"android":"levelo://app?vid=811b63d6-9c3c-4b06-849e-3b400f65e795","ios":"levelo://app?vid=811b63d6-9c3c-4b06-849e-3b400f65e795"},"vehicle_type_id":"4","last_reported":1739580302,"current_range_meters":12800,"station_id":"ce4bhg12rcd13ifvqf60","pricing_plan_id":"cebpf4jnsgd1na2vs0mg"},{"bike_id":"e8e0bf5e-e649-40fe-b843-877cd938ff9e","system_id":"levelo_inurba_marseille","lat":43.27492,"lon":5.42455,"is_reserved":false,"is_disabled":false,"rental_uris":{"android":"levelo://app?vid=e8e0bf5e-e649-40fe-b843-877cd938ff9e","ios":"levelo://app?vid=e8e0bf5e-e649-40fe-b843-877cd938ff9e"},"vehicle_type_id":"4","last_reported":1739580302,"current_range_meters":39200,"station_id":"ce4bhn92rcd13ifvqgrg","pricing_plan_id":"cebpf4jnsgd1na2vs0mg"},{"bike_id":"89c21e37-96a6-4ad8-86f4-70809a9e6b8e","system_id":"levelo_inurba_marseille","lat":43.31709,"lon":5.43708,"is_reserved":false,"is_disabled":false,"rental_uris":{"android":"levelo://app?vid=89c21e37-96a6-4ad8-86f4-70809a9e6b8e","ios":"levelo://app?vid=89c21e37-96a6-4ad8-86f4-70809a9e6b8e"},"vehicle_type_id":"4","last_reported":1739580302,"current_range_meters":22800,"station_id":"ce4bhp92rcd13ifvqhcg","pricing_plan_id":"cebpf4jnsgd1na2vs0mg"},{"bike_id":"e1c2d20a-3814-46fc-942f-06a32b959a5b","system_id":"levelo_inurba_marseille","lat":43.31237,"lon":5.3685,"is_reserved":false,"is_disabled":false,"rental_uris":{"android":"levelo://app?vid=e1c2d20a-3814-46fc-942f-06a32b959a5b","ios":"levelo://app?vid=e1c2d20a-3814-46fc-942f-06a32b959a5b"},"vehicle_type_id":"4","last_reported":1739580302,"current_range_meters":38000,"station_id":"ce4bgl92rcd13ifvqbq0","pricing_plan_id":"cebpf4jnsgd1na2vs0mg"},{"bike_id":"30c17d1c-05b7-4e08-99da-ed8ff80fd970","system_id":"levelo_inurba_marseille","lat":43.30932,"lon":5.39061,"is_reserved":false,"is_disabled":true,"rental_uris":{"android":"levelo://app?vid=30c17d1c-05b7-4e08-99da-ed8ff80fd970","ios":"levelo://app?vid=30c17d1c-05b7-4e08-99da-ed8ff80fd970"},"vehicle_type_id":"4","last_reported":1739580302,"current_range_meters":17600,"station_id":"ce4bgup2rcd13ifvqco0","pricing_plan_id":"cebpf4jnsgd1na2vs0mg"},{"bike_id":"45ec3d9e-8c6d-4fe4-9a7f-b5c03f5c8cee","system_id":"levelo_inurba_marseille","lat":43.25084,"lon":5.39519,"is_reserved":false,"is_disabled":false,"rental_uris":{"android":"levelo://app?vid=45ec3d9e-8c6d-4fe4-9a7f-b5c03f5c8cee","ios":"levelo://app?vid=45ec3d9e-8c6d-4fe4-9a7f-b5c03f5c8cee"},"vehicle_type_id":"4","last_reported":1739580302,"current_range_meters":33600,"station_id":"ce4bhm12rcd13ifvqgkg","pricing_plan_id":"cebpf4jnsgd1na2vs0mg"},{"bike_id":"51ab7186-5043-4bed-baca-73708608a302","system_id":"levelo_inurba_marseille","lat":43.29584,"lon":5.37026,"is_reserved":false,"is_disabled":true,"rental_uris":{"android":"levelo://app?vid=51ab7186-5043-4bed-baca-73708608a302","ios":"levelo://app?vid=51ab7186-5043-4bed-baca-73708608a302"},"vehicle_type_id":"4","last_reported":1739580302,"current_range_meters":0,"station_id":"","pricing_plan_id":"cebpf4jnsgd1na2vs0mg"},{"bike_id":"041e106f-de74-4090-82c4-56a6b38bc309","system_id":"levelo_inurba_marseille","lat":43.289286,"lon":5.366396,"is_reserved":false,"is_disabled":false,"rental_uris":{"android":"levelo://app?vid=041e106f-de74-4090-82c4-56a6b38bc309","ios":"levelo://app?vid=041e106f-de74-4090-82c4-56a6b38bc309"},"vehicle_type_id":"4","last_reported":1739580302,"current_range_meters":30800,"station_id":"ce4bhap2rcd13ifvqek0","pricing_plan_id":"cebpf4jnsgd1na2vs0mg"},{"bike_id":"f2519867-cdec-43b5-bba2-e8403338e080","system_id":"levelo_inurba_marseille","lat":43.28658,"lon":5.36356,"is_reserved":false,"is_disabled":false,"rental_uris":{"android":"levelo://app?vid=f2519867-cdec-43b5-bba2-e8403338e080","ios":"levelo://app?vid=f2519867-cdec-43b5-bba2-e8403338e080"},"vehicle_type_id":"4","last_reported":1739580302,"current_range_meters":22400,"station_id":"ce4bhah2rcd13ifvqej0","pricing_plan_id":"cebpf4jnsgd1na2vs0mg"},{"bike_id":"d3fc5f7e-9983-4343-a9af-f36df7d45f29","system_id":"levelo_inurba_marseille","lat":43.2317,"lon":5.39976,"is_reserved":false,"is_disabled":false,"rental_uris":{"android":"levelo://app?vid=d3fc5f7e-9983-4343-a9af-f36df7d45f29","ios":"levelo://app?vid=d3fc5f7e-9983-4343-a9af-f36df7d45f29"},"vehicle_type_id":"4","last_reported":1739580302,"current_range_meters":17200,"station_id":"ce4bhn12rcd13ifvqgqg","pricing_plan_id":"cebpf4jnsgd1na2vs0mg"},{"bike_id":"3726052c-435c-4e9a-97b4-6741247fd797","system_id":"levelo_inurba_marseille","lat":43.28437,"lon":5.34997,"is_reserved":false,"is_disabled":false,"rental_uris":{"android":"levelo://app?vid=3726052c-435c-4e9a-97b4-6741247fd797","ios":"levelo://app?vid=3726052c-435c-4e9a-97b4-6741247fd797"},"vehicle_type_id":"4","last_reported":1739580302,"current_range_meters":30400,"station_id":"ce4bhbh2rcd13ifvqepg","pricing_plan_id":"cebpf4jnsgd1na2vs0mg"},{"bike_id":"635450e7-7bbd-4225-8704-989f96e65061","system_id":"levelo_inurba_marseille","lat":43.27498,"lon":5.42453,"is_reserved":false,"is_disabled":false,"rental_uris":{"android":"levelo://app?vid=635450e7-7bbd-4225-8704-989f96e65061","ios":"levelo://app?vid=635450e7-7bbd-4225-8704-989f96e65061"},"vehicle_type_id":"4","last_reported":1739580302,"current_range_meters":39200,"station_id":"ce4bhn92rcd13ifvqgrg","pricing_plan_id":"cebpf4jnsgd1na2vs0mg"},{"bike_id":"6243740b-900c-49eb-ab60-bae0a6738da4","system_id":"levelo_inurba_marseille","lat":43.28448,"lon":5.3589,"is_reserved":false,"is_disabled":false,"rental_uris":{"android":"levelo://app?vid=6243740b-900c-49eb-ab60-bae0a6738da4","ios":"levelo://app?vid=6243740b-900c-49eb-ab60-bae0a6738da4"},"vehicle_type_id":"4","last_reported":1739580302,"current_range_meters":39200,"station_id":"ce4bhah2rcd13ifvqei0","pricing_plan_id":"cebpf4jnsgd1na2vs0mg"},{"bike_id":"5fbe50a8-885b-4657-b77c-df4181249707","system_id":"levelo_inurba_marseille","lat":43.30076,"lon":5.40495,"is_reserved":false,"is_disabled":false,"rental_uris":{"android":"levelo://app?vid=5fbe50a8-885b-4657-b77c-df4181249707","ios":"levelo://app?vid=5fbe50a8-885b-4657-b77c-df4181249707"},"vehicle_type_id":"4","last_reported":1739580302,"current_range_meters":36000,"station_id":"","pricing_plan_id":"cebpf4jnsgd1na2vs0mg"},{"bike_id":"c40e2cb9-b89c-4dbd-956b-535ef79f1d37","system_id":"levelo_inurba_marseille","lat":43.24805,"lon":5.37465,"is_reserved":false,"is_disabled":false,"rental_uris":{"android":"levelo://app?vid=c40e2cb9-b89c-4dbd-956b-535ef79f1d37","ios":"levelo://app?vid=c40e2cb9-b89c-4dbd-956b-535ef79f1d37"},"vehicle_type_id":"4","last_reported":1739580302,"current_range_meters":25600,"station_id":"ce4bhgh2rcd13ifvqfb0","pricing_plan_id":"cebpf4jnsgd1na2vs0mg"},{"bike_id":"6d14ffd0-8cb0-40f3-8b6f-5b79b4098bae","system_id":"levelo_inurba_marseille","lat":43.28092,"lon":5.37854,"is_reserved":false,"is_disabled":false,"rental_uris":{"android":"levelo://app?vid=6d14ffd0-8cb0-40f3-8b6f-5b79b4098bae","ios":"levelo://app?vid=6d14ffd0-8cb0-40f3-8b6f-5b79b4098bae"},"vehicle_type_id":"4","last_reported":1739580302,"current_range_meters":34800,"station_id":"ce4bha12rcd13ifvqee0","pricing_plan_id":"cebpf4jnsgd1na2vs0mg"},{"bike_id":"333946c8-1518-4495-85da-e9172c26eb3f","system_id":"levelo_inurba_marseille","lat":43.28707,"lon":5.37409,"is_reserved":false,"is_disabled":false,"rental_uris":{"android":"levelo://app?vid=333946c8-1518-4495-85da-e9172c26eb3f","ios":"levelo://app?vid=333946c8-1518-4495-85da-e9172c26eb3f"},"vehicle_type_id":"4","last_reported":1739580302,"current_range_meters":34000,"station_id":"ce4bh3p2rcd13ifvqdq0","pricing_plan_id":"cebpf4jnsgd1na2vs0mg"},{"bike_id":"4afd05b5-41e1-4012-b907-304d88773920","system_id":"levelo_inurba_marseille","lat":43.23958,"lon":5.36642,"is_reserved":false,"is_disabled":false,"rental_uris":{"android":"levelo://app?vid=4afd05b5-41e1-4012-b907-304d88773920","ios":"levelo://app?vid=4afd05b5-41e1-4012-b907-304d88773920"},"vehicle_type_id":"4","last_reported":1739580302,"current_range_meters":3200,"station_id":"ce4bhi12rcd13ifvqfp0","pricing_plan_id":"cebpf4jnsgd1na2vs0mg"},{"bike_id":"dc689a38-bbf3-4095-b3f1-bfc514b1a13f","system_id":"levelo_inurba_marseille","lat":43.31231,"lon":5.36861,"is_reserved":false,"is_disabled":false,"rental_uris":{"android":"levelo://app?vid=dc689a38-bbf3-4095-b3f1-bfc514b1a13f","ios":"levelo://app?vid=dc689a38-bbf3-4095-b3f1-bfc514b1a13f"},"vehicle_type_id":"4","last_reported":1739580302,"current_range_meters":36400,"station_id":"ce4bgl92rcd13ifvqbq0","pricing_plan_id":"cebpf4jnsgd1na2vs0mg"},{"bike_id":"0047d687-b365-4ab6-a370-fdffa5a8b8e6","system_id":"levelo_inurba_marseille","lat":43.30796,"lon":5.3815,"is_reserved":false,"is_disabled":false,"rental_uris":{"android":"levelo://app?vid=0047d687-b365-4ab6-a370-fdffa5a8b8e6","ios":"levelo://app?vid=0047d687-b365-4ab6-a370-fdffa5a8b8e6"},"vehicle_type_id":"4","last_reported":1739580302,"current_range_meters":5600,"station_id":"ce4bgt12rcd13ifvqce0","pricing_plan_id":"cebpf4jnsgd1na2vs0mg"},{"bike_id":"c8c0516c-62b0-4cbf-88f8-60819aff6581","system_id":"levelo_inurba_marseille","lat":43.25498,"lon":5.37655,"is_reserved":false,"is_disabled":true,"rental_uris":{"android":"levelo://app?vid=c8c0516c-62b0-4cbf-88f8-60819aff6581","ios":"levelo://app?vid=c8c0516c-62b0-4cbf-88f8-60819aff6581"},"vehicle_type_id":"4","last_reported":1739580302,"current_range_meters":16000,"station_id":"ce4bhh12rcd13ifvqff0","pricing_plan_id":"cebpf4jnsgd1na2vs0mg"},{"bike_id":"057a9c52-565b-427e-ab22-725f474e175e","system_id":"levelo_inurba_marseille","lat":43.30894,"lon":5.39645,"is_reserved":false,"is_disabled":false,"rental_uris":{"android":"levelo://app?vid=057a9c52-565b-427e-ab22-725f474e175e","ios":"levelo://app?vid=057a9c52-565b-427e-ab22-725f474e175e"},"vehicle_type_id":"4","last_reported":1739580302,"current_range_meters":19200,"station_id":"ce4bh012rcd13ifvqcv0","pricing_plan_id":"cebpf4jnsgd1na2vs0mg"},{"bike_id":"c04ce389-7503-4525-8255-704dab161687","system_id":"levelo_inurba_marseille","lat":43.3123,"lon":5.36846,"is_reserved":false,"is_disabled":false,"rental_uris":{"android":"levelo://app?vid=c04ce389-7503-4525-8255-704dab161687","ios":"levelo://app?vid=c04ce389-7503-4525-8255-704dab161687"},"vehicle_type_id":"4","last_reported":1739580302,"current_range_meters":24800,"station_id":"ce4bgl92rcd13ifvqbq0","pricing_plan_id":"cebpf4jnsgd1na2vs0mg"},{"bike_id":"2e8fc403-db89-4ec8-942c-727343aeca53","system_id":"levelo_inurba_marseille","lat":43.29004,"lon":5.35614,"is_reserved":false,"is_disabled":false,"rental_uris":{"android":"levelo://app?vid=2e8fc403-db89-4ec8-942c-727343aeca53","ios":"levelo://app?vid=2e8fc403-db89-4ec8-942c-727343aeca53"},"vehicle_type_id":"4","last_reported":1739580302,"current_range_meters":39200,"station_id":"ce4bhb92rcd13ifvqen0","pricing_plan_id":"cebpf4jnsgd1na2vs0mg"},{"bike_id":"8c10e28e-5b4c-4154-8179-6f2ee2ae6eb5","system_id":"levelo_inurba_marseille","lat":43.261984,"lon":5.379286,"is_reserved":false,"is_disabled":false,"rental_uris":{"android":"levelo://app?vid=8c10e28e-5b4c-4154-8179-6f2ee2ae6eb5","ios":"levelo://app?vid=8c10e28e-5b4c-4154-8179-6f2ee2ae6eb5"},"vehicle_type_id":"4","last_reported":1739580302,"current_range_meters":38800,"station_id":"ce4bhjp2rcd13ifvqg90","pricing_plan_id":"cebpf4jnsgd1na2vs0mg"},{"bike_id":"a631f734-4aa1-4ec4-bfa7-ef8429122ef0","system_id":"levelo_inurba_marseille","lat":43.2572,"lon":5.41074,"is_reserved":false,"is_disabled":false,"rental_uris":{"android":"levelo://app?vid=a631f734-4aa1-4ec4-bfa7-ef8429122ef0","ios":"levelo://app?vid=a631f734-4aa1-4ec4-bfa7-ef8429122ef0"},"vehicle_type_id":"4","last_reported":1739580302,"current_range_meters":22800,"station_id":"ce4bhkp2rcd13ifvqgd0","pricing_plan_id":"cebpf4jnsgd1na2vs0mg"},{"bike_id":"89d8b51e-5064-4e84-9871-088b604e6647","system_id":"levelo_inurba_marseille","lat":43.25082,"lon":5.39525,"is_reserved":false,"is_disabled":false,"rental_uris":{"android":"levelo://app?vid=89d8b51e-5064-4e84-9871-088b604e6647","ios":"levelo://app?vid=89d8b51e-5064-4e84-9871-088b604e6647"},"vehicle_type_id":"4","last_reported":1739580302,"current_range_meters":8800,"station_id":"ce4bhm12rcd13ifvqgkg","pricing_plan_id":"cebpf4jnsgd1na2vs0mg"},{"bike_id":"a70729f0-bf50-486d-acf1-77ab278c9efb","system_id":"levelo_inurba_marseille","lat":43.27449,"lon":5.41043,"is_reserved":false,"is_disabled":false,"rental_uris":{"android":"levelo://app?vid=a70729f0-bf50-486d-acf1-77ab278c9efb","ios":"levelo://app?vid=a70729f0-bf50-486d-acf1-77ab278c9efb"},"vehicle_type_id":"4","last_reported":1739580302,"current_range_meters":16000,"station_id":"","pricing_plan_id":"cebpf4jnsgd1na2vs0mg"},{"bike_id":"f2294962-01ce-46fd-8a11-979901195d1d","system_id":"levelo_inurba_marseille","lat":43.24666,"lon":5.38144,"is_reserved":false,"is_disabled":false,"rental_uris":{"android":"levelo://app?vid=f2294962-01ce-46fd-8a11-979901195d1d","ios":"levelo://app?vid=f2294962-01ce-46fd-8a11-979901195d1d"},"vehicle_type_id":"4","last_reported":1739580302,"current_range_meters":38800,"station_id":"ce4bhih2rcd13ifvqfr0","pricing_plan_id":"cebpf4jnsgd1na2vs0mg"},{"bike_id":"838d55fb-dd91-42c0-bd0a-19319617ddba","system_id":"levelo_inurba_marseille","lat":43.2814,"lon":5.42652,"is_reserved":false,"is_disabled":false,"rental_uris":{"android":"levelo://app?vid=838d55fb-dd91-42c0-bd0a-19319617ddba","ios":"levelo://app?vid=838d55fb-dd91-42c0-bd0a-19319617ddba"},"vehicle_type_id":"4","last_reported":1739580302,"current_range_meters":38800,"station_id":"ce4bhnh2rcd13ifvqgug","pricing_plan_id":"cebpf4jnsgd1na2vs0mg"},{"bike_id":"07cce0e4-c34c-4c6c-b7f3-11be90ceb56c","system_id":"levelo_inurba_marseille","lat":43.30271,"lon":5.39652,"is_reserved":false,"is_disabled":false,"rental_uris":{"android":"levelo://app?vid=07cce0e4-c34c-4c6c-b7f3-11be90ceb56c","ios":"levelo://app?vid=07cce0e4-c34c-4c6c-b7f3-11be90ceb56c"},"vehicle_type_id":"4","last_reported":1739580302,"current_range_meters":12000,"station_id":"","pricing_plan_id":"cebpf4jnsgd1na2vs0mg"},{"bike_id":"498115ff-d163-4924-9cc6-afa312fea580","system_id":"levelo_inurba_marseille","lat":43.29265,"lon":5.40183,"is_reserved":false,"is_disabled":false,"rental_uris":{"android":"levelo://app?vid=498115ff-d163-4924-9cc6-afa312fea580","ios":"levelo://app?vid=498115ff-d163-4924-9cc6-afa312fea580"},"vehicle_type_id":"4","last_reported":1739580302,"current_range_meters":24400,"station_id":"ce4bh312rcd13ifvqdk0","pricing_plan_id":"cebpf4jnsgd1na2vs0mg"},{"bike_id":"349c30d9-4762-44b0-afbd-63f63400b3dd","system_id":"levelo_inurba_marseille","lat":43.28358,"lon":5.38633,"is_reserved":false,"is_disabled":false,"rental_uris":{"android":"levelo://app?vid=349c30d9-4762-44b0-afbd-63f63400b3dd","ios":"levelo://app?vid=349c30d9-4762-44b0-afbd-63f63400b3dd"},"vehicle_type_id":"4","last_reported":1739580302,"current_range_meters":33600,"station_id":"ce4bh492rcd13ifvqdvg","pricing_plan_id":"cebpf4jnsgd1na2vs0mg"},{"bike_id":"f95c598b-73a5-4793-bd58-d5ddde21f497","system_id":"levelo_inurba_marseille","lat":43.28617,"lon":5.35105,"is_reserved":false,"is_disabled":false,"rental_uris":{"android":"levelo://app?vid=f95c598b-73a5-4793-bd58-d5ddde21f497","ios":"levelo://app?vid=f95c598b-73a5-4793-bd58-d5ddde21f497"},"vehicle_type_id":"4","last_reported":1739580302,"current_range_meters":16800,"station_id":"ce4bhch2rcd13ifvqeug","pricing_plan_id":"cebpf4jnsgd1na2vs0mg"},{"bike_id":"f6184f07-d5b9-4765-bfd1-3a4d95749917","system_id":"levelo_inurba_marseille","lat":43.29164,"lon":5.37146,"is_reserved":false,"is_disabled":false,"rental_uris":{"android":"levelo://app?vid=f6184f07-d5b9-4765-bfd1-3a4d95749917","ios":"levelo://app?vid=f6184f07-d5b9-4765-bfd1-3a4d95749917"},"vehicle_type_id":"4","last_reported":1739580302,"current_range_meters":38800,"station_id":"ce4bha92rcd13ifvqeh0","pricing_plan_id":"cebpf4jnsgd1na2vs0mg"},{"bike_id":"4e4d19c8-883b-41c8-9ef5-f232a80cd575","system_id":"levelo_inurba_marseille","lat":43.28912,"lon":5.38412,"is_reserved":false,"is_disabled":false,"rental_uris":{"android":"levelo://app?vid=4e4d19c8-883b-41c8-9ef5-f232a80cd575","ios":"levelo://app?vid=4e4d19c8-883b-41c8-9ef5-f232a80cd575"},"vehicle_type_id":"4","last_reported":1739580302,"current_range_meters":39200,"station_id":"ce4bh612rcd13ifvqe6g","pricing_plan_id":"cebpf4jnsgd1na2vs0mg"},{"bike_id":"78580374-70a8-4853-ac6b-e6acdbe16ef7","system_id":"levelo_inurba_marseille","lat":43.24813,"lon":5.37457,"is_reserved":false,"is_disabled":true,"rental_uris":{"android":"levelo://app?vid=78580374-70a8-4853-ac6b-e6acdbe16ef7","ios":"levelo://app?vid=78580374-70a8-4853-ac6b-e6acdbe16ef7"},"vehicle_type_id":"4","last_reported":1739580302,"current_range_meters":38800,"station_id":"ce4bhgh2rcd13ifvqfb0","pricing_plan_id":"cebpf4jnsgd1na2vs0mg"},{"bike_id":"db752bab-eca8-4e94-b02a-8ad1512b568d","system_id":"levelo_inurba_marseille","lat":43.28563,"lon":5.39501,"is_reserved":false,"is_disabled":false,"rental_uris":{"android":"levelo://app?vid=db752bab-eca8-4e94-b02a-8ad1512b568d","ios":"levelo://app?vid=db752bab-eca8-4e94-b02a-8ad1512b568d"},"vehicle_type_id":"4","last_reported":1739580302,"current_range_meters":36800,"station_id":"ce4bh292rcd13ifvqdg0","pricing_plan_id":"cebpf4jnsgd1na2vs0mg"},{"bike_id":"8d89262f-7bab-408f-b55c-fa5cc065d9cf","system_id":"levelo_inurba_marseille","lat":43.27814,"lon":5.39216,"is_reserved":false,"is_disabled":false,"rental_uris":{"android":"levelo://app?vid=8d89262f-7bab-408f-b55c-fa5cc065d9cf","ios":"levelo://app?vid=8d89262f-7bab-408f-b55c-fa5cc065d9cf"},"vehicle_type_id":"4","last_reported":1739580302,"current_range_meters":38000,"station_id":"ce4bhjp2rcd13ifvqga0","pricing_plan_id":"cebpf4jnsgd1na2vs0mg"},{"bike_id":"203fb8aa-7299-4114-85f2-8be5b5414709","system_id":"levelo_inurba_marseille","lat":43.3108,"lon":5.3778,"is_reserved":false,"is_disabled":false,"rental_uris":{"android":"levelo://app?vid=203fb8aa-7299-4114-85f2-8be5b5414709","ios":"levelo://app?vid=203fb8aa-7299-4114-85f2-8be5b5414709"},"vehicle_type_id":"4","last_reported":1739580302,"current_range_meters":38400,"station_id":"ce4bgt92rcd13ifvqcg0","pricing_plan_id":"cebpf4jnsgd1na2vs0mg"},{"bike_id":"c2a1a342-d679-4037-a27e-b2fb148f26d7","system_id":"levelo_inurba_marseille","lat":43.255825,"lon":5.382368,"is_reserved":false,"is_disabled":false,"rental_uris":{"android":"levelo://app?vid=c2a1a342-d679-4037-a27e-b2fb148f26d7","ios":"levelo://app?vid=c2a1a342-d679-4037-a27e-b2fb148f26d7"},"vehicle_type_id":"4","last_reported":1739580302,"current_range_meters":35200,"station_id":"ce4bhih2rcd13ifvqfs0","pricing_plan_id":"cebpf4jnsgd1na2vs0mg"},{"bike_id":"23849fcd-4bc4-44f6-8337-e9a9a16fe0e7","system_id":"levelo_inurba_marseille","lat":43.29748,"lon":5.4794,"is_reserved":false,"is_disabled":true,"rental_uris":{"android":"levelo://app?vid=23849fcd-4bc4-44f6-8337-e9a9a16fe0e7","ios":"levelo://app?vid=23849fcd-4bc4-44f6-8337-e9a9a16fe0e7"},"vehicle_type_id":"4","last_reported":1739580302,"current_range_meters":800,"station_id":"","pricing_plan_id":"cebpf4jnsgd1na2vs0mg"},{"bike_id":"fe413e03-56dd-476a-80ff-36fef019bea6","system_id":"levelo_inurba_marseille","lat":43.28661,"lon":5.36355,"is_reserved":false,"is_disabled":false,"rental_uris":{"android":"levelo://app?vid=fe413e03-56dd-476a-80ff-36fef019bea6","ios":"levelo://app?vid=fe413e03-56dd-476a-80ff-36fef019bea6"},"vehicle_type_id":"4","last_reported":1739580302,"current_range_meters":38800,"station_id":"ce4bhah2rcd13ifvqej0","pricing_plan_id":"cebpf4jnsgd1na2vs0mg"},{"bike_id":"39636760-e0f2-451a-8082-66e6f5a30cd1","system_id":"levelo_inurba_marseille","lat":43.28615,"lon":5.3511,"is_reserved":false,"is_disabled":false,"rental_uris":{"android":"levelo://app?vid=39636760-e0f2-451a-8082-66e6f5a30cd1","ios":"levelo://app?vid=39636760-e0f2-451a-8082-66e6f5a30cd1"},"vehicle_type_id":"4","last_reported":1739580302,"current_range_meters":35600,"station_id":"ce4bhch2rcd13ifvqeug","pricing_plan_id":"cebpf4jnsgd1na2vs0mg"},{"bike_id":"25a0020e-c454-4908-a019-edd94f18a655","system_id":"levelo_inurba_marseille","lat":43.31327,"lon":5.39688,"is_reserved":false,"is_disabled":false,"rental_uris":{"android":"levelo://app?vid=25a0020e-c454-4908-a019-edd94f18a655","ios":"levelo://app?vid=25a0020e-c454-4908-a019-edd94f18a655"},"vehicle_type_id":"4","last_reported":1739580302,"current_range_meters":28400,"station_id":"ce4bgvp2rcd13ifvqcu0","pricing_plan_id":"cebpf4jnsgd1na2vs0mg"},{"bike_id":"a2ece53b-2544-4fb6-88e7-11a8063bae1d","system_id":"levelo_inurba_marseille","lat":43.25074,"lon":5.39513,"is_reserved":false,"is_disabled":false,"rental_uris":{"android":"levelo://app?vid=a2ece53b-2544-4fb6-88e7-11a8063bae1d","ios":"levelo://app?vid=a2ece53b-2544-4fb6-88e7-11a8063bae1d"},"vehicle_type_id":"4","last_reported":1739580302,"current_range_meters":31200,"station_id":"ce4bhm12rcd13ifvqgkg","pricing_plan_id":"cebpf4jnsgd1na2vs0mg"},{"bike_id":"d1b7e7c3-d876-4585-aa93-a701646b8c19","system_id":"levelo_inurba_marseille","lat":43.23198,"lon":5.39985,"is_reserved":false,"is_disabled":false,"rental_uris":{"android":"levelo://app?vid=d1b7e7c3-d876-4585-aa93-a701646b8c19","ios":"levelo://app?vid=d1b7e7c3-d876-4585-aa93-a701646b8c19"},"vehicle_type_id":"4","last_reported":1739580302,"current_range_meters":31200,"station_id":"ce4bhn12rcd13ifvqgqg","pricing_plan_id":"cebpf4jnsgd1na2vs0mg"},{"bike_id":"dc4fc55f-0ea9-49a1-bb39-4722eda2c2cd","system_id":"levelo_inurba_marseille","lat":43.29896,"lon":5.37643,"is_reserved":false,"is_disabled":false,"rental_uris":{"android":"levelo://app?vid=dc4fc55f-0ea9-49a1-bb39-4722eda2c2cd","ios":"levelo://app?vid=dc4fc55f-0ea9-49a1-bb39-4722eda2c2cd"},"vehicle_type_id":"4","last_reported":1739580302,"current_range_meters":19600,"station_id":"","pricing_plan_id":"cebpf4jnsgd1na2vs0mg"},{"bike_id":"9b24143d-cdfc-42de-9219-58bdbdd35f42","system_id":"levelo_inurba_marseille","lat":43.28612,"lon":5.35105,"is_reserved":false,"is_disabled":false,"rental_uris":{"android":"levelo://app?vid=9b24143d-cdfc-42de-9219-58bdbdd35f42","ios":"levelo://app?vid=9b24143d-cdfc-42de-9219-58bdbdd35f42"},"vehicle_type_id":"4","last_reported":1739580302,"current_range_meters":34000,"station_id":"ce4bhch2rcd13ifvqeug","pricing_plan_id":"cebpf4jnsgd1na2vs0mg"},{"bike_id":"38f6a50e-4209-427d-8f0c-d54d40753d69","system_id":"levelo_inurba_marseille","lat":43.2736,"lon":5.36236,"is_reserved":false,"is_disabled":false,"rental_uris":{"android":"levelo://app?vid=38f6a50e-4209-427d-8f0c-d54d40753d69","ios":"levelo://app?vid=38f6a50e-4209-427d-8f0c-d54d40753d69"},"vehicle_type_id":"4","last_reported":1739580302,"current_range_meters":26000,"station_id":"ce4bhbh2rcd13ifvqeo0","pricing_plan_id":"cebpf4jnsgd1na2vs0mg"},{"bike_id":"24584566-354f-40ca-814c-29b96ecb851c","system_id":"levelo_inurba_marseille","lat":43.28348,"lon":5.3862,"is_reserved":false,"is_disabled":false,"rental_uris":{"android":"levelo://app?vid=24584566-354f-40ca-814c-29b96ecb851c","ios":"levelo://app?vid=24584566-354f-40ca-814c-29b96ecb851c"},"vehicle_type_id":"4","last_reported":1739580302,"current_range_meters":35600,"station_id":"ce4bh492rcd13ifvqdvg","pricing_plan_id":"cebpf4jnsgd1na2vs0mg"},{"bike_id":"a6c90457-f1f1-4b8c-9f09-c7889b1095f6","system_id":"levelo_inurba_marseille","lat":43.31082,"lon":5.38356,"is_reserved":false,"is_disabled":false,"rental_uris":{"android":"levelo://app?vid=a6c90457-f1f1-4b8c-9f09-c7889b1095f6","ios":"levelo://app?vid=a6c90457-f1f1-4b8c-9f09-c7889b1095f6"},"vehicle_type_id":"4","last_reported":1739580302,"current_range_meters":34000,"station_id":"ce4bgv92rcd13ifvqcr0","pricing_plan_id":"cebpf4jnsgd1na2vs0mg"},{"bike_id":"1df6a403-cc4d-4ed7-bc36-42644815c07d","system_id":"levelo_inurba_marseille","lat":43.27829,"lon":5.39207,"is_reserved":false,"is_disabled":false,"rental_uris":{"android":"levelo://app?vid=1df6a403-cc4d-4ed7-bc36-42644815c07d","ios":"levelo://app?vid=1df6a403-cc4d-4ed7-bc36-42644815c07d"},"vehicle_type_id":"4","last_reported":1739580302,"current_range_meters":23200,"station_id":"ce4bhjp2rcd13ifvqga0","pricing_plan_id":"cebpf4jnsgd1na2vs0mg"},{"bike_id":"4ad51a02-f2dd-46e4-a406-ba69455ffee4","system_id":"levelo_inurba_marseille","lat":43.28035,"lon":5.40839,"is_reserved":false,"is_disabled":false,"rental_uris":{"android":"levelo://app?vid=4ad51a02-f2dd-46e4-a406-ba69455ffee4","ios":"levelo://app?vid=4ad51a02-f2dd-46e4-a406-ba69455ffee4"},"vehicle_type_id":"4","last_reported":1739580302,"current_range_meters":10000,"station_id":"","pricing_plan_id":"cebpf4jnsgd1na2vs0mg"},{"bike_id":"c4df4f16-0512-464a-a719-0bb1f3feadb0","system_id":"levelo_inurba_marseille","lat":43.32334,"lon":5.4061,"is_reserved":false,"is_disabled":false,"rental_uris":{"android":"levelo://app?vid=c4df4f16-0512-464a-a719-0bb1f3feadb0","ios":"levelo://app?vid=c4df4f16-0512-464a-a719-0bb1f3feadb0"},"vehicle_type_id":"4","last_reported":1739580302,"current_range_meters":22400,"station_id":"ce4bhq92rcd13ifvqhjg","pricing_plan_id":"cebpf4jnsgd1na2vs0mg"},{"bike_id":"bf7d337c-6423-4c9f-92a3-1b70d110e15a","system_id":"levelo_inurba_marseille","lat":43.25483,"lon":5.37637,"is_reserved":false,"is_disabled":false,"rental_uris":{"android":"levelo://app?vid=bf7d337c-6423-4c9f-92a3-1b70d110e15a","ios":"levelo://app?vid=bf7d337c-6423-4c9f-92a3-1b70d110e15a"},"vehicle_type_id":"4","last_reported":1739580302,"current_range_meters":26800,"station_id":"ce4bhh12rcd13ifvqff0","pricing_plan_id":"cebpf4jnsgd1na2vs0mg"},{"bike_id":"b9eb0b2b-999f-458c-984d-2dffd0bb80f5","system_id":"levelo_inurba_marseille","lat":43.30574,"lon":5.39927,"is_reserved":false,"is_disabled":false,"rental_uris":{"android":"levelo://app?vid=b9eb0b2b-999f-458c-984d-2dffd0bb80f5","ios":"levelo://app?vid=b9eb0b2b-999f-458c-984d-2dffd0bb80f5"},"vehicle_type_id":"4","last_reported":1739580302,"current_range_meters":11200,"station_id":"","pricing_plan_id":"cebpf4jnsgd1na2vs0mg"},{"bike_id":"3d703ccc-83e7-4013-824a-7eb6ae314e4b","system_id":"levelo_inurba_marseille","lat":43.30882,"lon":5.39638,"is_reserved":false,"is_disabled":false,"rental_uris":{"android":"levelo://app?vid=3d703ccc-83e7-4013-824a-7eb6ae314e4b","ios":"levelo://app?vid=3d703ccc-83e7-4013-824a-7eb6ae314e4b"},"vehicle_type_id":"4","last_reported":1739580302,"current_range_meters":18800,"station_id":"ce4bh012rcd13ifvqcv0","pricing_plan_id":"cebpf4jnsgd1na2vs0mg"},{"bike_id":"03eba1d0-92c1-4e6e-a4d0-7c546f2439c0","system_id":"levelo_inurba_marseille","lat":43.337444,"lon":5.374475,"is_reserved":false,"is_disabled":true,"rental_uris":{"android":"levelo://app?vid=03eba1d0-92c1-4e6e-a4d0-7c546f2439c0","ios":"levelo://app?vid=03eba1d0-92c1-4e6e-a4d0-7c546f2439c0"},"vehicle_type_id":"4","last_reported":1739580302,"current_range_meters":0,"station_id":"","pricing_plan_id":"cebpf4jnsgd1na2vs0mg"},{"bike_id":"406cd342-0f77-4bd3-a02c-dea662f35696","system_id":"levelo_inurba_marseille","lat":43.27673,"lon":5.38877,"is_reserved":false,"is_disabled":false,"rental_uris":{"android":"levelo://app?vid=406cd342-0f77-4bd3-a02c-dea662f35696","ios":"levelo://app?vid=406cd342-0f77-4bd3-a02c-dea662f35696"},"vehicle_type_id":"4","last_reported":1739580302,"current_range_meters":34000,"station_id":"ce4bhi12rcd13ifvqfo0","pricing_plan_id":"cebpf4jnsgd1na2vs0mg"},{"bike_id":"37d274bc-7488-45e2-be26-b72715489ecd","system_id":"levelo_inurba_marseille","lat":43.28443,"lon":5.39182,"is_reserved":false,"is_disabled":true,"rental_uris":{"android":"levelo://app?vid=37d274bc-7488-45e2-be26-b72715489ecd","ios":"levelo://app?vid=37d274bc-7488-45e2-be26-b72715489ecd"},"vehicle_type_id":"4","last_reported":1739580302,"current_range_meters":37600,"station_id":"ce4bhoh2rcd13ifvqh5g","pricing_plan_id":"cebpf4jnsgd1na2vs0mg"},{"bike_id":"8208b9be-b2fb-4d4a-9708-6254e17f01c5","system_id":"levelo_inurba_marseille","lat":43.25493,"lon":5.37653,"is_reserved":false,"is_disabled":false,"rental_uris":{"android":"levelo://app?vid=8208b9be-b2fb-4d4a-9708-6254e17f01c5","ios":"levelo://app?vid=8208b9be-b2fb-4d4a-9708-6254e17f01c5"},"vehicle_type_id":"4","last_reported":1739580302,"current_range_meters":36000,"station_id":"ce4bhh12rcd13ifvqff0","pricing_plan_id":"cebpf4jnsgd1na2vs0mg"},{"bike_id":"3441c353-b491-45c0-96a9-12ca432004ac","system_id":"levelo_inurba_marseille","lat":43.303,"lon":5.39214,"is_reserved":false,"is_disabled":false,"rental_uris":{"android":"levelo://app?vid=3441c353-b491-45c0-96a9-12ca432004ac","ios":"levelo://app?vid=3441c353-b491-45c0-96a9-12ca432004ac"},"vehicle_type_id":"4","last_reported":1739580302,"current_range_meters":38000,"station_id":"ce4bgkh2rcd13ifvqbk0","pricing_plan_id":"cebpf4jnsgd1na2vs0mg"},{"bike_id":"298b78b8-4711-4491-8ae5-3ff7e249ae10","system_id":"levelo_inurba_marseille","lat":43.31073,"lon":5.38374,"is_reserved":false,"is_disabled":false,"rental_uris":{"android":"levelo://app?vid=298b78b8-4711-4491-8ae5-3ff7e249ae10","ios":"levelo://app?vid=298b78b8-4711-4491-8ae5-3ff7e249ae10"},"vehicle_type_id":"4","last_reported":1739580302,"current_range_meters":38800,"station_id":"ce4bgv92rcd13ifvqcr0","pricing_plan_id":"cebpf4jnsgd1na2vs0mg"},{"bike_id":"5016e875-414a-41bd-8f00-6a5845e39ba6","system_id":"levelo_inurba_marseille","lat":43.30805,"lon":5.43529,"is_reserved":false,"is_disabled":false,"rental_uris":{"android":"levelo://app?vid=5016e875-414a-41bd-8f00-6a5845e39ba6","ios":"levelo://app?vid=5016e875-414a-41bd-8f00-6a5845e39ba6"},"vehicle_type_id":"4","last_reported":1739580302,"current_range_meters":32000,"station_id":"ce4bhph2rcd13ifvqheg","pricing_plan_id":"cebpf4jnsgd1na2vs0mg"},{"bike_id":"37de05d3-3a98-4c3b-897c-2111f276da6e","system_id":"levelo_inurba_marseille","lat":43.27491,"lon":5.42456,"is_reserved":false,"is_disabled":false,"rental_uris":{"android":"levelo://app?vid=37de05d3-3a98-4c3b-897c-2111f276da6e","ios":"levelo://app?vid=37de05d3-3a98-4c3b-897c-2111f276da6e"},"vehicle_type_id":"4","last_reported":1739580302,"current_range_meters":39200,"station_id":"ce4bhn92rcd13ifvqgrg","pricing_plan_id":"cebpf4jnsgd1na2vs0mg"},{"bike_id":"683dd2bd-1e81-48dd-a1eb-4b7a7378e30c","system_id":"levelo_inurba_marseille","lat":43.24388,"lon":5.37068,"is_reserved":false,"is_disabled":false,"rental_uris":{"android":"levelo://app?vid=683dd2bd-1e81-48dd-a1eb-4b7a7378e30c","ios":"levelo://app?vid=683dd2bd-1e81-48dd-a1eb-4b7a7378e30c"},"vehicle_type_id":"4","last_reported":1739580302,"current_range_meters":17200,"station_id":"ce4bhhh2rcd13ifvqfk0","pricing_plan_id":"cebpf4jnsgd1na2vs0mg"},{"bike_id":"533f137a-d5b2-43fb-baac-5970f9b2f485","system_id":"levelo_inurba_marseille","lat":43.3132,"lon":5.397,"is_reserved":false,"is_disabled":false,"rental_uris":{"android":"levelo://app?vid=533f137a-d5b2-43fb-baac-5970f9b2f485","ios":"levelo://app?vid=533f137a-d5b2-43fb-baac-5970f9b2f485"},"vehicle_type_id":"4","last_reported":1739580302,"current_range_meters":33600,"station_id":"ce4bgvp2rcd13ifvqcu0","pricing_plan_id":"cebpf4jnsgd1na2vs0mg"},{"bike_id":"91decaf1-05e9-491d-81c0-de81ccaa0255","system_id":"levelo_inurba_marseille","lat":43.29773,"lon":5.39337,"is_reserved":false,"is_disabled":false,"rental_uris":{"android":"levelo://app?vid=91decaf1-05e9-491d-81c0-de81ccaa0255","ios":"levelo://app?vid=91decaf1-05e9-491d-81c0-de81ccaa0255"},"vehicle_type_id":"4","last_reported":1739580302,"current_range_meters":39200,"station_id":"chh1huq6cuj3fo74tm60","pricing_plan_id":"cebpf4jnsgd1na2vs0mg"},{"bike_id":"4b087907-7192-4276-99d8-c0bfb8a98ca3","system_id":"levelo_inurba_marseille","lat":43.23175,"lon":5.39966,"is_reserved":false,"is_disabled":false,"rental_uris":{"android":"levelo://app?vid=4b087907-7192-4276-99d8-c0bfb8a98ca3","ios":"levelo://app?vid=4b087907-7192-4276-99d8-c0bfb8a98ca3"},"vehicle_type_id":"4","last_reported":1739580302,"current_range_meters":34800,"station_id":"ce4bhn12rcd13ifvqgqg","pricing_plan_id":"cebpf4jnsgd1na2vs0mg"},{"bike_id":"7835558a-b893-41e9-ae25-07deb12ac2d8","system_id":"levelo_inurba_marseille","lat":43.28393,"lon":5.37549,"is_reserved":false,"is_disabled":false,"rental_uris":{"android":"levelo://app?vid=7835558a-b893-41e9-ae25-07deb12ac2d8","ios":"levelo://app?vid=7835558a-b893-41e9-ae25-07deb12ac2d8"},"vehicle_type_id":"4","last_reported":1739580302,"current_range_meters":32400,"station_id":"ce4bh412rcd13ifvqds0","pricing_plan_id":"cebpf4jnsgd1na2vs0mg"},{"bike_id":"f8ecfa2c-0790-4125-87fd-2ea00d77423e","system_id":"levelo_inurba_marseille","lat":43.27653,"lon":5.38946,"is_reserved":false,"is_disabled":false,"rental_uris":{"android":"levelo://app?vid=f8ecfa2c-0790-4125-87fd-2ea00d77423e","ios":"levelo://app?vid=f8ecfa2c-0790-4125-87fd-2ea00d77423e"},"vehicle_type_id":"4","last_reported":1739580302,"current_range_meters":37600,"station_id":"","pricing_plan_id":"cebpf4jnsgd1na2vs0mg"},{"bike_id":"bd1fbd17-5ecd-4c2a-9290-d1ffd1a70214","system_id":"levelo_inurba_marseille","lat":43.29551,"lon":5.42292,"is_reserved":false,"is_disabled":false,"rental_uris":{"android":"levelo://app?vid=bd1fbd17-5ecd-4c2a-9290-d1ffd1a70214","ios":"levelo://app?vid=bd1fbd17-5ecd-4c2a-9290-d1ffd1a70214"},"vehicle_type_id":"4","last_reported":1739580302,"current_range_meters":35600,"station_id":"ce4bhph2rcd13ifvqhdg","pricing_plan_id":"cebpf4jnsgd1na2vs0mg"},{"bike_id":"ac19deec-8ca4-428a-bd5d-65b9c5c06d0a","system_id":"levelo_inurba_marseille","lat":43.2944,"lon":5.39761,"is_reserved":false,"is_disabled":false,"rental_uris":{"android":"levelo://app?vid=ac19deec-8ca4-428a-bd5d-65b9c5c06d0a","ios":"levelo://app?vid=ac19deec-8ca4-428a-bd5d-65b9c5c06d0a"},"vehicle_type_id":"4","last_reported":1739580302,"current_range_meters":16000,"station_id":"ce4bh3h2rcd13ifvqdo0","pricing_plan_id":"cebpf4jnsgd1na2vs0mg"},{"bike_id":"2f708e4a-da4a-483d-a9f7-574fc8536a37","system_id":"levelo_inurba_marseille","lat":43.23146,"lon":5.43708,"is_reserved":false,"is_disabled":false,"rental_uris":{"android":"levelo://app?vid=2f708e4a-da4a-483d-a9f7-574fc8536a37","ios":"levelo://app?vid=2f708e4a-da4a-483d-a9f7-574fc8536a37"},"vehicle_type_id":"4","last_reported":1739580302,"current_range_meters":27600,"station_id":"ce4bhmp2rcd13ifvqgog","pricing_plan_id":"cebpf4jnsgd1na2vs0mg"},{"bike_id":"4b3b9205-9700-401d-9f2a-874c9dfaf0e2","system_id":"levelo_inurba_marseille","lat":43.31328,"lon":5.39695,"is_reserved":false,"is_disabled":false,"rental_uris":{"android":"levelo://app?vid=4b3b9205-9700-401d-9f2a-874c9dfaf0e2","ios":"levelo://app?vid=4b3b9205-9700-401d-9f2a-874c9dfaf0e2"},"vehicle_type_id":"4","last_reported":1739580302,"current_range_meters":32000,"station_id":"ce4bgvp2rcd13ifvqcu0","pricing_plan_id":"cebpf4jnsgd1na2vs0mg"},{"bike_id":"e77ad4a1-54e5-4b76-b1a8-0f66a8bf9676","system_id":"levelo_inurba_marseille","lat":43.2872,"lon":5.37379,"is_reserved":false,"is_disabled":false,"rental_uris":{"android":"levelo://app?vid=e77ad4a1-54e5-4b76-b1a8-0f66a8bf9676","ios":"levelo://app?vid=e77ad4a1-54e5-4b76-b1a8-0f66a8bf9676"},"vehicle_type_id":"4","last_reported":1739580302,"current_range_meters":38800,"station_id":"ce4bh3p2rcd13ifvqdq0","pricing_plan_id":"cebpf4jnsgd1na2vs0mg"},{"bike_id":"005efd61-2174-41b4-931c-5db89e3de53c","system_id":"levelo_inurba_marseille","lat":43.28437,"lon":5.37493,"is_reserved":false,"is_disabled":false,"rental_uris":{"android":"levelo://app?vid=005efd61-2174-41b4-931c-5db89e3de53c","ios":"levelo://app?vid=005efd61-2174-41b4-931c-5db89e3de53c"},"vehicle_type_id":"4","last_reported":1739580302,"current_range_meters":13600,"station_id":"ce4bh412rcd13ifvqds0","pricing_plan_id":"cebpf4jnsgd1na2vs0mg"},{"bike_id":"992a58a0-449d-4c14-b63b-1be95687b874","system_id":"levelo_inurba_marseille","lat":43.28101,"lon":5.3963,"is_reserved":false,"is_disabled":false,"rental_uris":{"android":"levelo://app?vid=992a58a0-449d-4c14-b63b-1be95687b874","ios":"levelo://app?vid=992a58a0-449d-4c14-b63b-1be95687b874"},"vehicle_type_id":"4","last_reported":1739580302,"current_range_meters":35600,"station_id":"ce4bho12rcd13ifvqh2g","pricing_plan_id":"cebpf4jnsgd1na2vs0mg"},{"bike_id":"093e41d9-4fe9-4502-a4cd-d5616ee88def","system_id":"levelo_inurba_marseille","lat":43.24999,"lon":5.38953,"is_reserved":false,"is_disabled":false,"rental_uris":{"android":"levelo://app?vid=093e41d9-4fe9-4502-a4cd-d5616ee88def","ios":"levelo://app?vid=093e41d9-4fe9-4502-a4cd-d5616ee88def"},"vehicle_type_id":"4","last_reported":1739580302,"current_range_meters":27600,"station_id":"ce4bhgp2rcd13ifvqfd0","pricing_plan_id":"cebpf4jnsgd1na2vs0mg"},{"bike_id":"6201d0d2-4e32-46e9-8ee9-c046090124b0","system_id":"levelo_inurba_marseille","lat":43.28726,"lon":5.36078,"is_reserved":false,"is_disabled":false,"rental_uris":{"android":"levelo://app?vid=6201d0d2-4e32-46e9-8ee9-c046090124b0","ios":"levelo://app?vid=6201d0d2-4e32-46e9-8ee9-c046090124b0"},"vehicle_type_id":"4","last_reported":1739580302,"current_range_meters":9200,"station_id":"cki0cbj6b192h4jlfktg","pricing_plan_id":"cebpf4jnsgd1na2vs0mg"},{"bike_id":"35c71859-d749-4d30-961a-91d1c38d6948","system_id":"levelo_inurba_marseille","lat":43.25087,"lon":5.39549,"is_reserved":false,"is_disabled":false,"rental_uris":{"android":"levelo://app?vid=35c71859-d749-4d30-961a-91d1c38d6948","ios":"levelo://app?vid=35c71859-d749-4d30-961a-91d1c38d6948"},"vehicle_type_id":"4","last_reported":1739580302,"current_range_meters":8000,"station_id":"ce4bhm12rcd13ifvqgkg","pricing_plan_id":"cebpf4jnsgd1na2vs0mg"},{"bike_id":"5a3f0917-7f22-444c-abb9-189c888fbb43","system_id":"levelo_inurba_marseille","lat":43.311195,"lon":5.377585,"is_reserved":false,"is_disabled":false,"rental_uris":{"android":"levelo://app?vid=5a3f0917-7f22-444c-abb9-189c888fbb43","ios":"levelo://app?vid=5a3f0917-7f22-444c-abb9-189c888fbb43"},"vehicle_type_id":"4","last_reported":1739580302,"current_range_meters":29600,"station_id":"ce4bgt92rcd13ifvqcg0","pricing_plan_id":"cebpf4jnsgd1na2vs0mg"},{"bike_id":"356b3252-4239-4782-b4f4-75e11f5d3f64","system_id":"levelo_inurba_marseille","lat":43.29785,"lon":5.36568,"is_reserved":false,"is_disabled":false,"rental_uris":{"android":"levelo://app?vid=356b3252-4239-4782-b4f4-75e11f5d3f64","ios":"levelo://app?vid=356b3252-4239-4782-b4f4-75e11f5d3f64"},"vehicle_type_id":"4","last_reported":1739580302,"current_range_meters":38000,"station_id":"ce4bgn12rcd13ifvqbt0","pricing_plan_id":"cebpf4jnsgd1na2vs0mg"},{"bike_id":"e4b9f80e-c487-4b21-a9f2-cea27949e48e","system_id":"levelo_inurba_marseille","lat":43.31797,"lon":5.37395,"is_reserved":false,"is_disabled":true,"rental_uris":{"android":"levelo://app?vid=e4b9f80e-c487-4b21-a9f2-cea27949e48e","ios":"levelo://app?vid=e4b9f80e-c487-4b21-a9f2-cea27949e48e"},"vehicle_type_id":"4","last_reported":1739580302,"current_range_meters":0,"station_id":"","pricing_plan_id":"cebpf4jnsgd1na2vs0mg"},{"bike_id":"44173efe-ae11-4c70-90e5-18c63cd5b59d","system_id":"levelo_inurba_marseille","lat":43.28703,"lon":5.39999,"is_reserved":false,"is_disabled":false,"rental_uris":{"android":"levelo://app?vid=44173efe-ae11-4c70-90e5-18c63cd5b59d","ios":"levelo://app?vid=44173efe-ae11-4c70-90e5-18c63cd5b59d"},"vehicle_type_id":"4","last_reported":1739580302,"current_range_meters":39200,"station_id":"ce4bho92rcd13ifvqh3g","pricing_plan_id":"cebpf4jnsgd1na2vs0mg"},{"bike_id":"312ffda6-57ec-493a-a409-1ceba4974ee9","system_id":"levelo_inurba_marseille","lat":43.31169,"lon":5.38723,"is_reserved":false,"is_disabled":false,"rental_uris":{"android":"levelo://app?vid=312ffda6-57ec-493a-a409-1ceba4974ee9","ios":"levelo://app?vid=312ffda6-57ec-493a-a409-1ceba4974ee9"},"vehicle_type_id":"4","last_reported":1739580302,"current_range_meters":31200,"station_id":"ce4bgv12rcd13ifvqcp0","pricing_plan_id":"cebpf4jnsgd1na2vs0mg"},{"bike_id":"7c250b8e-1ac6-4c71-8022-0dac0b00c713","system_id":"levelo_inurba_marseille","lat":43.310721,"lon":5.383401,"is_reserved":false,"is_disabled":false,"rental_uris":{"android":"levelo://app?vid=7c250b8e-1ac6-4c71-8022-0dac0b00c713","ios":"levelo://app?vid=7c250b8e-1ac6-4c71-8022-0dac0b00c713"},"vehicle_type_id":"4","last_reported":1739580302,"current_range_meters":38400,"station_id":"ce4bgv92rcd13ifvqcr0","pricing_plan_id":"cebpf4jnsgd1na2vs0mg"},{"bike_id":"14b1b08f-4458-49f9-89ff-4f2d0bf34264","system_id":"levelo_inurba_marseille","lat":43.290295,"lon":5.386552,"is_reserved":false,"is_disabled":false,"rental_uris":{"android":"levelo://app?vid=14b1b08f-4458-49f9-89ff-4f2d0bf34264","ios":"levelo://app?vid=14b1b08f-4458-49f9-89ff-4f2d0bf34264"},"vehicle_type_id":"4","last_reported":1739580302,"current_range_meters":28000,"station_id":"ce4bh4p2rcd13ifvqe0g","pricing_plan_id":"cebpf4jnsgd1na2vs0mg"},{"bike_id":"a30a2e4b-bdf2-47be-8d36-867c9157f403","system_id":"levelo_inurba_marseille","lat":43.28617,"lon":5.35101,"is_reserved":false,"is_disabled":false,"rental_uris":{"android":"levelo://app?vid=a30a2e4b-bdf2-47be-8d36-867c9157f403","ios":"levelo://app?vid=a30a2e4b-bdf2-47be-8d36-867c9157f403"},"vehicle_type_id":"4","last_reported":1739580302,"current_range_meters":28800,"station_id":"ce4bhch2rcd13ifvqeug","pricing_plan_id":"cebpf4jnsgd1na2vs0mg"},{"bike_id":"e4d2c3d2-dee8-46c7-936e-eff6b8003875","system_id":"levelo_inurba_marseille","lat":43.27951,"lon":5.41042,"is_reserved":false,"is_disabled":false,"rental_uris":{"android":"levelo://app?vid=e4d2c3d2-dee8-46c7-936e-eff6b8003875","ios":"levelo://app?vid=e4d2c3d2-dee8-46c7-936e-eff6b8003875"},"vehicle_type_id":"4","last_reported":1739580302,"current_range_meters":32800,"station_id":"ce4bhnp2rcd13ifvqh0g","pricing_plan_id":"cebpf4jnsgd1na2vs0mg"},{"bike_id":"77f50df8-ca25-4b79-92ea-d528f76431b1","system_id":"levelo_inurba_marseille","lat":43.292593,"lon":5.436443,"is_reserved":false,"is_disabled":true,"rental_uris":{"android":"levelo://app?vid=77f50df8-ca25-4b79-92ea-d528f76431b1","ios":"levelo://app?vid=77f50df8-ca25-4b79-92ea-d528f76431b1"},"vehicle_type_id":"4","last_reported":1739580302,"current_range_meters":0,"station_id":"","pricing_plan_id":"cebpf4jnsgd1na2vs0mg"},{"bike_id":"ba6ee90b-9d94-4f43-8358-366faab5901e","system_id":"levelo_inurba_marseille","lat":43.28071,"lon":5.39645,"is_reserved":false,"is_disabled":false,"rental_uris":{"android":"levelo://app?vid=ba6ee90b-9d94-4f43-8358-366faab5901e","ios":"levelo://app?vid=ba6ee90b-9d94-4f43-8358-366faab5901e"},"vehicle_type_id":"4","last_reported":1739580302,"current_range_meters":36800,"station_id":"ce4bho12rcd13ifvqh2g","pricing_plan_id":"cebpf4jnsgd1na2vs0mg"},{"bike_id":"fe0f12a8-8d62-4d79-b629-bda6901e6297","system_id":"levelo_inurba_marseille","lat":43.26961,"lon":5.40257,"is_reserved":false,"is_disabled":true,"rental_uris":{"android":"levelo://app?vid=fe0f12a8-8d62-4d79-b629-bda6901e6297","ios":"levelo://app?vid=fe0f12a8-8d62-4d79-b629-bda6901e6297"},"vehicle_type_id":"4","last_reported":1739580302,"current_range_meters":34000,"station_id":"cjm6bp8fraef2m0cb0m0","pricing_plan_id":"cebpf4jnsgd1na2vs0mg"},{"bike_id":"469df817-c238-4d61-8781-dabb1a74fb52","system_id":"levelo_inurba_marseille","lat":43.30586,"lon":5.37238,"is_reserved":false,"is_disabled":false,"rental_uris":{"android":"levelo://app?vid=469df817-c238-4d61-8781-dabb1a74fb52","ios":"levelo://app?vid=469df817-c238-4d61-8781-dabb1a74fb52"},"vehicle_type_id":"4","last_reported":1739580302,"current_range_meters":35600,"station_id":"ce4bgqh2rcd13ifvqc4g","pricing_plan_id":"cebpf4jnsgd1na2vs0mg"},{"bike_id":"e444e49e-a9e0-4183-b573-4550baa4a888","system_id":"levelo_inurba_marseille","lat":43.29283,"lon":5.36845,"is_reserved":false,"is_disabled":false,"rental_uris":{"android":"levelo://app?vid=e444e49e-a9e0-4183-b573-4550baa4a888","ios":"levelo://app?vid=e444e49e-a9e0-4183-b573-4550baa4a888"},"vehicle_type_id":"4","last_reported":1739580302,"current_range_meters":27200,"station_id":"ce4bhbp2rcd13ifvqesg","pricing_plan_id":"cebpf4jnsgd1na2vs0mg"},{"bike_id":"5429a055-5c17-4863-ac08-ee7234bc7af8","system_id":"levelo_inurba_marseille","lat":43.32268,"lon":5.36832,"is_reserved":false,"is_disabled":false,"rental_uris":{"android":"levelo://app?vid=5429a055-5c17-4863-ac08-ee7234bc7af8","ios":"levelo://app?vid=5429a055-5c17-4863-ac08-ee7234bc7af8"},"vehicle_type_id":"4","last_reported":1739580302,"current_range_meters":35600,"station_id":"","pricing_plan_id":"cebpf4jnsgd1na2vs0mg"},{"bike_id":"e8f6c017-1b35-4d56-94ed-ae2dffef586d","system_id":"levelo_inurba_marseille","lat":43.30584,"lon":5.37222,"is_reserved":false,"is_disabled":false,"rental_uris":{"android":"levelo://app?vid=e8f6c017-1b35-4d56-94ed-ae2dffef586d","ios":"levelo://app?vid=e8f6c017-1b35-4d56-94ed-ae2dffef586d"},"vehicle_type_id":"4","last_reported":1739580302,"current_range_meters":38800,"station_id":"ce4bgqh2rcd13ifvqc4g","pricing_plan_id":"cebpf4jnsgd1na2vs0mg"},{"bike_id":"043c3f00-95e0-44f1-8f8f-49251bf9d051","system_id":"levelo_inurba_marseille","lat":43.24795,"lon":5.37461,"is_reserved":false,"is_disabled":false,"rental_uris":{"android":"levelo://app?vid=043c3f00-95e0-44f1-8f8f-49251bf9d051","ios":"levelo://app?vid=043c3f00-95e0-44f1-8f8f-49251bf9d051"},"vehicle_type_id":"4","last_reported":1739580302,"current_range_meters":39200,"station_id":"ce4bhgh2rcd13ifvqfb0","pricing_plan_id":"cebpf4jnsgd1na2vs0mg"},{"bike_id":"99bf1d95-622d-4147-80da-b1ea756aaa2e","system_id":"levelo_inurba_marseille","lat":43.22934,"lon":5.35381,"is_reserved":false,"is_disabled":false,"rental_uris":{"android":"levelo://app?vid=99bf1d95-622d-4147-80da-b1ea756aaa2e","ios":"levelo://app?vid=99bf1d95-622d-4147-80da-b1ea756aaa2e"},"vehicle_type_id":"4","last_reported":1739580302,"current_range_meters":8000,"station_id":"cpo3532slgdg3j2ikp40","pricing_plan_id":"cebpf4jnsgd1na2vs0mg"},{"bike_id":"ec8570bc-ba11-4f76-bc33-6a49744cc66f","system_id":"levelo_inurba_marseille","lat":43.28927,"lon":5.36639,"is_reserved":false,"is_disabled":false,"rental_uris":{"android":"levelo://app?vid=ec8570bc-ba11-4f76-bc33-6a49744cc66f","ios":"levelo://app?vid=ec8570bc-ba11-4f76-bc33-6a49744cc66f"},"vehicle_type_id":"4","last_reported":1739580302,"current_range_meters":22800,"station_id":"ce4bhap2rcd13ifvqek0","pricing_plan_id":"cebpf4jnsgd1na2vs0mg"},{"bike_id":"711a6eb2-05c7-4789-87c7-6cb301fd4d69","system_id":"levelo_inurba_marseille","lat":43.2953,"lon":5.38533,"is_reserved":false,"is_disabled":true,"rental_uris":{"android":"levelo://app?vid=711a6eb2-05c7-4789-87c7-6cb301fd4d69","ios":"levelo://app?vid=711a6eb2-05c7-4789-87c7-6cb301fd4d69"},"vehicle_type_id":"4","last_reported":1739580302,"current_range_meters":38800,"station_id":"ce4bgih2rcd13ifvqba0","pricing_plan_id":"cebpf4jnsgd1na2vs0mg"},{"bike_id":"e402a8e4-ebda-4d26-978e-bee19ac53a59","system_id":"levelo_inurba_marseille","lat":43.29841,"lon":5.36295,"is_reserved":false,"is_disabled":false,"rental_uris":{"android":"levelo://app?vid=e402a8e4-ebda-4d26-978e-bee19ac53a59","ios":"levelo://app?vid=e402a8e4-ebda-4d26-978e-bee19ac53a59"},"vehicle_type_id":"4","last_reported":1739580302,"current_range_meters":38800,"station_id":"ce4bgpp2rcd13ifvqc3g","pricing_plan_id":"cebpf4jnsgd1na2vs0mg"},{"bike_id":"e171f5b3-3051-4cca-a8d4-ea41c1bf99e6","system_id":"levelo_inurba_marseille","lat":43.30944,"lon":5.39041,"is_reserved":false,"is_disabled":false,"rental_uris":{"android":"levelo://app?vid=e171f5b3-3051-4cca-a8d4-ea41c1bf99e6","ios":"levelo://app?vid=e171f5b3-3051-4cca-a8d4-ea41c1bf99e6"},"vehicle_type_id":"4","last_reported":1739580302,"current_range_meters":25200,"station_id":"ce4bgup2rcd13ifvqco0","pricing_plan_id":"cebpf4jnsgd1na2vs0mg"},{"bike_id":"981f0c84-c763-4744-ab7e-6d6374d30546","system_id":"levelo_inurba_marseille","lat":43.25579,"lon":5.37867,"is_reserved":false,"is_disabled":false,"rental_uris":{"android":"levelo://app?vid=981f0c84-c763-4744-ab7e-6d6374d30546","ios":"levelo://app?vid=981f0c84-c763-4744-ab7e-6d6374d30546"},"vehicle_type_id":"4","last_reported":1739580302,"current_range_meters":39200,"station_id":"ce4bhh12rcd13ifvqff0","pricing_plan_id":"cebpf4jnsgd1na2vs0mg"},{"bike_id":"cf32f974-176f-413e-ae8d-12ed37a9cd2b","system_id":"levelo_inurba_marseille","lat":43.28891,"lon":5.42882,"is_reserved":false,"is_disabled":false,"rental_uris":{"android":"levelo://app?vid=cf32f974-176f-413e-ae8d-12ed37a9cd2b","ios":"levelo://app?vid=cf32f974-176f-413e-ae8d-12ed37a9cd2b"},"vehicle_type_id":"4","last_reported":1739580302,"current_range_meters":9200,"station_id":"","pricing_plan_id":"cebpf4jnsgd1na2vs0mg"},{"bike_id":"c4c30d43-c99a-4375-b69e-29accecccae5","system_id":"levelo_inurba_marseille","lat":43.31171,"lon":5.38713,"is_reserved":false,"is_disabled":false,"rental_uris":{"android":"levelo://app?vid=c4c30d43-c99a-4375-b69e-29accecccae5","ios":"levelo://app?vid=c4c30d43-c99a-4375-b69e-29accecccae5"},"vehicle_type_id":"4","last_reported":1739580302,"current_range_meters":37600,"station_id":"ce4bgv12rcd13ifvqcp0","pricing_plan_id":"cebpf4jnsgd1na2vs0mg"},{"bike_id":"24c9fd7a-dfb5-4755-9c33-7fb2bb66a39c","system_id":"levelo_inurba_marseille","lat":43.31213,"lon":5.37378,"is_reserved":false,"is_disabled":false,"rental_uris":{"android":"levelo://app?vid=24c9fd7a-dfb5-4755-9c33-7fb2bb66a39c","ios":"levelo://app?vid=24c9fd7a-dfb5-4755-9c33-7fb2bb66a39c"},"vehicle_type_id":"4","last_reported":1739580302,"current_range_meters":6000,"station_id":"","pricing_plan_id":"cebpf4jnsgd1na2vs0mg"},{"bike_id":"e9a30c3e-6fb2-4962-82c7-9a735901f852","system_id":"levelo_inurba_marseille","lat":43.336005,"lon":5.410223,"is_reserved":false,"is_disabled":false,"rental_uris":{"android":"levelo://app?vid=e9a30c3e-6fb2-4962-82c7-9a735901f852","ios":"levelo://app?vid=e9a30c3e-6fb2-4962-82c7-9a735901f852"},"vehicle_type_id":"4","last_reported":1739580302,"current_range_meters":28800,"station_id":"ce4bhqh2rcd13ifvqhmg","pricing_plan_id":"cebpf4jnsgd1na2vs0mg"},{"bike_id":"f3577e40-d3b4-4c9c-af82-d1b37865ee10","system_id":"levelo_inurba_marseille","lat":43.25568,"lon":5.38239,"is_reserved":false,"is_disabled":false,"rental_uris":{"android":"levelo://app?vid=f3577e40-d3b4-4c9c-af82-d1b37865ee10","ios":"levelo://app?vid=f3577e40-d3b4-4c9c-af82-d1b37865ee10"},"vehicle_type_id":"4","last_reported":1739580302,"current_range_meters":6000,"station_id":"ce4bhih2rcd13ifvqfs0","pricing_plan_id":"cebpf4jnsgd1na2vs0mg"},{"bike_id":"874dd984-fd21-4c8c-8287-96918232b6c4","system_id":"levelo_inurba_marseille","lat":43.27983,"lon":5.40014,"is_reserved":false,"is_disabled":true,"rental_uris":{"android":"levelo://app?vid=874dd984-fd21-4c8c-8287-96918232b6c4","ios":"levelo://app?vid=874dd984-fd21-4c8c-8287-96918232b6c4"},"vehicle_type_id":"4","last_reported":1739580302,"current_range_meters":9200,"station_id":"ce4bho92rcd13ifvqh4g","pricing_plan_id":"cebpf4jnsgd1na2vs0mg"},{"bike_id":"ab99bedb-37ca-40c8-8b61-3ea4d56ed0c7","system_id":"levelo_inurba_marseille","lat":43.27174,"lon":5.40991,"is_reserved":false,"is_disabled":false,"rental_uris":{"android":"levelo://app?vid=ab99bedb-37ca-40c8-8b61-3ea4d56ed0c7","ios":"levelo://app?vid=ab99bedb-37ca-40c8-8b61-3ea4d56ed0c7"},"vehicle_type_id":"4","last_reported":1739580302,"current_range_meters":4800,"station_id":"ce4bhl12rcd13ifvqgf0","pricing_plan_id":"cebpf4jnsgd1na2vs0mg"},{"bike_id":"53b5f8d9-591b-4722-8b93-d03568f78034","system_id":"levelo_inurba_marseille","lat":43.28477,"lon":5.35885,"is_reserved":false,"is_disabled":false,"rental_uris":{"android":"levelo://app?vid=53b5f8d9-591b-4722-8b93-d03568f78034","ios":"levelo://app?vid=53b5f8d9-591b-4722-8b93-d03568f78034"},"vehicle_type_id":"4","last_reported":1739580302,"current_range_meters":27600,"station_id":"ce4bhah2rcd13ifvqei0","pricing_plan_id":"cebpf4jnsgd1na2vs0mg"},{"bike_id":"3bc8b4ea-eacc-4ce1-b721-3d0204c64466","system_id":"levelo_inurba_marseille","lat":43.25822,"lon":5.39439,"is_reserved":false,"is_disabled":false,"rental_uris":{"android":"levelo://app?vid=3bc8b4ea-eacc-4ce1-b721-3d0204c64466","ios":"levelo://app?vid=3bc8b4ea-eacc-4ce1-b721-3d0204c64466"},"vehicle_type_id":"4","last_reported":1739580302,"current_range_meters":10800,"station_id":"ce4bhip2rcd13ifvqft0","pricing_plan_id":"cebpf4jnsgd1na2vs0mg"},{"bike_id":"d1e80e0a-91e5-48aa-97cb-242d154a9f64","system_id":"levelo_inurba_marseille","lat":43.25476,"lon":5.37645,"is_reserved":false,"is_disabled":false,"rental_uris":{"android":"levelo://app?vid=d1e80e0a-91e5-48aa-97cb-242d154a9f64","ios":"levelo://app?vid=d1e80e0a-91e5-48aa-97cb-242d154a9f64"},"vehicle_type_id":"4","last_reported":1739580302,"current_range_meters":20800,"station_id":"ce4bhh12rcd13ifvqff0","pricing_plan_id":"cebpf4jnsgd1na2vs0mg"},{"bike_id":"4fc2ab45-7da1-498c-ace8-56cf0c9de688","system_id":"levelo_inurba_marseille","lat":43.30893,"lon":5.39639,"is_reserved":false,"is_disabled":false,"rental_uris":{"android":"levelo://app?vid=4fc2ab45-7da1-498c-ace8-56cf0c9de688","ios":"levelo://app?vid=4fc2ab45-7da1-498c-ace8-56cf0c9de688"},"vehicle_type_id":"4","last_reported":1739580302,"current_range_meters":27200,"station_id":"ce4bh012rcd13ifvqcv0","pricing_plan_id":"cebpf4jnsgd1na2vs0mg"},{"bike_id":"d32944a9-7b6a-481b-b5ae-b9087c505051","system_id":"levelo_inurba_marseille","lat":43.28723,"lon":5.37938,"is_reserved":false,"is_disabled":false,"rental_uris":{"android":"levelo://app?vid=d32944a9-7b6a-481b-b5ae-b9087c505051","ios":"levelo://app?vid=d32944a9-7b6a-481b-b5ae-b9087c505051"},"vehicle_type_id":"4","last_reported":1739580302,"current_range_meters":24400,"station_id":"ce4bh9p2rcd13ifvqec0","pricing_plan_id":"cebpf4jnsgd1na2vs0mg"},{"bike_id":"46f5d451-43bc-4724-ba4c-4c1a9fede2df","system_id":"levelo_inurba_marseille","lat":43.28417,"lon":5.37575,"is_reserved":false,"is_disabled":false,"rental_uris":{"android":"levelo://app?vid=46f5d451-43bc-4724-ba4c-4c1a9fede2df","ios":"levelo://app?vid=46f5d451-43bc-4724-ba4c-4c1a9fede2df"},"vehicle_type_id":"4","last_reported":1739580302,"current_range_meters":24400,"station_id":"ce4bh412rcd13ifvqds0","pricing_plan_id":"cebpf4jnsgd1na2vs0mg"},{"bike_id":"1033cf1d-9cf7-4be7-a6ad-b44ae9aed54f","system_id":"levelo_inurba_marseille","lat":43.28677,"lon":5.38668,"is_reserved":false,"is_disabled":false,"rental_uris":{"android":"levelo://app?vid=1033cf1d-9cf7-4be7-a6ad-b44ae9aed54f","ios":"levelo://app?vid=1033cf1d-9cf7-4be7-a6ad-b44ae9aed54f"},"vehicle_type_id":"4","last_reported":1739580302,"current_range_meters":10800,"station_id":"ce4bh492rcd13ifvqdug","pricing_plan_id":"cebpf4jnsgd1na2vs0mg"},{"bike_id":"e5e5a17e-27a5-454b-904b-e271a7fe6a76","system_id":"levelo_inurba_marseille","lat":43.2808,"lon":5.396524,"is_reserved":false,"is_disabled":false,"rental_uris":{"android":"levelo://app?vid=e5e5a17e-27a5-454b-904b-e271a7fe6a76","ios":"levelo://app?vid=e5e5a17e-27a5-454b-904b-e271a7fe6a76"},"vehicle_type_id":"4","last_reported":1739580302,"current_range_meters":39200,"station_id":"ce4bho12rcd13ifvqh2g","pricing_plan_id":"cebpf4jnsgd1na2vs0mg"},{"bike_id":"cce849e2-5aae-4abd-b4a5-1fbedf6b5d17","system_id":"levelo_inurba_marseille","lat":43.3169,"lon":5.37753,"is_reserved":false,"is_disabled":false,"rental_uris":{"android":"levelo://app?vid=cce849e2-5aae-4abd-b4a5-1fbedf6b5d17","ios":"levelo://app?vid=cce849e2-5aae-4abd-b4a5-1fbedf6b5d17"},"vehicle_type_id":"4","last_reported":1739580302,"current_range_meters":38800,"station_id":"ce4bgth2rcd13ifvqch0","pricing_plan_id":"cebpf4jnsgd1na2vs0mg"},{"bike_id":"ddf1d674-41d6-443f-b0f1-1da7df267862","system_id":"levelo_inurba_marseille","lat":43.23052,"lon":5.35489,"is_reserved":false,"is_disabled":false,"rental_uris":{"android":"levelo://app?vid=ddf1d674-41d6-443f-b0f1-1da7df267862","ios":"levelo://app?vid=ddf1d674-41d6-443f-b0f1-1da7df267862"},"vehicle_type_id":"4","last_reported":1739580302,"current_range_meters":24000,"station_id":"cpo3342slgdg3j2ifvpg","pricing_plan_id":"cebpf4jnsgd1na2vs0mg"},{"bike_id":"0473422f-40b1-4c55-81a1-1f0832f4e6b9","system_id":"levelo_inurba_marseille","lat":43.30922,"lon":5.40144,"is_reserved":false,"is_disabled":false,"rental_uris":{"android":"levelo://app?vid=0473422f-40b1-4c55-81a1-1f0832f4e6b9","ios":"levelo://app?vid=0473422f-40b1-4c55-81a1-1f0832f4e6b9"},"vehicle_type_id":"4","last_reported":1739580302,"current_range_meters":10800,"station_id":"ce4bgvp2rcd13ifvqct0","pricing_plan_id":"cebpf4jnsgd1na2vs0mg"},{"bike_id":"46f7dd7f-3698-4a4b-84b6-cdfa84e75594","system_id":"levelo_inurba_marseille","lat":43.23962,"lon":5.36632,"is_reserved":false,"is_disabled":false,"rental_uris":{"android":"levelo://app?vid=46f7dd7f-3698-4a4b-84b6-cdfa84e75594","ios":"levelo://app?vid=46f7dd7f-3698-4a4b-84b6-cdfa84e75594"},"vehicle_type_id":"4","last_reported":1739580302,"current_range_meters":28800,"station_id":"ce4bhi12rcd13ifvqfp0","pricing_plan_id":"cebpf4jnsgd1na2vs0mg"},{"bike_id":"78be6242-0c31-4932-9bea-7d041837b9fe","system_id":"levelo_inurba_marseille","lat":43.3134,"lon":5.39701,"is_reserved":false,"is_disabled":false,"rental_uris":{"android":"levelo://app?vid=78be6242-0c31-4932-9bea-7d041837b9fe","ios":"levelo://app?vid=78be6242-0c31-4932-9bea-7d041837b9fe"},"vehicle_type_id":"4","last_reported":1739580302,"current_range_meters":38800,"station_id":"ce4bgvp2rcd13ifvqcu0","pricing_plan_id":"cebpf4jnsgd1na2vs0mg"},{"bike_id":"1d338ad1-350b-4704-9d79-1547ea97dd8e","system_id":"levelo_inurba_marseille","lat":43.31067,"lon":5.38356,"is_reserved":false,"is_disabled":false,"rental_uris":{"android":"levelo://app?vid=1d338ad1-350b-4704-9d79-1547ea97dd8e","ios":"levelo://app?vid=1d338ad1-350b-4704-9d79-1547ea97dd8e"},"vehicle_type_id":"4","last_reported":1739580302,"current_range_meters":33600,"station_id":"ce4bgv92rcd13ifvqcr0","pricing_plan_id":"cebpf4jnsgd1na2vs0mg"},{"bike_id":"c9645a26-5874-480f-a11e-46d2257542e0","system_id":"levelo_inurba_marseille","lat":43.27552,"lon":5.38671,"is_reserved":false,"is_disabled":false,"rental_uris":{"android":"levelo://app?vid=c9645a26-5874-480f-a11e-46d2257542e0","ios":"levelo://app?vid=c9645a26-5874-480f-a11e-46d2257542e0"},"vehicle_type_id":"4","last_reported":1739580302,"current_range_meters":31200,"station_id":"","pricing_plan_id":"cebpf4jnsgd1na2vs0mg"},{"bike_id":"4450d397-c7c4-4c68-aed9-fa811598c082","system_id":"levelo_inurba_marseille","lat":43.32543,"lon":5.365097,"is_reserved":false,"is_disabled":false,"rental_uris":{"android":"levelo://app?vid=4450d397-c7c4-4c68-aed9-fa811598c082","ios":"levelo://app?vid=4450d397-c7c4-4c68-aed9-fa811598c082"},"vehicle_type_id":"4","last_reported":1739580302,"current_range_meters":28000,"station_id":"","pricing_plan_id":"cebpf4jnsgd1na2vs0mg"},{"bike_id":"aa31df00-ff02-4d7d-b963-97d93bff2189","system_id":"levelo_inurba_marseille","lat":43.30312,"lon":5.40436,"is_reserved":false,"is_disabled":false,"rental_uris":{"android":"levelo://app?vid=aa31df00-ff02-4d7d-b963-97d93bff2189","ios":"levelo://app?vid=aa31df00-ff02-4d7d-b963-97d93bff2189"},"vehicle_type_id":"4","last_reported":1739580302,"current_range_meters":14400,"station_id":"ce4bh012rcd13ifvqd10","pricing_plan_id":"cebpf4jnsgd1na2vs0mg"},{"bike_id":"28a16aee-71d6-4cb1-b35a-d4320a6bf584","system_id":"levelo_inurba_marseille","lat":43.32352,"lon":5.38873,"is_reserved":false,"is_disabled":false,"rental_uris":{"android":"levelo://app?vid=28a16aee-71d6-4cb1-b35a-d4320a6bf584","ios":"levelo://app?vid=28a16aee-71d6-4cb1-b35a-d4320a6bf584"},"vehicle_type_id":"4","last_reported":1739580302,"current_range_meters":20800,"station_id":"ce4bhqp2rcd13ifvqhog","pricing_plan_id":"cebpf4jnsgd1na2vs0mg"},{"bike_id":"59cb679e-245c-46b7-bc74-dfa7c14bb16c","system_id":"levelo_inurba_marseille","lat":43.28998,"lon":5.35618,"is_reserved":false,"is_disabled":true,"rental_uris":{"android":"levelo://app?vid=59cb679e-245c-46b7-bc74-dfa7c14bb16c","ios":"levelo://app?vid=59cb679e-245c-46b7-bc74-dfa7c14bb16c"},"vehicle_type_id":"4","last_reported":1739580302,"current_range_meters":38800,"station_id":"ce4bhb92rcd13ifvqen0","pricing_plan_id":"cebpf4jnsgd1na2vs0mg"},{"bike_id":"b24f3555-58eb-4b73-aeb8-7954d82e3761","system_id":"levelo_inurba_marseille","lat":43.28028,"lon":5.3695,"is_reserved":false,"is_disabled":false,"rental_uris":{"android":"levelo://app?vid=b24f3555-58eb-4b73-aeb8-7954d82e3761","ios":"levelo://app?vid=b24f3555-58eb-4b73-aeb8-7954d82e3761"},"vehicle_type_id":"4","last_reported":1739580302,"current_range_meters":38800,"station_id":"ce4bha12rcd13ifvqef0","pricing_plan_id":"cebpf4jnsgd1na2vs0mg"},{"bike_id":"a8bc8483-ceef-456e-92ec-efcc9ae8cb95","system_id":"levelo_inurba_marseille","lat":43.27604,"lon":5.36125,"is_reserved":false,"is_disabled":false,"rental_uris":{"android":"levelo://app?vid=a8bc8483-ceef-456e-92ec-efcc9ae8cb95","ios":"levelo://app?vid=a8bc8483-ceef-456e-92ec-efcc9ae8cb95"},"vehicle_type_id":"4","last_reported":1739580302,"current_range_meters":36400,"station_id":"ce4bgj92rcd13ifvqbe0","pricing_plan_id":"cebpf4jnsgd1na2vs0mg"},{"bike_id":"b8b94f73-c969-495b-9e6f-2787088fcbf3","system_id":"levelo_inurba_marseille","lat":43.28851,"lon":5.39313,"is_reserved":false,"is_disabled":false,"rental_uris":{"android":"levelo://app?vid=b8b94f73-c969-495b-9e6f-2787088fcbf3","ios":"levelo://app?vid=b8b94f73-c969-495b-9e6f-2787088fcbf3"},"vehicle_type_id":"4","last_reported":1739580302,"current_range_meters":34000,"station_id":"ce4bh2p2rcd13ifvqdi0","pricing_plan_id":"cebpf4jnsgd1na2vs0mg"},{"bike_id":"34c7500b-27c2-4f36-83ee-9d994a6b7ebd","system_id":"levelo_inurba_marseille","lat":43.28401,"lon":5.37517,"is_reserved":false,"is_disabled":false,"rental_uris":{"android":"levelo://app?vid=34c7500b-27c2-4f36-83ee-9d994a6b7ebd","ios":"levelo://app?vid=34c7500b-27c2-4f36-83ee-9d994a6b7ebd"},"vehicle_type_id":"4","last_reported":1739580302,"current_range_meters":20400,"station_id":"ce4bh412rcd13ifvqds0","pricing_plan_id":"cebpf4jnsgd1na2vs0mg"},{"bike_id":"b7675672-ea91-4212-a3c2-1e75ea117425","system_id":"levelo_inurba_marseille","lat":43.28163,"lon":5.42615,"is_reserved":false,"is_disabled":true,"rental_uris":{"android":"levelo://app?vid=b7675672-ea91-4212-a3c2-1e75ea117425","ios":"levelo://app?vid=b7675672-ea91-4212-a3c2-1e75ea117425"},"vehicle_type_id":"4","last_reported":1739580302,"current_range_meters":0,"station_id":"ce4bhnh2rcd13ifvqgug","pricing_plan_id":"cebpf4jnsgd1na2vs0mg"},{"bike_id":"493510fe-4dc9-46ce-be7b-b29be1d4dae7","system_id":"levelo_inurba_marseille","lat":43.30045,"lon":5.36383,"is_reserved":false,"is_disabled":false,"rental_uris":{"android":"levelo://app?vid=493510fe-4dc9-46ce-be7b-b29be1d4dae7","ios":"levelo://app?vid=493510fe-4dc9-46ce-be7b-b29be1d4dae7"},"vehicle_type_id":"4","last_reported":1739580302,"current_range_meters":4000,"station_id":"","pricing_plan_id":"cebpf4jnsgd1na2vs0mg"},{"bike_id":"8cd34743-59ad-4597-983e-df465622bf8b","system_id":"levelo_inurba_marseille","lat":43.28684,"lon":5.3867,"is_reserved":false,"is_disabled":false,"rental_uris":{"android":"levelo://app?vid=8cd34743-59ad-4597-983e-df465622bf8b","ios":"levelo://app?vid=8cd34743-59ad-4597-983e-df465622bf8b"},"vehicle_type_id":"4","last_reported":1739580302,"current_range_meters":38800,"station_id":"ce4bh492rcd13ifvqdug","pricing_plan_id":"cebpf4jnsgd1na2vs0mg"},{"bike_id":"4a748c56-9468-4127-a388-0db3ab5f13d4","system_id":"levelo_inurba_marseille","lat":43.29089,"lon":5.38151,"is_reserved":false,"is_disabled":false,"rental_uris":{"android":"levelo://app?vid=4a748c56-9468-4127-a388-0db3ab5f13d4","ios":"levelo://app?vid=4a748c56-9468-4127-a388-0db3ab5f13d4"},"vehicle_type_id":"4","last_reported":1739580302,"current_range_meters":36800,"station_id":"ce4bh512rcd13ifvqe2g","pricing_plan_id":"cebpf4jnsgd1na2vs0mg"},{"bike_id":"4df18ca1-d2d5-4e4f-84ca-1aa5f2e07468","system_id":"levelo_inurba_marseille","lat":43.28002,"lon":5.40008,"is_reserved":false,"is_disabled":false,"rental_uris":{"android":"levelo://app?vid=4df18ca1-d2d5-4e4f-84ca-1aa5f2e07468","ios":"levelo://app?vid=4df18ca1-d2d5-4e4f-84ca-1aa5f2e07468"},"vehicle_type_id":"4","last_reported":1739580302,"current_range_meters":5600,"station_id":"ce4bho92rcd13ifvqh4g","pricing_plan_id":"cebpf4jnsgd1na2vs0mg"},{"bike_id":"62862006-05b4-4c32-b74d-3d73ca0f3a49","system_id":"levelo_inurba_marseille","lat":43.29493,"lon":5.36395,"is_reserved":false,"is_disabled":true,"rental_uris":{"android":"levelo://app?vid=62862006-05b4-4c32-b74d-3d73ca0f3a49","ios":"levelo://app?vid=62862006-05b4-4c32-b74d-3d73ca0f3a49"},"vehicle_type_id":"4","last_reported":1739580302,"current_range_meters":24400,"station_id":"","pricing_plan_id":"cebpf4jnsgd1na2vs0mg"},{"bike_id":"92d1ee13-e974-447f-aca6-7b5bff8f8b19","system_id":"levelo_inurba_marseille","lat":43.28071,"lon":5.39664,"is_reserved":false,"is_disabled":false,"rental_uris":{"android":"levelo://app?vid=92d1ee13-e974-447f-aca6-7b5bff8f8b19","ios":"levelo://app?vid=92d1ee13-e974-447f-aca6-7b5bff8f8b19"},"vehicle_type_id":"4","last_reported":1739580302,"current_range_meters":38800,"station_id":"ce4bho12rcd13ifvqh2g","pricing_plan_id":"cebpf4jnsgd1na2vs0mg"},{"bike_id":"55c71887-75ae-440f-aed8-5a0380896118","system_id":"levelo_inurba_marseille","lat":43.298501,"lon":5.362921,"is_reserved":false,"is_disabled":true,"rental_uris":{"android":"levelo://app?vid=55c71887-75ae-440f-aed8-5a0380896118","ios":"levelo://app?vid=55c71887-75ae-440f-aed8-5a0380896118"},"vehicle_type_id":"4","last_reported":1739580302,"current_range_meters":34800,"station_id":"ce4bgpp2rcd13ifvqc3g","pricing_plan_id":"cebpf4jnsgd1na2vs0mg"},{"bike_id":"bd17c149-7a64-442c-bad3-25faab1e1d15","system_id":"levelo_inurba_marseille","lat":43.30297,"lon":5.39204,"is_reserved":false,"is_disabled":true,"rental_uris":{"android":"levelo://app?vid=bd17c149-7a64-442c-bad3-25faab1e1d15","ios":"levelo://app?vid=bd17c149-7a64-442c-bad3-25faab1e1d15"},"vehicle_type_id":"4","last_reported":1739580302,"current_range_meters":37600,"station_id":"ce4bgkh2rcd13ifvqbk0","pricing_plan_id":"cebpf4jnsgd1na2vs0mg"},{"bike_id":"c75516b5-09d7-4afc-aeb6-1c210275e818","system_id":"levelo_inurba_marseille","lat":43.29264,"lon":5.36848,"is_reserved":false,"is_disabled":false,"rental_uris":{"android":"levelo://app?vid=c75516b5-09d7-4afc-aeb6-1c210275e818","ios":"levelo://app?vid=c75516b5-09d7-4afc-aeb6-1c210275e818"},"vehicle_type_id":"4","last_reported":1739580302,"current_range_meters":36400,"station_id":"ce4bhbp2rcd13ifvqesg","pricing_plan_id":"cebpf4jnsgd1na2vs0mg"},{"bike_id":"5f431628-1b2d-4a9e-9493-29ef6605563f","system_id":"levelo_inurba_marseille","lat":43.29529,"lon":5.39033,"is_reserved":false,"is_disabled":true,"rental_uris":{"android":"levelo://app?vid=5f431628-1b2d-4a9e-9493-29ef6605563f","ios":"levelo://app?vid=5f431628-1b2d-4a9e-9493-29ef6605563f"},"vehicle_type_id":"4","last_reported":1739580302,"current_range_meters":38800,"station_id":"ce4bh3p2rcd13ifvqdp0","pricing_plan_id":"cebpf4jnsgd1na2vs0mg"},{"bike_id":"3760be46-9947-4266-a54f-ee253cc823c2","system_id":"levelo_inurba_marseille","lat":43.28694,"lon":5.37419,"is_reserved":false,"is_disabled":false,"rental_uris":{"android":"levelo://app?vid=3760be46-9947-4266-a54f-ee253cc823c2","ios":"levelo://app?vid=3760be46-9947-4266-a54f-ee253cc823c2"},"vehicle_type_id":"4","last_reported":1739580302,"current_range_meters":39200,"station_id":"ce4bh3p2rcd13ifvqdq0","pricing_plan_id":"cebpf4jnsgd1na2vs0mg"},{"bike_id":"dbfb7df1-d758-448c-9075-e7feb5f00d8e","system_id":"levelo_inurba_marseille","lat":43.24043,"lon":5.37714,"is_reserved":false,"is_disabled":false,"rental_uris":{"android":"levelo://app?vid=dbfb7df1-d758-448c-9075-e7feb5f00d8e","ios":"levelo://app?vid=dbfb7df1-d758-448c-9075-e7feb5f00d8e"},"vehicle_type_id":"4","last_reported":1739580302,"current_range_meters":20400,"station_id":"ce4bhnp2rcd13ifvqgvg","pricing_plan_id":"cebpf4jnsgd1na2vs0mg"},{"bike_id":"8267c286-9820-411a-a3b7-cb6a54ba45b4","system_id":"levelo_inurba_marseille","lat":43.28932,"lon":5.36409,"is_reserved":false,"is_disabled":false,"rental_uris":{"android":"levelo://app?vid=8267c286-9820-411a-a3b7-cb6a54ba45b4","ios":"levelo://app?vid=8267c286-9820-411a-a3b7-cb6a54ba45b4"},"vehicle_type_id":"4","last_reported":1739580302,"current_range_meters":37600,"station_id":"ce4bhc92rcd13ifvqetg","pricing_plan_id":"cebpf4jnsgd1na2vs0mg"},{"bike_id":"e031351b-efdb-4640-8255-b69e1640bbff","system_id":"levelo_inurba_marseille","lat":43.241633,"lon":5.363968,"is_reserved":false,"is_disabled":false,"rental_uris":{"android":"levelo://app?vid=e031351b-efdb-4640-8255-b69e1640bbff","ios":"levelo://app?vid=e031351b-efdb-4640-8255-b69e1640bbff"},"vehicle_type_id":"4","last_reported":1739580302,"current_range_meters":32000,"station_id":"cpo36qri1sfpv3e86is0","pricing_plan_id":"cebpf4jnsgd1na2vs0mg"},{"bike_id":"16c6e3a7-0ba7-48ae-b447-af0fa7ed752d","system_id":"levelo_inurba_marseille","lat":43.30801,"lon":5.38149,"is_reserved":false,"is_disabled":false,"rental_uris":{"android":"levelo://app?vid=16c6e3a7-0ba7-48ae-b447-af0fa7ed752d","ios":"levelo://app?vid=16c6e3a7-0ba7-48ae-b447-af0fa7ed752d"},"vehicle_type_id":"4","last_reported":1739580302,"current_range_meters":38800,"station_id":"ce4bgt12rcd13ifvqce0","pricing_plan_id":"cebpf4jnsgd1na2vs0mg"},{"bike_id":"435c4be5-0960-45fb-a94f-882917046b98","system_id":"levelo_inurba_marseille","lat":43.28093,"lon":5.3963,"is_reserved":false,"is_disabled":false,"rental_uris":{"android":"levelo://app?vid=435c4be5-0960-45fb-a94f-882917046b98","ios":"levelo://app?vid=435c4be5-0960-45fb-a94f-882917046b98"},"vehicle_type_id":"4","last_reported":1739580302,"current_range_meters":12000,"station_id":"ce4bho12rcd13ifvqh2g","pricing_plan_id":"cebpf4jnsgd1na2vs0mg"},{"bike_id":"b9f015dd-964f-42e6-b816-592b49d93bf3","system_id":"levelo_inurba_marseille","lat":43.245487,"lon":5.39526,"is_reserved":false,"is_disabled":false,"rental_uris":{"android":"levelo://app?vid=b9f015dd-964f-42e6-b816-592b49d93bf3","ios":"levelo://app?vid=b9f015dd-964f-42e6-b816-592b49d93bf3"},"vehicle_type_id":"4","last_reported":1739580302,"current_range_meters":9600,"station_id":"ce4bhlp2rcd13ifvqgjg","pricing_plan_id":"cebpf4jnsgd1na2vs0mg"},{"bike_id":"88a2cf63-b31e-449b-a401-bc2615645376","system_id":"levelo_inurba_marseille","lat":43.30792,"lon":5.38169,"is_reserved":false,"is_disabled":false,"rental_uris":{"android":"levelo://app?vid=88a2cf63-b31e-449b-a401-bc2615645376","ios":"levelo://app?vid=88a2cf63-b31e-449b-a401-bc2615645376"},"vehicle_type_id":"4","last_reported":1739580302,"current_range_meters":37600,"station_id":"ce4bgt12rcd13ifvqce0","pricing_plan_id":"cebpf4jnsgd1na2vs0mg"},{"bike_id":"9fb6254e-b2ad-48b8-956a-e01abf58732c","system_id":"levelo_inurba_marseille","lat":43.31328,"lon":5.39706,"is_reserved":false,"is_disabled":false,"rental_uris":{"android":"levelo://app?vid=9fb6254e-b2ad-48b8-956a-e01abf58732c","ios":"levelo://app?vid=9fb6254e-b2ad-48b8-956a-e01abf58732c"},"vehicle_type_id":"4","last_reported":1739580302,"current_range_meters":23200,"station_id":"ce4bgvp2rcd13ifvqcu0","pricing_plan_id":"cebpf4jnsgd1na2vs0mg"},{"bike_id":"bbeb47d8-43a0-4ae4-8001-a6f885f91a00","system_id":"levelo_inurba_marseille","lat":43.24063,"lon":5.37746,"is_reserved":false,"is_disabled":false,"rental_uris":{"android":"levelo://app?vid=bbeb47d8-43a0-4ae4-8001-a6f885f91a00","ios":"levelo://app?vid=bbeb47d8-43a0-4ae4-8001-a6f885f91a00"},"vehicle_type_id":"4","last_reported":1739580302,"current_range_meters":26800,"station_id":"ce4bhnp2rcd13ifvqgvg","pricing_plan_id":"cebpf4jnsgd1na2vs0mg"},{"bike_id":"5b76ad3a-410f-4799-991b-536d5aafe407","system_id":"levelo_inurba_marseille","lat":43.30527,"lon":5.36711,"is_reserved":false,"is_disabled":true,"rental_uris":{"android":"levelo://app?vid=5b76ad3a-410f-4799-991b-536d5aafe407","ios":"levelo://app?vid=5b76ad3a-410f-4799-991b-536d5aafe407"},"vehicle_type_id":"4","last_reported":1739580302,"current_range_meters":21600,"station_id":"ce4bgrp2rcd13ifvqc9g","pricing_plan_id":"cebpf4jnsgd1na2vs0mg"},{"bike_id":"caec46b6-eeb6-4c23-a532-d9ce7c511b99","system_id":"levelo_inurba_marseille","lat":43.27555,"lon":5.3842,"is_reserved":false,"is_disabled":false,"rental_uris":{"android":"levelo://app?vid=caec46b6-eeb6-4c23-a532-d9ce7c511b99","ios":"levelo://app?vid=caec46b6-eeb6-4c23-a532-d9ce7c511b99"},"vehicle_type_id":"4","last_reported":1739580302,"current_range_meters":38400,"station_id":"ce4bhh92rcd13ifvqfi0","pricing_plan_id":"cebpf4jnsgd1na2vs0mg"},{"bike_id":"d92e8167-3a99-4c33-b9fc-9dc4a8eb5da5","system_id":"levelo_inurba_marseille","lat":43.31222,"lon":5.36869,"is_reserved":false,"is_disabled":false,"rental_uris":{"android":"levelo://app?vid=d92e8167-3a99-4c33-b9fc-9dc4a8eb5da5","ios":"levelo://app?vid=d92e8167-3a99-4c33-b9fc-9dc4a8eb5da5"},"vehicle_type_id":"4","last_reported":1739580302,"current_range_meters":24800,"station_id":"ce4bgl92rcd13ifvqbq0","pricing_plan_id":"cebpf4jnsgd1na2vs0mg"},{"bike_id":"731fbe93-1c19-4e19-b9d3-b99e44bca6c5","system_id":"levelo_inurba_marseille","lat":43.29863,"lon":5.38922,"is_reserved":false,"is_disabled":false,"rental_uris":{"android":"levelo://app?vid=731fbe93-1c19-4e19-b9d3-b99e44bca6c5","ios":"levelo://app?vid=731fbe93-1c19-4e19-b9d3-b99e44bca6c5"},"vehicle_type_id":"4","last_reported":1739580302,"current_range_meters":38800,"station_id":"ce4bh392rcd13ifvqdl0","pricing_plan_id":"cebpf4jnsgd1na2vs0mg"},{"bike_id":"d8605e3c-a3ae-4ad1-8f9a-2abbdfe9efcf","system_id":"levelo_inurba_marseille","lat":43.29187,"lon":5.39313,"is_reserved":false,"is_disabled":false,"rental_uris":{"android":"levelo://app?vid=d8605e3c-a3ae-4ad1-8f9a-2abbdfe9efcf","ios":"levelo://app?vid=d8605e3c-a3ae-4ad1-8f9a-2abbdfe9efcf"},"vehicle_type_id":"4","last_reported":1739580302,"current_range_meters":16800,"station_id":"ce4bh192rcd13ifvqdd0","pricing_plan_id":"cebpf4jnsgd1na2vs0mg"},{"bike_id":"d12f3d60-2572-41eb-b8d8-c85ee406d655","system_id":"levelo_inurba_marseille","lat":43.31167,"lon":5.38718,"is_reserved":false,"is_disabled":false,"rental_uris":{"android":"levelo://app?vid=d12f3d60-2572-41eb-b8d8-c85ee406d655","ios":"levelo://app?vid=d12f3d60-2572-41eb-b8d8-c85ee406d655"},"vehicle_type_id":"4","last_reported":1739580302,"current_range_meters":37600,"station_id":"ce4bgv12rcd13ifvqcp0","pricing_plan_id":"cebpf4jnsgd1na2vs0mg"},{"bike_id":"b5f01856-3c2d-40fe-98e5-69999118237f","system_id":"levelo_inurba_marseille","lat":43.28622,"lon":5.35097,"is_reserved":false,"is_disabled":false,"rental_uris":{"android":"levelo://app?vid=b5f01856-3c2d-40fe-98e5-69999118237f","ios":"levelo://app?vid=b5f01856-3c2d-40fe-98e5-69999118237f"},"vehicle_type_id":"4","last_reported":1739580302,"current_range_meters":12000,"station_id":"ce4bhch2rcd13ifvqeug","pricing_plan_id":"cebpf4jnsgd1na2vs0mg"},{"bike_id":"57676631-bf40-4df1-90d3-bbf6345f7376","system_id":"levelo_inurba_marseille","lat":43.30883,"lon":5.39631,"is_reserved":false,"is_disabled":false,"rental_uris":{"android":"levelo://app?vid=57676631-bf40-4df1-90d3-bbf6345f7376","ios":"levelo://app?vid=57676631-bf40-4df1-90d3-bbf6345f7376"},